"lineid","car","time","location","longitude","latitude","cityid","cityname"
"234026","9371-KE","2018/01/27 17:49:32","新北市永和區永平路173號","121.510543333333","25.0090016666667","6500400","永和區"
"249005","172-UM","2018/01/27 17:49:35","新北市八里區荖阡里41號","121.40231","25.1345383333333","6502300","八里區"
"249001","173-UM","2018/01/27 17:48:51","新北市八里區龍米路二段141號","121.444398333333","25.148735","6502300","八里區"
"249004","303-UY","2018/01/27 17:49:40","新北市八里區中華路一段81巷27號","121.419676666667","25.1550583333333","6502300","八里區"
"249002","305-UY","2018/01/27 17:49:20","新北市八里區龍形五街37巷20號","121.445865","25.1338633333333","6502300","八里區"
"249003","593-UM","2018/01/27 17:49:35","新北市八里區中山路二段123號","121.405461666667","25.151875","6502300","八里區"
"248006","077-UY","2018/01/27 17:49:22","新北市五股區中興路二段37巷28號","121.460221666667","25.074985","6501500","五股區"
"248008","095-VK","2018/01/27 17:49:24","新北市五股區中興路二段37巷28號","121.460288333333","25.0750066666667","6501500","五股區"
"248020","225-UY","2018/01/27 17:49:24","新北市五股區中興路二段83巷26-6號","121.460051666667","25.0751883333333","6501500","五股區"
"232011","375-UM","2018/01/27 17:49:31","新北市坪林區北宜路八段145號","121.706816666667","24.9345166666667","6502000","坪林區"
"244013","069-UM","2018/01/27 17:49:31","新北市林口區中正路503號","121.383253333333","25.0774333333333","6501700","林口區"
"244007","080-UY","2018/01/27 17:49:26","新北市林口區林口路245號","121.386618333333","25.0840383333333","6501700","林口區"
"244019","402-UM","2018/01/27 17:49:25","新北市林口區文化一路一段89-5號","121.371966666667","25.07034","6501700","林口區"
"244009","410-SL","2018/01/27 17:49:36","新北市林口區文化一路二段285-1號","121.384868333333","25.0842966666667","6501700","林口區"
"244023","483-VK","2018/01/27 17:49:40","新北市林口區東湖路20號","121.38824","25.07416","6501700","林口區"
"244017","485-VK","2018/01/27 17:49:29","新北市林口區文化二路一段260巷9號","121.371283333333","25.0729616666667","6501700","林口區"
"244011","656-BX","2018/01/27 17:49:21","新北市林口區佳林路253號","121.382918333333","25.0761083333333","6501700","林口區"
"244021","657-BX","2018/01/27 17:49:26","新北市林口區仁愛路一段139巷20號","121.397548333333","25.0717566666667","6501700","林口區"
"244025","837-TS","2018/01/27 17:49:33","新北市林口區忠孝三路73號","121.359836666667","25.0698383333333","6501700","林口區"
"222003","016-RS","2018/01/27 17:49:33","新北市深坑區文山路三段110號","121.608286666667","24.998825","6501800","深坑區"
"222002","659-BX","2018/01/27 17:49:36","新北市深坑區平埔街22巷17弄1號","121.614901666667","25.0008683333333","6501800","深坑區"
"231046","278-BY","2018/01/27 17:49:35","新北市新店區下石厝路1號","121.531165","24.9296766666667","6500600","新店區"
"241011","013-R5","2018/01/27 17:49:37","新北市三重區河邊北街110巷31號","121.503221666667","25.0707416666667","6500200","三重區"
"241024","065-VK","2018/01/27 17:49:26","新北市三重區國道路一段39巷5號","121.483866666667","25.0729933333333","6500200","三重區"
"241005","262-UM","2018/01/27 17:49:19","新北市三重區碧華街139號","121.486413333333","25.08193","6500200","三重區"
"241016","266-UM","2018/01/27 17:49:26","新北市三重區新北大道一段3-1號","121.490443333333","25.061395","6500200","三重區"
"241003","KEA-2210","2018/01/27 17:49:35","新北市三重區自強路四段53號","121.49018","25.0780716666667","6500200","三重區"
"241033","AAC-255","2018/01/27 17:49:33","新北市三重區光復路一段5號","121.472113333333","25.0469983333333","6500200","三重區"
"235064","005-UY","2018/01/27 17:49:39","新北市中和區員山路36巷16-3號","121.485078333333","24.991365","6500300","中和區"
"247022","893-R6","2018/01/27 17:49:24","新北市蘆洲區中正路367號","121.464881666667","25.090435","6501400","蘆洲區"
"247012","546-UM","2018/01/27 17:49:26","新北市蘆洲區復興路75號","121.476176666667","25.0873333333333","6501400","蘆洲區"
"247020","500-BY","2018/01/27 17:49:28","新北市蘆洲區民義街101巷7號","121.473386666667","25.09098","6501400","蘆洲區"
"247008","341-TH","2018/01/27 17:49:23","新北市蘆洲區中山一路266號","121.4718","25.0795116666667","6501400","蘆洲區"
"247010","339-TH","2018/01/27 17:49:21","新北市蘆洲區民族路39號","121.478305","25.0852716666667","6501400","蘆洲區"
"247004","336-TH","2018/01/27 17:49:30","新北市蘆洲區長安街194巷12-1號","121.459335","25.0842416666667","6501400","蘆洲區"
"247016","057-VK","2018/01/27 17:49:24","新北市蘆洲區中正路185巷25弄10號","121.466973333333","25.0840783333333","6501400","蘆洲區"
"247006","056-VK","2018/01/27 17:49:25","新北市蘆洲區長安街22巷3弄2號","121.46442","25.0796016666667","6501400","蘆洲區"
"247002","053-VK","2018/01/27 17:49:37","新北市蘆洲區永平街32巷21弄35號","121.457851666667","25.0923333333333","6501400","蘆洲區"
"247014","007-UY","2018/01/27 17:49:25","新北市蘆洲區保和街50-8號","121.470076666667","25.0863383333333","6501400","蘆洲區"
"247024","002-UY","2018/01/27 17:49:35","新北市蘆洲區長樂路231號","121.461601666667","25.089895","6501400","蘆洲區"
"247018","001-UY","2018/01/27 17:49:34","新北市蘆洲區復興路227巷2弄2號","121.479985","25.0899716666667","6501400","蘆洲區"
"228003","097-TW","2018/01/27 17:49:22","新北市貢寮區真理里美艷山街6-2號","121.928905","25.0607433333333","6502600","貢寮區"
"228001","212-TW","2018/01/27 17:49:27","新北市貢寮區仁理村仁愛路95-1號","121.927665","25.0554633333333","6502600","貢寮區"
"228002","663-BX","2018/01/27 17:49:31","新北市貢寮區福隆里龜壽谷街11-1號","121.954021666667","25.00704","6502600","貢寮區"
"224006","676-BX","2018/01/27 17:49:20","新北市瑞芳區傑魚坑路266號","121.7887","25.1086383333333","6501200","瑞芳區"
"224009","285-BY","2018/01/27 17:49:35","新北市瑞芳區金光路374號","121.850003333333","25.1113616666667","6501200","瑞芳區"
"224008","275-VK","2018/01/27 17:49:20","新北市瑞芳區明燈路一段15號","121.823485","25.10746","6501200","瑞芳區"
"224005","271-BY","2018/01/27 17:49:35","新北市瑞芳區建基路一段70號","121.81657","25.12785","6501200","瑞芳區"
"227010","642-TC","2018/01/27 17:49:21","新北市雙溪區三貂里定福路1-2號","121.850621666667","25.06351","6502500","雙溪區"
"253006","295-VK","2018/01/27 17:49:38","新北市石門區中山路64-1號","121.567711666667","25.2903333333333","6502200","石門區"
"208002","742-BX","2018/01/27 17:49:33","新北市金山區磺清路135號","121.639295","25.2275366666667","6502700","金山區"
"208003","665-BX","2018/01/27 17:49:36","新北市金山區磺清路135號","121.639485","25.2276883333333","6502700","金山區"
"251009","008-UM","2018/01/27 17:49:22","新北市淡水區長興街29號","121.443981666667","25.17116","6501000","淡水區"
"251004","009-UM","2018/01/27 17:49:34","新北市淡水區民權一街33-3號","121.45945","25.1364183333333","6501000","淡水區"
"251013","179-VK","2018/01/27 17:49:32","新北市淡水區泉洲厝31號","121.47959","25.191045","6501000","淡水區"
"251014","180-VK","2018/01/27 17:49:24","新北市淡水區公埔子16-6號","121.48104","25.2245766666667","6501000","淡水區"
"251008","181-VK","2018/01/27 17:49:31","新北市淡水區八勢路一段156號","121.468118333333","25.1564166666667","6501000","淡水區"
"251015","182-VK","2018/01/27 17:49:28","新北市淡水區興福寮32-2號","121.490181666667","25.1639683333333","6501000","淡水區"
"251010","413-VK","2018/01/27 17:49:36","新北市淡水區中正路二段53號","121.418236666667","25.1847716666667","6501000","淡水區"
"251012","441-VK","2018/01/27 17:49:33","新北市淡水區北新路一段3-1號","121.475248333333","25.184895","6501000","淡水區"
"251016","442-VK","2018/01/27 17:49:23","新北市淡水區埤島39-15號","121.452743333333","25.1959016666667","6501000","淡水區"
"251005","443-VK","2018/01/27 17:49:34","新北市淡水區學府路102巷12號","121.450713333333","25.1718016666667","6501000","淡水區"
"251001","559-UM","2018/01/27 17:49:32","新北市淡水區民權路92巷35-1號","121.462283333333","25.1266566666667","6501000","淡水區"
"251006","561-UM","2018/01/27 17:49:24","新北市淡水區大信街1巷25號","121.440126666667","25.1767316666667","6501000","淡水區"
"251011","650-BX","2018/01/27 17:48:07","新北市淡水區吳(仔)厝70號","121.479561666667","25.1496683333333","6501000","淡水區"
"251002","672-BX","2018/01/27 17:49:36","新北市淡水區中山路46號","121.444211666667","25.1701183333333","6501000","淡水區"
"251003","673-BX","2018/01/27 17:49:30","新北市淡水區大忠街66號","121.444511666667","25.17628","6501000","淡水區"
"207003","550-UM","2018/01/27 17:49:29","新北市萬里區野柳里東澳路66號","121.692665","25.2009016666667","6502800","萬里區"
"207004","225-TW","2018/01/27 17:49:26","新北市萬里區萬里里瑪鋉頂街71號","121.687723333333","25.1803533333333","6502800","萬里區"
"252002","178-VK","2018/01/27 17:49:33","新北市三芝區智成街43號","121.50408","25.25635","6502100","三芝區"
"252001","292-VK","2018/01/27 17:49:26","新北市三芝區中興街一段10號","121.497456666667","25.2593583333333","6502100","三芝區"
"237009","210-TH","2018/01/27 17:49:23","新北市三峽區大勇路3巷29號","121.367751666667","24.9367966666667","6500900","三峽區"
"237013","252-BX","2018/01/27 17:49:23","新北市三峽區愛國路34巷1號","121.374601666667","24.932775","6500900","三峽區"
"237012","275-BY","2018/01/27 17:49:28","新北市三峽區文化路70號","121.372238333333","24.9361316666667","6500900","三峽區"
"237008","302-VK","2018/01/27 17:49:26","新北市三峽區中園街207號","121.366975","24.9205183333333","6500900","三峽區"
"237014","433-BY","2018/01/27 17:49:33","新北市三峽區和平街36巷19號","121.371301666667","24.9370316666667","6500900","三峽區"
"237006","5529-G3","2018/01/27 17:49:27","新北市三峽區介壽路二段136巷120弄2-1號","121.39242","24.9320366666667","6500900","三峽區"
"237016","649-BX","2018/01/27 17:26:47","新北市三峽區中山路459巷137號","121.349865","24.933575","6500900","三峽區"
"237010","706-TV","2018/01/27 17:49:23","新北市三峽區文化路258號","121.367018333333","24.935795","6500900","三峽區"
"237005","AKY-6261","2018/01/27 17:49:29","新北市三峽區中山路365號","121.358836666667","24.9371466666667","6500900","三峽區"
"236073","105-UM","2018/01/27 17:49:34","新北市土城區明德路一段365-1號","121.45351","24.97914","6501300","土城區"
"236043","107-UM","2018/01/27 17:49:29","新北市土城區城林路6巷80號","121.438613333333","24.979685","6501300","土城區"
"236079","166-UM","2018/01/27 17:49:27","新北市土城區永寧路5號","121.430436666667","24.9645766666667","6501300","土城區"
"236031","253-BX","2018/01/27 17:49:34","新北市土城區城林路6巷80號","121.438455","24.97974","6501300","土城區"
"236026","269-VK","2018/01/27 17:49:18","新北市土城區城林路6巷80號","121.438468333333","24.9796066666667","6501300","土城區"
"236015","270-VK","2018/01/27 17:49:26","新北市土城區城林路6巷80號","121.438558333333","24.9795833333333","6501300","土城區"
"236038","271-VK","2018/01/27 17:49:20","新北市土城區城林路6巷80號","121.438408333333","24.9797416666667","6501300","土城區"
"236023","401-BY","2018/01/27 17:49:29","新北市土城區城林路6巷80號","121.438661666667","24.97976","6501300","土城區"
"236059","912-UM","2018/01/27 17:49:27","新北市土城區城林路6巷80號","121.438486666667","24.9797133333333","6501300","土城區"
"236063","915-UM","2018/01/27 17:49:26","新北市土城區城林路6巷80號","121.438646666667","24.979715","6501300","土城區"
"236055","AAC-216","2018/01/27 17:49:33","新北市土城區城林路6巷80號","121.43853","24.9796266666667","6501300","土城區"
"242031","AAC-296","2018/01/27 17:49:35","新北市新莊區新泰路321巷25號","121.443533333333","25.0411083333333","6500500","新莊區"
"242029","986-R7","2018/01/27 17:49:19","新北市新莊區復興路一段109號","121.44924","25.0429683333333","6500500","新莊區"
"242061","705-TV","2018/01/27 17:49:28","新北市新莊區新樹路579號","121.432928333333","25.0069","6500500","新莊區"
"242025","615-BX","2018/01/27 17:49:23","新北市三重區光復路二段170號","121.47177","25.0612683333333","6500500","新莊區"
"242023","613-BX","2018/01/27 17:49:37","新北市新莊區福樂街70號","121.457766666667","25.0465066666667","6500500","新莊區"
"242027","612-BX","2018/01/27 17:49:37","新北市新莊區福壽街155號","121.457998333333","25.0532483333333","6500500","新莊區"
"242039","566-BX","2018/01/27 17:49:35","新北市新莊區富國路204號","121.424853333333","25.0241266666667","6500500","新莊區"
"242044","442-UM","2018/01/27 17:49:25","新北市新莊區雙鳳路20號","121.416841666667","25.0269333333333","6500500","新莊區"
"242053","440-UM","2018/01/27 17:49:27","新北市新莊區新樹路655號","121.4327","25.0030933333333","6500500","新莊區"
"242034","415-TV","2018/01/27 17:49:31","新北市新莊區新莊路783號","121.441271666667","25.032695","6500500","新莊區"
"242004","413-TV","2018/01/27 17:49:24","新北市新莊區思源路177巷5弄2號","121.459243333333","25.045045","6500500","新莊區"
"242042","400-BY","2018/01/27 17:49:37","新北市新莊區中正路612-1號","121.426108333333","25.03024","6500500","新莊區"
"242058","353-BY","2018/01/27 17:49:27","新北市新莊區中正路726-12號","121.415293333333","25.02389","6500500","新莊區"
"242007","132-UY","2018/01/27 17:49:28","新北市新莊區福樂街118巷18號","121.457548333333","25.0483616666667","6500500","新莊區"
"242036","133-UY","2018/01/27 17:49:36","新北市新莊區後港一路81號","121.427325","25.026665","6500500","新莊區"
"242046","172-VK","2018/01/27 17:49:22","新北市新莊區建國一路46號","121.434035","25.0312066666667","6500500","新莊區"
"242009","173-VK","2018/01/27 17:49:23","新北市新莊區昌明街30巷5弄1號","121.456753333333","25.052835","6500500","新莊區"
"242015","175-VK","2018/01/27 17:49:34","新北市新莊區新泰路502巷34號","121.443465","25.0464433333333","6500500","新莊區"
"242002","176-VK","2018/01/27 17:49:33","新北市新莊區景德路140號","121.451126666667","25.0341783333333","6500500","新莊區"
"242013","346-TH","2018/01/27 17:49:26","新北市新莊區中誠街142巷13弄4號","121.448585","25.048085","6500500","新莊區"
"242051","347-TH","2018/01/27 17:49:34","新北市新莊區西盛街273號","121.428128333333","25.0155116666667","6500500","新莊區"
"242019","348-TH","2018/01/27 17:49:26","新北市新莊區民樂街46號","121.457961666667","25.0413633333333","6500500","新莊區"
"242056","349-TH","2018/01/27 17:49:39","新北市新莊區瓊林路38巷22號","121.44696","25.0305383333333","6500500","新莊區"
"242017","350-TH","2018/01/27 17:49:34","新北市新莊區永安街68號","121.451023333333","25.044675","6500500","新莊區"
"242011","351-TH","2018/01/27 17:49:35","新北市新莊區中港路681巷18號","121.449848333333","25.05639","6500500","新莊區"
"238015","755-BX","2018/01/27 17:49:25","新北市樹林區樹德街136巷12號","121.419485","24.9937016666667","6500700","樹林區"
"238023","601-UM","2018/01/27 17:49:30","新北市樹林區龍興街13巷34號","121.403775","25.0165633333333","6500700","樹林區"
"238019","599-UM","2018/01/27 17:49:24","新北市樹林區太平路148號","121.418553333333","24.97807","6500700","樹林區"
"238018","571-TV","2018/01/27 17:49:36","新北市樹林區博愛一街40號","121.425951666667","24.99072","6500700","樹林區"
"238021","KEA-2217","2018/01/27 17:49:29","新北市樹林區柑園街一段171號","121.399763333333","24.9571883333333","6500700","樹林區"
"238022","KEA-2213","2018/01/27 17:49:21","新北市樹林區太順街60號","121.417903333333","24.9792333333333","6500700","樹林區"
"238025","303-VK","2018/01/27 17:49:36","新北市樹林區三俊街56號","121.412841666667","25.0156366666667","6500700","樹林區"
"238017","283-BY","2018/01/27 17:49:30","新北市樹林區三俊街74巷47號","121.414415","25.013105","6500700","樹林區"
"238014","282-BY","2018/01/27 17:49:35","新北市樹林區保安街一段287-6號","121.418853333333","24.99739","6500700","樹林區"
"238020","268-VK","2018/01/27 17:49:29","新北市樹林區三俊街235號","121.421753333333","25.0147883333333","6500700","樹林區"
"238026","172-UY","2018/01/27 17:49:37","新北市樹林區中洲街45號","121.396858333333","24.971185","6500700","樹林區"
"238016","169-UY","2018/01/27 17:49:30","新北市樹林區復興路323號","121.418238333333","24.9883316666667","6500700","樹林區"
"239007","AAC-297","2018/01/27 17:49:27","新北市鶯歌區永安街28號","121.337515","24.95568","6500800","鶯歌區"
"239006","891-R6","2018/01/27 17:49:36","新北市鶯歌區鳳鳴路105號","121.334326666667","24.9662583333333","6500800","鶯歌區"
"239008","527-UM","2018/01/27 17:49:36","新北市鶯歌區香賓街13巷2號","121.337033333333","24.9797933333333","6500800","鶯歌區"
"239005","526-UM","2018/01/27 17:49:22","新北市鶯歌區鶯桃路658巷10號","121.329591666667","24.9694583333333","6500800","鶯歌區"
"239001","417-VK","2018/01/27 17:49:31","新北市鶯歌區中正三路448巷1號","121.322711666667","24.9345466666667","6500800","鶯歌區"
"239003","360-BY","2018/01/27 17:49:22","新北市鶯歌區鶯桃路285巷2-5號","121.334333333333","24.9591","6500800","鶯歌區"
"239002","359-BY","2018/01/27 17:49:26","新北市鶯歌區育樂街61號","121.343515","24.9548133333333","6500800","鶯歌區"
"239004","193-VK","2018/01/27 17:49:27","新北市鶯歌區文化路324巷1-37號","121.352263333333","24.9459166666667","6500800","鶯歌區"
"221036","130-UY","2018/01/27 17:49:26","新北市汐止區長江街256巷1號","121.66498","25.080085","6501100","汐止區"
"221010","269-BY","2018/01/27 17:49:29","新北市汐止區汐萬路二段62巷1號","121.649381666667","25.0823116666667","6501100","汐止區"
"221012","278-VK","2018/01/27 17:49:37","新北市汐止區長江街59號","121.656566666667","25.0717466666667","6501100","汐止區"
"221023","279-VK","2018/01/27 17:49:34","新北市汐止區民族二街17號","121.634648333333","25.07032","6501100","汐止區"
"221032","280-BY","2018/01/27 17:49:23","新北市汐止區大同路一段150號","121.63169","25.055705","6501100","汐止區"
"221027","281-BY","2018/01/27 17:49:36","新北市汐止區汐萬路一段312號","121.650405","25.0751283333333","6501100","汐止區"
"221002","297-VK","2018/01/27 17:49:29","新北市汐止區汐萬路一段256巷1號","121.651863333333","25.0748633333333","6501100","汐止區"
"221029","298-VK","2018/01/27 17:49:25","新北市汐止區康寧街901號","121.651483333333","25.0748783333333","6501100","汐止區"
"221031","353-TW","2018/01/27 17:49:23","新北市汐止區工建路31號","121.638805","25.0635216666667","6501100","汐止區"
"221008","358-BY","2018/01/27 17:49:27","新北市汐止區康寧街901號","121.651406666667","25.0750016666667","6501100","汐止區"
"221035","622-UM","2018/01/27 17:49:18","新北市汐止區汐萬路一段211巷13號","121.6516","25.0719583333333","6501100","汐止區"
"221025","623-UM","2018/01/27 17:49:22","新北市汐止區新台五路一段183號","121.655561666667","25.0632116666667","6501100","汐止區"
"221038","646-BX","2018/01/27 17:49:33","新北市汐止區汐萬路一段204號","121.652186666667","25.072215","6501100","汐止區"
"221033","647-BX","2018/01/27 17:49:26","新北市汐止區林森街78號","121.624161666667","25.04083","6501100","汐止區"
"221018","753-BX","2018/01/27 17:49:37","新北市汐止區大同路二段577號","121.663453333333","25.0700516666667","6501100","汐止區"
"242048","281-VK","2018/01/27 17:49:26","新北市新莊區萬安街58號","121.420963333333","25.0236133333333","6500500","新莊區"
"242021","280-VK","2018/01/27 17:49:30","新北市新莊區復興路一段212號","121.452838333333","25.04373","6500500","新莊區"
