"lineid","car","time","location","longitude","latitude","cityid","cityname"
"234007","207-UY","2018/01/27 18:09:30","新北市永和區福和路1號","121.526385","25.0097766666667","6500400","永和區"
"234026","9371-KE","2018/01/27 18:09:32","新北市永和區永和路一段1號","121.513031666667","25.0051233333333","6500400","永和區"
"249005","172-UM","2018/01/27 18:09:35","新北市八里區荖阡坑路15號","121.401713333333","25.139855","6502300","八里區"
"249001","173-UM","2018/01/27 18:09:31","新北市八里區龍米路二段35號","121.448368333333","25.14001","6502300","八里區"
"249004","303-UY","2018/01/27 18:09:40","新北市八里區渡船頭街2號","121.434706666667","25.1581883333333","6502300","八里區"
"249002","305-UY","2018/01/27 18:09:40","新北市八里區龍米路一段356巷46號","121.452126666667","25.13042","6502300","八里區"
"249003","593-UM","2018/01/27 18:09:34","新北市八里區中華路二段165巷10-3號","121.408703333333","25.15039","6502300","八里區"
"248006","077-UY","2018/01/27 18:09:41","新北市五股區中興路二段82號","121.460831666667","25.07725","6501500","五股區"
"248008","095-VK","2018/01/27 18:09:24","新北市五股區更洲路32巷15弄9號","121.458165","25.0804933333333","6501500","五股區"
"248020","225-UY","2018/01/27 18:09:25","新北市五股區成泰路三段436號","121.455301666667","25.0972216666667","6501500","五股區"
"248014","261-SL","2018/01/27 18:09:37","新北市五股區成泰路一段231-1號","121.434916666667","25.0779466666667","6501500","五股區"
"248004","677-BX","2018/01/27 18:09:19","新北市五股區工商路40號","121.439265","25.0838033333333","6501500","五股區"
"248010","682-TV","2018/01/27 18:09:26","新北市五股區成泰路一段229-1號","121.43423","25.0776533333333","6501500","五股區"
"232011","375-UM","2018/01/27 18:09:31","新北市坪林區坪林街16-1號","121.712545","24.936295","6502000","坪林區"
"244013","069-UM","2018/01/27 18:09:35","新北市林口區中山路5號","121.396483333333","25.0781433333333","6501700","林口區"
"244007","080-UY","2018/01/27 18:09:26","新北市林口區林口路118號","121.388585","25.081465","6501700","林口區"
"244019","402-UM","2018/01/27 18:09:25","新北市林口區文化一路一段24號","121.37023","25.068695","6501700","林口區"
"244009","410-SL","2018/01/27 18:09:36","新北市林口區竹林路606巷23號","121.385","25.0829483333333","6501700","林口區"
"244023","483-VK","2018/01/27 18:09:40","新北市林口區東湖路153巷123號","121.382321666667","25.0732183333333","6501700","林口區"
"244017","485-VK","2018/01/27 18:09:29","新北市林口區忠孝路504巷18號","121.369936666667","25.069805","6501700","林口區"
"244011","656-BX","2018/01/27 18:09:21","新北市林口區中正路79號","121.395066666667","25.0773716666667","6501700","林口區"
"244021","657-BX","2018/01/27 18:09:26","新北市林口區粉寮路一段3號","121.396506666667","25.0758116666667","6501700","林口區"
"244025","837-TS","2018/01/27 18:09:33","新北市林口區文化北路一段299巷71號","121.359063333333","25.072665","6501700","林口區"
"243013","646-TV","2018/01/27 18:09:35","新北市泰山區南林路99巷1-1號","121.415466666667","25.051135","6501600","泰山區"
"222003","016-RS","2018/01/27 18:09:27","新北市深坑區腳坑5-3號","121.609686666667","24.995555","6501800","深坑區"
"222002","659-BX","2018/01/27 18:09:36","新北市深坑區文化街42號","121.619113333333","25.0016583333333","6501800","深坑區"
"231041","002-UM","2018/01/27 18:09:38","新北市新店區安華路28-1號","121.519835","24.9605933333333","6500600","新店區"
"231058","0291-UT","2018/01/27 18:09:22","新北市新店區安華路1-1號","121.519293333333","24.960465","6500600","新店區"
"231061","047-UY","2018/01/27 18:09:18","新北市新店區安華路28-1號","121.519218333333","24.9608483333333","6500600","新店區"
"231052","110-UY","2018/01/27 18:09:24","新北市新店區安華路28-1號","121.519213333333","24.96117","6500600","新店區"
"231046","278-BY","2018/01/27 18:09:35","新北市新店區直潭七街60號","121.53226","24.9399316666667","6500600","新店區"
"231056","3713-VJ","2018/01/27 18:09:26","新北市新店區安華路28-1號","121.519703333333","24.9610133333333","6500600","新店區"
"231065","512-UM","2018/01/27 18:09:21","新北市新店區安華路28-1號","121.519275","24.961205","6500600","新店區"
"231040","619-UM","2018/01/27 18:09:40","新北市新店區安華路28-1號","121.51968","24.96074","6500600","新店區"
"231063","645-TV","2018/01/27 18:09:31","新北市新店區安華路28-1號","121.519435","24.9608083333333","6500600","新店區"
"231049","719-UM","2018/01/27 18:09:24","新北市新店區安華路28-1號","121.51953","24.961345","6500600","新店區"
"231043","899-TW","2018/01/27 18:09:33","新北市新店區安華路28-1號","121.519501666667","24.9609866666667","6500600","新店區"
"241033","AAC-255","2018/01/27 18:09:33","新北市三重區中興北街133-1號","121.46938","25.0505233333333","6500200","三重區"
"235064","005-UY","2018/01/27 18:09:39","新北市中和區中正路173號","121.497603333333","24.99353","6500300","中和區"
"235039","097-UM","2018/01/27 18:09:29","新北市中和區和城路一段271巷1號","121.485546666667","24.9918533333333","6500300","中和區"
"235065","098-UM","2018/01/27 18:09:38","新北市中和區莊敬路49巷27號","121.501571666667","25.0061433333333","6500300","中和區"
"235058","151-BY","2018/01/27 18:09:37","新北市中和區圓通路367巷33弄57號","121.495526666667","24.9860683333333","6500300","中和區"
"235038","185-VK","2018/01/27 18:09:32","新北市中和區大智街2號","121.519921666667","24.9918466666667","6500300","中和區"
"235072","301-VK","2018/01/27 18:09:32","新北市中和區員山路36巷13號","121.48437","24.990805","6500300","中和區"
"235043","352-BY","2018/01/27 18:09:25","新北市中和區員山路36巷16-3號","121.485058333333","24.9914583333333","6500300","中和區"
"235068","377-QA","2018/01/27 18:09:29","新北市中和區員山路36巷16-3號","121.48502","24.9912883333333","6500300","中和區"
"235061","378-QA","2018/01/27 18:09:06","新北市中和區連城路607號","121.478463333333","24.9930116666667","6500300","中和區"
"235050","4979-A6","2018/01/27 18:09:21","新北市中和區中正路171號","121.497871666667","24.9936666666667","6500300","中和區"
"235042","551-UM","2018/01/27 18:09:24","新北市中和區景平路159巷58號","121.512946666667","24.991135","6500300","中和區"
"235070","558-UM","2018/01/27 18:09:22","新北市中和區錦和路350-1號","121.490291666667","24.993495","6500300","中和區"
"235045","565-BX","2018/01/27 18:09:36","新北市中和區錦和路350-1號","121.490103333333","24.9935316666667","6500300","中和區"
"235054","640-BX","2018/01/27 18:09:22","新北市中和區連城路506號","121.477503333333","24.9925216666667","6500300","中和區"
"235047","732-UM","2018/01/27 18:09:35","新北市中和區和城路一段271巷1號","121.48555","24.991905","6500300","中和區"
"235062","800-TS","2018/01/27 18:09:38","新北市中和區橋和路60號","121.489583333333","25.0052416666667","6500300","中和區"
"235052","805-TS","2018/01/27 18:09:28","新北市中和區中正路13號","121.503","24.9932683333333","6500300","中和區"
"235051","157-BY","2018/01/27 18:09:34","新北市中和區中正路173號","121.497746666667","24.9936866666667","6500300","中和區"
"235037","AAC-213","2018/01/27 18:09:21","新北市中和區景平路149號","121.513931666667","24.9921266666667","6500300","中和區"
"226004","312-R5","2018/01/27 18:09:39","新北市平溪區菁桐里菁桐街117號","121.724193333333","25.023865","6502400","平溪區"
"228003","097-TW","2018/01/27 18:09:22","新北市貢寮區真理里美艷山街6-2號","121.928936666667","25.0607","6502600","貢寮區"
"228001","212-TW","2018/01/27 18:09:27","新北市貢寮區真理里新港街26巷55弄2-1號","121.927398333333","25.0528666666667","6502600","貢寮區"
"228002","663-BX","2018/01/27 18:09:31","新北市貢寮區福連里馬崗街1號","121.996725","25.0168983333333","6502600","貢寮區"
"224006","676-BX","2018/01/27 18:09:19","新北市瑞芳區三爪子坑路32巷94號","121.809308333333","25.1067083333333","6501200","瑞芳區"
"224002","639-TC","2018/01/27 18:09:39","新北市瑞芳區三爪子坑路84號","121.809933333333","25.10549","6501200","瑞芳區"
"224009","285-BY","2018/01/27 18:09:35","新北市瑞芳區金光路310號","121.85134","25.107795","6501200","瑞芳區"
"224008","275-VK","2018/01/27 18:09:20","新北市瑞芳區員山子路3-9號","121.8207","25.10353","6501200","瑞芳區"
"224005","271-BY","2018/01/27 18:09:34","新北市瑞芳區深澳路4號","121.816713333333","25.1288733333333","6501200","瑞芳區"
"227010","642-TC","2018/01/27 18:09:21","新北市雙溪區三貂里定福路1-2號","121.850651666667","25.0635133333333","6502500","雙溪區"
"253005","032-BX","2018/01/27 18:09:30","新北市石門區福安街13號","121.568553333333","25.2927283333333","6502200","石門區"
"253006","295-VK","2018/01/27 18:09:36","新北市石門區老梅路52巷21號","121.546438333333","25.2885716666667","6502200","石門區"
"222001","KEA-2212","2018/01/27 18:09:34","新北市深坑區北深路二段188號","121.61398","25.002225","6501800","深坑區"
"208002","742-BX","2018/01/27 18:09:33","新北市金山區三界壇路107號","121.619768333333","25.2309966666667","6502700","金山區"
"208003","665-BX","2018/01/27 18:09:36","新北市金山區磺港里磺港路127號","121.646375","25.2276683333333","6502700","金山區"
"208001","761-BX","2018/01/27 18:09:28","新北市金山區磺港里磺港路117號","121.645965","25.2264183333333","6502700","金山區"
"251009","008-UM","2018/01/27 18:09:22","新北市淡水區大忠街34巷6號","121.44346","25.1755483333333","6501000","淡水區"
"251004","009-UM","2018/01/27 18:09:34","新北市淡水區民族路110巷8號","121.462138333333","25.1355183333333","6501000","淡水區"
"251013","179-VK","2018/01/27 18:09:32","新北市淡水區竹圍子12號","121.476433333333","25.193675","6501000","淡水區"
"251014","180-VK","2018/01/27 18:09:24","新北市淡水區南平14-1號","121.485653333333","25.2208266666667","6501000","淡水區"
"251008","181-VK","2018/01/27 18:09:31","新北市淡水區坪頂路70巷41號","121.460673333333","25.1603966666667","6501000","淡水區"
"251015","182-VK","2018/01/27 18:09:28","新北市淡水區興福寮88巷1號","121.48567","25.16508","6501000","淡水區"
"251010","413-VK","2018/01/27 18:09:36","新北市淡水區中正路二段52號","121.4197","25.1834","6501000","淡水區"
"251012","441-VK","2018/01/27 18:09:33","新北市淡水區北新路三段132號","121.48807","25.1898183333333","6501000","淡水區"
"251016","442-VK","2018/01/27 18:09:23","新北市淡水區淡金路三段46巷48號","121.449923333333","25.1999066666667","6501000","淡水區"
"251005","443-VK","2018/01/27 18:09:34","新北市淡水區水源街一段141號","121.447273333333","25.1718966666667","6501000","淡水區"
"251001","559-UM","2018/01/27 18:09:32","新北市淡水區自立路10號","121.463081666667","25.1297766666667","6501000","淡水區"
"251006","561-UM","2018/01/27 18:09:24","新北市淡水區真理街3巷7號","121.437216666667","25.1752483333333","6501000","淡水區"
"251011","650-BX","2018/01/27 18:09:27","新北市淡水區三空泉5號","121.47765","25.161425","6501000","淡水區"
"251002","672-BX","2018/01/27 18:09:33","新北市淡水區中正東路一段113號","121.454156666667","25.1597116666667","6501000","淡水區"
"251003","673-BX","2018/01/27 18:09:30","新北市淡水區北新路139號","121.44954","25.1788433333333","6501000","淡水區"
"207003","550-UM","2018/01/27 18:09:29","新北市萬里區野柳里港西路70-3號","121.685368333333","25.2046433333333","6502800","萬里區"
"207004","225-TW","2018/01/27 18:09:26","新北市萬里區中幅里中福路97號","121.675425","25.1701133333333","6502800","萬里區"
"252003","249-BX","2018/01/27 18:09:20","新北市三芝區埔頭里埔頭37號","121.498491666667","25.2603","6502100","三芝區"
"252001","292-VK","2018/01/27 18:09:26","新北市三芝區中興街二段2號","121.498428333333","25.2566933333333","6502100","三芝區"
"237007","153-BY","2018/01/27 18:09:20","新北市三峽區中正路二段370巷75號","121.364448333333","24.9114333333333","6500900","三峽區"
"237009","210-TH","2018/01/27 18:09:23","新北市三峽區大仁路53號","121.365376666667","24.9374366666667","6500900","三峽區"
"237013","252-BX","2018/01/27 18:09:38","新北市三峽區長泰街7號","121.378525","24.931005","6500900","三峽區"
"237012","275-BY","2018/01/27 18:09:28","新北市三峽區民生街1巷6-8號","121.377078333333","24.9356983333333","6500900","三峽區"
"237008","302-VK","2018/01/27 18:09:26","新北市三峽區白雞42-1號","121.379051666667","24.9109966666667","6500900","三峽區"
"237014","433-BY","2018/01/27 18:09:33","新北市三峽區國光街63巷10號","121.373848333333","24.93792","6500900","三峽區"
"237006","5529-G3","2018/01/27 18:09:27","新北市三峽區溪東路178巷13弄12號","121.406246666667","24.9321883333333","6500900","三峽區"
"237010","706-TV","2018/01/27 18:09:23","新北市三峽區民族街130號","121.369311666667","24.9287066666667","6500900","三峽區"
"237005","AKY-6261","2018/01/27 18:09:29","新北市三峽區民生街229號","121.371201666667","24.9347366666667","6500900","三峽區"
"236073","105-UM","2018/01/27 18:09:34","新北市土城區石門路19號","121.459476666667","24.9670216666667","6501300","土城區"
"236043","107-UM","2018/01/27 18:09:29","新北市土城區城林路6巷80號","121.438181666667","24.979515","6501300","土城區"
"236079","166-UM","2018/01/27 18:09:36","新北市土城區永安街85號","121.431003333333","24.9638133333333","6501300","土城區"
"236031","253-BX","2018/01/27 18:09:34","新北市土城區城林路6巷80號","121.438446666667","24.9797833333333","6501300","土城區"
"236026","269-VK","2018/01/27 18:09:18","新北市土城區承天路18號","121.43951","24.9634416666667","6501300","土城區"
"236015","270-VK","2018/01/27 18:09:27","新北市土城區學府路二段79號","121.448691666667","24.9811083333333","6501300","土城區"
"236038","271-VK","2018/01/27 18:09:40","新北市土城區明德路一段325號","121.458658333333","24.9770833333333","6501300","土城區"
"236023","401-BY","2018/01/27 18:09:29","新北市土城區城林路6巷80號","121.438671666667","24.9797233333333","6501300","土城區"
"236059","912-UM","2018/01/27 18:09:27","新北市土城區中央路四段38號","121.420755","24.9608416666667","6501300","土城區"
"236049","913-UM","2018/01/27 18:09:31","新北市土城區金城路二段26號","121.450363333333","24.9781166666667","6501300","土城區"
"236063","915-UM","2018/01/27 18:09:26","新北市土城區金城路二段207號","121.454555","24.9815816666667","6501300","土城區"
"236055","AAC-216","2018/01/27 18:09:33","新北市土城區城林路6巷80號","121.438506666667","24.9796","6501300","土城區"
"242031","AAC-296","2018/01/27 18:09:35","新北市新莊區新泰路289巷48號","121.443315","25.0404466666667","6500500","新莊區"
"242029","986-R7","2018/01/27 18:09:18","新北市新莊區中平路110巷36號","121.445768333333","25.0459616666667","6500500","新莊區"
"242061","705-TV","2018/01/27 18:09:28","新北市新莊區新樹路40號","121.437791666667","25.0283133333333","6500500","新莊區"
"242025","615-BX","2018/01/27 18:09:23","新北市新莊區五工一路96號","121.46057","25.0679233333333","6500500","新莊區"
"242023","613-BX","2018/01/27 18:09:37","新北市新莊區中華路二段89號","121.452813333333","25.0492316666667","6500500","新莊區"
"242027","612-BX","2018/01/27 18:09:37","新北市新莊區幸福路509號","121.455818333333","25.0492616666667","6500500","新莊區"
"242039","566-BX","2018/01/27 18:09:35","新北市新莊區民安西路78巷2號","121.427056666667","25.01984","6500500","新莊區"
"242044","442-UM","2018/01/27 18:09:35","新北市新莊區天泉二街26巷2號","121.4146","25.0255066666667","6500500","新莊區"
"242053","440-UM","2018/01/27 18:09:27","新北市新莊區西盛街418號","121.4272","25.012125","6500500","新莊區"
"242034","415-TV","2018/01/27 18:09:31","新北市新莊區中正路377巷18號","121.446298333333","25.0336583333333","6500500","新莊區"
"242004","413-TV","2018/01/27 18:09:24","新北市新莊區自由街36號","121.455791666667","25.046485","6500500","新莊區"
"242042","400-BY","2018/01/27 18:09:37","新北市新莊區天祥街135巷8弄1號","121.413606666667","25.029335","6500500","新莊區"
"242058","353-BY","2018/01/27 18:09:39","新北市新莊區天祥街120巷3弄16號","121.414236666667","25.0305883333333","6500500","新莊區"
"242007","132-UY","2018/01/27 18:09:28","新北市新莊區自信街30號","121.45429","25.0481916666667","6500500","新莊區"
"242036","133-UY","2018/01/27 18:09:30","新北市新莊區後港一路65號","121.426571666667","25.026535","6500500","新莊區"
"242046","172-VK","2018/01/27 18:09:22","新北市新莊區福營路226號","121.42731","25.0293416666667","6500500","新莊區"
"242009","173-VK","2018/01/27 18:09:39","新北市新莊區中華路二段254號","121.452638333333","25.053125","6500500","新莊區"
"242015","175-VK","2018/01/27 18:09:34","新北市新莊區中平路152巷49號","121.446806666667","25.0474433333333","6500500","新莊區"
"242002","176-VK","2018/01/27 18:09:33","新北市新莊區新莊路141號","121.456763333333","25.03628","6500500","新莊區"
"242051","347-TH","2018/01/27 18:09:34","新北市新莊區西盛街153巷8號","121.428673333333","25.0179783333333","6500500","新莊區"
"242019","348-TH","2018/01/27 18:09:25","新北市新莊區長青街37巷22弄1號","121.456291666667","25.0412533333333","6500500","新莊區"
"242056","349-TH","2018/01/27 18:09:19","新北市新莊區豐年街118號","121.446476666667","25.03035","6500500","新莊區"
"242017","350-TH","2018/01/27 18:09:34","新北市新莊區永樂街139號","121.44947","25.04474","6500500","新莊區"
"242011","351-TH","2018/01/27 18:09:30","新北市新莊區中榮街33號","121.45008","25.0527616666667","6500500","新莊區"
"238015","755-BX","2018/01/27 18:09:25","新北市樹林區大安路316號","121.417405","24.9918283333333","6500700","樹林區"
"238023","601-UM","2018/01/27 18:09:30","新北市樹林區龍興街55號","121.40323","25.0152883333333","6500700","樹林區"
"238019","599-UM","2018/01/27 18:09:24","新北市樹林區水源街32巷74號","121.424985","24.9802266666667","6500700","樹林區"
"238018","571-TV","2018/01/27 18:09:36","新北市樹林區保安街一段20巷40號","121.428555","24.994765","6500700","樹林區"
"238021","KEA-2217","2018/01/27 18:09:29","新北市樹林區柑園街一段178號","121.395881666667","24.95662","6500700","樹林區"
"238022","KEA-2213","2018/01/27 18:09:21","新北市樹林區太平路150巷25號","121.417461666667","24.9774366666667","6500700","樹林區"
"238025","303-VK","2018/01/27 18:09:36","新北市樹林區保安二街二段6-7號","121.415845","25.0011483333333","6500700","樹林區"
"238017","283-BY","2018/01/27 18:09:30","新北市樹林區中正路811號","121.409481666667","25.0167483333333","6500700","樹林區"
"238014","282-BY","2018/01/27 18:09:36","新北市樹林區千歲街61巷52號","121.425316666667","24.9987533333333","6500700","樹林區"
"238020","268-VK","2018/01/27 18:09:29","新北市樹林區三龍街118巷11號","121.41538","25.0177083333333","6500700","樹林區"
"238026","172-UY","2018/01/27 18:09:37","新北市樹林區育德街69號","121.391096666667","24.9701333333333","6500700","樹林區"
"238016","169-UY","2018/01/27 18:09:22","新北市樹林區日新街148巷24號","121.41994","24.988525","6500700","樹林區"
"239007","AAC-297","2018/01/27 18:09:27","新北市鶯歌區鶯桃路94巷33號","121.342178333333","24.9544833333333","6500800","鶯歌區"
"239006","891-R6","2018/01/27 18:09:36","新北市鶯歌區鶯桃路381巷2弄21號","121.332773333333","24.9640433333333","6500800","鶯歌區"
"239008","527-UM","2018/01/27 18:09:20","新北市鶯歌區國際一路14號","121.336156666667","24.9764866666667","6500800","鶯歌區"
"239005","526-UM","2018/01/27 18:09:22","新北市鶯歌區鶯桃路668巷74-1號","121.329936666667","24.9717633333333","6500800","鶯歌區"
"239001","417-VK","2018/01/27 18:09:31","新北市鶯歌區中正三路5巷16號","121.339891666667","24.9423433333333","6500800","鶯歌區"
"239003","360-BY","2018/01/27 18:09:22","新北市鶯歌區福安街32巷22號","121.335066666667","24.9637116666667","6500800","鶯歌區"
"239002","359-BY","2018/01/27 18:09:26","新北市鶯歌區中山路249巷4弄73號","121.348035","24.9565283333333","6500800","鶯歌區"
"221036","130-UY","2018/01/27 18:09:26","新北市汐止區大同路三段107號","121.66833","25.0775266666667","6501100","汐止區"
"221010","269-BY","2018/01/27 18:09:29","新北市汐止區汐萬路二段275巷3弄1號","121.645315","25.08879","6501100","汐止區"
"221012","278-VK","2018/01/27 18:09:37","新北市汐止區保一街67號","121.674221666667","25.07987","6501100","汐止區"
"221023","279-VK","2018/01/27 18:09:34","新北市汐止區民族五街96號","121.627306666667","25.0695833333333","6501100","汐止區"
"221032","280-BY","2018/01/27 18:09:23","新北市汐止區橫科路6號","121.617553333333","25.05133","6501100","汐止區"
"221027","281-BY","2018/01/27 18:09:36","新北市汐止區和平街8號","121.663415","25.07079","6501100","汐止區"
"221002","297-VK","2018/01/27 18:09:32","新北市汐止區福德一路201巷1號","121.635588333333","25.06546","6501100","汐止區"
"221029","298-VK","2018/01/27 18:09:25","新北市汐止區樟樹二路134號","121.63998","25.0656016666667","6501100","汐止區"
"221031","353-TW","2018/01/27 18:09:23","新北市汐止區中興路202號","121.631375","25.0660083333333","6501100","汐止區"
"221008","358-BY","2018/01/27 18:09:27","新北市汐止區康寧街397號","121.62954","25.0678766666667","6501100","汐止區"
"221035","622-UM","2018/01/27 18:09:38","新北市汐止區大同路二段200號","121.653135","25.0647983333333","6501100","汐止區"
"221025","623-UM","2018/01/27 18:09:21","新北市汐止區勤進路3巷27號","121.661121666667","25.0616633333333","6501100","汐止區"
"221038","646-BX","2018/01/27 18:09:33","新北市汐止區南興路102號","121.653356666667","25.0586716666667","6501100","汐止區"
"221033","647-BX","2018/01/27 18:09:26","新北市汐止區宜興街20巷21號","121.622313333333","25.0409366666667","6501100","汐止區"
"221018","753-BX","2018/01/27 18:09:37","新北市汐止區忠孝東路397號","121.66579","25.0708616666667","6501100","汐止區"
"242048","281-VK","2018/01/27 18:09:26","新北市新莊區萬安街67巷9號","121.421788333333","25.0239016666667","6500500","新莊區"
"242021","280-VK","2018/01/27 18:09:30","新北市新莊區建中街2號","121.449968333333","25.0376","6500500","新莊區"
