"lineid","car","time","location","longitude","latitude","cityid","cityname"
"234046","148-BY","2018/01/27 18:49:23","新北市永和區秀朗路二段148巷12弄16號","121.524766666667","25.001085","6500400","永和區"
"234007","207-UY","2018/01/27 18:49:31","新北市永和區文化路29號","121.514898333333","25.0150383333333","6500400","永和區"
"234081","298-R6","2018/01/27 18:49:36","新北市永和區永利路108號","121.52121","25.003455","6500400","永和區"
"234038","336-UY","2018/01/27 18:49:31","新北市永和區成功路一段116號","121.526745","25.0023833333333","6500400","永和區"
"234064","337-UY","2018/01/27 18:49:28","新北市永和區福和路1號","121.526418333333","25.0098866666667","6500400","永和區"
"234086","338-UY","2018/01/27 18:49:38","新北市永和區中正路164號","121.515028333333","24.9967516666667","6500400","永和區"
"234070","552-UM","2018/01/27 18:49:24","新北市永和區豫溪街207巷22號","121.523386666667","25.0104166666667","6500400","永和區"
"234030","746-BX","2018/01/27 18:49:39","新北市永和區得和路356號","121.523961666667","24.99943","6500400","永和區"
"234054","KEA-2590","2018/01/27 18:49:29","新北市永和區豫溪街191巷1弄1號","121.523123333333","25.0103466666667","6500400","永和區"
"234013","KEA-2591","2018/01/27 18:49:29","新北市永和區保福路二段133巷35號","121.509053333333","25.0134016666667","6500400","永和區"
"234061","AAD-866","2018/01/27 18:49:34","新北市永和區福和路307號","121.516265","25.0071083333333","6500400","永和區"
"234042","862-TW","2018/01/27 18:49:26","新北市永和區永貞路310號","121.511783333333","25.004905","6500400","永和區"
"234050","863-TW","2018/01/27 18:49:23","新北市永和區保安路2號","121.51078","25.0173966666667","6500400","永和區"
"234026","9371-KE","2018/01/27 18:49:32","新北市永和區保生路55-1號","121.504528333333","25.0108983333333","6500400","永和區"
"234011","9373-KE","2018/01/27 18:49:21","新北市永和區永和路二段231巷5號","121.514785","25.013965","6500400","永和區"
"249005","172-UM","2018/01/27 18:49:35","新北市八里區長道坑16-3號","121.39488","25.1162033333333","6502300","八里區"
"249001","173-UM","2018/01/27 18:49:31","新北市八里區龍米路二段52號","121.448256666667","25.140755","6502300","八里區"
"249004","303-UY","2018/01/27 18:49:40","新北市八里區中山路一段268巷2號","121.41441","25.1599066666667","6502300","八里區"
"248016","026-BX","2018/01/27 18:49:35","新北市五股區凌雲路一段133巷36號","121.448711666667","25.1009483333333","6501500","五股區"
"248006","077-UY","2018/01/27 18:49:42","新北市五股區四維路1巷3-1號","121.465873333333","25.0704166666667","6501500","五股區"
"248008","095-VK","2018/01/27 18:49:24","新北市五股區中興路一段147號","121.465201666667","25.0735416666667","6501500","五股區"
"248020","225-UY","2018/01/27 18:47:24","新北市五股區凌雲路三段田埔巷19號","121.43384","25.1216516666667","6501500","五股區"
"248012","247-BX","2018/01/27 18:49:23","新北市五股區成泰路二段147巷5-17號","121.437081666667","25.088405","6501500","五股區"
"248004","677-BX","2018/01/27 18:49:39","新北市五股區民義路二段42-1號","121.415176666667","25.1003933333333","6501500","五股區"
"248010","682-TV","2018/01/27 18:49:27","新北市五股區水碓五路128號","121.430943333333","25.072685","6501500","五股區"
"234023","9380-KE","2018/01/27 18:49:30","新北市永和區竹林路119巷22弄1號","121.52137","25.0116133333333","6500400","永和區"
"234077","969-R7","2018/01/27 18:49:22","新北市永和區中正路2巷29弄2-2號","121.513855","24.9939366666667","6500400","永和區"
"234074","AAC-211","2018/01/27 18:49:26","新北市永和區福和路1號","121.526081666667","25.0096966666667","6500400","永和區"
"234066","AAC-212","2018/01/27 18:49:32","新北市永和區中和路625號","121.513018333333","25.0048966666667","6500400","永和區"
"234003","AAC-295","2018/01/27 18:49:32","新北市永和區中正路748號","121.514806666667","25.0102933333333","6500400","永和區"
"244013","069-UM","2018/01/27 18:49:36","新北市林口區文化一路二段92號","121.381651666667","25.078725","6501700","林口區"
"244007","080-UY","2018/01/27 18:49:26","新北市林口區湖北里61號","121.383183333333","25.1073816666667","6501700","林口區"
"244019","402-UM","2018/01/27 18:49:25","新北市林口區忠孝路648號","121.379145","25.06846","6501700","林口區"
"244009","410-SL","2018/01/27 18:49:36","新北市林口區竹林路320巷6號","121.390825","25.082105","6501700","林口區"
"244023","483-VK","2018/01/27 18:49:40","新北市林口區民權路151號","121.373896666667","25.0836283333333","6501700","林口區"
"244017","485-VK","2018/01/27 18:49:29","新北市林口區文化二路一段120巷1-1號","121.368048333333","25.07059","6501700","林口區"
"244011","656-BX","2018/01/27 18:49:41","新北市林口區中正路17號","121.396648333333","25.0772733333333","6501700","林口區"
"244021","657-BX","2018/01/27 18:49:26","新北市林口區工六路94號","121.400975","25.07675","6501700","林口區"
"244025","837-TS","2018/01/27 18:49:33","新北市林口區南勢二街162號","121.359183333333","25.0746866666667","6501700","林口區"
"243012","AAD-798","2018/01/27 18:49:20","新北市泰山區福興三街13號","121.434436666667","25.0577966666667","6501600","泰山區"
"243015","380-SR","2018/01/27 18:49:25","新北市泰山區美寧街50號","121.430506666667","25.0644033333333","6501600","泰山區"
"243013","646-TV","2018/01/27 18:49:35","新北市泰山區明志路三段206巷3號","121.42327","25.037915","6501600","泰山區"
"243016","680-BX","2018/01/27 18:49:38","新北市泰山區明志路二段125號","121.428021666667","25.05134","6501600","泰山區"
"222003","016-RS","2018/01/27 18:49:27","新北市深坑區翠谷街17巷5號","121.626438333333","25.0084566666667","6501800","深坑區"
"222002","659-BX","2018/01/27 18:49:36","新北市深坑區文山路一段69號","121.626956666667","25.0018866666667","6501800","深坑區"
"231041","002-UM","2018/01/27 18:49:38","新北市新店區安華路28-1號","121.519765","24.9607866666667","6500600","新店區"
"231058","0291-UT","2018/01/27 18:49:22","新北市新店區中興路一段136號","121.541935","24.963245","6500600","新店區"
"231059","046-UY","2018/01/27 18:49:42","新北市新店區安華路28-1號","121.51956","24.9607433333333","6500600","新店區"
"231061","047-UY","2018/01/27 18:49:38","新北市新店區安華路28-1號","121.51922","24.9609016666667","6500600","新店區"
"231051","107-UY","2018/01/27 18:49:37","新北市新店區中央路81號","121.532336666667","24.976645","6500600","新店區"
"231048","108-UY","2018/01/27 18:49:36","新北市新店區德正街19巷2號","121.543718333333","24.9724683333333","6500600","新店區"
"231052","110-UY","2018/01/27 18:49:24","新北市新店區永興路41號","121.543805","24.9383666666667","6500600","新店區"
"231050","KEA-2219","2018/01/27 18:49:33","新北市新店區安康路一段231號","121.525345","24.9631683333333","6500600","新店區"
"231057","256-BX","2018/01/27 18:49:28","新北市新店區花園一路一段2號","121.553093333333","24.9324566666667","6500600","新店區"
"231046","278-BY","2018/01/27 18:49:35","新北市新店區直潭路75號","121.532361666667","24.9421683333333","6500600","新店區"
"231054","AAD-862","2018/01/27 18:49:35","新北市新店區秀山路68-1號","121.530998333333","24.96093","6500600","新店區"
"231056","3713-VJ","2018/01/27 18:49:26","新北市新店區大豐路68巷11號","121.538705","24.98016","6500600","新店區"
"231055","4716-K9","2018/01/27 18:49:32","新北市新店區北新路一段271巷43-1號","121.539401666667","24.9669416666667","6500600","新店區"
"231067","4772-VM","2018/01/27 18:49:22","新北市新店區安康路一段106巷14號","121.527786666667","24.9629266666667","6500600","新店區"
"231065","512-UM","2018/01/27 18:49:41","新北市新店區安華路16號","121.515686666667","24.9579733333333","6500600","新店區"
"231042","616-UM","2018/01/27 18:49:20","新北市新店區安康路一段355號","121.520075","24.9636716666667","6500600","新店區"
"231045","617-UM","2018/01/27 18:49:27","新北市新店區安康路一段75-1號","121.530136666667","24.9611","6500600","新店區"
"231040","619-UM","2018/01/27 18:49:40","新北市新店區中央路210-1號","121.53011","24.9736133333333","6500600","新店區"
"231063","645-TV","2018/01/27 18:49:31","新北市新店區安華路28-1號","121.51934","24.9606866666667","6500600","新店區"
"231049","719-UM","2018/01/27 18:49:24","新北市新店區中正路454-5號","121.534446666667","24.9790433333333","6500600","新店區"
"231062","720-UM","2018/01/27 18:49:23","新北市新店區車子路115-11號","121.50771","24.9546933333333","6500600","新店區"
"231044","897-TW","2018/01/27 18:49:22","新北市新店區中興路二段192號","121.548408333333","24.9735366666667","6500600","新店區"
"231043","899-TW","2018/01/27 18:49:33","新北市新店區安康路一段203號","121.526106666667","24.9629483333333","6500600","新店區"
"231066","AKT-0513","2018/01/27 18:49:40","新北市新店區安豐路22巷5-4號","121.501735","24.9560133333333","6500600","新店區"
"235066","003-UY","2018/01/27 18:49:19","新北市中和區水源路7巷29號","121.504111666667","25.0039233333333","6500300","中和區"
"235064","005-UY","2018/01/27 18:49:39","新北市中和區連城路75巷6弄2號","121.49814","24.99881","6500300","中和區"
"235056","096-UM","2018/01/27 18:49:25","新北市中和區員山路611巷1號","121.477853333333","25.0112333333333","6500300","中和區"
"235039","097-UM","2018/01/27 18:49:29","新北市中和區安樂路143巷7號","121.514106666667","24.9970566666667","6500300","中和區"
"235065","098-UM","2018/01/27 18:49:38","新北市中和區中山路二段2巷45弄2號","121.502266666667","25.0070933333333","6500300","中和區"
"235040","150-BY","2018/01/27 18:49:33","新北市中和區安平路36巷7號","121.510391666667","24.994695","6500300","中和區"
"235058","151-BY","2018/01/27 18:49:37","新北市中和區連城路573-1號","121.478975","24.9943833333333","6500300","中和區"
"235055","183-VK","2018/01/27 18:49:31","新北市中和區民生街53號","121.469611666667","25.005155","6500300","中和區"
"235038","185-VK","2018/01/27 18:49:32","新北市中和區大勇街110號","121.518145","24.9949616666667","6500300","中和區"
"235013","186-VK","2018/01/27 18:49:35","新北市中和區明義街11巷12弄2號","121.503661666667","24.994635","6500300","中和區"
"235067","255-BX","2018/01/27 18:49:23","新北市中和區中山路二段475號","121.483233333333","25.0050283333333","6500300","中和區"
"235044","293-VK","2018/01/27 18:49:25","新北市中和區中興街204號","121.499865","24.990335","6500300","中和區"
"235072","301-VK","2018/01/27 18:49:37","新北市中和區中山路二段1號","121.50562","25.0058966666667","6500300","中和區"
"235043","352-BY","2018/01/27 18:49:25","新北市中和區景平路1號","121.525705","24.9899333333333","6500300","中和區"
"235068","377-QA","2018/01/27 18:49:29","新北市中和區中正路167巷50號","121.498583333333","24.9926916666667","6500300","中和區"
"235061","378-QA","2018/01/27 18:49:26","新北市中和區民享街54巷14號","121.473248333333","25.0023566666667","6500300","中和區"
"235050","4979-A6","2018/01/27 18:49:21","新北市中和區忠孝街62巷9弄1號","121.51312","24.983935","6500300","中和區"
"235069","4980-A6","2018/01/27 18:49:40","新北市中和區南山路75號","121.502023333333","24.998015","6500300","中和區"
"235042","551-UM","2018/01/27 18:49:24","新北市中和區秀朗路三段153巷16弄1號","121.525728333333","24.99163","6500300","中和區"
"235070","558-UM","2018/01/27 18:46:22","新北市中和區南華路14號","121.502463333333","24.99552","6500300","中和區"
"235045","565-BX","2018/01/27 18:49:37","新北市中和區復興路65-3號","121.503975","24.9900216666667","6500300","中和區"
"235054","640-BX","2018/01/27 18:49:22","新北市中和區莒光路129巷1弄6號","121.473025","25.0021233333333","6500300","中和區"
"235060","647-TV","2018/01/27 18:49:42","新北市中和區中山路三段168號","121.47296","25.0064","6500300","中和區"
"235047","732-UM","2018/01/27 18:49:35","新北市中和區興南路二段34巷56弄2號","121.504896666667","24.9853433333333","6500300","中和區"
"235046","733-UM","2018/01/27 18:49:39","新北市中和區仁愛街36巷40號","121.511341666667","24.9864833333333","6500300","中和區"
"235062","800-TS","2018/01/27 18:49:38","新北市中和區橋安街2號","121.492908333333","25.003325","6500300","中和區"
"235041","802-TS","2018/01/27 18:49:25","新北市中和區宜安路118巷16號","121.510695","24.9985816666667","6500300","中和區"
"235052","805-TS","2018/01/27 18:49:28","新北市中和區興南路二段399巷98弄70號","121.497923333333","24.9763733333333","6500300","中和區"
"235048","896-TW","2018/01/27 18:49:35","新北市中和區華新街2-6號","121.507486666667","24.9852083333333","6500300","中和區"
"235053","900-TW","2018/01/27 18:49:33","新北市中和區民德路290巷11號","121.466825","24.99585","6500300","中和區"
"235063","911-UM","2018/01/27 18:49:33","新北市中和區連城路319巷11弄12號","121.489626666667","24.9949483333333","6500300","中和區"
"235051","157-BY","2018/01/27 18:49:34","新北市中和區華新街109巷11弄3-10號","121.50885","24.9797116666667","6500300","中和區"
"235037","AAC-213","2018/01/27 18:49:41","新北市中和區秀朗路三段128巷1弄2號","121.524631666667","24.9923733333333","6500300","中和區"
"235059","AAC-215","2018/01/27 18:49:39","新北市中和區圓通路395號","121.489598333333","24.9890116666667","6500300","中和區"
"220068","013-TV","2018/01/27 18:49:42","新北市板橋區民生路二段120號","121.470411666667","25.0196816666667","6500100","板橋區"
"220065","072-UY","2018/01/27 18:49:25","新北市板橋區漢生東路281號","121.471298333333","25.0089833333333","6500100","板橋區"
"220086","073-UY","2018/01/27 18:49:41","新北市板橋區大智街71巷28弄2號","121.453088333333","25.01462","6500100","板橋區"
"220106","075-UY","2018/01/27 18:49:31","新北市板橋區民生路二段161巷9號","121.470175","25.0195766666667","6500100","板橋區"
"220069","AAD-861","2018/01/27 18:49:28","新北市板橋區華東街330號","121.452998333333","25.0035816666667","6500100","板橋區"
"220090","120-SR","2018/01/27 18:49:40","新北市板橋區民生路二段161巷3號","121.470118333333","25.0197233333333","6500100","板橋區"
"226004","205-ST","2018/01/27 18:49:30","新北市平溪區靜安路二段232號","121.72382","25.022","6502400","平溪區"
"235057","251-BX","2018/01/27 18:49:25","新北市中和區民安街22巷27號","121.479468333333","25.0015533333333","6500300","中和區"
"228003","097-TW","2018/01/27 18:49:22","新北市瑞芳區鼻頭路99-1號","121.917643333333","25.1204066666667","6502600","貢寮區"
"228001","212-TW","2018/01/27 18:49:27","新北市貢寮區仁理村研海街12-1號","121.92381","25.0516233333333","6502600","貢寮區"
"228002","663-BX","2018/01/27 18:49:31","新北市貢寮區福隆里東興街6-11號","121.950756666667","25.0210466666667","6502600","貢寮區"
"224010","AGQ-8101","2018/01/27 18:44:08","新北市瑞芳區金光路372號","121.848686666667","25.1102516666667","6501200","瑞芳區"
"224006","676-BX","2018/01/27 18:49:20","新北市瑞芳區中山路17號","121.80491","25.1077283333333","6501200","瑞芳區"
"224009","285-BY","2018/01/27 18:49:35","新北市瑞芳區祈堂路2號","121.859798333333","25.11161","6501200","瑞芳區"
"224008","275-VK","2018/01/27 18:49:40","新北市瑞芳區瑞芳街150號","121.801163333333","25.1116566666667","6501200","瑞芳區"
"224007","273-VK","2018/01/27 18:49:37","新北市瑞芳區大埔路146號","121.761865","25.1009266666667","6501200","瑞芳區"
"224005","271-BY","2018/01/27 18:49:34","新北市瑞芳區建基路一段4-2號","121.82064","25.12101","6501200","瑞芳區"
"227010","642-TC","2018/01/27 18:49:40","新北市雙溪區牡丹里聖南19號","121.857163333333","25.0527733333333","6502500","雙溪區"
"227002","400-TW","2018/01/27 18:49:39","新北市雙溪區平林里梅竹蹊28號","121.86165","25.0360183333333","6502500","雙溪區"
"253005","032-BX","2018/01/27 18:49:30","新北市石門區石門街2巷30號","121.565946666667","25.290395","6502200","石門區"
"253006","295-VK","2018/01/27 18:49:36","新北市石門區下員坑15號","121.511543333333","25.2846333333333","6502200","石門區"
"222001","KEA-2212","2018/01/27 18:49:35","新北市深坑區松柏街48號","121.638818333333","25.0118416666667","6501800","深坑區"
"208002","742-BX","2018/01/27 18:49:32","新北市金山區信義路66號","121.635663333333","25.2189466666667","6502700","金山區"
"208003","665-BX","2018/01/27 18:49:37","新北市金山區中山路391號","121.633501666667","25.2251766666667","6502700","金山區"
"208001","761-BX","2018/01/27 18:49:28","新北市金山區文化三路66巷2弄1號","121.634281666667","25.225695","6502700","金山區"
"251009","008-UM","2018/01/27 18:49:22","新北市淡水區中山北路一段45巷6-2號","121.441285","25.1756416666667","6501000","淡水區"
"251013","179-VK","2018/01/27 18:49:32","新北市淡水區安子內5號","121.483848333333","25.21517","6501000","淡水區"
"251014","180-VK","2018/01/27 18:49:24","新北市淡水區崙頂15-1號","121.489558333333","25.223505","6501000","淡水區"
"251015","182-VK","2018/01/27 18:49:28","新北市淡水區興福寮100號","121.486701666667","25.1643033333333","6501000","淡水區"
"251010","413-VK","2018/01/27 18:49:36","新北市淡水區沙崙路24號","121.421496666667","25.181035","6501000","淡水區"
"251012","441-VK","2018/01/27 18:49:33","新北市淡水區北新路117號","121.448988333333","25.1784666666667","6501000","淡水區"
"251016","442-VK","2018/01/27 18:49:23","新北市淡水區下圭柔山71-3號","121.447081666667","25.20614","6501000","淡水區"
"251001","559-UM","2018/01/27 18:49:32","新北市淡水區自強路273號","121.462658333333","25.1281133333333","6501000","淡水區"
"251011","650-BX","2018/01/27 18:49:27","新北市淡水區學府路28號","121.44772","25.1684366666667","6501000","淡水區"
"251002","672-BX","2018/01/27 18:49:33","新北市淡水區學府路71號","121.448415","25.1697433333333","6501000","淡水區"
"251003","673-BX","2018/01/27 18:49:30","新北市淡水區中山北路一段149巷24號","121.442983333333","25.1779483333333","6501000","淡水區"
"207003","550-UM","2018/01/27 18:49:29","新北市萬里區大鵬里頂社2-1號","121.659588333333","25.2074416666667","6502800","萬里區"
"207004","225-TW","2018/01/27 18:49:26","新北市萬里區萬里里獅頭路23號","121.693215","25.1782483333333","6502800","萬里區"
"252002","178-VK","2018/01/27 18:49:33","新北市三芝區中正路一段101號","121.50471","25.25647","6502100","三芝區"
"252003","249-BX","2018/01/27 18:49:20","新北市三芝區後厝里大片頭83-5號","121.458908333333","25.2438466666667","6502100","三芝區"
"252001","292-VK","2018/01/27 18:49:26","新北市三芝區中正路三段9號","121.502861666667","25.2540233333333","6502100","三芝區"
"237007","153-BY","2018/01/27 18:49:41","新北市三峽區柑樹路2巷76號","121.36182","24.904645","6500900","三峽區"
"237013","252-BX","2018/01/27 18:49:22","新北市三峽區大同路56號","121.376746666667","24.9287816666667","6500900","三峽區"
"237012","275-BY","2018/01/27 18:49:28","新北市三峽區三樹路340號","121.383971666667","24.94331","6500900","三峽區"
"237008","302-VK","2018/01/27 18:49:26","新北市三峽區白雞33-60號","121.3709","24.9130916666667","6500900","三峽區"
"237014","433-BY","2018/01/27 18:49:33","新北市三峽區隆恩街174號","121.362723333333","24.9427766666667","6500900","三峽區"
"237006","5529-G3","2018/01/27 18:49:27","新北市三峽區溪東路211巷31弄7-1號","121.405418333333","24.9345983333333","6500900","三峽區"
"237010","706-TV","2018/01/27 18:49:23","新北市三峽區復興路275號","121.366318333333","24.9388833333333","6500900","三峽區"
"237005","AKY-6261","2018/01/27 18:49:29","新北市三峽區中山路459巷163-3號","121.34909","24.933395","6500900","三峽區"
"236073","105-UM","2018/01/27 18:49:33","新北市土城區延和路21巷19號","121.463921666667","24.988885","6501300","土城區"
"236043","107-UM","2018/01/27 18:49:29","新北市土城區裕民路92巷25弄4號","121.449588333333","24.9858966666667","6501300","土城區"
"236079","166-UM","2018/01/27 18:49:27","新北市土城區中央路四段185巷44號","121.416176666667","24.9558433333333","6501300","土城區"
"236031","253-BX","2018/01/27 18:49:34","新北市土城區忠義路26巷10號","121.439853333333","24.9699216666667","6501300","土城區"
"236026","269-VK","2018/01/27 18:49:38","新北市土城區興城路48號","121.44142","24.9726133333333","6501300","土城區"
"236015","270-VK","2018/01/27 18:49:27","新北市土城區清水路237號","121.461201666667","24.983145","6501300","土城區"
"236038","271-VK","2018/01/27 18:49:40","新北市土城區明德路一段237號","121.462781666667","24.978305","6501300","土城區"
"236023","401-BY","2018/01/27 18:49:29","新北市土城區延吉街253巷1號","121.467715","24.9847416666667","6501300","土城區"
"236059","912-UM","2018/01/27 18:49:35","新北市土城區中央路三段141-7號","121.433171666667","24.965345","6501300","土城區"
"236049","913-UM","2018/01/27 18:49:31","新北市土城區青雲路18號","121.46011","24.9888416666667","6501300","土城區"
"236063","915-UM","2018/01/27 18:49:26","新北市土城區金城路三段207巷6弄13號","121.470631666667","24.99023","6501300","土城區"
"236055","AAC-216","2018/01/27 18:49:33","新北市土城區裕民路224號","121.453738333333","24.9840666666667","6501300","土城區"
"238015","755-BX","2018/01/27 18:49:30","新北市樹林區中山路三段125-10號","121.397446666667","24.97361","6500700","樹林區"
"238023","601-UM","2018/01/27 18:49:30","新北市樹林區三福街114號","121.406498333333","25.0163183333333","6500700","樹林區"
"238024","5061-A6","2018/01/27 18:49:30","新北市樹林區育德街78號","121.387501666667","24.9683833333333","6500700","樹林區"
"238022","KEA-2213","2018/01/27 18:49:21","新北市樹林區中華路379巷25號","121.413726666667","24.977875","6500700","樹林區"
"238025","303-VK","2018/01/27 18:49:36","新北市樹林區中山路三段22號","121.39565","24.972925","6500700","樹林區"
"238017","283-BY","2018/01/27 18:49:30","新北市樹林區光興街50號","121.409858333333","25.0027133333333","6500700","樹林區"
"238014","282-BY","2018/01/27 18:49:35","新北市樹林區大安路111巷11號","121.423143333333","24.997635","6500700","樹林區"
"238020","268-VK","2018/01/27 18:49:29","新北市樹林區俊英街83巷1號","121.42579","25.008025","6500700","樹林區"
"238026","172-UY","2018/01/27 18:49:37","新北市樹林區信和街49巷2號","121.387606666667","24.9734166666667","6500700","樹林區"
"238016","169-UY","2018/01/27 18:49:22","新北市樹林區文化街27號","121.41916","24.9877233333333","6500700","樹林區"
"239006","891-R6","2018/01/27 18:49:35","新北市鶯歌區中正一路465號","121.371108333333","24.95867","6500800","鶯歌區"
"239008","527-UM","2018/01/27 18:49:20","新北市鶯歌區晨曦街20號","121.337586666667","24.97648","6500800","鶯歌區"
"239005","526-UM","2018/01/27 18:49:22","新北市鶯歌區鳳吉一街90號","121.327071666667","24.9744266666667","6500800","鶯歌區"
"239001","417-VK","2018/01/27 18:49:31","新北市鶯歌區鶯桃路64號","121.340656666667","24.9532133333333","6500800","鶯歌區"
"239003","360-BY","2018/01/27 18:49:22","新北市鶯歌區鶯桃路574號","121.330606666667","24.967815","6500800","鶯歌區"
"239004","193-VK","2018/01/27 18:49:07","新北市鶯歌區中正三路194巷40號","121.330995","24.9411333333333","6500800","鶯歌區"
"221036","130-UY","2018/01/27 18:49:26","新北市汐止區水碓街33號","121.66465","25.069715","6501100","汐止區"
"221010","269-BY","2018/01/27 18:49:29","新北市汐止區康寧街901號","121.650823333333","25.0752733333333","6501100","汐止區"
"221012","278-VK","2018/01/27 18:49:37","新北市汐止區康寧街901號","121.65083","25.0752216666667","6501100","汐止區"
"221023","279-VK","2018/01/27 18:49:14","新北市汐止區康寧街901號","121.650958333333","25.0752233333333","6501100","汐止區"
"221032","280-BY","2018/01/27 18:49:23","新北市汐止區橫科路121巷52弄3號","121.62265","25.0508616666667","6501100","汐止區"
"221027","281-BY","2018/01/27 18:49:36","新北市汐止區康寧街901號","121.651343333333","25.07508","6501100","汐止區"
"221002","297-VK","2018/01/27 18:49:29","新北市汐止區大同路一段154-1號","121.632056666667","25.0560366666667","6501100","汐止區"
"221029","298-VK","2018/01/27 18:49:25","新北市汐止區工建路64號","121.640556666667","25.0629833333333","6501100","汐止區"
"221021","299-VK","2018/01/27 18:49:25","新北市汐止區汐萬路一段256巷3號","121.652543333333","25.0744933333333","6501100","汐止區"
"221031","353-TW","2018/01/27 18:49:23","新北市汐止區福德一路300巷16號","121.630753333333","25.0640583333333","6501100","汐止區"
"221008","358-BY","2018/01/27 18:49:27","新北市汐止區康寧街901號","121.651381666667","25.0750116666667","6501100","汐止區"
"221015","567-BX","2018/01/27 18:49:28","新北市汐止區吉祥街3號","121.668053333333","25.0799333333333","6501100","汐止區"
"221035","622-UM","2018/01/27 18:49:38","新北市汐止區康寧街901號","121.651566666667","25.0749416666667","6501100","汐止區"
"221025","623-UM","2018/01/27 18:49:21","新北市汐止區仁愛路32號","121.66035","25.0628","6501100","汐止區"
"221038","646-BX","2018/01/27 18:49:33","新北市汐止區汐萬路一段312號","121.650653333333","25.0752583333333","6501100","汐止區"
"221033","647-BX","2018/01/27 18:49:26","新北市汐止區南勢街3號","121.627096666667","25.0374166666667","6501100","汐止區"
"221018","753-BX","2018/01/27 18:49:37","新北市汐止區茄苳路70號","121.666653333333","25.0706333333333","6501100","汐止區"
"220079","145-BY","2018/01/27 18:49:27","新北市板橋區民權路202巷7弄2-1號","121.459978333333","25.014865","6500100","板橋區"
"220080","200-UY","2018/01/27 18:49:32","新北市板橋區大觀路二段265巷72弄33號","121.44119","24.9970283333333","6500100","板橋區"
"220082","610-BX","2018/01/27 18:49:23","新北市板橋區篤行路三段玉平巷37號","121.428901666667","24.98694","6500100","板橋區"
"220096","255-TC","2018/01/27 18:49:20","新北市板橋區民生路二段161巷9號","121.470213333333","25.0195783333333","6500100","板橋區"
"220056","276-BY","2018/01/27 18:49:19","新北市土城區四川路35號","121.45493","24.9956333333333","6500100","板橋區"
"220072","277-BY","2018/01/27 18:49:33","新北市板橋區大觀路三段36巷5號","121.43378","24.9958566666667","6500100","板橋區"
"220094","283-UM","2018/01/27 18:49:30","新北市板橋區民生路二段161巷7號","121.470236666667","25.0196766666667","6500100","板橋區"
"220071","283-VK","2018/01/27 18:49:34","新北市板橋區忠孝路176巷3號","121.464646666667","25.0021233333333","6500100","板橋區"
"220053","285-VK","2018/01/27 18:49:32","新北市板橋區民生路二段89-4號","121.471016666667","25.0181566666667","6500100","板橋區"
"220083","286-VK","2018/01/27 18:49:25","新北市板橋區大觀路二段22巷28號","121.445251666667","25.0035683333333","6500100","板橋區"
"220081","287-VK","2018/01/27 18:49:38","新北市板橋區南雅西路二段90號","121.452463333333","25.01116","6500100","板橋區"
"220061","293-UM","2018/01/27 18:49:37","新北市板橋區太和街4巷15號","121.474316666667","25.020035","6500100","板橋區"
"220062","295-UM","2018/01/27 18:49:35","新北市板橋區觀光街2號","121.47246","25.0153666666667","6500100","板橋區"
"220084","296-UM","2018/01/27 18:49:26","新北市板橋區大觀路二段150巷77號","121.441405","25.0011683333333","6500100","板橋區"
"220075","303-R5","2018/01/27 18:49:25","新北市板橋區館前西路261號","121.45405","25.00865","6500100","板橋區"
"220092","307-R5","2018/01/27 18:49:37","新北市板橋區民生路二段120號","121.470706666667","25.0196983333333","6500100","板橋區"
"220055","461-BY","2018/01/27 18:49:36","新北市板橋區縣民大道一段306號","121.461368333333","25.0106483333333","6500100","板橋區"
"220064","486-VK","2018/01/27 18:49:39","新北市板橋區民生路二段36-1號","121.472115","25.0167433333333","6500100","板橋區"
"220089","487-VK","2018/01/27 18:49:30","新北市板橋區民生路二段161巷1號","121.470073333333","25.020205","6500100","板橋區"
"220088","491-VK","2018/01/27 18:49:28","新北市板橋區民生路二段161巷1號","121.469918333333","25.0200383333333","6500100","板橋區"
"220035","560-BX","2018/01/27 18:49:34","新北市板橋區中正路325巷30-2號","121.452951666667","25.018735","6500100","板橋區"
"220063","609-BX","2018/01/27 18:49:29","新北市板橋區民生路二段89-4號","121.470915","25.0182183333333","6500100","板橋區"
"220057","686-BX","2018/01/27 18:49:37","新北市板橋區華東街1-9號","121.448246666667","24.99488","6500100","板橋區"
"220077","687-BX","2018/01/27 18:49:24","新北市板橋區僑中二街152號","121.44481","25.00436","6500100","板橋區"
"220054","741-BX","2018/01/27 18:49:23","新北市板橋區南雅南路一段1巷42號","121.457516666667","25.0062816666667","6500100","板橋區"
"220067","829-TW","2018/01/27 18:49:36","新北市板橋區中山路二段50-2號","121.473455","25.0153066666667","6500100","板橋區"
"220074","895-R6","2018/01/27 18:49:23","新北市板橋區南門街6號","121.457528333333","25.009095","6500100","板橋區"
"220073","985-R7","2018/01/27 18:49:29","新北市板橋區南雅東路120號","121.45347","25.0086533333333","6500100","板橋區"
"220097","AAC-210","2018/01/27 18:49:27","新北市板橋區民生路二段161巷9號","121.470225","25.0196266666667","6500100","板橋區"
"220070","AAC-253","2018/01/27 18:49:42","新北市板橋區館前西路4-1號","121.459263333333","25.0071666666667","6500100","板橋區"
