"lineid","car","time","location","longitude","latitude","cityid","cityname"
"234046","148-BY","2018/01/27 18:59:23","新北市永和區得和路373巷16弄3號","121.525265","25.0001333333333","6500400","永和區"
"234007","207-UY","2018/01/27 18:59:31","新北市永和區中山路一段65號","121.512776666667","25.0106333333333","6500400","永和區"
"234081","298-R6","2018/01/27 18:59:36","新北市永和區永亨路67號","121.521376666667","25.0059466666667","6500400","永和區"
"234038","336-UY","2018/01/27 18:59:31","新北市中和區秀朗路三段36巷2號","121.526485","24.99602","6500400","永和區"
"234064","337-UY","2018/01/27 18:59:38","新北市永和區秀朗路一段205號","121.519076666667","25.0033316666667","6500400","永和區"
"234086","338-UY","2018/01/27 18:59:38","新北市永和區永寧街129巷2號","121.518075","25.00539","6500400","永和區"
"234070","552-UM","2018/01/27 18:59:31","新北市永和區中興街68巷5弄1號","121.51773","25.0115066666667","6500400","永和區"
"234017","745-BX","2018/01/27 18:59:40","新北市永和區永和路二段310號","121.516168333333","25.0160583333333","6500400","永和區"
"234030","746-BX","2018/01/27 18:59:39","新北市永和區厚德街5號","121.525628333333","24.9980016666667","6500400","永和區"
"234054","KEA-2590","2018/01/27 18:59:29","新北市永和區竹林路66巷15-7號","121.518361666667","25.0132933333333","6500400","永和區"
"234013","KEA-2591","2018/01/27 18:59:29","新北市永和區信義路17巷22號","121.513158333333","25.0111133333333","6500400","永和區"
"234061","AAD-866","2018/01/27 18:59:34","新北市永和區中正路509巷4號","121.516493333333","25.006995","6500400","永和區"
"234042","862-TW","2018/01/27 18:59:26","新北市永和區永貞路308號","121.51181","25.0048733333333","6500400","永和區"
"234050","863-TW","2018/01/27 18:59:23","新北市永和區文化路147號","121.510793333333","25.0161483333333","6500400","永和區"
"234026","9371-KE","2018/01/27 18:59:32","新北市永和區永貞路273號","121.51154","25.0050116666667","6500400","永和區"
"234011","9373-KE","2018/01/27 18:59:41","新北市永和區文化路90巷34號","121.513543333333","25.0165066666667","6500400","永和區"
"249005","172-UM","2018/01/27 18:59:35","新北市八里區長道坑6號","121.397786666667","25.123425","6502300","八里區"
"249001","173-UM","2018/01/27 18:59:31","新北市八里區龍米路二段228-1號","121.432743333333","25.15844","6502300","八里區"
"248016","026-BX","2018/01/27 18:59:35","新北市五股區成泰路三段543巷1號","121.45094","25.1021866666667","6501500","五股區"
"248006","077-UY","2018/01/27 18:59:22","新北市五股區中興路一段56號","121.467858333333","25.0726333333333","6501500","五股區"
"248008","095-VK","2018/01/27 18:59:24","新北市五股區中興路一段114號","121.466155","25.073795","6501500","五股區"
"248020","225-UY","2018/01/27 18:59:24","新北市五股區凌雲路三段104號","121.426256666667","25.1228283333333","6501500","五股區"
"248012","247-BX","2018/01/27 18:59:23","新北市五股區中興路四段48巷16號","121.438671666667","25.0834","6501500","五股區"
"248004","677-BX","2018/01/27 18:59:39","新北市五股區民義路三段1號","121.402531666667","25.1143883333333","6501500","五股區"
"248010","682-TV","2018/01/27 18:59:26","新北市五股區水碓七路1號","121.428055","25.07134","6501500","五股區"
"234023","9380-KE","2018/01/27 18:59:30","新北市永和區環河東路二段30號","121.522606666667","25.0127","6500400","永和區"
"234077","969-R7","2018/01/27 18:59:22","新北市永和區智光街22號","121.518071666667","24.9991666666667","6500400","永和區"
"234074","AAC-211","2018/01/27 18:59:26","新北市永和區環河東路二段100號","121.524105","25.01032","6500400","永和區"
"234066","AAC-212","2018/01/27 18:59:32","新北市永和區中和路625號","121.512913333333","25.004955","6500400","永和區"
"234003","AAC-295","2018/01/27 18:59:32","新北市永和區和平街46號","121.512873333333","25.0100033333333","6500400","永和區"
"232011","375-UM","2018/01/27 18:59:35","新北市坪林區水聳淒坑19-1號","121.712848333333","24.9352016666667","6502000","坪林區"
"244013","069-UM","2018/01/27 18:59:31","新北市林口區麗園路2巷33號","121.375058333333","25.0709716666667","6501700","林口區"
"244007","080-UY","2018/01/27 18:59:26","新北市林口區太平里4鄰20號","121.377616666667","25.116095","6501700","林口區"
"244019","402-UM","2018/01/27 18:59:25","新北市林口區麗園二街47巷9號","121.381421666667","25.0693816666667","6501700","林口區"
"244009","410-SL","2018/01/27 18:59:36","新北市林口區竹林路356號","121.39169","25.084295","6501700","林口區"
"244023","483-VK","2018/01/27 18:59:40","新北市林口區民權路81號","121.372323333333","25.08108","6501700","林口區"
"244017","485-VK","2018/01/27 18:59:29","新北市林口區仁愛路二段700號","121.369221666667","25.081055","6501700","林口區"
"244011","656-BX","2018/01/27 18:59:41","新北市林口區中興街3-1號","121.389033333333","25.077685","6501700","林口區"
"244025","837-TS","2018/01/27 18:59:33","新北市林口區文化北路一段412巷78號","121.365678333333","25.0761983333333","6501700","林口區"
"243012","AAD-798","2018/01/27 18:59:40","新北市泰山區仁德路114號","121.432835","25.0569333333333","6501600","泰山區"
"243015","380-SR","2018/01/27 18:59:34","新北市泰山區明志路一段201號","121.432893333333","25.0614033333333","6501600","泰山區"
"243014","421-VK","2018/01/27 18:59:26","新北市泰山區黎明路2-5號","121.420865","25.0626216666667","6501600","泰山區"
"243010","KEA-2215","2018/01/27 18:59:42","新北市泰山區辭修路28號","121.428998333333","25.05818","6501600","泰山區"
"243009","KEA-2216","2018/01/27 18:59:40","新北市泰山區福德街3號","121.432373333333","25.0622483333333","6501600","泰山區"
"243013","646-TV","2018/01/27 18:59:35","新北市泰山區明志路三段351巷26號","121.422726666667","25.0347683333333","6501600","泰山區"
"243016","680-BX","2018/01/27 18:59:38","新北市泰山區明志路二段137號","121.427701666667","25.050485","6501600","泰山區"
"222003","016-RS","2018/01/27 18:59:27","新北市深坑區深南路51-1號","121.62131","25.0101466666667","6501800","深坑區"
"222002","659-BX","2018/01/27 18:59:36","新北市深坑區文山路一段33號","121.629765","25.00415","6501800","深坑區"
"231041","002-UM","2018/01/27 18:59:38","新北市新店區環河路64號","121.537103333333","24.962755","6500600","新店區"
"231058","0291-UT","2018/01/27 18:59:22","新北市新店區中正路5號","121.545753333333","24.969045","6500600","新店區"
"231059","046-UY","2018/01/27 18:59:22","新北市新店區安華路8號","121.519821666667","24.96198","6500600","新店區"
"231061","047-UY","2018/01/27 18:59:38","新北市新店區安康路一段353號","121.519151666667","24.9638816666667","6500600","新店區"
"231051","107-UY","2018/01/27 18:59:36","新北市新店區百忍街10巷2號","121.534931666667","24.975585","6500600","新店區"
"231048","108-UY","2018/01/27 18:59:36","新北市新店區德正街27巷29弄45號","121.545763333333","24.972105","6500600","新店區"
"231052","110-UY","2018/01/27 18:59:25","新北市新店區新烏路二段7號","121.543858333333","24.92959","6500600","新店區"
"231050","KEA-2219","2018/01/27 18:59:33","新北市新店區新烏路一段11巷7號","121.547286666667","24.9513383333333","6500600","新店區"
"231046","278-BY","2018/01/27 18:59:35","新北市新店區直潭五街19號","121.534228333333","24.9412383333333","6500600","新店區"
"231054","AAD-862","2018/01/27 18:59:35","新北市新店區國校路77號","121.538481666667","24.95242","6500600","新店區"
"231056","3713-VJ","2018/01/27 18:59:26","新北市新店區大同街2號","121.539786666667","24.9800233333333","6500600","新店區"
"231055","4716-K9","2018/01/27 18:59:32","新北市新店區北新路一段271巷35號","121.539501666667","24.9668916666667","6500600","新店區"
"231067","4772-VM","2018/01/27 18:59:22","新北市新店區安康路一段247巷4弄4號","121.524221666667","24.9626216666667","6500600","新店區"
"231065","512-UM","2018/01/27 18:59:41","新北市新店區安祥路109巷154號","121.47817","24.957605","6500600","新店區"
"231064","515-UM","2018/01/27 18:59:38","新北市新店區安忠路8-1號","121.514775","24.9631266666667","6500600","新店區"
"231042","616-UM","2018/01/27 18:59:40","新北市新店區中正路7號","121.545783333333","24.969235","6500600","新店區"
"231045","617-UM","2018/01/27 18:59:27","新北市新店區光明街1-1號","121.537985","24.9590983333333","6500600","新店區"
"231060","618-UM","2018/01/27 18:59:41","新北市新店區車子路10-4號","121.504898333333","24.9545416666667","6500600","新店區"
"231040","619-UM","2018/01/27 18:59:40","新北市新店區三民路124號","121.534628333333","24.974465","6500600","新店區"
"231063","645-TV","2018/01/27 18:59:31","新北市新店區車子路110號","121.505236666667","24.9520766666667","6500600","新店區"
"231049","719-UM","2018/01/27 18:59:28","新北市新店區中正路418巷21號","121.534993333333","24.9787366666667","6500600","新店區"
"231062","720-UM","2018/01/27 18:59:23","新北市新店區安和路一段43號","121.517045","24.9655416666667","6500600","新店區"
"231044","897-TW","2018/01/27 18:59:22","新北市新店區寶中路72號","121.547895","24.98063","6500600","新店區"
"231043","899-TW","2018/01/27 18:59:33","新北市新店區北新路二段7號","121.542618333333","24.971315","6500600","新店區"
"231066","AKT-0513","2018/01/27 18:59:39","新北市新店區安康路三段2-2號","121.493328333333","24.9533433333333","6500600","新店區"
"235066","003-UY","2018/01/27 18:59:39","新北市中和區中山路二段131巷11號","121.5028","25.002365","6500300","中和區"
"235064","005-UY","2018/01/27 18:59:39","新北市中和區泰和街44巷23號","121.498291666667","25.0009383333333","6500300","中和區"
"235056","096-UM","2018/01/27 18:59:25","新北市中和區員山路466巷17弄16號","121.480528333333","25.007405","6500300","中和區"
"235039","097-UM","2018/01/27 18:59:29","新北市中和區安樂路217巷33號","121.513515","24.998055","6500300","中和區"
"235065","098-UM","2018/01/27 18:59:38","新北市中和區勝利路35巷9弄16號","121.499795","25.00728","6500300","中和區"
"235040","150-BY","2018/01/27 18:59:33","新北市中和區安樂路51巷16號","121.511643333333","24.993945","6500300","中和區"
"235058","151-BY","2018/01/27 18:59:37","新北市中和區連城路569巷9弄5號","121.479475","24.99415","6500300","中和區"
"235055","183-VK","2018/01/27 18:59:31","新北市中和區民德路17號","121.468873333333","25.0028516666667","6500300","中和區"
"235038","185-VK","2018/01/27 18:59:32","新北市中和區立人街24-5號","121.518683333333","24.9940966666667","6500300","中和區"
"235013","186-VK","2018/01/27 18:59:35","新北市中和區景安路167巷19號","121.506375","24.9949083333333","6500300","中和區"
"235067","255-BX","2018/01/27 18:59:29","新北市中和區民樂路62號","121.483961666667","25.0012566666667","6500300","中和區"
"235044","293-VK","2018/01/27 18:59:25","新北市中和區中興街161巷1弄1號","121.500175","24.9908916666667","6500300","中和區"
"235072","301-VK","2018/01/27 18:59:32","新北市中和區中山路二段262號","121.497316666667","25.0024333333333","6500300","中和區"
"235043","352-BY","2018/01/27 18:59:25","新北市中和區成功路41巷1號","121.526155","24.99337","6500300","中和區"
"235068","377-QA","2018/01/27 18:59:33","新北市中和區圓通路232巷1號","121.49482","24.99285","6500300","中和區"
"235061","378-QA","2018/01/27 18:59:26","新北市中和區民治街134巷12號","121.474798333333","25.0020066666667","6500300","中和區"
"235050","4979-A6","2018/01/27 18:59:21","新北市中和區忠孝街29號","121.510461666667","24.9830616666667","6500300","中和區"
"235069","4980-A6","2018/01/27 18:59:40","新北市中和區圓通路109巷1弄2號","121.499936666667","24.9963566666667","6500300","中和區"
"235042","551-UM","2018/01/27 18:59:24","新北市中和區秀朗路三段78巷1弄3號","121.52571","24.9938733333333","6500300","中和區"
"235070","558-UM","2018/01/27 18:59:42","新北市中和區中和路217巷18弄1號","121.50482","25.0003183333333","6500300","中和區"
"235045","565-BX","2018/01/27 18:59:36","新北市中和區景新街467巷3號","121.513628333333","24.988215","6500300","中和區"
"235054","640-BX","2018/01/27 18:59:22","新北市中和區民享街27巷1號","121.474075","25.004745","6500300","中和區"
"235060","647-TV","2018/01/27 18:59:22","新北市中和區中山路三段117號","121.47459","25.00619","6500300","中和區"
"235047","732-UM","2018/01/27 18:59:15","新北市中和區興南路二段36號","121.50682","24.9854383333333","6500300","中和區"
"235046","733-UM","2018/01/27 18:59:39","新北市中和區興南路二段11號","121.508241666667","24.986155","6500300","中和區"
"235041","802-TS","2018/01/27 18:59:25","新北市中和區安平路145巷18號","121.511433333333","24.99853","6500300","中和區"
"235052","805-TS","2018/01/27 18:59:28","新北市中和區興南路二段345號","121.501283333333","24.9806683333333","6500300","中和區"
"235048","896-TW","2018/01/27 18:59:35","新北市中和區華新街111號","121.508446666667","24.9816216666667","6500300","中和區"
"235053","900-TW","2018/01/27 18:59:34","新北市中和區民德路398號","121.465918333333","24.9935083333333","6500300","中和區"
"235063","911-UM","2018/01/27 18:59:33","新北市中和區中正路531號","121.487873333333","24.9943566666667","6500300","中和區"
"235051","157-BY","2018/01/27 18:59:34","新北市中和區忠孝街9號","121.509951666667","24.9828283333333","6500300","中和區"
"235037","AAC-213","2018/01/27 18:59:21","新北市中和區自立路41號","121.522055","24.9952683333333","6500300","中和區"
"235059","AAC-215","2018/01/27 18:59:19","新北市中和區圓通路367巷18-2號","121.491938333333","24.9888216666667","6500300","中和區"
"220068","013-TV","2018/01/27 18:59:22","新北市板橋區富山街109巷24號","121.47583","25.0215366666667","6500100","板橋區"
"220065","072-UY","2018/01/27 18:59:25","新北市板橋區漢生東路322號","121.471603333333","25.0080866666667","6500100","板橋區"
"220086","073-UY","2018/01/27 18:59:37","新北市板橋區民權路209-1號","121.457855","25.0148016666667","6500100","板橋區"
"220106","075-UY","2018/01/27 18:59:31","新北市板橋區文化路二段124巷28-2號","121.471226666667","25.0255983333333","6500100","板橋區"
"220069","AAD-861","2018/01/27 18:59:28","新北市板橋區華興街81號","121.456868333333","25.00507","6500100","板橋區"
"220090","120-SR","2018/01/27 18:59:40","新北市板橋區四維路177巷1弄4號","121.464116666667","25.026125","6500100","板橋區"
"226004","205-ST","2018/01/27 18:59:30","新北市平溪區石底里公園街17號","121.737146666667","25.0249266666667","6502400","平溪區"
"235057","251-BX","2018/01/27 18:59:25","新北市中和區民利街30號","121.47985","24.99905","6500300","中和區"
"228003","097-TW","2018/01/27 18:59:41","新北市貢寮區和美里龍洞街8-1號","121.919953333333","25.1106166666667","6502600","貢寮區"
"228001","212-TW","2018/01/27 18:59:27","新北市貢寮區仁理村研海街12-1號","121.923771666667","25.0516466666667","6502600","貢寮區"
"228002","663-BX","2018/01/27 18:59:31","新北市貢寮區福隆里東興街92-1號","121.945938333333","25.0175833333333","6502600","貢寮區"
"224010","AGQ-8101","2018/01/27 18:52:28","新北市瑞芳區基山街4號","121.84514","25.10975","6501200","瑞芳區"
"224006","676-BX","2018/01/27 18:59:39","新北市瑞芳區中正路30號","121.807316666667","25.1071966666667","6501200","瑞芳區"
"224009","285-BY","2018/01/27 18:59:35","新北市瑞芳區五號路253-1號","121.856368333333","25.1125366666667","6501200","瑞芳區"
"224008","275-VK","2018/01/27 18:59:40","新北市瑞芳區逢甲路343號","121.80054","25.1122816666667","6501200","瑞芳區"
"224007","273-VK","2018/01/27 18:59:27","新北市瑞芳區大埔路106號","121.76176","25.1003333333333","6501200","瑞芳區"
"224005","271-BY","2018/01/27 18:59:34","新北市瑞芳區濱二路68-1號","121.829736666667","25.1200316666667","6501200","瑞芳區"
"227010","642-TC","2018/01/27 18:59:21","新北市雙溪區牡丹里中正路58巷23號","121.866408333333","25.0416566666667","6502500","雙溪區"
"227002","400-TW","2018/01/27 18:59:39","新北市雙溪區平林里康福家園10號","121.858763333333","25.0372916666667","6502500","雙溪區"
"253005","032-BX","2018/01/27 18:59:30","新北市石門區中央路37-2號","121.568615","25.2953883333333","6502200","石門區"
"253006","295-VK","2018/01/27 18:59:36","新北市石門區下員坑46-6號","121.51726","25.2770083333333","6502200","石門區"
"222001","KEA-2212","2018/01/27 18:59:35","新北市深坑區北深路一段104號","121.635585","25.0107466666667","6501800","深坑區"
"208002","742-BX","2018/01/27 18:59:32","新北市金山區信義路39號","121.635333333333","25.2196216666667","6502700","金山區"
"208003","665-BX","2018/01/27 18:59:36","新北市金山區中正路27號","121.63531","25.2221216666667","6502700","金山區"
"208001","761-BX","2018/01/27 18:59:28","新北市金山區中山路79號","121.64028","25.21864","6502700","金山區"
"251009","008-UM","2018/01/27 18:59:22","新北市淡水區建設街1巷7-2號","121.439321666667","25.17278","6501000","淡水區"
"251013","179-VK","2018/01/27 18:59:32","新北市淡水區安子內5-1號","121.484526666667","25.2160483333333","6501000","淡水區"
"251014","180-VK","2018/01/27 18:59:24","新北市淡水區小中寮32-1號","121.491793333333","25.225765","6501000","淡水區"
"251015","182-VK","2018/01/27 18:58:48","新北市淡水區糞箕湖129巷1號","121.488225","25.1726316666667","6501000","淡水區"
"251010","413-VK","2018/01/27 18:59:36","新北市淡水區沙崙路97號","121.422323333333","25.182355","6501000","淡水區"
"251012","441-VK","2018/01/27 18:59:33","新北市淡水區新春街126巷15弄17號","121.44055","25.1808933333333","6501000","淡水區"
"251016","442-VK","2018/01/27 18:59:23","新北市淡水區埤島23-2號","121.447476666667","25.199025","6501000","淡水區"
"251001","559-UM","2018/01/27 18:59:32","新北市淡水區自強路58號","121.463193333333","25.1274533333333","6501000","淡水區"
"251011","650-BX","2018/01/27 18:59:27","新北市淡水區坪頂路27號","121.456716666667","25.1621383333333","6501000","淡水區"
"251002","672-BX","2018/01/27 18:59:33","新北市淡水區中正東路71號","121.447415","25.1677416666667","6501000","淡水區"
"251003","673-BX","2018/01/27 18:59:30","新北市淡水區中山北路一段149巷28號","121.442973333333","25.1781916666667","6501000","淡水區"
"207003","550-UM","2018/01/27 18:59:29","新北市萬里區大鵬里頂社24-5號","121.657695","25.20993","6502800","萬里區"
"207004","225-TW","2018/01/27 18:59:26","新北市萬里區萬里里獅頭路23號","121.69316","25.1782633333333","6502800","萬里區"
"252002","178-VK","2018/01/27 18:59:33","新北市三芝區中正路一段67-1號","121.503926666667","25.2573433333333","6502100","三芝區"
"252003","249-BX","2018/01/27 18:59:39","新北市三芝區後厝里北勢子42-1號","121.47173","25.25217","6502100","三芝區"
"252001","292-VK","2018/01/27 18:59:26","新北市三芝區中興街二段260號","121.501733333333","25.2530366666667","6502100","三芝區"
"237007","153-BY","2018/01/27 18:59:41","新北市三峽區大埔路92號","121.366448333333","24.906995","6500900","三峽區"
"237013","252-BX","2018/01/27 18:59:22","新北市三峽區大同路56號","121.376695","24.9287533333333","6500900","三峽區"
"237012","275-BY","2018/01/27 18:59:28","新北市三峽區三樹路212-1號","121.379226666667","24.9420083333333","6500900","三峽區"
"237008","302-VK","2018/01/27 18:59:26","新北市三峽區中正路一段375號","121.370826666667","24.9224983333333","6500900","三峽區"
"237014","433-BY","2018/01/27 18:59:33","新北市三峽區隆恩街551號","121.357286666667","24.940055","6500900","三峽區"
"237006","5529-G3","2018/01/27 18:59:27","新北市三峽區溪東路233巷47弄2號","121.411301666667","24.93523","6500900","三峽區"
"237010","706-TV","2018/01/27 18:59:23","新北市三峽區國光街362號","121.370981666667","24.9397783333333","6500900","三峽區"
"237005","AKY-6261","2018/01/27 18:59:29","新北市三峽區中山路459巷163-3號","121.348676666667","24.9329683333333","6500900","三峽區"
"236073","105-UM","2018/01/27 18:59:33","新北市土城區清水路105號","121.456893333333","24.982345","6501300","土城區"
"236043","107-UM","2018/01/27 18:59:29","新北市土城區學府路一段217號","121.451441666667","24.9844066666667","6501300","土城區"
"236079","166-UM","2018/01/27 18:59:27","新北市土城區中央路四段222號","121.415635","24.9572416666667","6501300","土城區"
"236031","253-BX","2018/01/27 18:59:34","新北市土城區慶利街18號","121.439595","24.9736683333333","6501300","土城區"
"236026","269-VK","2018/01/27 18:59:38","新北市土城區中央路二段246號","121.441893333333","24.9749233333333","6501300","土城區"
"236015","270-VK","2018/01/27 18:59:34","新北市土城區立德路24號","121.462903333333","24.987825","6501300","土城區"
"236038","271-VK","2018/01/27 18:59:40","新北市土城區明德路一段196巷13號","121.46138","24.978345","6501300","土城區"
"236023","401-BY","2018/01/27 18:59:29","新北市土城區德峰街41巷6號","121.467911666667","24.986145","6501300","土城區"
"236059","912-UM","2018/01/27 18:59:27","新北市土城區明德路一段385-1號","121.452443333333","24.9797716666667","6501300","土城區"
"236049","913-UM","2018/01/27 18:59:38","新北市土城區青雲路322巷2弄2號","121.458546666667","24.9771266666667","6501300","土城區"
"236063","915-UM","2018/01/27 18:59:35","新北市土城區延和路41巷6弄18號","121.46674","24.99022","6501300","土城區"
"236055","AAC-216","2018/01/27 18:59:33","新北市土城區學成路147號","121.44876","24.9895416666667","6501300","土城區"
"238023","601-UM","2018/01/27 18:59:30","新北市樹林區工興街15號","121.398073333333","25.0136966666667","6500700","樹林區"
"238021","KEA-2217","2018/01/27 18:59:31","新北市樹林區西圳街二段123巷6弄1號","121.384641666667","24.9569966666667","6500700","樹林區"
"238022","KEA-2213","2018/01/27 18:59:21","新北市樹林區東興街14-2號","121.410068333333","24.97843","6500700","樹林區"
"238025","303-VK","2018/01/27 18:59:36","新北市樹林區民和街77號","121.380228333333","24.9721433333333","6500700","樹林區"
"238017","283-BY","2018/01/27 18:59:30","新北市樹林區光興街50號","121.40984","25.0027216666667","6500700","樹林區"
"238014","282-BY","2018/01/27 18:59:35","新北市樹林區潭興街141巷1號","121.42545","24.9994483333333","6500700","樹林區"
"238020","268-VK","2018/01/27 18:59:29","新北市樹林區俊英街190號","121.425808333333","25.008035","6500700","樹林區"
"238026","172-UY","2018/01/27 18:59:37","新北市樹林區中山路三段166號","121.389146666667","24.9703216666667","6500700","樹林區"
"238016","169-UY","2018/01/27 18:59:42","新北市樹林區文化街25巷15號","121.418478333333","24.986615","6500700","樹林區"
"239006","891-R6","2018/01/27 18:59:35","新北市鶯歌區鶯桃路296巷53號","121.335895","24.9613116666667","6500800","鶯歌區"
"239008","527-UM","2018/01/27 18:59:20","新北市鶯歌區國際二路20巷44號","121.337888333333","24.975925","6500800","鶯歌區"
"239005","526-UM","2018/01/27 18:59:22","新北市鶯歌區大湖路361巷24弄28號","121.329698333333","24.9777366666667","6500800","鶯歌區"
"239001","417-VK","2018/01/27 18:59:31","新北市鶯歌區永明街60巷6號","121.340053333333","24.9561316666667","6500800","鶯歌區"
"239003","360-BY","2018/01/27 18:59:22","新北市鶯歌區鶯桃路660號","121.329136666667","24.9692116666667","6500800","鶯歌區"
"239004","193-VK","2018/01/27 18:59:27","新北市鶯歌區中正三路230巷5-5號","121.330658333333","24.938545","6500800","鶯歌區"
"221036","130-UY","2018/01/27 18:59:26","新北市汐止區新台五路二段69號","121.663938333333","25.06658","6501100","汐止區"
"221010","269-BY","2018/01/27 18:59:29","新北市汐止區康寧街901號","121.651505","25.0749133333333","6501100","汐止區"
"221012","278-VK","2018/01/27 18:59:37","新北市汐止區康寧街901號","121.650826666667","25.0752016666667","6501100","汐止區"
"221023","279-VK","2018/01/27 18:59:34","新北市汐止區康寧街901號","121.650985","25.0752016666667","6501100","汐止區"
"221032","280-BY","2018/01/27 18:51:23","新北市汐止區橫科路40-2號","121.620803333333","25.0504166666667","6501100","汐止區"
"221027","281-BY","2018/01/27 18:59:36","新北市汐止區康寧街901號","121.651391666667","25.0749516666667","6501100","汐止區"
"221002","297-VK","2018/01/27 18:59:29","新北市汐止區大同路一段2號","121.62102","25.0550783333333","6501100","汐止區"
"221029","298-VK","2018/01/27 18:59:25","新北市汐止區樟樹一路258號","121.642363333333","25.0673983333333","6501100","汐止區"
"221021","299-VK","2018/01/27 18:59:25","新北市汐止區康寧街901號","121.651438333333","25.075","6501100","汐止區"
"221031","353-TW","2018/01/27 18:59:23","新北市汐止區中興路181巷23號","121.629708333333","25.0660216666667","6501100","汐止區"
"221008","358-BY","2018/01/27 18:59:27","新北市汐止區翠峰街21巷3弄8號","121.64351","25.0756783333333","6501100","汐止區"
"221015","567-BX","2018/01/27 18:59:28","新北市汐止區鄉長路一段43號","121.665371666667","25.0749916666667","6501100","汐止區"
"221025","623-UM","2018/01/27 18:59:41","新北市汐止區汐萬路一段256巷3號","121.652726666667","25.0744616666667","6501100","汐止區"
"221038","646-BX","2018/01/27 18:59:33","新北市汐止區汐萬路一段312號","121.650691666667","25.0752583333333","6501100","汐止區"
"221033","647-BX","2018/01/27 18:59:26","新北市汐止區南勢街3號","121.627086666667","25.03734","6501100","汐止區"
"221018","753-BX","2018/01/27 18:59:37","新北市汐止區汐萬路一段310號","121.65035","25.0748133333333","6501100","汐止區"
"220079","145-BY","2018/01/27 18:59:37","新北市板橋區民權路202巷11弄1號","121.460513333333","25.0156666666667","6500100","板橋區"
"220080","200-UY","2018/01/27 18:59:32","新北市板橋區大觀路二段265巷1弄28-2號","121.444126666667","24.9983083333333","6500100","板橋區"
"220082","610-BX","2018/01/27 18:59:23","新北市板橋區溪北路132號","121.429196666667","24.9888116666667","6500100","板橋區"
"220101","245-BX","2018/01/27 18:59:37","新北市板橋區文化路二段182巷7弄1號","121.471915","25.0267866666667","6500100","板橋區"
"220096","255-TC","2018/01/27 18:59:41","新北市板橋區莒光路75號","121.471568333333","25.0241733333333","6500100","板橋區"
"220103","257-TC","2018/01/27 18:59:37","新北市板橋區民生路二段121號","121.470801666667","25.0184483333333","6500100","板橋區"
"220091","267-BY","2018/01/27 18:59:38","新北市板橋區雙十路二段47巷38號","121.475248333333","25.0256666666667","6500100","板橋區"
"220056","276-BY","2018/01/27 18:59:28","新北市板橋區信義路147號","121.458208333333","24.992815","6500100","板橋區"
"220072","277-BY","2018/01/27 18:59:33","新北市板橋區溪北路154號","121.430431666667","24.9881916666667","6500100","板橋區"
"220094","283-UM","2018/01/27 18:59:30","新北市板橋區莒光路5號","121.469713333333","25.0249016666667","6500100","板橋區"
"220071","283-VK","2018/01/27 18:59:34","新北市板橋區重慶路243號","121.46312","25.0006483333333","6500100","板橋區"
"220053","285-VK","2018/01/27 18:59:38","新北市板橋區中山路二段89巷34號","121.473865","25.016785","6500100","板橋區"
"220083","286-VK","2018/01/27 18:59:33","新北市板橋區大觀路一段38巷156弄132號","121.443351666667","25.008045","6500100","板橋區"
"220081","287-VK","2018/01/27 18:59:38","新北市板橋區光華街15巷40號","121.452848333333","25.0116283333333","6500100","板橋區"
"220061","293-UM","2018/01/27 18:59:37","新北市板橋區永豐街120巷2弄11號","121.476398333333","25.020185","6500100","板橋區"
"220062","295-UM","2018/01/27 18:59:42","新北市板橋區三民路二段245巷2號","121.479393333333","25.01246","6500100","板橋區"
"220084","296-UM","2018/01/27 18:59:25","新北市板橋區大觀路二段174巷116弄47號","121.442351666667","25.0012966666667","6500100","板橋區"
"220102","299-UM","2018/01/27 18:59:36","新北市板橋區萬板路706號","121.481521666667","25.02742","6500100","板橋區"
"220075","303-R5","2018/01/27 18:59:25","新北市板橋區茶館街26號","121.456425","25.0106416666667","6500100","板橋區"
"220092","307-R5","2018/01/27 18:59:37","新北市板橋區文化路一段90號","121.464293333333","25.017625","6500100","板橋區"
"220098","317-R6","2018/01/27 18:59:36","新北市板橋區民有街14號","121.466325","25.02479","6500100","板橋區"
"220055","461-BY","2018/01/27 18:59:36","新北市板橋區中山路一段158巷14-3號","121.466175","25.011505","6500100","板橋區"
"220064","486-VK","2018/01/27 18:59:39","新北市板橋區漢生東路166號","121.466958333333","25.0148216666667","6500100","板橋區"
"220089","487-VK","2018/01/27 18:59:30","新北市板橋區仁化街2號","121.474093333333","25.0315533333333","6500100","板橋區"
"220088","491-VK","2018/01/27 18:59:40","新北市板橋區民生路二段232-13號","121.468723333333","25.02244","6500100","板橋區"
"220035","560-BX","2018/01/27 18:59:38","新北市板橋區中正路341巷37號","121.454011666667","25.0196983333333","6500100","板橋區"
"220063","609-BX","2018/01/27 18:59:29","新北市板橋區中山路二段161號","121.475875","25.0167083333333","6500100","板橋區"
"220057","686-BX","2018/01/27 18:59:37","新北市板橋區館前西路44號","121.458535","25.0070133333333","6500100","板橋區"
"220077","687-BX","2018/01/27 18:59:24","新北市板橋區龍興街6號","121.442728333333","24.9995616666667","6500100","板橋區"
"220093","689-BX","2018/01/27 18:59:32","新北市板橋區文化路一段479巷42號","121.467946666667","25.0234216666667","6500100","板橋區"
"220054","741-BX","2018/01/27 18:59:23","新北市板橋區重慶路139巷12號","121.46291","25.00454","6500100","板橋區"
"220067","829-TW","2018/01/27 18:59:40","新北市板橋區三民路二段正隆巷12弄16-2號","121.4777","25.0135016666667","6500100","板橋區"
"220074","895-R6","2018/01/27 18:59:23","新北市板橋區西門街59號","121.454463333333","25.00909","6500100","板橋區"
"220073","985-R7","2018/01/27 18:59:29","新北市板橋區民權路236號","121.458523333333","25.01444","6500100","板橋區"
"220097","AAC-210","2018/01/27 18:59:27","新北市板橋區四維路112巷11號","121.46566","25.0252666666667","6500100","板橋區"
"220070","AAC-253","2018/01/27 18:59:23","新北市板橋區四川路一段278號","121.458803333333","25.00092","6500100","板橋區"
