"lineid","car","time","location","longitude","latitude","cityid","cityname"
"234007","207-UY","2018/01/27 20:19:30","新北市永和區環河西路二段229巷3號","121.501378333333","25.0098766666667","6500400","永和區"
"234081","298-R6","2018/01/27 20:19:36","新北市永和區福和路19巷1弄3號","121.524268333333","25.0078483333333","6500400","永和區"
"234038","336-UY","2018/01/27 20:19:31","新北市永和區成功路一段93巷11號","121.527536666667","25.0027266666667","6500400","永和區"
"234064","337-UY","2018/01/27 20:19:27","新北市永和區中正路342號","121.517803333333","25.0001566666667","6500400","永和區"
"234086","338-UY","2018/01/27 20:19:37","新北市永和區永和路二段35號","121.514505","25.0103733333333","6500400","永和區"
"234070","552-UM","2018/01/27 20:19:24","新北市永和區永利路21號","121.517985","25.006315","6500400","永和區"
"234017","745-BX","2018/01/27 20:19:20","新北市永和區仁愛路48號","121.514048333333","25.0134233333333","6500400","永和區"
"234030","746-BX","2018/01/27 20:19:39","新北市中和區自強路20號","121.520376666667","24.9954566666667","6500400","永和區"
"234054","KEA-2590","2018/01/27 20:19:29","新北市永和區永和路二段336號","121.51641","25.0166716666667","6500400","永和區"
"234061","AAD-866","2018/01/27 20:19:33","新北市永和區安樂路96號","121.514438333333","24.99917","6500400","永和區"
"234042","862-TW","2018/01/27 20:19:26","新北市永和區雙和街4號","121.509816666667","25.0017683333333","6500400","永和區"
"234050","863-TW","2018/01/27 20:19:43","新北市永和區保安路50號","121.51029","25.0168416666667","6500400","永和區"
"234026","9371-KE","2018/01/27 20:19:32","新北市永和區福和路1號","121.526426666667","25.009765","6500400","永和區"
"234011","9373-KE","2018/01/27 20:19:21","新北市永和區保生路55-1號","121.504503333333","25.0108966666667","6500400","永和區"
"249005","172-UM","2018/01/27 20:19:34","新北市八里區下罟子2-1號","121.38847","25.1417933333333","6502300","八里區"
"249001","173-UM","2018/01/27 20:19:29","新北市八里區中華路二段538-1號","121.39901","25.1450983333333","6502300","八里區"
"249004","303-UY","2018/01/27 20:19:25","新北市八里區中山路一段322號","121.413038333333","25.1591516666667","6502300","八里區"
"249002","305-UY","2018/01/27 20:19:40","新北市八里區龍米路二段32巷16號","121.448973333333","25.1406383333333","6502300","八里區"
"249003","593-UM","2018/01/27 20:19:35","新北市八里區中山路二段447巷21號","121.397415","25.1453633333333","6502300","八里區"
"248016","026-BX","2018/01/27 20:19:35","新北市五股區凌雲路一段158巷39弄12號","121.446493333333","25.1040916666667","6501500","五股區"
"248012","247-BX","2018/01/27 20:19:42","新北市五股區六合街100號","121.431015","25.0910516666667","6501500","五股區"
"248014","261-SL","2018/01/27 20:19:26","新北市五股區凌雲路三段17-2號","121.429781666667","25.1085316666667","6501500","五股區"
"248004","677-BX","2018/01/27 20:19:39","新北市五股區中興路四段42號","121.438268333333","25.0829066666667","6501500","五股區"
"248010","682-TV","2018/01/27 20:19:26","新北市五股區成泰路一段2-9號","121.434166666667","25.0671766666667","6501500","五股區"
"234023","9380-KE","2018/01/27 20:19:29","新北市永和區永和路二段168號","121.515358333333","25.0129433333333","6500400","永和區"
"234077","969-R7","2018/01/27 20:19:22","新北市永和區民享街8號","121.515191666667","24.9954383333333","6500400","永和區"
"234074","AAC-211","2018/01/27 20:19:43","新北市永和區竹林路201巷22弄1號","121.521993333333","25.00937","6500400","永和區"
"234067","AAC-212","2018/01/27 20:19:32","新北市永和區保平路232號","121.50929","25.0055333333333","6500400","永和區"
"234003","AAC-295","2018/01/27 20:19:32","新北市永和區自強街6巷1弄7號","121.51455","25.0081016666667","6500400","永和區"
"244019","402-UM","2018/01/27 20:19:25","新北市林口區粉寮路二段14號","121.401571666667","25.0852383333333","6501700","林口區"
"243012","267-VK","2018/01/27 20:19:34","新北市泰山區楓江路83巷3號","121.436863333333","25.0635866666667","6501600","泰山區"
"243011","297-R6","2018/01/27 20:19:33","新北市新莊區明志路19號","121.419836666667","25.0292933333333","6501600","泰山區"
"243015","380-SR","2018/01/27 20:19:25","新北市泰山區泰林路二段196號","121.433443333333","25.0612266666667","6501600","泰山區"
"243014","421-VK","2018/01/27 20:19:26","新北市泰山區泰林路二段420號","121.427075","25.0643466666667","6501600","泰山區"
"243010","KEA-2215","2018/01/27 20:19:42","新北市泰山區明志路二段214巷16弄45號","121.426603333333","25.0504666666667","6501600","泰山區"
"243009","KEA-2216","2018/01/27 20:19:39","新北市泰山區泰林路二段304號","121.430783333333","25.06287","6501600","泰山區"
"243013","646-TV","2018/01/27 20:19:35","新北市泰山區中央路5巷14號","121.427253333333","25.0432333333333","6501600","泰山區"
"243016","680-BX","2018/01/27 20:19:38","新北市泰山區明志路三段167號","121.424561666667","25.039395","6501600","泰山區"
"222003","016-RS","2018/01/27 20:19:32","新北市深坑區文化街76號","121.618121666667","25.0019666666667","6501800","深坑區"
"222002","659-BX","2018/01/27 20:17:36","新北市深坑區萬福路75巷8號","121.600596666667","25.0093266666667","6501800","深坑區"
"231041","002-UM","2018/01/27 20:19:38","新北市新店區民權路39號","121.540573333333","24.982915","6500600","新店區"
"231059","046-UY","2018/01/27 20:19:22","新北市新店區安德街134號","121.508566666667","24.9602083333333","6500600","新店區"
"231061","047-UY","2018/01/27 20:19:38","新北市新店區安興路32號","121.515781666667","24.9703816666667","6500600","新店區"
"231051","107-UY","2018/01/27 20:19:36","新北市新店區中央六街53號","121.528143333333","24.9758066666667","6500600","新店區"
"231048","108-UY","2018/01/27 20:19:36","新北市新店區寶橋路97號","121.547305","24.9762433333333","6500600","新店區"
"231052","110-UY","2018/01/27 20:19:24","新北市新店區松林路1號","121.54681","24.91175","6500600","新店區"
"231050","KEA-2219","2018/01/27 20:19:33","新北市新店區北新路二段2號","121.542878333333","24.9706966666667","6500600","新店區"
"231057","256-BX","2018/01/27 20:19:30","新北市新店區花園七路一段14號","121.554023333333","24.9349516666667","6500600","新店區"
"231054","AAD-862","2018/01/27 20:19:35","新北市新店區檳榔路174號","121.544136666667","24.9617633333333","6500600","新店區"
"231056","3713-VJ","2018/01/27 20:19:38","新北市新店區中正路330號","121.536968333333","24.9750683333333","6500600","新店區"
"231055","4716-K9","2018/01/27 20:19:31","新北市新店區北新路一段303號","121.541163333333","24.9676366666667","6500600","新店區"
"231067","4772-VM","2018/01/27 20:19:42","新北市新店區溪洲路101-1號","121.531568333333","24.9620266666667","6500600","新店區"
"231065","512-UM","2018/01/27 20:19:41","新北市新店區安祥路106巷26號","121.47778","24.9620816666667","6500600","新店區"
"231064","515-UM","2018/01/27 20:19:38","新北市新店區安和路三段50號","121.518138333333","24.9825416666667","6500600","新店區"
"231042","616-UM","2018/01/27 20:19:40","新北市新店區寶橋路230號","121.551503333333","24.978895","6500600","新店區"
"231045","617-UM","2018/01/27 20:19:27","新北市新店區新坡一街80-3號","121.546888333333","24.9643216666667","6500600","新店區"
"231060","618-UM","2018/01/27 20:19:41","新北市新店區錦秀路11巷11號","121.479846666667","24.9447183333333","6500600","新店區"
"231040","619-UM","2018/01/27 20:19:39","新北市新店區三民路147-1號","121.533996666667","24.9729816666667","6500600","新店區"
"231063","645-TV","2018/01/27 20:19:31","新北市新店區薏仁坑路自強巷6號","121.496698333333","24.958465","6500600","新店區"
"231068","718-UY","2018/01/27 20:19:40","新北市新店區民權路21號","121.541951666667","24.982765","6500600","新店區"
"231049","719-UM","2018/01/27 20:19:43","新北市新店區環河路14-3號","121.537938333333","24.9616816666667","6500600","新店區"
"231062","720-UM","2018/01/27 20:19:23","新北市新店區安泰路7巷16號","121.485676666667","24.9509783333333","6500600","新店區"
"231044","897-TW","2018/01/27 20:19:22","新北市新店區北新路三段173-3號","121.541106666667","24.9839166666667","6500600","新店區"
"231043","899-TW","2018/01/27 20:19:33","新北市新店區建國路133號","121.539403333333","24.9782466666667","6500600","新店區"
"231066","AKT-0513","2018/01/27 20:19:39","新北市新店區安興路105-1號","121.514538333333","24.97771","6500600","新店區"
"241011","013-R5","2018/01/27 20:19:37","新北市三重區三和路三段47巷7號","121.49576","25.0716366666667","6500200","三重區"
"241028","022-UY","2018/01/27 20:19:34","新北市三重區大同南路135號","121.496508333333","25.0577333333333","6500200","三重區"
"241008","059-VK","2018/01/27 20:19:25","新北市三重區永福街211巷1號","121.47979","25.0741483333333","6500200","三重區"
"241009","060-VK","2018/01/27 20:19:29","新北市三重區三和路四段382巷53號","121.481135","25.078545","6500200","三重區"
"241031","061-VK","2018/01/27 20:19:39","新北市三重區三寧街15號","121.489488333333","25.0598083333333","6500200","三重區"
"241015","062-VK","2018/01/27 20:19:38","新北市三重區重新路一段126號","121.500315","25.0629016666667","6500200","三重區"
"241017","063-VK","2018/01/27 20:19:43","新北市三重區自強路一段165號","121.49317","25.06732","6500200","三重區"
"241024","065-VK","2018/01/27 20:19:31","新北市三重區中正北路238號","121.481865","25.0679316666667","6500200","三重區"
"241002","090-VK","2018/01/27 20:19:39","新北市三重區仁義街128號","121.497383333333","25.080545","6500200","三重區"
"241025","156-TC","2018/01/27 20:19:29","新北市三重區三民街270號","121.478873333333","25.0680433333333","6500200","三重區"
"241005","262-UM","2018/01/27 20:19:39","新北市三重區仁愛街508號","121.48791","25.08216","6500200","三重區"
"241026","265-UM","2018/01/27 20:19:29","新北市三重區福德南路7號","121.502646666667","25.0633783333333","6500200","三重區"
"241016","266-UM","2018/01/27 20:19:26","新北市三重區大同北路54巷1號","121.494323333333","25.0635166666667","6500200","三重區"
"241018","268-UM","2018/01/27 20:19:32","新北市三重區自強路一段157號","121.493456666667","25.0672033333333","6500200","三重區"
"241032","269-UM","2018/01/27 20:19:23","新北市三重區捷運路19巷6弄20號","121.484333333333","25.0567816666667","6500200","三重區"
"241013","270-UM","2018/01/27 20:19:39","新北市三重區三和路三段167巷1號","121.49204","25.0740533333333","6500200","三重區"
"241007","398-BY","2018/01/27 20:19:28","新北市三重區溪尾街108巷46弄16號","121.48824","25.078165","6500200","三重區"
"241003","KEA-2210","2018/01/27 20:19:31","新北市三重區富華街33號","121.490648333333","25.0830683333333","6500200","三重區"
"241020","413-TH","2018/01/27 20:19:22","新北市三重區忠孝路一段21巷13號","121.491701666667","25.072835","6500200","三重區"
"241035","462-BY","2018/01/27 20:19:26","新北市三重區正義北路33巷48號","121.498986666667","25.0639016666667","6500200","三重區"
"241004","475-VK","2018/01/27 20:19:23","新北市三重區自強路四段98號","121.491056666667","25.07974","6500200","三重區"
"241019","478-VK","2018/01/27 20:19:36","新北市三重區大智街139號","121.490703333333","25.0709916666667","6500200","三重區"
"241030","480-VK","2018/01/27 20:19:22","新北市三重區集美街89巷34號","121.488256666667","25.052325","6500200","三重區"
"241014","543-UM","2018/01/27 20:19:42","新北市三重區龍濱路64號","121.502486666667","25.0692333333333","6500200","三重區"
"241023","545-UM","2018/01/27 20:19:40","新北市三重區頂崁街141號","121.477771666667","25.0650166666667","6500200","三重區"
"241001","547-UM","2018/01/27 20:19:39","新北市三重區自強路四段3巷37號","121.4902","25.0763583333333","6500200","三重區"
"241022","887-TS","2018/01/27 20:19:33","新北市三重區市前街14號","121.489151666667","25.0623966666667","6500200","三重區"
"241012","941-UM","2018/01/27 20:19:08","新北市三重區河邊北街375號","121.501806666667","25.07636","6500200","三重區"
"241029","942-UM","2018/01/27 20:19:34","新北市三重區光明路112號","121.492695","25.05618","6500200","三重區"
"241033","AAC-255","2018/01/27 20:19:40","新北市三重區五谷王北街83號","121.475843333333","25.0510533333333","6500200","三重區"
"235066","003-UY","2018/01/27 20:19:38","新北市中和區光華街59-1號","121.506406666667","25.0033316666667","6500300","中和區"
"235039","097-UM","2018/01/27 20:19:40","新北市中和區大勇街44號","121.517403333333","24.9935766666667","6500300","中和區"
"235065","098-UM","2018/01/27 20:19:38","新北市中和區永和路112號","121.496551666667","25.00602","6500300","中和區"
"235040","150-BY","2018/01/27 20:19:33","新北市中和區保健路10巷25弄12號","121.508776666667","24.99702","6500300","中和區"
"235068","377-QA","2018/01/27 20:19:29","新北市中和區勝利路35巷1弄36號","121.50049","25.0078266666667","6500300","中和區"
"235050","4979-A6","2018/01/27 20:19:21","新北市中和區景平路464巷2弄2號","121.50582","24.9939116666667","6500300","中和區"
"235069","4980-A6","2018/01/27 20:19:40","新北市中和區中正路448號","121.490903333333","24.9944083333333","6500300","中和區"
"235026","800-TS","2018/01/27 20:17:27","新北市中和區員山路36巷16-3號","121.484915","24.991705","6500300","中和區"
"235059","AAC-215","2018/01/27 20:19:39","新北市中和區圓通路367巷13弄17號","121.49277","24.9882483333333","6500300","中和區"
"220086","073-UY","2018/01/27 20:19:21","新北市樹林區環河路600-2號","121.403281666667","24.9692833333333","6500100","板橋區"
"220069","AAD-861","2018/01/27 20:19:28","新北市板橋區貴興路119巷1弄5號","121.455913333333","25.0024233333333","6500100","板橋區"
"247022","893-R6","2018/01/27 20:19:40","新北市蘆洲區民族路447號","121.46762","25.0888","6501400","蘆洲區"
"247012","546-UM","2018/01/27 20:19:35","新北市蘆洲區中興街19號","121.480693333333","25.0870283333333","6501400","蘆洲區"
"247020","500-BY","2018/01/27 20:19:38","新北市蘆洲區仁愛街20號","121.472273333333","25.092865","6501400","蘆洲區"
"247008","341-TH","2018/01/27 20:19:42","新北市蘆洲區集賢路227號","121.482398333333","25.08622","6501400","蘆洲區"
"247010","339-TH","2018/01/27 20:19:32","新北市蘆洲區信義路222巷32弄16號","121.480476666667","25.0846816666667","6501400","蘆洲區"
"247004","336-TH","2018/01/27 20:19:29","新北市蘆洲區長安街299巷3號","121.457738333333","25.0846466666667","6501400","蘆洲區"
"247016","057-VK","2018/01/27 20:19:24","新北市蘆洲區中正路185巷45弄3號","121.465978333333","25.08367","6501400","蘆洲區"
"247006","056-VK","2018/01/27 20:19:38","新北市蘆洲區九芎街136號","121.465105","25.0790833333333","6501400","蘆洲區"
"247002","053-VK","2018/01/27 20:19:36","新北市蘆洲區長安街331巷27號","121.455331666667","25.086415","6501400","蘆洲區"
"247024","002-UY","2018/01/27 20:19:35","新北市蘆洲區光榮路120巷8弄39號","121.464598333333","25.087905","6501400","蘆洲區"
"247018","001-UY","2018/01/27 20:19:27","新北市蘆洲區民族路408巷6號","121.474825","25.091795","6501400","蘆洲區"
"226004","205-ST","2018/01/27 20:19:30","新北市平溪區十分里十分街66巷19號","121.774811666667","25.0427816666667","6502400","平溪區"
"224010","AGQ-8101","2018/01/27 20:19:08","新北市瑞芳區烏勢巷145號","121.847173333333","25.1082416666667","6501200","瑞芳區"
"222001","KEA-2212","2018/01/27 20:19:14","新北市深坑區北深路三段213號","121.600371666667","25.0039833333333","6501800","深坑區"
"208003","665-BX","2018/01/27 20:19:36","新北市金山區海興路71號","121.632471666667","25.239845","6502700","金山區"
"251009","008-UM","2018/01/27 20:19:42","新北市淡水區中正路28號","121.444295","25.169075","6501000","淡水區"
"251013","179-VK","2018/01/27 20:19:32","新北市淡水區水汴頭2號","121.475741666667","25.2040516666667","6501000","淡水區"
"251014","180-VK","2018/01/27 20:19:24","新北市淡水區石頭厝3號","121.458703333333","25.2355566666667","6501000","淡水區"
"251008","181-VK","2018/01/27 20:19:30","新北市淡水區淡海路150巷17號","121.422248333333","25.1842116666667","6501000","淡水區"
"251015","182-VK","2018/01/27 20:19:28","新北市淡水區淡金路三段198號","121.44894","25.2038166666667","6501000","淡水區"
"251010","413-VK","2018/01/27 20:19:36","新北市淡水區新民街一段134號","121.427546666667","25.1889966666667","6501000","淡水區"
"251012","441-VK","2018/01/27 20:19:33","新北市淡水區下圭柔山431-1號","121.449853333333","25.2102616666667","6501000","淡水區"
"251016","442-VK","2018/01/27 20:19:23","新北市淡水區淡金路五段20號","121.45341","25.232375","6501000","淡水區"
"251006","561-UM","2018/01/27 20:19:44","新北市淡水區北新路228號","121.452266666667","25.18032","6501000","淡水區"
"251002","672-BX","2018/01/27 20:19:33","新北市淡水區中正路63號","121.44134","25.1695133333333","6501000","淡水區"
"251003","673-BX","2018/01/27 20:19:30","新北市淡水區中山北路一段153號","121.443271666667","25.1774033333333","6501000","淡水區"
"207004","225-TW","2018/01/27 20:19:26","新北市萬里區北基里仁三街2號","121.682368333333","25.1755466666667","6502800","萬里區"
"252002","178-VK","2018/01/27 20:19:33","新北市三芝區中正路一段16-1號","121.502963333333","25.25876","6502100","三芝區"
"252001","292-VK","2018/01/27 20:19:26","新北市三芝區中山路一段14號","121.500676666667","25.25801","6502100","三芝區"
"237007","153-BY","2018/01/27 20:19:20","新北市三峽區麻園14-1號","121.362933333333","24.914825","6500900","三峽區"
"237006","5529-G3","2018/01/27 20:19:30","新北市三峽區嘉添9號","121.368738333333","24.9119983333333","6500900","三峽區"
"236073","105-UM","2018/01/27 20:19:33","新北市土城區中山路34號","121.425096666667","24.9640916666667","6501300","土城區"
"236043","107-UM","2018/01/27 20:19:29","新北市土城區學成路6號","121.45349","24.986535","6501300","土城區"
"236079","166-UM","2018/01/27 20:19:27","新北市土城區福安街2-1號","121.420156666667","24.9651633333333","6501300","土城區"
"236031","253-BX","2018/01/27 20:19:34","新北市土城區學成路128巷8弄1號","121.449555","24.9899866666667","6501300","土城區"
"236026","269-VK","2018/01/27 20:19:38","新北市土城區裕生路88號","121.447015","24.98511","6501300","土城區"
"236015","270-VK","2018/01/27 20:19:26","新北市土城區廣明街90巷18號","121.455456666667","24.9944666666667","6501300","土城區"
"236038","271-VK","2018/01/27 20:19:40","新北市土城區明德路一段169號","121.464448333333","24.9793966666667","6501300","土城區"
"236023","401-BY","2018/01/27 20:19:29","新北市土城區延吉街23巷17號","121.473966666667","24.987425","6501300","土城區"
"236059","912-UM","2018/01/27 20:19:27","新北市土城區中央路三段67號","121.438781666667","24.9693466666667","6501300","土城區"
"242031","AAC-296","2018/01/27 20:19:35","新北市新莊區中正路453號","121.442955","25.0340116666667","6500500","新莊區"
"242029","986-R7","2018/01/27 20:19:34","新北市新莊區中原路257號","121.448755","25.05427","6500500","新莊區"
"242061","705-TV","2018/01/27 20:19:41","新北市新莊區瓊林路206-6號","121.435643333333","25.02212","6500500","新莊區"
"242025","615-BX","2018/01/27 20:19:28","新北市新莊區五工二路70巷2號","121.460393333333","25.0658066666667","6500500","新莊區"
"242023","613-BX","2018/01/27 20:19:38","新北市新莊區化成路830號","121.464948333333","25.060145","6500500","新莊區"
"242027","612-BX","2018/01/27 20:19:30","新北市新莊區幸福路578號","121.453986666667","25.0493083333333","6500500","新莊區"
"242039","566-BX","2018/01/27 20:19:35","新北市新莊區龍安路441號","121.424383333333","25.0185316666667","6500500","新莊區"
"242044","442-UM","2018/01/27 20:19:35","新北市新莊區中正路新建巷28弄1號","121.41427","25.0216933333333","6500500","新莊區"
"242053","440-UM","2018/01/27 20:19:29","新北市新莊區民安西路264號","121.425975","25.01314","6500500","新莊區"
"242034","415-TV","2018/01/27 20:19:31","新北市新莊區建中街116巷3弄19號","121.445095","25.036965","6500500","新莊區"
"242004","413-TV","2018/01/27 20:19:24","新北市新莊區頭前路60-3號","121.466818333333","25.0526483333333","6500500","新莊區"
"242042","400-BY","2018/01/27 20:19:33","新北市新莊區壽山路47號","121.4146","25.0311133333333","6500500","新莊區"
"242058","353-BY","2018/01/27 20:19:37","新北市新莊區龍安路258號","121.421495","25.019505","6500500","新莊區"
"242007","132-UY","2018/01/27 20:19:28","新北市新莊區福壽街124巷34弄15號","121.459351666667","25.050625","6500500","新莊區"
"242036","133-UY","2018/01/27 20:19:30","新北市新莊區建安街71巷6號","121.427641666667","25.0244733333333","6500500","新莊區"
"242046","172-VK","2018/01/27 20:19:22","新北市新莊區中正路新生巷55號","121.41744","25.0228566666667","6500500","新莊區"
"242009","173-VK","2018/01/27 20:19:00","新北市新莊區昌平街31巷6號","121.454671666667","25.052145","6500500","新莊區"
"242015","175-VK","2018/01/27 20:19:39","新北市新莊區中和街31巷16號","121.447453333333","25.0439933333333","6500500","新莊區"
"242002","176-VK","2018/01/27 20:19:43","新北市新莊區化成路26號","121.464773333333","25.0425466666667","6500500","新莊區"
"242013","346-TH","2018/01/27 20:19:26","新北市新莊區中和街155巷2號","121.44724","25.049775","6500500","新莊區"
"242051","347-TH","2018/01/27 20:19:34","新北市新莊區民安西路212巷6號","121.42543","25.0149433333333","6500500","新莊區"
"242019","348-TH","2018/01/27 20:19:43","新北市新莊區銘德街15號","121.458935","25.0436583333333","6500500","新莊區"
"242056","349-TH","2018/01/27 20:19:39","新北市新莊區豐年街31號","121.446401666667","25.0323083333333","6500500","新莊區"
"242017","350-TH","2018/01/27 20:19:34","新北市新莊區中港二街140號","121.448135","25.0455983333333","6500500","新莊區"
"242011","351-TH","2018/01/27 20:19:31","新北市新莊區中信街22號","121.450726666667","25.0508216666667","6500500","新莊區"
"221036","130-UY","2018/01/27 20:19:29","新北市汐止區福安街57巷1號","121.66374","25.0638933333333","6501100","汐止區"
"221010","269-BY","2018/01/27 20:19:28","新北市汐止區八連路二段494號","121.628958333333","25.1061783333333","6501100","汐止區"
"221012","278-VK","2018/01/27 20:19:37","新北市汐止區保新街158號","121.688953333333","25.0680033333333","6501100","汐止區"
"221023","279-VK","2018/01/27 20:19:34","新北市汐止區湖前街110巷2弄16號","121.632108333333","25.0718066666667","6501100","汐止區"
"221027","281-BY","2018/01/27 20:19:40","新北市汐止區大同路二段497號","121.661051666667","25.0684666666667","6501100","汐止區"
"221002","297-VK","2018/01/27 20:19:29","新北市汐止區福德三路26號","121.636821666667","25.06942","6501100","汐止區"
"221029","298-VK","2018/01/27 20:19:25","新北市汐止區工建路98號","121.639571666667","25.0634783333333","6501100","汐止區"
"221021","299-VK","2018/01/27 20:19:45","新北市汐止區水源路一段293號","121.654345","25.0583116666667","6501100","汐止區"
"221031","353-TW","2018/01/27 20:19:23","新北市汐止區中興路150巷13號","121.632946666667","25.0650416666667","6501100","汐止區"
"221008","358-BY","2018/01/27 20:19:27","新北市汐止區康寧街434號","121.630926666667","25.068105","6501100","汐止區"
"221015","567-BX","2018/01/27 20:19:28","新北市汐止區建成路142巷19弄7號","121.662051666667","25.07374","6501100","汐止區"
"221035","622-UM","2018/01/27 20:19:38","新北市汐止區長江街101-5號","121.658676666667","25.0732083333333","6501100","汐止區"
"221025","623-UM","2018/01/27 20:19:21","新北市汐止區水源路二段72巷6弄5號","121.655626666667","25.0553666666667","6501100","汐止區"
"221038","646-BX","2018/01/27 20:19:33","新北市汐止區忠孝東路462巷16號","121.666873333333","25.0735766666667","6501100","汐止區"
"221033","647-BX","2018/01/27 20:19:31","新北市汐止區東勢街201巷98號","121.633788333333","25.0430016666667","6501100","汐止區"
"221018","753-BX","2018/01/27 20:19:37","新北市汐止區茄苳路247號","121.671726666667","25.0683433333333","6501100","汐止區"
"220101","245-BX","2018/01/27 20:19:43","新北市板橋區萬板路112巷2號","121.474615","25.0231633333333","6500100","板橋區"
"220103","257-TC","2018/01/27 20:19:37","新北市板橋區陽明街279巷1弄1號","121.461868333333","25.0260533333333","6500100","板橋區"
"220072","277-BY","2018/01/27 20:19:32","新北市板橋區金門街283號","121.431286666667","24.9879883333333","6500100","板橋區"
"220083","286-VK","2018/01/27 20:19:25","新北市板橋區大觀路一段38巷156弄175號","121.44412","25.0094833333333","6500100","板橋區"
"220081","287-VK","2018/01/27 20:19:38","新北市板橋區僑中一街80巷7弄12號","121.447296666667","25.0128516666667","6500100","板橋區"
"220061","293-UM","2018/01/27 20:19:36","新北市板橋區文華街10號","121.457983333333","25.0004033333333","6500100","板橋區"
"220102","299-UM","2018/01/27 20:19:36","新北市板橋區仁化街64巷15號","121.476243333333","25.031495","6500100","板橋區"
"242048","281-VK","2018/01/27 20:19:32","新北市新莊區四維路180號","121.422128333333","25.0217616666667","6500500","新莊區"
"220092","307-R5","2018/01/27 20:19:37","新北市板橋區文化路一段27-1號","121.460091666667","25.0128066666667","6500100","板橋區"
"220055","461-BY","2018/01/27 20:19:36","新北市板橋區仁愛路62巷12號","121.459931666667","24.9985966666667","6500100","板橋區"
"220089","487-VK","2018/01/27 20:19:30","新北市板橋區四維路245號","121.463691666667","25.02758","6500100","板橋區"
"242021","280-VK","2018/01/27 20:19:30","新北市新莊區復興路一段12號","121.445723333333","25.0415216666667","6500500","新莊區"
"220074","895-R6","2018/01/27 20:19:43","新北市板橋區稚暉街1號","121.455931666667","25.00469","6500100","板橋區"
"220097","AAC-210","2018/01/27 20:19:43","新北市板橋區光正街44號","121.46178","25.0176616666667","6500100","板橋區"
"220070","AAC-253","2018/01/27 20:19:42","新北市板橋區四川路二段58號","121.451826666667","24.9957916666667","6500100","板橋區"
