"lineid","car","time","location","longitude","latitude","cityid","cityname"
"243008","680-BX","2018/01/27 21:28:59","新北市泰山區黎明路25號","121.42226","25.0607166666667","6501600","泰山區"
"231051","107-UY","2018/01/27 21:29:36","新北市新店區溪園路205號","121.527568333333","24.9854566666667","6500600","新店區"
"231050","KEA-2219","2018/01/27 21:29:32","新北市新店區中正路442號","121.534131666667","24.9783966666667","6500600","新店區"
"231063","645-TV","2018/01/27 21:29:31","新北市新店區如意街34號","121.49349","24.9483833333333","6500600","新店區"
"241017","063-VK","2018/01/27 21:29:43","新北市三重區中正北路25巷2號","121.493226666667","25.0626733333333","6500200","三重區"
"241024","065-VK","2018/01/27 21:29:31","新北市三重區中正北路200號","121.482745","25.0672866666667","6500200","三重區"
"241005","262-UM","2018/01/27 21:29:39","新北市三重區碧華街1號","121.483468333333","25.0811966666667","6500200","三重區"
"241026","265-UM","2018/01/27 21:29:29","新北市三重區環河南路250號","121.491386666667","25.0507733333333","6500200","三重區"
"241016","266-UM","2018/01/27 21:29:26","新北市三重區大同北路54巷1號","121.494136666667","25.0635216666667","6500200","三重區"
"241007","398-BY","2018/01/27 21:29:28","新北市三重區正義北路132號","121.496775","25.0657183333333","6500200","三重區"
"241003","KEA-2210","2018/01/27 21:29:30","新北市三重區仁義街319號","121.49534","25.0842716666667","6500200","三重區"
"241006","AAD-863","2018/01/27 21:28:11","新北市五股區中直路21號","121.421511666667","25.11183","6500200","三重區"
"247022","893-R6","2018/01/27 21:29:40","新北市蘆洲區永康街30號","121.458506666667","25.0854666666667","6501400","蘆洲區"
"247020","500-BY","2018/01/27 21:29:38","新北市蘆洲區中正路512-1號","121.461151666667","25.0976816666667","6501400","蘆洲區"
"247008","341-TH","2018/01/27 21:29:42","新北市五股區中興路二段78-5號","121.461416666667","25.0786716666667","6501400","蘆洲區"
"247010","339-TH","2018/01/27 21:29:31","新北市蘆洲區中山二路44號","121.473988333333","25.082145","6501400","蘆洲區"
"247014","007-UY","2018/01/27 21:29:35","新北市蘆洲區中正路355號","121.46535","25.0897433333333","6501400","蘆洲區"
"247024","002-UY","2018/01/27 21:29:34","新北市五股區芳洲九路36號","121.447858333333","25.0882166666667","6501400","蘆洲區"
"251009","008-UM","2018/01/27 21:29:22","新北市淡水區民族路33巷16-3號","121.463411666667","25.1359733333333","6501000","淡水區"
"251004","009-UM","2018/01/27 21:29:30","新北市淡水區民權路119號","121.460205","25.1368966666667","6501000","淡水區"
"251013","179-VK","2018/01/27 21:29:32","新北市淡水區埤島39-2號","121.453301666667","25.1971383333333","6501000","淡水區"
"251014","180-VK","2018/01/27 21:29:44","新北市淡水區六塊厝2-1號","121.45015","25.2404966666667","6501000","淡水區"
"251008","181-VK","2018/01/27 21:29:30","新北市淡水區水源街二段94號","121.452008333333","25.1745233333333","6501000","淡水區"
"251010","413-VK","2018/01/27 21:29:36","新北市淡水區沙崙路25巷21號","121.420486666667","25.1824616666667","6501000","淡水區"
"251012","441-VK","2018/01/27 21:29:32","新北市淡水區石頭埔8號","121.452651666667","25.2345666666667","6501000","淡水區"
"251016","442-VK","2018/01/27 21:29:43","新北市淡水區前洲子5號","121.443203333333","25.2187383333333","6501000","淡水區"
"251005","443-VK","2018/01/27 21:29:33","新北市淡水區水源街一段34巷7號","121.443131666667","25.172015","6501000","淡水區"
"251001","559-UM","2018/01/27 21:29:31","新北市淡水區濱海路一段221號","121.437758333333","25.1897866666667","6501000","淡水區"
"251006","561-UM","2018/01/27 21:29:29","新北市淡水區公明街69號","121.443785","25.1684766666667","6501000","淡水區"
"251011","650-BX","2018/01/27 21:29:40","新北市淡水區新民街180-6號","121.436673333333","25.1786866666667","6501000","淡水區"
"251002","672-BX","2018/01/27 21:29:33","新北市淡水區學府路172巷21號","121.44833","25.17489","6501000","淡水區"
"251003","673-BX","2018/01/27 21:22:38","新北市淡水區崁頂15-5號","121.438986666667","25.18587","6501000","淡水區"
"220070","AAC-253","2018/01/27 21:29:22","新北市板橋區大觀路一段29巷131弄124號","121.451861666667","25.0044983333333","6500100","板橋區"
