"lineid","car","time","location","longitude","latitude","cityid","cityname"
"231051","107-UY","2018/01/27 21:59:36","新北市新店區薏仁坑路自強巷6號","121.496391666667","24.9584116666667","6500600","新店區"
"235010","733-UM","2018/01/27 21:43:49","新北市中和區員山路36巷13號","121.48417","24.9908166666667","6500300","中和區"
"247008","341-TH","2018/01/27 21:59:42","新北市八里區中山路三段409號","121.368723333333","25.135735","6501400","蘆洲區"
"251004","009-UM","2018/01/27 21:59:30","新北市淡水區自強路51號","121.458971666667","25.1302883333333","6501000","淡水區"
"251008","181-VK","2018/01/27 21:59:30","新北市淡水區學府路104號","121.44981","25.1717266666667","6501000","淡水區"
"251010","413-VK","2018/01/27 21:59:36","新北市淡水區中正路二段211號","121.426098333333","25.18896","6501000","淡水區"
"251012","441-VK","2018/01/27 21:59:32","新北市淡水區中山北路三段169號","121.44546","25.196875","6501000","淡水區"
"251005","443-VK","2018/01/27 21:59:33","新北市淡水區鄧公路30巷32-1號","121.454511666667","25.169565","6501000","淡水區"
"251006","561-UM","2018/01/27 21:59:28","新北市淡水區中正路11巷3號","121.437856666667","25.1707583333333","6501000","淡水區"
"251007","577-R6","2018/01/27 21:59:35","新北市淡水區北新路184巷60號","121.451123333333","25.1775883333333","6501000","淡水區"
"251011","650-BX","2018/01/27 21:59:39","新北市淡水區水碓街3號","121.443095","25.1771083333333","6501000","淡水區"
