"lineid","car","time","location","longitude","latitude","cityid","cityname"
"248005","653-BX","2018/04/20 08:19:37","新北市五股區明德路12巷6號","121.43338","25.0718483333333","6501500","五股區"
"244004","248-BX","2018/04/20 08:19:48","新北市林口區寶斗厝坑7-2號","121.356475","25.09913","6501700","林口區"
"243016","680-BX","2018/04/20 08:19:38","新北市泰山區明志路一段98號","121.433408333333","25.064","6501600","泰山區"
"222005","289-BY","2018/04/20 08:19:37","新北市深坑區萬福路36-1號","121.605466666667","25.0123666666667","6501800","深坑區"
"231007","189-VK","2018/04/20 08:19:48","新北市新店區新潭路一段100-3號","121.527273333333","24.9378033333333","6500600","新店區"
"231009","192-VK","2018/04/20 08:19:44","新北市新店區北宜路一段129號","121.540686666667","24.953385","6500600","新店區"
"235001","611-BX","2018/04/20 08:19:49","新北市中和區中正路501號","121.488778333333","24.9938666666667","6500300","中和區"
"226005","5620-A6","2018/04/20 08:19:44","新北市平溪區南山里南山坪103號","121.779893333333","25.0422683333333","6502400","平溪區"
"226001","7418-A5","2018/04/20 08:19:34","新北市平溪區東勢里芊蓁林33號","121.750521666667","25.0166366666667","6502400","平溪區"
"226006","AGD-0702","2018/04/20 08:19:35","新北市平溪區新寮里新寮路6號","121.792908333333","25.059465","6502400","平溪區"
"223006","022-BY","2018/04/20 08:19:40","新北市石碇區雙溪48號","121.651473333333","25.0064","6501900","石碇區"
"223001","205-TH","2018/04/20 08:19:39","新北市石碇區北宜路六段塗潭巷15號","121.64997","24.931855","6501900","石碇區"
"223008","406-TH","2018/04/20 08:19:37","新北市石碇區石碇子埔97-4號","121.668711666667","25.00544","6501900","石碇區"
"223001","592-UM","2018/04/20 08:19:37","新北市石碇區北宜路六段塗潭巷15號","121.649971666667","24.9319083333333","6501900","石碇區"
"223004","660-BX","2018/04/20 08:19:43","新北市石碇區碇坪路一段92號","121.6581","24.991415","6501900","石碇區"
"223007","661-BX","2018/04/20 08:19:47","新北市石碇區石碇子埔97-1號","121.667566666667","25.0063033333333","6501900","石碇區"
"223005","677-TV","2018/04/20 08:19:32","新北市石碇區碇坪路一段82號","121.65776","24.99136","6501900","石碇區"
"227005","282-VK","2018/04/20 08:19:38","新北市雙溪區上林里大瀨10號","121.822325","25.0222183333333","6502500","雙溪區"
"237001","159-UY","2018/04/20 08:19:53","新北市三峽區大義路251號","121.37757","24.9460883333333","6500900","三峽區"
"236010","165-UM","2018/04/20 08:07:52","新北市土城區石門路85-3號","121.459946666667","24.95412","6501300","土城區"
"236004","339-SR","2018/04/20 08:19:47","新北市土城區中央路四段9號","121.425595","24.962485","6501300","土城區"
"236006","498-BY","2018/04/20 08:19:43","新北市土城區大暖路12號","121.423495","24.9602483333333","6501300","土城區"
"220070","282-UM","2018/04/20 08:19:39","新北市樹林區中山路三段210-2號","121.38074","24.966295","6500100","板橋區"
