"lineid","car","time","location","longitude","latitude","cityid","cityname"
"248005","653-BX","2018/04/20 08:38:51","新北市五股區明德路10號","121.433431666667","25.0717616666667","6501500","五股區"
"243016","680-BX","2018/04/20 08:59:38","新北市泰山區明志路一段110號","121.43346","25.06373","6501600","泰山區"
"222005","289-BY","2018/04/20 08:59:37","新北市深坑區大坪街11號","121.630721666667","25.0200283333333","6501800","深坑區"
"231007","189-VK","2018/04/20 08:59:48","新北市新店區新潭路二段123-1號","121.51379","24.9235466666667","6500600","新店區"
"231009","192-VK","2018/04/20 08:59:44","新北市新店區廣興路60巷30-3號","121.543753333333","24.9146616666667","6500600","新店區"
"235001","611-BX","2018/04/20 08:59:49","新北市中和區民享街245號","121.472101666667","24.99624","6500300","中和區"
"226001","7418-A5","2018/04/20 08:39:13","新北市平溪區東勢里東勢格41號","121.76152","24.9898366666667","6502400","平溪區"
"226006","AGD-0702","2018/04/20 08:59:35","新北市平溪區嶺腳里嶺腳寮111號","121.746681666667","25.033255","6502400","平溪區"
"223001","205-TH","2018/04/20 08:59:39","新北市石碇區北宜路五段62號","121.636545","24.9540716666667","6501900","石碇區"
"223008","406-TH","2018/04/20 08:59:37","新北市石碇區光明路32號","121.695501666667","25.0222166666667","6501900","石碇區"
"223001","592-UM","2018/04/20 08:59:37","新北市石碇區北宜路五段62號","121.636483333333","24.9540783333333","6501900","石碇區"
"223004","660-BX","2018/04/20 08:59:43","新北市石碇區碇坪路二段71號","121.685508333333","24.9653316666667","6501900","石碇區"
"223007","661-BX","2018/04/20 08:59:27","新北市石碇區大溪墘2-4號","121.699286666667","25.0117966666667","6501900","石碇區"
"223005","677-TV","2018/04/20 08:59:55","新北市石碇區碇坪路二段80號","121.68375","24.96411","6501900","石碇區"
"227005","282-VK","2018/04/20 08:59:37","新北市雙溪區泰平里溪尾寮3號","121.819003333333","24.9705066666667","6502500","雙溪區"
"237001","159-UY","2018/04/20 08:59:53","新北市三峽區大德路200號","121.374853333333","24.9468033333333","6500900","三峽區"
"236010","165-UM","2018/04/20 08:59:52","新北市土城區金城路二段63號","121.45109","24.9788166666667","6501300","土城區"
"236004","339-SR","2018/04/20 08:59:47","新北市土城區中正路67巷38號","121.445255","24.9762883333333","6501300","土城區"
"236006","498-BY","2018/04/20 08:59:43","新北市土城區承天路8巷9號","121.436933333333","24.9638333333333","6501300","土城區"
