"lineid","car","time","location","longitude","latitude","cityid","cityname"
"248005","653-BX","2018/04/20 09:49:38","新北市五股區成泰路一段130-1號","121.435181666667","25.075","6501500","五股區"
"231007","189-VK","2018/04/20 09:48:48","新北市新店區新潭路三段215巷25號","121.50812","24.904065","6500600","新店區"
"231009","192-VK","2018/04/20 09:33:07","新北市新店區平廣路一段256號","121.507891666667","24.888295","6500600","新店區"
"223001","205-TH","2018/04/20 09:49:39","新北市石碇區北宜路五段3號","121.628191666667","24.9544816666667","6501900","石碇區"
"227005","282-VK","2018/04/20 09:44:37","新北市雙溪區泰平里烏山路40-1號","121.833823333333","24.9381616666667","6502500","雙溪區"
"236006","498-BY","2018/04/20 09:49:43","新北市土城區城林路6巷80號","121.438686666667","24.9797533333333","6501300","土城區"
