"lineid","car","time","location","longitude","latitude","cityid","cityname"
"248005","653-BX","2018/04/20 09:59:18","新北市五股區蓬萊路6巷10號","121.435765","25.0799683333333","6501500","五股區"
"231007","189-VK","2018/04/20 09:59:08","新北市新店區新潭路三段215巷25號","121.50813","24.9040666666667","6500600","新店區"
"231009","192-VK","2018/04/20 09:58:24","新北市新店區平廣路一段185號","121.51697","24.88886","6500600","新店區"
"223001","205-TH","2018/04/20 09:59:19","新北市石碇區北宜路五段59號","121.635143333333","24.9543883333333","6501900","石碇區"
"227005","282-VK","2018/04/20 09:59:17","新北市雙溪區泰平里灣潭路36號","121.811431666667","24.928805","6502500","雙溪區"
