"lineid","car","time","location","longitude","latitude","cityid","cityname"
"234044","148-BY","2018/04/20 13:39:28","新北市永和區永亨路143號","121.525276666667","25.00407","6500400","永和區"
"234068","149-BY","2018/04/20 13:39:26","新北市永和區永和路二段233號","121.515548333333","25.0142416666667","6500400","永和區"
"234005","207-UY","2018/04/20 13:39:29","新北市永和區永和路一段156-1號","121.5141","25.00859","6500400","永和區"
"234078","298-R6","2018/04/20 13:39:26","新北市永和區國中路104巷10號","121.524791666667","25.0068966666667","6500400","永和區"
"234036","336-UY","2018/04/20 13:39:28","新北市永和區環河東路四段2號","121.528351666667","25.0002266666667","6500400","永和區"
"234062","337-UY","2018/04/20 13:39:30","新北市永和區秀朗路二段24巷37號","121.520081666667","25.001925","6500400","永和區"
"234084","338-UY","2018/04/20 13:39:23","新北市永和區永亨路139號","121.525185","25.00404","6500400","永和區"
"234066","553-UM","2018/04/20 13:39:15","新北市永和區中山路一段199號","121.50906","25.008665","6500400","永和區"
"234015","745-BX","2018/04/20 13:39:29","新北市永和區忠孝街26巷8號","121.515325","25.0168116666667","6500400","永和區"
"234028","746-BX","2018/04/20 13:39:31","新北市永和區民權路21號","121.519933333333","24.9978833333333","6500400","永和區"
"234052","KEA-2590","2018/04/20 13:38:55","新北市永和區竹林路39巷18號","121.518676666667","25.0145783333333","6500400","永和區"
"234012","KEA-2591","2018/04/20 13:39:28","新北市永和區仁愛路193號","121.510128333333","25.0125166666667","6500400","永和區"
"234060","AAD-866","2018/04/20 13:39:10","新北市永和區中正路458號","121.517465","25.002995","6500400","永和區"
"234040","862-TW","2018/04/20 13:39:18","新北市永和區中和路305巷2弄1號","121.506631666667","25.0001016666667","6500400","永和區"
"234048","863-TW","2018/04/20 13:39:11","新北市永和區保安路40號","121.510341666667","25.0169783333333","6500400","永和區"
"234025","9371-KE","2018/04/20 13:39:10","新北市永和區自由街58號","121.513828333333","25.0059383333333","6500400","永和區"
"234010","9373-KE","2018/04/20 13:39:18","新北市永和區保福路二段9巷9號","121.510611666667","25.0108583333333","6500400","永和區"
"248019","225-UY","2018/04/20 13:39:19","新北市五股區孝義路102號","121.445261666667","25.1197216666667","6501500","五股區"
"234022","9380-KE","2018/04/20 13:39:19","新北市永和區中正路704號","121.516291666667","25.00999","6500400","永和區"
"234076","969-R7","2018/04/20 13:39:29","新北市永和區得和路198號","121.520361666667","24.9996866666667","6500400","永和區"
"234072","AAC-211","2018/04/20 13:39:21","新北市永和區竹林路213巷31號","121.522768333333","25.0090666666667","6500400","永和區"
"234001","AAC-295","2018/04/20 13:39:12","新北市永和區永和路一段114號","121.51384","25.0073583333333","6500400","永和區"
"244004","248-BX","2018/04/20 13:39:20","新北市林口區頂福9號","121.358311666667","25.0808483333333","6501700","林口區"
"231002","002-UM","2018/04/20 13:39:29","新北市新店區溪園路405號","121.52402","24.9782083333333","6500600","新店區"
"231027","0293-UT","2018/04/20 13:39:13","新北市新店區北宜路一段105巷4弄9號","121.540345","24.9554716666667","6500600","新店區"
"231001","047-UY","2018/04/20 13:39:17","新北市新店區中正路397號","121.534556666667","24.9773683333333","6500600","新店區"
"231010","107-UY","2018/04/20 13:39:30","新北市新店區中正路307巷20號","121.536196666667","24.974195","6500600","新店區"
"231012","187-VK","2018/04/20 13:39:15","新北市新店區德正街27巷1號","121.54455","24.971485","6500600","新店區"
"231023","KEA-2219","2018/04/20 13:39:22","新北市新店區新店路176號","121.537211666667","24.9558316666667","6500600","新店區"
"231026","256-BX","2018/04/20 13:39:31","新北市新店區中華路1號","121.541215","24.9672433333333","6500600","新店區"
"231018","278-BY","2018/04/20 13:39:05","新北市新店區百忍街40號","121.533645","24.9759183333333","6500600","新店區"
"231016","AAD-862","2018/04/20 13:39:18","新北市新店區竹林路30巷10號","121.551355","24.9509366666667","6500600","新店區"
"231028","355-BY","2018/04/20 13:39:17","新北市新店區安和路二段126號","121.519261666667","24.9713733333333","6500600","新店區"
"231038","3712-VJ","2018/04/20 13:39:26","新北市新店區安華路30巷3號","121.519541666667","24.95923","6500600","新店區"
"231037","4716-K9","2018/04/20 13:39:28","新北市新店區安康路二段416號","121.496598333333","24.9552483333333","6500600","新店區"
"231025","4715-K9","2018/04/20 13:39:30","新北市新店區中央六街56號","121.527941666667","24.97577","6500600","新店區"
"231036","512-UM","2018/04/20 13:39:13","新北市新店區安祥路147巷2號","121.47515","24.955495","6500600","新店區"
"231013","513-UM","2018/04/20 13:39:30","新北市新店區中正路454-5號","121.534708333333","24.9789633333333","6500600","新店區"
"231006","617-UM","2018/04/20 13:39:28","新北市新店區北宜路一段97號","121.539205","24.9553133333333","6500600","新店區"
"231005","618-UM","2018/04/20 13:39:20","新北市新店區寶中路45-3號","121.54518","24.97909","6500600","新店區"
"231030","619-UM","2018/04/20 13:39:24","新北市新店區安康路一段323-1號","121.521583333333","24.96377","6500600","新店區"
"231034","641-BX","2018/04/20 13:39:20","新北市新店區車子路134號","121.50491","24.94858","6500600","新店區"
"231003","645-TV","2018/04/20 13:39:21","新北市新店區中正路4號","121.545711666667","24.96938","6500600","新店區"
"231035","719-UM","2018/04/20 13:39:16","新北市新店區安忠路56巷2號","121.512788333333","24.9593516666667","6500600","新店區"
"231022","719-UY","2018/04/20 13:39:25","新北市新店區永興路125-2號","121.544175","24.9311","6500600","新店區"
"231032","720-UM","2018/04/20 13:39:20","新北市新店區安豐路54-1號","121.499786666667","24.9540883333333","6500600","新店區"
"231029","897-TW","2018/04/20 13:39:16","新北市新店區安康路二段199號","121.509181666667","24.9590233333333","6500600","新店區"
"231004","899-TW","2018/04/20 13:39:26","新北市新店區北新路二段7號","121.542671666667","24.9713183333333","6500600","新店區"
"231024","AKT-0513","2018/04/20 13:39:15","新北市新店區中華路47巷9號","121.539693333333","24.967355","6500600","新店區"
"235028","005-UY","2018/04/20 13:39:28","新北市中和區連城路89巷7號","121.497206666667","24.999335","6500300","中和區"
"235020","096-UM","2018/04/20 13:39:29","新北市中和區員山路466巷17弄14號","121.480605","25.007385","6500300","中和區"
"235003","097-UM","2018/04/20 13:39:19","新北市中和區大勇街27巷16號","121.516715","24.9938566666667","6500300","中和區"
"235029","098-UM","2018/04/20 13:39:22","新北市中和區中山路二段2巷59號","121.501611666667","25.0074966666667","6500300","中和區"
"235004","150-BY","2018/04/20 13:39:17","新北市中和區安平路61號","121.509881666667","24.9953983333333","6500300","中和區"
"235022","151-BY","2018/04/20 13:39:16","新北市中和區連城路525-8號","121.480891666667","24.9949883333333","6500300","中和區"
"235019","183-VK","2018/04/20 13:39:26","新北市中和區國光街102巷31號","121.471425","25.00076","6500300","中和區"
"235002","185-VK","2018/04/20 13:39:25","新北市中和區立人街34號","121.518395","24.994125","6500300","中和區"
"235013","186-VK","2018/04/20 13:39:14","新北市中和區明義街11巷16號","121.503561666667","24.9943933333333","6500300","中和區"
"235031","255-BX","2018/04/20 13:39:29","新北市中和區新生街220巷13號","121.482966666667","24.9984616666667","6500300","中和區"
"235008","293-VK","2018/04/20 13:39:29","新北市中和區復興路261號","121.502816666667","24.9903933333333","6500300","中和區"
"235036","301-VK","2018/04/20 13:39:28","新北市中和區連城路144巷2號","121.495398333333","24.9984933333333","6500300","中和區"
"235007","352-BY","2018/04/20 13:39:12","新北市中和區景平路123號","121.515316666667","24.992025","6500300","中和區"
"235025","378-QA","2018/04/20 13:39:19","新北市中和區民享街92巷19號","121.473915","24.9996883333333","6500300","中和區"
"235014","4979-A6","2018/04/20 13:39:22","新北市中和區景新街496巷35弄2號","121.513558333333","24.9854766666667","6500300","中和區"
"235006","551-UM","2018/04/20 13:39:11","新北市中和區成功路41巷1號","121.52626","24.9932966666667","6500300","中和區"
"235034","558-UM","2018/04/20 13:39:26","新北市中和區南華路52號","121.504328333333","24.9968116666667","6500300","中和區"
"235009","565-BX","2018/04/20 13:39:21","新北市中和區南山路236巷53號","121.50482","24.9882683333333","6500300","中和區"
"235018","640-BX","2018/04/20 13:39:12","新北市中和區民享街32巷22號","121.472786666667","25.003165","6500300","中和區"
"235024","647-TV","2018/04/20 13:39:15","新北市中和區中山路二段485號","121.482815","25.00502","6500300","中和區"
"235011","732-UM","2018/04/20 13:39:20","新北市中和區南山路320巷10弄11號","121.506816666667","24.9865816666667","6500300","中和區"
"235010","733-UM","2018/04/20 13:39:19","新北市中和區捷運路10-1號","121.509335","24.98985","6500300","中和區"
"235035","783-BX","2018/04/20 13:39:23","新北市中和區永和路446-30號","121.48477","25.01178","6500300","中和區"
"235026","800-TS","2018/04/20 13:39:06","新北市中和區景平路721號","121.496421666667","25.0039766666667","6500300","中和區"
"235021","801-TS","2018/04/20 13:39:26","新北市中和區民安街41號","121.479925","25.0002833333333","6500300","中和區"
"235016","805-TS","2018/04/20 13:39:14","新北市中和區興南路三段52巷2-1號","121.494013333333","24.9760933333333","6500300","中和區"
"235017","900-TW","2018/04/20 13:39:24","新北市中和區華安街98-1號","121.468343333333","24.9960066666667","6500300","中和區"
"235030","911-UM","2018/04/20 13:39:21","新北市中和區水源路43號","121.504718333333","25.0035966666667","6500300","中和區"
"235015","157-BY","2018/04/20 13:39:26","新北市中和區華新街143巷106弄7號","121.506173333333","24.978905","6500300","中和區"
"235001","AAC-213","2018/04/20 13:39:25","新北市中和區景德街62號","121.51716","24.991535","6500300","中和區"
"235023","AAC-215","2018/04/20 13:39:21","新北市中和區中正路527號","121.487851666667","24.9937583333333","6500300","中和區"
"220016","013-TV","2018/04/20 13:39:22","新北市板橋區民生路二段120號","121.470413333333","25.0196283333333","6500100","板橋區"
"220004","015-TV","2018/04/20 13:39:27","新北市板橋區四川路二段140巷18號","121.449333333333","24.9934066666667","6500100","板橋區"
"220013","072-UY","2018/04/20 13:39:17","新北市板橋區縣民大道二段82號","121.465758333333","25.0148383333333","6500100","板橋區"
"220034","073-UY","2018/04/20 13:39:25","新北市板橋區大仁街111號","121.452496666667","25.0155183333333","6500100","板橋區"
"220017","AAD-861","2018/04/20 13:39:22","新北市板橋區華東街1-10號","121.448325","24.9951466666667","6500100","板橋區"
"247007","056-VK","2018/04/20 13:39:15","新北市蘆洲區國道路二段105號","121.470491666667","25.0749533333333","6501400","蘆洲區"
"235005","251-BX","2018/04/20 13:39:18","新北市中和區中安街80巷3號","121.511986666667","25.0020283333333","6500300","中和區"
"207002","749-BX","2018/04/20 13:39:26","新北市萬里區崁腳里崁腳路166號","121.645066666667","25.1558383333333","6502800","萬里區"
"207001","662-BX","2018/04/20 13:39:19","新北市萬里區大鵬里萬里加投24-2號","121.64907","25.2073666666667","6502800","萬里區"
"236067","105-UM","2018/04/20 13:39:21","新北市土城區和平路42號","121.445018333333","24.9707483333333","6501300","土城區"
"236029","253-BX","2018/04/20 13:39:26","新北市土城區城林路6巷80號","121.438473333333","24.9797933333333","6501300","土城區"
"236013","270-VK","2018/04/20 13:39:13","新北市土城區城林路6巷80號","121.438556666667","24.9796766666667","6501300","土城區"
"236032","271-VK","2018/04/20 13:39:17","新北市土城區城林路6巷80號","121.438438333333","24.9797883333333","6501300","土城區"
"236006","498-BY","2018/04/20 13:39:24","新北市土城區慶祥街1巷21號","121.437316666667","24.9741366666667","6501300","土城區"
"236054","AAC-216","2018/04/20 13:39:21","新北市土城區城林路6巷80號","121.438446666667","24.9797533333333","6501300","土城區"
"221032","280-BY","2018/04/20 13:39:17","新北市汐止區新台五路一段207號","121.656933333333","25.063835","6501100","汐止區"
"220027","145-BY","2018/04/20 13:39:22","新北市板橋區中正路125號","121.456535","25.015235","6500100","板橋區"
"220028","200-UY","2018/04/20 13:39:17","新北市板橋區大觀路二段265巷76弄36號","121.441066666667","24.9967883333333","6500100","板橋區"
"220030","610-BX","2018/04/20 13:39:26","新北市板橋區篤行路一段29號","121.432005","24.994655","6500100","板橋區"
"220020","277-BY","2018/04/20 13:39:32","新北市板橋區大觀路三段66號","121.433161666667","24.9951","6500100","板橋區"
"220019","283-VK","2018/04/20 13:39:27","新北市板橋區四川路二段140巷20號","121.449195","24.993445","6500100","板橋區"
"220031","286-VK","2018/04/20 13:39:30","新北市板橋區大觀路二段35號","121.446708333333","25.0029833333333","6500100","板橋區"
"220029","287-VK","2018/04/20 13:39:18","新北市板橋區大觀路二段75號","121.44642","25.00229","6500100","板橋區"
"220009","295-UM","2018/04/20 13:30:56","新北市板橋區民生路二段120號","121.47097","25.0193883333333","6500100","板橋區"
"220023","303-R5","2018/04/20 13:39:11","新北市板橋區華東街262號","121.45257","25.0015883333333","6500100","板橋區"
"220010","305-R5","2018/04/20 13:39:18","新北市板橋區民生路二段120號","121.4705","25.0196483333333","6500100","板橋區"
"220047","317-R6","2018/04/20 13:39:13","新北市板橋區民生路二段161巷5號","121.470281666667","25.019765","6500100","板橋區"
"220012","486-VK","2018/04/20 13:39:17","新北市板橋區民生路二段36-1號","121.472105","25.016875","6500100","板橋區"
"220104","560-BX","2018/04/20 13:39:10","新北市板橋區南雅西路二段145巷10號","121.451533333333","25.01196","6500100","板橋區"
"220052","561-BX","2018/04/20 13:39:27","新北市板橋區民生路二段161巷9號","121.47028","25.0196983333333","6500100","板橋區"
"220032","568-UM","2018/04/20 13:39:17","新北市板橋區大觀路二段力行2巷65號","121.445851666667","24.9989933333333","6500100","板橋區"
"220011","609-BX","2018/04/20 13:39:26","新北市板橋區民生路二段188號","121.469975","25.0202866666667","6500100","板橋區"
"220002","630-UY","2018/04/20 13:39:24","新北市板橋區華東街1-9號","121.448056666667","24.9949566666667","6500100","板橋區"
"220005","686-BX","2018/04/20 13:39:20","新北市板橋區華東街1-9號","121.448221666667","24.9949516666667","6500100","板橋區"
"220018","806-UM","2018/04/20 13:39:24","新北市板橋區華東街11號","121.451216666667","24.99818","6500100","板橋區"
"220003","827-TW","2018/04/20 13:39:21","新北市板橋區華東街1-9號","121.448173333333","24.9949183333333","6500100","板橋區"
"220014","829-TW","2018/04/20 13:39:14","新北市板橋區民生路二段56-6號","121.470965","25.0192283333333","6500100","板橋區"
"220022","895-R6","2018/04/20 13:39:26","新北市板橋區南雅南路一段121號","121.455238333333","25.0046716666667","6500100","板橋區"
"220018","AAC-253","2018/04/20 13:39:25","新北市板橋區大觀路三段212巷70號","121.429798333333","24.99347","6500100","板橋區"
"235027","KEA-2873","2018/04/20 13:39:26","新北市中和區連城路347巷6弄38號","121.486591666667","24.99535","6500300","中和區"
