"lineid","car","time","location","longitude","latitude","cityid","cityname"
"234044","148-BY","2018/04/20 13:49:27","新北市永和區永利路244號","121.524103333333","25.0024433333333","6500400","永和區"
"234068","149-BY","2018/04/20 13:49:26","新北市永和區竹林路81號","121.519496666667","25.01257","6500400","永和區"
"234005","207-UY","2018/04/20 13:49:09","新北市永和區永和路一段4號","121.512813333333","25.0045433333333","6500400","永和區"
"234078","298-R6","2018/04/20 13:49:26","新北市永和區永亨路98號","121.523031666667","25.00487","6500400","永和區"
"234036","336-UY","2018/04/20 13:49:28","新北市永和區成功路二段76號","121.526496666667","24.9991616666667","6500400","永和區"
"234062","337-UY","2018/04/20 13:49:30","新北市永和區中正路370號","121.517826666667","25.000945","6500400","永和區"
"234084","338-UY","2018/04/20 13:49:23","新北市永和區永利路6號","121.517458333333","25.005995","6500400","永和區"
"234066","553-UM","2018/04/20 13:49:14","新北市永和區永貞路347巷13號","121.50869","25.0072033333333","6500400","永和區"
"234015","745-BX","2018/04/20 13:49:29","新北市永和區文化路75號","121.513735","25.015145","6500400","永和區"
"234028","746-BX","2018/04/20 13:49:11","新北市永和區民生路8號","121.522688333333","24.9978433333333","6500400","永和區"
"234052","KEA-2590","2018/04/20 13:49:15","新北市永和區竹林路75巷25弄8號","121.520173333333","25.01438","6500400","永和區"
"234012","KEA-2591","2018/04/20 13:49:28","新北市永和區保生路55號","121.504691666667","25.010625","6500400","永和區"
"234060","AAD-866","2018/04/20 13:49:10","新北市永和區中正路199號","121.517301666667","24.9994066666667","6500400","永和區"
"234040","862-TW","2018/04/20 13:49:18","新北市永和區中和路305巷2弄28號","121.50744","24.999975","6500400","永和區"
"234048","863-TW","2018/04/20 13:49:11","新北市永和區保安路75號","121.508666666667","25.01492","6500400","永和區"
"234025","9371-KE","2018/04/20 13:49:30","新北市永和區自由街47號","121.514025","25.00593","6500400","永和區"
"234010","9373-KE","2018/04/20 13:49:18","新北市永和區保安路292號","121.505016666667","25.0118233333333","6500400","永和區"
"248019","225-UY","2018/04/20 13:49:20","新北市五股區凌雲路三段39-2號","121.431613333333","25.11769","6501500","五股區"
"234022","9380-KE","2018/04/20 13:49:19","新北市永和區復興街2巷2號","121.515663333333","25.0125816666667","6500400","永和區"
"234076","969-R7","2018/04/20 13:49:23","新北市永和區民權路58巷2弄14號","121.51975","24.9988783333333","6500400","永和區"
"234072","AAC-211","2018/04/20 13:49:21","新北市永和區豫溪街213號","121.52417","25.0094383333333","6500400","永和區"
"234001","AAC-295","2018/04/20 13:49:12","新北市永和區永和路一段111巷2號","121.513651666667","25.0079616666667","6500400","永和區"
"244004","248-BX","2018/04/20 13:49:20","新北市林口區南勢四街328號","121.357441666667","25.0761916666667","6501700","林口區"
"231002","002-UM","2018/04/20 13:49:09","新北市新店區溪園路245-6號","121.52538","24.9833","6500600","新店區"
"231027","0293-UT","2018/04/20 13:49:13","新北市新店區中興路一段24-2號","121.538576666667","24.95829","6500600","新店區"
"231001","047-UY","2018/04/20 13:49:28","新北市新店區三民路62號","121.53512","24.972155","6500600","新店區"
"231010","107-UY","2018/04/20 13:49:30","新北市新店區平等街48巷8號","121.535826666667","24.9730833333333","6500600","新店區"
"231012","187-VK","2018/04/20 13:49:15","新北市新店區德正街25巷5號","121.544505","24.9718233333333","6500600","新店區"
"231023","KEA-2219","2018/04/20 13:49:22","新北市新店區國校路27號","121.537998333333","24.9562183333333","6500600","新店區"
"231026","256-BX","2018/04/20 13:49:31","新北市新店區三民路84巷12號","121.534925","24.973085","6500600","新店區"
"231018","278-BY","2018/04/20 13:49:25","新北市新店區中正路399巷5號","121.53418","24.97693","6500600","新店區"
"231016","AAD-862","2018/04/20 13:49:18","新北市新店區北宜路二段82巷7弄2號","121.553643333333","24.952665","6500600","新店區"
"231028","355-BY","2018/04/20 13:49:17","新北市新店區安和路三段9巷1號","121.518005","24.9806233333333","6500600","新店區"
"231038","3712-VJ","2018/04/20 13:49:26","新北市新店區安康路一段321巷7號","121.521931666667","24.9626866666667","6500600","新店區"
"231037","4716-K9","2018/04/20 13:49:09","新北市新店區安康路三段355巷11號","121.484783333333","24.9505283333333","6500600","新店區"
"231025","4715-K9","2018/04/20 13:49:09","新北市新店區中央五街23號","121.529253333333","24.9746333333333","6500600","新店區"
"231036","512-UM","2018/04/20 13:49:13","新北市新店區安祥路147巷76號","121.475735","24.9556783333333","6500600","新店區"
"231013","513-UM","2018/04/20 13:49:30","新北市新店區二十張路25巷18弄9號","121.53937","24.9815433333333","6500600","新店區"
"231006","617-UM","2018/04/20 13:49:28","新北市新店區北宜路一段260號","121.545743333333","24.95279","6500600","新店區"
"231005","618-UM","2018/04/20 13:49:20","新北市新店區寶中路121-1號","121.549583333333","24.9794116666667","6500600","新店區"
"231030","619-UM","2018/04/20 13:49:18","新北市新店區安康路一段20號","121.531048333333","24.9610866666667","6500600","新店區"
"231034","641-BX","2018/04/20 13:49:20","新北市新店區達觀路14巷2號","121.503225","24.941275","6500600","新店區"
"231003","645-TV","2018/04/20 13:49:21","新北市新店區中興路一段162號","121.542706666667","24.96401","6500600","新店區"
"231035","719-UM","2018/04/20 13:49:16","新北市新店區安忠路57巷18號","121.513083333333","24.9589216666667","6500600","新店區"
"231022","719-UY","2018/04/20 13:48:45","新北市新店區湖子內路1號","121.542443333333","24.930365","6500600","新店區"
"231032","720-UM","2018/04/20 13:49:19","新北市新店區安康路一段223號","121.525755","24.96308","6500600","新店區"
"231029","897-TW","2018/04/20 13:49:24","新北市新店區安康路二段117號","121.512586666667","24.9615833333333","6500600","新店區"
"231004","899-TW","2018/04/20 13:49:26","新北市新店區寶橋路132號","121.547375","24.9760266666667","6500600","新店區"
"231024","AKT-0513","2018/04/20 13:49:15","新北市新店區北新路一段271巷35號","121.539466666667","24.9669466666667","6500600","新店區"
"235028","005-UY","2018/04/20 13:49:28","新北市中和區景平路545巷7號","121.498181666667","24.999085","6500300","中和區"
"235020","096-UM","2018/04/20 13:49:23","新北市中和區中正路1192號","121.480541666667","25.010455","6500300","中和區"
"235003","097-UM","2018/04/20 13:49:19","新北市中和區大勇街25巷39弄1號","121.514765","24.9942916666667","6500300","中和區"
"235029","098-UM","2018/04/20 13:49:22","新北市中和區勝利路35巷1弄35號","121.500291666667","25.0081133333333","6500300","中和區"
"235004","150-BY","2018/04/20 13:48:57","新北市中和區宜安路120號","121.510168333333","24.9980783333333","6500300","中和區"
"235022","151-BY","2018/04/20 13:49:16","新北市中和區連城路534巷2號","121.475238333333","24.9914116666667","6500300","中和區"
"235019","183-VK","2018/04/20 13:49:26","新北市中和區德光路75號","121.469403333333","25.0037333333333","6500300","中和區"
"235002","185-VK","2018/04/20 13:49:25","新北市中和區立人街24-5號","121.518911666667","24.994185","6500300","中和區"
"235013","186-VK","2018/04/20 13:49:14","新北市中和區景安路177巷26號","121.506505","24.9943933333333","6500300","中和區"
"235031","255-BX","2018/04/20 13:49:28","新北市中和區新生街220巷1弄15號","121.483461666667","24.99796","6500300","中和區"
"235008","293-VK","2018/04/20 13:49:29","新北市中和區中興街123號","121.499948333333","24.9917833333333","6500300","中和區"
"235036","301-VK","2018/04/20 13:49:28","新北市中和區中山路二段136號","121.502016666667","25.0033183333333","6500300","中和區"
"235007","352-BY","2018/04/20 13:49:32","新北市中和區成功路48號","121.526098333333","24.99293","6500300","中和區"
"235025","378-QA","2018/04/20 13:49:19","新北市中和區民享街30巷1號","121.473956666667","25.0035283333333","6500300","中和區"
"235014","4979-A6","2018/04/20 13:49:22","新北市中和區忠孝街60巷9號","121.511841666667","24.98389","6500300","中和區"
"235006","551-UM","2018/04/20 13:49:31","新北市中和區秀朗路三段107號","121.526413333333","24.9946566666667","6500300","中和區"
"235034","558-UM","2018/04/20 13:49:26","新北市中和區南山路17號","121.50215","24.9991366666667","6500300","中和區"
"235009","565-BX","2018/04/20 13:49:21","新北市中和區捷運路185號","121.505513333333","24.9914533333333","6500300","中和區"
"235018","640-BX","2018/04/20 13:49:27","新北市中和區自治街1號","121.474785","25.0032716666667","6500300","中和區"
"235024","647-TV","2018/04/20 13:49:26","新北市中和區中山路三段124號","121.474278333333","25.006255","6500300","中和區"
"235011","732-UM","2018/04/20 13:49:20","新北市中和區興南路二段34巷28弄2號","121.505051666667","24.9864233333333","6500300","中和區"
"235010","733-UM","2018/04/20 13:49:19","新北市中和區仁愛街36巷13號","121.510856666667","24.9877866666667","6500300","中和區"
"235035","783-BX","2018/04/20 13:49:28","新北市中和區立德街21號","121.488655","25.0072666666667","6500300","中和區"
"235026","800-TS","2018/04/20 13:49:26","新北市中和區橋安街18號","121.492546666667","25.0048333333333","6500300","中和區"
"235021","801-TS","2018/04/20 13:49:26","新北市中和區員山路327巷21號","121.480538333333","25.0017133333333","6500300","中和區"
"235016","805-TS","2018/04/20 13:49:14","新北市中和區興南路二段399巷86號","121.50018","24.9783533333333","6500300","中和區"
"235012","896-TW","2018/04/20 13:49:22","新北市中和區南山路397號","121.506681666667","24.9901066666667","6500300","中和區"
"235017","900-TW","2018/04/20 13:49:24","新北市中和區民德路290巷40號","121.466506666667","24.99601","6500300","中和區"
"235030","911-UM","2018/04/20 13:49:21","新北市中和區中山路二段131巷13弄6號","121.503331666667","25.00271","6500300","中和區"
"235015","157-BY","2018/04/20 13:49:26","新北市中和區華新街97號","121.508771666667","24.98297","6500300","中和區"
"235001","AAC-213","2018/04/20 13:49:25","新北市中和區秀朗路三段128巷13號","121.524525","24.993265","6500300","中和區"
"235023","AAC-215","2018/04/20 13:49:21","新北市中和區圓通路393巷18號","121.489886666667","24.98859","6500300","中和區"
"220016","013-TV","2018/04/20 13:49:22","新北市板橋區縣民大道三段128巷2號","121.474451666667","25.020635","6500100","板橋區"
"220004","015-TV","2018/04/20 13:49:25","新北市板橋區四川路二段23-2號","121.454495","24.9955283333333","6500100","板橋區"
"220013","072-UY","2018/04/20 13:49:17","新北市板橋區漢生東路282號","121.471261666667","25.0089933333333","6500100","板橋區"
"220034","073-UY","2018/04/20 13:49:10","新北市板橋區大智街22號","121.455616666667","25.0149016666667","6500100","板橋區"
"220105","075-UY","2018/04/20 13:49:18","新北市板橋區民生路二段161巷5號","121.470028333333","25.0196333333333","6500100","板橋區"
"220017","AAD-861","2018/04/20 13:49:22","新北市板橋區大華街5號","121.458916666667","25.0062316666667","6500100","板橋區"
"247007","056-VK","2018/04/20 13:49:15","新北市蘆洲區重陽街70號","121.481846666667","25.0841683333333","6501400","蘆洲區"
"247019","001-UY","2018/04/20 13:49:24","新北市蘆洲區民族路422巷82弄9-1號","121.474085","25.0947483333333","6501400","蘆洲區"
"235005","251-BX","2018/04/20 13:49:18","新北市中和區永貞路241號","121.513125","25.0038966666667","6500300","中和區"
"207002","749-BX","2018/04/20 13:49:26","新北市萬里區崁腳里崁腳路166號","121.645061666667","25.155925","6502800","萬里區"
"207001","662-BX","2018/04/20 13:49:19","新北市金山區月眉2號","121.63495","25.2139116666667","6502800","萬里區"
"236067","105-UM","2018/04/20 13:49:21","新北市土城區和平路42號","121.445013333333","24.9707483333333","6501300","土城區"
"236040","107-UM","2018/04/20 13:49:29","新北市土城區城林路6巷80號","121.43851","24.9797633333333","6501300","土城區"
"236077","166-UM","2018/04/20 13:49:24","新北市土城區中華路二段114號","121.437935","24.9739666666667","6501300","土城區"
"236029","253-BX","2018/04/20 13:49:26","新北市土城區城林路6巷80號","121.43847","24.97976","6501300","土城區"
"236013","270-VK","2018/04/20 13:49:13","新北市土城區城林路6巷80號","121.438571666667","24.97968","6501300","土城區"
"236032","271-VK","2018/04/20 13:49:17","新北市土城區城林路6巷80號","121.438456666667","24.979795","6501300","土城區"
"236016","401-BY","2018/04/20 13:49:25","新北市土城區城林路6巷80號","121.438643333333","24.979695","6501300","土城區"
"236006","498-BY","2018/04/20 13:49:24","新北市土城區中央路二段98號","121.44207","24.97832","6501300","土城區"
"236057","912-UM","2018/04/20 13:49:18","新北市土城區中華路二段32-1號","121.439231666667","24.9780283333333","6501300","土城區"
"236060","915-UM","2018/04/20 13:49:16","新北市土城區城林路6巷80號","121.438391666667","24.9796316666667","6501300","土城區"
"236054","AAC-216","2018/04/20 13:49:21","新北市土城區城林路6巷80號","121.438421666667","24.9797466666667","6501300","土城區"
"220027","145-BY","2018/04/20 13:49:22","新北市板橋區民權路101巷2號","121.458695","25.0132633333333","6500100","板橋區"
"220037","146-RM","2018/04/20 13:49:30","新北市板橋區民生路二段161巷1號","121.469891666667","25.02003","6500100","板橋區"
"220028","200-UY","2018/04/20 13:49:17","新北市板橋區大觀路二段265巷60弄26號","121.441531666667","24.9979433333333","6500100","板橋區"
"220030","610-BX","2018/04/20 13:49:26","新北市板橋區篤行路三段71號","121.427385","24.985595","6500100","板橋區"
"220050","245-BX","2018/04/20 13:49:28","新北市板橋區民生路二段161巷1號","121.470276666667","25.0201466666667","6500100","板橋區"
"220020","277-BY","2018/04/20 13:49:12","新北市板橋區大觀路三段59巷14號","121.434006666667","24.9949533333333","6500100","板橋區"
"220019","283-VK","2018/04/20 13:49:26","新北市板橋區重慶路245巷67弄8號","121.465695","25.0014483333333","6500100","板橋區"
"220043","285-UM","2018/04/20 13:49:29","新北市板橋區民生路二段161巷1號","121.470036666667","25.01983","6500100","板橋區"
"220001","285-VK","2018/04/20 13:49:14","新北市板橋區民生路二段56-6號","121.470955","25.0185466666667","6500100","板橋區"
"220031","286-VK","2018/04/20 13:49:30","新北市板橋區大觀路一段38巷156弄137號","121.443561666667","25.0086516666667","6500100","板橋區"
"220029","287-VK","2018/04/20 13:49:19","新北市板橋區光華街18巷2號","121.454155","25.011795","6500100","板橋區"
"220009","295-UM","2018/04/20 13:30:56","新北市板橋區民生路二段120號","121.47097","25.0193883333333","6500100","板橋區"
"220023","303-R5","2018/04/20 13:49:32","新北市板橋區南雅東路104號","121.45348","25.008065","6500100","板橋區"
"220010","305-R5","2018/04/20 13:49:18","新北市板橋區觀光街2-1號","121.472425","25.015465","6500100","板橋區"
"220041","307-R5","2018/04/20 13:49:26","新北市板橋區民生路二段161巷9號","121.4703","25.0195466666667","6500100","板橋區"
"220047","317-R6","2018/04/20 13:49:13","新北市板橋區民生路二段161巷1號","121.470278333333","25.01993","6500100","板橋區"
"220012","486-VK","2018/04/20 13:49:17","新北市板橋區民生路二段36-1號","121.472031666667","25.01674","6500100","板橋區"
"220104","560-BX","2018/04/20 13:49:10","新北市板橋區中正路325巷3弄25號","121.45397","25.0185066666667","6500100","板橋區"
"220052","561-BX","2018/04/20 13:49:27","新北市板橋區民生路二段161巷7號","121.470253333333","25.019705","6500100","板橋區"
"220032","568-UM","2018/04/20 13:49:19","新北市板橋區大觀路二段150巷20號","121.441748333333","24.9994716666667","6500100","板橋區"
"220011","609-BX","2018/04/20 13:49:27","新北市板橋區民生路二段5號","121.472961666667","25.0158266666667","6500100","板橋區"
"220002","630-UY","2018/04/20 13:49:24","新北市板橋區館前東路26-4號","121.460393333333","25.0072133333333","6500100","板橋區"
"220040","637-BX","2018/04/20 13:49:18","新北市板橋區民生路二段161巷1號","121.470035","25.0199616666667","6500100","板橋區"
"220005","686-BX","2018/04/20 13:49:19","新北市板橋區南雅南路二段116號","121.452378333333","25.0004366666667","6500100","板橋區"
"220042","689-BX","2018/04/20 13:49:17","新北市板橋區民生路二段188號","121.470211666667","25.0202566666667","6500100","板橋區"
"220051","KEA-2699","2018/04/20 13:49:22","新北市板橋區民生路二段161巷1號","121.470208333333","25.0199916666667","6500100","板橋區"
"220018","806-UM","2018/04/20 13:49:26","新北市板橋區四川路一段101號","121.459816666667","25.0053316666667","6500100","板橋區"
"220003","827-TW","2018/04/20 13:49:21","新北市板橋區中山路一段143號","121.464521666667","25.0118883333333","6500100","板橋區"
"220014","829-TW","2018/04/20 13:49:14","新北市板橋區民生路二段5號","121.472781666667","25.015805","6500100","板橋區"
"220039","830-TW","2018/04/20 13:49:12","新北市板橋區民生路二段120號","121.4704","25.01975","6500100","板橋區"
"220038","833-TW","2018/04/20 13:49:17","新北市板橋區民生路二段161巷1號","121.470006666667","25.0200966666667","6500100","板橋區"
"220022","895-R6","2018/04/20 13:49:26","新北市板橋區南門街2號","121.457551666667","25.0093066666667","6500100","板橋區"
"220021","985-R7","2018/04/20 13:49:10","新北市板橋區宮口街2號","121.457473333333","25.0096683333333","6500100","板橋區"
"220046","AAC-210","2018/04/20 13:49:19","新北市板橋區民生路二段120號","121.470368333333","25.01969","6500100","板橋區"
"220018","AAC-253","2018/04/20 13:49:25","新北市板橋區金門街105號","121.433221666667","24.9921783333333","6500100","板橋區"
"235027","KEA-2873","2018/04/20 13:49:26","新北市中和區連城路319巷11弄12號","121.489615","24.994985","6500300","中和區"
