"lineid","car","time","location","longitude","latitude","cityid","cityname"
"234042","862-TW","2018/04/20 16:09:18","新北市永和區福和路1號","121.52603","25.0097683333333","6500400","永和區"
"231046","107-UY","2018/04/20 16:09:20","新北市新店區永業路81巷60號","121.529268333333","24.9477616666667","6500600","新店區"
"231012","187-VK","2018/04/20 16:09:15","新北市新店區安興路59號","121.516295","24.972305","6500600","新店區"
"231018","278-BY","2018/04/20 16:09:05","新北市新店區中正路694巷15號","121.53537","24.99088","6500600","新店區"
"231037","4716-K9","2018/04/20 16:09:28","新北市新店區薏仁坑路自強巷1號","121.497791666667","24.9577033333333","6500600","新店區"
"241011","013-R5","2018/04/20 16:09:21","新北市三重區三和路三段106號","121.494013333333","25.0722116666667","6500200","三重區"
"241028","022-UY","2018/04/20 16:09:18","新北市三重區正義南路107號","121.498188333333","25.0585883333333","6500200","三重區"
"241008","059-VK","2018/04/20 16:09:24","新北市三重區永福街108號","121.478905","25.0755883333333","6500200","三重區"
"241031","061-VK","2018/04/20 16:09:19","新北市三重區重新路四段121號","121.484515","25.0519766666667","6500200","三重區"
"241015","062-VK","2018/04/20 16:09:14","新北市三重區環河南路121-1號","121.497833333333","25.05538","6500200","三重區"
"241017","063-VK","2018/04/20 16:09:28","新北市三重區民生街74號","121.490375","25.0650133333333","6500200","三重區"
"241024","065-VK","2018/04/20 16:09:22","新北市三重區中正北路145巷9弄18號","121.485701666667","25.0675916666667","6500200","三重區"
"241002","090-VK","2018/04/20 16:09:18","新北市三重區仁義街91號","121.499783333333","25.07955","6500200","三重區"
"241003","091-VK","2018/04/20 16:09:24","新北市三重區自強路五段112號","121.49685","25.0836083333333","6500200","三重區"
"241005","262-UM","2018/04/20 16:09:18","新北市三重區溪尾街305號","121.487503333333","25.0837633333333","6500200","三重區"
"241026","265-UM","2018/04/20 16:09:27","新北市三重區正義南路10號","121.498063333333","25.061505","6500200","三重區"
"241016","266-UM","2018/04/20 16:09:16","新北市三重區中正北路9號","121.492493333333","25.0612466666667","6500200","三重區"
"241022","267-UM","2018/04/20 16:09:34","新北市三重區忠孝路三段40巷22弄14號","121.482995","25.0664616666667","6500200","三重區"
"241018","268-UM","2018/04/20 16:09:22","新北市三重區明志街32號","121.491398333333","25.0638583333333","6500200","三重區"
"241013","270-UM","2018/04/20 16:09:16","新北市三重區三和路三段85號","121.494535","25.072075","6500200","三重區"
"241025","271-UM","2018/04/20 16:09:19","新北市三重區忠孝路三段40巷6-2號","121.481791666667","25.066605","6500200","三重區"
"241007","398-BY","2018/04/20 16:09:35","新北市三重區慈愛街10號","121.484546666667","25.0784933333333","6500200","三重區"
"241004","475-VK","2018/04/20 16:09:29","新北市三重區長元街105號","121.504641666667","25.0669733333333","6500200","三重區"
"241020","478-VK","2018/04/20 16:09:29","新北市三重區大勇街3號","121.4837","25.0712866666667","6500200","三重區"
"241014","543-UM","2018/04/20 16:09:12","新北市三重區環河南路121-1號","121.497853333333","25.05537","6500200","三重區"
"241023","545-UM","2018/04/20 16:09:20","新北市三重區力行路一段60號","121.484696666667","25.069065","6500200","三重區"
"241001","547-UM","2018/04/20 16:09:26","新北市三重區忠孝路二段1號","121.48716","25.0715566666667","6500200","三重區"
"241019","887-TS","2018/04/20 16:09:31","新北市三重區重陽路三段97號","121.490316666667","25.068035","6500200","三重區"
"241012","941-UM","2018/04/20 16:09:28","新北市三重區正義北路113號","121.49686","25.06586","6500200","三重區"
"241029","942-UM","2018/04/20 16:09:34","新北市三重區同安東街78號","121.498595","25.0573983333333","6500200","三重區"
"241033","AAC-255","2018/04/20 16:09:28","新北市三重區重新路五段326巷27號","121.477155","25.0459816666667","6500200","三重區"
"235026","800-TS","2018/04/20 16:09:26","新北市中和區建八路130號","121.489018333333","24.9985683333333","6500300","中和區"
"224007","275-VK","2018/04/20 16:09:13","新北市瑞芳區粗坑口路1巷1號","121.76242","25.0967366666667","6501200","瑞芳區"
"227003","642-TC","2018/04/20 16:09:29","新北市雙溪區上林里內平林47號","121.83328","25.030405","6502500","雙溪區"
"227011","400-TW","2018/04/20 16:09:33","新北市雙溪區三港里雙澳路75號","121.883558333333","25.0539433333333","6502500","雙溪區"
