"lineid","car","time","location","longitude","latitude","cityid","cityname"
"234067","553-UM","2018/04/20 16:31:25","新北市永和區福和路1號","121.52634","25.0096716666667","6500400","永和區"
"249005","172-UM","2018/04/20 16:59:30","新北市八里區渡船頭3-19號","121.433948333333","25.1517416666667","6502300","八里區"
"249001","173-UM","2018/04/20 16:59:29","新北市八里區中山路三段106號","121.391033333333","25.14221","6502300","八里區"
"249004","303-UY","2018/04/20 16:59:25","新北市八里區挖子尾街58號","121.415441666667","25.166265","6502300","八里區"
"249002","305-UY","2018/04/20 16:58:30","新北市八里區牛寮埔19-1號","121.431681666667","25.1428466666667","6502300","八里區"
"249003","593-UM","2018/04/20 16:59:29","新北市八里區中山路二段370號","121.401008333333","25.1481216666667","6502300","八里區"
"244013","069-UM","2018/04/20 16:59:33","新北市林口區粉寮69號","121.405113333333","25.0908216666667","6501700","林口區"
"244007","080-UY","2018/04/20 16:59:28","新北市林口區中湖43-5號","121.381888333333","25.0923","6501700","林口區"
"244019","403-UM","2018/04/20 16:59:29","新北市林口區中山路158號","121.39066","25.0787883333333","6501700","林口區"
"244023","483-VK","2018/04/20 16:59:33","新北市林口區粉寮路二段167-1號","121.404433333333","25.088495","6501700","林口區"
"244021","838-TS","2018/04/20 16:59:30","新北市林口區粉寮69號","121.404826666667","25.0908083333333","6501700","林口區"
"231046","107-UY","2018/04/20 16:59:20","新北市新店區直潭路25號","121.534576666667","24.9428383333333","6500600","新店區"
"241011","013-R5","2018/04/20 16:59:24","新北市三重區仁愛街55巷128號","121.498985","25.0728166666667","6500200","三重區"
"241028","022-UY","2018/04/20 16:59:18","新北市三重區中正南路42號","121.493855","25.0600866666667","6500200","三重區"
"241008","059-VK","2018/04/20 16:59:24","新北市三重區力行路二段136巷49弄4號","121.479393333333","25.0751933333333","6500200","三重區"
"241009","060-VK","2018/04/20 16:59:14","新北市三重區仁愛街600巷15號","121.48425","25.080385","6500200","三重區"
"241031","061-VK","2018/04/20 16:59:19","新北市三重區三寧街40號","121.489948333333","25.0602516666667","6500200","三重區"
"241015","062-VK","2018/04/20 16:59:14","新北市三重區三和路二段2號","121.501498333333","25.066385","6500200","三重區"
"241017","063-VK","2018/04/20 16:59:28","新北市三重區明志街33號","121.492046666667","25.064085","6500200","三重區"
"241024","065-VK","2018/04/20 16:59:22","新北市三重區力行路二段18號","121.481803333333","25.0724066666667","6500200","三重區"
"241002","090-VK","2018/04/20 16:59:24","新北市三重區仁義街143巷100號","121.498928333333","25.0815816666667","6500200","三重區"
"241003","091-VK","2018/04/20 16:59:24","新北市三重區五華街141巷58號","121.493466666667","25.0867033333333","6500200","三重區"
"241005","262-UM","2018/04/20 16:59:18","新北市三重區仁華街82號","121.485196666667","25.0831966666667","6500200","三重區"
"241026","265-UM","2018/04/20 16:59:27","新北市三重區光興街1號","121.500293333333","25.0603616666667","6500200","三重區"
"241016","266-UM","2018/04/20 16:59:16","新北市三重區大同北路121巷2號","121.493756666667","25.06413","6500200","三重區"
"241022","267-UM","2018/04/20 16:59:14","新北市三重區三民街155巷2號","121.484006666667","25.06434","6500200","三重區"
"241018","268-UM","2018/04/20 16:59:21","新北市三重區六張街126巷2弄38號","121.49283","25.0696783333333","6500200","三重區"
"241032","269-UM","2018/04/20 16:59:27","新北市三重區重陽路一段130巷11號","121.486053333333","25.0605633333333","6500200","三重區"
"241013","270-UM","2018/04/20 16:59:16","新北市三重區仁孝街62號","121.497215","25.0744966666667","6500200","三重區"
"241025","271-UM","2018/04/20 16:59:15","新北市三重區中正北路508巷5號","121.472631666667","25.0713683333333","6500200","三重區"
"241007","398-BY","2018/04/20 16:59:15","新北市三重區三和路四段145巷199號","121.48853","25.0792816666667","6500200","三重區"
"241006","462-BY","2018/04/20 16:59:17","新北市三重區車路頭街119號","121.484338333333","25.0753466666667","6500200","三重區"
"241004","475-VK","2018/04/20 16:59:29","新北市三重區五華街92巷26號","121.491793333333","25.0815966666667","6500200","三重區"
"241020","478-VK","2018/04/20 16:59:29","新北市三重區後竹圍街175巷29號","121.485516666667","25.0730683333333","6500200","三重區"
"241030","480-VK","2018/04/20 16:59:27","新北市三重區昌隆街67號","121.490951666667","25.050895","6500200","三重區"
"241014","543-UM","2018/04/20 16:59:32","新北市三重區介壽路189號","121.501346666667","25.0708016666667","6500200","三重區"
"241023","545-UM","2018/04/20 16:59:20","新北市三重區新北大道一段252號","121.479966666667","25.0616666666667","6500200","三重區"
"241001","547-UM","2018/04/20 16:59:26","新北市三重區仁愛街245巷4號","121.493751666667","25.0781366666667","6500200","三重區"
"241019","887-TS","2018/04/20 16:59:31","新北市三重區三張街104號","121.4879","25.0699466666667","6500200","三重區"
"241012","941-UM","2018/04/20 16:59:28","新北市三重區仁和街161號","121.499545","25.0745916666667","6500200","三重區"
"241029","942-UM","2018/04/20 16:59:14","新北市三重區中正南路177號","121.493386666667","25.05536","6500200","三重區"
"241033","AAC-255","2018/04/20 16:59:28","新北市三重區中興北街271號","121.469136666667","25.0606616666667","6500200","三重區"
"235062","800-TS","2018/04/20 16:33:40","新北市中和區員山路36巷16-3號","121.484863333333","24.991425","6500300","中和區"
"247024","893-R6","2018/04/20 16:59:21","新北市蘆洲區長興路255號","121.46049","25.0875033333333","6501400","蘆洲區"
"247014","546-UM","2018/04/20 16:59:19","新北市蘆洲區中山二路36巷35號","121.474021666667","25.0833016666667","6501400","蘆洲區"
"247010","341-TH","2018/04/20 16:59:17","新北市蘆洲區信義路176號","121.479278333333","25.083985","6501400","蘆洲區"
"247004","337-TH","2018/04/20 16:59:33","新北市蘆洲區長安街127號","121.460726666667","25.08132","6501400","蘆洲區"
"247006","336-TH","2018/04/20 16:59:30","新北市蘆洲區永安南路二段240號","121.460295","25.0799","6501400","蘆洲區"
"247018","057-VK","2018/04/20 16:59:21","新北市蘆洲區民族路314巷3弄5號","121.477146666667","25.09028","6501400","蘆洲區"
"247008","056-VK","2018/04/20 16:59:23","新北市蘆洲區信義路52號","121.475171666667","25.0796483333333","6501400","蘆洲區"
"247016","007-UY","2018/04/20 16:59:27","新北市蘆洲區正和街22號","121.469915","25.0823533333333","6501400","蘆洲區"
"247020","001-UY","2018/04/20 16:59:24","新北市蘆洲區民族路422巷82弄14號","121.474025","25.0938633333333","6501400","蘆洲區"
"228002","663-BX","2018/04/20 16:59:32","新北市貢寮區貢寮里朝陽街1-2號","121.912396666667","25.021315","6502600","貢寮區"
"228001","670-TC","2018/04/20 16:59:23","新北市貢寮區貢寮里朝陽街1-2號","121.912261666667","25.0212816666667","6502600","貢寮區"
"228003","828-UM","2018/04/20 16:59:34","新北市貢寮區福隆里興隆街24號","121.944565","25.016635","6502600","貢寮區"
"224006","676-BX","2018/04/20 16:59:26","新北市瑞芳區大寮路2號","121.785218333333","25.1000166666667","6501200","瑞芳區"
"224008","285-BY","2018/04/20 16:59:32","新北市瑞芳區明燈路一段15號","121.824608333333","25.10657","6501200","瑞芳區"
"224007","275-VK","2018/04/20 16:59:33","新北市瑞芳區粗坑口路66號","121.761308333333","25.0989566666667","6501200","瑞芳區"
"224009","273-VK","2018/04/20 16:59:25","新北市瑞芳區濱二路31號","121.833378333333","25.111785","6501200","瑞芳區"
"224005","271-BY","2018/04/20 16:59:26","新北市瑞芳區南雅路29-1號","121.888141666667","25.1205533333333","6501200","瑞芳區"
"227003","642-TC","2018/04/20 16:59:28","新北市雙溪區長源里柑腳41號","121.80298","25.01303","6502500","雙溪區"
"227011","400-TW","2018/04/20 16:59:33","新北市雙溪區牡丹里聖南35號","121.853151666667","25.0560516666667","6502500","雙溪區"
"251004","009-UM","2018/04/20 16:59:15","新北市淡水區中正路二段31號","121.419211666667","25.1818283333333","6501000","淡水區"
"251008","181-VK","2018/04/20 16:59:28","台北市北投區中央北路四段30巷160號","121.474251666667","25.1406233333333","6501000","淡水區"
"251010","413-VK","2018/04/20 16:59:19","新北市淡水區沙崙路170號","121.424158333333","25.1835566666667","6501000","淡水區"
"251012","441-VK","2018/04/20 16:59:35","新北市淡水區沙崙路165號","121.424131666667","25.18355","6501000","淡水區"
"251005","443-VK","2018/04/20 16:59:30","新北市淡水區中正路一段156巷1號","121.421206666667","25.1796133333333","6501000","淡水區"
"251006","561-UM","2018/04/20 16:59:21","新北市淡水區中正路二段31號","121.4191","25.1819","6501000","淡水區"
"251009","575-R6","2018/04/20 16:59:30","新北市淡水區中正路259號","121.432913333333","25.1745533333333","6501000","淡水區"
"251007","577-R6","2018/04/20 16:59:16","新北市淡水區中正東路一段105巷7號","121.453156666667","25.1609816666667","6501000","淡水區"
"251011","650-BX","2018/04/20 16:59:13","新北市淡水區中山路13號","121.444195","25.1698516666667","6501000","淡水區"
"252002","178-VK","2018/04/20 16:59:28","新北市三芝區忠孝街175號","121.505346666667","25.2614316666667","6502100","三芝區"
"252001","292-VK","2018/04/20 16:59:32","新北市三芝區淡金路二段89號","121.50387","25.260725","6502100","三芝區"
"237012","280-TH","2018/04/20 16:59:34","新北市三峽區中山路459巷163-3號","121.348946666667","24.93333","6500900","三峽區"
"242034","AAC-296","2018/04/20 16:59:31","新北市新莊區新泰路357巷3弄57號","121.442248333333","25.039535","6500500","新莊區"
"242054","751-BX","2018/04/20 16:59:25","新北市新莊區新泰路357巷3弄57號","121.442191666667","25.0392433333333","6500500","新莊區"
"242027","615-BX","2018/04/20 16:59:14","新北市新莊區新泰路255巷83號","121.442236666667","25.0388833333333","6500500","新莊區"
"242029","612-BX","2018/04/20 16:59:22","新北市新莊區新泰路255巷83號","121.442245","25.0390916666667","6500500","新莊區"
"242041","566-BX","2018/04/20 16:59:14","新北市新莊區新泰路255巷83號","121.44237","25.0391383333333","6500500","新莊區"
"242044","400-BY","2018/04/20 16:59:19","新北市新莊區新泰路357巷3弄57號","121.442216666667","25.0394966666667","6500500","新莊區"
"242023","362-BY","2018/04/20 16:59:27","新北市新莊區新泰路255巷83號","121.44232","25.03877","6500500","新莊區"
"242015","346-TH","2018/04/20 16:59:09","新北市新莊區三和路6號","121.440493333333","25.0344333333333","6500500","新莊區"
"242021","348-TH","2018/04/20 16:59:31","新北市新莊區新泰路357巷3弄57號","121.442361666667","25.0396466666667","6500500","新莊區"
"238019","599-UM","2018/04/20 16:59:27","新北市樹林區育德街78號","121.38807","24.9683133333333","6500700","樹林區"
"238018","571-TV","2018/04/20 16:59:21","新北市樹林區育德街78-1號","121.388326666667","24.9681016666667","6500700","樹林區"
"238017","283-BY","2018/04/20 16:59:25","新北市樹林區育德街78號","121.388263333333","24.96829","6500700","樹林區"
"238014","282-BY","2018/04/20 16:59:23","新北市樹林區育德街78-1號","121.38769","24.9681083333333","6500700","樹林區"
"238026","172-UY","2018/04/20 16:59:34","新北市樹林區育德街78號","121.387881666667","24.96835","6500700","樹林區"
"239006","891-R6","2018/04/20 16:59:23","新北市鶯歌區二甲路171-1號","121.343773333333","24.9360033333333","6500800","鶯歌區"
"239005","526-UM","2018/04/20 16:59:16","新北市鶯歌區環河路91號","121.348791666667","24.94148","6500800","鶯歌區"
"239001","417-VK","2018/04/20 16:59:21","新北市鶯歌區環河路175號","121.346273333333","24.93634","6500800","鶯歌區"
"239002","359-BY","2018/04/20 16:59:32","新北市鶯歌區環河路81-2號","121.349328333333","24.9419733333333","6500800","鶯歌區"
"239004","193-VK","2018/04/20 16:59:28","新北市鶯歌區環河路177-1號","121.346415","24.9355383333333","6500800","鶯歌區"
"242009","281-VK","2018/04/20 16:59:19","新北市新莊區三和路12-21號","121.442055","25.0387216666667","6500500","新莊區"
