"lineid","car","time","location","longitude","latitude","cityid","cityname"
"234017","745-BX","2018/04/20 18:19:25","新北市永和區福和路1號","121.526443333333","25.00959","6500400","永和區"
"234042","862-TW","2018/04/20 18:19:21","新北市永和區福和路1號","121.526196666667","25.0098833333333","6500400","永和區"
"234026","9371-KE","2018/04/20 18:19:25","新北市永和區豫溪街28巷15號","121.515148333333","25.009235","6500400","永和區"
"234011","9373-KE","2018/04/20 18:19:29","新北市永和區保福路二段162巷2號","121.508976666667","25.0151116666667","6500400","永和區"
"249005","172-UM","2018/04/20 18:19:27","新北市八里區荖阡坑路15-11號","121.400391666667","25.1402883333333","6502300","八里區"
"249001","173-UM","2018/04/20 18:19:28","新北市八里區龍米路一段129號","121.452195","25.1266633333333","6502300","八里區"
"249004","303-UY","2018/04/20 18:19:25","新北市八里區龍米路二段236-3號","121.431581666667","25.1589383333333","6502300","八里區"
"249002","305-UY","2018/04/20 18:19:30","新北市八里區龍形二街52號","121.450288333333","25.133005","6502300","八里區"
"248014","025-BX","2018/04/20 18:19:22","新北市五股區自強路19巷11號","121.434696666667","25.0736916666667","6501500","五股區"
"248016","026-BX","2018/04/20 18:19:17","新北市五股區西雲路293號","121.449501666667","25.0991733333333","6501500","五股區"
"248006","077-UY","2018/04/20 18:19:33","新北市五股區中興路一段181號","121.464408333333","25.0738133333333","6501500","五股區"
"248008","095-VK","2018/04/20 18:19:32","新北市五股區更洲路32巷8弄14號","121.459253333333","25.0796316666667","6501500","五股區"
"248018","225-UY","2018/04/20 18:19:16","新北市五股區御史路160號","121.431175","25.10308","6501500","五股區"
"248012","247-BX","2018/04/20 18:19:33","新北市五股區御史路1巷99號","121.441126666667","25.0907883333333","6501500","五股區"
"248010","272-BY","2018/04/20 18:19:21","新北市五股區成泰路一段132號","121.435078333333","25.0753816666667","6501500","五股區"
"248004","677-BX","2018/04/20 18:19:33","新北市五股區成泰路二段156號","121.438331666667","25.0841833333333","6501500","五股區"
"248002","678-BX","2018/04/20 18:19:31","新北市五股區西雲路49號","121.443458333333","25.091065","6501500","五股區"
"232011","375-UM","2018/04/20 18:19:21","新北市坪林區坪雙路一段31號","121.711705","24.9424183333333","6502000","坪林區"
"244013","069-UM","2018/04/20 18:19:33","新北市林口區中山路158號","121.390658333333","25.0788","6501700","林口區"
"244007","080-UY","2018/04/20 18:19:28","新北市林口區竹林路462號","121.387735","25.0848716666667","6501700","林口區"
"244019","403-UM","2018/04/20 18:19:29","新北市林口區忠孝路571號","121.373971666667","25.0682383333333","6501700","林口區"
"244023","483-VK","2018/04/20 18:19:33","新北市林口區仁愛路二段46號","121.385026666667","25.0757783333333","6501700","林口區"
"244017","485-VK","2018/04/20 18:19:24","新北市林口區八德路20巷17號","121.367386666667","25.0677383333333","6501700","林口區"
"244009","656-BX","2018/04/20 18:19:29","新北市林口區文林一街115巷20號","121.378866666667","25.0877066666667","6501700","林口區"
"244011","701-TV","2018/04/20 18:19:22","新北市林口區新生街11號","121.394255","25.076715","6501700","林口區"
"244025","837-TS","2018/04/20 18:19:19","新北市林口區南勢六街55號","121.355765","25.0715283333333","6501700","林口區"
"244021","838-TS","2018/04/20 18:19:30","新北市林口區自強一街39號","121.398901666667","25.077835","6501700","林口區"
"243013","646-TV","2018/04/20 18:19:25","新北市泰山區南林路103號","121.414623333333","25.0428","6501600","泰山區"
"222003","436-BY","2018/04/20 18:19:30","新北市深坑區旺耽路67號","121.626253333333","25.0029866666667","6501800","深坑區"
"222002","659-BX","2018/04/20 18:19:24","新北市深坑區文山路一段62巷25號","121.621703333333","25.000795","6501800","深坑區"
"231040","047-UY","2018/04/20 18:19:35","新北市新店區安華路28-1號","121.519316666667","24.96086","6500600","新店區"
"231046","107-UY","2018/04/20 18:19:20","新北市新店區直潭七街60號","121.532253333333","24.93989","6500600","新店區"
"231048","187-VK","2018/04/20 18:19:34","新北市新店區安華路28-1號","121.519625","24.9611483333333","6500600","新店區"
"231054","KEA-2219","2018/04/20 18:19:26","新北市新店區安華路28-1號","121.519755","24.9612416666667","6500600","新店區"
"231057","256-BX","2018/04/20 18:19:19","新北市新店區安華路28-1號","121.519691666667","24.961085","6500600","新店區"
"231051","278-BY","2018/04/20 18:19:32","新北市新店區安華路28-1號","121.519553333333","24.9611633333333","6500600","新店區"
"231050","AAD-862","2018/04/20 18:19:34","新北市新店區安華路28-1號","121.519901666667","24.9609533333333","6500600","新店區"
"231059","355-BY","2018/04/20 18:19:31","新北市新店區安華路28-1號","121.519186666667","24.9609866666667","6500600","新店區"
"231058","3713-VJ","2018/04/20 18:19:13","新北市新店區安康路一段35號","121.531723333333","24.96073","6500600","新店區"
"231066","4716-K9","2018/04/20 18:19:18","新北市新店區安華路28-1號","121.519316666667","24.96126","6500600","新店區"
"231056","4715-K9","2018/04/20 18:19:26","新北市新店區中央路57號","121.532786666667","24.977415","6500600","新店區"
"231065","512-UM","2018/04/20 18:19:34","新北市新店區安華路28-1號","121.519175","24.9611966666667","6500600","新店區"
"231049","513-UM","2018/04/20 18:19:29","新北市新店區安華路28-1號","121.51958","24.9611633333333","6500600","新店區"
"231045","617-UM","2018/04/20 18:19:27","新北市新店區安華路28-1號","121.519445","24.9610066666667","6500600","新店區"
"231061","619-UM","2018/04/20 18:19:23","新北市新店區安華路28-1號","121.519581666667","24.96076","6500600","新店區"
"231063","641-BX","2018/04/20 18:19:18","新北市新店區安華路28-1號","121.51963","24.960605","6500600","新店區"
"231042","645-TV","2018/04/20 18:19:17","新北市新店區安華路28-1號","121.519373333333","24.9606016666667","6500600","新店區"
"231064","719-UM","2018/04/20 18:19:22","新北市新店區安華路28-1號","121.519463333333","24.961405","6500600","新店區"
"231053","719-UY","2018/04/20 18:19:35","新北市新店區秀山路70號","121.531148333333","24.9609366666667","6500600","新店區"
"231062","720-UM","2018/04/20 18:19:26","新北市新店區安華路28-1號","121.519061666667","24.96118","6500600","新店區"
"231060","897-TW","2018/04/20 18:19:25","新北市新店區安華路28-1號","121.51962","24.9607383333333","6500600","新店區"
"231043","899-TW","2018/04/20 18:19:19","新北市新店區安華路28-1號","121.519158333333","24.9609533333333","6500600","新店區"
"231055","AKT-0513","2018/04/20 18:19:35","新北市新店區安康路一段33-1號","121.532306666667","24.960465","6500600","新店區"
"241024","065-VK","2018/04/20 18:19:22","新北市蘆洲區永安南路一段164號","121.474575","25.0749","6500200","三重區"
"241033","AAC-255","2018/04/20 18:19:27","新北市三重區中興北街42巷17號","121.468911666667","25.0492916666667","6500200","三重區"
"235064","005-UY","2018/04/20 18:19:36","新北市中和區中正路140號","121.499378333333","24.9937533333333","6500300","中和區"
"235056","096-UM","2018/04/20 18:19:23","新北市中和區中山路二段437號","121.484633333333","25.0048516666667","6500300","中和區"
"235039","097-UM","2018/04/20 18:19:24","新北市中和區中正路275號","121.495413333333","24.99386","6500300","中和區"
"235065","098-UM","2018/04/20 18:19:28","新北市中和區莊敬路49巷18號","121.501653333333","25.0061283333333","6500300","中和區"
"235040","150-BY","2018/04/20 18:19:18","新北市中和區中正路273號","121.49562","24.9937033333333","6500300","中和區"
"235058","151-BY","2018/04/20 18:19:36","新北市中和區圓通路367巷17號","121.492555","24.9865816666667","6500300","中和區"
"235055","183-VK","2018/04/20 18:19:26","新北市中和區中正路637巷60弄61號","121.485428333333","24.993305","6500300","中和區"
"235038","185-VK","2018/04/20 18:19:21","新北市中和區秀朗路三段128巷17弄6號","121.524158333333","24.9934416666667","6500300","中和區"
"235049","186-VK","2018/04/20 18:19:18","新北市中和區中正路637巷52弄1號","121.485431666667","24.9934083333333","6500300","中和區"
"235067","255-BX","2018/04/20 18:19:33","新北市中和區和城路一段271巷1號","121.485673333333","24.9918033333333","6500300","中和區"
"235072","301-VK","2018/04/20 18:19:31","新北市中和區錦和路111-1號","121.4902","24.9951416666667","6500300","中和區"
"235043","352-BY","2018/04/20 18:19:20","新北市中和區景平路377號","121.504133333333","24.993355","6500300","中和區"
"235068","377-QA","2018/04/20 18:19:21","新北市中和區員山路36巷16-3號","121.484995","24.9911866666667","6500300","中和區"
"235061","378-QA","2018/04/20 18:19:33","新北市中和區華安街102號","121.468713333333","24.99534","6500300","中和區"
"235050","4979-A6","2018/04/20 18:19:37","新北市中和區捷運路191號","121.50536","24.9912383333333","6500300","中和區"
"235042","551-UM","2018/04/20 18:19:31","新北市中和區大仁街46號","121.518466666667","24.9937433333333","6500300","中和區"
"235070","558-UM","2018/04/20 18:19:34","新北市中和區圓通路160-1號","121.497596666667","24.9954333333333","6500300","中和區"
"235045","565-BX","2018/04/20 18:19:30","新北市中和區景安路202號","121.504033333333","24.9913383333333","6500300","中和區"
"235054","640-BX","2018/04/20 18:19:28","新北市中和區民享街86巷26號","121.473371666667","25.0007216666667","6500300","中和區"
"235060","647-TV","2018/04/20 18:19:33","新北市中和區連城路469巷2號","121.483583333333","24.9956533333333","6500300","中和區"
"235047","732-UM","2018/04/20 18:19:22","新北市中和區南山路409號","121.507063333333","24.9898566666667","6500300","中和區"
"235062","800-TS","2018/04/20 18:19:31","新北市中和區景平路999巷1號","121.49546","25.0059866666667","6500300","中和區"
"235057","801-TS","2018/04/20 18:19:32","新北市中和區民享街97巷15號","121.475676666667","25.0000233333333","6500300","中和區"
"235052","805-TS","2018/04/20 18:19:15","新北市中和區景安路209號","121.504536666667","24.99186","6500300","中和區"
"235048","896-TW","2018/04/20 18:19:36","新北市中和區錦和路350-1號","121.490493333333","24.9935516666667","6500300","中和區"
"235053","900-TW","2018/04/20 18:19:15","新北市中和區中正路637巷60弄61號","121.485503333333","24.993025","6500300","中和區"
"235066","911-UM","2018/04/20 18:19:21","新北市中和區中山路二段65號","121.504218333333","25.00446","6500300","中和區"
"235051","157-BY","2018/04/20 18:19:21","新北市中和區興南路二段130號","121.504326666667","24.9834966666667","6500300","中和區"
"247010","341-TH","2018/04/20 18:19:17","新北市八里區商港路105巷15號","121.39096","25.148935","6501400","蘆洲區"
"226004","205-ST","2018/04/20 18:19:28","新北市平溪區薯榔里一坑路51號","121.713465","25.0220283333333","6502400","平溪區"
"235041","251-BX","2018/04/20 18:19:37","新北市中和區錦和路350-1號","121.490385","24.993615","6500300","中和區"
"228002","663-BX","2018/04/20 18:19:32","新北市貢寮區福連里福興街39-3號","121.993828333333","25.0134366666667","6502600","貢寮區"
"228001","670-TC","2018/04/20 18:19:23","新北市貢寮區真理里新港街26巷55弄2-1號","121.927415","25.0528366666667","6502600","貢寮區"
"228003","828-UM","2018/04/20 18:19:34","新北市貢寮區真理里美艷山街66號","121.918411666667","25.07391","6502600","貢寮區"
"224010","AGQ-8101","2018/04/20 17:59:29","新北市瑞芳區金光路372號","121.8487","25.1107433333333","6501200","瑞芳區"
"224006","676-BX","2018/04/20 18:19:26","新北市瑞芳區民權街3-2號","121.808138333333","25.1074916666667","6501200","瑞芳區"
"224002","639-TC","2018/04/20 18:19:32","新北市瑞芳區三爪子坑路149巷4號","121.810853333333","25.1063516666667","6501200","瑞芳區"
"224008","285-BY","2018/04/20 18:19:32","新北市瑞芳區逢甲路15號","121.8098","25.1086766666667","6501200","瑞芳區"
"224007","275-VK","2018/04/20 18:19:33","新北市瑞芳區大埔路67巷3-1號","121.764453333333","25.101475","6501200","瑞芳區"
"224009","273-VK","2018/04/20 18:19:25","新北市瑞芳區金光路69號","121.856345","25.1069483333333","6501200","瑞芳區"
"224005","271-BY","2018/04/20 18:19:26","新北市瑞芳區台電新村149號","121.811573333333","25.1281933333333","6501200","瑞芳區"
"227003","642-TC","2018/04/20 18:19:27","新北市雙溪區共和里中山路2號","121.863765","25.033795","6502500","雙溪區"
"227011","400-TW","2018/04/20 18:19:33","新北市雙溪區牡丹里牡丹73號","121.851716666667","25.0593416666667","6502500","雙溪區"
"253005","032-BX","2018/04/20 18:19:32","新北市石門區中央路1-13號","121.562203333333","25.291135","6502200","石門區"
"253006","295-VK","2018/04/20 18:19:18","新北市石門區老梅路52巷1號","121.546293333333","25.2891933333333","6502200","石門區"
"222001","KEA-2212","2018/04/20 18:19:29","新北市深坑區北深路二段54號","121.619258333333","25.0042316666667","6501800","深坑區"
"208002","KEA-2872","2018/04/20 18:19:23","新北市金山區清泉里清水路60巷10號","121.633165","25.23438","6502700","金山區"
"208003","665-BX","2018/04/20 18:19:22","新北市金山區中山路16號","121.64168","25.218105","6502700","金山區"
"208001","761-BX","2018/04/20 18:19:20","新北市金山區自強路21號","121.640425","25.2163283333333","6502700","金山區"
"251004","009-UM","2018/04/20 18:19:15","新北市淡水區民族路31巷2號","121.46243","25.13638","6501000","淡水區"
"251002","012-UM","2018/04/20 18:19:32","新北市淡水區中正東路一段65號","121.452691666667","25.1623533333333","6501000","淡水區"
"251008","181-VK","2018/04/20 18:19:27","新北市淡水區淡金路16巷13號","121.45769","25.1601833333333","6501000","淡水區"
"251010","413-VK","2018/04/20 18:19:19","新北市淡水區淡海路180巷12-3號","121.420425","25.1847116666667","6501000","淡水區"
"251012","441-VK","2018/04/20 18:19:15","新北市淡水區北新路二段77-5號","121.480468333333","25.1855416666667","6501000","淡水區"
"251005","443-VK","2018/04/20 18:19:30","新北市淡水區學府路51巷6弄16號","121.4476","25.170105","6501000","淡水區"
"251001","559-UM","2018/04/20 18:19:33","新北市淡水區自強路307巷2號","121.462533333333","25.1318233333333","6501000","淡水區"
"251006","561-UM","2018/04/20 18:19:21","新北市淡水區新民街66號","121.438768333333","25.1761633333333","6501000","淡水區"
"251009","575-R6","2018/04/20 18:19:30","新北市淡水區崁頂57-12號","121.443243333333","25.1971983333333","6501000","淡水區"
"251011","650-BX","2018/04/20 18:19:27","新北市淡水區坪頂路41號","121.457326666667","25.162285","6501000","淡水區"
"251003","673-BX","2018/04/20 18:19:32","新北市淡水區北新路186-3號","121.449528333333","25.17874","6501000","淡水區"
"207003","550-UM","2018/04/20 18:19:23","新北市萬里區野柳里港東路63號","121.687713333333","25.20389","6502800","萬里區"
"207004","225-TW","2018/04/20 18:19:19","新北市萬里區中幅里中福路39-1號","121.67761","25.16614","6502800","萬里區"
"252002","178-VK","2018/04/20 18:19:28","新北市三芝區中山路二段35號","121.502823333333","25.2551866666667","6502100","三芝區"
"252003","249-BX","2018/04/20 18:19:20","新北市三芝區錫板里南勢崗2號","121.481245","25.2634783333333","6502100","三芝區"
"252001","292-VK","2018/04/20 18:19:32","新北市三芝區中興街二段2號","121.498415","25.256675","6502100","三芝區"
"237004","KEA-2597","2018/04/20 18:19:24","新北市三峽區五寮89-9號","121.359308333333","24.8568016666667","6500900","三峽區"
"237007","153-BY","2018/04/20 18:19:24","新北市三峽區中正路二段610號","121.35873","24.9057016666667","6500900","三峽區"
"237011","572-TV","2018/04/20 18:19:29","新北市三峽區溪東路367號","121.41168","24.9291966666667","6500900","三峽區"
"237009","210-TH","2018/04/20 18:19:24","新北市三峽區中山路51-1號","121.36798","24.9345783333333","6500900","三峽區"
"237013","252-BX","2018/04/20 18:19:30","新北市三峽區永安街9巷40號","121.376426666667","24.929815","6500900","三峽區"
"237008","302-VK","2018/04/20 18:19:24","新北市三峽區白雞68-197號","121.389935","24.9083466666667","6500900","三峽區"
"237014","433-BY","2018/04/20 18:19:35","新北市三峽區文化路9號","121.373233333333","24.9356183333333","6500900","三峽區"
"237012","280-TH","2018/04/20 18:19:34","新北市三峽區民生街19巷7弄16號","121.37687","24.9356983333333","6500900","三峽區"
"237006","5529-G3","2018/04/20 18:19:27","新北市三峽區溪東路352號","121.411895","24.9290683333333","6500900","三峽區"
"237005","AKY-6261","2018/04/20 18:19:20","新北市三峽區忠孝街23號","121.370963333333","24.9341583333333","6500900","三峽區"
"236069","105-UM","2018/04/20 18:19:20","新北市土城區明德路一段93巷2號","121.465758333333","24.9831033333333","6501300","土城區"
"236042","107-UM","2018/04/20 18:19:28","新北市土城區樂利街3巷2號","121.448473333333","24.9860766666667","6501300","土城區"
"236079","166-UM","2018/04/20 18:19:17","新北市土城區永平街6號","121.428068333333","24.9626883333333","6501300","土城區"
"236030","253-BX","2018/04/20 18:19:31","新北市土城區順風路30號","121.440058333333","24.977135","6501300","土城區"
"236026","269-VK","2018/04/20 18:19:35","新北市土城區承天路20號","121.439531666667","24.9633933333333","6501300","土城區"
"236014","270-VK","2018/04/20 18:19:18","新北市土城區立清街69號","121.460333333333","24.9873166666667","6501300","土城區"
"236039","271-VK","2018/04/20 18:19:27","新北市土城區青雲路451巷8弄9號","121.45962","24.974415","6501300","土城區"
"236020","401-BY","2018/04/20 18:19:30","新北市土城區明德路一段325號","121.458766666667","24.9770366666667","6501300","土城區"
"236059","912-UM","2018/04/20 18:19:29","新北市土城區中央路四段440號","121.410648333333","24.9515516666667","6501300","土城區"
"236048","913-UM","2018/04/20 18:19:30","新北市土城區明德路一段375-3號","121.454083333333","24.9785716666667","6501300","土城區"
"236063","915-UM","2018/04/20 18:19:15","新北市土城區金城路三段185-1號","121.469725","24.988735","6501300","土城區"
"236055","AAC-216","2018/04/20 18:19:15","新北市土城區中華路二段102號","121.438055","24.974345","6501300","土城區"
"242058","986-R7","2018/04/20 18:19:23","新北市新莊區新北大道七段782號","121.413036666667","25.0247466666667","6500500","新莊區"
"242054","751-BX","2018/04/20 18:19:24","新北市新莊區民安西路410巷12弄4號","121.427818333333","25.0090816666667","6500500","新莊區"
"242027","615-BX","2018/04/20 18:19:33","新北市新莊區新泰路528號","121.44199","25.0471333333333","6500500","新莊區"
"242025","613-BX","2018/04/20 18:19:21","新北市新莊區五工路86號","121.457275","25.06396","6500500","新莊區"
"242041","566-BX","2018/04/20 18:19:33","新北市新莊區天祥街71巷11號","121.415861666667","25.028995","6500500","新莊區"
"242046","497-BY","2018/04/20 18:19:29","新北市新莊區中正路829巷21號","121.421101666667","25.02754","6500500","新莊區"
"242050","441-UM","2018/04/20 18:19:17","新北市新莊區民安東路15號","121.427928333333","25.02101","6500500","新莊區"
"242056","440-UM","2018/04/20 18:19:24","新北市新莊區瓊林路13-3號","121.448871666667","25.0309533333333","6500500","新莊區"
"242007","413-TV","2018/04/20 18:19:22","新北市新莊區中港一街111號","121.448815","25.0451966666667","6500500","新莊區"
"242044","400-BY","2018/04/20 18:19:19","新北市新莊區新北大道七段357號","121.412255","25.0271116666667","6500500","新莊區"
"242060","353-BY","2018/04/20 18:19:27","新北市新莊區建國二路1號","121.435165","25.0235583333333","6500500","新莊區"
"242032","135-UY","2018/04/20 18:19:22","新北市新莊區新泰路277巷43弄2號","121.44402","25.0400283333333","6500500","新莊區"
"242011","173-VK","2018/04/20 18:19:23","新北市新莊區中港路605巷10號","121.450745","25.0531066666667","6500500","新莊區"
"242021","348-TH","2018/04/20 18:19:31","新北市新莊區中正路245號","121.450225","25.035555","6500500","新莊區"
"238015","755-BX","2018/04/20 18:19:32","新北市樹林區文化街112巷27號","121.417173333333","24.990465","6500700","樹林區"
"238023","601-UM","2018/04/20 18:19:18","新北市樹林區忠信街13號","121.408056666667","25.0149333333333","6500700","樹林區"
"238019","599-UM","2018/04/20 18:19:27","新北市樹林區國凱街65號","121.421573333333","24.9799016666667","6500700","樹林區"
"238018","571-TV","2018/04/20 18:19:20","新北市樹林區保安街一段20巷26號","121.428101666667","24.9942916666667","6500700","樹林區"
"238024","5061-A6","2018/04/20 18:19:18","新北市樹林區育英街1號","121.422736666667","24.988985","6500700","樹林區"
"238022","KEA-2213","2018/04/20 18:19:15","新北市樹林區中華路381號","121.412233333333","24.980295","6500700","樹林區"
"238025","303-VK","2018/04/20 18:19:27","新北市樹林區保安二街59號","121.424455","24.9945533333333","6500700","樹林區"
"238017","283-BY","2018/04/20 18:19:24","新北市樹林區中正路713號","121.411256666667","25.014305","6500700","樹林區"
"238014","282-BY","2018/04/20 18:19:23","新北市樹林區大安路111巷25號","121.423253333333","24.9976916666667","6500700","樹林區"
"238020","268-VK","2018/04/20 18:19:34","新北市樹林區三俊街65巷22號","121.413383333333","25.0171633333333","6500700","樹林區"
"238026","172-UY","2018/04/20 18:19:34","新北市樹林區佳園路一段75巷84號","121.396093333333","24.9701266666667","6500700","樹林區"
"238016","169-UY","2018/04/20 18:19:32","新北市樹林區文化街28號","121.419208333333","24.987745","6500700","樹林區"
"239007","AAC-297","2018/04/20 18:19:33","新北市鶯歌區尖山埔路64號","121.3484","24.9510066666667","6500800","鶯歌區"
"239006","891-R6","2018/04/20 18:19:23","新北市鶯歌區鶯桃路296巷48號","121.335831666667","24.96127","6500800","鶯歌區"
"239008","527-UM","2018/04/20 18:19:34","新北市鶯歌區國際一路179號","121.336278333333","24.9765083333333","6500800","鶯歌區"
"239005","526-UM","2018/04/20 18:19:28","新北市鶯歌區鶯桃路二段27號","121.325621666667","24.97246","6500800","鶯歌區"
"239001","417-VK","2018/04/20 18:19:21","新北市鶯歌區國中街197號","121.338228333333","24.939135","6500800","鶯歌區"
"239003","360-BY","2018/04/20 18:19:32","新北市鶯歌區福安街58號","121.335605","24.9652033333333","6500800","鶯歌區"
"239002","359-BY","2018/04/20 18:19:32","新北市鶯歌區文化路305號","121.352555","24.9524483333333","6500800","鶯歌區"
"239004","193-VK","2018/04/20 18:19:28","新北市鶯歌區尖山路287號","121.341505","24.9438666666667","6500800","鶯歌區"
"221008","489-VK","2018/04/20 18:19:23","新北市汐止區連峰街1巷5號","121.645853333333","25.0759316666667","6501100","汐止區"
"221036","130-UY","2018/04/20 18:19:30","新北市汐止區長興街一段2號","121.66961","25.0784933333333","6501100","汐止區"
"221015","131-UY","2018/04/20 18:19:27","新北市汐止區鄉長路二段23巷12號","121.667493333333","25.083","6501100","汐止區"
"221010","269-BY","2018/04/20 18:19:22","新北市汐止區祥雲街20號","121.646563333333","25.0901333333333","6501100","汐止區"
"221012","278-VK","2018/04/20 18:19:37","新北市汐止區保長路25號","121.672385","25.0796983333333","6501100","汐止區"
"221023","279-VK","2018/04/20 18:19:25","新北市汐止區康寧街474巷18-1號","121.631385","25.0675983333333","6501100","汐止區"
"221032","280-BY","2018/04/20 18:19:22","新北市汐止區橫科路2巷11號","121.616401666667","25.05081","6501100","汐止區"
"221027","281-BY","2018/04/20 18:19:21","新北市汐止區和平街11號","121.663105","25.0706566666667","6501100","汐止區"
"221029","298-VK","2018/04/20 18:19:31","新北市汐止區樟樹二路330巷68號","121.642928333333","25.0697966666667","6501100","汐止區"
"221021","299-VK","2018/04/20 18:19:25","新北市汐止區新台五路一段125號","121.651695","25.0616316666667","6501100","汐止區"
"221035","622-UM","2018/04/20 18:19:23","新北市汐止區大同路二段165號","121.65118","25.06479","6501100","汐止區"
"221025","623-UM","2018/04/20 18:19:32","新北市汐止區勤進路12巷37號","121.659111666667","25.0626733333333","6501100","汐止區"
"221038","646-BX","2018/04/20 18:19:29","新北市汐止區忠孝東路247號","121.662961666667","25.0675316666667","6501100","汐止區"
"221033","647-BX","2018/04/20 18:19:27","新北市汐止區宜興街59巷9號","121.621988333333","25.0427416666667","6501100","汐止區"
"221002","707-TV","2018/04/20 18:19:26","新北市汐止區福德一路213巷35號","121.635758333333","25.06477","6501100","汐止區"
"221018","753-BX","2018/04/20 18:19:23","新北市汐止區茄苳路88巷32號","121.667616666667","25.0699283333333","6501100","汐止區"
"242002","KEA-2550","2018/04/20 18:19:18","新北市新莊區碧江街27號","121.453408333333","25.0335566666667","6500500","新莊區"
"242009","281-VK","2018/04/20 18:19:19","新北市新莊區自立街75號","121.45402","25.0454716666667","6500500","新莊區"
"235063","KEA-2873","2018/04/20 18:19:10","新北市中和區中正路589巷11號","121.485825","24.993895","6500300","中和區"
