"lineid","car","time","location","longitude","latitude","cityid","cityname"
"234046","148-BY","2018/04/20 19:29:18","新北市永和區秀朗路二段181巷2號","121.526553333333","25.0012766666667","6500400","永和區"
"234070","149-BY","2018/04/20 19:29:26","新北市永和區竹林路182號","121.520425","25.0096716666667","6500400","永和區"
"234007","207-UY","2018/04/20 19:29:34","新北市永和區永和路二段35號","121.514448333333","25.0103916666667","6500400","永和區"
"234038","336-UY","2018/04/20 19:29:28","新北市永和區民樂街35巷2號","121.527641666667","25.000835","6500400","永和區"
"234064","337-UY","2018/04/20 19:29:28","新北市永和區中正路368巷1弄86號","121.520395","25.0007233333333","6500400","永和區"
"234086","338-UY","2018/04/20 19:29:35","新北市永和區林森路31-1號","121.525928333333","25.005055","6500400","永和區"
"234067","553-UM","2018/04/20 19:29:37","新北市永和區永貞路335號","121.50969","25.007035","6500400","永和區"
"234017","745-BX","2018/04/20 19:29:32","新北市永和區環河西路一段51巷2號","121.513886666667","25.0181716666667","6500400","永和區"
"234030","746-BX","2018/04/20 19:29:29","新北市永和區民生路63號","121.522666666667","24.9974083333333","6500400","永和區"
"234054","KEA-2590","2018/04/20 19:29:21","新北市永和區復興街19巷6號","121.516136666667","25.01322","6500400","永和區"
"234013","KEA-2591","2018/04/20 19:29:28","新北市永和區中山路一段141號","121.5104","25.00968","6500400","永和區"
"234061","AAD-866","2018/04/20 19:29:28","新北市永和區中正路568號","121.517168333333","25.0062183333333","6500400","永和區"
"234042","862-TW","2018/04/20 19:29:37","新北市永和區水源街40號","121.510756666667","25.004485","6500400","永和區"
"234050","863-TW","2018/04/20 19:29:09","新北市永和區信義路115號","121.512345","25.0147833333333","6500400","永和區"
"234026","9371-KE","2018/04/20 19:29:22","新北市中和區中安街130號","121.510963333333","25.000425","6500400","永和區"
"234011","9373-KE","2018/04/20 19:29:09","新北市永和區保福路二段23巷3號","121.510625","25.0111366666667","6500400","永和區"
"249003","593-UM","2018/04/20 19:29:32","新北市八里區中山路二段341號","121.39958","25.1473916666667","6502300","八里區"
"248014","025-BX","2018/04/20 19:29:31","新北市五股區民義路一段183巷9-3號","121.430085","25.0865983333333","6501500","五股區"
"248008","095-VK","2018/04/20 19:29:32","新北市五股區中興路二段31號","121.462575","25.0750983333333","6501500","五股區"
"248018","225-UY","2018/04/20 19:25:16","新北市五股區外寮路9-25號","121.416036666667","25.0786966666667","6501500","五股區"
"248012","247-BX","2018/04/20 19:29:33","新北市五股區成泰路二段97號","121.437903333333","25.0843516666667","6501500","五股區"
"248010","272-BY","2018/04/20 19:29:21","新北市五股區水碓一路23號","121.430606666667","25.0713583333333","6501500","五股區"
"248004","677-BX","2018/04/20 19:29:33","新北市五股區五福路47號","121.43316","25.089635","6501500","五股區"
"248002","678-BX","2018/04/20 19:29:31","新北市五股區凌雲路一段158巷14-1號","121.447831666667","25.103555","6501500","五股區"
"234023","9380-KE","2018/04/20 19:29:26","新北市永和區竹林路91巷45號","121.521311666667","25.0129133333333","6500400","永和區"
"234077","969-R7","2018/04/20 19:29:26","新北市永和區民權路58巷3號","121.519628333333","24.99823","6500400","永和區"
"234074","AAC-211","2018/04/20 19:29:35","新北市永和區環河東路二段54號","121.52331","25.0116183333333","6500400","永和區"
"234003","AAC-295","2018/04/20 19:29:23","新北市永和區永和路一段127號","121.513981666667","25.00841","6500400","永和區"
"244023","483-VK","2018/04/20 19:29:33","新北市林口區仁愛路二段267巷1號","121.373531666667","25.07729","6501700","林口區"
"243012","AAD-798","2018/04/20 19:29:37","新北市泰山區明志路一段513號","121.430773333333","25.0540116666667","6501600","泰山區"
"243011","297-R6","2018/04/20 19:29:28","新北市泰山區貴子路67巷4弄1號","121.431071666667","25.0406283333333","6501600","泰山區"
"243015","380-SR","2018/04/20 19:29:25","新北市泰山區明志路二段70號","121.4288","25.052495","6501600","泰山區"
"243014","421-VK","2018/04/20 19:29:20","新北市泰山區中港西路422號","121.433738333333","25.0539283333333","6501600","泰山區"
"243010","KEA-2215","2018/04/20 19:29:29","新北市泰山區民生路17巷63號","121.429231666667","25.05102","6501600","泰山區"
"243009","KEA-2216","2018/04/20 19:29:26","新北市泰山區半山雅6號","121.431511666667","25.0673066666667","6501600","泰山區"
"243013","646-TV","2018/04/20 19:29:28","新北市泰山區貴子路38號","121.42596","25.0415633333333","6501600","泰山區"
"243016","680-BX","2018/04/20 19:29:30","新北市泰山區明志路三段209號","121.424155","25.0383916666667","6501600","泰山區"
"222003","436-BY","2018/04/20 19:29:30","新北市深坑區深南路51-1號","121.621171666667","25.00986","6501800","深坑區"
"222002","659-BX","2018/04/20 19:29:24","新北市深坑區北深路一段177號","121.632521666667","25.010905","6501800","深坑區"
"231041","002-UM","2018/04/20 19:29:23","新北市新店區中正路547號","121.533796666667","24.9877416666667","6500600","新店區"
"231040","047-UY","2018/04/20 19:29:15","新北市新店區北新路一段251號","121.540858333333","24.9660333333333","6500600","新店區"
"231046","107-UY","2018/04/20 19:29:20","新北市新店區北新路一段309號","121.541565","24.9677933333333","6500600","新店區"
"231048","187-VK","2018/04/20 19:29:34","新北市新店區五峰路140號","121.544868333333","24.9657783333333","6500600","新店區"
"231054","KEA-2219","2018/04/20 19:29:26","新北市新店區文中路45號","121.539566666667","24.956605","6500600","新店區"
"231057","256-BX","2018/04/20 19:29:33","新北市新店區花園一路三段45號","121.550605","24.9328816666667","6500600","新店區"
"231051","278-BY","2018/04/20 19:29:32","新北市新店區中央五街51號","121.527931666667","24.9753983333333","6500600","新店區"
"231050","AAD-862","2018/04/20 19:29:34","新北市新店區秀水路50號","121.555411666667","24.9563066666667","6500600","新店區"
"231059","355-BY","2018/04/20 19:29:31","新北市新店區安和路三段125號","121.517211666667","24.985235","6500600","新店區"
"231058","3713-VJ","2018/04/20 19:29:33","新北市新店區寶橋路85巷23號","121.545241666667","24.9761816666667","6500600","新店區"
"231066","4716-K9","2018/04/20 19:29:18","新北市新店區安康路三段165巷2弄12號","121.489078333333","24.9513316666667","6500600","新店區"
"231067","4772-VM","2018/04/20 19:29:28","新北市新店區安康路一段148號","121.5264","24.9629633333333","6500600","新店區"
"231065","512-UM","2018/04/20 19:29:34","新北市新店區安祥路109巷1弄69號","121.47837","24.9607466666667","6500600","新店區"
"231049","513-UM","2018/04/20 19:29:24","新北市新店區北新路三段65巷34弄21號","121.540025","24.9816666666667","6500600","新店區"
"231045","617-UM","2018/04/20 19:29:27","新北市新店區北宜路二段209號","121.553195","24.953275","6500600","新店區"
"231044","618-UM","2018/04/20 19:29:34","新北市新店區中興路三段134號","121.5451","24.980065","6500600","新店區"
"231061","619-UM","2018/04/20 19:29:23","新北市新店區安康路一段228號","121.523273333333","24.9636533333333","6500600","新店區"
"231063","641-BX","2018/04/20 19:29:18","新北市新店區達觀路16號","121.503191666667","24.9407183333333","6500600","新店區"
"231042","645-TV","2018/04/20 19:29:37","新北市新店區中興路一段24-2號","121.538545","24.95824","6500600","新店區"
"231064","719-UM","2018/04/20 19:29:22","新北市新店區安忠路36號","121.514108333333","24.9606733333333","6500600","新店區"
"231053","719-UY","2018/04/20 19:29:35","新北市新店區廣興路52-2號","121.539405","24.91298","6500600","新店區"
"231062","720-UM","2018/04/20 19:29:26","新北市新店區莒光路12號","121.527173333333","24.9609916666667","6500600","新店區"
"231060","897-TW","2018/04/20 19:29:25","新北市新店區安康路二段156號","121.512251666667","24.9609266666667","6500600","新店區"
"231043","899-TW","2018/04/20 19:29:19","新北市新店區北新路二段214號","121.542943333333","24.976925","6500600","新店區"
"231055","AKT-0513","2018/04/20 19:29:35","新北市新店區中華路83巷67號","121.538301666667","24.9672033333333","6500600","新店區"
"241028","022-UY","2018/04/20 19:29:18","新北市三重區中寮街66號","121.492991666667","25.0583266666667","6500200","三重區"
"241008","059-VK","2018/04/20 19:29:19","新北市三重區永福街135巷35號","121.477386666667","25.077265","6500200","三重區"
"241009","060-VK","2018/04/20 19:29:24","新北市三重區溪尾街242巷56號","121.486366666667","25.0814983333333","6500200","三重區"
"241031","061-VK","2018/04/20 19:29:33","新北市三重區集美街100號","121.488568333333","25.0540633333333","6500200","三重區"
"241017","063-VK","2018/04/20 19:29:27","新北市三重區中正北路25巷2號","121.493186666667","25.06267","6500200","三重區"
"241024","065-VK","2018/04/20 19:29:22","新北市三重區大勇街82巷13號","121.479581666667","25.0717566666667","6500200","三重區"
"241026","265-UM","2018/04/20 19:29:28","新北市三重區文化南路47巷37號","121.4993","25.0611333333333","6500200","三重區"
"241022","267-UM","2018/04/20 19:29:18","新北市三重區三民街163-1號","121.483426666667","25.0647516666667","6500200","三重區"
"241032","269-UM","2018/04/20 19:29:26","新北市三重區三陽路24號","121.485598333333","25.0586083333333","6500200","三重區"
"241013","270-UM","2018/04/20 19:29:34","新北市三重區仁賢街16-1號","121.495798333333","25.0750016666667","6500200","三重區"
"241025","271-UM","2018/04/20 19:29:24","新北市三重區頂崁街210巷23弄1號","121.475856666667","25.0681816666667","6500200","三重區"
"241007","398-BY","2018/04/20 19:29:36","新北市三重區溪尾街124-1號","121.4895","25.0794716666667","6500200","三重區"
"241035","KEA-2210","2018/04/20 19:29:35","新北市三重區信義西街1巷3號","121.498106666667","25.0649516666667","6500200","三重區"
"241006","462-BY","2018/04/20 19:29:32","新北市三重區國道路一段39巷3號","121.483865","25.07312","6500200","三重區"
"241020","478-VK","2018/04/20 19:29:35","新北市三重區三和路四段44巷3號","121.490218333333","25.0744116666667","6500200","三重區"
"241030","480-VK","2018/04/20 19:29:28","新北市三重區成功路41巷4號","121.490161666667","25.051425","6500200","三重區"
"241029","942-UM","2018/04/20 19:29:26","新北市三重區中正南路216號","121.493833333333","25.055125","6500200","三重區"
"235064","005-UY","2018/04/20 19:29:36","新北市中和區圓通路2號","121.501995","24.9980283333333","6500300","中和區"
"235056","096-UM","2018/04/20 19:29:23","新北市中和區民富街25-1號","121.476471666667","25.0076533333333","6500300","中和區"
"235039","097-UM","2018/04/20 19:29:24","新北市中和區秀峰街89號","121.52128","24.99022","6500300","中和區"
"235065","098-UM","2018/04/20 19:29:28","新北市中和區莊敬路4號","121.499525","25.0042533333333","6500300","中和區"
"235040","150-BY","2018/04/20 19:29:38","新北市中和區保健路46巷20弄15號","121.508348333333","24.9964","6500300","中和區"
"235058","151-BY","2018/04/20 19:29:36","新北市中和區連城路467-5號","121.4836","24.996015","6500300","中和區"
"235055","183-VK","2018/04/20 19:29:25","新北市中和區莒光路120巷56號","121.47168","25.0009733333333","6500300","中和區"
"235038","185-VK","2018/04/20 19:29:20","新北市中和區自立路31號","121.522183333333","24.99571","6500300","中和區"
"235049","186-VK","2018/04/20 19:29:18","新北市中和區景新街285巷6號","121.510128333333","24.9934733333333","6500300","中和區"
"235067","255-BX","2018/04/20 19:29:33","新北市中和區連城路340巷8弄2號","121.482756666667","24.9962066666667","6500300","中和區"
"235044","293-VK","2018/04/20 19:29:30","新北市中和區捷運路157號","121.50634","24.9911233333333","6500300","中和區"
"235072","301-VK","2018/04/20 19:29:31","新北市中和區連城路265巷10弄2號","121.491651666667","24.995395","6500300","中和區"
"235043","352-BY","2018/04/20 19:29:20","新北市中和區南山路165號","121.502696666667","24.9952616666667","6500300","中和區"
"235068","377-QA","2018/04/20 19:29:21","新北市中和區景平路493巷21號","121.499263333333","24.9969866666667","6500300","中和區"
"235061","378-QA","2018/04/20 19:29:33","新北市中和區連城路559號","121.479975","24.9947166666667","6500300","中和區"
"235050","4979-A6","2018/04/20 19:29:17","新北市中和區中正路426號","121.491563333333","24.994045","6500300","中和區"
"235042","551-UM","2018/04/20 19:29:31","新北市中和區安樂路143巷2弄5號","121.51404","24.9977483333333","6500300","中和區"
"235070","558-UM","2018/04/20 19:29:34","新北市中和區中和路79號","121.500915","25.0008366666667","6500300","中和區"
"235045","565-BX","2018/04/20 19:29:30","新北市中和區景新街399巷9號","121.512936666667","24.98989","6500300","中和區"
"235054","640-BX","2018/04/20 19:29:28","新北市中和區國光街112巷22弄15號","121.470181666667","25.0023966666667","6500300","中和區"
"235060","647-TV","2018/04/20 19:29:33","新北市中和區新生街114巷37弄12號","121.48234","25.0017533333333","6500300","中和區"
"235047","732-UM","2018/04/20 19:29:22","新北市中和區景平路241巷64弄8號","121.507715","24.9926083333333","6500300","中和區"
"235046","733-UM","2018/04/20 19:29:30","新北市中和區忠孝街46-2號","121.51118","24.9835283333333","6500300","中和區"
"235071","783-BX","2018/04/20 19:29:28","新北市中和區連城路294號","121.484065","24.996255","6500300","中和區"
"235057","801-TS","2018/04/20 19:29:32","新北市中和區員山路425號","121.480938333333","25.0034866666667","6500300","中和區"
"235052","805-TS","2018/04/20 19:29:35","新北市中和區華新街143巷68號","121.506308333333","24.979325","6500300","中和區"
"235048","896-TW","2018/04/20 19:29:35","新北市中和區忠孝街99-3號","121.512078333333","24.9861","6500300","中和區"
"235053","900-TW","2018/04/20 19:29:35","新北市中和區華順街32號","121.466733333333","24.998795","6500300","中和區"
"235066","911-UM","2018/04/20 19:29:21","新北市中和區景新街40號","121.503656666667","24.9992583333333","6500300","中和區"
"235051","157-BY","2018/04/20 19:29:21","新北市中和區景新街137號","121.505873333333","24.9970266666667","6500300","中和區"
"235037","AAC-213","2018/04/20 19:29:20","新北市中和區秀朗路三段10巷14弄18號","121.524886666667","24.9966616666667","6500300","中和區"
"235059","AAC-215","2018/04/20 19:29:29","新北市中和區圓通路252巷6-1號","121.492915","24.9917683333333","6500300","中和區"
"220068","013-TV","2018/04/20 19:29:19","新北市板橋區翠華街6巷68號","121.48172","25.0251566666667","6500100","板橋區"
"220065","072-UY","2018/04/20 19:29:35","新北市板橋區國泰街111巷4-2號","121.465691666667","25.006175","6500100","板橋區"
"220086","073-UY","2018/04/20 19:29:33","新北市板橋區中正路236巷74號","121.45807","25.01936","6500100","板橋區"
"220106","075-UY","2018/04/20 19:29:20","新北市板橋區文化路二段439號","121.474793333333","25.033325","6500100","板橋區"
"220069","AAD-861","2018/04/20 19:29:31","新北市板橋區縣民大道一段64巷11號","121.455698333333","25.0035416666667","6500100","板橋區"
"226004","205-ST","2018/04/20 19:29:28","新北市平溪區十分里十分街56號","121.775498333333","25.0413483333333","6502400","平溪區"
"235041","251-BX","2018/04/20 19:29:17","新北市中和區中安街104-1號","121.51159","25.001225","6500300","中和區"
"228002","663-BX","2018/04/20 19:29:32","新北市貢寮區龍門里龍門街76號","121.931153333333","25.026905","6502600","貢寮區"
"228001","670-TC","2018/04/20 19:29:23","新北市貢寮區真理里延平街68-1號","121.925356666667","25.057465","6502600","貢寮區"
"228003","828-UM","2018/04/20 19:29:33","新北市貢寮區和美里和美街19-2號","121.912861666667","25.0825783333333","6502600","貢寮區"
"224010","AGQ-8101","2018/04/20 19:28:49","新北市瑞芳區街頂巷82號","121.844231666667","25.108475","6501200","瑞芳區"
"227003","642-TC","2018/04/20 19:29:27","新北市雙溪區雙溪里光復街3號","121.865131666667","25.03556","6502500","雙溪區"
"227011","400-TW","2018/04/20 19:29:33","新北市雙溪區新基里新基北街43號","121.868163333333","25.039705","6502500","雙溪區"
"253005","032-BX","2018/04/20 19:29:32","新北市石門區小坑9號","121.594183333333","25.2887366666667","6502200","石門區"
"253006","295-VK","2018/04/20 19:29:18","新北市石門區尖子鹿104-4號","121.577928333333","25.297475","6502200","石門區"
"222001","KEA-2212","2018/04/20 19:29:29","新北市深坑區北深路二段140號","121.61566","25.002855","6501800","深坑區"
"208002","KEA-2872","2018/04/20 19:29:23","新北市金山區仁愛路78巷1號","121.63463","25.2216383333333","6502700","金山區"
"208003","665-BX","2018/04/20 19:29:22","新北市金山區中山路263巷14號","121.636361666667","25.2215966666667","6502700","金山區"
"208001","761-BX","2018/04/20 19:29:20","新北市金山區中正路67號","121.63391","25.2218416666667","6502700","金山區"
"251010","413-VK","2018/04/20 19:29:19","新北市淡水區中正路二段214號","121.426533333333","25.189665","6501000","淡水區"
"251012","441-VK","2018/04/20 19:29:35","新北市淡水區中山北路三段164號","121.445648333333","25.19662","6501000","淡水區"
"251001","559-UM","2018/04/20 19:29:33","新北市淡水區民權路42號","121.459785","25.1367283333333","6501000","淡水區"
"251006","561-UM","2018/04/20 19:29:21","新北市淡水區大義街27號","121.44255","25.1782566666667","6501000","淡水區"
"251009","575-R6","2018/04/20 19:29:29","新北市淡水區大忠街5巷9號","121.443433333333","25.17656","6501000","淡水區"
"251007","577-R6","2018/04/20 19:29:16","新北市淡水區坪頂路46號","121.457696666667","25.1623366666667","6501000","淡水區"
"251011","650-BX","2018/04/20 19:29:26","新北市淡水區中正東路二段161巷11弄22號","121.460653333333","25.145615","6501000","淡水區"
"251003","673-BX","2018/04/20 19:29:32","新北市淡水區中山北路二段185號","121.444183333333","25.1850533333333","6501000","淡水區"
"207003","550-UM","2018/04/20 19:29:34","新北市萬里區大鵬里萬里加投264號","121.644508333333","25.2160183333333","6502800","萬里區"
"207004","225-TW","2018/04/20 19:29:19","新北市萬里區萬里里瑪鋉路121號","121.688941666667","25.1779616666667","6502800","萬里區"
"252002","178-VK","2018/04/20 19:29:28","新北市三芝區淡金路二段18-1號","121.502683333333","25.2595216666667","6502100","三芝區"
"252001","292-VK","2018/04/20 19:29:32","新北市三芝區長勤街63-4號","121.500021666667","25.2558466666667","6502100","三芝區"
"237004","KEA-2597","2018/04/20 19:29:24","新北市三峽區有木206號","121.439115","24.8514016666667","6500900","三峽區"
"237007","153-BY","2018/04/20 19:29:24","新北市三峽區二鬮路136巷20弄2號","121.35742","24.909885","6500900","三峽區"
"237009","210-TH","2018/04/20 19:29:24","新北市三峽區民權街153-1號","121.368343333333","24.931165","6500900","三峽區"
"237013","252-BX","2018/04/20 19:29:30","新北市三峽區介壽路一段340號","121.381315","24.9302133333333","6500900","三峽區"
"237008","302-VK","2018/04/20 19:29:29","新北市三峽區永安街208號","121.373126666667","24.92721","6500900","三峽區"
"237014","433-BY","2018/04/20 19:29:15","新北市三峽區大利路12號","121.36659","24.9116183333333","6500900","三峽區"
"237012","280-TH","2018/04/20 19:29:34","新北市三峽區三樹路128-1號","121.378348333333","24.93968","6500900","三峽區"
"237006","5529-G3","2018/04/20 19:29:19","新北市三峽區中正路一段336巷15弄2號","121.369938333333","24.9249583333333","6500900","三峽區"
"237005","AKY-6261","2018/04/20 19:29:19","新北市三峽區復興路367巷1弄17號","121.364253333333","24.9378066666667","6500900","三峽區"
"236069","105-UM","2018/04/20 19:29:30","新北市土城區學府路一段155巷2號","121.453376666667","24.9856933333333","6501300","土城區"
"236079","166-UM","2018/04/20 19:29:27","新北市土城區中州路3巷11弄11號","121.41405","24.9568516666667","6501300","土城區"
"236026","269-VK","2018/04/20 19:29:35","新北市土城區中央路二段61巷26號","121.443358333333","24.9787966666667","6501300","土城區"
"236020","401-BY","2018/04/20 19:29:30","新北市土城區峰廷街3號","121.469078333333","24.9873033333333","6501300","土城區"
"236059","912-UM","2018/04/20 19:29:29","新北市土城區中央路二段280號","121.440786666667","24.97405","6501300","土城區"
"236048","913-UM","2018/04/20 19:29:30","新北市土城區清水路203號","121.460036666667","24.98174","6501300","土城區"
"242007","413-TV","2018/04/20 19:29:29","新北市新莊區新泰路357巷3弄57號","121.442001666667","25.03943","6500500","新莊區"
"242032","135-UY","2018/04/20 19:29:23","新北市新莊區新泰路225巷6號","121.44581","25.0392883333333","6500500","新莊區"
"242048","172-VK","2018/04/20 19:29:32","新北市新莊區民安路45號","121.423485","25.0262216666667","6500500","新莊區"
"242011","173-VK","2018/04/20 19:29:23","新北市新莊區三和路12-21號","121.442018333333","25.0386566666667","6500500","新莊區"
"242013","351-TH","2018/04/20 19:29:34","新北市新莊區中和街59巷12號","121.446861666667","25.0467283333333","6500500","新莊區"
"238015","755-BX","2018/04/20 19:29:35","新北市樹林區復興路203號","121.420466666667","24.9913533333333","6500700","樹林區"
"238023","601-UM","2018/04/20 19:29:18","新北市樹林區三福街25號","121.408705","25.016705","6500700","樹林區"
"238019","599-UM","2018/04/20 19:29:27","新北市樹林區大同街3號","121.418963333333","24.9828483333333","6500700","樹林區"
"238018","571-TV","2018/04/20 19:29:20","新北市樹林區八德街445-1號","121.404953333333","24.9693466666667","6500700","樹林區"
"238024","5061-A6","2018/04/20 19:29:17","新北市樹林區山佳街57-1號","121.392893333333","24.9724816666667","6500700","樹林區"
"238022","KEA-2213","2018/04/20 19:29:36","新北市樹林區太元街53號","121.418898333333","24.9789116666667","6500700","樹林區"
"238021","KEA-2539","2018/04/20 19:29:28","新北市樹林區學府路206號","121.377361666667","24.9499116666667","6500700","樹林區"
"238025","303-VK","2018/04/20 19:29:27","新北市樹林區保安二街12號","121.424918333333","24.9940016666667","6500700","樹林區"
"238017","283-BY","2018/04/20 19:29:25","新北市樹林區保安街二段107巷2號","121.415106666667","25.0009966666667","6500700","樹林區"
"238014","282-BY","2018/04/20 19:29:23","新北市樹林區保安二街64巷29號","121.424456666667","24.9967533333333","6500700","樹林區"
"238020","268-VK","2018/04/20 19:29:19","新北市樹林區俊英街162號","121.426716666667","25.006535","6500700","樹林區"
"238026","172-UY","2018/04/20 19:29:34","新北市樹林區佳園路二段91號","121.390693333333","24.959395","6500700","樹林區"
"238016","169-UY","2018/04/20 19:29:12","新北市樹林區大安路593號","121.411745","24.9830766666667","6500700","樹林區"
"239007","AAC-297","2018/04/20 19:29:33","新北市鶯歌區大湖路326巷7號","121.345736666667","24.97034","6500800","鶯歌區"
"239006","891-R6","2018/04/20 19:29:23","新北市鶯歌區文化路68-1號","121.355483333333","24.9542033333333","6500800","鶯歌區"
"239005","526-UM","2018/04/20 19:29:36","新北市樹林區中山路三段210-2號","121.381476666667","24.96546","6500800","鶯歌區"
"239001","417-VK","2018/04/20 19:29:20","新北市鶯歌區正義新村9號","121.343056666667","24.94943","6500800","鶯歌區"
"239003","360-BY","2018/04/20 19:29:31","新北市鶯歌區中正一路478號","121.366446666667","24.9568316666667","6500800","鶯歌區"
"239002","359-BY","2018/04/20 19:29:31","新北市鶯歌區中山路300號","121.342876666667","24.957095","6500800","鶯歌區"
"221008","489-VK","2018/04/20 19:29:23","新北市汐止區康寧街145號","121.62197","25.0665983333333","6501100","汐止區"
"221015","131-UY","2018/04/20 19:29:27","新北市汐止區康寧街901號","121.65157","25.0748816666667","6501100","汐止區"
"221010","269-BY","2018/04/20 19:29:21","新北市汐止區連峰街1巷1號","121.646446666667","25.07611","6501100","汐止區"
"221012","278-VK","2018/04/20 19:29:17","新北市汐止區保長路102號","121.675233333333","25.07814","6501100","汐止區"
"221023","279-VK","2018/04/20 19:29:25","新北市汐止區康寧街753巷2弄16號","121.6397","25.0742533333333","6501100","汐止區"
"221027","281-BY","2018/04/20 19:29:21","新北市汐止區忠孝東路9號","121.658315","25.0659283333333","6501100","汐止區"
"221029","298-VK","2018/04/20 19:29:31","新北市汐止區康寧街901號","121.65158","25.074925","6501100","汐止區"
"221025","623-UM","2018/04/20 19:29:38","新北市汐止區大同路二段426號","121.658961666667","25.0672066666667","6501100","汐止區"
"221038","646-BX","2018/04/20 19:29:24","新北市汐止區汐萬路一段18號","121.656048333333","25.067505","6501100","汐止區"
"221033","647-BX","2018/04/20 19:29:27","新北市汐止區南勢街1巷1號","121.627045","25.0374116666667","6501100","汐止區"
"221002","707-TV","2018/04/20 19:29:29","新北市汐止區大同路一段337巷15弄2號","121.637538333333","25.0599066666667","6501100","汐止區"
"220079","145-BY","2018/04/20 19:29:36","新北市板橋區復興街29號","121.458056666667","25.017575","6500100","板橋區"
"220088","146-RM","2018/04/20 19:29:17","新北市板橋區雙十路二段52號","121.475445","25.02788","6500100","板橋區"
"220080","200-UY","2018/04/20 19:29:19","新北市板橋區大觀路二段37巷180號","121.44957","25.002105","6500100","板橋區"
"220082","610-BX","2018/04/20 19:29:31","新北市板橋區大觀路三段133巷8號","121.433065","24.994005","6500100","板橋區"
"220101","245-BX","2018/04/20 19:29:35","新北市板橋區縣民大道三段133巷13號","121.477266666667","25.0235866666667","6500100","板橋區"
"220056","276-BY","2018/04/20 19:29:28","新北市板橋區信義路1巷26弄12號","121.458066666667","24.996875","6500100","板橋區"
"220072","277-BY","2018/04/20 19:29:23","新北市板橋區溪北路158號","121.430571666667","24.98821","6500100","板橋區"
"220071","283-VK","2018/04/20 19:29:25","新北市板橋區忠孝路2號","121.459341666667","25.0017133333333","6500100","板橋區"
"220094","285-UM","2018/04/20 19:29:23","新北市板橋區吳鳳路38號","121.468525","25.0303816666667","6500100","板橋區"
"220053","285-VK","2018/04/20 19:29:30","新北市板橋區富山街53巷1弄54號","121.47799","25.0205783333333","6500100","板橋區"
"220083","286-VK","2018/04/20 19:29:32","新北市板橋區龍興街73巷56號","121.44179","25.00304","6500100","板橋區"
"220081","287-VK","2018/04/20 19:29:22","新北市板橋區南雅西路一段110號","121.452441666667","25.0060683333333","6500100","板橋區"
"220061","295-UM","2018/04/20 19:29:35","新北市板橋區中山路二段253號","121.477366666667","25.01769","6500100","板橋區"
"220084","296-UM","2018/04/20 19:29:23","新北市板橋區滿平街84巷100弄3號","121.426311666667","24.9864533333333","6500100","板橋區"
"220075","303-R5","2018/04/20 19:29:28","新北市板橋區中正路253巷62號","121.453326666667","25.0174266666667","6500100","板橋區"
"220062","305-R5","2018/04/20 19:29:34","新北市板橋區三民路二段123巷7-3號","121.479746666667","25.0156133333333","6500100","板橋區"
"220092","307-R5","2018/04/20 19:29:23","新北市板橋區光武街2巷45號","121.468371666667","25.0260666666667","6500100","板橋區"
"220098","317-R6","2018/04/20 19:29:37","新北市板橋區民生路三段281巷2弄6號","121.463611666667","25.0301166666667","6500100","板橋區"
"220064","486-VK","2018/04/20 19:29:15","新北市板橋區縣民大道一段193號","121.459161666667","25.0080916666667","6500100","板橋區"
"220035","560-BX","2018/04/20 19:29:21","新北市板橋區中正路375巷12號","121.454126666667","25.0209683333333","6500100","板橋區"
"220103","561-BX","2018/04/20 19:29:33","新北市板橋區文化路一段280-1號","121.467138333333","25.0210416666667","6500100","板橋區"
"220063","609-BX","2018/04/20 19:29:26","新北市板橋區三民路一段31巷89弄3號","121.481736666667","25.0232316666667","6500100","板橋區"
"220054","630-UY","2018/04/20 19:29:25","新北市板橋區光明街52號","121.46075","25.0025816666667","6500100","板橋區"
"220091","637-BX","2018/04/20 19:29:31","新北市板橋區文聖街133號","121.478323333333","25.02861","6500100","板橋區"
"220057","686-BX","2018/04/20 19:29:21","新北市板橋區和平路64號","121.461176666667","24.9945266666667","6500100","板橋區"
"220093","689-BX","2018/04/20 19:29:24","新北市板橋區新海路132號","121.46098","25.02311","6500100","板橋區"
"220102","KEA-2699","2018/04/20 19:29:28","新北市板橋區松柏街22巷39號","121.47512","25.0290716666667","6500100","板橋區"
"220070","806-UM","2018/04/20 19:29:26","新北市板橋區民族路168-2號","121.467386666667","25.0079233333333","6500100","板橋區"
"220055","827-TW","2018/04/20 19:29:28","新北市板橋區重慶路290巷22弄6號","121.46225","24.999195","6500100","板橋區"
"220067","829-TW","2018/04/20 19:29:25","新北市板橋區漢生東路313巷2弄3號","121.47232","25.008195","6500100","板橋區"
"220090","830-TW","2018/04/20 19:29:26","新北市板橋區裕民街51號","121.4613","25.0284716666667","6500100","板橋區"
"220096","831-TW","2018/04/20 19:29:32","新北市板橋區莒光路140巷6號","121.472946666667","25.0234483333333","6500100","板橋區"
"220089","833-TW","2018/04/20 19:29:19","新北市板橋區文化路一段27-1號","121.460095","25.0127416666667","6500100","板橋區"
"220074","895-R6","2018/04/20 19:29:35","新北市板橋區文化路一段9號","121.45785","25.00993","6500100","板橋區"
"220073","985-R7","2018/04/20 19:29:33","新北市板橋區中正路281號","121.455485","25.0191483333333","6500100","板橋區"
"220097","AAC-210","2018/04/20 19:29:35","新北市板橋區漢生西路135號","121.462855","25.0215266666667","6500100","板橋區"
"220077","AAC-253","2018/04/20 19:29:37","新北市板橋區僑中三街33號","121.44545","25.0047716666667","6500100","板橋區"
"235063","KEA-2873","2018/04/20 19:29:10","新北市中和區連勝街132號","121.494343333333","24.9967783333333","6500300","中和區"
