"lineid","car","time","location","longitude","latitude","cityid","cityname"
"249004","303-UY","2018/04/20 20:59:20","新北市八里區商港路105巷15號","121.390018333333","25.1481833333333","6502300","八里區"
"222002","659-BX","2018/04/20 20:59:24","新北市深坑區深南路1號","121.622461666667","25.0057116666667","6501800","深坑區"
"231040","047-UY","2018/04/20 20:59:35","新北市新店區中正路114號","121.54251","24.9711433333333","6500600","新店區"
"231048","187-VK","2018/04/20 20:59:34","新北市新店區寶元路一段109號","121.545885","24.983005","6500600","新店區"
"231054","KEA-2219","2018/04/20 20:59:26","新北市新店區中正路75巷67號","121.543188333333","24.9691533333333","6500600","新店區"
"231051","278-BY","2018/04/20 20:59:31","新北市新店區復興路106-24號","121.53224","24.9901533333333","6500600","新店區"
"231050","AAD-862","2018/04/20 20:59:33","新北市新店區三民路24號","121.536973333333","24.9710416666667","6500600","新店區"
"231059","355-BY","2018/04/20 20:59:31","新北市新店區僑信路88號","121.4998","24.9479566666667","6500600","新店區"
"231066","4716-K9","2018/04/20 20:59:18","新北市新店區吉安街12巷2號","121.516886666667","24.96593","6500600","新店區"
"231067","4772-VM","2018/04/20 20:59:28","新北市新店區安德街148巷12弄6號","121.508196666667","24.960345","6500600","新店區"
"231065","512-UM","2018/04/20 20:59:34","新北市新店區安祥路69巷50號","121.482108333333","24.9600766666667","6500600","新店區"
"231061","619-UM","2018/04/20 20:59:23","新北市新店區永安街92巷8號","121.5209","24.9855466666667","6500600","新店區"
"231063","641-BX","2018/04/20 20:59:38","新北市新店區如意街5巷20號","121.496058333333","24.9485666666667","6500600","新店區"
"231042","645-TV","2018/04/20 20:59:37","新北市新店區中興路二段233號","121.547528333333","24.9751433333333","6500600","新店區"
"231064","719-UM","2018/04/20 20:59:22","新北市新店區安民街133巷5號","121.516153333333","24.9691","6500600","新店區"
"231053","719-UY","2018/04/20 20:59:35","新北市新店區北宜路一段276號","121.546271666667","24.9528016666667","6500600","新店區"
"231062","720-UM","2018/04/20 20:59:26","新北市新店區雙城路45巷1號","121.492428333333","24.9483183333333","6500600","新店區"
"231060","897-TW","2018/04/20 20:59:25","新北市新店區安康路三段202號","121.488976666667","24.95181","6500600","新店區"
"231043","899-TW","2018/04/20 20:59:19","新北市新店區中正路373號","121.534838333333","24.9766616666667","6500600","新店區"
"241011","013-R5","2018/04/20 20:59:20","新北市三重區秀江街117號","121.499761666667","25.0722483333333","6500200","三重區"
"241028","022-UY","2018/04/20 20:59:38","新北市三重區重新路二段27號","121.497653333333","25.0622566666667","6500200","三重區"
"241008","059-VK","2018/04/20 20:59:19","新北市三重區車路頭街135-1號","121.484248333333","25.0759183333333","6500200","三重區"
"241009","060-VK","2018/04/20 20:59:24","新北市三重區力行路二段202號","121.483615","25.0776966666667","6500200","三重區"
"241031","061-VK","2018/04/20 20:59:39","新北市三重區重陽路一段113巷2弄2號","121.487473333333","25.0598616666667","6500200","三重區"
"241015","062-VK","2018/04/20 20:59:27","新北市三重區福德北路67號","121.502155","25.0656433333333","6500200","三重區"
"241017","063-VK","2018/04/20 20:59:27","新北市三重區大仁街23號","121.492106666667","25.0645183333333","6500200","三重區"
"241024","065-VK","2018/04/20 20:59:22","新北市三重區國道路一段58巷20號","121.481258333333","25.0720633333333","6500200","三重區"
"241002","090-VK","2018/04/20 20:59:38","新北市三重區五華街1巷2號","121.495556666667","25.0797133333333","6500200","三重區"
"241003","091-VK","2018/04/20 20:59:24","新北市三重區進安街198號","121.493961666667","25.0861366666667","6500200","三重區"
"241005","262-UM","2018/04/20 20:59:38","新北市三重區三信路5號","121.488671666667","25.08643","6500200","三重區"
"241026","265-UM","2018/04/20 20:59:28","新北市三重區文化南路45號","121.500226666667","25.0613616666667","6500200","三重區"
"241016","266-UM","2018/04/20 20:59:22","新北市三重區信義西街104號","121.496133333333","25.0643","6500200","三重區"
"241022","267-UM","2018/04/20 20:59:37","新北市三重區過圳街27-5號","121.48794","25.06242","6500200","三重區"
"241018","268-UM","2018/04/20 20:59:27","新北市三重區自強路一段155-1號","121.493746666667","25.0672616666667","6500200","三重區"
"241032","269-UM","2018/04/20 20:59:35","新北市三重區新生街96號","121.483383333333","25.0592716666667","6500200","三重區"
"241013","270-UM","2018/04/20 20:59:34","新北市三重區仁愛街129巷2號","121.495616666667","25.07497","6500200","三重區"
"241025","271-UM","2018/04/20 20:59:24","新北市三重區貴陽街14號","121.484171666667","25.0618583333333","6500200","三重區"
"241007","398-BY","2018/04/20 20:59:34","新北市三重區慈愛街1號","121.48459","25.078405","6500200","三重區"
"241006","462-BY","2018/04/20 20:59:32","新北市三重區永福街46-3號","121.481916666667","25.0781033333333","6500200","三重區"
"241004","475-VK","2018/04/20 20:59:21","新北市三重區仁愛街423-1號","121.490396666667","25.081445","6500200","三重區"
"241020","478-VK","2018/04/20 20:59:35","新北市三重區忠孝路二段35號","121.485953333333","25.0710266666667","6500200","三重區"
"241030","480-VK","2018/04/20 20:59:26","新北市三重區環河南路220-8號","121.493346666667","25.0526583333333","6500200","三重區"
"241014","543-UM","2018/04/20 20:59:31","新北市三重區長榮路75號","121.502635","25.069125","6500200","三重區"
"241023","545-UM","2018/04/20 20:59:27","新北市三重區忠孝路三段50巷41弄64號","121.48234","25.0637316666667","6500200","三重區"
"241001","547-UM","2018/04/20 20:59:26","新北市三重區自強路三段87巷14號","121.488103333333","25.0749883333333","6500200","三重區"
"241019","887-TS","2018/04/20 20:59:40","新北市三重區三張街104號","121.487898333333","25.0698866666667","6500200","三重區"
"241012","941-UM","2018/04/20 20:59:39","新北市三重區仁信街29號","121.50123","25.0756083333333","6500200","三重區"
"241029","942-UM","2018/04/20 20:59:26","新北市三重區正義南路107號","121.498255","25.05858","6500200","三重區"
"241033","AAC-255","2018/04/20 20:59:32","新北市三重區光復路二段133號","121.4721","25.059645","6500200","三重區"
"247024","893-R6","2018/04/20 20:59:23","新北市蘆洲區光明路20號","121.461193333333","25.0864716666667","6501400","蘆洲區"
"247014","546-UM","2018/04/20 20:59:33","新北市蘆洲區中山二路36巷15號","121.474206666667","25.0828816666667","6501400","蘆洲區"
"247022","500-BY","2018/04/20 20:59:19","新北市蘆洲區水湳街91號","121.470298333333","25.090195","6501400","蘆洲區"
"247010","341-TH","2018/04/20 20:59:21","新北市蘆洲區鷺江街76號","121.476993333333","25.0838716666667","6501400","蘆洲區"
"247012","339-TH","2018/04/20 20:59:26","新北市蘆洲區民權路26號","121.476871666667","25.0858316666667","6501400","蘆洲區"
"247004","337-TH","2018/04/20 20:59:25","新北市蘆洲區永安南路二段268號","121.458663333333","25.0807533333333","6501400","蘆洲區"
"247006","336-TH","2018/04/20 20:59:31","新北市蘆洲區永安南路二段18號","121.467688333333","25.0771633333333","6501400","蘆洲區"
"247018","057-VK","2018/04/20 20:58:39","新北市蘆洲區三民路110巷40號","121.472848333333","25.087785","6501400","蘆洲區"
"247008","056-VK","2018/04/20 20:59:33","新北市蘆洲區民生街74號","121.472908333333","25.0791383333333","6501400","蘆洲區"
"247016","007-UY","2018/04/20 20:59:38","新北市蘆洲區正和街62號","121.468873333333","25.0813","6501400","蘆洲區"
"247020","001-UY","2018/04/20 20:59:32","新北市蘆洲區民族路375號","121.470676666667","25.090985","6501400","蘆洲區"
"222001","KEA-2212","2018/04/20 20:59:28","新北市深坑區北深路三段25巷15-1號","121.60881","25.0001533333333","6501800","深坑區"
"251002","012-UM","2018/04/20 20:59:32","新北市淡水區水源街一段150號","121.448205","25.1716083333333","6501000","淡水區"
"251008","181-VK","2018/04/20 20:59:27","新北市淡水區北投子101號","121.465075","25.1776483333333","6501000","淡水區"
"251010","413-VK","2018/04/20 20:59:39","新北市淡水區中正路一段116-3號","121.423915","25.1787583333333","6501000","淡水區"
"251012","441-VK","2018/04/20 20:59:35","新北市淡水區淡金路五段60號","121.45436","25.2333533333333","6501000","淡水區"
"251005","443-VK","2018/04/20 20:59:40","新北市淡水區學府路51巷2弄16號","121.448065","25.1699683333333","6501000","淡水區"
"251001","559-UM","2018/04/20 20:59:35","新北市淡水區淡金路一段166-5號","121.453916666667","25.18003","6501000","淡水區"
"251007","577-R6","2018/04/20 20:59:39","新北市淡水區仁愛街2巷13號","121.44622","25.1706983333333","6501000","淡水區"
"251011","650-BX","2018/04/20 20:59:34","新北市淡水區新民街226巷1號","121.436181666667","25.1806416666667","6501000","淡水區"
"251003","673-BX","2018/04/20 20:59:32","新北市淡水區新春街148-3號","121.442786666667","25.18104","6501000","淡水區"
"242023","362-BY","2018/04/20 20:59:20","新北市樹林區環河路2號","121.428123333333","24.9791","6500500","新莊區"
"242048","172-VK","2018/04/20 20:59:32","新北市樹林區民和街1號","121.38539","24.9680633333333","6500500","新莊區"
"221029","298-VK","2018/04/20 20:48:31","新北市汐止區康寧街861巷1號","121.645666666667","25.075975","6501100","汐止區"
"221002","707-TV","2018/04/20 20:59:26","新北市汐止區康寧街753巷2弄22號","121.640155","25.0743416666667","6501100","汐止區"
"220035","560-BX","2018/04/20 20:59:21","新北市五股區新五路二段101號","121.437048333333","25.0760233333333","6500100","板橋區"
"220070","806-UM","2018/04/20 20:59:35","新北市八里區中山路三段409號","121.368593333333","25.1346216666667","6500100","板橋區"
