"lineid","car","time","location","longitude","latitude","cityid","cityname"
"232004","290-BY","2018/04/21 06:39:35","新北市坪林區北宜路八段558號","121.718023333333","24.9093833333333","6502000","坪林區"
"232016","291-BY","2018/04/21 06:39:30","新北市坪林區北宜路八段553號","121.715515","24.911055","6502000","坪林區"
"232009","758-BX","2018/04/21 06:39:33","新北市坪林區鶯子瀨12-1號","121.714905","24.9123233333333","6502000","坪林區"
"244005","248-BX","2018/04/21 06:39:31","新北市林口區粉寮路二段160巷28號","121.405165","25.0907666666667","6501700","林口區"
"223006","022-BY","2018/04/21 06:39:43","新北市石碇區楓子林61號","121.64475","25.0109033333333","6501900","石碇區"
"223002","KEA-2673","2018/04/21 06:39:34","新北市石碇區碇坪路一段132號","121.659471666667","24.99121","6501900","石碇區"
"223001","205-TH","2018/04/21 06:39:49","新北市石碇區湳窟32號","121.664048333333","24.992875","6501900","石碇區"
"223008","406-TH","2018/04/21 06:39:42","新北市石碇區小粗坑(潭邊里)2號","121.669476666667","24.9829683333333","6501900","石碇區"
"223007","661-BX","2018/04/21 06:39:44","新北市石碇區八分寮80-2號","121.65317","25.00736","6501900","石碇區"
"227006","030-BX","2018/04/21 06:39:39","新北市雙溪區牡丹里中正路93巷3號","121.861496666667","25.0480416666667","6502500","雙溪區"
"220070","282-UM","2018/04/21 06:39:43","新北市板橋區國光路57號","121.458523333333","25.0178816666667","6500100","板橋區"
