"lineid","car","time","location","longitude","latitude","cityid","cityname"
"248005","653-BX","2018/04/21 07:46:51","新北市五股區明德路12巷1號","121.433293333333","25.0716983333333","6501500","五股區"
"232010","375-UM","2018/04/21 07:38:55","新北市坪林區厚德岡坑8-5號","121.733151666667","24.9409666666667","6502000","坪林區"
"244005","248-BX","2018/04/21 07:49:50","新北市林口區下福里2號","121.317261666667","25.1086183333333","6501700","林口區"
"231007","189-VK","2018/04/21 07:49:36","新北市新店區安華路28-1號","121.519693333333","24.9614483333333","6500600","新店區"
"231008","192-VK","2018/04/21 07:49:43","新北市新店區安華路28-1號","121.519278333333","24.9612516666667","6500600","新店區"
"226005","5620-A6","2018/04/21 07:49:38","新北市平溪區石底里石筍尖9號","121.735428333333","25.024875","6502400","平溪區"
"226002","7418-A5","2018/04/21 07:49:47","新北市平溪區南山里南山坪136號","121.782921666667","25.046555","6502400","平溪區"
"226003","AGD-0702","2018/04/21 07:35:22","新北市平溪區嶺腳里嶺腳寮83-2號","121.750715","25.0351633333333","6502400","平溪區"
"223006","022-BY","2018/04/21 07:49:43","新北市石碇區半路店5號","121.645133333333","24.9625583333333","6501900","石碇區"
"223002","KEA-2673","2018/04/21 07:49:34","新北市石碇區靜安路一段102號","121.648096666667","25.0089366666667","6501900","石碇區"
"223001","205-TH","2018/04/21 07:49:36","新北市石碇區蛇舌子7-1號","121.663946666667","24.9660066666667","6501900","石碇區"
"223008","406-TH","2018/04/21 07:49:30","新北市石碇區靜安路一段337號","121.69896","25.0148166666667","6501900","石碇區"
"223001","592-UM","2018/04/21 07:47:18","新北市石碇區蛇舌子7號","121.665295","24.9664366666667","6501900","石碇區"
"223004","660-BX","2018/04/21 07:49:32","新北市石碇區楓子林30號","121.642325","25.0095216666667","6501900","石碇區"
"223005","677-TV","2018/04/21 07:49:46","新北市石碇區楓子林30號","121.642313333333","25.0096016666667","6501900","石碇區"
"227006","030-BX","2018/04/21 07:49:39","新北市雙溪區雙溪里太平路54號","121.864838333333","25.035515","6502500","雙溪區"
"252004","249-BX","2018/04/21 07:49:46","新北市三芝區店子里菜公坑78號","121.509065","25.2039483333333","6502100","三芝區"
"252007","AAC-283","2018/04/21 07:49:31","新北市三芝區後厝里芝麻三街2號","121.474798333333","25.2452316666667","6502100","三芝區"
"237001","159-UY","2018/04/21 07:49:47","新北市三峽區大學路45-1號","121.376893333333","24.94059","6500900","三峽區"
"236011","165-UM","2018/04/21 07:49:38","新北市土城區永豐路143號","121.466593333333","24.983535","6501300","土城區"
"236002","339-SR","2018/04/21 07:49:31","新北市土城區龍泉路61號","121.42176","24.9432783333333","6501300","土城區"
"220070","282-UM","2018/04/21 07:49:33","新北市板橋區南雅西路一段116號","121.452445","25.0064283333333","6500100","板橋區"
