"lineid","car","time","location","longitude","latitude","cityid","cityname"
"248005","653-BX","2018/02/12 08:09:29","新北市五股區明德路12巷8號","121.433391666667","25.0719483333333","6501500","五股區"
"232001","290-BY","2018/02/12 08:08:57","新北市坪林區下坑子口12號","121.721158333333","24.9415433333333","6502000","坪林區"
"232012","291-BY","2018/02/12 08:09:20","新北市坪林區九芎根1號","121.670608333333","24.891365","6502000","坪林區"
"232017","705-BZ","2018/02/12 08:09:34","新北市坪林區坪雙路二段162號","121.764501666667","24.9631533333333","6502000","坪林區"
"232005","758-BX","2018/02/12 08:09:17","新北市坪林區九芎林25-2號","121.704051666667","24.925085","6502000","坪林區"
"244012","069-UM","2018/02/12 08:09:27","新北市林口區粉寮69號","121.405043333333","25.0908433333333","6501700","林口區"
"244006","080-UY","2018/02/12 08:09:33","新北市林口區中湖43-5號","121.381818333333","25.0923833333333","6501700","林口區"
"244001","248-BX","2018/02/12 08:09:14","新北市林口區嘉溪雅坑26號","121.338715","25.1075283333333","6501700","林口區"
"244018","402-UM","2018/02/12 08:09:26","新北市林口區文化一路一段190巷7弄2-2號","121.380121666667","25.0747383333333","6501700","林口區"
"244022","483-VK","2018/02/12 08:09:25","新北市林口區仁愛路一段326號","121.391325","25.0764566666667","6501700","林口區"
"244010","701-TV","2018/02/12 08:09:28","新北市林口區中正路443號","121.384685","25.0777216666667","6501700","林口區"
"244024","837-TS","2018/02/12 08:09:14","新北市林口區中山路250號","121.385976666667","25.0794416666667","6501700","林口區"
"244020","838-TS","2018/02/12 08:09:31","新北市林口區粉寮路二段286號","121.405053333333","25.0951466666667","6501700","林口區"
"222005","289-BY","2018/02/12 08:09:27","新北市深坑區萬福路147號","121.610933333333","25.01635","6501800","深坑區"
"231007","189-VK","2018/02/12 08:09:19","新北市新店區新潭路一段1-1號","121.523141666667","24.943685","6500600","新店區"
"231008","192-VK","2018/02/12 08:09:16","新北市新店區光明街9號","121.53824","24.9593616666667","6500600","新店區"
"235001","611-BX","2018/02/12 08:09:28","新北市中和區圓通路367巷33弄133號","121.496781666667","24.9846766666667","6500300","中和區"
"235010","733-UM","2018/02/12 08:09:13","新北市中和區中興街118巷10號","121.499823333333","24.9932933333333","6500300","中和區"
"226001","312-R5","2018/02/12 08:09:29","新北市平溪區望古里石灼坑6號","121.767693333333","25.0357833333333","6502400","平溪區"
"226005","5620-A6","2018/02/12 08:09:20","新北市平溪區靜安路二段528號","121.744628333333","25.02727","6502400","平溪區"
"226003","AGD-0702","2018/02/12 08:09:33","新北市平溪區新寮里頂寮子4號","121.77377","25.051845","6502400","平溪區"
"223006","022-BY","2018/02/12 08:09:33","新北市石碇區靜安路一段197號","121.672693333333","25.0082866666667","6501900","石碇區"
"223001","205-TH","2018/02/12 08:09:15","新北市石碇區蛇舌子12號","121.66399","24.96989","6501900","石碇區"
"223008","406-TH","2018/02/12 08:09:26","新北市石碇區靜安路一段262號","121.681315","25.01056","6501900","石碇區"
"223001","592-UM","2018/02/12 08:09:28","新北市石碇區樟空子10-2號","121.666881666667","24.9623616666667","6501900","石碇區"
"223004","660-BX","2018/02/12 08:09:32","新北市深坑區文山路一段10號","121.642991666667","25.0085933333333","6501900","石碇區"
"223007","661-BX","2018/02/12 08:09:28","新北市石碇區蚯蚓坑61-1號","121.683596666667","25.0100983333333","6501900","石碇區"
"223005","677-TV","2018/02/12 08:09:21","新北市石碇區八分寮55-5號","121.645495","25.0165","6501900","石碇區"
"227005","282-VK","2018/02/12 08:09:28","新北市雙溪區平林里外平林41號","121.852091666667","25.036075","6502500","雙溪區"
"252006","073-UM","2018/02/12 08:09:32","新北市三芝區海景一街5號","121.471895","25.246945","6502100","三芝區"
"252004","249-BX","2018/02/12 08:09:13","新北市三芝區興華里車埕31-3號","121.50343","25.1945183333333","6502100","三芝區"
"252004","702-TV","2018/02/12 08:09:25","新北市三芝區中山路二段50號","121.503313333333","25.2542966666667","6502100","三芝區"
"237001","159-UY","2018/02/12 08:09:29","新北市三峽區大學路45-1號","121.376918333333","24.9406366666667","6500900","三峽區"
"236007","165-UM","2018/02/12 08:09:27","新北市土城區清水路194巷6號","121.460466666667","24.9814983333333","6501300","土城區"
"236001","339-SR","2018/02/12 08:09:32","新北市土城區龍泉路71-2號","121.425878333333","24.9420816666667","6501300","土城區"
"236005","498-BY","2018/02/12 08:09:25","新北市土城區永平街51號","121.427618333333","24.9592083333333","6501300","土城區"
"242028","986-R7","2018/02/12 08:09:21","新北市新莊區復興路一段171號","121.451216666667","25.0433333333333","6500500","新莊區"
"242024","615-BX","2018/02/12 08:09:22","新北市新莊區思源路114號","121.460115","25.04673","6500500","新莊區"
"242022","613-BX","2018/02/12 08:09:26","新北市新莊區民樂街36號","121.457826666667","25.0410566666667","6500500","新莊區"
"242026","612-BX","2018/02/12 08:09:25","新北市新莊區福壽街126號","121.457688333333","25.0511933333333","6500500","新莊區"
"242038","566-BX","2018/02/12 08:09:22","新北市新莊區民全街11號","121.428853333333","25.0215383333333","6500500","新莊區"
"242030","442-UM","2018/02/12 08:09:24","新北市新莊區新泰路349號","121.444696666667","25.0422433333333","6500500","新莊區"
"242047","441-UM","2018/02/12 08:09:25","新北市新莊區萬安街135號","121.420641666667","25.0221333333333","6500500","新莊區"
"242052","440-UM","2018/02/12 08:09:17","新北市樹林區樹新路84巷9號","121.430113333333","24.9973216666667","6500500","新莊區"
"242033","415-TV","2018/02/12 08:09:13","新北市新莊區新莊路619號","121.445686666667","25.0328166666667","6500500","新莊區"
"242003","413-TV","2018/02/12 08:09:32","新北市新莊區自立街200號","121.456713333333","25.0455283333333","6500500","新莊區"
"242040","400-BY","2018/02/12 08:09:25","新北市新莊區中正路715-1號","121.424418333333","25.0295516666667","6500500","新莊區"
"242059","362-BY","2018/02/12 08:09:32","新北市新莊區瓊林南路171-3號","121.433908333333","25.011205","6500500","新莊區"
"242057","353-BY","2018/02/12 08:09:23","新北市新莊區中正路730號","121.414955","25.02369","6500500","新莊區"
"242006","132-UY","2018/02/12 08:09:15","新北市新莊區福樂街108巷11號","121.457613333333","25.0481583333333","6500500","新莊區"
"242035","133-UY","2018/02/12 08:09:16","新北市新莊區建福路59巷44號","121.42865","25.027805","6500500","新莊區"
"242020","135-UY","2018/02/12 08:09:32","新北市新莊區中華路一段226號","121.452646666667","25.043135","6500500","新莊區"
"242045","172-VK","2018/02/12 08:09:27","新北市新莊區建國一路15號","121.43386","25.0316483333333","6500500","新莊區"
"242014","175-VK","2018/02/12 08:09:31","新北市新莊區中平路48號","121.444818333333","25.04388","6500500","新莊區"
"242001","176-VK","2018/02/12 08:09:27","新北市新莊區新莊路212號","121.453325","25.0345283333333","6500500","新莊區"
"242012","346-TH","2018/02/12 08:09:15","新北市新莊區中誠街74號","121.450531666667","25.0478933333333","6500500","新莊區"
"242018","348-TH","2018/02/12 08:09:14","新北市新莊區中港路201號","121.45489","25.041895","6500500","新莊區"
"242055","349-TH","2018/02/12 08:09:22","新北市新莊區新泰路3巷33號","121.449008333333","25.0319683333333","6500500","新莊區"
"242016","350-TH","2018/02/12 08:09:18","新北市新莊區復興路一段149巷22弄2號","121.450295","25.04409","6500500","新莊區"
"242010","351-TH","2018/02/12 08:09:26","新北市新莊區中港路645號","121.451016666667","25.05497","6500500","新莊區"
"239006","661-UM","2018/02/12 08:09:27","新北市鶯歌區大湖路530巷2-2號","121.337808333333","24.9721733333333","6500800","鶯歌區"
"242049","281-VK","2018/02/12 08:09:27","新北市新莊區西盛街235號","121.42809","25.0163066666667","6500500","新莊區"
"242043","280-VK","2018/02/12 08:09:30","新北市新莊區富國路65巷7號","121.419883333333","25.0265233333333","6500500","新莊區"
