"lineid","car","time","location","longitude","latitude","cityid","cityname"
"248005","653-BX","2018/02/12 08:47:29","新北市五股區明德路12巷16號","121.433286666667","25.0719666666667","6501500","五股區"
"232001","290-BY","2018/02/12 08:47:32","新北市坪林區粗石斛6-1號","121.750076666667","24.9524466666667","6502000","坪林區"
"232012","291-BY","2018/02/12 08:47:20","新北市坪林區金瓜寮1號","121.682595","24.9197883333333","6502000","坪林區"
"232017","705-BZ","2018/02/12 08:47:14","新北市坪林區中心崙2-1號","121.785266666667","24.9530266666667","6502000","坪林區"
"232005","758-BX","2018/02/12 08:47:17","新北市坪林區鶯子瀨11號","121.710111666667","24.9141466666667","6502000","坪林區"
"244012","069-UM","2018/02/12 08:47:27","新北市林口區中山路41號","121.394743333333","25.0784","6501700","林口區"
"244006","080-UY","2018/02/12 08:47:13","新北市林口區佳林路2號","121.387218333333","25.0825383333333","6501700","林口區"
"244001","248-BX","2018/02/12 08:47:33","新北市林口區嘉溪雅坑20號","121.339811666667","25.108055","6501700","林口區"
"244018","402-UM","2018/02/12 08:47:26","新北市林口區文化一路一段83巷14弄41號","121.371723333333","25.0709666666667","6501700","林口區"
"244022","483-VK","2018/02/12 08:47:25","新北市林口區興林路221巷27號","121.389786666667","25.071795","6501700","林口區"
"244016","485-VK","2018/02/12 08:47:26","新北市林口區忠孝路504巷21號","121.369638333333","25.0696683333333","6501700","林口區"
"244008","656-BX","2018/02/12 08:47:31","新北市林口區佳林路56巷4號","121.385653333333","25.0818016666667","6501700","林口區"
"244010","701-TV","2018/02/12 08:47:28","新北市林口區中正路74巷5弄4號","121.394556666667","25.0780866666667","6501700","林口區"
"244024","837-TS","2018/02/12 08:47:14","新北市林口區源泉街62號","121.356715","25.0729883333333","6501700","林口區"
"244020","838-TS","2018/02/12 08:47:31","新北市林口區新寮45-13號","121.404243333333","25.064745","6501700","林口區"
"222005","289-BY","2018/02/12 08:47:27","新北市深坑區風格街31巷27號","121.62733","25.0176783333333","6501800","深坑區"
"231007","189-VK","2018/02/12 08:47:19","新北市新店區新潭路三段9號","121.508491666667","24.9156383333333","6500600","新店區"
"231008","192-VK","2018/02/12 08:47:36","新北市新店區新烏路三段225號","121.547443333333","24.8967316666667","6500600","新店區"
"235001","611-BX","2018/02/12 08:47:28","新北市中和區民安街42巷32號","121.479246666667","25.0011616666667","6500300","中和區"
"235010","733-UM","2018/02/12 08:47:33","新北市中和區興南路一段106號","121.509768333333","24.9888783333333","6500300","中和區"
"226001","312-R5","2018/02/12 08:43:29","新北市平溪區東勢里番仔坑3號","121.747011666667","25.0001616666667","6502400","平溪區"
"226005","5620-A6","2018/02/12 08:47:20","新北市平溪區南山里粗坑1-7號","121.802383333333","25.0512516666667","6502400","平溪區"
"226003","AGD-0702","2018/02/12 08:47:13","新北市平溪區靜安路三段369號","121.780545","25.0460733333333","6502400","平溪區"
"223006","022-BY","2018/02/12 08:45:53","新北市深坑區文山路一段10號","121.643028333333","25.0086933333333","6501900","石碇區"
"223001","205-TH","2018/02/12 08:47:15","新北市石碇區北宜路六段塗潭巷3號","121.645616666667","24.9386","6501900","石碇區"
"223008","406-TH","2018/02/12 08:47:26","新北市石碇區碇南路二段松柏崎巷38號","121.678355","25.02448","6501900","石碇區"
"223001","592-UM","2018/02/12 08:47:23","新北市石碇區北宜路六段塗潭巷2號","121.645478333333","24.93681","6501900","石碇區"
"223004","660-BX","2018/02/12 08:47:32","新北市石碇區崩山3-2號","121.675343333333","24.9735866666667","6501900","石碇區"
"223007","661-BX","2018/02/12 08:47:28","新北市石碇區碇南路二段松柏崎巷3號","121.673586666667","25.0185466666667","6501900","石碇區"
"223005","677-TV","2018/02/12 08:47:30","新北市石碇區小粗坑(潭邊里)9號","121.676406666667","24.9841466666667","6501900","石碇區"
"227005","282-VK","2018/02/12 08:47:28","新北市雙溪區外柑里四分子3-1號","121.836036666667","25.001645","6502500","雙溪區"
"252006","073-UM","2018/02/12 08:47:32","新北市三芝區錫板里海尾15-10號","121.476283333333","25.2570583333333","6502100","三芝區"
"252004","249-BX","2018/02/12 08:47:33","新北市三芝區興華里田心子15-13號","121.492868333333","25.2043133333333","6502100","三芝區"
"237001","159-UY","2018/02/12 08:47:29","新北市樹林區學勤路200號","121.377363333333","24.946955","6500900","三峽區"
"236007","165-UM","2018/02/12 08:47:27","新北市土城區石門路73號","121.46138","24.9593416666667","6501300","土城區"
"236001","339-SR","2018/02/12 08:47:22","新北市土城區中央路三段185號","121.431121666667","24.96507","6501300","土城區"
"236005","498-BY","2018/02/12 08:47:25","新北市土城區永和街62巷2-2號","121.435558333333","24.9594966666667","6501300","土城區"
"242028","986-R7","2018/02/12 08:47:17","新北市新莊區幸福路848號","121.444295","25.0490366666667","6500500","新莊區"
"242024","615-BX","2018/02/12 08:47:22","新北市新莊區五工三路86巷7號","121.458836666667","25.0655783333333","6500500","新莊區"
"242022","613-BX","2018/02/12 08:47:33","新北市新莊區化成路432號","121.46606","25.051265","6500500","新莊區"
"242026","612-BX","2018/02/12 08:47:25","新北市新莊區立信五街10號","121.444218333333","25.051565","6500500","新莊區"
"242038","566-BX","2018/02/12 08:47:22","新北市新莊區民安路299巷55弄18號","121.428938333333","25.0237033333333","6500500","新莊區"
"242030","442-UM","2018/02/12 08:47:19","新北市新莊區新泰路255巷80號","121.44302","25.03953","6500500","新莊區"
"242047","441-UM","2018/02/12 08:47:25","新北市新莊區後港一路28巷2弄1號","121.425331666667","25.0258533333333","6500500","新莊區"
"242052","440-UM","2018/02/12 08:47:17","新北市新莊區民安西路327巷6弄2號","121.428131666667","25.011595","6500500","新莊區"
"242033","415-TV","2018/02/12 08:47:13","新北市新莊區仁愛街56號","121.444401666667","25.0371633333333","6500500","新莊區"
"242003","413-TV","2018/02/12 08:47:32","新北市新莊區化成路9-3號","121.4647","25.04341","6500500","新莊區"
"242040","400-BY","2018/02/12 08:47:25","新北市新莊區壽山路41號","121.414975","25.0304883333333","6500500","新莊區"
"242059","362-BY","2018/02/12 08:47:30","新北市新莊區富國路176巷1號","121.424208333333","25.0242816666667","6500500","新莊區"
"242057","353-BY","2018/02/12 08:47:28","桃園市龜山區萬壽路一段16號","121.409738333333","25.0204933333333","6500500","新莊區"
"242006","132-UY","2018/02/12 08:47:15","新北市新莊區思源路593巷6弄14號","121.458921666667","25.0600516666667","6500500","新莊區"
"242035","133-UY","2018/02/12 08:47:33","新北市新莊區民安路207巷19號","121.426901666667","25.023205","6500500","新莊區"
"242020","135-UY","2018/02/12 08:47:32","新北市新莊區新泰路153號","121.44784","25.036775","6500500","新莊區"
"242045","172-VK","2018/02/12 08:47:27","新北市新莊區中正路831-1號","121.421006666667","25.0274433333333","6500500","新莊區"
"242008","173-VK","2018/02/12 08:47:23","新北市新莊區昌平街71巷31號","121.453545","25.053375","6500500","新莊區"
"242014","175-VK","2018/02/12 08:47:31","新北市新莊區中和街62號","121.447763333333","25.0459283333333","6500500","新莊區"
"242001","176-VK","2018/02/12 08:47:16","新北市新莊區新豐街2號","121.449048333333","25.0347166666667","6500500","新莊區"
"242012","346-TH","2018/02/12 08:47:35","新北市新莊區中港路391號","121.451485","25.0470433333333","6500500","新莊區"
"242018","348-TH","2018/02/12 08:47:34","新北市新莊區明智街19號","121.454171666667","25.04133","6500500","新莊區"
"242055","349-TH","2018/02/12 08:47:22","新北市新莊區豐年街66號","121.446435","25.0315633333333","6500500","新莊區"
"242016","350-TH","2018/02/12 08:47:18","新北市新莊區中港一街70號","121.449883333333","25.0454416666667","6500500","新莊區"
"242010","351-TH","2018/02/12 08:47:26","新北市新莊區中港路615巷14號","121.4507","25.0534533333333","6500500","新莊區"
"239006","661-UM","2018/02/12 08:47:27","桃園市龜山區宏德司法新村1號","121.331896666667","24.9796133333333","6500800","鶯歌區"
"242049","281-VK","2018/02/12 08:47:26","新北市新莊區西盛街178號","121.428133333333","25.0188583333333","6500500","新莊區"
"242043","280-VK","2018/02/12 08:47:30","新北市新莊區新北大道七段441號","121.413936666667","25.0234633333333","6500500","新莊區"
"220005","806-UM","2018/02/12 08:47:35","新北市板橋區龍興街73巷2號","121.443976666667","25.002205","6500100","板橋區"
