"lineid","car","time","location","longitude","latitude","cityid","cityname"
"231007","189-VK","2018/02/12 11:09:39","新北市新店區新潭路二段61號","121.521961666667","24.926265","6500600","新店區"
"231008","192-VK","2018/02/12 11:08:36","新北市新店區成功路65號","121.539601666667","24.8981083333333","6500600","新店區"
"235001","611-BX","2018/02/12 11:09:27","新北市中和區員山路115號","121.480993333333","24.995275","6500300","中和區"
"223005","677-TV","2018/02/12 11:09:36","新北市石碇區大崙18號","121.683941666667","24.9784116666667","6501900","石碇區"
"227005","282-VK","2018/02/12 11:09:37","新北市雙溪區泰平里泰平39號","121.827656666667","24.9724266666667","6502500","雙溪區"
"237001","159-UY","2018/02/12 11:09:29","新北市三峽區隆恩街250號","121.35739","24.94091","6500900","三峽區"
"220050","245-BX","2018/02/12 11:09:24","新北市八里區商港路88-1號","121.393021666667","25.1499133333333","6500100","板橋區"
"220001","285-VK","2018/02/12 11:09:31","新北市八里區中山路三段386號","121.36841","25.135985","6500100","板橋區"
"220005","806-UM","2018/02/12 11:09:35","新北市板橋區四川路二段橋頭1巷1號","121.447273333333","24.9942216666667","6500100","板橋區"
