"lineid","car","time","location","longitude","latitude","cityid","cityname"
"234044","148-BY","2018/02/12 13:19:27","新北市永和區得和路373巷16弄1號","121.525085","25.00029","6500400","永和區"
"234005","207-UY","2018/02/12 13:19:41","新北市永和區中山路一段155號","121.509943333333","25.0093183333333","6500400","永和區"
"234078","298-R6","2018/02/12 13:19:31","新北市永和區福和路7巷7號","121.525298333333","25.0079133333333","6500400","永和區"
"234036","336-UY","2018/02/12 13:19:37","新北市永和區民樂街59巷11號","121.52816","24.9983466666667","6500400","永和區"
"234062","337-UY","2018/02/12 13:19:30","新北市永和區永元路17巷6弄4號","121.521451666667","25.0005583333333","6500400","永和區"
"234084","338-UY","2018/02/12 13:19:44","新北市永和區中正路556號","121.51731","25.0057316666667","6500400","永和區"
"234068","552-UM","2018/02/12 13:19:41","新北市永和區豫溪街74巷7弄9號","121.517798333333","25.0099083333333","6500400","永和區"
"234015","745-BX","2018/02/12 13:19:38","新北市永和區文化路90巷27弄1號","121.513326666667","25.01638","6500400","永和區"
"234028","746-BX","2018/02/12 13:19:31","新北市永和區民生路23號","121.522865","24.9988333333333","6500400","永和區"
"234052","KEA-2590","2018/02/12 13:19:24","新北市永和區中興街50號","121.516696666667","25.011635","6500400","永和區"
"234012","KEA-2591","2018/02/12 13:19:41","新北市永和區仁愛路107號","121.512366666667","25.01309","6500400","永和區"
"234060","AAD-866","2018/02/12 13:19:26","新北市永和區秀朗路一段90巷2號","121.515953333333","25.0050833333333","6500400","永和區"
"234040","862-TW","2018/02/12 13:19:30","新北市永和區水源街56號","121.50956","25.00425","6500400","永和區"
"234048","863-TW","2018/02/12 13:19:31","新北市永和區仁愛路138號","121.511221666667","25.01353","6500400","永和區"
"234025","9371-KE","2018/02/12 13:19:41","新北市永和區自強街19巷2號","121.514851666667","25.00813","6500400","永和區"
"234022","9381-KE","2018/02/12 13:19:31","新北市永和區竹林路126號","121.519886666667","25.0114016666667","6500400","永和區"
"234010","9373-KE","2018/02/12 13:19:29","新北市永和區文化路90巷39號","121.512635","25.0166983333333","6500400","永和區"
"248015","026-BX","2018/02/12 13:19:34","新北市五股區成泰路三段493號","121.449293333333","25.09932","6501500","五股區"
"248005","077-UY","2018/02/12 13:19:35","新北市五股區中興路一段161號","121.464923333333","25.073685","6501500","五股區"
"248007","095-VK","2018/02/12 13:19:27","新北市五股區更洲路32巷8弄14號","121.459261666667","25.0796266666667","6501500","五股區"
"248019","225-UY","2018/02/12 13:19:23","新北市五股區孝義路47巷22號","121.451936666667","25.1092133333333","6501500","五股區"
"248011","247-BX","2018/02/12 13:19:40","新北市五股區御成路33號","121.441041666667","25.0912016666667","6501500","五股區"
"248013","261-SL","2018/02/12 13:19:41","新北市五股區自強路90巷1號","121.432538333333","25.0724783333333","6501500","五股區"
"248003","677-BX","2018/02/12 13:19:30","新北市五股區成泰路二段195巷1號","121.440336666667","25.0872316666667","6501500","五股區"
"248001","678-BX","2018/02/12 13:19:40","新北市五股區西雲路50號","121.443608333333","25.0913016666667","6501500","五股區"
"248009","682-TV","2018/02/12 13:19:27","新北市五股區成泰路一段139巷2弄4號","121.435105","25.0730283333333","6501500","五股區"
"234076","969-R7","2018/02/12 13:19:33","新北市永和區民有街9號","121.516245","24.9969433333333","6500400","永和區"
"234072","AAC-211","2018/02/12 13:19:42","新北市永和區竹林路46號","121.517641666667","25.0142133333333","6500400","永和區"
"234066","AAC-212","2018/02/12 13:19:33","新北市永和區保平路30巷3號","121.511698333333","25.0075033333333","6500400","永和區"
"234001","AAC-295","2018/02/12 13:19:45","新北市永和區和平街48號","121.512731666667","25.0099783333333","6500400","永和區"
"244001","248-BX","2018/02/12 13:19:33","新北市林口區寶斗厝坑83號","121.332311666667","25.119965","6501700","林口區"
"243005","646-TV","2018/02/12 13:19:25","新北市泰山區南林路89-4號","121.415455","25.0511933333333","6501600","泰山區"
"231002","002-UM","2018/02/12 13:19:26","新北市新店區安華路28-1號","121.519765","24.96085","6500600","新店區"
"231025","0293-UT","2018/02/12 13:19:44","新北市新店區中央路183-3號","121.53636","24.9686983333333","6500600","新店區"
"231028","046-UY","2018/02/12 13:19:33","新北市新店區安華路28-1號","121.519585","24.9608633333333","6500600","新店區"
"231030","047-UY","2018/02/12 13:19:38","新北市新店區安華路28-1號","121.518981666667","24.9611516666667","6500600","新店區"
"231029","106-UY","2018/02/12 13:19:38","新北市新店區安華路28-1號","121.51989","24.9609516666667","6500600","新店區"
"231018","107-UY","2018/02/12 13:19:25","新北市新店區安康路一段50號","121.53025","24.9610883333333","6500600","新店區"
"231011","108-UY","2018/02/12 13:19:28","新北市新店區安康路一段85號","121.52941","24.9613666666667","6500600","新店區"
"231019","187-VK","2018/02/12 13:19:37","新北市新店區北宜路一段140巷13號","121.54003","24.9543866666667","6500600","新店區"
"231014","KEA-2219","2018/02/12 13:19:34","新北市新店區安康路一段107-2號","121.528723333333","24.9617433333333","6500600","新店區"
"231026","256-BX","2018/02/12 13:19:44","新北市新店區安華路28-1號","121.519826666667","24.9612166666667","6500600","新店區"
"231010","278-BY","2018/02/12 13:19:21","新北市新店區安康路一段61號","121.530533333333","24.961","6500600","新店區"
"231023","AAD-862","2018/02/12 13:19:26","新北市新店區安康路一段17號","121.533048333333","24.9603816666667","6500600","新店區"
"231027","3712-VJ","2018/02/12 13:19:28","新北市新店區環河路1-1號","121.537816666667","24.9614116666667","6500600","新店區"
"231024","4716-K9","2018/02/12 13:19:35","新北市新店區安康路一段146號","121.526416666667","24.9629033333333","6500600","新店區"
"231038","4715-K9","2018/02/12 13:19:32","新北市新店區安華路28-1號","121.519451666667","24.9605633333333","6500600","新店區"
"231035","515-UM","2018/02/12 13:17:58","新北市新店區安康路一段238-1號","121.522205","24.96374","6500600","新店區"
"231003","616-UM","2018/02/12 13:19:36","新北市新店區安華路1-1號","121.51947","24.9604983333333","6500600","新店區"
"231006","617-UM","2018/02/12 13:19:41","新北市新店區安華路28-1號","121.519495","24.9609366666667","6500600","新店區"
"231001","619-UM","2018/02/12 13:19:28","新北市新店區安華路28-1號","121.51959","24.96072","6500600","新店區"
"231034","645-TV","2018/02/12 13:19:44","新北市新店區安華路30巷1號","121.519491666667","24.9597516666667","6500600","新店區"
"231013","719-UM","2018/02/12 13:19:37","新北市新店區安康路一段146號","121.526456666667","24.9629216666667","6500600","新店區"
"231036","719-UY","2018/02/12 13:19:40","新北市新店區安華路30巷12-1號","121.517945","24.95808","6500600","新店區"
"231031","720-UM","2018/02/12 13:19:27","新北市新店區安忠路102-1號","121.510315","24.95559","6500600","新店區"
"231005","897-TW","2018/02/12 13:19:23","新北市新店區安華路28-1號","121.519608333333","24.9607366666667","6500600","新店區"
"231004","899-TW","2018/02/12 13:19:31","新北市新店區安華路28-1號","121.519281666667","24.9608216666667","6500600","新店區"
"231037","AKT-0513","2018/02/12 13:19:39","新北市新店區安華路28-1號","121.519613333333","24.96061","6500600","新店區"
"235030","003-UY","2018/02/12 13:19:37","新北市中和區中山路二段120號","121.502775","25.0038516666667","6500300","中和區"
"235028","005-UY","2018/02/12 13:19:35","新北市中和區中正路220號","121.496451666667","24.9939083333333","6500300","中和區"
"235027","006-UY","2018/02/12 13:19:25","新北市中和區員山路36巷16-8號","121.485498333333","24.992445","6500300","中和區"
"235020","096-UM","2018/02/12 13:19:31","新北市中和區員山路36巷13號","121.48426","24.99152","6500300","中和區"
"235001","097-UM","2018/02/12 13:19:25","新北市中和區景新街170號","121.505915","24.99659","6500300","中和區"
"235029","098-UM","2018/02/12 13:19:34","新北市中和區莊敬路49巷20弄20號","121.502673333333","25.0058083333333","6500300","中和區"
"235004","150-BY","2018/02/12 13:10:31","新北市中和區和城路一段271巷1號","121.485398333333","24.991725","6500300","中和區"
"235022","151-BY","2018/02/12 13:19:32","新北市中和區圓通路403號","121.489398333333","24.9892333333333","6500300","中和區"
"235002","185-VK","2018/02/12 13:19:33","新北市中和區大智街106巷2號","121.524038333333","24.992565","6500300","中和區"
"235013","186-VK","2018/02/12 13:19:38","新北市中和區中正路395號","121.489966666667","24.9935383333333","6500300","中和區"
"235031","255-BX","2018/02/12 13:19:32","","121.484303333333","25.0005416666667","6500300","中和區"
"235036","301-VK","2018/02/12 13:19:25","新北市中和區連城路263巷4弄6號","121.49166","24.9956516666667","6500300","中和區"
"235007","352-BY","2018/02/12 13:19:31","新北市中和區景平路377號","121.504145","24.9934583333333","6500300","中和區"
"235032","377-QA","2018/02/12 13:19:26","新北市中和區員山路36巷16-3號","121.48507","24.99122","6500300","中和區"
"235025","378-QA","2018/02/12 13:19:37","新北市中和區國光街215巷24弄2號","121.466633333333","25.0003683333333","6500300","中和區"
"235035","269-TV","2018/02/12 13:19:29","新北市中和區永和路333巷2弄3號","121.484686666667","25.0109233333333","6500300","中和區"
"235014","4979-A6","2018/02/12 13:19:31","新北市中和區捷運路63號","121.509013333333","24.989805","6500300","中和區"
"235033","4980-A6","2018/02/12 13:19:33","新北市中和區連城路237-1號","121.493806666667","24.9974183333333","6500300","中和區"
"235006","551-UM","2018/02/12 13:19:33","新北市中和區大仁街20巷25弄31號","121.519168333333","24.993605","6500300","中和區"
"235034","558-UM","2018/02/12 13:19:37","新北市中和區圓通路146-1號","121.498103333333","24.9957416666667","6500300","中和區"
"235009","565-BX","2018/02/12 13:19:30","新北市中和區復興路77-3號","121.50344","24.9900333333333","6500300","中和區"
"235001","611-BX","2018/02/12 13:19:32","新北市中和區中山路三段136巷85號","121.473826666667","25.0079133333333","6500300","中和區"
"235018","640-BX","2018/02/12 13:19:44","新北市中和區國光街56號","121.470618333333","25.000265","6500300","中和區"
"235024","647-TV","2018/02/12 13:19:35","新北市中和區員山路86號","121.480941666667","24.9942766666667","6500300","中和區"
"235011","732-UM","2018/02/12 13:19:40","新北市中和區南山路300號","121.507851666667","24.9871816666667","6500300","中和區"
"235026","800-TS","2018/02/12 13:19:32","新北市中和區景平路999巷2號","121.495415","25.0060416666667","6500300","中和區"
"235021","801-TS","2018/02/12 13:19:26","新北市中和區員山路261號","121.481176666667","24.9991633333333","6500300","中和區"
"235016","805-TS","2018/02/12 13:19:28","新北市中和區興南路二段133號","121.505281666667","24.9841966666667","6500300","中和區"
"235012","896-TW","2018/02/12 13:19:37","新北市中和區員山路36巷16-2號","121.485073333333","24.9918416666667","6500300","中和區"
"235017","900-TW","2018/02/12 13:19:36","新北市中和區員山路36巷16-2號","121.485173333333","24.9916816666667","6500300","中和區"
"235015","157-BY","2018/02/12 13:19:41","新北市中和區仁愛街95號","121.511948333333","24.98679","6500300","中和區"
"235001","AAC-213","2018/02/12 13:19:38","新北市中和區景德街88號","121.516156666667","24.9914416666667","6500300","中和區"
"235023","AAC-215","2018/02/12 13:19:27","新北市中和區員山路36巷16-3號","121.484886666667","24.9911916666667","6500300","中和區"
"235005","251-BX","2018/02/12 13:19:35","新北市中和區景安路43號","121.507493333333","24.9984433333333","6500300","中和區"
"253001","4710-YM","2018/02/12 13:19:34","新北市石門區楓林11號","121.537115","25.2947733333333","6502200","石門區"
"253003","6232-TK","2018/02/12 13:19:33","新北市石門區內石門89-2號","121.566788333333","25.2661766666667","6502200","石門區"
"253002","637-UY","2018/02/12 13:19:29","新北市石門區大溪墘11號","121.554715","25.27487","6502200","石門區"
"253004","8270-PC","2018/02/12 13:19:32","新北市石門區阿里荖1號","121.616021666667","25.278075","6502200","石門區"
"208002","742-BX","2018/02/12 13:19:28","新北市金山區三界壇路56號","121.6225","25.2292616666667","6502700","金山區"
"208003","665-BX","2018/02/12 13:19:33","新北市金山區民生路16號","121.649355","25.224395","6502700","金山區"
"208001","761-BX","2018/02/12 13:19:38","新北市金山區民生路45號","121.642146666667","25.221055","6502700","金山區"
"207002","749-BX","2018/02/12 13:15:04","新北市萬里區雙興里二坪路36號","121.64469","25.16778","6502800","萬里區"
"252005","073-UM","2018/02/12 13:19:26","新北市三芝區八賢里八連溪41-1號","121.513176666667","25.2367883333333","6502100","三芝區"
"207001","662-BX","2018/02/12 13:19:32","新北市萬里區龜吼里光宇一路5號","121.679753333333","25.1905083333333","6502800","萬里區"
"237007","153-BY","2018/02/12 13:19:36","新北市三峽區中正路二段52號","121.366606666667","24.9188333333333","6500900","三峽區"
"237001","159-UY","2018/02/12 13:19:39","新北市樹林區學勤路200號","121.377301666667","24.9471616666667","6500900","三峽區"
"237009","210-TH","2018/02/12 13:19:25","新北市三峽區中山路106巷43號","121.366008333333","24.9368316666667","6500900","三峽區"
"237013","252-BX","2018/02/12 13:19:37","新北市三峽區中華路8號","121.375165","24.93303","6500900","三峽區"
"237012","275-BY","2018/02/12 13:19:23","新北市三峽區民生街19巷9號","121.376165","24.9359816666667","6500900","三峽區"
"237008","302-VK","2018/02/12 13:19:36","新北市三峽區正義街158-7號","121.368336666667","24.9160233333333","6500900","三峽區"
"237006","5529-G3","2018/02/12 13:19:42","新北市三峽區介壽路二段136巷116-2號","121.392265","24.9328383333333","6500900","三峽區"
"237011","KEA-2596","2018/02/12 13:19:34","新北市三峽區光明路60號","121.374946666667","24.929335","6500900","三峽區"
"237010","706-TV","2018/02/12 13:19:34","新北市三峽區民權街169號","121.367975","24.93021","6500900","三峽區"
"237005","AKY-6261","2018/02/12 13:19:36","新北市三峽區和平街79巷1號","121.369951666667","24.9372483333333","6500900","三峽區"
"236005","498-BY","2018/02/12 13:19:36","新北市土城區大安路138巷26號","121.434201666667","24.9714366666667","6501300","土城區"
"221032","280-BY","2018/02/12 13:19:39","新北市汐止區龍安路202巷14號","121.652831666667","25.0633466666667","6501100","汐止區"
"220010","305-R5","2018/02/12 13:19:28","新北市板橋區民生路二段120號","121.470358333333","25.01963","6500100","板橋區"
"235061","KEA-2875","2018/02/12 12:57:16","新北市中和區員山路36巷16-3號","121.484871666667","24.9914083333333","6500300","中和區"
