"lineid","car","time","location","longitude","latitude","cityid","cityname"
"234044","148-BY","2018/02/12 14:09:27","新北市永和區永利路163號","121.524868333333","25.0033066666667","6500400","永和區"
"234005","207-UY","2018/02/12 14:09:17","新北市永和區中和路523號","121.511118333333","25.002825","6500400","永和區"
"234078","298-R6","2018/02/12 14:09:31","新北市永和區福和路8巷3號","121.525046666667","25.0092633333333","6500400","永和區"
"234036","336-UY","2018/02/12 14:09:17","新北市永和區成功路二段195號","121.526736666667","24.9963716666667","6500400","永和區"
"234062","337-UY","2018/02/12 14:09:30","新北市永和區中正路412巷2弄11號","121.518538333333","25.001945","6500400","永和區"
"234084","338-UY","2018/02/12 14:09:24","新北市永和區福和路152號","121.521748333333","25.00785","6500400","永和區"
"234068","552-UM","2018/02/12 14:09:21","新北市永和區大新街69巷1號","121.517145","25.0082266666667","6500400","永和區"
"234015","745-BX","2018/02/12 14:09:32","新北市永和區文化路69號","121.514003333333","25.0150533333333","6500400","永和區"
"234028","746-BX","2018/02/12 14:09:31","新北市永和區民生路67巷22號","121.52385","24.9971266666667","6500400","永和區"
"234052","KEA-2590","2018/02/12 14:09:24","新北市永和區竹林路39巷38號","121.51988","25.01516","6500400","永和區"
"234078","839-RS","2018/02/12 14:09:36","新北市永和區國中路95號","121.52452","25.00614","6500400","永和區"
"234012","KEA-2591","2018/02/12 14:09:21","新北市永和區保生路55號","121.50469","25.01067","6500400","永和區"
"234060","AAD-866","2018/02/12 14:09:37","新北市永和區中正路283巷66弄2號","121.515998333333","24.9995983333333","6500400","永和區"
"234040","862-TW","2018/02/12 14:09:25","新北市永和區中和路335巷8號","121.507501666667","25.0000366666667","6500400","永和區"
"234048","863-TW","2018/02/12 14:09:31","新北市永和區保安路292號","121.505248333333","25.0119133333333","6500400","永和區"
"234025","9371-KE","2018/02/12 14:09:21","新北市永和區中山路一段211-1號","121.508641666667","25.008435","6500400","永和區"
"234022","9381-KE","2018/02/12 14:09:26","新北市永和區豫溪街57巷8弄7號","121.517746666667","25.0104233333333","6500400","永和區"
"234010","9373-KE","2018/02/12 14:09:29","新北市永和區保生路55-1號","121.50454","25.0109216666667","6500400","永和區"
"248005","077-UY","2018/02/12 14:09:25","新北市五股區四維路98號","121.467718333333","25.0734333333333","6501500","五股區"
"248007","095-VK","2018/02/12 14:09:26","新北市五股區中興路一段118巷6弄36號","121.466341666667","25.0752283333333","6501500","五股區"
"248019","225-UY","2018/02/12 14:08:59","新北市五股區凌雲路三段57號","121.42536","25.1250233333333","6501500","五股區"
"248011","247-BX","2018/02/12 14:09:20","新北市五股區工商路60-1號","121.438936666667","25.0844883333333","6501500","五股區"
"248013","261-SL","2018/02/12 14:09:29","新北市五股區民義路一段166號","121.432921666667","25.0876916666667","6501500","五股區"
"248003","677-BX","2018/02/12 14:09:30","新北市五股區民義路一段278號","121.42554","25.092935","6501500","五股區"
"248001","678-BX","2018/02/12 14:09:27","新北市五股區成泰路三段577巷95號","121.448811666667","25.10406","6501500","五股區"
"248009","682-TV","2018/02/12 14:09:27","新北市五股區水碓一路23號","121.430643333333","25.0712616666667","6501500","五股區"
"234076","969-R7","2018/02/12 14:09:34","新北市永和區民族街55號","121.518391666667","24.9980733333333","6500400","永和區"
"234072","AAC-211","2018/02/12 14:09:35","新北市永和區豫溪街134號","121.521055","25.0103483333333","6500400","永和區"
"234066","AAC-212","2018/02/12 14:09:28","新北市永和區永貞路372號","121.509986666667","25.0069133333333","6500400","永和區"
"234001","AAC-295","2018/02/12 14:09:18","新北市永和區永和路一段136號","121.514118333333","25.00791","6500400","永和區"
"243003","297-R6","2018/02/12 14:09:19","新北市泰山區明志路二段318號","121.426215","25.046025","6501600","泰山區"
"243007","380-SR","2018/02/12 14:09:30","新北市泰山區明志路一段350號","121.430843333333","25.0584","6501600","泰山區"
"243006","421-VK","2018/02/12 14:09:28","新北市泰山區泰林路二段550號","121.423213333333","25.0637016666667","6501600","泰山區"
"243004","539-UM","2018/02/12 14:09:24","新北市泰山區辭修路10-11號","121.429633333333","25.0580666666667","6501600","泰山區"
"243002","KEA-2215","2018/02/12 14:09:29","新北市泰山區明志路一段352巷18號","121.43031","25.0587816666667","6501600","泰山區"
"243001","KEA-2216","2018/02/12 14:09:32","新北市泰山區楓樹街15巷1-2號","121.435056666667","25.0630216666667","6501600","泰山區"
"243005","646-TV","2018/02/12 14:09:25","新北市泰山區台麗街6巷11號","121.424145","25.0377333333333","6501600","泰山區"
"243008","680-BX","2018/02/12 14:09:30","新北市泰山區明志路二段364號","121.425676666667","25.0450233333333","6501600","泰山區"
"231002","002-UM","2018/02/12 14:09:26","新北市新店區中正路643號","121.533896666667","24.9896383333333","6500600","新店區"
"231025","0293-UT","2018/02/12 14:09:24","新北市新店區中正路328巷30號","121.537795","24.9760266666667","6500600","新店區"
"231028","046-UY","2018/02/12 14:09:33","新北市新店區安和路2段237-1號","121.516916666667","24.9765833333333","6500600","新店區"
"231030","047-UY","2018/02/12 14:09:18","新北市新店區安興路20號","121.515113333333","24.96588","6500600","新店區"
"231029","106-UY","2018/02/12 14:09:38","新北市新店區安康路二段109號","121.512751666667","24.96196","6500600","新店區"
"231018","107-UY","2018/02/12 14:09:25","新北市新店區中央路97號","121.531326666667","24.975105","6500600","新店區"
"231011","108-UY","2018/02/12 14:09:28","新北市新店區中興路一段216號","121.5439","24.9658633333333","6500600","新店區"
"231019","187-VK","2018/02/12 14:09:37","新北市新店區新烏路二段198巷2弄2號","121.547781666667","24.917015","6500600","新店區"
"231014","KEA-2219","2018/02/12 14:09:34","新北市新店區郵政路101號","121.554298333333","24.95139","6500600","新店區"
"231026","256-BX","2018/02/12 14:09:24","新北市新店區安康路一段355-3號","121.51953","24.9623466666667","6500600","新店區"
"231023","AAD-862","2018/02/12 14:09:26","新北市新店區文中路40號","121.53978","24.9565683333333","6500600","新店區"
"231027","3712-VJ","2018/02/12 14:09:28","新北市新店區環河路1-2號","121.53807","24.9615283333333","6500600","新店區"
"231024","4716-K9","2018/02/12 14:09:35","新北市新店區新生街16號","121.54004","24.96633","6500600","新店區"
"231038","4715-K9","2018/02/12 14:09:32","新北市新店區溪洲路121號","121.531153333333","24.96281","6500600","新店區"
"231035","515-UM","2018/02/12 14:09:28","新北市新店區安和路二段68號","121.518296666667","24.9683983333333","6500600","新店區"
"231003","616-UM","2018/02/12 14:09:35","新北市新店區中興路一段108號","121.540961666667","24.9617933333333","6500600","新店區"
"231006","617-UM","2018/02/12 14:09:21","新北市新店區北宜路二段126號","121.556906666667","24.9538566666667","6500600","新店區"
"231001","619-UM","2018/02/12 14:09:28","新北市新店區中華路52號","121.539605","24.9685533333333","6500600","新店區"
"231034","645-TV","2018/02/12 14:09:24","新北市新店區黎明路3號","121.503375","24.952305","6500600","新店區"
"231013","719-UM","2018/02/12 14:09:17","新北市新店區北新路三段65巷34弄15號","121.540026666667","24.981485","6500600","新店區"
"231036","719-UY","2018/02/12 14:09:20","新北市新店區安祥路110巷53號","121.473585","24.9567583333333","6500600","新店區"
"231031","720-UM","2018/02/12 14:09:27","新北市新店區永業路59號","121.531928333333","24.9541383333333","6500600","新店區"
"231005","897-TW","2018/02/12 14:09:23","新北市新店區寶元路一段61號","121.542166666667","24.9859016666667","6500600","新店區"
"231004","899-TW","2018/02/12 14:09:31","新北市新店區民族路1號","121.542365","24.9786733333333","6500600","新店區"
"231037","AKT-0513","2018/02/12 14:09:19","新北市新店區安康路三段440-1號","121.484928333333","24.9514233333333","6500600","新店區"
"235030","003-UY","2018/02/12 14:09:17","新北市中和區廣福路12號","121.505571666667","25.002825","6500300","中和區"
"235028","005-UY","2018/02/12 14:09:15","新北市中和區連城路47巷1號","121.498316666667","25.0016083333333","6500300","中和區"
"235027","006-UY","2018/02/12 14:09:25","新北市中和區中正路480號","121.489481666667","24.9943333333333","6500300","中和區"
"235020","096-UM","2018/02/12 14:09:31","新北市板橋區三民路二段228號","121.478718333333","25.0114133333333","6500300","中和區"
"235001","097-UM","2018/02/12 14:09:25","新北市中和區景平路3號","121.523738333333","24.9902766666667","6500300","中和區"
"235029","098-UM","2018/02/12 14:09:34","新北市中和區中山路二段136巷20號","121.501606666667","25.0041283333333","6500300","中和區"
"235004","150-BY","2018/02/12 14:09:36","新北市中和區保健路46巷20弄12號","121.50851","24.99641","6500300","中和區"
"235022","151-BY","2018/02/12 14:09:32","新北市中和區員山路105號","121.48076","24.9945383333333","6500300","中和區"
"235019","183-VK","2018/02/12 14:09:34","新北市中和區德光路19號","121.47099","25.00432","6500300","中和區"
"235013","186-VK","2018/02/12 14:09:18","新北市中和區明仁街4號","121.505875","24.9954033333333","6500300","中和區"
"235031","255-BX","2018/02/12 14:09:32","新北市中和區新生街264號","121.483581666667","24.9971933333333","6500300","中和區"
"235008","293-VK","2018/02/12 14:09:26","新北市中和區中興街202巷2號","121.499401666667","24.9899666666667","6500300","中和區"
"235036","301-VK","2018/02/12 14:09:25","新北市中和區中山路二段153號","121.501653333333","25.002825","6500300","中和區"
"235007","352-BY","2018/02/12 14:09:31","新北市中和區景平路116號","121.519418333333","24.9917016666667","6500300","中和區"
"235032","377-QA","2018/02/12 14:09:26","新北市中和區景平路545巷1弄5號","121.49854","24.9991316666667","6500300","中和區"
"235025","378-QA","2018/02/12 14:09:17","新北市中和區中山路三段63巷13弄7號","121.477103333333","25.003905","6500300","中和區"
"235035","269-TV","2018/02/12 14:09:29","新北市中和區立德街66號","121.488045","25.0076183333333","6500300","中和區"
"235014","4979-A6","2018/02/12 14:09:31","新北市中和區復興路73號","121.503653333333","24.9902933333333","6500300","中和區"
"235006","551-UM","2018/02/12 14:09:33","新北市中和區成功路127巷12弄10號","121.527166666667","24.9899133333333","6500300","中和區"
"235034","558-UM","2018/02/12 14:09:17","新北市中和區中和路212號","121.50597","24.9994933333333","6500300","中和區"
"235009","565-BX","2018/02/12 14:09:30","新北市中和區景新街467巷33號","121.514668333333","24.98883","6500300","中和區"
"235001","611-BX","2018/02/12 14:09:32","新北市八里區商港路48號","121.395835","25.14503","6500300","中和區"
"235018","640-BX","2018/02/12 14:09:24","新北市中和區國光街6巷1號","121.471941666667","25.0001983333333","6500300","中和區"
"235024","647-TV","2018/02/12 14:09:35","新北市中和區民享街86巷1號","121.474508333333","25.0009133333333","6500300","中和區"
"235011","732-UM","2018/02/12 14:09:34","新北市中和區興南路二段32巷5號","121.507131666667","24.985405","6500300","中和區"
"235010","733-UM","2018/02/12 14:09:32","新北市中和區忠孝街1巷12號","121.508708333333","24.9836083333333","6500300","中和區"
"235026","800-TS","2018/02/12 14:09:32","新北市中和區中山路二段340巷62號","121.493008333333","25.0046766666667","6500300","中和區"
"235021","801-TS","2018/02/12 14:09:26","新北市中和區民利街100巷6弄1號","121.477021666667","24.99851","6500300","中和區"
"235016","805-TS","2018/02/12 14:09:28","新北市中和區興南路二段261巷6-5號","121.502215","24.9793266666667","6500300","中和區"
"235012","896-TW","2018/02/12 14:09:37","新北市中和區華新街143巷71弄13號","121.508355","24.9788383333333","6500300","中和區"
"235017","900-TW","2018/02/12 14:09:16","新北市中和區民德路274號","121.467816666667","24.996465","6500300","中和區"
"235015","157-BY","2018/02/12 14:09:21","新北市中和區忠孝街31巷33弄2號","121.509691666667","24.98456","6500300","中和區"
"235001","AAC-213","2018/02/12 14:09:18","新北市中和區秀朗路三段60巷68號","121.524016666667","24.9947316666667","6500300","中和區"
"235023","AAC-215","2018/02/12 14:09:26","新北市中和區圓通路294巷17-5號","121.488736666667","24.99048","6500300","中和區"
"220016","013-TV","2018/02/12 14:09:29","新北市板橋區翠華街6巷27號","121.481451666667","25.0244016666667","6500100","板橋區"
"220013","072-UY","2018/02/12 14:09:33","新北市板橋區民族路219巷25號","121.469416666667","25.0087033333333","6500100","板橋區"
"220034","073-UY","2018/02/12 14:09:25","新北市板橋區中正路236巷36號","121.457073333333","25.0191466666667","6500100","板橋區"
"220105","075-UY","2018/02/12 14:09:35","新北市板橋區雙十路三段9號","121.471651666667","25.030285","6500100","板橋區"
"247021","893-R6","2018/02/12 14:09:33","新北市蘆洲區三民路142號","121.470645","25.08782","6501400","蘆洲區"
"247011","546-UM","2018/02/12 14:09:15","新北市蘆洲區信義路331號","121.478188333333","25.086705","6501400","蘆洲區"
"247019","500-BY","2018/02/12 14:09:28","新北市蘆洲區民族路426巷62號","121.472678333333","25.09396","6501400","蘆洲區"
"247007","341-TH","2018/02/12 14:09:29","新北市三重區永安北路一段15號","121.47636","25.07516","6501400","蘆洲區"
"247009","339-TH","2018/02/12 14:09:31","新北市蘆洲區三民路50號","121.475603333333","25.0832083333333","6501400","蘆洲區"
"247001","337-TH","2018/02/12 14:09:15","新北市蘆洲區永平街30號","121.458813333333","25.0909183333333","6501400","蘆洲區"
"247003","336-TH","2018/02/12 14:09:27","新北市蘆洲區長安街98巷16號","121.462836666667","25.0816816666667","6501400","蘆洲區"
"247015","057-VK","2018/02/12 14:09:32","新北市蘆洲區光華路46巷51號","121.46742","25.0847233333333","6501400","蘆洲區"
"247005","056-VK","2018/02/12 14:09:27","新北市蘆洲區九芎街109號","121.465698333333","25.0796583333333","6501400","蘆洲區"
"247013","007-UY","2018/02/12 14:09:21","新北市蘆洲區保和街50-1號","121.469598333333","25.086225","6501400","蘆洲區"
"247023","002-UY","2018/02/12 14:09:27","新北市蘆洲區光榮路68號","121.463158333333","25.0887116666667","6501400","蘆洲區"
"247017","001-UY","2018/02/12 14:09:23","新北市蘆洲區民族路227巷24弄1號","121.476393333333","25.0888716666667","6501400","蘆洲區"
"235005","251-BX","2018/02/12 14:09:15","新北市中和區永貞路241號","121.513178333333","25.003825","6500300","中和區"
"253001","4710-YM","2018/02/12 14:09:34","新北市石門區下員坑50-1號","121.518495","25.2723466666667","6502200","石門區"
"253003","6232-TK","2018/02/12 14:09:33","新北市石門區阿里磅9號","121.58317","25.2690466666667","6502200","石門區"
"253002","637-UY","2018/02/12 14:09:29","新北市石門區七股59-1號","121.551733333333","25.2543566666667","6502200","石門區"
"253004","8270-PC","2018/02/12 14:08:47","新北市石門區草埔尾15-1號","121.602116666667","25.26465","6502200","石門區"
"208002","742-BX","2018/02/12 14:09:31","新北市金山區信義路61號","121.635906666667","25.2190866666667","6502700","金山區"
"208003","665-BX","2018/02/12 14:09:33","新北市金山區中正路133號","121.632446666667","25.2215266666667","6502700","金山區"
"208001","761-BX","2018/02/12 14:09:18","新北市金山區民生路65號","121.640531666667","25.2203766666667","6502700","金山區"
"252005","073-UM","2018/02/12 14:09:26","新北市三芝區圓山里二坪頂47號","121.538703333333","25.2443666666667","6502100","三芝區"
"207001","662-BX","2018/02/12 14:09:32","新北市萬里區磺潭里清水18號","121.637756666667","25.1976016666667","6502800","萬里區"
"237007","153-BY","2018/02/12 14:09:36","新北市三峽區大埔路133號","121.36661","24.90624","6500900","三峽區"
"237009","210-TH","2018/02/12 14:09:25","新北市三峽區大同路307號","121.363441666667","24.9248416666667","6500900","三峽區"
"237013","252-BX","2018/02/12 14:09:37","新北市三峽區介壽路一段309號","121.381276666667","24.9304066666667","6500900","三峽區"
"237012","275-BY","2018/02/12 14:09:22","新北市三峽區三樹路98巷17號","121.37996","24.9387433333333","6500900","三峽區"
"237008","302-VK","2018/02/12 14:09:36","新北市三峽區中正路一段307號","121.37147","24.9250066666667","6500900","三峽區"
"237006","5529-G3","2018/02/12 14:09:21","新北市三峽區溪東路45巷9號","121.40076","24.9351283333333","6500900","三峽區"
"237011","KEA-2596","2018/02/12 14:09:34","新北市三峽區介壽路三段97號","121.395541666667","24.9389083333333","6500900","三峽區"
"237010","706-TV","2018/02/12 14:09:26","新北市三峽區民生街60號","121.375155","24.9362383333333","6500900","三峽區"
"237005","AKY-6261","2018/02/12 14:09:36","新北市三峽區中山路459巷50-1號","121.356231666667","24.9374216666667","6500900","三峽區"
"236064","105-UM","2018/02/12 14:09:37","新北市土城區明德路一段128巷7號","121.463275","24.9790316666667","6501300","土城區"
"236040","107-UM","2018/02/12 14:09:30","新北市土城區城林路6巷80號","121.438355","24.9795183333333","6501300","土城區"
"236074","166-UM","2018/02/12 14:09:31","新北市土城區永寧路51號","121.429788333333","24.9614383333333","6501300","土城區"
"236028","253-BX","2018/02/12 14:09:18","新北市土城區城林路6巷80號","121.438393333333","24.9796666666667","6501300","土城區"
"236024","269-VK","2018/02/12 14:09:24","新北市土城區承天路67號","121.439565","24.963485","6501300","土城區"
"236012","270-VK","2018/02/12 14:09:27","新北市土城區學府路二段23-1號","121.449035","24.9816183333333","6501300","土城區"
"236032","271-VK","2018/02/12 14:09:37","新北市土城區青雲路449-1號","121.458811666667","24.9746816666667","6501300","土城區"
"236016","401-BY","2018/02/12 14:09:25","新北市土城區中華路一段301號","121.440035","24.979325","6501300","土城區"
"236005","498-BY","2018/02/12 14:09:36","新北市土城區中央路一段223號","121.445653333333","24.98642","6501300","土城區"
"236056","912-UM","2018/02/12 14:09:17","新北市土城區中央路四段106號","121.418365","24.9591416666667","6501300","土城區"
"236044","913-UM","2018/02/12 14:09:23","新北市土城區明德路一段365-1號","121.453566666667","24.9790483333333","6501300","土城區"
"236060","915-UM","2018/02/12 14:09:20","新北市土城區學士路123號","121.446608333333","24.97588","6501300","土城區"
"236052","AAC-216","2018/02/12 14:09:23","新北市土城區城林路6巷80號","121.438485","24.9797966666667","6501300","土城區"
"220027","145-BY","2018/02/12 14:09:23","新北市板橋區民權路260巷1弄11號","121.458198333333","25.0158683333333","6500100","板橋區"
"220028","200-UY","2018/02/12 14:09:22","新北市板橋區大觀路二段7巷73號","121.449373333333","25.003225","6500100","板橋區"
"220030","610-BX","2018/02/12 14:09:14","新北市板橋區大觀路三段263號","121.42917","24.9922533333333","6500100","板橋區"
"220050","245-BX","2018/02/12 14:09:24","新北市板橋區莊敬路144-3號","121.471281666667","25.0230983333333","6500100","板橋區"
"220004","276-BY","2018/02/12 14:09:37","新北市板橋區信義路74巷6號","121.456811666667","24.9929","6500100","板橋區"
"220020","277-BY","2018/02/12 14:09:31","新北市板橋區金門街369巷57弄7-1號","121.429326666667","24.98409","6500100","板橋區"
"220019","283-VK","2018/02/12 14:09:16","新北市板橋區重慶路325號","121.464021666667","24.998455","6500100","板橋區"
"220043","285-UM","2018/02/12 14:09:35","新北市板橋區光武街127巷2號","121.465913333333","25.02886","6500100","板橋區"
"220001","285-VK","2018/02/12 14:09:33","新北市板橋區懷仁街10巷16-2號","121.47538","25.0197383333333","6500100","板橋區"
"220031","286-VK","2018/02/12 14:09:22","新北市板橋區大觀路二段174巷173弄6號","121.441655","25.0037733333333","6500100","板橋區"
"220029","287-VK","2018/02/12 14:09:20","新北市板橋區南雅西路二段156巷7號","121.452226666667","25.013385","6500100","板橋區"
"220039","288-VK","2018/02/12 14:09:28","新北市板橋區裕民街45巷3-1號","121.46159","25.0284","6500100","板橋區"
"220009","293-UM","2018/02/12 14:09:16","新北市板橋區中山路二段238號","121.478406666667","25.0181316666667","6500100","板橋區"
"220032","296-UM","2018/02/12 14:09:30","新北市板橋區篤行路一段46號","121.431933333333","24.9937533333333","6500100","板橋區"
"220023","303-R5","2018/02/12 14:09:15","新北市板橋區大智街25巷22號","121.454545","25.0148183333333","6500100","板橋區"
"220010","305-R5","2018/02/12 14:09:27","新北市板橋區三民路二段居仁巷2弄25號","121.479991666667","25.0130016666667","6500100","板橋區"
"220041","307-R5","2018/02/12 14:09:34","新北市板橋區文化路二段225巷35號","121.46943","25.0283233333333","6500100","板橋區"
"220047","317-R6","2018/02/12 14:09:31","新北市板橋區四維路103巷21號","121.464646666667","25.0240666666667","6500100","板橋區"
"220012","486-VK","2018/02/12 14:09:31","新北市板橋區板新路33號","121.474338333333","25.0130916666667","6500100","板橋區"
"220038","487-VK","2018/02/12 14:09:31","新北市板橋區文化路二段443號","121.475158333333","25.0332633333333","6500100","板橋區"
"220037","491-VK","2018/02/12 14:09:37","新北市板橋區莊敬路38號","121.472815","25.02705","6500100","板橋區"
"220104","560-BX","2018/02/12 14:09:34","新北市板橋區中正路413巷2弄2號","121.453885","25.022615","6500100","板橋區"
"220052","561-BX","2018/02/12 14:09:20","新北市板橋區文化路一段188巷9弄37號","121.469131666667","25.01919","6500100","板橋區"
"220003","568-UM","2018/02/12 14:09:30","新北市板橋區新民街2號","121.464263333333","25.00906","6500100","板橋區"
"220011","609-BX","2018/02/12 14:09:32","新北市板橋區三民路二段67號","121.479328333333","25.0170366666667","6500100","板橋區"
"220017","630-UY","2018/02/12 14:09:33","新北市板橋區東興街33號","121.458008333333","25.0052616666667","6500100","板橋區"
"220040","637-BX","2018/02/12 14:09:17","新北市板橋區縣民大道三段247巷29號","121.481856666667","25.02645","6500100","板橋區"
"220005","686-BX","2018/02/12 14:09:28","新北市板橋區重慶路351-1號","121.464243333333","24.9976516666667","6500100","板橋區"
"220025","687-BX","2018/02/12 14:09:29","新北市板橋區大觀路二段174巷137號","121.441171666667","25.002045","6500100","板橋區"
"220042","689-BX","2018/02/12 14:09:27","新北市板橋區民生路三段211號","121.46515","25.0281266666667","6500100","板橋區"
"220002","741-BX","2018/02/12 14:09:21","新北市板橋區重慶路64號","121.461743333333","25.006655","6500100","板橋區"
"220014","829-TW","2018/02/12 14:09:18","新北市板橋區民享街116巷8號","121.478353333333","25.015585","6500100","板橋區"
"220045","830-TW","2018/02/12 14:09:36","新北市板橋區大同街2號","121.476856666667","25.0267616666667","6500100","板橋區"
"220022","895-R6","2018/02/12 14:09:33","新北市板橋區林園街42-2號","121.453715","25.0102916666667","6500100","板橋區"
"220021","985-R7","2018/02/12 14:09:34","新北市板橋區民權路241號","121.457345","25.0156516666667","6500100","板橋區"
"220046","AAC-210","2018/02/12 14:09:34","新北市板橋區英士路153號","121.459258333333","25.023795","6500100","板橋區"
"220018","AAC-253","2018/02/12 14:09:19","新北市板橋區四川路一段489號","121.457136666667","24.9970816666667","6500100","板橋區"
