"lineid","car","time","location","longitude","latitude","cityid","cityname"
"234005","207-UY","2018/02/12 14:19:17","新北市中和區中和路322號","121.509666666667","25.0008316666667","6500400","永和區"
"234078","298-R6","2018/02/12 14:13:04","新北市永和區福和路1號","121.526476666667","25.0100033333333","6500400","永和區"
"234036","336-UY","2018/02/12 14:19:17","新北市永和區成功路二段79號","121.526801666667","24.9993583333333","6500400","永和區"
"234062","337-UY","2018/02/12 14:19:10","新北市永和區永利路99號","121.521856666667","25.0030066666667","6500400","永和區"
"234084","338-UY","2018/02/12 14:19:24","新北市永和區福和路239-1號","121.518333333333","25.00745","6500400","永和區"
"234068","552-UM","2018/02/12 14:19:21","新北市永和區永安街7巷7號","121.518485","25.006095","6500400","永和區"
"234015","745-BX","2018/02/12 14:19:12","新北市永和區文化路154號","121.512363333333","25.015345","6500400","永和區"
"234028","746-BX","2018/02/12 14:19:14","新北市永和區民生路47巷26號","121.524195","24.9976066666667","6500400","永和區"
"234052","KEA-2590","2018/02/12 14:19:24","新北市永和區博愛街29號","121.518291666667","25.015835","6500400","永和區"
"234078","839-RS","2018/02/12 14:19:16","新北市永和區國中路104巷3號","121.524383333333","25.0067716666667","6500400","永和區"
"234012","KEA-2591","2018/02/12 14:19:21","新北市永和區保生路55號","121.50468","25.0106566666667","6500400","永和區"
"234060","AAD-866","2018/02/12 14:19:26","新北市永和區中正路283巷57號","121.5156","24.998915","6500400","永和區"
"234012","847-RS","2018/02/12 14:19:17","新北市永和區環河西路一段99號","121.511161666667","25.017845","6500400","永和區"
"234040","862-TW","2018/02/12 14:19:25","新北市永和區雙和街16巷15號","121.509861666667","25.0024383333333","6500400","永和區"
"234048","863-TW","2018/02/12 14:19:11","新北市永和區環河西路二段151號","121.505675","25.014035","6500400","永和區"
"234025","9371-KE","2018/02/12 14:19:21","新北市永和區永和路一段212號","121.514353333333","25.0094516666667","6500400","永和區"
"234022","9381-KE","2018/02/12 14:19:06","新北市永和區中正路662巷12號","121.517731666667","25.008785","6500400","永和區"
"248019","225-UY","2018/02/12 14:10:52","新北市五股區凌雲路三段57號","121.425345","25.1250233333333","6501500","五股區"
"248011","247-BX","2018/02/12 14:19:23","新北市五股區成泰路二段101號","121.438438333333","25.0843716666667","6501500","五股區"
"248003","677-BX","2018/02/12 14:19:25","新北市五股區五福路2號","121.434015","25.0872933333333","6501500","五股區"
"248001","678-BX","2018/02/12 14:19:07","新北市五股區成泰路三段579號","121.45212","25.1026783333333","6501500","五股區"
"248009","682-TV","2018/02/12 14:19:07","新北市五股區水碓一路23號","121.43065","25.07129","6501500","五股區"
"234076","969-R7","2018/02/12 14:19:13","新北市永和區民有街75巷8號","121.518361666667","24.9961366666667","6500400","永和區"
"234072","AAC-211","2018/02/12 14:19:22","新北市永和區豫溪街156號","121.522978333333","25.0097916666667","6500400","永和區"
"234066","AAC-212","2018/02/12 14:19:29","新北市永和區保平路214巷12弄2號","121.509013333333","25.00677","6500400","永和區"
"234001","AAC-295","2018/02/12 14:19:18","新北市永和區中正路708號","121.516118333333","25.0099533333333","6500400","永和區"
"243003","297-R6","2018/02/12 14:19:19","新北市泰山區中央路36巷2號","121.426308333333","25.0429816666667","6501600","泰山區"
"243007","380-SR","2018/02/12 14:19:10","新北市泰山區公園路1號","121.429858333333","25.0538183333333","6501600","泰山區"
"243006","421-VK","2018/02/12 14:19:21","新北市泰山區泰林路二段467號","121.425463333333","25.0640033333333","6501600","泰山區"
"243004","539-UM","2018/02/12 14:19:24","新北市泰山區同義街19號","121.43159","25.0566466666667","6501600","泰山區"
"243002","KEA-2215","2018/02/12 14:19:09","新北市泰山區明志路一段458巷6號","121.43013","25.0558183333333","6501600","泰山區"
"243001","KEA-2216","2018/02/12 14:19:12","新北市泰山區明志路一段19巷14號","121.434455","25.065595","6501600","泰山區"
"243005","646-TV","2018/02/12 14:19:05","新北市泰山區明志路三段145巷11弄2號","121.425838333333","25.0397516666667","6501600","泰山區"
"243008","680-BX","2018/02/12 14:19:10","新北市泰山區明志路三段159號","121.424756666667","25.039665","6501600","泰山區"
"231002","002-UM","2018/02/12 14:19:25","新北市新店區中正路542號","121.533918333333","24.984535","6500600","新店區"
"231025","0293-UT","2018/02/12 14:19:24","新北市新店區民族路192號","121.5361","24.9754033333333","6500600","新店區"
"231028","046-UY","2018/02/12 14:19:15","新北市新店區安和路二段109號","121.518738333333","24.9699083333333","6500600","新店區"
"231030","047-UY","2018/02/12 14:19:18","新北市新店區安德街60巷23號","121.510588333333","24.9633883333333","6500600","新店區"
"231029","106-UY","2018/02/12 14:19:18","新北市新店區安康路二段161號","121.510273333333","24.9593583333333","6500600","新店區"
"231018","107-UY","2018/02/12 14:19:06","新北市新店區環河路178號","121.525541666667","24.975815","6500600","新店區"
"231011","108-UY","2018/02/12 14:19:07","新北市新店區中興路一段296號","121.546386666667","24.9690416666667","6500600","新店區"
"231019","187-VK","2018/02/12 14:19:17","新北市新店區桂山路81巷1號","121.567483333333","24.8992866666667","6500600","新店區"
"231014","KEA-2219","2018/02/12 14:19:14","新北市新店區北宜路二段392巷12號","121.56618","24.9530666666667","6500600","新店區"
"231023","AAD-862","2018/02/12 14:19:26","新北市新店區光明街37號","121.538565","24.9597616666667","6500600","新店區"
"231027","3712-VJ","2018/02/12 14:19:08","新北市新店區北宜路一段88號","121.538823333333","24.9556516666667","6500600","新店區"
"231024","4716-K9","2018/02/12 14:19:15","新北市新店區力行路5號","121.539451666667","24.96459","6500600","新店區"
"231038","4715-K9","2018/02/12 14:19:14","新北市新店區安康路一段5號","121.53391","24.9603933333333","6500600","新店區"
"231035","515-UM","2018/02/12 14:19:08","新北市新店區光華街5巷1號","121.517838333333","24.9687416666667","6500600","新店區"
"231003","616-UM","2018/02/12 14:19:15","新北市新店區中興路一段216號","121.543946666667","24.9656666666667","6500600","新店區"
"231006","617-UM","2018/02/12 14:19:21","新北市新店區北宜路二段392巷4號","121.56558","24.9535283333333","6500600","新店區"
"231001","619-UM","2018/02/12 14:19:28","新北市新店區北新路一段285號","121.541245","24.9669116666667","6500600","新店區"
"231034","645-TV","2018/02/12 14:19:24","新北市新店區黎明路3號","121.503346666667","24.9523083333333","6500600","新店區"
"231013","719-UM","2018/02/12 14:19:17","新北市新店區建國路128巷3-1號","121.539008333333","24.97935","6500600","新店區"
"231036","719-UY","2018/02/12 14:19:20","新北市新店區安祥路109巷3弄34號","121.476433333333","24.9603666666667","6500600","新店區"
"231031","720-UM","2018/02/12 14:19:16","新北市新店區溪洲路201-3號","121.528901666667","24.9682433333333","6500600","新店區"
"231005","897-TW","2018/02/12 14:19:23","新北市新店區中興路三段240號","121.543158333333","24.9836","6500600","新店區"
"231004","899-TW","2018/02/12 14:19:10","新北市新店區北新路二段18號","121.542796666667","24.9712533333333","6500600","新店區"
"231037","AKT-0513","2018/02/12 14:19:19","新北市新店區安康路三段165巷2弄1號","121.489408333333","24.9512966666667","6500600","新店區"
"235030","003-UY","2018/02/12 14:19:17","新北市中和區中和路102號","121.50265","24.9996883333333","6500300","中和區"
"235028","005-UY","2018/02/12 14:19:15","新北市中和區泰和街38巷30號","121.498523333333","25.0012366666667","6500300","中和區"
"235027","006-UY","2018/02/12 14:19:25","新北市中和區中正路637巷52弄1號","121.485456666667","24.99408","6500300","中和區"
"235020","096-UM","2018/02/12 14:19:18","新北市中和區中山路二段676號","121.48012","25.0059533333333","6500300","中和區"
"235001","097-UM","2018/02/12 14:19:05","新北市中和區秀峰街117號","121.520095","24.9906566666667","6500300","中和區"
"235029","098-UM","2018/02/12 14:18:54","新北市中和區中山路二段64巷3號","121.50366","25.00494","6500300","中和區"
"235004","150-BY","2018/02/12 14:19:11","新北市中和區安平路101號","121.511286666667","24.9971933333333","6500300","中和區"
"235022","151-BY","2018/02/12 14:19:12","新北市中和區員山路110號","121.481133333333","24.9956116666667","6500300","中和區"
"235019","183-VK","2018/02/12 14:19:19","新北市中和區德光路19號","121.470976666667","25.00434","6500300","中和區"
"235013","186-VK","2018/02/12 14:19:18","新北市中和區景新街228-6號","121.508161666667","24.9941266666667","6500300","中和區"
"235008","293-VK","2018/02/12 14:19:26","新北市中和區中興街260號","121.499046666667","24.9875766666667","6500300","中和區"
"235036","301-VK","2018/02/12 14:19:05","新北市中和區福美路310號","121.49679","25.0047783333333","6500300","中和區"
"235007","352-BY","2018/02/12 14:19:11","新北市中和區景平路296號","121.513033333333","24.9927","6500300","中和區"
"235032","377-QA","2018/02/12 14:19:26","新北市中和區景平路493巷12弄3號","121.49907","24.9971083333333","6500300","中和區"
"235025","378-QA","2018/02/12 14:19:17","新北市中和區員山路314巷5號","121.481848333333","25.0028533333333","6500300","中和區"
"235035","269-TV","2018/02/12 14:19:29","新北市中和區立德街60號","121.488308333333","25.0075433333333","6500300","中和區"
"235014","4979-A6","2018/02/12 14:19:11","新北市中和區中正路406號","121.49256","24.9942233333333","6500300","中和區"
"235033","4980-A6","2018/02/12 14:19:13","新北市中和區圓通路225號","121.496496666667","24.9943216666667","6500300","中和區"
"235006","551-UM","2018/02/12 14:19:13","新北市新店區薏仁坑路自強巷1號","121.497815","24.9577166666667","6500300","中和區"
"235034","558-UM","2018/02/12 14:19:17","新北市中和區中和路71號","121.500586666667","25.00099","6500300","中和區"
"235009","565-BX","2018/02/12 14:19:10","新北市中和區景新街437巷30號","121.514755","24.989465","6500300","中和區"
"235001","611-BX","2018/02/12 14:19:12","新北市五股區中興路三段2巷10號","121.448221666667","25.082555","6500300","中和區"
"235018","640-BX","2018/02/12 14:19:23","新北市中和區民德路174號","121.46845","24.999585","6500300","中和區"
"235024","647-TV","2018/02/12 14:19:15","新北市中和區民有街60號","121.476026666667","25.0044633333333","6500300","中和區"
"235011","732-UM","2018/02/12 14:19:20","新北市中和區景平路239巷33弄48號","121.509981666667","24.9914466666667","6500300","中和區"
"235010","733-UM","2018/02/12 14:19:12","新北市中和區忠孝街2號","121.508628333333","24.98283","6500300","中和區"
"235026","800-TS","2018/02/12 14:19:12","新北市中和區中山路二段366巷23號","121.491526666667","25.00508","6500300","中和區"
"235021","801-TS","2018/02/12 14:19:26","新北市中和區民利街8號","121.48085","24.9991816666667","6500300","中和區"
"235016","805-TS","2018/02/12 14:19:08","新北市中和區興南路二段142巷19弄9號","121.502871666667","24.9833933333333","6500300","中和區"
"235012","896-TW","2018/02/12 14:19:17","新北市中和區華新街109巷1-3號","121.5091","24.9822183333333","6500300","中和區"
"235017","900-TW","2018/02/12 14:19:16","新北市中和區民德路232號","121.468113333333","24.9975816666667","6500300","中和區"
"235015","157-BY","2018/02/12 14:19:21","新北市中和區興南路一段20-1號","121.511188333333","24.99095","6500300","中和區"
"235001","AAC-213","2018/02/12 14:19:18","新北市中和區秀朗路三段50巷13號","121.525345","24.995205","6500300","中和區"
"235023","AAC-215","2018/02/12 14:19:06","新北市中和區錦和路195巷8號","121.491161666667","24.990785","6500300","中和區"
"220016","013-TV","2018/02/12 14:19:08","新北市板橋區林森街1巷30號","121.482783333333","25.024335","6500100","板橋區"
"220013","072-UY","2018/02/12 14:19:13","新北市板橋區國泰街76巷34號","121.467075","25.00718","6500100","板橋區"
"220034","073-UY","2018/02/12 14:19:25","新北市板橋區中正路236巷78號","121.45821","25.0193783333333","6500100","板橋區"
"220105","075-UY","2018/02/12 14:19:15","新北市板橋區雙十路三段66巷1號","121.470563333333","25.0319716666667","6500100","板橋區"
"247021","893-R6","2018/02/12 14:19:13","新北市蘆洲區三民路128巷120號","121.469131666667","25.091155","6501400","蘆洲區"
"247011","546-UM","2018/02/12 14:19:17","新北市蘆洲區民權路38巷2號","121.476295","25.0866116666667","6501400","蘆洲區"
"247019","500-BY","2018/02/12 14:19:28","新北市蘆洲區民族路426號","121.473721666667","25.09197","6501400","蘆洲區"
"247007","341-TH","2018/02/12 14:19:08","新北市蘆洲區中山一路236號","121.472736666667","25.0802116666667","6501400","蘆洲區"
"247009","339-TH","2018/02/12 14:19:11","新北市蘆洲區三民路26巷30號","121.477906666667","25.08298","6501400","蘆洲區"
"247001","337-TH","2018/02/12 14:19:15","新北市蘆洲區永樂街30號","121.458298333333","25.0882316666667","6501400","蘆洲區"
"247003","336-TH","2018/02/12 14:19:11","新北市蘆洲區長安街108巷5弄2號","121.461263333333","25.081895","6501400","蘆洲區"
"247015","057-VK","2018/02/12 14:17:32","新北市蘆洲區光華路70巷9號","121.46768","25.083165","6501400","蘆洲區"
"247005","056-VK","2018/02/12 14:19:27","新北市蘆洲區永安南路二段16巷17弄26號","121.467181666667","25.0781316666667","6501400","蘆洲區"
"247013","007-UY","2018/02/12 14:19:21","新北市蘆洲區三民路71號","121.475193333333","25.083695","6501400","蘆洲區"
"247023","002-UY","2018/02/12 14:19:27","新北市蘆洲區長榮路524號","121.459626666667","25.0902066666667","6501400","蘆洲區"
"247017","001-UY","2018/02/12 14:19:23","新北市蘆洲區民權路112號","121.473711666667","25.0883666666667","6501400","蘆洲區"
"235005","251-BX","2018/02/12 14:19:15","新北市中和區中安街178巷2號","121.510988333333","24.9996416666667","6500300","中和區"
"253001","4710-YM","2018/02/12 14:19:14","新北市石門區八甲43號","121.531601666667","25.26794","6502200","石門區"
"253003","6232-TK","2018/02/12 14:19:13","新北市石門區內石門67-3號","121.576866666667","25.2586933333333","6502200","石門區"
"253002","637-UY","2018/02/12 14:19:09","新北市石門區豬槽潭13號","121.55292","25.2588216666667","6502200","石門區"
"253004","8270-PC","2018/02/12 14:19:07","新北市石門區小坑34號","121.59752","25.2668133333333","6502200","石門區"
"208002","742-BX","2018/02/12 14:19:08","新北市金山區仁愛路37-13號","121.635796666667","25.2202966666667","6502700","金山區"
"208003","665-BX","2018/02/12 14:19:25","新北市金山區忠孝一路62號","121.637426666667","25.2205833333333","6502700","金山區"
"208001","761-BX","2018/02/12 14:19:18","新北市金山區金包里街50號","121.639405","25.221125","6502700","金山區"
"252005","073-UM","2018/02/12 14:19:06","新北市三芝區橫山里橫山45-1號","121.53683","25.257415","6502100","三芝區"
"207001","662-BX","2018/02/12 14:19:12","新北市萬里區磺潭里清水18號","121.637855","25.1975266666667","6502800","萬里區"
"237007","153-BY","2018/02/12 14:19:16","新北市三峽區中正路二段37號","121.3668","24.918895","6500900","三峽區"
"237009","210-TH","2018/02/12 14:19:25","新北市三峽區文化路100號","121.371578333333","24.93618","6500900","三峽區"
"237013","252-BX","2018/02/12 14:19:21","新北市三峽區橫溪路96號","121.397885","24.935475","6500900","三峽區"
"237012","275-BY","2018/02/12 14:19:22","新北市三峽區中華路31號","121.373041666667","24.9313216666667","6500900","三峽區"
"237008","302-VK","2018/02/12 14:19:16","新北市三峽區光明路106巷56號","121.375225","24.92679","6500900","三峽區"
"237006","5529-G3","2018/02/12 14:19:21","新北市三峽區介壽路一段360號","121.382066666667","24.93049","6500900","三峽區"
"237011","KEA-2596","2018/02/12 14:19:14","新北市三峽區介壽路一段398號","121.383626666667","24.9309516666667","6500900","三峽區"
"237010","706-TV","2018/02/12 14:19:05","新北市三峽區復興路49號","121.373356666667","24.9369933333333","6500900","三峽區"
"237005","AKY-6261","2018/02/12 14:19:16","新北市三峽區復興路367巷5號","121.363721666667","24.9379316666667","6500900","三峽區"
"236064","105-UM","2018/02/12 14:19:17","新北市土城區明德路一段128巷15號","121.46307","24.97889","6501300","土城區"
"236040","107-UM","2018/02/12 14:19:10","新北市土城區裕生路21巷6弄23號","121.44871","24.9868183333333","6501300","土城區"
"236074","166-UM","2018/02/12 14:19:08","新北市土城區永安街88號","121.431286666667","24.9639633333333","6501300","土城區"
"236028","253-BX","2018/02/12 14:19:18","新北市土城區順風路46號","121.440123333333","24.9771316666667","6501300","土城區"
"236024","269-VK","2018/02/12 14:19:24","新北市土城區承天路67號","121.439546666667","24.9635233333333","6501300","土城區"
"236012","270-VK","2018/02/12 14:19:06","新北市土城區立清街69號","121.460301666667","24.9873","6501300","土城區"
"236032","271-VK","2018/02/12 14:19:17","新北市土城區青雲路483巷9號","121.459391666667","24.97355","6501300","土城區"
"236016","401-BY","2018/02/12 14:19:25","新北市土城區明德路一段305號","121.459745","24.97718","6501300","土城區"
"236005","498-BY","2018/02/12 14:19:16","新北市土城區中央路一段2-1號","121.449783333333","24.9928716666667","6501300","土城區"
"236056","912-UM","2018/02/12 14:19:17","新北市土城區中央路四段268號","121.414701666667","24.956615","6501300","土城區"
"236044","913-UM","2018/02/12 14:19:23","新北市土城區明德路一段361-1號","121.456655","24.9776283333333","6501300","土城區"
"236060","915-UM","2018/02/12 14:19:20","新北市土城區金城路三段208號","121.47164","24.989765","6501300","土城區"
"236052","AAC-216","2018/02/12 14:19:23","新北市土城區中華路二段199號","121.438001666667","24.9741066666667","6501300","土城區"
"221032","280-BY","2018/02/12 14:19:19","新北市新店區安忠路205巷8號","121.509225","24.9546533333333","6501100","汐止區"
"220027","145-BY","2018/02/12 14:19:23","新北市板橋區公館街27號","121.46105","25.0153133333333","6500100","板橋區"
"220028","200-UY","2018/02/12 14:19:22","新北市板橋區大觀路二段3巷64號","121.449275","25.0034016666667","6500100","板橋區"
"220030","610-BX","2018/02/12 14:19:27","新北市板橋區滿平街84巷98號","121.426573333333","24.9867483333333","6500100","板橋區"
"220050","245-BX","2018/02/12 14:19:24","新北市板橋區莊敬路220巷1號","121.472676666667","25.0213366666667","6500100","板橋區"
"220004","276-BY","2018/02/12 14:19:15","新北市板橋區信義路209號","121.45941","24.9916783333333","6500100","板橋區"
"220020","277-BY","2018/02/12 14:19:11","新北市板橋區金門街372巷36號","121.427518333333","24.98492","6500100","板橋區"
"220019","283-VK","2018/02/12 14:19:16","新北市板橋區大豐街111號","121.461203333333","25.0011133333333","6500100","板橋區"
"220043","285-UM","2018/02/12 14:19:21","新北市板橋區吳鳳路74號","121.467265","25.03101","6500100","板橋區"
"220001","285-VK","2018/02/12 14:19:13","新北市板橋區富山街53巷3弄1號","121.477368333333","25.0202","6500100","板橋區"
"220031","286-VK","2018/02/12 14:19:18","新北市板橋區龍興街73巷9號","121.443403333333","25.0023216666667","6500100","板橋區"
"220029","287-VK","2018/02/12 14:19:20","新北市板橋區南雅東路29巷11號","121.453533333333","25.0055116666667","6500100","板橋區"
"220039","288-VK","2018/02/12 14:19:28","新北市板橋區長江路一段106巷13弄35號","121.461341666667","25.0297766666667","6500100","板橋區"
"220009","293-UM","2018/02/12 14:19:16","新北市板橋區中山路二段318巷20弄23號","121.48104","25.0188383333333","6500100","板橋區"
"220032","296-UM","2018/02/12 14:19:10","新北市板橋區溪崑二街66巷20號","121.427518333333","24.990885","6500100","板橋區"
"220023","303-R5","2018/02/12 14:19:15","新北市板橋區館前西路145號","121.456281666667","25.0079366666667","6500100","板橋區"
"220010","305-R5","2018/02/12 14:19:27","新北市板橋區三民路二段153巷34弄1號","121.481161666667","25.0141933333333","6500100","板橋區"
"220041","307-R5","2018/02/12 14:19:14","新北市板橋區光武街36巷40-3號","121.468656666667","25.0262616666667","6500100","板橋區"
"220047","317-R6","2018/02/12 14:19:11","新北市板橋區自由路51巷14弄4號","121.464823333333","25.0236483333333","6500100","板橋區"
"220012","486-VK","2018/02/12 14:19:19","新北市板橋區板新路82號","121.472808333333","25.0144816666667","6500100","板橋區"
"220038","487-VK","2018/02/12 14:19:11","新北市板橋區文化路二段39號","121.46904","25.02494","6500100","板橋區"
"220037","491-VK","2018/02/12 14:19:17","新北市板橋區雙十路二段239號","121.472775","25.0289266666667","6500100","板橋區"
"220104","560-BX","2018/02/12 14:19:14","新北市板橋區中正路433巷11號","121.453736666667","25.0233783333333","6500100","板橋區"
"220052","561-BX","2018/02/12 14:19:20","新北市板橋區介壽街22-1號","121.467691666667","25.02002","6500100","板橋區"
"220003","568-UM","2018/02/12 14:19:14","新北市板橋區新民街4巷21號","121.4654","25.0099966666667","6500100","板橋區"
"220011","609-BX","2018/02/12 14:19:11","新北市板橋區三民路二段202-17號","121.478895","25.0135316666667","6500100","板橋區"
"220017","630-UY","2018/02/12 14:19:13","新北市板橋區四川路一段102號","121.459521666667","25.00467","6500100","板橋區"
"220040","637-BX","2018/02/12 14:19:16","新北市板橋區文聖街208號","121.48033","25.02567","6500100","板橋區"
"220005","686-BX","2018/02/12 14:18:13","新北市板橋區國慶路186號","121.463095","24.9963083333333","6500100","板橋區"
"220025","687-BX","2018/02/12 14:19:29","新北市板橋區龍興街55號","121.44321","25.0010566666667","6500100","板橋區"
"220042","689-BX","2018/02/12 14:19:23","新北市板橋區文化路一段106號","121.464773333333","25.0181733333333","6500100","板橋區"
"220002","741-BX","2018/02/12 14:19:21","新北市板橋區實踐路181-2號","121.464403333333","25.0034666666667","6500100","板橋區"
"220014","829-TW","2018/02/12 14:19:18","新北市板橋區三民路二段正隆巷62號","121.4766","25.014325","6500100","板橋區"
"220045","830-TW","2018/02/12 14:19:23","新北市板橋區大同街50巷55號","121.47871","25.02636","6500100","板橋區"
"220022","895-R6","2018/02/12 14:19:13","新北市板橋區後菜園街54號","121.45607","25.01008","6500100","板橋區"
"220021","985-R7","2018/02/12 14:19:18","新北市板橋區中正路328號","121.454418333333","25.0214366666667","6500100","板橋區"
"220046","AAC-210","2018/02/12 14:19:14","新北市板橋區幸福路70巷20號","121.460461666667","25.0206266666667","6500100","板橋區"
"220018","AAC-253","2018/02/12 14:19:19","新北市板橋區忠孝路86號","121.461626666667","25.0020216666667","6500100","板橋區"
