"lineid","car","time","location","longitude","latitude","cityid","cityname"
"234036","336-UY","2018/02/12 14:51:55","新北市永和區福和路1號","121.526531666667","25.01008","6500400","永和區"
"234052","KEA-2590","2018/02/12 15:09:44","新北市永和區環河東路一段82號","121.519626666667","25.0164616666667","6500400","永和區"
"234078","839-RS","2018/02/12 15:09:36","新北市永和區秀朗路一段120號","121.517005","25.0036516666667","6500400","永和區"
"234012","847-RS","2018/02/12 15:09:38","新北市永和區保平路290號","121.508018333333","25.0044516666667","6500400","永和區"
"234040","862-TW","2018/02/12 15:09:45","新北市新店區薏仁坑路6號","121.500271666667","24.95803","6500400","永和區"
"234025","9371-KE","2018/02/12 15:09:41","新北市中和區中和路382號","121.510823333333","25.00232","6500400","永和區"
"248015","026-BX","2018/02/12 15:09:44","新北市五股區成泰路三段577巷82號","121.449643333333","25.1038216666667","6501500","五股區"
"248007","095-VK","2018/02/12 15:09:46","新北市五股區四維路183號","121.468073333333","25.0753916666667","6501500","五股區"
"248019","225-UY","2018/02/12 15:09:53","新北市五股區凌雲路三段23-3號","121.430035","25.1107166666667","6501500","五股區"
"248003","677-BX","2018/02/12 15:09:50","新北市五股區成泰路一段76號","121.435676666667","25.070275","6501500","五股區"
"248009","682-TV","2018/02/12 15:09:47","新北市五股區成泰路一段7巷11號","121.433055","25.0668333333333","6501500","五股區"
"243003","297-R6","2018/02/12 15:09:39","新北市新莊區中正路666號","121.420948333333","25.0288866666667","6501600","泰山區"
"243007","380-SR","2018/02/12 15:09:50","新北市泰山區明志路一段398號","121.43077","25.0572033333333","6501600","泰山區"
"243006","421-VK","2018/02/12 15:09:48","新北市泰山區明志路一段24號","121.433621666667","25.0654883333333","6501600","泰山區"
"243004","539-UM","2018/02/12 15:09:44","新北市泰山區全興路13號","121.432295","25.05898","6501600","泰山區"
"243001","KEA-2216","2018/02/12 15:09:32","新北市泰山區楓江路16巷13號","121.43401","25.0617783333333","6501600","泰山區"
"243005","646-TV","2018/02/12 15:09:45","新北市泰山區民權街2號","121.42767","25.050975","6501600","泰山區"
"243008","680-BX","2018/02/12 15:09:49","新北市泰山區明志路三段397號","121.421408333333","25.034265","6501600","泰山區"
"231002","002-UM","2018/02/12 15:09:46","新北市新店區民權路72號","121.538101666667","24.983","6500600","新店區"
"231025","0293-UT","2018/02/12 15:09:44","新北市新店區自立街18號","121.538785","24.978195","6500600","新店區"
"231028","046-UY","2018/02/12 15:09:33","新北市新店區僑愛五路19號","121.499333333333","24.9440866666667","6500600","新店區"
"231030","047-UY","2018/02/12 15:09:38","新北市新店區安民街348號","121.516871666667","24.97554","6500600","新店區"
"231029","106-UY","2018/02/12 15:09:38","新北市新店區錦秀路5號","121.479343333333","24.94493","6500600","新店區"
"231018","107-UY","2018/02/12 15:09:45","新北市新店區中央六街67號","121.527438333333","24.97617","6500600","新店區"
"231011","108-UY","2018/02/12 15:09:47","新北市新店區民生路164-1號","121.527871666667","24.9807516666667","6500600","新店區"
"231023","110-UY","2018/02/12 15:09:38","新北市新店區檳榔路107號","121.544678333333","24.9615466666667","6500600","新店區"
"231019","187-VK","2018/02/12 15:09:37","新北市新店區花園二路三段19號","121.556566666667","24.9313866666667","6500600","新店區"
"231026","256-BX","2018/02/12 15:09:42","新北市新店區博愛街13巷24號","121.540163333333","24.9739183333333","6500600","新店區"
"231027","3712-VJ","2018/02/12 15:09:47","新北市新店區北新路二段228巷13號","121.543553333333","24.9772366666667","6500600","新店區"
"231024","4716-K9","2018/02/12 15:09:35","新北市新店區力行路96號","121.53819","24.9666683333333","6500600","新店區"
"231038","4715-K9","2018/02/12 15:09:32","新北市新店區薏仁坑路自強巷1號","121.49705","24.9577983333333","6500600","新店區"
"231035","515-UM","2018/02/12 15:09:48","新北市新店區新和街36號","121.519265","24.984895","6500600","新店區"
"231003","616-UM","2018/02/12 15:09:35","新北市新店區寶橋路156-2號","121.548615","24.9770066666667","6500600","新店區"
"231006","617-UM","2018/02/12 15:09:41","新北市新店區新坡一街18巷5弄23號","121.55077","24.961865","6500600","新店區"
"231001","619-UM","2018/02/12 15:09:48","新北市新店區中正路175號","121.540905","24.9721116666667","6500600","新店區"
"231034","645-TV","2018/02/12 15:09:44","新北市新店區玫瑰路4-1號","121.49359","24.9513766666667","6500600","新店區"
"231039","718-UY","2018/02/12 15:09:43","新北市新店區寶慶街44號","121.542745","24.98671","6500600","新店區"
"231013","719-UM","2018/02/12 15:09:37","新北市新店區北新路二段97巷9弄1號","121.542256666667","24.9740083333333","6500600","新店區"
"231036","719-UY","2018/02/12 15:09:40","新北市新店區安祥路106巷49號","121.475783333333","24.96093","6500600","新店區"
"231031","720-UM","2018/02/12 15:09:47","新北市新店區安泰路93-4號","121.486121666667","24.9448266666667","6500600","新店區"
"231005","897-TW","2018/02/12 15:09:43","新北市新店區寶慶街72號","121.54167","24.9867283333333","6500600","新店區"
"231004","899-TW","2018/02/12 15:09:51","新北市新店區建國路78號","121.540615","24.9764733333333","6500600","新店區"
"231037","AKT-0513","2018/02/12 15:09:38","新北市新店區柴埕路60巷17號","121.507995","24.96562","6500600","新店區"
"241011","013-R5","2018/02/12 15:09:47","新北市三重區環河南路35號","121.503165","25.0611016666667","6500200","三重區"
"241013","270-UM","2018/02/12 15:09:31","新北市三重區重新路四段121號","121.484813333333","25.0525583333333","6500200","三重區"
"235030","003-UY","2018/02/12 15:09:37","新北市中和區廣福路2號","121.506041666667","25.0033666666667","6500300","中和區"
"235027","006-UY","2018/02/12 15:09:45","新北市中和區連城路231號","121.494006666667","24.9972233333333","6500300","中和區"
"235020","096-UM","2018/02/12 15:09:31","新北市板橋區漢生東路342號","121.471876666667","25.0074683333333","6500300","中和區"
"235004","150-BY","2018/02/12 15:09:31","新北市中和區景新街447-1號","121.513123333333","24.9887016666667","6500300","中和區"
"235002","185-VK","2018/02/12 15:09:36","新北市中和區自立路117巷4弄5號","121.522796666667","24.994315","6500300","中和區"
"235036","301-VK","2018/02/12 15:09:45","新北市中和區興南路二段399巷35-2號","121.501216666667","24.9787883333333","6500300","中和區"
"235007","352-BY","2018/02/12 15:09:51","新北市中和區興南路二段159巷12號","121.505175","24.9831216666667","6500300","中和區"
"235032","377-QA","2018/02/12 15:09:46","新北市中和區福美路252號","121.498436666667","25.0051533333333","6500300","中和區"
"235035","269-TV","2018/02/12 15:09:49","新北市中和區建康路6號","121.486261666667","25.0001483333333","6500300","中和區"
"235014","4979-A6","2018/02/12 15:09:36","新北市中和區安樂路62號","121.512245","24.9931666666667","6500300","中和區"
"235033","4980-A6","2018/02/12 15:09:33","新北市中和區南山路41號","121.502071666667","24.998635","6500300","中和區"
"235006","551-UM","2018/02/12 15:09:53","新北市中和區保健路2巷23號","121.507206666667","24.99747","6500300","中和區"
"235034","558-UM","2018/02/12 15:09:37","新北市中和區連勝街47-1號","121.498331666667","24.997305","6500300","中和區"
"235018","640-BX","2018/02/12 15:09:44","新北市中和區莒光路3巷1號","121.471898333333","25.00613","6500300","中和區"
"235024","647-TV","2018/02/12 15:09:46","新北市中和區新生街30巷23號","121.482255","25.0037583333333","6500300","中和區"
"235010","733-UM","2018/02/12 15:09:52","新北市中和區忠孝街112號","121.512176666667","24.9854566666667","6500300","中和區"
"235021","801-TS","2018/02/12 15:09:46","新北市中和區中正路808-1號","121.484945","25.0026","6500300","中和區"
"235012","896-TW","2018/02/12 15:09:37","新北市中和區興南路一段91-2號","121.509623333333","24.98869","6500300","中和區"
"220016","013-TV","2018/02/12 15:09:48","新北市板橋區中山路二段318巷2弄2號","121.480361666667","25.0192716666667","6500100","板橋區"
"220013","072-UY","2018/02/12 15:09:53","新北市板橋區長安街23號","121.466758333333","25.008755","6500100","板橋區"
"220105","075-UY","2018/02/12 15:09:35","新北市板橋區文聖街11巷26號","121.476186666667","25.033025","6500100","板橋區"
"247007","341-TH","2018/02/12 15:09:48","新北市五股區中興路二段182巷15弄13-5號","121.4575","25.0809733333333","6501400","蘆洲區"
"247013","007-UY","2018/02/12 15:09:41","新北市蘆洲區中央路30號","121.473523333333","25.0829233333333","6501400","蘆洲區"
"247023","002-UY","2018/02/12 15:09:47","新北市蘆洲區光華路164號","121.465403333333","25.08217","6501400","蘆洲區"
"253001","4710-YM","2018/02/12 15:09:14","新北市石門區崁子腳90-3號","121.535421666667","25.27168","6502200","石門區"
"253003","6232-TK","2018/02/12 15:09:33","新北市石門區小坑9號","121.594483333333","25.289195","6502200","石門區"
"253002","637-UY","2018/02/12 15:09:49","新北市石門區七股12-1號","121.545878333333","25.2685166666667","6502200","石門區"
"253004","8270-PC","2018/02/12 15:09:48","新北市石門區茂林社區227號","121.591955","25.2705016666667","6502200","石門區"
"208002","742-BX","2018/02/12 15:09:48","新北市金山區三民街34號","121.634936666667","25.2235916666667","6502700","金山區"
"208001","761-BX","2018/02/12 15:09:38","新北市金山區南勢41-1號","121.629133333333","25.21991","6502700","金山區"
"207001","662-BX","2018/02/12 15:09:32","新北市萬里區雙興里麗水路8-1號","121.649765","25.1874833333333","6502800","萬里區"
"237004","KEA-2597","2018/02/12 15:09:47","新北市三峽區金敏10號","121.387993333333","24.8727666666667","6500900","三峽區"
"237007","153-BY","2018/02/12 15:09:36","新北市三峽區二鬮路136巷117號","121.35587","24.91035","6500900","三峽區"
"237006","5529-G3","2018/02/12 15:09:41","新北市三峽區隆恩街245號","121.357645","24.940915","6500900","三峽區"
"236064","105-UM","2018/02/12 15:09:41","新北市土城區中華路一段11號","121.446835","24.989495","6501300","土城區"
"236040","107-UM","2018/02/12 15:09:30","新北市土城區中華路二段2號","121.439033333333","24.9798233333333","6501300","土城區"
"236074","166-UM","2018/02/12 15:09:48","新北市土城區中央路四段125巷2弄1號","121.41663","24.9571966666667","6501300","土城區"
"236024","269-VK","2018/02/12 15:09:44","新北市土城區中央路二段177巷7號","121.44318","24.9762266666667","6501300","土城區"
"236012","270-VK","2018/02/12 15:09:46","新北市土城區學府路一段37巷30號","121.457356666667","24.9875616666667","6501300","土城區"
"236032","271-VK","2018/02/12 15:09:37","新北市土城區中正路65號","121.444515","24.975725","6501300","土城區"
"236016","401-BY","2018/02/12 15:09:45","新北市土城區延峰街36巷8號","121.469465","24.9845316666667","6501300","土城區"
"236056","912-UM","2018/02/12 15:09:37","新北市土城區城林路6巷80號","121.438433333333","24.9795533333333","6501300","土城區"
"236044","913-UM","2018/02/12 15:09:43","新北市土城區員林街1號","121.442461666667","24.97823","6501300","土城區"
"236060","915-UM","2018/02/12 15:09:40","新北市土城區延和路105巷1弄14號","121.46684","24.9902133333333","6501300","土城區"
"236052","AAC-216","2018/02/12 15:09:43","新北市土城區學府路一段177號","121.45236","24.9852333333333","6501300","土城區"
"238002","755-BX","2018/02/12 15:09:53","新北市樹林區新興街3號","121.40025","24.973955","6500700","樹林區"
"238010","601-UM","2018/02/12 15:09:41","新北市樹林區大安路339巷2號","121.416775","24.9910283333333","6500700","樹林區"
"238019","599-UM","2018/02/12 15:09:41","新北市樹林區太平路248號","121.418265","24.973465","6500700","樹林區"
"238005","571-TV","2018/02/12 15:09:32","新北市板橋區大觀路三段59巷57號","121.43521","24.9944183333333","6500700","樹林區"
"238011","5061-A6","2018/02/12 15:09:52","新北市樹林區八德街247巷24-1號","121.421191666667","24.9740466666667","6500700","樹林區"
"238009","KEA-2213","2018/02/12 15:09:38","新北市樹林區國凱街120-2號","121.422596666667","24.9800783333333","6500700","樹林區"
"238003","KEA-2539","2018/02/12 15:09:37","新北市樹林區西圳街一段165巷20弄11號","121.395681666667","24.9601583333333","6500700","樹林區"
"238004","283-BY","2018/02/12 15:09:54","新北市樹林區東興街2號","121.408916666667","24.98015","6500700","樹林區"
"238007","268-VK","2018/02/12 15:09:36","新北市樹林區八德街226-7號","121.414733333333","24.971295","6500700","樹林區"
"238013","172-UY","2018/02/12 15:09:48","新北市樹林區東順街123-3號","121.406456666667","24.97498","6500700","樹林區"
"238003","169-UY","2018/02/12 15:09:40","新北市樹林區東興街3號","121.409975","24.9804933333333","6500700","樹林區"
"221032","280-BY","2018/02/12 15:09:39","新北市汐止區龍安路34號","121.654825","25.0641983333333","6501100","汐止區"
"220027","145-BY","2018/02/12 15:09:43","新北市板橋區建國街117號","121.460555","25.0175933333333","6500100","板橋區"
"220030","610-BX","2018/02/12 15:09:46","新北市板橋區篤行路二段110號","121.431338333333","24.9910633333333","6500100","板橋區"
"220050","245-BX","2018/02/12 15:09:46","新北市板橋區縣民大道三段103巷12號","121.475946666667","25.0229283333333","6500100","板橋區"
"220034","256-TC","2018/02/12 15:09:35","新北市板橋區國光路30號","121.457125","25.017495","6500100","板橋區"
"220019","283-VK","2018/02/12 15:09:36","新北市板橋區和平路174巷47號","121.465576666667","24.9936716666667","6500100","板橋區"
"220043","285-UM","2018/02/12 15:09:35","新北市板橋區文德路3號","121.462866666667","25.0244233333333","6500100","板橋區"
"220001","285-VK","2018/02/12 15:09:37","新北市板橋區永豐街155號","121.475303333333","25.0202216666667","6500100","板橋區"
"220031","286-VK","2018/02/12 15:09:38","新北市板橋區僑中二街92巷34號","121.444553333333","25.0091666666667","6500100","板橋區"
"220029","287-VK","2018/02/12 15:09:40","新北市板橋區龍興街103巷1號","121.444475","25.0032966666667","6500100","板橋區"
"220039","288-VK","2018/02/12 15:09:48","新北市板橋區幸福路32巷65號","121.460416666667","25.022275","6500100","板橋區"
"220009","293-UM","2018/02/12 15:09:36","新北市板橋區民生路二段107號","121.471146666667","25.0178366666667","6500100","板橋區"
"220032","296-UM","2018/02/12 15:09:50","新北市板橋區滿平街2巷27號","121.425265","24.989355","6500100","板橋區"
"220023","303-R5","2018/02/12 15:09:35","新北市板橋區金華街21巷3號","121.455805","25.020425","6500100","板橋區"
"220010","305-R5","2018/02/12 15:09:47","新北市板橋區光復街110號","121.48384","25.0181866666667","6500100","板橋區"
"220041","307-R5","2018/02/12 15:09:34","新北市板橋區新海路394巷5號","121.459151666667","25.0268133333333","6500100","板橋區"
"220047","317-R6","2018/02/12 15:09:51","新北市板橋區龍泉街55巷30號","121.457651666667","25.025015","6500100","板橋區"
"220012","486-VK","2018/02/12 15:09:41","新北市板橋區館前東路152號","121.464383333333","25.0077483333333","6500100","板橋區"
"220038","487-VK","2018/02/12 15:09:51","新北市板橋區龍泉街108巷13號","121.456191666667","25.02429","6500100","板橋區"
"220037","491-VK","2018/02/12 15:09:37","新北市板橋區大同街60號","121.479188333333","25.0278333333333","6500100","板橋區"
"220052","561-BX","2018/02/12 15:09:40","新北市板橋區自由路40號","121.465651666667","25.02321","6500100","板橋區"
"220003","568-UM","2018/02/12 15:09:50","新北市板橋區忠孝路48巷11弄6號","121.461633333333","24.9997933333333","6500100","板橋區"
"220011","609-BX","2018/02/12 15:09:51","新北市板橋區三民路一段149號","121.479291666667","25.0196516666667","6500100","板橋區"
"220040","637-BX","2018/02/12 15:09:37","新北市板橋區民治街137號","121.47759","25.03074","6500100","板橋區"
"220025","687-BX","2018/02/12 15:09:49","新北市板橋區僑中一街150號","121.444773333333","25.012125","6500100","板橋區"
"220042","689-BX","2018/02/12 15:09:42","新北市板橋區長江路二段223號","121.468218333333","25.0325266666667","6500100","板橋區"
"220002","741-BX","2018/02/12 15:09:41","新北市板橋區忠孝路忠義巷7號","121.465528333333","25.0036266666667","6500100","板橋區"
"220005","806-UM","2018/02/12 14:58:34","新北市板橋區華東街1-10號","121.448646666667","24.9949066666667","6500100","板橋區"
"220014","829-TW","2018/02/12 15:09:38","新北市板橋區長安街210號","121.474493333333","25.0119816666667","6500100","板橋區"
"220022","895-R6","2018/02/12 15:09:36","新北市板橋區明德街6號","121.45983","25.0102216666667","6500100","板橋區"
"220046","AAC-210","2018/02/12 15:09:34","新北市板橋區光正街18巷1號","121.462451666667","25.0172633333333","6500100","板橋區"
"220018","AAC-253","2018/02/12 15:09:39","新北市板橋區成都街69號","121.462378333333","25.0050516666667","6500100","板橋區"
