"lineid","car","time","location","longitude","latitude","cityid","cityname"
"234036","336-UY","2018/02/12 15:19:46","新北市永和區環河東路二段92號","121.524541666667","25.0105516666667","6500400","永和區"
"234052","KEA-2590","2018/02/12 15:19:44","新北市板橋區萬板路818巷17-1號","121.483935","25.0267533333333","6500400","永和區"
"234012","847-RS","2018/02/12 15:19:38","新北市中和區勝利路2號","121.498501666667","25.0082966666667","6500400","永和區"
"234025","9371-KE","2018/02/12 15:19:41","新北市永和區雙和街52巷1-1號","121.509093333333","25.0032016666667","6500400","永和區"
"248015","026-BX","2018/02/12 15:19:44","新北市五股區成泰路三段577巷80弄74號","121.448591666667","25.1046216666667","6501500","五股區"
"248007","095-VK","2018/02/12 15:19:46","新北市五股區四維路153號","121.467563333333","25.0745283333333","6501500","五股區"
"248019","225-UY","2018/02/12 15:19:32","新北市五股區凌雲路三段24巷21號","121.433845","25.1067816666667","6501500","五股區"
"248003","677-BX","2018/02/12 15:19:50","新北市五股區成泰路一段239號","121.436856666667","25.080845","6501500","五股區"
"243003","297-R6","2018/02/12 15:19:39","新北市新莊區壽山路160巷21號","121.417446666667","25.03192","6501600","泰山區"
"243007","380-SR","2018/02/12 15:19:50","新北市泰山區仁德路52號","121.434066666667","25.0569083333333","6501600","泰山區"
"243006","421-VK","2018/02/12 15:19:28","新北市泰山區泰林路二段328號","121.430208333333","25.0631133333333","6501600","泰山區"
"243004","539-UM","2018/02/12 15:19:44","新北市泰山區福興一街65號","121.432735","25.0581216666667","6501600","泰山區"
"243001","KEA-2216","2018/02/12 15:19:32","新北市泰山區泰林路二段116巷4弄1號","121.435265","25.059565","6501600","泰山區"
"243008","680-BX","2018/02/12 15:19:30","新北市泰山區明志路三段204巷2號","121.423886666667","25.038425","6501600","泰山區"
"231025","0293-UT","2018/02/12 15:19:44","新北市新店區博愛街13巷24號","121.540208333333","24.9739066666667","6500600","新店區"
"231028","046-UY","2018/02/12 15:19:33","新北市新店區僑信路74巷50號","121.498533333333","24.9477716666667","6500600","新店區"
"231030","047-UY","2018/02/12 15:19:38","新北市新店區安民街339號","121.517006666667","24.9749316666667","6500600","新店區"
"231029","106-UY","2018/02/12 15:19:38","新北市新店區安康路三段716號","121.473961666667","24.9420016666667","6500600","新店區"
"231018","107-UY","2018/02/12 15:19:46","新北市新店區中央七街35號","121.529236666667","24.97558","6500600","新店區"
"231023","110-UY","2018/02/12 15:19:38","新北市新店區北新路一段64巷39弄14號","121.542618333333","24.965815","6500600","新店區"
"231019","187-VK","2018/02/12 15:19:37","新北市新店區金興路1號","121.548678333333","24.9296416666667","6500600","新店區"
"231013","188-VK","2018/02/12 15:19:50","新北市新店區北新路二段97巷9弄31號","121.54225","24.9734983333333","6500600","新店區"
"231026","256-BX","2018/02/12 15:19:23","新北市新店區建安街15巷1號","121.539758333333","24.9754266666667","6500600","新店區"
"231027","3712-VJ","2018/02/12 15:19:47","新北市新店區中正路76巷11弄11號","121.54392","24.9713316666667","6500600","新店區"
"231024","4716-K9","2018/02/12 15:19:35","新北市新店區中華路42巷38號","121.541275","24.9692316666667","6500600","新店區"
"231035","515-UM","2018/02/12 15:19:48","新北市新店區永安街56巷6-4號","121.518365","24.9862083333333","6500600","新店區"
"231003","616-UM","2018/02/12 15:19:35","新北市新店區寶高路120巷1-1號","121.554586666667","24.9759483333333","6500600","新店區"
"231006","617-UM","2018/02/12 15:19:41","新北市新店區新坡一街101號","121.548093333333","24.963045","6500600","新店區"
"231001","619-UM","2018/02/12 15:19:48","新北市新店區北新路一段40號","121.540918333333","24.9660433333333","6500600","新店區"
"231034","645-TV","2018/02/12 15:19:44","新北市新店區玫瑰路38號","121.495886666667","24.9499366666667","6500600","新店區"
"231036","719-UY","2018/02/12 15:19:40","新北市新店區安祥路102巷42弄45號","121.485591666667","24.963365","6500600","新店區"
"231031","720-UM","2018/02/12 15:19:47","新北市新店區和成街19巷30號","121.487878333333","24.94603","6500600","新店區"
"231005","897-TW","2018/02/12 15:19:43","新北市新店區北新路三段196號","121.541428333333","24.98339","6500600","新店區"
"231004","899-TW","2018/02/12 15:19:30","新北市新店區博愛街13巷24號","121.540263333333","24.9740516666667","6500600","新店區"
"231037","AKT-0513","2018/02/12 15:19:38","新北市新店區安民街325號","121.517425","24.974565","6500600","新店區"
"241011","013-R5","2018/02/12 15:19:27","新北市三重區龍濱路285號","121.501071666667","25.07343","6500200","三重區"
"241013","270-UM","2018/02/12 15:19:31","新北市三重區重新路四段121號","121.484803333333","25.0525233333333","6500200","三重區"
"235027","006-UY","2018/02/12 15:19:45","新北市中和區連城路184號","121.492945","24.9969066666667","6500300","中和區"
"235004","150-BY","2018/02/12 15:19:11","新北市中和區保健路123號","121.512323333333","24.9959516666667","6500300","中和區"
"235002","185-VK","2018/02/12 15:19:33","新北市永和區民族街81巷62號","121.520425","24.99636","6500300","中和區"
"235035","269-TV","2018/02/12 15:19:49","新北市中和區中正路828號","121.484901666667","25.0037016666667","6500300","中和區"
"235014","4979-A6","2018/02/12 15:19:31","新北市中和區景平路211號","121.510848333333","24.9924433333333","6500300","中和區"
"235033","4980-A6","2018/02/12 15:19:33","新北市中和區景新街64巷11弄1號","121.503965","24.9985216666667","6500300","中和區"
"235034","558-UM","2018/02/12 15:19:37","新北市中和區景平路624號","121.500495","24.9974966666667","6500300","中和區"
"235010","733-UM","2018/02/12 15:19:32","新北市新店區安德街148巷31號","121.506538333333","24.96091","6500300","中和區"
"235012","896-TW","2018/02/12 15:19:37","新北市中和區景新街368號","121.512125","24.9903916666667","6500300","中和區"
"247007","341-TH","2018/02/12 15:19:48","新北市五股區凌雲路三段17-2號","121.429568333333","25.1086133333333","6501400","蘆洲區"
"253001","4710-YM","2018/02/12 15:19:34","新北市石門區崁子腳34號","121.536541666667","25.2788583333333","6502200","石門區"
"253003","6232-TK","2018/02/12 15:19:33","新北市石門區小坑9號","121.594431666667","25.288385","6502200","石門區"
"253002","637-UY","2018/02/12 15:18:22","新北市石門區楓林47號","121.542793333333","25.2785433333333","6502200","石門區"
"253004","8270-PC","2018/02/12 15:19:48","新北市石門區小坑26-1號","121.595883333333","25.2754033333333","6502200","石門區"
"208002","742-BX","2018/02/12 15:19:48","新北市金山區中華路370號","121.63333","25.2245933333333","6502700","金山區"
"207001","662-BX","2018/02/12 15:19:32","新北市萬里區磺潭里員潭路16-3號","121.646215","25.1960383333333","6502800","萬里區"
"237004","KEA-2597","2018/02/12 15:19:47","新北市三峽區添福15-32號","121.372591666667","24.9046933333333","6500900","三峽區"
"237007","153-BY","2018/02/12 15:19:36","新北市三峽區二鬮路112號","121.360005","24.9087766666667","6500900","三峽區"
"236064","105-UM","2018/02/12 15:19:37","新北市土城區裕民路185巷36弄10號","121.454388333333","24.984575","6501300","土城區"
"236040","107-UM","2018/02/12 15:19:30","新北市土城區學府路一段227號","121.451321666667","24.9840766666667","6501300","土城區"
"236074","166-UM","2018/02/12 15:19:48","新北市土城區中州路26-3號","121.41445","24.9575666666667","6501300","土城區"
"236024","269-VK","2018/02/12 15:19:44","新北市土城區中華路二段2號","121.438855","24.9799266666667","6501300","土城區"
"236012","270-VK","2018/02/12 15:19:46","新北市土城區學府路一段19-1號","121.45855","24.988255","6501300","土城區"
"236032","271-VK","2018/02/12 15:19:37","新北市土城區學士路123號","121.446515","24.97588","6501300","土城區"
"236016","401-BY","2018/02/12 15:19:46","新北市土城區峰廷街18號","121.468778333333","24.98716","6501300","土城區"
"236056","912-UM","2018/02/12 15:19:48","新北市土城區金城路二段8-1號","121.448805","24.976935","6501300","土城區"
"236044","913-UM","2018/02/12 15:19:43","新北市土城區中央路二段98號","121.442183333333","24.9782683333333","6501300","土城區"
"238002","755-BX","2018/02/12 15:19:33","新北市樹林區復興路196號","121.420013333333","24.9910516666667","6500700","樹林區"
"238010","601-UM","2018/02/12 15:19:41","新北市樹林區中正路290號","121.414288333333","25.0105666666667","6500700","樹林區"
"238006","599-UM","2018/02/12 15:19:41","新北市樹林區八德街99號","121.420246666667","24.98101","6500700","樹林區"
"238005","571-TV","2018/02/12 15:19:32","新北市樹林區樹新路217號","121.431026666667","25.0003783333333","6500700","樹林區"
"238011","5061-A6","2018/02/12 15:19:32","新北市樹林區博愛一街29巷64號","121.426008333333","24.9916216666667","6500700","樹林區"
"238009","KEA-2213","2018/02/12 15:19:38","新北市樹林區中華路37巷12號","121.424065","24.9830116666667","6500700","樹林區"
"238003","KEA-2539","2018/02/12 15:19:37","新北市樹林區西圳街一段165巷20弄11號","121.395648333333","24.960165","6500700","樹林區"
"238004","283-BY","2018/02/12 15:19:34","新北市樹林區保安街二段25號","121.416546666667","24.9997533333333","6500700","樹林區"
"238007","268-VK","2018/02/12 15:19:36","新北市板橋區大觀路三段131-1號","121.435178333333","24.992475","6500700","樹林區"
"238013","172-UY","2018/02/12 15:19:48","新北市樹林區味王街46巷36號","121.402211666667","24.9737166666667","6500700","樹林區"
"238003","169-UY","2018/02/12 15:19:40","新北市樹林區八德街1號","121.41757","24.9849966666667","6500700","樹林區"
"221032","280-BY","2018/02/12 15:19:39","新北市汐止區大同路二段273號","121.652571666667","25.0679883333333","6501100","汐止區"
"220050","245-BX","2018/02/12 15:19:44","新北市板橋區萬板路130號","121.475108333333","25.0234266666667","6500100","板橋區"
"220034","256-TC","2018/02/12 15:19:35","新北市板橋區南雅西路二段2-1號","121.453208333333","25.008815","6500100","板橋區"
"220031","286-VK","2018/02/12 15:19:18","新北市板橋區僑中二街104巷27-2號","121.444933333333","25.00807","6500100","板橋區"
"220009","293-UM","2018/02/12 15:19:36","新北市板橋區中山路一段143號","121.464743333333","25.011645","6500100","板橋區"
"220041","307-R5","2018/02/12 15:19:35","新北市板橋區裕民街128巷1號","121.458816666667","25.0275333333333","6500100","板橋區"
"220047","317-R6","2018/02/12 15:19:31","新北市板橋區新海路72巷26號","121.462483333333","25.02239","6500100","板橋區"
"220012","486-VK","2018/02/12 15:19:45","新北市板橋區漢生東路193巷7-1號","121.470316666667","25.0118783333333","6500100","板橋區"
"220038","487-VK","2018/02/12 15:19:31","新北市板橋區龍泉街56-1號","121.45708","25.0260233333333","6500100","板橋區"
"220037","491-VK","2018/02/12 15:19:37","新北市板橋區懷德街56號","121.4774","25.03238","6500100","板橋區"
"220052","561-BX","2018/02/12 15:19:40","新北市板橋區英士路58巷8號","121.460726666667","25.025125","6500100","板橋區"
"220003","568-UM","2018/02/12 15:19:37","新北市板橋區國慶路149巷37弄1號","121.460791666667","24.9979716666667","6500100","板橋區"
"220011","609-BX","2018/02/12 15:19:34","新北市板橋區三民路一段136號","121.479218333333","25.0206566666667","6500100","板橋區"
"220025","687-BX","2018/02/12 15:19:29","新北市板橋區僑中一街124巷18弄1號","121.44621","25.0138333333333","6500100","板橋區"
"220042","689-BX","2018/02/12 15:19:42","新北市板橋區長江路三段143號","121.475868333333","25.0347733333333","6500100","板橋區"
"220005","806-UM","2018/02/12 14:58:34","新北市板橋區華東街1-10號","121.448646666667","24.9949066666667","6500100","板橋區"
"220014","829-TW","2018/02/12 15:19:38","新北市板橋區長安街204號","121.474601666667","25.011745","6500100","板橋區"
"220022","895-R6","2018/02/12 15:19:42","新北市板橋區館前西路86號","121.45757","25.0071216666667","6500100","板橋區"
"220046","AAC-210","2018/02/12 15:19:34","新北市板橋區光正街18巷9號","121.46266","25.0175933333333","6500100","板橋區"
"220018","AAC-253","2018/02/12 15:19:39","新北市板橋區四川路二段47巷4弄17號","121.453433333333","24.9943533333333","6500100","板橋區"
