"lineid","car","time","location","longitude","latitude","cityid","cityname"
"234026","9371-KE","2018/02/12 17:39:31","新北市永和區永和路一段151巷12號","121.513911666667","25.00945","6500400","永和區"
"249005","172-UM","2018/02/12 17:39:44","新北市八里區荖阡坑路34號","121.402725","25.129545","6502300","八里區"
"249001","173-UM","2018/02/12 17:39:41","新北市八里區龍米路二段181號","121.434423333333","25.1581133333333","6502300","八里區"
"249004","303-UY","2018/02/12 17:39:44","新北市八里區埤頭一街148號","121.414333333333","25.15796","6502300","八里區"
"249002","305-UY","2018/02/12 17:39:42","新北市八里區頂寮二街113-16號","121.448191666667","25.1264","6502300","八里區"
"249003","593-UM","2018/02/12 17:39:44","新北市八里區中山路二段227號","121.403426666667","25.1492683333333","6502300","八里區"
"248006","077-UY","2018/02/12 17:39:42","新北市五股區中興路二段83巷26-6號","121.459993333333","25.0750433333333","6501500","五股區"
"232011","375-UM","2018/02/12 17:39:40","新北市坪林區北宜路八段349號","121.710551666667","24.933585","6502000","坪林區"
"244013","069-UM","2018/02/12 17:39:38","新北市林口區中正路555號","121.38115","25.076845","6501700","林口區"
"244007","080-UY","2018/02/12 17:39:33","新北市林口區文化一路二段305號","121.385806666667","25.08588","6501700","林口區"
"244019","402-UM","2018/02/12 17:39:34","新北市林口區文化一路一段135巷30號","121.372975","25.0726633333333","6501700","林口區"
"244023","483-VK","2018/02/12 17:39:44","新北市林口區東明一街100號","121.390891666667","25.07111","6501700","林口區"
"244017","485-VK","2018/02/12 17:39:33","新北市林口區忠孝路407號","121.370406666667","25.07061","6501700","林口區"
"244009","656-BX","2018/02/12 17:39:26","新北市林口區文化一路二段285-1號","121.385161666667","25.084905","6501700","林口區"
"244011","701-TV","2018/02/12 17:39:35","新北市林口區中正路394號","121.385136666667","25.077725","6501700","林口區"
"244025","837-TS","2018/02/12 17:39:42","新北市林口區忠孝路308巷21號","121.367178333333","25.0721066666667","6501700","林口區"
"244021","838-TS","2018/02/12 17:39:35","新北市林口區粉寮路一段77-2號","121.3972","25.0796583333333","6501700","林口區"
"222003","016-RS","2018/02/12 17:39:29","新北市深坑區深南路88巷1號","121.621345","25.010405","6501800","深坑區"
"222003","436-BY","2018/02/12 17:39:30","新北市深坑區深南路51-1號","121.62142","25.0095116666667","6501800","深坑區"
"231046","278-BY","2018/02/12 17:39:44","新北市新店區直潭路92號","121.530913333333","24.93761","6500600","新店區"
"241001","091-VK","2018/02/12 17:39:35","新北市三重區仁愛街245巷27號","121.494456666667","25.0785166666667","6500200","三重區"
"241016","265-UM","2018/02/12 17:39:41","新北市三重區正義北路19號","121.497551666667","25.0633533333333","6500200","三重區"
"241007","478-VK","2018/02/12 17:39:30","新北市三重區三和路四段181巷241號","121.48786","25.0805233333333","6500200","三重區"
"241001","547-UM","2018/02/12 17:39:41","新北市三重區仁愛街247號","121.493495","25.07791","6500200","三重區"
"241024","743-BX","2018/02/12 17:39:36","新北市三重區中正北路193巷9號","121.477171666667","25.070135","6500200","三重區"
"241003","887-TS","2018/02/12 17:39:36","新北市三重區富福街61號","121.492071666667","25.084545","6500200","三重區"
"241033","AAC-255","2018/02/12 17:39:42","新北市三重區光復路一段49號","121.47225","25.04881","6500200","三重區"
"235046","733-UM","2018/02/12 17:25:42","新北市中和區員山路36巷13號","121.484131666667","24.99082","6500300","中和區"
"247022","893-R6","2018/02/12 17:39:30","新北市蘆洲區民族路546號","121.467823333333","25.089125","6501400","蘆洲區"
"247012","546-UM","2018/02/12 17:39:42","新北市蘆洲區民權路30號","121.47635","25.0861583333333","6501400","蘆洲區"
"247020","500-BY","2018/02/12 17:39:35","新北市蘆洲區民族路355號","121.47186","25.0916866666667","6501400","蘆洲區"
"247008","341-TH","2018/02/12 17:39:28","新北市蘆洲區民生街93號","121.473755","25.0782333333333","6501400","蘆洲區"
"247010","339-TH","2018/02/12 17:39:33","新北市蘆洲區中山一路74巷3號","121.478676666667","25.0811266666667","6501400","蘆洲區"
"247002","337-TH","2018/02/12 17:39:40","新北市蘆洲區永平街30號","121.458913333333","25.0910116666667","6501400","蘆洲區"
"247004","336-TH","2018/02/12 17:39:37","新北市蘆洲區長安街233巷28號","121.458305","25.082425","6501400","蘆洲區"
"247004","335-TH","2018/02/12 17:39:27","新北市蘆洲區中原路12巷24號","121.460768333333","25.083955","6501400","蘆洲區"
"247006","056-VK","2018/02/12 17:39:36","新北市蘆洲區長安街22巷38號","121.46497","25.0801633333333","6501400","蘆洲區"
"247016","053-VK","2018/02/12 17:39:45","新北市蘆洲區光華路46巷23號","121.468198333333","25.083725","6501400","蘆洲區"
"247024","002-UY","2018/02/12 17:39:48","新北市蘆洲區長興路258號","121.46048","25.0878633333333","6501400","蘆洲區"
"247018","001-UY","2018/02/12 17:39:30","新北市蘆洲區水湳街13號","121.47259","25.088495","6501400","蘆洲區"
"228003","097-TW","2018/02/12 17:39:37","新北市貢寮區仁理村仁和路148號","121.923136666667","25.0516883333333","6502600","貢寮區"
"228002","585-TW","2018/02/12 17:39:42","新北市貢寮區福隆里福隆街2巷12號","121.946076666667","25.015525","6502600","貢寮區"
"228001","670-TC","2018/02/12 17:39:29","新北市貢寮區仁理村仁愛路95-1號","121.92771","25.05545","6502600","貢寮區"
"224010","AGQ-8101","2018/02/12 17:37:30","新北市瑞芳區岳王路10-1號","121.807205","25.1107866666667","6501200","瑞芳區"
"224006","676-BX","2018/02/12 17:39:36","新北市瑞芳區傑魚坑路13號","121.794158333333","25.1105133333333","6501200","瑞芳區"
"224009","285-BY","2018/02/12 17:39:35","新北市瑞芳區汽車路7-4號","121.846705","25.11065","6501200","瑞芳區"
"224008","275-VK","2018/02/12 17:39:38","新北市瑞芳區瑞柑新村31號","121.830548333333","25.1068283333333","6501200","瑞芳區"
"224005","271-BY","2018/02/12 17:39:31","新北市瑞芳區籠山路26號","121.832281666667","25.1230433333333","6501200","瑞芳區"
"251009","008-UM","2018/02/12 17:39:40","新北市淡水區中正路51號","121.44185","25.1694716666667","6501000","淡水區"
"251004","009-UM","2018/02/12 17:39:27","新北市淡水區中正東路二段88巷37-22號","121.459305","25.14382","6501000","淡水區"
"251005","010-UM","2018/02/12 17:39:28","新北市淡水區鄧公路33巷10號","121.45168","25.170955","6501000","淡水區"
"251013","179-VK","2018/02/12 17:39:44","新北市淡水區演戲埔腳2號","121.475228333333","25.1926","6501000","淡水區"
"251014","180-VK","2018/02/12 17:39:06","新北市淡水區公埔子15-1號","121.479555","25.22607","6501000","淡水區"
"251008","181-VK","2018/02/12 17:39:43","新北市淡水區八勢路50巷19弄1號","121.462826666667","25.150615","6501000","淡水區"
"251015","182-VK","2018/02/12 17:37:18","新北市淡水區樹林口7-1號","121.47952","25.1672533333333","6501000","淡水區"
"251010","413-VK","2018/02/12 17:39:27","新北市淡水區淡海路280巷97號","121.420011666667","25.1885666666667","6501000","淡水區"
"251012","441-VK","2018/02/12 17:39:40","新北市淡水區北新路200巷6號","121.45158","25.1796833333333","6501000","淡水區"
"251016","442-VK","2018/02/12 17:39:29","新北市淡水區埤島39-15號","121.452736666667","25.1958783333333","6501000","淡水區"
"251001","559-UM","2018/02/12 17:39:35","新北市淡水區民權路92巷35-1號","121.4622","25.1266233333333","6501000","淡水區"
"251006","561-UM","2018/02/12 17:39:38","新北市淡水區大信街24巷2號","121.441966666667","25.1766666666667","6501000","淡水區"
"251007","577-R6","2018/02/12 17:39:35","新北市淡水區民生路124巷9號","121.464066666667","25.137855","6501000","淡水區"
"251011","650-BX","2018/02/12 17:39:45","新北市淡水區小坪頂13-3號","121.486588333333","25.156155","6501000","淡水區"
"251002","672-BX","2018/02/12 17:39:42","新北市淡水區清水街246號","121.440518333333","25.1720966666667","6501000","淡水區"
"251001","757-BX","2018/02/12 17:39:35","新北市淡水區重建街82號","121.439933333333","25.1723466666667","6501000","淡水區"
"251003","766-UM","2018/02/12 17:39:29","新北市淡水區中山北路一段51號","121.441776666667","25.175555","6501000","淡水區"
"207003","550-UM","2018/02/12 17:39:33","新北市萬里區龜吼里漁澳路10號","121.686236666667","25.19473","6502800","萬里區"
"207004","225-TW","2018/02/12 17:39:27","新北市萬里區中幅里中福路8-1號","121.68592","25.1648016666667","6502800","萬里區"
"252002","178-VK","2018/02/12 17:39:27","新北市三芝區中正路二段22號","121.50442","25.25526","6502100","三芝區"
"252001","292-VK","2018/02/12 17:39:29","新北市三芝區埔坪里埔頭坑107號","121.50461","25.2617216666667","6502100","三芝區"
"237013","252-BX","2018/02/12 17:39:45","新北市三峽區介壽路一段15號","121.375371666667","24.933605","6500900","三峽區"
"237008","302-VK","2018/02/12 17:39:42","新北市三峽區中山路321-2號","121.360856666667","24.9380583333333","6500900","三峽區"
"237014","433-BY","2018/02/12 17:39:35","新北市三峽區文化路158號","121.370123333333","24.9361333333333","6500900","三峽區"
"237006","5529-G3","2018/02/12 17:39:34","新北市三峽區介壽路二段34-2號","121.391261666667","24.935235","6500900","三峽區"
"237011","KEA-2596","2018/02/12 17:39:41","新北市三峽區文化路308號","121.364745","24.9354983333333","6500900","三峽區"
"237010","706-TV","2018/02/12 17:39:30","新北市三峽區中山路119號","121.365463333333","24.935845","6500900","三峽區"
"236042","107-UM","2018/02/12 17:39:39","新北市土城區城林路6巷80號","121.43846","24.9795383333333","6501300","土城區"
"236014","270-VK","2018/02/12 17:39:29","新北市土城區城林路6巷80號","121.438393333333","24.9797933333333","6501300","土城區"
"242031","AAC-296","2018/02/12 17:39:43","新北市新莊區新泰路378號","121.44414","25.0432033333333","6500500","新莊區"
"242029","986-R7","2018/02/12 17:39:44","新北市新莊區復興路二段31號","121.45437","25.044065","6500500","新莊區"
"242025","615-BX","2018/02/12 17:39:41","新北市新莊區復興路二段143號","121.457631666667","25.0444516666667","6500500","新莊區"
"242023","613-BX","2018/02/12 17:39:46","新北市新莊區公園路222巷1號","121.456266666667","25.0405783333333","6500500","新莊區"
"242027","612-BX","2018/02/12 17:39:39","新北市新莊區福壽街108號","121.458061666667","25.0505583333333","6500500","新莊區"
"242039","566-BX","2018/02/12 17:39:47","新北市新莊區民安路322號","121.42892","25.0219166666667","6500500","新莊區"
"242048","441-UM","2018/02/12 17:39:44","新北市新莊區萬安街120號","121.420398333333","25.0219316666667","6500500","新莊區"
"242053","440-UM","2018/02/12 17:39:44","新北市新莊區新樹路723號","121.431903333333","25.0018633333333","6500500","新莊區"
"242034","415-TV","2018/02/12 17:39:36","新北市新莊區新莊路617號","121.445768333333","25.0328116666667","6500500","新莊區"
"242004","413-TV","2018/02/12 17:39:36","新北市新莊區自立街109號","121.455481666667","25.04552","6500500","新莊區"
"242042","400-BY","2018/02/12 17:39:49","新北市新莊區中正路514巷41號","121.432403333333","25.0334","6500500","新莊區"
"242060","362-BY","2018/02/12 17:39:31","新北市新莊區瓊林南路75-2號","121.43478","25.0141983333333","6500500","新莊區"
"242058","353-BY","2018/02/12 17:39:36","新北市新莊區中正路596號","121.426621666667","25.0301566666667","6500500","新莊區"
"242007","132-UY","2018/02/12 17:39:31","新北市新莊區自信街42號","121.454698333333","25.0481083333333","6500500","新莊區"
"242036","133-UY","2018/02/12 17:39:40","新北市新莊區建福路69巷46號","121.428868333333","25.0274183333333","6500500","新莊區"
"242021","135-UY","2018/02/12 17:39:28","新北市新莊區中華路一段45巷2號","121.452005","25.0383583333333","6500500","新莊區"
"242046","172-VK","2018/02/12 17:39:42","新北市新莊區福營路99號","121.43436","25.032255","6500500","新莊區"
"242009","173-VK","2018/02/12 17:39:32","新北市新莊區昌明街14巷2弄1號","121.457371666667","25.05274","6500500","新莊區"
"242015","175-VK","2018/02/12 17:39:29","新北市新莊區新泰路323號","121.445046666667","25.04154","6500500","新莊區"
"242002","176-VK","2018/02/12 17:39:48","新北市新莊區新莊路254號","121.452181666667","25.0339833333333","6500500","新莊區"
"242013","346-TH","2018/02/12 17:39:48","新北市新莊區中誠街97號","121.449978333333","25.047665","6500500","新莊區"
"242050","347-TH","2018/02/12 17:39:48","新北市新莊區西盛街201巷19號","121.429171666667","25.0169016666667","6500500","新莊區"
"242019","348-TH","2018/02/12 17:39:47","新北市新莊區中港路119號","121.455295","25.0398383333333","6500500","新莊區"
"242056","349-TH","2018/02/12 17:39:43","新北市新莊區泰豐街5號","121.448508333333","25.0312833333333","6500500","新莊區"
"242017","350-TH","2018/02/12 17:39:27","新北市新莊區中和街30巷13號","121.448886666667","25.0439166666667","6500500","新莊區"
"242011","351-TH","2018/02/12 17:39:44","新北市新莊區中港路568號","121.45151","25.0531783333333","6500500","新莊區"
"238015","755-BX","2018/02/12 17:39:27","新北市樹林區啟智街25號","121.420858333333","24.9933666666667","6500700","樹林區"
"238023","601-UM","2018/02/12 17:39:41","新北市樹林區三福街73號","121.40756","25.016345","6500700","樹林區"
"238019","599-UM","2018/02/12 17:39:21","新北市樹林區太平路56巷1號","121.419025","24.98186","6500700","樹林區"
"238018","571-TV","2018/02/12 17:39:32","新北市樹林區博愛街248號","121.423983333333","24.9887533333333","6500700","樹林區"
"238024","5061-A6","2018/02/12 17:39:31","新北市樹林區八德街65-2號","121.400426666667","24.9692933333333","6500700","樹林區"
"238009","KEA-2213","2018/02/12 17:39:37","新北市樹林區太順街55號","121.417341666667","24.9789616666667","6500700","樹林區"
"238026","KEA-2539","2018/02/12 17:39:30","新北市樹林區西圳街一段203巷7號","121.39311","24.959965","6500700","樹林區"
"238012","303-VK","2018/02/12 17:39:45","新北市樹林區保安街二段281-1號","121.412756666667","25.0060316666667","6500700","樹林區"
"238017","283-BY","2018/02/12 17:39:34","新北市樹林區三德街27-1號","121.414036666667","25.0130566666667","6500700","樹林區"
"238014","282-BY","2018/02/12 17:39:39","新北市樹林區保安街一段294巷41號","121.420245","24.9987266666667","6500700","樹林區"
"238020","268-VK","2018/02/12 17:39:36","新北市樹林區俊英街116巷31號","121.42832","25.0063316666667","6500700","樹林區"
"238026","172-UY","2018/02/12 17:39:28","新北市樹林區新興街19巷6號","121.40039","24.9727733333333","6500700","樹林區"
"238016","169-UY","2018/02/12 17:39:40","新北市樹林區育英街57號","121.420736666667","24.9891266666667","6500700","樹林區"
"239007","AAC-297","2018/02/12 17:39:43","新北市鶯歌區永明街135號","121.34283","24.9558316666667","6500800","鶯歌區"
"239006","891-R6","2018/02/12 17:39:43","新北市鶯歌區鶯桃路471號","121.331965","24.9659516666667","6500800","鶯歌區"
"239008","527-UM","2018/02/12 17:39:37","桃園市龜山區宏德司法新村8-1號","121.332015","24.9787016666667","6500800","鶯歌區"
"239005","526-UM","2018/02/12 17:39:43","新北市鶯歌區福隆二街72號","121.32422","24.9713766666667","6500800","鶯歌區"
"239001","417-VK","2018/02/12 17:39:30","新北市鶯歌區中正三路138號","121.33625","24.9401166666667","6500800","鶯歌區"
"239003","360-BY","2018/02/12 17:39:36","新北市鶯歌區鶯桃路179號","121.33791","24.9584083333333","6500800","鶯歌區"
"239004","193-VK","2018/02/12 17:39:38","新北市鶯歌區三鶯路16號","121.356406666667","24.9413283333333","6500800","鶯歌區"
"221008","489-VK","2018/02/12 17:39:33","新北市汐止區康寧街901號","121.651431666667","25.0749683333333","6501100","汐止區"
"221010","269-BY","2018/02/12 17:39:25","新北市汐止區汐萬路一段418巷26號","121.650065","25.0785466666667","6501100","汐止區"
"221023","279-VK","2018/02/12 17:39:40","新北市汐止區康寧街901號","121.651405","25.0749433333333","6501100","汐止區"
"221032","280-BY","2018/02/12 17:39:40","新北市汐止區康寧街901號","121.651263333333","25.0750716666667","6501100","汐止區"
"221025","623-UM","2018/02/12 17:39:39","新北市汐止區康寧街901號","121.65076","25.075265","6501100","汐止區"
"221033","647-BX","2018/02/12 17:39:37","新北市汐止區橫科路407巷99號","121.628983333333","25.0514116666667","6501100","汐止區"
"242044","280-VK","2018/02/12 17:39:38","新北市新莊區富國路65巷7號","121.419883333333","25.02656","6500500","新莊區"
