"lineid","car","time","location","longitude","latitude","cityid","cityname"
"234046","148-BY","2018/02/12 19:38:53","新北市永和區得和路375號","121.52474","24.9996333333333","6500400","永和區"
"234067","149-BY","2018/02/12 19:39:07","新北市永和區永貞路404號","121.509171666667","25.0076083333333","6500400","永和區"
"234007","207-UY","2018/02/12 19:39:02","新北市永和區中山路一段101號","121.51107","25.0104016666667","6500400","永和區"
"234081","298-R6","2018/02/12 19:38:53","新北市永和區國中路104巷8弄9號","121.525018333333","25.0067016666667","6500400","永和區"
"234038","336-UY","2018/02/12 19:38:58","新北市永和區民樂街35巷1號","121.527591666667","25.0009683333333","6500400","永和區"
"234064","337-UY","2018/02/12 19:38:50","新北市永和區秀朗路一段192巷6弄14號","121.5191","25.0022416666667","6500400","永和區"
"234086","338-UY","2018/02/12 19:39:06","新北市永和區國中路2-1號","121.524068333333","25.0042016666667","6500400","永和區"
"234070","552-UM","2018/02/12 19:38:56","新北市永和區警光街5-1號","121.519725","25.0095066666667","6500400","永和區"
"234017","745-BX","2018/02/12 19:38:57","新北市永和區環河西路一段87號","121.512356666667","25.01791","6500400","永和區"
"234030","746-BX","2018/02/12 19:38:53","新北市永和區民權路82號","121.519921666667","24.9971833333333","6500400","永和區"
"234054","KEA-2590","2018/02/12 19:38:56","新北市永和區竹林路39巷14號","121.518536666667","25.0146","6500400","永和區"
"234013","KEA-2591","2018/02/12 19:38:59","新北市永和區中山路一段207號","121.508868333333","25.0084783333333","6500400","永和區"
"234061","AAD-866","2018/02/12 19:38:55","新北市永和區秀朗路一段175號","121.517091666667","25.0036566666667","6500400","永和區"
"234042","862-TW","2018/02/12 19:38:59","新北市永和區永貞路261號","121.512045","25.0046816666667","6500400","永和區"
"234050","863-TW","2018/02/12 19:39:07","新北市永和區保福路二段148號","121.509616666667","25.01469","6500400","永和區"
"234026","9371-KE","2018/02/12 19:38:51","新北市中和區中和路390號","121.511243333333","25.0025433333333","6500400","永和區"
"234023","9381-KE","2018/02/12 19:39:02","新北市永和區環河東路二段8-2號","121.521728333333","25.0132333333333","6500400","永和區"
"234011","9373-KE","2018/02/12 19:39:06","新北市永和區保福路二段163巷13弄16號","121.509158333333","25.0142733333333","6500400","永和區"
"249004","303-UY","2018/02/12 19:39:04","新北市八里區中山路一段268巷33號","121.413438333333","25.160475","6502300","八里區"
"249002","305-UY","2018/02/12 19:38:59","新北市八里區頂寮二街33-1號","121.450335","25.1252083333333","6502300","八里區"
"249003","593-UM","2018/02/12 19:39:08","新北市八里區中華路二段516號","121.399465","25.1452133333333","6502300","八里區"
"248008","095-VK","2018/02/12 19:38:50","新北市五股區四維路153號","121.467695","25.0745566666667","6501500","五股區"
"248018","225-UY","2018/02/12 19:39:00","新北市五股區中興路二段37巷26號","121.460406666667","25.0749583333333","6501500","五股區"
"248012","247-BX","2018/02/12 19:39:07","新北市五股區工商路85巷1號","121.437998333333","25.0848366666667","6501500","五股區"
"248014","261-SL","2018/02/12 19:39:06","新北市五股區五福路9-1號","121.433733333333","25.0882633333333","6501500","五股區"
"248004","677-BX","2018/02/12 19:39:01","新北市五股區工商路151號","121.434995","25.0865766666667","6501500","五股區"
"248002","678-BX","2018/02/12 19:38:55","新北市五股區成泰路三段577巷77號","121.449733333333","25.1036583333333","6501500","五股區"
"248010","682-TV","2018/02/12 19:38:54","新北市五股區水碓一路23號","121.43058","25.0713333333333","6501500","五股區"
"234077","969-R7","2018/02/12 19:39:01","新北市永和區民治街35號","121.519268333333","24.9977666666667","6500400","永和區"
"234074","AAC-211","2018/02/12 19:38:57","新北市永和區竹林路223號","121.52096","25.0085683333333","6500400","永和區"
"234003","AAC-295","2018/02/12 19:39:08","新北市永和區安樂路348號","121.51443","25.0064716666667","6500400","永和區"
"244019","402-UM","2018/02/12 19:38:54","新北市林口區麗園一街15號","121.376986666667","25.0692183333333","6501700","林口區"
"244009","410-SL","2018/02/12 19:39:09","新北市林口區竹林路336號","121.391313333333","25.0834266666667","6501700","林口區"
"244023","483-VK","2018/02/12 19:39:04","新北市林口區文化三路一段555巷2號","121.369985","25.07622","6501700","林口區"
"244009","657-BX","2018/02/12 19:38:56","新北市林口區東林街45號","121.394753333333","25.0796366666667","6501700","林口區"
"244011","701-TV","2018/02/12 19:38:55","新北市林口區中山路97巷13號","121.389558333333","25.078155","6501700","林口區"
"244025","837-TS","2018/02/12 19:39:02","新北市林口區汕頭32號","121.366341666667","25.1348733333333","6501700","林口區"
"243011","297-R6","2018/02/12 19:38:52","新北市泰山區貴子路80號","121.427205","25.0413066666667","6501600","泰山區"
"243015","380-SR","2018/02/12 19:38:58","新北市泰山區明志路二段136巷1-1號","121.427403333333","25.0511933333333","6501600","泰山區"
"243014","421-VK","2018/02/12 19:38:57","新北市泰山區泰林路二段33-7號","121.435201666667","25.0564216666667","6501600","泰山區"
"243012","539-UM","2018/02/12 19:38:53","新北市泰山區全興路18巷25號","121.432045","25.0583833333333","6501600","泰山區"
"243010","KEA-2215","2018/02/12 19:39:02","新北市泰山區民生路17巷49號","121.429438333333","25.0512616666667","6501600","泰山區"
"243009","KEA-2216","2018/02/12 19:39:01","新北市泰山區泰林路二段608號","121.421188333333","25.06408","6501600","泰山區"
"243013","646-TV","2018/02/12 19:38:55","新北市泰山區貴子路6號","121.425205","25.0421066666667","6501600","泰山區"
"222003","436-BY","2018/02/12 19:35:41","新北市深坑區深南路51-1號","121.621071666667","25.009975","6501800","深坑區"
"222002","659-BX","2018/02/12 19:38:52","新北市深坑區深南路88巷1號","121.621288333333","25.0104016666667","6501800","深坑區"
"231041","002-UM","2018/02/12 19:38:51","新北市新店區中正路500-1號","121.534096666667","24.98192","6500600","新店區"
"231059","046-UY","2018/02/12 19:39:07","新北市新店區安和路三段47-1號","121.518016666667","24.9821283333333","6500600","新店區"
"231061","047-UY","2018/02/12 19:39:03","新北市新店區安民街125號","121.516268333333","24.9687466666667","6500600","新店區"
"231060","106-UY","2018/02/12 19:39:05","新北市新店區安康路二段161號","121.51025","24.95946","6500600","新店區"
"231051","107-UY","2018/02/12 19:39:09","新北市新店區中央四街94號","121.525696666667","24.9761816666667","6500600","新店區"
"231047","108-UY","2018/02/12 19:39:08","新北市新店區五峰路63巷8弄25號","121.547546666667","24.9692916666667","6500600","新店區"
"231052","187-VK","2018/02/12 19:38:59","新北市新店區新烏路二段370號","121.55099","24.9098083333333","6500600","新店區"
"231050","KEA-2219","2018/02/12 19:38:49","新北市新店區郵政路1號","121.55766","24.9525933333333","6500600","新店區"
"221015","KEA-2785","2018/02/12 19:39:05","新北市汐止區鄉長路一段43號","121.665351666667","25.0749566666667","6501100","汐止區"
"231057","256-BX","2018/02/12 19:39:05","新北市新店區橘園一路11號","121.547941666667","24.9340516666667","6500600","新店區"
"231046","278-BY","2018/02/12 19:39:04","新北市新店區自由街27-1號","121.5351","24.97421","6500600","新店區"
"231054","AAD-862","2018/02/12 19:38:53","新北市新店區文中路43號","121.539628333333","24.95686","6500600","新店區"
"231058","3712-VJ","2018/02/12 19:38:48","新北市新店區寶橋路21號","121.543891666667","24.9739966666667","6500600","新店區"
"231056","3713-VJ","2018/02/12 19:39:02","新北市新店區薏仁坑路自強巷6號","121.496796666667","24.9583383333333","6500600","新店區"
"231055","4716-K9","2018/02/12 19:38:58","新北市新店區柴埕路52巷1-6號","121.512843333333","24.96472","6500600","新店區"
"231067","4772-VM","2018/02/12 19:38:55","新北市新店區精忠路10-1號","121.532688333333","24.959055","6500600","新店區"
"231064","515-UM","2018/02/12 19:38:59","新北市新店區安和路一段52巷2號","121.517603333333","24.9661566666667","6500600","新店區"
"231042","616-UM","2018/02/12 19:39:05","新北市新店區中興路一段216號","121.543893333333","24.9656816666667","6500600","新店區"
"231045","617-UM","2018/02/12 19:38:52","新北市新店區北宜路二段204號","121.559115","24.95428","6500600","新店區"
"231040","619-UM","2018/02/12 19:38:53","新北市新店區北新路一段96巷23號","121.54302","24.968885","6500600","新店區"
"231063","645-TV","2018/02/12 19:39:08","新北市新店區達觀路41號","121.502828333333","24.9382283333333","6500600","新店區"
"231049","719-UM","2018/02/12 19:39:03","新北市新店區大豐路43號","121.540225","24.9798816666667","6500600","新店區"
"231065","719-UY","2018/02/12 19:39:01","新北市新店區安祥路109巷2號","121.475365","24.9582566666667","6500600","新店區"
"231062","720-UM","2018/02/12 19:39:01","新北市新店區太平路17巷14號","121.533536666667","24.957655","6500600","新店區"
"231044","897-TW","2018/02/12 19:38:55","新北市新店區民族路2號","121.542128333333","24.9790766666667","6500600","新店區"
"231043","899-TW","2018/02/12 19:38:50","新北市新店區北新路二段150號","121.5431","24.9749616666667","6500600","新店區"
"231066","AKT-0513","2018/02/12 19:39:00","新北市新店區安康路二段341巷2號","121.496386666667","24.9548416666667","6500600","新店區"
"241017","063-VK","2018/02/12 19:39:05","新北市三重區重陽路三段5巷8弄12號","121.489546666667","25.066465","6500200","三重區"
"241026","066-VK","2018/02/12 19:39:06","新北市三重區光興街37號","121.49959","25.0603","6500200","三重區"
"241002","090-VK","2018/02/12 19:39:09","新北市三重區仁義街167巷38弄2號","121.498755","25.082745","6500200","三重區"
"241001","091-VK","2018/02/12 19:38:55","新北市三重區三和路四段89巷26號","121.490141666667","25.076065","6500200","三重區"
"241005","262-UM","2018/02/12 19:38:53","新北市三重區碧華街307號","121.490741666667","25.0840816666667","6500200","三重區"
"241035","462-BY","2018/02/12 19:38:56","新北市三重區正義北路75號","121.497195","25.06471","6500200","三重區"
"241004","475-VK","2018/02/12 19:38:59","新北市三重區自強路四段32-2號","121.488996666667","25.076965","6500200","三重區"
"241030","480-VK","2018/02/12 19:39:01","新北市三重區成功路171號","121.486023333333","25.05244","6500200","三重區"
"241014","543-UM","2018/02/12 19:38:59","新北市三重區安和路43號","121.500933333333","25.0695933333333","6500200","三重區"
"241006","AAD-863","2018/02/12 19:38:59","新北市三重區力行路二段35號","121.482291666667","25.0735466666667","6500200","三重區"
"241003","887-TS","2018/02/12 19:38:55","新北市三重區五華街141巷58號","121.493495","25.0867333333333","6500200","三重區"
"241012","941-UM","2018/02/12 19:39:09","新北市三重區河邊北街272號","121.501545","25.0766533333333","6500200","三重區"
"241029","942-UM","2018/02/12 19:39:06","新北市三重區重安街70-20號","121.492146666667","25.0569083333333","6500200","三重區"
"235066","003-UY","2018/02/12 19:38:51","新北市中和區景新街75號","121.505235","24.9986583333333","6500300","中和區"
"235064","005-UY","2018/02/12 19:38:55","新北市中和區南山路81巷32號","121.503021666667","24.9981083333333","6500300","中和區"
"235063","006-UY","2018/02/12 19:38:56","新北市中和區連城路217號","121.494295","24.9976683333333","6500300","中和區"
"235056","096-UM","2018/02/12 19:38:50","新北市中和區員山路581巷31弄3號","121.477186666667","25.0103666666667","6500300","中和區"
"235039","097-UM","2018/02/12 19:38:49","新北市中和區秀峰街119巷8弄9號","121.519016666667","24.98994","6500300","中和區"
"235065","098-UM","2018/02/12 19:38:53","新北市中和區中山路二段2巷45弄7號","121.502311666667","25.0066433333333","6500300","中和區"
"235040","150-BY","2018/02/12 19:39:03","新北市中和區保健路10巷26號","121.508125","24.996515","6500300","中和區"
"235058","151-BY","2018/02/12 19:39:01","新北市中和區連城路469巷79弄4號","121.483558333333","24.9939133333333","6500300","中和區"
"235055","183-VK","2018/02/12 19:38:50","新北市中和區中山路三段207號","121.472088333333","25.006395","6500300","中和區"
"235049","186-VK","2018/02/12 19:39:04","新北市中和區安平路14號","121.509263333333","24.994105","6500300","中和區"
"235067","255-BX","2018/02/12 19:38:52","新北市中和區連城路330號","121.483196666667","24.99593","6500300","中和區"
"235044","293-VK","2018/02/12 19:39:02","新北市中和區興南路一段83號","121.509931666667","24.9889866666667","6500300","中和區"
"235072","301-VK","2018/02/12 19:38:48","新北市中和區中正路432巷34號","121.490866666667","24.99588","6500300","中和區"
"235043","352-BY","2018/02/12 19:39:04","新北市中和區安樂路48號","121.51195","24.9930616666667","6500300","中和區"
"235068","377-QA","2018/02/12 19:38:58","新北市中和區景平路493巷12弄31號","121.498391666667","24.9967966666667","6500300","中和區"
"235061","378-QA","2018/02/12 19:38:56","新北市中和區民利街53號","121.479343333333","24.9987533333333","6500300","中和區"
"235071","269-TV","2018/02/12 19:39:04","新北市中和區中正路637巷18弄2號","121.484505","24.99511","6500300","中和區"
"235050","4979-A6","2018/02/12 19:38:51","新北市中和區中正路273-3號","121.49564","24.993475","6500300","中和區"
"235042","551-UM","2018/02/12 19:39:06","新北市中和區宜安路150號","121.509316666667","24.99867","6500300","中和區"
"235070","558-UM","2018/02/12 19:39:00","新北市中和區圓通路49號","121.500903333333","24.9974483333333","6500300","中和區"
"235045","565-BX","2018/02/12 19:38:51","新北市中和區景新街462號","121.513455","24.9876233333333","6500300","中和區"
"235054","640-BX","2018/02/12 19:38:59","新北市中和區國光街112巷20弄1-2號","121.470726666667","25.00209","6500300","中和區"
"235060","647-TV","2018/02/12 19:38:59","新北市中和區新生街112巷2號","121.482961666667","25.0029533333333","6500300","中和區"
"235047","732-UM","2018/02/12 19:39:02","新北市中和區景安路172巷2號","121.504355","24.992945","6500300","中和區"
"235046","733-UM","2018/02/12 19:38:49","新北市中和區忠孝街104號","121.512096666667","24.98483","6500300","中和區"
"235057","801-TS","2018/02/12 19:38:55","新北市中和區員山路370-1號","121.48082","25.0039233333333","6500300","中和區"
"235052","805-TS","2018/02/12 19:38:54","新北市中和區華新街143巷67弄16號","121.507285","24.97905","6500300","中和區"
"235048","896-TW","2018/02/12 19:38:54","新北市中和區忠孝街50號","121.511296666667","24.983525","6500300","中和區"
"235053","900-TW","2018/02/12 19:38:58","新北市中和區國光街184巷26號","121.467578333333","25.00211","6500300","中和區"
"235051","157-BY","2018/02/12 19:39:04","新北市中和區景平路520號","121.50338","24.99394","6500300","中和區"
"235037","AAC-213","2018/02/12 19:39:06","新北市中和區秀朗路三段10巷29弄11號","121.525056666667","24.99593","6500300","中和區"
"235059","AAC-215","2018/02/12 19:39:04","新北市中和區錦和路203巷7號","121.49119","24.99047","6500300","中和區"
"220068","013-TV","2018/02/12 19:38:59","新北市板橋區萬安街54號","121.484288333333","25.0232583333333","6500100","板橋區"
"220065","072-UY","2018/02/12 19:38:55","新北市板橋區國泰街36號","121.468188333333","25.006845","6500100","板橋區"
"220086","073-UY","2018/02/12 19:39:08","新北市板橋區館前西路166-1號","121.452361666667","25.008585","6500100","板橋區"
"220106","075-UY","2018/02/12 19:38:54","新北市板橋區江寧路三段66號","121.472173333333","25.03227","6500100","板橋區"
"220069","AAD-861","2018/02/12 19:38:55","新北市板橋區貴興路47號","121.457391666667","25.0033983333333","6500100","板橋區"
"247004","337-TH","2018/02/12 19:39:00","新北市蘆洲區長安街98巷4號","121.462301666667","25.0812816666667","6501400","蘆洲區"
"247002","335-TH","2018/02/12 19:38:55","新北市蘆洲區三民路595號","121.460936666667","25.0936466666667","6501400","蘆洲區"
"247006","053-VK","2018/02/12 19:38:52","新北市五股區更洲路47號","121.456711666667","25.0790583333333","6501400","蘆洲區"
"226004","312-R5","2018/02/12 19:38:52","新北市平溪區十分里十分街132-1號","121.777393333333","25.0432566666667","6502400","平溪區"
"235041","251-BX","2018/02/12 19:38:58","新北市永和區中和路545號","121.511478333333","25.0033366666667","6500300","中和區"
"228003","097-TW","2018/02/12 19:38:57","新北市貢寮區真理里美艷山街15-3號","121.923725","25.06801","6502600","貢寮區"
"228001","670-TC","2018/02/12 19:38:58","新北市貢寮區真理里延平街45號","121.924481666667","25.0556033333333","6502600","貢寮區"
"224006","676-BX","2018/02/12 19:38:57","新北市瑞芳區中山路22號","121.8041","25.1062033333333","6501200","瑞芳區"
"224002","639-TC","2018/02/12 19:39:07","新北市瑞芳區三爪子坑路13巷211號","121.81589","25.1059866666667","6501200","瑞芳區"
"224009","285-BY","2018/02/12 19:39:00","新北市瑞芳區洞頂路160號","121.861056666667","25.11853","6501200","瑞芳區"
"224008","272-VK","2018/02/12 19:39:07","新北市瑞芳區明燈路三段257號","121.79913","25.1119316666667","6501200","瑞芳區"
"224005","271-BY","2018/02/12 19:38:51","新北市瑞芳區員山子路3-1號","121.819205","25.10463","6501200","瑞芳區"
"227001","642-TC","2018/02/12 19:38:59","新北市雙溪區雙溪里勝利街16號","121.865503333333","25.035765","6502500","雙溪區"
"227008","400-TW","2018/02/12 19:38:59","新北市雙溪區新基里新基北街18號","121.867213333333","25.0386533333333","6502500","雙溪區"
"222001","KEA-2212","2018/02/12 19:39:00","新北市深坑區深坑街158號","121.612855","25.00133","6501800","深坑區"
"208002","742-BX","2018/02/12 19:39:01","新北市金山區中正路11-1號","121.636635","25.2223633333333","6502700","金山區"
"208003","665-BX","2018/02/12 19:39:01","新北市金山區仁愛路66號","121.635018333333","25.2211366666667","6502700","金山區"
"208001","761-BX","2018/02/12 19:38:53","新北市金山區南勢62號","121.627078333333","25.2204833333333","6502700","金山區"
"251009","008-UM","2018/02/12 19:39:00","新北市淡水區中山北路一段186巷10號","121.445363333333","25.17874","6501000","淡水區"
"251004","009-UM","2018/02/12 19:38:56","新北市淡水區中正東路二段167號","121.460053333333","25.145035","6501000","淡水區"
"251005","010-UM","2018/02/12 19:39:08","新北市淡水區水源街一段47巷46號","121.444198333333","25.1738566666667","6501000","淡水區"
"251013","179-VK","2018/02/12 19:39:04","新北市淡水區頂田寮路145號","121.461996666667","25.2160866666667","6501000","淡水區"
"251014","180-VK","2018/02/12 19:39:06","新北市淡水區桂竹圍4-1號","121.47464","25.2321933333333","6501000","淡水區"
"251008","181-VK","2018/02/12 19:39:03","新北市淡水區中正路32巷1號","121.431098333333","25.1755916666667","6501000","淡水區"
"251015","182-VK","2018/02/12 19:38:58","新北市淡水區大埤頭1-3號","121.492465","25.1952366666667","6501000","淡水區"
"251010","413-VK","2018/02/12 19:39:06","新北市淡水區崁頂三路115號","121.431478333333","25.2009716666667","6501000","淡水區"
"251012","441-VK","2018/02/12 19:38:59","新北市淡水區中山北路三段156號","121.445533333333","25.195785","6501000","淡水區"
"251016","442-VK","2018/02/12 19:39:08","新北市淡水區淡金路三段350巷18號","121.450763333333","25.208335","6501000","淡水區"
"251001","559-UM","2018/02/12 19:38:55","新北市淡水區民權路51號","121.459753333333","25.13898","6501000","淡水區"
"251006","561-UM","2018/02/12 19:38:58","新北市淡水區中山北路一段207巷60號","121.442053333333","25.1791766666667","6501000","淡水區"
"251007","577-R6","2018/02/12 19:38:55","新北市淡水區中正東路一段111巷21號","121.455308333333","25.16115","6501000","淡水區"
"251011","650-BX","2018/02/12 19:38:55","新北市淡水區八勢一街48號","121.46108","25.1545416666667","6501000","淡水區"
"251002","672-BX","2018/02/12 19:39:02","新北市淡水區下圭柔山90-8號","121.431658333333","25.2109516666667","6501000","淡水區"
"207003","550-UM","2018/02/12 19:38:53","新北市萬里區大鵬里萬里加投301-2號","121.645351666667","25.22019","6502800","萬里區"
"207004","225-TW","2018/02/12 19:39:07","新北市萬里區萬里里瑪鋉路21號","121.687208333333","25.1753983333333","6502800","萬里區"
"252002","178-VK","2018/02/12 19:38:53","新北市三芝區中正路一段18巷34-1號","121.50385","25.2592166666667","6502100","三芝區"
"252001","292-VK","2018/02/12 19:38:49","新北市三芝區公正街66號","121.499846666667","25.2574866666667","6502100","三芝區"
"237004","KEA-2597","2018/02/12 19:38:59","新北市三峽區有木17號","121.425641666667","24.86324","6500900","三峽區"
"237009","210-TH","2018/02/12 19:39:04","新北市三峽區民權街147號","121.368763333333","24.9316783333333","6500900","三峽區"
"237013","252-BX","2018/02/12 19:39:05","新北市三峽區介壽路一段251號","121.37951","24.9302066666667","6500900","三峽區"
"237012","275-BY","2018/02/12 19:39:07","新北市三峽區民生街3號","121.374586666667","24.9354383333333","6500900","三峽區"
"237008","302-VK","2018/02/12 19:39:02","新北市三峽區中正路一段122號","121.373683333333","24.92918","6500900","三峽區"
"237014","433-BY","2018/02/12 19:38:55","新北市三峽區中山路63巷12號","121.366946666667","24.93429","6500900","三峽區"
"237006","5529-G3","2018/02/12 19:39:05","新北市三峽區溪東路47號","121.400603333333","24.9348416666667","6500900","三峽區"
"237011","KEA-2596","2018/02/12 19:39:01","新北市三峽區介壽路三段194號","121.402708333333","24.94429","6500900","三峽區"
"237005","AKY-6261","2018/02/12 19:39:03","新北市三峽區復興路367巷1弄14號","121.364026666667","24.9376366666667","6500900","三峽區"
"236069","105-UM","2018/02/12 19:39:07","新北市土城區清水路1號","121.452678333333","24.9802333333333","6501300","土城區"
"236042","107-UM","2018/02/12 19:38:58","新北市土城區裕民路175號","121.453241666667","24.9848233333333","6501300","土城區"
"236078","166-UM","2018/02/12 19:39:10","新北市土城區中州路1-2號","121.414696666667","24.9571966666667","6501300","土城區"
"236030","253-BX","2018/02/12 19:39:07","新北市土城區福祥街61號","121.440958333333","24.9803166666667","6501300","土城區"
"236036","271-VK","2018/02/12 19:39:00","新北市土城區青雲路230號","121.458866666667","24.9808483333333","6501300","土城區"
"236058","912-UM","2018/02/12 19:39:00","新北市土城區中央路二段259號","121.439946666667","24.9712483333333","6501300","土城區"
"236048","913-UM","2018/02/12 19:38:54","新北市土城區明德路一段39號","121.465086666667","24.985075","6501300","土城區"
"236053","AAC-216","2018/02/12 19:38:55","新北市土城區學成路1號","121.4535","24.9862816666667","6501300","土城區"
"242031","AAC-296","2018/02/12 19:39:02","新北市新莊區新泰路225巷22弄19號","121.444108333333","25.0391533333333","6500500","新莊區"
"242027","612-BX","2018/02/12 19:39:07","新北市新莊區新泰路357巷3弄57號","121.44212","25.0391133333333","6500500","新莊區"
"242004","413-TV","2018/02/12 19:38:56","新北市新莊區化成路62號","121.465146666667","25.0434833333333","6500500","新莊區"
"242060","362-BY","2018/02/12 19:39:06","新北市新莊區新泰路255巷83號","121.442548333333","25.03901","6500500","新莊區"
"242013","346-TH","2018/02/12 19:38:59","新北市新莊區中誠街119號","121.44946","25.04751","6500500","新莊區"
"242056","349-TH","2018/02/12 19:39:02","新北市新莊區瓊林南路77-41號","121.437708333333","25.0125116666667","6500500","新莊區"
"242017","350-TH","2018/02/12 19:39:07","新北市新莊區三和路12-20號","121.442235","25.03785","6500500","新莊區"
"238015","755-BX","2018/02/12 19:39:07","新北市樹林區中興街32號","121.421036666667","24.99074","6500700","樹林區"
"238019","599-UM","2018/02/12 19:39:01","新北市樹林區東榮街91巷2弄12號","121.41558","24.9823","6500700","樹林區"
"238018","571-TV","2018/02/12 19:38:51","新北市樹林區鎮前街181號","121.421726666667","24.9868966666667","6500700","樹林區"
"238024","5061-A6","2018/02/12 19:38:51","新北市樹林區中山路三段155巷5號","121.395766666667","24.9725516666667","6500700","樹林區"
"238022","KEA-2213","2018/02/12 19:38:57","新北市樹林區八德街224號","121.415428333333","24.9717966666667","6500700","樹林區"
"238026","KEA-2539","2018/02/12 19:38:50","新北市樹林區柑園街二段386巷18號","121.367431666667","24.94953","6500700","樹林區"
"238017","283-BY","2018/02/12 19:38:54","新北市樹林區光興街134巷1號","121.406561666667","25.0031166666667","6500700","樹林區"
"238014","282-BY","2018/02/12 19:38:59","新北市樹林區保安二街64巷1弄1號","121.424036666667","24.9954133333333","6500700","樹林區"
"238020","268-VK","2018/02/12 19:38:56","新北市樹林區俊英街121巷3號","121.424208333333","25.0102516666667","6500700","樹林區"
"238026","172-UY","2018/02/12 19:39:08","新北市樹林區佳園路二段30號","121.391511666667","24.9626266666667","6500700","樹林區"
"239007","AAC-297","2018/02/12 19:39:02","新北市鶯歌區中正一路211巷1弄2號","121.35359","24.9574483333333","6500800","鶯歌區"
"239006","891-R6","2018/02/12 19:39:00","新北市鶯歌區建國路512巷3號","121.34046","24.951045","6500800","鶯歌區"
"239008","527-UM","2018/02/12 19:38:56","新北市鶯歌區國際二路8巷13號","121.338533333333","24.9741516666667","6500800","鶯歌區"
"239005","526-UM","2018/02/12 19:39:03","新北市鶯歌區大湖路361巷48弄10號","121.330455","24.9774166666667","6500800","鶯歌區"
"239001","417-VK","2018/02/12 19:39:10","新北市鶯歌區永智街41號","121.336751666667","24.9541516666667","6500800","鶯歌區"
"239004","193-VK","2018/02/12 19:38:58","新北市鶯歌區中正三路247巷67弄2號","121.33373","24.9362633333333","6500800","鶯歌區"
"221008","489-VK","2018/02/12 19:38:53","新北市汐止區康寧街145號","121.621998333333","25.0667316666667","6501100","汐止區"
"221036","130-UY","2018/02/12 19:38:56","新北市汐止區康寧街901號","121.651693333333","25.0748866666667","6501100","汐止區"
"221010","269-BY","2018/02/12 19:39:05","新北市汐止區汐萬路二段23巷2號","121.649518333333","25.0812333333333","6501100","汐止區"
"221012","278-VK","2018/02/12 19:38:56","新北市汐止區茄安路242-1號","121.679318333333","25.0707916666667","6501100","汐止區"
"221023","279-VK","2018/02/12 19:39:05","新北市汐止區中興路278號","121.628596666667","25.0691683333333","6501100","汐止區"
"221032","280-BY","2018/02/12 19:38:59","新北市汐止區橫科路407巷81弄5號","121.628736666667","25.048085","6501100","汐止區"
"221027","281-BY","2018/02/12 19:39:06","新北市汐止區忠孝東路9號","121.65825","25.066","6501100","汐止區"
"221029","298-VK","2018/02/12 19:39:06","新北市汐止區康寧街901號","121.651486666667","25.074955","6501100","汐止區"
"221021","299-VK","2018/02/12 19:39:05","新北市汐止區大同路二段132-2號","121.651725","25.06392","6501100","汐止區"
"221031","353-TW","2018/02/12 19:38:54","新北市汐止區中興路168-1號","121.631983333333","25.0655783333333","6501100","汐止區"
"221025","623-UM","2018/02/12 19:38:59","新北市汐止區新台五路二段48號","121.661155","25.06543","6501100","汐止區"
"221038","646-BX","2018/02/12 19:39:09","新北市汐止區忠孝東路206號","121.661875","25.06635","6501100","汐止區"
"221033","647-BX","2018/02/12 19:38:56","新北市汐止區南勢街1巷1號","121.627098333333","25.0375133333333","6501100","汐止區"
"221002","707-TV","2018/02/12 19:39:02","新北市汐止區大同路一段337巷16弄5號","121.637705","25.0601483333333","6501100","汐止區"
"221018","753-BX","2018/02/12 19:39:07","新北市汐止區大同路二段435號","121.659061666667","25.0673016666667","6501100","汐止區"
"220079","145-BY","2018/02/12 19:39:10","新北市板橋區建國街23號","121.45802","25.0170716666667","6500100","板橋區"
"220080","200-UY","2018/02/12 19:38:52","新北市板橋區大觀路二段37巷180號","121.449561666667","25.00212","6500100","板橋區"
"220082","610-BX","2018/02/12 19:39:01","新北市板橋區大觀路三段133巷4號","121.432955","24.99391","6500100","板橋區"
"220101","245-BX","2018/02/12 19:39:03","新北市板橋區莊敬路220巷4弄1號","121.472341666667","25.02097","6500100","板橋區"
"220056","276-BY","2018/02/12 19:39:03","新北市板橋區信義路1巷26弄2號","121.458061666667","24.9969816666667","6500100","板橋區"
"220072","277-BY","2018/02/12 19:39:03","新北市板橋區金門街230號","121.430621666667","24.9876783333333","6500100","板橋區"
"220094","283-UM","2018/02/12 19:38:56","新北市板橋區銘傳街41號","121.468853333333","25.0312183333333","6500100","板橋區"
"220071","283-VK","2018/02/12 19:39:01","新北市板橋區忠孝路24巷22號","121.460198333333","25.0009533333333","6500100","板橋區"
"220053","285-VK","2018/02/12 19:39:00","新北市板橋區懷仁街77巷22號","121.477591666667","25.0189633333333","6500100","板橋區"
"220083","286-VK","2018/02/12 19:39:06","新北市板橋區龍興街73巷51號","121.441878333333","25.0029566666667","6500100","板橋區"
"220081","287-VK","2018/02/12 19:38:51","新北市板橋區大觀路一段29巷131弄33號","121.45102","25.0039783333333","6500100","板橋區"
"220090","288-VK","2018/02/12 19:39:07","新北市板橋區裕民街74號","121.460885","25.0283616666667","6500100","板橋區"
"220061","293-UM","2018/02/12 19:39:06","新北市板橋區中山路二段157號","121.475606666667","25.0166666666667","6500100","板橋區"
"220084","296-UM","2018/02/12 19:39:08","新北市板橋區篤行路三段玉平巷37號","121.428773333333","24.9870066666667","6500100","板橋區"
"220075","303-R5","2018/02/12 19:39:09","新北市板橋區中正路289巷21號","121.454805","25.0190116666667","6500100","板橋區"
"220062","305-R5","2018/02/12 19:38:50","新北市板橋區三民路二段153巷4弄4號","121.479736666667","25.01454","6500100","板橋區"
"220092","307-R5","2018/02/12 19:38:55","新北市板橋區光武街4巷5號","121.468106666667","25.0253633333333","6500100","板橋區"
"220098","317-R6","2018/02/12 19:39:01","新北市板橋區民生路三段281巷2弄12號","121.463375","25.0304366666667","6500100","板橋區"
"220064","486-VK","2018/02/12 19:38:53","新北市板橋區中山路一段88號","121.46199","25.010115","6500100","板橋區"
"220089","487-VK","2018/02/12 19:38:56","新北市板橋區光正街45巷6弄19號","121.460811666667","25.0168966666667","6500100","板橋區"
"242044","280-VK","2018/02/12 19:38:57","新北市新莊區龍安路71-4號","121.415903333333","25.0220466666667","6500500","新莊區"
"220088","491-VK","2018/02/12 19:39:01","新北市板橋區文化路二段362號","121.472936666667","25.0305666666667","6500100","板橋區"
"220035","560-BX","2018/02/12 19:39:08","新北市板橋區新生街98巷24號","121.459003333333","25.021255","6500100","板橋區"
"220103","561-BX","2018/02/12 19:38:57","新北市板橋區民生路二段239號","121.468283333333","25.0215083333333","6500100","板橋區"
"220086","568-UM","2018/02/12 19:38:59","新北市板橋區國光路189-3號","121.461148333333","25.0184616666667","6500100","板橋區"
"220063","609-BX","2018/02/12 19:39:04","新北市板橋區三民路一段31巷89弄3號","121.481756666667","25.0234316666667","6500100","板橋區"
"220055","630-UY","2018/02/12 19:39:05","新北市板橋區國慶路149巷2弄1-4號","121.461318333333","24.9965516666667","6500100","板橋區"
"220091","637-BX","2018/02/12 19:39:03","新北市板橋區懷德街181巷26號","121.480466666667","25.03001","6500100","板橋區"
"220057","686-BX","2018/02/12 19:39:01","新北市中和區華福街2-2號","121.4649","24.9970633333333","6500100","板橋區"
"220077","687-BX","2018/02/12 19:38:56","新北市板橋區僑中二街116巷1號","121.445786666667","25.006235","6500100","板橋區"
"220093","689-BX","2018/02/12 19:39:00","新北市板橋區新海路332號","121.460261666667","25.0242183333333","6500100","板橋區"
"220054","741-BX","2018/02/12 19:39:01","新北市板橋區忠孝路190號","121.464983333333","25.0026166666667","6500100","板橋區"
"220067","829-TW","2018/02/12 19:38:57","新北市板橋區漢生東路313巷2弄7號","121.47233","25.0080883333333","6500100","板橋區"
"220096","830-TW","2018/02/12 19:38:51","新北市板橋區民生路二段226巷15號","121.470553333333","25.0219683333333","6500100","板橋區"
"220074","895-R6","2018/02/12 19:39:00","新北市板橋區中正路1巷14號","121.455198333333","25.0116783333333","6500100","板橋區"
"220073","985-R7","2018/02/12 19:39:09","新北市板橋區中正路235號","121.455983333333","25.0180466666667","6500100","板橋區"
"220097","AAC-210","2018/02/12 19:38:55","新北市板橋區幸福路32巷8號","121.461528333333","25.0206366666667","6500100","板橋區"
