"lineid","car","time","location","longitude","latitude","cityid","cityname"
"234046","148-BY","2018/02/12 19:59:13","新北市永和區成功路二段60號","121.526563333333","24.99967","6500400","永和區"
"234067","149-BY","2018/02/12 19:59:27","新北市永和區保平路236巷48號","121.507715","25.0069116666667","6500400","永和區"
"234007","207-UY","2018/02/12 19:59:22","新北市中和區中和路358號","121.51043","25.0016866666667","6500400","永和區"
"234081","298-R6","2018/02/12 19:59:13","新北市永和區永亨路100號","121.523245","25.004795","6500400","永和區"
"234038","336-UY","2018/02/12 19:59:18","新北市永和區民樂街31巷10弄2號","121.528223333333","25.0006716666667","6500400","永和區"
"234064","337-UY","2018/02/12 19:59:10","新北市永和區秀朗路一段218-2號","121.52007","25.0028816666667","6500400","永和區"
"234086","338-UY","2018/02/12 19:59:26","新北市永和區成功路一段38巷11號","121.526398333333","25.00444","6500400","永和區"
"234017","745-BX","2018/02/12 19:59:23","新北市永和區環河西路一段51巷24號","121.514176666667","25.0175533333333","6500400","永和區"
"234030","746-BX","2018/02/12 19:59:12","新北市永和區民生路67巷46號","121.525166666667","24.9974166666667","6500400","永和區"
"234054","KEA-2590","2018/02/12 19:59:16","新北市永和區環河東路一段122號","121.520578333333","25.01554","6500400","永和區"
"234013","KEA-2591","2018/02/12 19:59:19","新北市永和區永平路286號","121.507693333333","25.0120316666667","6500400","永和區"
"234061","AAD-866","2018/02/12 19:59:15","新北市永和區中正路401號","121.517258333333","25.0043533333333","6500400","永和區"
"234042","862-TW","2018/02/12 19:59:19","新北市永和區中和路385號","121.508603333333","25.0001416666667","6500400","永和區"
"234050","863-TW","2018/02/12 19:59:27","新北市永和區保安路77號","121.508716666667","25.014775","6500400","永和區"
"234026","9371-KE","2018/02/12 19:59:11","新北市永和區水源街33巷5號","121.510816666667","25.00418","6500400","永和區"
"234011","9373-KE","2018/02/12 19:59:27","新北市永和區仁愛路352巷112弄10號","121.501086666667","25.008545","6500400","永和區"
"249005","172-UM","2018/02/12 19:59:24","新北市八里區楓林路8號","121.386733333333","25.1314133333333","6502300","八里區"
"249001","173-UM","2018/02/12 19:59:20","新北市八里區中華路二段312號","121.403698333333","25.1484166666667","6502300","八里區"
"249004","303-UY","2018/02/12 19:59:24","新北市八里區中華路一段333-1號","121.413326666667","25.1538316666667","6502300","八里區"
"249002","305-UY","2018/02/12 19:59:19","新北市八里區頂寮一街60號","121.450336666667","25.1246233333333","6502300","八里區"
"249003","593-UM","2018/02/12 19:59:27","新北市八里區中華路二段560巷9號","121.398376666667","25.14502","6502300","八里區"
"248016","026-BX","2018/02/12 19:59:10","新北市五股區成泰路三段601巷12號","121.452121666667","25.10329","6501500","五股區"
"248008","095-VK","2018/02/12 19:59:11","新北市五股區四維路153號","121.467721666667","25.0745616666667","6501500","五股區"
"248018","225-UY","2018/02/12 19:59:20","新北市五股區壟路7-2號","121.416313333333","25.08964","6501500","五股區"
"248012","247-BX","2018/02/12 19:59:27","新北市五股區民義路一段26號","121.437205","25.0836833333333","6501500","五股區"
"248014","261-SL","2018/02/12 19:59:16","新北市五股區五福路22巷5號","121.434566666667","25.089035","6501500","五股區"
"248004","677-BX","2018/02/12 19:59:21","新北市五股區成泰路一段135號","121.435483333333","25.0728283333333","6501500","五股區"
"248002","678-BX","2018/02/12 19:59:21","新北市五股區成泰路三段436號","121.451005","25.0996916666667","6501500","五股區"
"248010","682-TV","2018/02/12 19:59:14","新北市五股區自強路90巷72號","121.430706666667","25.0712566666667","6501500","五股區"
"234077","969-R7","2018/02/12 19:59:21","新北市永和區民族街67巷7號","121.518838333333","24.997225","6500400","永和區"
"234074","AAC-211","2018/02/12 19:59:17","新北市永和區竹林路179巷16號","121.521308333333","25.0099283333333","6500400","永和區"
"234003","AAC-295","2018/02/12 19:59:16","新北市永和區中正路708號","121.516083333333","25.00997","6500400","永和區"
"244009","657-BX","2018/02/12 19:59:16","新北市林口區台電新村29號","121.386931666667","25.0862766666667","6501700","林口區"
"244011","701-TV","2018/02/12 19:59:15","新北市林口區寶斗厝坑67-5號","121.338591666667","25.1114066666667","6501700","林口區"
"243011","297-R6","2018/02/12 19:59:12","新北市泰山區明志路三段196巷21弄27號","121.422465","25.0384966666667","6501600","泰山區"
"243015","380-SR","2018/02/12 19:59:18","新北市泰山區明志路二段237巷28號","121.42804","25.0479","6501600","泰山區"
"243014","421-VK","2018/02/12 19:59:17","新北市泰山區泰林路二段114號","121.434665","25.0592483333333","6501600","泰山區"
"243012","539-UM","2018/02/12 19:59:13","新北市泰山區全興路87號","121.433271666667","25.0575266666667","6501600","泰山區"
"243010","KEA-2215","2018/02/12 19:59:25","新北市泰山區中華街10巷2號","121.428155","25.052365","6501600","泰山區"
"243009","KEA-2216","2018/02/12 19:59:21","新北市泰山區泰林路608號","121.424211666667","25.0654616666667","6501600","泰山區"
"222003","436-BY","2018/02/12 19:59:19","新北市深坑區埔新街10號","121.62072","25.0040416666667","6501800","深坑區"
"222002","659-BX","2018/02/12 19:59:13","新北市深坑區北深路二段55巷12弄23號","121.618471666667","25.003145","6501800","深坑區"
"231041","002-UM","2018/02/12 19:59:11","新北市新店區中正路352號","121.535936666667","24.9754766666667","6500600","新店區"
"231059","046-UY","2018/02/12 19:59:27","新北市新店區安成街1-1號","121.510808333333","24.9601","6500600","新店區"
"231061","047-UY","2018/02/12 19:59:23","新北市新店區安民街325號","121.517405","24.9745683333333","6500600","新店區"
"231060","106-UY","2018/02/12 19:59:25","新北市新店區安康路二段454號","121.494428333333","24.9542833333333","6500600","新店區"
"231051","107-UY","2018/02/12 19:59:16","新北市新店區中央三街9號","121.529355","24.9734933333333","6500600","新店區"
"231047","108-UY","2018/02/12 19:59:08","新北市新店區中興路二段236巷5號","121.54785","24.97597","6500600","新店區"
"231052","187-VK","2018/02/12 19:59:20","新北市新店區新烏路三段185號","121.550381666667","24.900985","6500600","新店區"
"231050","KEA-2219","2018/02/12 19:59:09","新北市新店區北宜路一段222號","121.544046666667","24.9532116666667","6500600","新店區"
"221015","KEA-2785","2018/02/12 19:59:25","新北市汐止區汐萬路一段20號","121.656011666667","25.067495","6501100","汐止區"
"231057","256-BX","2018/02/12 19:59:25","新北市新店區花園二路一段9號","121.556568333333","24.932365","6500600","新店區"
"231054","AAD-862","2018/02/12 19:59:13","新北市新店區光明街125號","121.539415","24.9617666666667","6500600","新店區"
"231058","3712-VJ","2018/02/12 19:59:28","新北市新店區薏仁坑路23號","121.497673333333","24.95891","6500600","新店區"
"231056","3713-VJ","2018/02/12 19:59:22","新北市新店區中正路489號","121.533788333333","24.9823816666667","6500600","新店區"
"231055","4716-K9","2018/02/12 19:59:18","新北市新店區力行路5號","121.539471666667","24.9645983333333","6500600","新店區"
"231067","4772-VM","2018/02/12 19:59:15","新北市新店區安康路一段35-5號","121.53177","24.9604833333333","6500600","新店區"
"231064","515-UM","2018/02/12 19:59:19","新北市新店區安民街125號","121.516331666667","24.96878","6500600","新店區"
"231042","616-UM","2018/02/12 19:59:25","新北市新店區中興路二段89號","121.547058333333","24.9714483333333","6500600","新店區"
"231045","617-UM","2018/02/12 19:59:12","新北市新店區北宜路二段337號","121.55762","24.9539816666667","6500600","新店區"
"231040","619-UM","2018/02/12 19:59:12","新北市新店區中正路60號","121.5443","24.9700666666667","6500600","新店區"
"231063","645-TV","2018/02/12 19:59:28","新北市新店區黎明路52巷2號","121.501913333333","24.9488933333333","6500600","新店區"
"231068","718-UY","2018/02/12 19:59:20","新北市新店區安華路28-1號","121.519395","24.9610883333333","6500600","新店區"
"231049","719-UM","2018/02/12 19:59:23","新北市新店區民族路14-1號","121.541466666667","24.9788366666667","6500600","新店區"
"231065","719-UY","2018/02/12 19:59:20","新北市新店區安祥路109巷137號","121.4771","24.9582666666667","6500600","新店區"
"231062","720-UM","2018/02/12 19:59:21","新北市新店區華潭街24號","121.52916","24.95295","6500600","新店區"
"231044","897-TW","2018/02/12 19:59:14","新北市新店區復興路121號","121.534148333333","24.9879883333333","6500600","新店區"
"231043","899-TW","2018/02/12 19:59:10","新北市新店區中正路282號","121.538563333333","24.9738566666667","6500600","新店區"
"231066","AKT-0513","2018/02/12 19:59:20","新北市新店區柴埕路20巷2號","121.51406","24.9658783333333","6500600","新店區"
"241026","066-VK","2018/02/12 19:59:25","新北市三重區中央南路26號","121.50143","25.0623816666667","6500200","三重區"
"241002","090-VK","2018/02/12 19:59:29","新北市五股區新城三路61號","121.44946","25.0942883333333","6500200","三重區"
"241001","091-VK","2018/02/12 19:59:15","新北市三重區自強路四段31巷5號","121.489563333333","25.07664","6500200","三重區"
"241035","462-BY","2018/02/12 19:59:17","新北市三重區大榮街11號","121.498221666667","25.06327","6500200","三重區"
"241023","545-UM","2018/02/12 19:59:15","新北市三重區頂崁街172號","121.477548333333","25.0659866666667","6500200","三重區"
"241019","KEA-2593","2018/02/12 19:59:11","新北市三重區重陽路三段115號","121.490793333333","25.068815","6500200","三重區"
"241003","887-TS","2018/02/12 19:59:16","新北市三重區五華街93巷1號","121.491973333333","25.0836866666667","6500200","三重區"
"241012","941-UM","2018/02/12 19:59:29","新北市三重區仁興街56巷30號","121.498371666667","25.075505","6500200","三重區"
"241029","942-UM","2018/02/12 19:59:26","新北市三重區重新路三段204號","121.490113333333","25.058305","6500200","三重區"
"241033","AAC-255","2018/02/12 19:59:21","新北市三重區中興北街61號","121.469481666667","25.0474183333333","6500200","三重區"
"235066","003-UY","2018/02/12 19:59:11","新北市中和區中山路二段3巷14號","121.506036666667","25.00566","6500300","中和區"
"235064","005-UY","2018/02/12 19:59:15","新北市中和區南華路43號","121.503745","24.9967133333333","6500300","中和區"
"235063","006-UY","2018/02/12 19:59:16","新北市中和區連勝街115號","121.495076666667","24.9952116666667","6500300","中和區"
"235056","096-UM","2018/02/12 19:59:26","新北市中和區中山路三段172號","121.472773333333","25.006405","6500300","中和區"
"235039","097-UM","2018/02/12 19:59:29","新北市中和區大勇街27巷20號","121.516493333333","24.9938033333333","6500300","中和區"
"235065","098-UM","2018/02/12 19:59:13","新北市中和區福祥路46號","121.499405","25.00392","6500300","中和區"
"235040","150-BY","2018/02/12 19:59:29","新北市中和區保健路10巷20-3號","121.507751666667","24.9966666666667","6500300","中和區"
"235058","151-BY","2018/02/12 19:59:25","新北市中和區員山路124巷26號","121.482293333333","24.9959933333333","6500300","中和區"
"235055","183-VK","2018/02/12 19:59:31","新北市中和區德光路13號","121.471173333333","25.0043916666667","6500300","中和區"
"235038","185-VK","2018/02/12 19:59:23","新北市中和區大仁街20巷25弄1號","121.518445","24.993595","6500300","中和區"
"235049","186-VK","2018/02/12 19:59:25","新北市中和區景平路385巷28號","121.501888333333","24.9945166666667","6500300","中和區"
"235067","255-BX","2018/02/12 19:59:12","新北市中和區新生街242巷1弄1號","121.483363333333","24.99776","6500300","中和區"
"235044","293-VK","2018/02/12 19:59:22","新北市中和區中正路89號","121.500468333333","24.99336","6500300","中和區"
"235043","352-BY","2018/02/12 19:59:24","新北市中和區興南路二段159巷1號","121.505178333333","24.9832466666667","6500300","中和區"
"235068","377-QA","2018/02/12 19:59:18","新北市中和區員山路36巷16-3號","121.485108333333","24.9913033333333","6500300","中和區"
"235061","378-QA","2018/02/12 19:59:16","新北市中和區連城路376-1號","121.481161666667","24.99535","6500300","中和區"
"235071","269-TV","2018/02/12 19:59:24","新北市中和區中正路866-9號","121.48509","25.0061316666667","6500300","中和區"
"235050","4979-A6","2018/02/12 19:59:11","新北市中和區景平路241巷82弄20號","121.507025","24.992185","6500300","中和區"
"235069","4980-A6","2018/02/12 19:59:26","新北市中和區景平路477號","121.500138333333","24.9971083333333","6500300","中和區"
"235070","558-UM","2018/02/12 19:59:20","新北市中和區景平路624-1號","121.500283333333","24.99766","6500300","中和區"
"235054","640-BX","2018/02/12 19:59:29","新北市中和區莒光路143號","121.472708333333","25.001415","6500300","中和區"
"235060","647-TV","2018/02/12 19:59:19","新北市中和區新生街16巷42號","121.481655","25.0045466666667","6500300","中和區"
"235047","732-UM","2018/02/12 19:59:22","新北市中和區和平街65號","121.505943333333","24.9919466666667","6500300","中和區"
"235046","733-UM","2018/02/12 19:59:29","新北市中和區興南路一段93巷83號","121.510571666667","24.986295","6500300","中和區"
"235057","801-TS","2018/02/12 19:59:15","新北市中和區民樂路65號","121.48365","25.00129","6500300","中和區"
"235052","805-TS","2018/02/12 19:59:14","新北市中和區興南路二段121號","121.505586666667","24.984225","6500300","中和區"
"235048","896-TW","2018/02/12 19:59:26","新北市中和區景新街385號","121.512366666667","24.990185","6500300","中和區"
"235053","900-TW","2018/02/12 19:59:18","新北市中和區民德路270號","121.467971666667","24.9965316666667","6500300","中和區"
"235051","157-BY","2018/02/12 19:59:24","新北市中和區中興街233巷10號","121.501515","24.989455","6500300","中和區"
"235059","AAC-215","2018/02/12 19:59:24","新北市中和區圓通路305巷5弄40號","121.494648333333","24.9902916666667","6500300","中和區"
"220068","013-TV","2018/02/12 19:59:19","新北市板橋區中山路二段光榮巷30弄15號","121.484473333333","25.0203","6500100","板橋區"
"220065","072-UY","2018/02/12 19:59:15","新北市板橋區長安街14號","121.466828333333","25.0087633333333","6500100","板橋區"
"220086","073-UY","2018/02/12 19:59:31","新北市樹林區中山路三段214號","121.379855","24.96761","6500100","板橋區"
"220106","075-UY","2018/02/12 19:59:14","新北市板橋區民治街57巷32-1號","121.48015","25.0340616666667","6500100","板橋區"
"220069","AAD-861","2018/02/12 19:59:29","新北市板橋區貴興路106巷16弄2號","121.454841666667","25.0034583333333","6500100","板橋區"
"247010","339-TH","2018/02/12 19:59:18","新北市三重區集賢路188號","121.484051666667","25.088155","6501400","蘆洲區"
"247004","337-TH","2018/02/12 19:59:20","新北市蘆洲區中原路73號","121.458385","25.0819116666667","6501400","蘆洲區"
"247002","335-TH","2018/02/12 19:59:15","新北市蘆洲區永樂街31巷1-1號","121.458245","25.0875766666667","6501400","蘆洲區"
"247016","056-VK","2018/02/12 19:59:09","新北市蘆洲區中正路96號","121.470043333333","25.08388","6501400","蘆洲區"
"247006","053-VK","2018/02/12 19:59:13","新北市蘆洲區九芎街115號","121.465558333333","25.0795216666667","6501400","蘆洲區"
"247024","002-UY","2018/02/12 19:59:27","新北市蘆洲區中正路299巷10號","121.465781666667","25.087875","6501400","蘆洲區"
"226004","312-R5","2018/02/12 19:59:12","新北市平溪區十分里十分街80號","121.7764","25.042175","6502400","平溪區"
"235041","251-BX","2018/02/12 19:59:18","新北市中和區中安街58號","121.512703333333","25.002335","6500300","中和區"
"228003","097-TW","2018/02/12 19:59:17","新北市貢寮區仁理村仁和路244號","121.924095","25.05394","6502600","貢寮區"
"224010","AGQ-8101","2018/02/12 19:59:09","新北市瑞芳區基山街217-1號","121.842308333333","25.1069716666667","6501200","瑞芳區"
"227001","642-TC","2018/02/12 19:59:19","新北市雙溪區雙溪里長安街16號","121.865011666667","25.034665","6502500","雙溪區"
"227008","400-TW","2018/02/12 19:59:29","新北市雙溪區新基里新基南街24號","121.86628","25.0381666666667","6502500","雙溪區"
"222001","KEA-2212","2018/02/12 19:59:30","新北市深坑區北深路三段157號","121.602093333333","25.0030816666667","6501800","深坑區"
"208002","742-BX","2018/02/12 19:59:21","新北市金山區中華路182-1號","121.632731666667","25.2227533333333","6502700","金山區"
"208003","665-BX","2018/02/12 19:59:21","新北市金山區海興路30號","121.630565","25.2379133333333","6502700","金山區"
"208001","761-BX","2018/02/12 19:59:13","新北市金山區重和里六股林口81-1號","121.603546666667","25.21829","6502700","金山區"
"251004","009-UM","2018/02/12 19:47:15","新北市淡水區民權路189號","121.459718333333","25.1334016666667","6501000","淡水區"
"251005","010-UM","2018/02/12 19:59:28","新北市淡水區學府路136巷3號","121.45096","25.17294","6501000","淡水區"
"251013","179-VK","2018/02/12 19:59:24","新北市淡水區頂田寮2-1號","121.460946666667","25.2127516666667","6501000","淡水區"
"251014","180-VK","2018/02/12 19:59:25","新北市淡水區石頭厝2-3號","121.459331666667","25.2363783333333","6501000","淡水區"
"251008","181-VK","2018/02/12 19:59:23","新北市淡水區中正路一段132巷7弄10號","121.422343333333","25.1801733333333","6501000","淡水區"
"251015","182-VK","2018/02/12 19:59:18","新北市淡水區商工路198巷1號","121.45107","25.1880216666667","6501000","淡水區"
"251010","413-VK","2018/02/12 19:59:26","新北市淡水區崁頂76-1號","121.431053333333","25.203705","6501000","淡水區"
"251012","441-VK","2018/02/12 19:59:20","新北市淡水區下圭柔山70-10號","121.447193333333","25.20645","6501000","淡水區"
"251016","442-VK","2018/02/12 19:59:08","新北市淡水區番子田16-13號","121.453716666667","25.2317033333333","6501000","淡水區"
"251006","561-UM","2018/02/12 19:59:18","新北市淡水區北新路10號","121.444515","25.1773933333333","6501000","淡水區"
"251009","575-R6","2018/02/12 19:59:17","新北市淡水區英專路28巷18號","121.44593","25.1698466666667","6501000","淡水區"
"251011","650-BX","2018/02/12 19:59:15","新北市淡水區崁頂55-1號","121.442336666667","25.1969433333333","6501000","淡水區"
"251002","672-BX","2018/02/12 19:59:22","新北市淡水區中正路二段12號","121.420585","25.180735","6501000","淡水區"
"207003","550-UM","2018/02/12 19:59:13","新北市萬里區大鵬里萬里加投67-7號","121.641993333333","25.21342","6502800","萬里區"
"207004","225-TW","2018/02/12 19:59:27","新北市萬里區北基里忠二街35號","121.685651666667","25.175765","6502800","萬里區"
"252002","178-VK","2018/02/12 19:59:13","新北市三芝區忠孝街112-3號","121.505516666667","25.2576533333333","6502100","三芝區"
"252001","292-VK","2018/02/12 19:59:29","新北市三芝區公正街66號","121.49983","25.2575216666667","6502100","三芝區"
"237004","KEA-2597","2018/02/12 19:59:19","新北市三峽區添福14號","121.373593333333","24.9023483333333","6500900","三峽區"
"237009","210-TH","2018/02/12 19:59:24","新北市三峽區中園街22號","121.36815","24.9269266666667","6500900","三峽區"
"237013","252-BX","2018/02/12 19:59:25","新北市三峽區介壽路二段2號","121.389653333333","24.9346733333333","6500900","三峽區"
"237012","275-BY","2018/02/12 19:59:07","新北市三峽區中華路3巷2-10號","121.375008333333","24.93146","6500900","三峽區"
"237008","302-VK","2018/02/12 19:59:22","新北市三峽區大同路147巷7號","121.37123","24.92643","6500900","三峽區"
"237014","433-BY","2018/02/12 19:59:15","新北市三峽區添福139號","121.375391666667","24.9009533333333","6500900","三峽區"
"237006","5529-G3","2018/02/12 19:59:14","新北市三峽區橫溪路99巷4號","121.399605","24.935815","6500900","三峽區"
"237011","KEA-2596","2018/02/12 19:59:21","新北市三峽區介壽路一段385-1號","121.388568333333","24.934325","6500900","三峽區"
"237005","AKY-6261","2018/02/12 19:59:24","新北市三峽區長泰街6巷32號","121.37943","24.9319983333333","6500900","三峽區"
"236069","105-UM","2018/02/12 19:59:27","新北市土城區忠義路33號","121.44053","24.97005","6501300","土城區"
"236042","107-UM","2018/02/12 19:59:18","新北市土城區裕民路233巷1號","121.454846666667","24.98358","6501300","土城區"
"236078","166-UM","2018/02/12 19:59:13","新北市土城區溪頭路5號","121.413111666667","24.9555283333333","6501300","土城區"
"236030","253-BX","2018/02/12 19:59:13","新北市土城區中央路一段250巷1號","121.444153333333","24.984655","6501300","土城區"
"236026","269-VK","2018/02/12 19:59:28","新北市土城區中央路二段89號","121.442295","24.9781533333333","6501300","土城區"
"236014","270-VK","2018/02/12 19:59:29","新北市土城區廣福街123號","121.456228333333","24.992855","6501300","土城區"
"236036","271-VK","2018/02/12 19:59:24","新北市土城區國際路72號","121.466845","24.9762516666667","6501300","土城區"
"236020","401-BY","2018/02/12 19:59:11","新北市土城區金城路三段200-5號","121.468796666667","24.9875866666667","6501300","土城區"
"236058","912-UM","2018/02/12 19:59:21","新北市土城區中央路一段171號","121.446313333333","24.9874783333333","6501300","土城區"
"236048","913-UM","2018/02/12 19:59:14","新北市土城區青雲路145號","121.45883","24.98434","6501300","土城區"
"236062","915-UM","2018/02/12 19:59:19","新北市土城區延和路105巷8弄1號","121.467305","24.9913766666667","6501300","土城區"
"236053","AAC-216","2018/02/12 19:59:15","新北市土城區延和路19號","121.464386666667","24.9883066666667","6501300","土城區"
"242031","AAC-296","2018/02/12 19:59:28","新北市新莊區忠孝街60號","121.443958333333","25.0361233333333","6500500","新莊區"
"242029","986-R7","2018/02/12 19:59:24","新北市新莊區中平路302巷3號","121.445028333333","25.0517766666667","6500500","新莊區"
"242025","615-BX","2018/02/12 19:59:10","新北市新莊區五工二路86巷20號","121.460123333333","25.0668816666667","6500500","新莊區"
"242023","613-BX","2018/02/12 19:59:11","新北市新莊區化成路159號","121.465736666667","25.0492566666667","6500500","新莊區"
"242027","612-BX","2018/02/12 19:59:27","新北市新莊區立信三街30號","121.443043333333","25.0506083333333","6500500","新莊區"
"242039","566-BX","2018/02/12 19:59:27","新北市新莊區民安路291-1號","121.429426666667","25.0225433333333","6500500","新莊區"
"242048","441-UM","2018/02/12 19:59:12","新北市新莊區民安路207巷7弄1號","121.426678333333","25.0230383333333","6500500","新莊區"
"242053","440-UM","2018/02/12 19:59:27","新北市新莊區西盛街423號","121.427283333333","25.012195","6500500","新莊區"
"242034","415-TV","2018/02/12 19:59:10","新北市新莊區建中街107號","121.446376666667","25.03651","6500500","新莊區"
"242004","413-TV","2018/02/12 19:59:16","新北市新莊區化成路314巷20弄1號","121.467036666667","25.0482616666667","6500500","新莊區"
"242042","400-BY","2018/02/12 19:59:12","新北市新莊區青山路一段8-2號","121.411616666667","25.027645","6500500","新莊區"
"242060","362-BY","2018/02/12 19:59:27","新北市新莊區瓊泰路3號","121.444856666667","25.0286266666667","6500500","新莊區"
"242007","132-UY","2018/02/12 19:59:29","新北市新莊區思源路593巷22號","121.458291666667","25.0597566666667","6500500","新莊區"
"242036","133-UY","2018/02/12 19:59:20","新北市新莊區建安街103號","121.42661","25.0242216666667","6500500","新莊區"
"242021","135-UY","2018/02/12 19:59:22","新北市新莊區建中街52號","121.448468333333","25.0372333333333","6500500","新莊區"
"242009","173-VK","2018/02/12 19:59:06","新北市新莊區幸福路784號","121.446805","25.04939","6500500","新莊區"
"242015","175-VK","2018/02/12 19:59:24","新北市新莊區泰順街33巷10號","121.446213333333","25.0427366666667","6500500","新莊區"
"242002","176-VK","2018/02/12 19:59:27","新北市新莊區中正路190號","121.449726666667","25.03552","6500500","新莊區"
"242013","346-TH","2018/02/12 19:59:20","新北市新莊區中華路二段83-1號","121.452573333333","25.0488016666667","6500500","新莊區"
"242050","347-TH","2018/02/12 19:59:08","新北市新莊區民安東路22號","121.4284","25.02093","6500500","新莊區"
"242019","348-TH","2018/02/12 19:59:27","新北市新莊區民生街28號","121.456213333333","25.04219","6500500","新莊區"
"242056","349-TH","2018/02/12 19:59:22","新北市新莊區新豐街19號","121.448256666667","25.03417","6500500","新莊區"
"242017","350-TH","2018/02/12 19:59:27","新北市新莊區中安街5巷25號","121.452343333333","25.0460466666667","6500500","新莊區"
"242011","351-TH","2018/02/12 19:59:23","新北市新莊區中港路531巷54號","121.450123333333","25.05151","6500500","新莊區"
"238015","755-BX","2018/02/12 19:59:27","新北市樹林區大安路593號","121.411783333333","24.9830333333333","6500700","樹林區"
"238023","601-UM","2018/02/12 19:59:26","新北市樹林區俊英街218號","121.424906666667","25.0098566666667","6500700","樹林區"
"238019","599-UM","2018/02/12 19:59:20","新北市樹林區鎮前街347巷2弄1號","121.416693333333","24.9837566666667","6500700","樹林區"
"238018","571-TV","2018/02/12 19:59:12","新北市樹林區中華路147號","121.421345","24.982255","6500700","樹林區"
"238022","KEA-2213","2018/02/12 19:59:17","新北市樹林區國凱街50巷3號","121.420483333333","24.9785133333333","6500700","樹林區"
"238026","KEA-2539","2018/02/12 19:59:10","新北市樹林區大成路155-1號","121.381716666667","24.94864","6500700","樹林區"
"238012","303-VK","2018/02/12 19:59:24","新北市樹林區中山路一段189號","121.42139","24.9878316666667","6500700","樹林區"
"238017","283-BY","2018/02/12 19:59:13","新北市樹林區保安街二段22號","121.415528333333","25.0015833333333","6500700","樹林區"
"238020","268-VK","2018/02/12 19:59:16","新北市樹林區中正路241號","121.43016","24.9988916666667","6500700","樹林區"
"238026","172-UY","2018/02/12 19:59:28","新北市樹林區佳園路二段157-2號","121.38986","24.9567016666667","6500700","樹林區"
"239007","AAC-297","2018/02/12 19:59:22","新北市鶯歌區大湖路18號","121.34283","24.9608283333333","6500800","鶯歌區"
"239006","891-R6","2018/02/12 19:59:20","新北市鶯歌區文化路124號","121.351825","24.9519066666667","6500800","鶯歌區"
"239008","527-UM","2018/02/12 19:59:18","新北市鶯歌區大湖路456號","121.340218333333","24.9721983333333","6500800","鶯歌區"
"239005","526-UM","2018/02/12 19:59:23","新北市鶯歌區東湖路19-1號","121.357693333333","24.97335","6500800","鶯歌區"
"239001","417-VK","2018/02/12 19:59:10","新北市鶯歌區建國路375號","121.338918333333","24.94982","6500800","鶯歌區"
"239004","193-VK","2018/02/12 19:59:18","新北市鶯歌區鶯華新村40號","121.330296666667","24.9341116666667","6500800","鶯歌區"
"221008","489-VK","2018/02/12 19:59:13","新北市汐止區康寧街65號","121.618648333333","25.0667866666667","6501100","汐止區"
"221036","130-UY","2018/02/12 19:59:17","新北市汐止區忠孝東路258巷11弄7號","121.663901666667","25.067545","6501100","汐止區"
"221010","269-BY","2018/02/12 19:59:25","新北市汐止區連峰街264號","121.644696666667","25.0813516666667","6501100","汐止區"
"221012","278-VK","2018/02/12 19:59:21","新北市汐止區汐平路一段7號","121.680866666667","25.071225","6501100","汐止區"
"221023","279-VK","2018/02/12 19:59:20","新北市汐止區中興路201號","121.629256666667","25.068445","6501100","汐止區"
"221032","280-BY","2018/02/12 19:59:19","新北市汐止區橫科路121巷51弄7號","121.62234","25.050855","6501100","汐止區"
"221027","281-BY","2018/02/12 19:59:26","新北市汐止區中正路34號","121.662361666667","25.07034","6501100","汐止區"
"221029","298-VK","2018/02/12 19:59:26","新北市汐止區樟樹一路137巷24號","121.641073333333","25.0659583333333","6501100","汐止區"
"221021","299-VK","2018/02/12 19:59:25","新北市汐止區水源路一段143號","121.655951666667","25.0622883333333","6501100","汐止區"
"221031","353-TW","2018/02/12 19:59:14","新北市汐止區福德一路176巷7弄3號","121.63494","25.066475","6501100","汐止區"
"221035","622-UM","2018/02/12 19:59:10","新北市汐止區長江街39巷23號","121.655255","25.0721483333333","6501100","汐止區"
"221025","623-UM","2018/02/12 19:59:19","新北市汐止區秀峰路81巷36號","121.661343333333","25.0646583333333","6501100","汐止區"
"221038","646-BX","2018/02/12 19:59:15","新北市汐止區忠孝東路428號","121.66611","25.071965","6501100","汐止區"
"221033","647-BX","2018/02/12 19:59:16","新北市汐止區東勢街201巷38號","121.634913333333","25.0436566666667","6501100","汐止區"
"221018","753-BX","2018/02/12 19:59:27","新北市汐止區茄苳路26號","121.664965","25.0708516666667","6501100","汐止區"
"220079","145-BY","2018/02/12 19:59:10","新北市板橋區建國街15號","121.4577","25.0168866666667","6500100","板橋區"
"220082","610-BX","2018/02/12 19:59:21","新北市板橋區大觀路三段263號","121.429128333333","24.99221","6500100","板橋區"
"220101","245-BX","2018/02/12 19:59:23","新北市板橋區縣民大道三段79巷5號","121.475215","25.02188","6500100","板橋區"
"220072","277-BY","2018/02/12 19:59:23","新北市板橋區金門街171號","121.432676666667","24.9902283333333","6500100","板橋區"
"220094","283-UM","2018/02/12 19:58:08","新北市板橋區長江路二段2號","121.464495","25.0312683333333","6500100","板橋區"
"220071","283-VK","2018/02/12 19:59:21","新北市板橋區五權街32巷35號","121.463621666667","24.99255","6500100","板橋區"
"220053","285-VK","2018/02/12 19:59:20","新北市板橋區中山路二段60巷1弄24號","121.475146666667","25.01573","6500100","板橋區"
"220083","286-VK","2018/02/12 19:59:26","新北市板橋區龍興街97巷2號","121.444253333333","25.0027033333333","6500100","板橋區"
"220081","287-VK","2018/02/12 19:59:31","新北市板橋區大觀路一段29巷51號","121.450333333333","25.0071616666667","6500100","板橋區"
"220090","288-VK","2018/02/12 19:59:26","新北市板橋區龍泉街54巷7弄7號","121.456503333333","25.0264333333333","6500100","板橋區"
"220061","293-UM","2018/02/12 19:59:27","新北市板橋區板新路215號","121.468348333333","25.015775","6500100","板橋區"
"220084","296-UM","2018/02/12 19:59:28","新北市板橋區溪崑二街124巷24號","121.425315","24.9885483333333","6500100","板橋區"
"220062","305-R5","2018/02/12 19:59:31","新北市板橋區中山路二段416巷38弄36號","121.481681666667","25.01948","6500100","板橋區"
"220092","307-R5","2018/02/12 19:59:15","新北市板橋區陽明街164巷32號","121.464986666667","25.0246016666667","6500100","板橋區"
"220098","317-R6","2018/02/12 19:59:19","新北市板橋區四維路269巷82號","121.459981666667","25.0267816666667","6500100","板橋區"
"220064","486-VK","2018/02/12 19:59:23","新北市板橋區民族路19號","121.4618","25.0097333333333","6500100","板橋區"
"220089","487-VK","2018/02/12 19:59:16","新北市板橋區龍泉街94-4號","121.456573333333","25.0251116666667","6500100","板橋區"
"242044","280-VK","2018/02/12 19:59:17","新北市新莊區雙鳳路12號","121.417105","25.0268983333333","6500500","新莊區"
"220088","491-VK","2018/02/12 19:59:10","新北市板橋區文聖街147號","121.478513333333","25.0280883333333","6500100","板橋區"
"220035","560-BX","2018/02/12 19:59:28","新北市板橋區新生街53巷3弄10號","121.457158333333","25.0217766666667","6500100","板橋區"
"220103","561-BX","2018/02/12 19:59:17","新北市板橋區陽明街29巷1弄8號","121.464808333333","25.0215766666667","6500100","板橋區"
"220086","568-UM","2018/02/12 19:59:18","新北市板橋區國光路1號","121.45659","25.0172783333333","6500100","板橋區"
"220063","609-BX","2018/02/12 19:59:24","新北市板橋區三民路一段3巷1號","121.478811666667","25.0236433333333","6500100","板橋區"
"220055","630-UY","2018/02/12 19:59:26","新北市板橋區國慶路167巷15號","121.461861666667","24.997245","6500100","板橋區"
"220091","637-BX","2018/02/12 19:59:24","新北市板橋區文聖街101巷27號","121.478493333333","25.0299033333333","6500100","板橋區"
"220057","686-BX","2018/02/12 19:59:21","新北市板橋區廣權路39號","121.462873333333","24.9918316666667","6500100","板橋區"
"220077","687-BX","2018/02/12 19:59:30","新北市板橋區僑中一街102巷5弄16號","121.446073333333","25.0127833333333","6500100","板橋區"
"220093","689-BX","2018/02/12 19:59:26","新北市板橋區長江路二段280-13號","121.470281666667","25.03306","6500100","板橋區"
"220054","741-BX","2018/02/12 19:59:21","新北市板橋區忠孝路忠義巷15弄28號","121.465751666667","25.0042733333333","6500100","板橋區"
"220067","829-TW","2018/02/12 19:59:32","新北市板橋區長安街259巷39號","121.472656666667","25.0113483333333","6500100","板橋區"
"220096","830-TW","2018/02/12 19:59:11","新北市板橋區莒光路51巷20號","121.471345","25.0252216666667","6500100","板橋區"
"220074","895-R6","2018/02/12 19:59:20","新北市板橋區館前西路175號","121.455725","25.0082383333333","6500100","板橋區"
"220073","985-R7","2018/02/12 19:59:22","新北市板橋區大仁街83號","121.453673333333","25.0160983333333","6500100","板橋區"
"220097","AAC-210","2018/02/12 19:59:15","新北市板橋區光正街45巷32號","121.461408333333","25.0160466666667","6500100","板橋區"
