"lineid","car","time","location","longitude","latitude","cityid","cityname"
"234046","148-BY","2018/02/12 20:09:33","新北市永和區秀朗路二段80號","121.522966666667","25.00165","6500400","永和區"
"234067","149-BY","2018/02/12 20:09:48","新北市永和區永貞路354號","121.5103","25.0064166666667","6500400","永和區"
"234007","207-UY","2018/02/12 20:09:42","新北市中和區中和路232號","121.50679","24.9995216666667","6500400","永和區"
"234081","298-R6","2018/02/12 20:09:50","新北市永和區國中路86巷2號","121.524736666667","25.005915","6500400","永和區"
"234038","336-UY","2018/02/12 20:09:50","新北市永和區成功路二段127號","121.526786666667","24.9982666666667","6500400","永和區"
"234064","337-UY","2018/02/12 20:09:50","新北市永和區得和路168號","121.519516666667","25.000095","6500400","永和區"
"234086","338-UY","2018/02/12 20:09:46","新北市永和區永亨路127號","121.524495","25.0041066666667","6500400","永和區"
"234017","745-BX","2018/02/12 20:09:37","新北市永和區忠孝街26巷4號","121.515465","25.01663","6500400","永和區"
"234030","746-BX","2018/02/12 20:09:32","新北市永和區民生路22巷21號","121.521455","24.9970516666667","6500400","永和區"
"234054","KEA-2590","2018/02/12 20:09:36","新北市永和區博愛街17號","121.517325","25.0158266666667","6500400","永和區"
"234013","KEA-2591","2018/02/12 20:09:39","新北市永和區保生路55號","121.504635","25.0099733333333","6500400","永和區"
"234061","AAD-866","2018/02/12 20:09:35","新北市永和區中正路226號","121.516001666667","24.9976233333333","6500400","永和區"
"234042","862-TW","2018/02/12 20:09:39","新北市永和區雙和街16巷12號","121.5101","25.0024216666667","6500400","永和區"
"234050","863-TW","2018/02/12 20:09:47","新北市永和區保安路232號","121.506945","25.01319","6500400","永和區"
"234026","9371-KE","2018/02/12 20:09:31","新北市永和區保生路25-1號","121.50599","25.0076833333333","6500400","永和區"
"234023","9381-KE","2018/02/12 20:09:42","新北市永和區中正路702巷20弄1號","121.516583333333","25.0105516666667","6500400","永和區"
"234011","9373-KE","2018/02/12 20:09:47","新北市永和區仁愛路352巷122弄33號","121.500756666667","25.00931","6500400","永和區"
"249005","172-UM","2018/02/12 20:09:48","新北市八里區福德新村30號","121.386196666667","25.1365333333333","6502300","八里區"
"249001","173-UM","2018/02/12 20:09:44","新北市八里區中華路二段332號","121.403146666667","25.1480683333333","6502300","八里區"
"249004","303-UY","2018/02/12 20:07:24","新北市八里區中山路一段157巷67號","121.412298333333","25.15783","6502300","八里區"
"249002","305-UY","2018/02/12 20:09:49","新北市八里區龍米路一段17號","121.457253333333","25.1157466666667","6502300","八里區"
"249003","593-UM","2018/02/12 20:09:47","新北市八里區中山路二段540巷26號","121.397135","25.14689","6502300","八里區"
"248016","026-BX","2018/02/12 20:09:34","新北市五股區成泰路三段577巷80弄50號","121.449676666667","25.1048416666667","6501500","五股區"
"248008","095-VK","2018/02/12 20:09:50","新北市三重區中正北路560巷37弄19號","121.469911666667","25.07087","6501500","五股區"
"248018","225-UY","2018/02/12 20:03:40","新北市五股區壟路16號","121.415108333333","25.0854133333333","6501500","五股區"
"248012","247-BX","2018/02/12 20:09:47","新北市五股區民義路一段212號","121.430505","25.0894816666667","6501500","五股區"
"248014","261-SL","2018/02/12 20:09:36","新北市五股區五福路6巷19號","121.435386666667","25.088455","6501500","五股區"
"248004","677-BX","2018/02/12 20:09:40","新北市五股區成泰路一段32巷62號","121.434946666667","25.0669316666667","6501500","五股區"
"248002","678-BX","2018/02/12 20:09:35","新北市五股區成泰路三段311-2號","121.4479","25.0948733333333","6501500","五股區"
"248010","682-TV","2018/02/12 20:09:34","新北市五股區登林路76-5號","121.430571666667","25.069565","6501500","五股區"
"234077","969-R7","2018/02/12 20:09:41","新北市永和區民治街50號","121.518743333333","24.9978366666667","6500400","永和區"
"234074","AAC-211","2018/02/12 20:09:37","新北市永和區豫溪街189巷1號","121.522566666667","25.0103416666667","6500400","永和區"
"234003","AAC-295","2018/02/12 20:09:36","新北市永和區中正路618-1號","121.517108333333","25.007775","6500400","永和區"
"244009","657-BX","2018/02/12 20:09:36","新北市林口區林口路51號","121.390071666667","25.0794133333333","6501700","林口區"
"244011","701-TV","2018/02/12 20:09:35","新北市林口區太平里180號","121.368266666667","25.1347816666667","6501700","林口區"
"243011","297-R6","2018/02/12 20:09:32","新北市泰山區明志路三段196巷54號","121.42159","25.040155","6501600","泰山區"
"243015","380-SR","2018/02/12 20:09:38","新北市泰山區明志路二段194號","121.427381666667","25.0496366666667","6501600","泰山區"
"243014","421-VK","2018/02/12 20:09:37","新北市泰山區明志路一段40號","121.43354","25.065225","6501600","泰山區"
"243012","539-UM","2018/02/12 20:09:33","新北市泰山區楓江路48號","121.435391666667","25.0625533333333","6501600","泰山區"
"243010","KEA-2215","2018/02/12 20:09:32","新北市泰山區明志路二段136巷19號","121.42603","25.0518333333333","6501600","泰山區"
"243009","KEA-2216","2018/02/12 20:09:40","新北市泰山區泰林路二段164巷17號","121.434516666667","25.0609066666667","6501600","泰山區"
"222003","436-BY","2018/02/12 20:09:39","新北市深坑區埔新街60號","121.620261666667","25.00243","6501800","深坑區"
"222002","659-BX","2018/02/12 20:09:33","新北市深坑區深坑街10號","121.615873333333","25.002845","6501800","深坑區"
"231041","002-UM","2018/02/12 20:09:51","新北市新店區中正路468號","121.534011666667","24.9794083333333","6500600","新店區"
"231059","046-UY","2018/02/12 20:09:48","新北市新店區安德街60巷35號","121.511206666667","24.96357","6500600","新店區"
"231061","047-UY","2018/02/12 20:09:23","新北市新店區安民街152號","121.516721666667","24.9698716666667","6500600","新店區"
"231060","106-UY","2018/02/12 20:09:45","新北市新店區安康路三段335號","121.485493333333","24.9515116666667","6500600","新店區"
"231051","107-UY","2018/02/12 20:09:36","新北市新店區中央一街25號","121.528145","24.9732583333333","6500600","新店區"
"231047","108-UY","2018/02/12 20:09:48","新北市新店區永華街44號","121.545043333333","24.9751366666667","6500600","新店區"
"231052","187-VK","2018/02/12 20:09:39","新北市新店區新烏路三段寶島巷2弄3號","121.551976666667","24.8986483333333","6500600","新店區"
"231050","KEA-2219","2018/02/12 20:09:49","新北市新店區北新路一段96巷23號","121.542831666667","24.9687516666667","6500600","新店區"
"221015","KEA-2785","2018/02/12 20:09:45","新北市汐止區橋東街22號","121.666106666667","25.0757366666667","6501100","汐止區"
"231057","256-BX","2018/02/12 20:09:45","新北市新店區花園一路一段2號","121.553153333333","24.93244","6500600","新店區"
"231054","AAD-862","2018/02/12 20:09:33","新北市新店區檳榔路7號","121.541008333333","24.9648966666667","6500600","新店區"
"231058","3712-VJ","2018/02/12 20:09:48","新北市新店區安康路二段320巷15弄2號","121.504021666667","24.9595616666667","6500600","新店區"
"231056","3713-VJ","2018/02/12 20:09:42","新北市新店區北新路三段158號","121.541386666667","24.9827283333333","6500600","新店區"
"231055","4716-K9","2018/02/12 20:09:38","新北市新店區中華路48巷20號","121.54057","24.9689733333333","6500600","新店區"
"231067","4772-VM","2018/02/12 20:09:35","新北市新店區溪洲路182號","121.528365","24.9655033333333","6500600","新店區"
"231064","515-UM","2018/02/12 20:09:38","新北市新店區安光路15巷15號","121.512348333333","24.9633216666667","6500600","新店區"
"231042","616-UM","2018/02/12 20:09:45","新北市新店區中興路二段226號","121.547936666667","24.975145","6500600","新店區"
"231045","617-UM","2018/02/12 20:09:32","新北市新店區北宜路一段286號","121.546813333333","24.952565","6500600","新店區"
"231040","619-UM","2018/02/12 20:09:33","新北市新店區中正路108號","121.54303","24.9705733333333","6500600","新店區"
"231063","645-TV","2018/02/12 20:09:48","新北市新店區黎明路57巷1號","121.502393333333","24.9478966666667","6500600","新店區"
"231068","718-UY","2018/02/12 20:09:40","新北市新店區寶中路45-3號","121.54514","24.978985","6500600","新店區"
"231049","719-UM","2018/02/12 20:09:43","新北市新店區北新路二段139巷12弄2號","121.542216666667","24.9759533333333","6500600","新店區"
"231065","719-UY","2018/02/12 20:09:41","新北市新店區安祥路106巷317號","121.472293333333","24.9583733333333","6500600","新店區"
"231062","720-UM","2018/02/12 20:09:41","新北市新店區華城路10巷1-3號","121.528821666667","24.9578166666667","6500600","新店區"
"231044","897-TW","2018/02/12 20:09:34","新北市新店區寶慶街58巷8號","121.542081666667","24.9870683333333","6500600","新店區"
"231043","899-TW","2018/02/12 20:09:50","新北市新店區中正路309號","121.53651","24.9749983333333","6500600","新店區"
"231066","AKT-0513","2018/02/12 20:09:40","新北市新店區安德街60巷35號","121.510715","24.9634833333333","6500600","新店區"
"241031","061-VK","2018/02/12 20:09:35","新北市三重區重新路四段184巷27號","121.487523333333","25.054755","6500200","三重區"
"241026","066-VK","2018/02/12 20:09:45","新北市三重區福德南路21號","121.502681666667","25.0629633333333","6500200","三重區"
"241002","090-VK","2018/02/12 20:09:49","新北市八里區下罟子23號","121.376035","25.1395066666667","6500200","三重區"
"241001","091-VK","2018/02/12 20:09:35","新北市三重區溪尾街56號","121.490678333333","25.0776266666667","6500200","三重區"
"241007","398-BY","2018/02/12 20:09:44","新北市三重區慈愛街68號","121.487291666667","25.079525","6500200","三重區"
"241035","462-BY","2018/02/12 20:09:37","新北市三重區平安街20號","121.498445","25.06426","6500200","三重區"
"241016","478-VK","2018/02/12 20:09:30","新北市三重區正德街27號","121.495828333333","25.0623783333333","6500200","三重區"
"241023","545-UM","2018/02/12 20:09:35","新北市三重區頂崁街210巷6號","121.477075","25.06748","6500200","三重區"
"241003","887-TS","2018/02/12 20:09:42","新北市三重區仁愛街447號","121.489901666667","25.0823783333333","6500200","三重區"
"241012","941-UM","2018/02/12 20:09:48","新北市三重區仁厚街96號","121.501125","25.0768766666667","6500200","三重區"
"241029","942-UM","2018/02/12 20:09:46","新北市三重區光明路32巷14號","121.491745","25.0586466666667","6500200","三重區"
"241033","AAC-255","2018/02/12 20:09:41","新北市三重區中興北街56-1號","121.46909","25.051355","6500200","三重區"
"235066","003-UY","2018/02/12 20:09:51","新北市中和區水源路128號","121.507755","25.0031066666667","6500300","中和區"
"235064","005-UY","2018/02/12 20:09:35","新北市中和區圓通路25號","121.501188333333","24.9978616666667","6500300","中和區"
"235063","006-UY","2018/02/12 20:09:36","新北市中和區連城路219巷13號","121.494893333333","24.9964416666667","6500300","中和區"
"235039","097-UM","2018/02/12 20:09:49","新北市中和區景平路278巷14弄2號","121.51417","24.9928933333333","6500300","中和區"
"235065","098-UM","2018/02/12 20:09:33","新北市中和區福祥路98號","121.499116666667","25.0059616666667","6500300","中和區"
"235040","150-BY","2018/02/12 20:09:43","新北市中和區景安路33號","121.507495","24.998565","6500300","中和區"
"235058","151-BY","2018/02/12 20:09:41","新北市中和區員山路146巷16號","121.482078333333","24.996765","6500300","中和區"
"235038","185-VK","2018/02/12 20:09:43","新北市中和區大仁街20巷34號","121.519333333333","24.99317","6500300","中和區"
"235067","255-BX","2018/02/12 20:09:52","新北市中和區員山路148巷23弄6號","121.482303333333","24.9975616666667","6500300","中和區"
"235068","377-QA","2018/02/12 20:07:38","新北市中和區錦和路216號","121.490363333333","24.993985","6500300","中和區"
"235061","378-QA","2018/02/12 20:09:36","新北市中和區員山路325-2號","121.481228333333","25.0006883333333","6500300","中和區"
"235050","4979-A6","2018/02/12 20:09:31","新北市中和區景平路280號","121.51352","24.9924833333333","6500300","中和區"
"235069","4980-A6","2018/02/12 20:09:46","新北市中和區景新街64巷7弄7號","121.504408333333","24.9987433333333","6500300","中和區"
"235070","558-UM","2018/02/12 20:09:40","新北市中和區圓通路162-5號","121.497511666667","24.99511","6500300","中和區"
"235054","640-BX","2018/02/12 20:09:36","新北市中和區莒光路65號","121.472285","25.0035766666667","6500300","中和區"
"235046","733-UM","2018/02/12 20:09:49","新北市中和區忠孝街29號","121.510528333333","24.983165","6500300","中和區"
"235052","805-TS","2018/02/12 20:09:34","新北市中和區華新街192巷22弄10號","121.50697","24.9834316666667","6500300","中和區"
"235048","896-TW","2018/02/12 20:09:34","新北市中和區景新街332號","121.511928333333","24.990875","6500300","中和區"
"235051","157-BY","2018/02/12 20:09:44","新北市中和區景安路220巷4弄1號","121.50343","24.9909716666667","6500300","中和區"
"235059","AAC-215","2018/02/12 20:09:44","新北市中和區錦和路216號","121.49027","24.9939083333333","6500300","中和區"
"220068","013-TV","2018/02/12 20:09:39","新北市板橋區光復街136號","121.484296666667","25.0191916666667","6500100","板橋區"
"220086","073-UY","2018/02/12 20:09:31","新北市樹林區柑園街一段1-2號","121.408166666667","24.9599666666667","6500100","板橋區"
"220106","075-UY","2018/02/12 20:09:34","新北市板橋區民治街71巷1弄3號","121.480056666667","25.0327733333333","6500100","板橋區"
"220069","AAD-861","2018/02/12 20:09:49","新北市板橋區貴興路119巷4號","121.455616666667","25.0022183333333","6500100","板橋區"
"247022","893-R6","2018/02/12 20:09:43","新北市蘆洲區三民路152號","121.470291666667","25.0879333333333","6501400","蘆洲區"
"247012","546-UM","2018/02/12 20:09:39","新北市蘆洲區集賢路224巷37弄1號","121.48071","25.08807","6501400","蘆洲區"
"247020","500-BY","2018/02/12 20:09:45","新北市蘆洲區民義街68巷24號","121.473931666667","25.089235","6501400","蘆洲區"
"247012","402-BY","2018/02/12 20:09:51","新北市蘆洲區復興路290巷6弄14號","121.480256666667","25.089185","6501400","蘆洲區"
"247008","341-TH","2018/02/12 20:09:48","新北市蘆洲區中山一路44號","121.479388333333","25.0808333333333","6501400","蘆洲區"
"247010","339-TH","2018/02/12 20:09:39","新北市蘆洲區集賢路401號","121.480135","25.0817033333333","6501400","蘆洲區"
"247002","337-TH","2018/02/12 20:09:40","新北市五股區中興路三段163號","121.449206666667","25.0807633333333","6501400","蘆洲區"
"247004","336-TH","2018/02/12 20:09:43","新北市蘆洲區長安街202號","121.458515","25.08417","6501400","蘆洲區"
"247002","335-TH","2018/02/12 20:09:35","新北市蘆洲區長安街246巷30號","121.458733333333","25.086465","6501400","蘆洲區"
"247016","056-VK","2018/02/12 20:09:49","新北市蘆洲區和平路208號","121.465783333333","25.08222","6501400","蘆洲區"
"247006","053-VK","2018/02/12 20:09:33","新北市蘆洲區中山二路309號","121.46879","25.077435","6501400","蘆洲區"
"247014","007-UY","2018/02/12 20:09:32","新北市蘆洲區中山二路265巷13號","121.470598333333","25.0795966666667","6501400","蘆洲區"
"247024","002-UY","2018/02/12 20:09:47","新北市蘆洲區光明路88巷19號","121.463301666667","25.0871383333333","6501400","蘆洲區"
"247018","001-UY","2018/02/12 20:09:40","新北市蘆洲區民族路314巷5號","121.477505","25.090325","6501400","蘆洲區"
"226004","312-R5","2018/02/12 20:09:52","新北市平溪區十分里十分街61號","121.775773333333","25.041645","6502400","平溪區"
"235041","251-BX","2018/02/12 20:09:38","新北市中和區安平路17號","121.509201666667","24.99415","6500300","中和區"
"224010","AGQ-8101","2018/02/12 20:09:47","新北市瑞芳區輕便路284-4號","121.84384","25.10922","6501200","瑞芳區"
"227001","642-TC","2018/02/12 20:09:39","新北市雙溪區魚行里新店74-1號","121.871881666667","25.03036","6502500","雙溪區"
"222001","KEA-2212","2018/02/12 20:09:30","新北市深坑區北深路三段210號","121.60119","25.0037516666667","6501800","深坑區"
"208002","742-BX","2018/02/12 20:09:41","新北市金山區中山路16號","121.641776666667","25.2173233333333","6502700","金山區"
"208003","665-BX","2018/02/12 20:09:41","新北市金山區永興里濆水路13號","121.62673","25.268495","6502700","金山區"
"208001","761-BX","2018/02/12 20:09:33","新北市金山區南勢湖39號","121.611815","25.21781","6502700","金山區"
"251004","009-UM","2018/02/12 19:47:15","新北市淡水區民權路189號","121.459718333333","25.1334016666667","6501000","淡水區"
"251005","010-UM","2018/02/12 20:09:48","新北市淡水區學府路136巷37號","121.451845","25.1727033333333","6501000","淡水區"
"251013","179-VK","2018/02/12 20:09:44","新北市淡水區奎柔山路63號","121.451583333333","25.2062166666667","6501000","淡水區"
"251014","180-VK","2018/02/12 20:09:46","新北市淡水區石頭厝3號","121.458696666667","25.2355566666667","6501000","淡水區"
"251008","181-VK","2018/02/12 20:09:43","新北市淡水區淡海路72巷30弄1號","121.424423333333","25.1826283333333","6501000","淡水區"
"251015","182-VK","2018/02/12 20:09:38","新北市淡水區商工路145號","121.447275","25.188565","6501000","淡水區"
"251010","413-VK","2018/02/12 20:09:46","新北市淡水區新市二路二段2號","121.424906666667","25.1964883333333","6501000","淡水區"
"251012","441-VK","2018/02/12 20:09:40","新北市淡水區下圭柔山56-20號","121.447676666667","25.20448","6501000","淡水區"
"251016","442-VK","2018/02/12 20:09:48","新北市淡水區番子田18號","121.45738","25.229085","6501000","淡水區"
"251006","561-UM","2018/02/12 20:09:38","新北市淡水區北新路141巷60弄11號","121.448161666667","25.1796633333333","6501000","淡水區"
"251009","575-R6","2018/02/12 20:09:37","新北市淡水區清水街22號","121.445013333333","25.1703933333333","6501000","淡水區"
"251002","672-BX","2018/02/12 20:09:42","新北市淡水區中正路296號","121.43749","25.1720566666667","6501000","淡水區"
"251003","766-UM","2018/02/12 20:09:49","新北市淡水區新市一路二段252號","121.443863333333","25.1829316666667","6501000","淡水區"
"207003","550-UM","2018/02/12 20:09:33","新北市萬里區大鵬里萬里加投40-2號","121.638313333333","25.2072666666667","6502800","萬里區"
"207004","225-TW","2018/02/12 20:09:47","新北市萬里區北基里愛三街11號","121.681801666667","25.1766216666667","6502800","萬里區"
"252002","178-VK","2018/02/12 20:09:53","新北市三芝區三民街39巷14號","121.505286666667","25.2576966666667","6502100","三芝區"
"252001","292-VK","2018/02/12 20:09:49","新北市三芝區公正街66號","121.499826666667","25.257515","6502100","三芝區"
"237009","210-TH","2018/02/12 20:09:44","新北市三峽區民族街78巷1號","121.369041666667","24.9299283333333","6500900","三峽區"
"237013","252-BX","2018/02/12 20:09:45","新北市三峽區介壽路二段114號","121.39332","24.9356966666667","6500900","三峽區"
"237012","275-BY","2018/02/12 20:09:47","新北市三峽區中華路48巷16號","121.371091666667","24.930115","6500900","三峽區"
"237008","302-VK","2018/02/12 20:09:42","新北市三峽區中華路53號","121.372433333333","24.9307433333333","6500900","三峽區"
"237014","433-BY","2018/02/12 20:09:35","新北市三峽區添福11-6號","121.373303333333","24.9071066666667","6500900","三峽區"
"237006","5529-G3","2018/02/12 20:09:34","新北市三峽區橫溪路99巷4號","121.399585","24.93581","6500900","三峽區"
"237011","KEA-2596","2018/02/12 20:09:41","新北市三峽區中正路一段112號","121.374018333333","24.92942","6500900","三峽區"
"237005","AKY-6261","2018/02/12 20:09:44","新北市三峽區民生街1巷27-1號","121.379643333333","24.9342116666667","6500900","三峽區"
"236069","105-UM","2018/02/12 20:09:47","新北市土城區承天路5號","121.436058333333","24.9660433333333","6501300","土城區"
"236042","107-UM","2018/02/12 20:09:38","新北市土城區學府路一段98巷15號","121.455748333333","24.98854","6501300","土城區"
"236078","166-UM","2018/02/12 20:09:32","新北市土城區中央路四段464號","121.409865","24.9503816666667","6501300","土城區"
"236030","253-BX","2018/02/12 20:09:36","新北市土城區中央路一段141號","121.446728333333","24.987985","6501300","土城區"
"236026","269-VK","2018/02/12 20:09:52","新北市土城區裕生路81號","121.446963333333","24.9843333333333","6501300","土城區"
"236014","270-VK","2018/02/12 20:09:49","新北市土城區廣明街1號","121.45601","24.9917216666667","6501300","土城區"
"236036","271-VK","2018/02/12 20:09:40","新北市土城區延吉街296巷4號","121.464511666667","24.9843666666667","6501300","土城區"
"236020","401-BY","2018/02/12 20:09:51","新北市土城區延吉街96號","121.470591666667","24.986315","6501300","土城區"
"236058","912-UM","2018/02/12 20:09:41","新北市土城區中央路二段63號","121.442641666667","24.9790883333333","6501300","土城區"
"236048","913-UM","2018/02/12 20:09:34","新北市中和區連城路532號","121.475528333333","24.9914266666667","6501300","土城區"
"236062","915-UM","2018/02/12 20:09:39","新北市土城區金城路三段163巷18號","121.469075","24.9891783333333","6501300","土城區"
"236053","AAC-216","2018/02/12 20:09:35","新北市土城區學成路139號","121.449028333333","24.9895283333333","6501300","土城區"
"242031","AAC-296","2018/02/12 20:09:42","新北市新莊區公園一路39號","121.443258333333","25.0356183333333","6500500","新莊區"
"242029","986-R7","2018/02/12 20:09:44","新北市新莊區中榮街152巷38號","121.445628333333","25.0537483333333","6500500","新莊區"
"242025","615-BX","2018/02/12 20:09:50","新北市新莊區五工二路70巷23號","121.460851666667","25.0666716666667","6500500","新莊區"
"242023","613-BX","2018/02/12 20:07:32","新北市新莊區化成路530號","121.466275","25.0528983333333","6500500","新莊區"
"242027","612-BX","2018/02/12 20:09:47","新北市新莊區立信三街12巷14號","121.444281666667","25.0511533333333","6500500","新莊區"
"242039","566-BX","2018/02/12 20:09:47","新北市新莊區民安西路87號","121.427081666667","25.019225","6500500","新莊區"
"242048","441-UM","2018/02/12 20:09:32","新北市新莊區四維路126巷1號","121.423083333333","25.0240316666667","6500500","新莊區"
"242053","440-UM","2018/02/12 20:09:47","新北市新莊區西盛街387巷34弄5號","121.428548333333","25.01294","6500500","新莊區"
"242034","415-TV","2018/02/12 20:09:50","新北市新莊區建中街81巷10弄14號","121.44672","25.035945","6500500","新莊區"
"242004","413-TV","2018/02/12 20:09:36","新北市新莊區化成路219號","121.465923333333","25.0525083333333","6500500","新莊區"
"242042","400-BY","2018/02/12 20:09:52","新北市新莊區青山路一段200-4號","121.397756666667","25.0317583333333","6500500","新莊區"
"242060","362-BY","2018/02/12 20:09:46","新北市新莊區瓊林路瓊英巷2弄2號","121.443851666667","25.0273283333333","6500500","新莊區"
"242058","353-BY","2018/02/12 20:09:36","新北市新莊區八德街115號","121.424123333333","25.0207816666667","6500500","新莊區"
"242007","132-UY","2018/02/12 20:09:49","新北市新莊區福壽街184巷30號","121.459346666667","25.0533233333333","6500500","新莊區"
"242036","133-UY","2018/02/12 20:09:40","新北市新莊區民安路207巷32弄1號","121.428236666667","25.0244733333333","6500500","新莊區"
"242021","135-UY","2018/02/12 20:09:42","新北市新莊區建中街16巷35號","121.448706666667","25.038445","6500500","新莊區"
"242009","173-VK","2018/02/12 20:09:49","新北市新莊區昌盛街35巷2弄2號","121.454218333333","25.0502183333333","6500500","新莊區"
"242015","175-VK","2018/02/12 20:09:49","新北市新莊區中平路26巷34號","121.446293333333","25.043285","6500500","新莊區"
"242002","176-VK","2018/02/12 20:09:49","新北市新莊區中正路147號","121.458086666667","25.03739","6500500","新莊區"
"242013","346-TH","2018/02/12 20:09:39","新北市新莊區幸福路676-1號","121.450715","25.0495066666667","6500500","新莊區"
"242050","347-TH","2018/02/12 20:09:48","新北市新莊區龍安路517號","121.427106666667","25.017715","6500500","新莊區"
"242019","348-TH","2018/02/12 20:09:47","新北市新莊區長青街33號","121.457026666667","25.0421816666667","6500500","新莊區"
"242056","349-TH","2018/02/12 20:09:42","新北市新莊區新豐街68巷2號","121.446566666667","25.03373","6500500","新莊區"
"242017","350-TH","2018/02/12 20:09:47","新北市新莊區中港路352號","121.451965","25.046815","6500500","新莊區"
"242011","351-TH","2018/02/12 20:09:44","新北市新莊區中和街208號","121.44787","25.0505933333333","6500500","新莊區"
"238023","601-UM","2018/02/12 20:09:46","新北市樹林區俊英街176號","121.426258333333","25.007625","6500700","樹林區"
"238018","571-TV","2018/02/12 20:09:31","新北市樹林區環河路600號","121.404593333333","24.96934","6500700","樹林區"
"238026","KEA-2539","2018/02/12 20:09:50","新北市樹林區佳園路三段219巷3號","121.385658333333","24.9463083333333","6500700","樹林區"
"238012","303-VK","2018/02/12 20:09:44","新北市樹林區中山路二段168號","121.41216","24.9824933333333","6500700","樹林區"
"238017","283-BY","2018/02/12 20:09:53","新北市樹林區保安街二段45巷13弄3號","121.415395","24.9997883333333","6500700","樹林區"
"239007","AAC-297","2018/02/12 20:09:42","新北市鶯歌區大湖路326巷42-1號","121.345901666667","24.9693683333333","6500800","鶯歌區"
"239006","891-R6","2018/02/12 20:09:40","新北市鶯歌區文化路72-2號","121.35506","24.95386","6500800","鶯歌區"
"239004","193-VK","2018/02/12 20:09:40","新北市鶯歌區鶯華新村2號","121.329918333333","24.9349516666667","6500800","鶯歌區"
"221008","489-VK","2018/02/12 20:09:33","新北市汐止區忠一街9巷7號","121.620581666667","25.0732133333333","6501100","汐止區"
"221036","130-UY","2018/02/12 20:09:37","新北市汐止區新台五路二段39號","121.663195","25.0663816666667","6501100","汐止區"
"221010","269-BY","2018/02/12 20:09:45","新北市汐止區八連路一段134號","121.642541666667","25.0793816666667","6501100","汐止區"
"221012","278-VK","2018/02/12 20:09:36","新北市汐止區長安路77巷22弄8號","121.669268333333","25.0790633333333","6501100","汐止區"
"221023","279-VK","2018/02/12 20:09:40","新北市汐止區明峰街298巷3弄2號","121.624991666667","25.06838","6501100","汐止區"
"221032","280-BY","2018/02/12 20:09:39","新北市汐止區力行街59巷7號","121.617181666667","25.04958","6501100","汐止區"
"221027","281-BY","2018/02/12 20:09:46","新北市汐止區中正路102號","121.660981666667","25.0695133333333","6501100","汐止區"
"221029","298-VK","2018/02/12 20:09:46","新北市汐止區樟樹一路123巷19號","121.641335","25.0645483333333","6501100","汐止區"
"221021","299-VK","2018/02/12 20:09:45","新北市汐止區莊敬街126-1號","121.654888333333","25.0611916666667","6501100","汐止區"
"221031","353-TW","2018/02/12 20:09:34","新北市汐止區中興路105號","121.632135","25.0647366666667","6501100","汐止區"
"221035","622-UM","2018/02/12 20:09:50","新北市汐止區長江街57巷26號","121.65637","25.07254","6501100","汐止區"
"221025","623-UM","2018/02/12 20:09:39","新北市汐止區秀峰路107號","121.660238333333","25.0634383333333","6501100","汐止區"
"221038","646-BX","2018/02/12 20:09:35","新北市汐止區忠孝東路528號","121.667086666667","25.0762916666667","6501100","汐止區"
"221033","647-BX","2018/02/12 20:09:36","新北市汐止區東勢街201巷102號","121.633638333333","25.042975","6501100","汐止區"
"221002","707-TV","2018/02/12 20:09:42","新北市汐止區大同路一段219巷26號","121.633096666667","25.0589566666667","6501100","汐止區"
"221018","753-BX","2018/02/12 20:09:47","新北市汐止區茄福街35巷23號","121.673248333333","25.0665666666667","6501100","汐止區"
"220079","145-BY","2018/02/12 20:09:50","新北市板橋區中正路135巷12-2號","121.45581","25.0155366666667","6500100","板橋區"
"220082","610-BX","2018/02/12 20:09:41","新北市板橋區篤行路二段116-3號","121.431275","24.990925","6500100","板橋區"
"220101","245-BX","2018/02/12 20:09:43","新北市板橋區莒光路215號","121.474211666667","25.0228216666667","6500100","板橋區"
"220072","277-BY","2018/02/12 20:09:43","新北市板橋區金門街355號","121.428781666667","24.9850066666667","6500100","板橋區"
"220094","283-UM","2018/02/12 20:09:48","新北市板橋區文德路11號","121.462698333333","25.0243416666667","6500100","板橋區"
"220071","283-VK","2018/02/12 20:09:43","新北市板橋區五權街1-9號","121.463651666667","24.9952416666667","6500100","板橋區"
"220053","285-VK","2018/02/12 20:09:40","新北市板橋區永豐街45-1號","121.474241666667","25.017565","6500100","板橋區"
"220083","286-VK","2018/02/12 20:09:46","新北市板橋區僑中二街10巷1號","121.446991666667","25.01087","6500100","板橋區"
"220061","293-UM","2018/02/12 20:09:46","新北市板橋區觀光街1巷2號","121.472056666667","25.0154916666667","6500100","板橋區"
"220084","296-UM","2018/02/12 20:09:48","新北市板橋區溪崑二街103巷15號","121.427223333333","24.9887083333333","6500100","板橋區"
"220062","305-R5","2018/02/12 20:09:51","新北市板橋區光復街216巷16號","121.486146666667","25.0208266666667","6500100","板橋區"
"220092","307-R5","2018/02/12 20:09:35","新北市板橋區四維路259巷73號","121.460468333333","25.02668","6500100","板橋區"
"220098","317-R6","2018/02/12 20:09:39","新北市板橋區新海路385巷24號","121.457923333333","25.02557","6500100","板橋區"
"220064","486-VK","2018/02/12 20:09:33","新北市板橋區實踐路181-2號","121.464298333333","25.003575","6500100","板橋區"
"220089","487-VK","2018/02/12 20:09:36","新北市板橋區龍泉街56-1號","121.457071666667","25.0259933333333","6500100","板橋區"
"242044","280-VK","2018/02/12 20:09:40","新北市新莊區中正路929巷22號","121.411243333333","25.0198966666667","6500500","新莊區"
"220088","491-VK","2018/02/12 20:09:49","新北市板橋區仁化街139號","121.477468333333","25.032945","6500100","板橋區"
"220103","561-BX","2018/02/12 20:09:37","新北市板橋區文化路一段421巷11弄1號","121.466861666667","25.0226183333333","6500100","板橋區"
"220086","568-UM","2018/02/12 20:09:38","新北市板橋區南雅西路二段40號","121.452848333333","25.010015","6500100","板橋區"
"220063","609-BX","2018/02/12 20:09:47","新北市板橋區中山路二段78號","121.474565","25.016075","6500100","板橋區"
"220055","630-UY","2018/02/12 20:09:45","新北市板橋區仁愛路64號","121.459898333333","24.999435","6500100","板橋區"
"220057","686-BX","2018/02/12 20:09:41","新北市板橋區信義路17號","121.456996666667","24.9966816666667","6500100","板橋區"
"220093","689-BX","2018/02/12 20:09:41","新北市板橋區長江路三段64號","121.473755","25.033965","6500100","板橋區"
"220054","741-BX","2018/02/12 20:09:41","新北市板橋區國泰街75巷28弄84號","121.467265","25.004235","6500100","板橋區"
"220067","829-TW","2018/02/12 20:09:42","新北市板橋區漢生東路193巷66號","121.473163333333","25.01206","6500100","板橋區"
"220096","830-TW","2018/02/12 20:09:31","新北市板橋區莒光路68號","121.47131","25.0242","6500100","板橋區"
"220074","895-R6","2018/02/12 20:09:38","新北市板橋區東門街1-2號","121.457981666667","25.0089016666667","6500100","板橋區"
"220073","985-R7","2018/02/12 20:09:48","新北市板橋區南雅西路二段90號","121.452481666667","25.0111766666667","6500100","板橋區"
"220097","AAC-210","2018/02/12 20:09:49","新北市板橋區文化路一段221巷22號","121.462896666667","25.0178583333333","6500100","板橋區"
