"lineid","car","time","location","longitude","latitude","cityid","cityname"
"234046","148-BY","2018/02/12 20:29:33","新北市永和區成功路一段59號","121.527036666667","25.003725","6500400","永和區"
"234067","149-BY","2018/02/12 20:29:27","新北市永和區保平路268巷51弄2號","121.506993333333","25.0063083333333","6500400","永和區"
"234007","207-UY","2018/02/12 20:29:22","新北市永和區仁愛路295號","121.504878333333","25.009285","6500400","永和區"
"234081","298-R6","2018/02/12 20:29:33","新北市永和區福和路5-1號","121.525025","25.008795","6500400","永和區"
"234038","336-UY","2018/02/12 20:29:40","新北市永和區成功路二段75號","121.52677","24.999585","6500400","永和區"
"234064","337-UY","2018/02/12 20:29:30","新北市永和區中正路417號","121.517185","25.0049133333333","6500400","永和區"
"234086","338-UY","2018/02/12 20:29:26","新北市永和區福和路152號","121.52168","25.0079466666667","6500400","永和區"
"234070","552-UM","2018/02/12 20:29:36","新北市永和區竹林路206號","121.520676666667","25.0085983333333","6500400","永和區"
"234017","745-BX","2018/02/12 20:29:37","新北市永和區文化路170號","121.51171","25.0153833333333","6500400","永和區"
"234030","746-BX","2018/02/12 20:29:32","新北市永和區民權路82號","121.519911666667","24.997135","6500400","永和區"
"234054","KEA-2590","2018/02/12 20:29:36","新北市永和區光復街60巷25號","121.517863333333","25.01757","6500400","永和區"
"234081","839-RS","2018/02/12 20:29:37","新北市永和區國中路132巷10號","121.523908333333","25.0074766666667","6500400","永和區"
"234013","KEA-2591","2018/02/12 20:29:39","新北市永和區仁愛路295號","121.50519","25.0091716666667","6500400","永和區"
"234061","AAD-866","2018/02/12 20:29:35","新北市永和區中正路283巷53弄2號","121.515968333333","24.9993116666667","6500400","永和區"
"234042","862-TW","2018/02/12 20:29:19","新北市永和區安樂路248號","121.514708333333","25.0032633333333","6500400","永和區"
"234050","863-TW","2018/02/12 20:29:27","新北市永和區環河西路二段89號","121.50663","25.0149166666667","6500400","永和區"
"234026","9371-KE","2018/02/12 20:29:31","新北市永和區保生路55-1號","121.504545","25.0108883333333","6500400","永和區"
"234023","9381-KE","2018/02/12 20:28:46","新北市永和區勵行街17號","121.516373333333","25.0142283333333","6500400","永和區"
"249005","172-UM","2018/02/12 20:29:31","新北市八里區中山路三段275號","121.378991666667","25.1384583333333","6502300","八里區"
"249001","173-UM","2018/02/12 20:29:40","新北市八里區下罟子5-11號","121.386815","25.1423516666667","6502300","八里區"
"249004","303-UY","2018/02/12 20:29:24","新北市八里區中山路一段129巷27號","121.413988333333","25.158585","6502300","八里區"
"249002","305-UY","2018/02/12 20:29:39","新北市八里區龍米路二段58-2號","121.44835","25.1410833333333","6502300","八里區"
"249003","593-UM","2018/02/12 20:29:28","新北市八里區華峰一街36號","121.398736666667","25.1464316666667","6502300","八里區"
"248016","026-BX","2018/02/12 20:29:34","新北市五股區凌雲路一段158巷39弄12號","121.446485","25.104085","6501500","五股區"
"248018","225-UY","2018/02/12 20:29:20","新北市五股區登林路93-6號","121.418326666667","25.0737733333333","6501500","五股區"
"248002","678-BX","2018/02/12 20:29:35","新北市五股區成泰路三段43-4號","121.442441666667","25.088965","6501500","五股區"
"248010","682-TV","2018/02/12 20:29:34","新北市五股區成泰路一段7巷22號","121.432988333333","25.0668766666667","6501500","五股區"
"234077","969-R7","2018/02/12 20:29:41","新北市永和區民有街23巷3號","121.51701","24.99638","6500400","永和區"
"234074","AAC-211","2018/02/12 20:29:37","新北市永和區豫溪街145號","121.52073","25.01038","6500400","永和區"
"234003","AAC-295","2018/02/12 20:29:37","新北市永和區中正路553號","121.516831666667","25.008265","6500400","永和區"
"243011","267-VK","2018/02/12 20:29:34","新北市泰山區明志路三段209號","121.424191666667","25.0383666666667","6501600","泰山區"
"243015","380-SR","2018/02/12 20:29:38","新北市泰山區橫窠雅36號","121.403378333333","25.0713466666667","6501600","泰山區"
"243014","421-VK","2018/02/12 20:29:37","新北市泰山區泰林路二段455號","121.425813333333","25.0640816666667","6501600","泰山區"
"243012","539-UM","2018/02/12 20:29:33","新北市泰山區泰林路二段370號","121.428391666667","25.063795","6501600","泰山區"
"243009","KEA-2216","2018/02/12 20:29:40","新北市泰山區泰林路二段306巷12號","121.43112","25.0636","6501600","泰山區"
"243016","680-BX","2018/02/12 20:29:30","新北市新莊區新北大道七段120號","121.417496666667","25.0320683333333","6501600","泰山區"
"222003","436-BY","2018/02/12 20:29:19","新北市深坑區深坑街27號","121.615983333333","25.0023483333333","6501800","深坑區"
"222002","659-BX","2018/02/12 20:29:33","新北市深坑區萬福路16巷3號","121.604203333333","25.007495","6501800","深坑區"
"231041","002-UM","2018/02/12 20:29:30","新北市新店區民權路124號","121.535161666667","24.98277","6500600","新店區"
"231059","046-UY","2018/02/12 20:29:27","新北市新店區安豐路49號","121.500025","24.9548816666667","6500600","新店區"
"231061","047-UY","2018/02/12 20:29:23","新北市新店區新和街46號","121.519375","24.98495","6500600","新店區"
"231060","106-UY","2018/02/12 20:29:25","新北市新店區錦秀路11巷96弄21號","121.47897","24.9418333333333","6500600","新店區"
"231051","107-UY","2018/02/12 20:29:36","新北市新店區中央七街81號","121.527118333333","24.9769066666667","6500600","新店區"
"231047","108-UY","2018/02/12 20:29:28","新北市新店區寶元路一段61號","121.542136666667","24.986045","6500600","新店區"
"231049","110-UY","2018/02/12 20:29:29","新北市新店區安康路一段24巷2號","121.532968333333","24.9604166666667","6500600","新店區"
"231052","187-VK","2018/02/12 20:29:39","新北市新店區松林路2號","121.54673","24.9110016666667","6500600","新店區"
"231050","KEA-2219","2018/02/12 20:29:29","新北市新店區明德路41號","121.541336666667","24.97571","6500600","新店區"
"221015","KEA-2785","2018/02/12 20:29:25","新北市汐止區汐萬路一段39號","121.655148333333","25.0691016666667","6501100","汐止區"
"231057","256-BX","2018/02/12 20:29:25","新北市新店區花園五路二段3號","121.553596666667","24.934145","6500600","新店區"
"231054","AAD-862","2018/02/12 20:29:33","新北市新店區檳榔路150號","121.544216666667","24.9615383333333","6500600","新店區"
"231058","3712-VJ","2018/02/12 20:29:28","新北市新店區自由街51號","121.534531666667","24.973555","6500600","新店區"
"231056","3713-VJ","2018/02/12 20:29:22","新北市新店區中正路330號","121.537041666667","24.9750683333333","6500600","新店區"
"231055","4716-K9","2018/02/12 20:29:38","新北市新店區新明街26巷2號","121.54091","24.9685783333333","6500600","新店區"
"231064","515-UM","2018/02/12 20:29:38","新北市新店區新和街50號","121.519565","24.9851466666667","6500600","新店區"
"231042","616-UM","2018/02/12 20:29:25","新北市新店區寶高路120巷1-1號","121.554633333333","24.975985","6500600","新店區"
"231045","617-UM","2018/02/12 20:29:32","新北市新店區新坡一街20號","121.548955","24.9619033333333","6500600","新店區"
"231040","619-UM","2018/02/12 20:29:33","新北市新店區中正路348號","121.536296666667","24.9752783333333","6500600","新店區"
"231063","645-TV","2018/02/12 20:29:28","新北市新店區玫瑰路4-1號","121.493618333333","24.951395","6500600","新店區"
"231068","718-UY","2018/02/12 20:29:40","新北市新店區民權路7號","121.542625","24.982835","6500600","新店區"
"231065","719-UY","2018/02/12 20:29:20","新北市新店區安祥路104巷6弄34號","121.483043333333","24.9629116666667","6500600","新店區"
"231062","720-UM","2018/02/12 20:29:41","新北市新店區安康路三段246號","121.487711666667","24.9518233333333","6500600","新店區"
"231044","897-TW","2018/02/12 20:29:34","新北市新店區民族路65號","121.539641666667","24.9782116666667","6500600","新店區"
"231043","899-TW","2018/02/12 20:29:31","新北市新店區民族路16號","121.541256666667","24.97887","6500600","新店區"
"231066","AKT-0513","2018/02/12 20:29:20","新北市新店區安興路105-1號","121.514658333333","24.977765","6500600","新店區"
"241011","013-R5","2018/02/12 20:29:27","新北市三重區秀江街110號","121.499293333333","25.07202","6500200","三重區"
"241031","061-VK","2018/02/12 20:29:35","新北市三重區三寧街25號","121.489633333333","25.0597866666667","6500200","三重區"
"241007","398-BY","2018/02/12 20:29:24","新北市三重區三和路四段125巷34號","121.486005","25.0781333333333","6500200","三重區"
"241035","462-BY","2018/02/12 20:29:37","新北市三重區文化北路15號","121.499711666667","25.06355","6500200","三重區"
"241016","478-VK","2018/02/12 20:29:30","新北市三重區正義北路48巷65號","121.495631666667","25.0635883333333","6500200","三重區"
"241023","545-UM","2018/02/12 20:29:35","新北市三重區自由街17巷1號","121.47983","25.0666","6500200","三重區"
"241001","547-UM","2018/02/12 20:29:41","新北市三重區聯華街118號","121.485153333333","25.0748216666667","6500200","三重區"
"241003","887-TS","2018/02/12 20:29:35","新北市三重區仁愛街446號","121.489075","25.0820066666667","6500200","三重區"
"241012","941-UM","2018/02/12 20:29:29","新北市三重區仁福街64巷37號","121.49752","25.0758483333333","6500200","三重區"
"241033","AAC-255","2018/02/12 20:29:41","新北市三重區五谷王北街42巷2號","121.475838333333","25.0493316666667","6500200","三重區"
"235063","006-UY","2018/02/12 20:29:36","新北市中和區連城路263巷27弄4號","121.492825","24.99452","6500300","中和區"
"235039","097-UM","2018/02/12 20:29:29","新北市中和區自強路52號","121.520201666667","24.9948266666667","6500300","中和區"
"235038","185-VK","2018/02/12 20:29:23","新北市中和區自立路29巷14弄30號","121.522938333333","24.9951483333333","6500300","中和區"
"235067","255-BX","2018/02/12 20:29:32","新北市三重區重新路五段283號","121.47957","25.0491966666667","6500300","中和區"
"235068","377-QA","2018/02/12 20:29:38","新北市中和區中山路二段136巷35弄5號","121.501011666667","25.0040633333333","6500300","中和區"
"235050","4979-A6","2018/02/12 20:29:31","新北市中和區景平路462號","121.505755","24.99365","6500300","中和區"
"235069","4980-A6","2018/02/12 20:29:26","新北市中和區中正路408號","121.492243333333","24.9942116666667","6500300","中和區"
"235070","558-UM","2018/02/12 20:29:40","新北市中和區連城路337-1號","121.488476666667","24.9960883333333","6500300","中和區"
"235037","AAC-213","2018/02/12 20:29:26","新北市中和區自立路36-8號","121.522693333333","24.9925933333333","6500300","中和區"
"235059","AAC-215","2018/02/12 20:29:24","新北市中和區圓通路335巷9號","121.493121666667","24.989645","6500300","中和區"
"220106","075-UY","2018/02/12 20:29:34","新北市板橋區民治街42巷2號","121.47886","25.0338433333333","6500100","板橋區"
"247022","893-R6","2018/02/12 20:29:23","新北市蘆洲區三民路241號","121.46909","25.0889216666667","6501400","蘆洲區"
"247012","546-UM","2018/02/12 20:29:39","新北市蘆洲區復興路206號","121.478466666667","25.0889466666667","6501400","蘆洲區"
"247020","500-BY","2018/02/12 20:29:25","新北市蘆洲區民族路446-4號","121.472643333333","25.0921316666667","6501400","蘆洲區"
"247008","341-TH","2018/02/12 20:29:28","新北市蘆洲區重陽二街11號","121.48283","25.0846","6501400","蘆洲區"
"247010","339-TH","2018/02/12 20:29:39","新北市蘆洲區信義路222巷53弄20-1號","121.480901666667","25.0855283333333","6501400","蘆洲區"
"247002","337-TH","2018/02/12 20:29:40","新北市蘆洲區長安街347巷32號","121.455475","25.0872133333333","6501400","蘆洲區"
"247004","336-TH","2018/02/12 20:29:37","新北市蘆洲區長榮路269巷32號","121.4595","25.0858316666667","6501400","蘆洲區"
"247002","335-TH","2018/02/12 20:29:35","新北市蘆洲區長安街347巷2號","121.456896666667","25.087085","6501400","蘆洲區"
"247016","057-VK","2018/02/12 20:29:22","新北市蘆洲區光華路91號","121.467538333333","25.0824716666667","6501400","蘆洲區"
"247006","053-VK","2018/02/12 20:29:33","新北市蘆洲區和平路121巷14弄38號","121.466071666667","25.0801983333333","6501400","蘆洲區"
"247014","007-UY","2018/02/12 20:29:39","新北市蘆洲區中山一路240號","121.47241","25.0800033333333","6501400","蘆洲區"
"247024","002-UY","2018/02/12 20:29:27","新北市蘆洲區長興路50巷22號","121.465066666667","25.0846583333333","6501400","蘆洲區"
"247018","001-UY","2018/02/12 20:29:40","新北市蘆洲區民權路70號","121.474948333333","25.0873816666667","6501400","蘆洲區"
"226004","312-R5","2018/02/12 20:29:32","新北市平溪區靜安路二段530巷21號","121.745393333333","25.0274566666667","6502400","平溪區"
"222001","KEA-2212","2018/02/12 20:29:30","新北市深坑區北深路三段329號","121.59729","25.0050616666667","6501800","深坑區"
"251009","008-UM","2018/02/12 20:29:31","新北市淡水區中正東路一段111巷1號","121.45376","25.1599366666667","6501000","淡水區"
"251013","179-VK","2018/02/12 20:29:24","新北市淡水區水汴頭4-3號","121.475513333333","25.2044583333333","6501000","淡水區"
"251014","180-VK","2018/02/12 20:29:25","新北市淡水區石頭厝8-4號","121.460335","25.2378216666667","6501000","淡水區"
"251008","181-VK","2018/02/12 20:29:23","新北市淡水區淡海路206巷6號","121.420608333333","25.1855733333333","6501000","淡水區"
"251015","182-VK","2018/02/12 20:29:38","新北市淡水區興仁路162號","121.45158","25.2207883333333","6501000","淡水區"
"251010","413-VK","2018/02/12 20:29:26","新北市淡水區沙崙路181巷2號","121.424278333333","25.1840166666667","6501000","淡水區"
"251012","441-VK","2018/02/12 20:29:40","新北市淡水區頂田寮路182號","121.460918333333","25.21613","6501000","淡水區"
"251016","442-VK","2018/02/12 20:29:28","新北市淡水區淡金路四段507號","121.451458333333","25.228325","6501000","淡水區"
"251001","559-UM","2018/02/12 20:29:35","新北市淡水區中山北路二段201號","121.44418","25.1855133333333","6501000","淡水區"
"251006","561-UM","2018/02/12 20:29:38","新北市淡水區商工路335號","121.466706666667","25.1855783333333","6501000","淡水區"
"251011","650-BX","2018/02/12 20:29:35","新北市淡水區崁頂74號","121.434611666667","25.2014183333333","6501000","淡水區"
"251002","672-BX","2018/02/12 20:29:31","新北市淡水區中正路58號","121.443211666667","25.1696666666667","6501000","淡水區"
"251003","766-UM","2018/02/12 20:29:29","新北市淡水區新民街21號","121.439443333333","25.1752683333333","6501000","淡水區"
"252002","178-VK","2018/02/12 20:29:33","新北市三芝區淡金路二段26號","121.502788333333","25.2596983333333","6502100","三芝區"
"252001","292-VK","2018/02/12 20:29:29","新北市三芝區中山路一段34號","121.500933333333","25.257645","6502100","三芝區"
"237006","5529-G3","2018/02/12 20:29:34","新北市三峽區中山路459巷163-1號","121.349276666667","24.9334733333333","6500900","三峽區"
"237011","KEA-2596","2018/02/12 20:29:21","新北市三峽區中正路一段309號","121.371361666667","24.924675","6500900","三峽區"
"237005","AKY-6261","2018/02/12 20:29:23","新北市三峽區三樹路98巷72-2號","121.384316666667","24.9387983333333","6500900","三峽區"
"236069","105-UM","2018/02/12 20:29:27","新北市土城區福安街102巷5弄12號","121.417201666667","24.9649483333333","6501300","土城區"
"236078","166-UM","2018/02/12 20:29:34","新北市土城區三民路43號","121.420025","24.9638633333333","6501300","土城區"
"236014","270-VK","2018/02/12 20:29:29","新北市土城區四川路29巷37號","121.455318333333","24.9951816666667","6501300","土城區"
"236020","401-BY","2018/02/12 20:29:31","新北市土城區金城路三段231號","121.471113333333","24.9896033333333","6501300","土城區"
"236062","915-UM","2018/02/12 20:29:39","新北市土城區延和路11號","121.463888333333","24.988035","6501300","土城區"
"242031","AAC-296","2018/02/12 20:29:22","新北市新莊區中正路414-1號","121.441021666667","25.034085","6500500","新莊區"
"242029","986-R7","2018/02/12 20:29:24","新北市新莊區中原路263號","121.448435","25.0543383333333","6500500","新莊區"
"242025","615-BX","2018/02/12 20:29:41","新北市新莊區五工二路70巷16號","121.460888333333","25.0663766666667","6500500","新莊區"
"242023","613-BX","2018/02/12 20:27:31","新北市新莊區化成路838號","121.464971666667","25.06034","6500500","新莊區"
"242027","612-BX","2018/02/12 20:29:38","新北市新莊區幸福路584號","121.453803333333","25.04929","6500500","新莊區"
"242039","566-BX","2018/02/12 20:29:07","新北市新莊區成功街79巷1號","121.424748333333","25.0197533333333","6500500","新莊區"
"242048","441-UM","2018/02/12 20:29:32","新北市新莊區四維路186巷9號","121.421445","25.0211616666667","6500500","新莊區"
"242053","440-UM","2018/02/12 20:29:33","新北市新莊區民安西路237號","121.42609","25.0139433333333","6500500","新莊區"
"242034","415-TV","2018/02/12 20:29:30","新北市新莊區新泰路199巷4號","121.446803333333","25.038065","6500500","新莊區"
"242004","413-TV","2018/02/12 20:29:36","新北市新莊區頭前路30號","121.467608333333","25.0525533333333","6500500","新莊區"
"242042","400-BY","2018/02/12 20:29:32","新北市新莊區天祥街54巷2弄1號","121.416695","25.02922","6500500","新莊區"
"242060","362-BY","2018/02/12 20:24:07","新北市新莊區新樹路172-13號","121.43455","25.0216966666667","6500500","新莊區"
"242058","353-BY","2018/02/12 20:29:36","新北市新莊區龍安路266巷30號","121.421618333333","25.0185566666667","6500500","新莊區"
"242007","132-UY","2018/02/12 20:29:29","新北市新莊區福壽街94巷11號","121.458958333333","25.050115","6500500","新莊區"
"242036","133-UY","2018/02/12 20:29:40","新北市新莊區建安街9巷10號","121.429216666667","25.0266216666667","6500500","新莊區"
"242021","135-UY","2018/02/12 20:29:22","新北市新莊區中正路200號","121.449491666667","25.03551","6500500","新莊區"
"242046","172-VK","2018/02/12 20:29:21","新北市新莊區裕民街83-6號","121.418516666667","25.023705","6500500","新莊區"
"242009","173-VK","2018/02/12 20:29:36","新北市新莊區昌盛街69號","121.455053333333","25.050025","6500500","新莊區"
"242015","175-VK","2018/02/12 20:29:29","新北市新莊區永樂街244號","121.445678333333","25.04444","6500500","新莊區"
"242002","176-VK","2018/02/12 20:29:27","新北市新莊區化成路28號","121.464843333333","25.0427633333333","6500500","新莊區"
"242013","346-TH","2018/02/12 20:29:39","新北市新莊區中平路270巷7弄31號","121.446108333333","25.0509366666667","6500500","新莊區"
"242050","347-TH","2018/02/12 20:29:36","新北市新莊區民安西路212巷12-1號","121.425166666667","25.01513","6500500","新莊區"
"242019","348-TH","2018/02/12 20:29:27","新北市新莊區民樂街72號","121.45793","25.0434166666667","6500500","新莊區"
"242056","349-TH","2018/02/12 20:29:22","新北市新莊區新莊路649巷26弄14號","121.444591666667","25.032075","6500500","新莊區"
"242017","350-TH","2018/02/12 20:29:40","新北市新莊區中港二街115號","121.44882","25.0456516666667","6500500","新莊區"
"242011","351-TH","2018/02/12 20:29:32","新北市新莊區中信街17號","121.451113333333","25.05075","6500500","新莊區"
"238026","KEA-2539","2018/02/12 20:29:30","新北市樹林區佳園路三段101巷86-1號","121.395316666667","24.9497816666667","6500700","樹林區"
"239004","193-VK","2018/02/12 20:29:38","新北市鶯歌區二甲路83號","121.3392","24.93327","6500800","鶯歌區"
"221008","489-VK","2018/02/12 20:29:33","新北市汐止區康寧街13號","121.617735","25.067595","6501100","汐止區"
"221036","130-UY","2018/02/12 20:29:37","新北市汐止區福安街37巷2號","121.663055","25.06494","6501100","汐止區"
"221010","269-BY","2018/02/12 20:29:25","新北市汐止區八連路二段376-1號","121.629605","25.1015433333333","6501100","汐止區"
"221012","278-VK","2018/02/12 20:29:36","新北市汐止區保長路147巷1號","121.675995","25.0772266666667","6501100","汐止區"
"221023","279-VK","2018/02/12 20:29:20","新北市汐止區湖東街5巷46-1號","121.635381666667","25.0739466666667","6501100","汐止區"
"221027","281-BY","2018/02/12 20:29:26","新北市汐止區汐萬路一段256巷3號","121.653416666667","25.07474","6501100","汐止區"
"221029","298-VK","2018/02/12 20:29:26","新北市汐止區樟樹一路119巷25號","121.640481666667","25.0643166666667","6501100","汐止區"
"221021","299-VK","2018/02/12 20:29:25","新北市汐止區水源路一段291巷9號","121.654636666667","25.0585683333333","6501100","汐止區"
"221031","353-TW","2018/02/12 20:29:34","新北市汐止區康寧街901號","121.650875","25.0752266666667","6501100","汐止區"
"221035","622-UM","2018/02/12 20:29:30","新北市汐止區長江街101-5號","121.658628333333","25.0732066666667","6501100","汐止區"
"221025","623-UM","2018/02/12 20:29:39","新北市汐止區水源路二段30號","121.654816666667","25.0574133333333","6501100","汐止區"
"221038","646-BX","2018/02/12 20:29:35","新北市汐止區忠孝東路480號","121.666355","25.073755","6501100","汐止區"
"221033","647-BX","2018/02/12 20:29:36","新北市汐止區林森街73巷9號","121.62361","25.0410166666667","6501100","汐止區"
"221002","707-TV","2018/02/12 20:29:22","新北市汐止區福德一路20號","121.638775","25.069245","6501100","汐止區"
"221018","753-BX","2018/02/12 20:29:27","新北市汐止區茄苳路225巷6號","121.671195","25.0689666666667","6501100","汐止區"
"220101","245-BX","2018/02/12 20:29:23","新北市板橋區雙十路二段52號","121.47551","25.02765","6500100","板橋區"
"220053","285-VK","2018/02/12 20:29:40","新北市板橋區懷仁街93號","121.4776","25.0180933333333","6500100","板橋區"
"220083","286-VK","2018/02/12 20:29:26","新北市板橋區僑中二街100巷30號","121.44473","25.00868","6500100","板橋區"
"220061","293-UM","2018/02/12 20:29:25","新北市板橋區中山路一段143號","121.464578333333","25.0115916666667","6500100","板橋區"
"220084","296-UM","2018/02/12 20:29:28","新北市板橋區溪崑二街112巷33弄2號","121.42559","24.9890783333333","6500100","板橋區"
"220092","307-R5","2018/02/12 20:29:35","新北市板橋區民權路174號","121.459571666667","25.0133266666667","6500100","板橋區"
"220098","317-R6","2018/02/12 20:29:19","新北市五股區成泰路三段590-3號","121.453128333333","25.1059733333333","6500100","板橋區"
"220064","486-VK","2018/02/12 20:29:33","新北市板橋區長安街331巷27號","121.473708333333","25.012695","6500100","板橋區"
"220089","487-VK","2018/02/12 20:29:39","新北市板橋區四維路168號","121.464868333333","25.0261733333333","6500100","板橋區"
"242044","280-VK","2018/02/12 20:29:37","新北市新莊區中正路新建巷28弄6號","121.414126666667","25.0216883333333","6500500","新莊區"
"220103","561-BX","2018/02/12 20:29:37","新北市板橋區漢生東路23巷49號","121.465951666667","25.01809","6500100","板橋區"
"220074","568-UM","2018/02/12 20:29:38","新北市板橋區府中路67號","121.458081666667","25.0094783333333","6500100","板橋區"
"220055","630-UY","2018/02/12 20:29:25","新北市板橋區重慶路290巷7號","121.461306666667","24.9986866666667","6500100","板橋區"
"220054","741-BX","2018/02/12 20:29:41","新北市板橋區成都街10號","121.460275","25.0047183333333","6500100","板橋區"
