"lineid","car","time","location","longitude","latitude","cityid","cityname"
"234007","207-UY","2018/02/12 20:39:42","新北市永和區保順路11號","121.504411666667","25.0097533333333","6500400","永和區"
"234038","336-UY","2018/02/12 20:39:38","新北市永和區成功路一段95號","121.526958333333","25.002735","6500400","永和區"
"234064","337-UY","2018/02/12 20:39:50","新北市永和區成功路一段2號","121.526968333333","25.0057383333333","6500400","永和區"
"234086","338-UY","2018/02/12 20:39:46","新北市永和區福和路88號","121.52261","25.0079833333333","6500400","永和區"
"234070","552-UM","2018/02/12 20:39:36","新北市永和區大新街109巷2號","121.518431666667","25.00799","6500400","永和區"
"234017","745-BX","2018/02/12 20:39:37","新北市永和區文化路22號","121.51531","25.0150633333333","6500400","永和區"
"234081","839-RS","2018/02/12 20:39:46","新北市永和區福和路74號","121.522968333333","25.0080716666667","6500400","永和區"
"234013","KEA-2591","2018/02/12 20:39:39","新北市永和區仁愛路306巷23號","121.502821666667","25.0086833333333","6500400","永和區"
"234061","AAD-866","2018/02/12 20:39:35","新北市永和區中正路226號","121.516053333333","24.9979133333333","6500400","永和區"
"234050","847-RS","2018/02/12 20:39:49","新北市永和區環河西路二段19號","121.50775","25.01596","6500400","永和區"
"234042","862-TW","2018/02/12 20:39:39","新北市永和區秀朗路一段42號","121.514626666667","25.006465","6500400","永和區"
"234026","9371-KE","2018/02/12 20:39:31","新北市永和區保生路55-1號","121.504538333333","25.0109216666667","6500400","永和區"
"234023","9381-KE","2018/02/12 20:39:42","新北市永和區博愛街32巷13號","121.518896666667","25.0153266666667","6500400","永和區"
"249001","173-UM","2018/02/12 20:39:40","新北市八里區下罟子23號","121.377065","25.13868","6502300","八里區"
"249004","303-UY","2018/02/12 20:37:44","新北市八里區中山路一段145號","121.413008333333","25.1590833333333","6502300","八里區"
"249002","305-UY","2018/02/12 20:39:39","新北市八里區龍米路二段148號","121.436918333333","25.1561016666667","6502300","八里區"
"248018","225-UY","2018/02/12 20:39:40","新北市五股區登林路91-25號","121.421078333333","25.07181","6501500","五股區"
"248010","682-TV","2018/02/12 20:39:34","新北市五股區成泰路一段49號","121.434201666667","25.067305","6501500","五股區"
"234074","AAC-211","2018/02/12 20:39:37","新北市永和區竹林路201巷24弄1號","121.522393333333","25.0096416666667","6500400","永和區"
"243011","267-VK","2018/02/12 20:39:34","新北市泰山區壽山路144號","121.41715","25.03037","6501600","泰山區"
"243015","380-SR","2018/02/12 20:39:38","新北市泰山區泰林路二段216號","121.432781666667","25.06179","6501600","泰山區"
"243009","KEA-2216","2018/02/12 20:39:40","新北市泰山區泰林路二段544號","121.423375","25.0638833333333","6501600","泰山區"
"243016","680-BX","2018/02/12 20:39:30","新北市泰山區貴陽街16巷5弄10號","121.422548333333","25.0318483333333","6501600","泰山區"
"222003","436-BY","2018/02/12 20:39:39","新北市深坑區深坑街118號","121.61355","25.001285","6501800","深坑區"
"222002","659-BX","2018/02/12 20:39:37","新北市深坑區萬福路55號","121.599866666667","25.0070016666667","6501800","深坑區"
"231041","002-UM","2018/02/12 20:39:30","新北市新店區中正路545號","121.53376","24.987655","6500600","新店區"
"231059","046-UY","2018/02/12 20:39:47","新北市新店區僑愛三路25號","121.499325","24.9446516666667","6500600","新店區"
"231061","047-UY","2018/02/12 20:39:43","新北市新店區新和街72號","121.520243333333","24.9856283333333","6500600","新店區"
"231060","106-UY","2018/02/12 20:39:45","新北市新店區錦秀路1號","121.47899","24.945705","6500600","新店區"
"231051","107-UY","2018/02/12 20:39:36","新北市新店區中央八街70號","121.527773333333","24.976755","6500600","新店區"
"231049","110-UY","2018/02/12 20:39:31","新北市新店區永業路81巷5弄1號","121.530028333333","24.948945","6500600","新店區"
"231052","187-VK","2018/02/12 20:39:39","新北市新店區新烏路二段300號","121.548596666667","24.9132833333333","6500600","新店區"
"231050","KEA-2219","2018/02/12 20:39:49","新北市新店區博愛街13巷27號","121.540368333333","24.97427","6500600","新店區"
"221015","KEA-2785","2018/02/12 20:39:45","新北市汐止區汐萬路一段22號","121.655841666667","25.067845","6501100","汐止區"
"231057","256-BX","2018/02/12 20:39:45","新北市新店區花園十路一段9號","121.554846666667","24.9338883333333","6500600","新店區"
"231047","260-TV","2018/02/12 20:39:32","新北市新店區復興路25號","121.539186666667","24.9866716666667","6500600","新店區"
"231054","AAD-862","2018/02/12 20:39:33","新北市新店區行政街43號","121.543143333333","24.9656916666667","6500600","新店區"
"231058","3712-VJ","2018/02/12 20:39:48","新北市新店區平等街43號","121.536415","24.9731366666667","6500600","新店區"
"231056","3713-VJ","2018/02/12 20:39:42","新北市新店區建安街33巷30號","121.538286666667","24.9753566666667","6500600","新店區"
"231067","4715-K9","2018/02/12 20:39:48","新北市新店區安康路一段107號","121.52887","24.961605","6500600","新店區"
"231064","515-UM","2018/02/12 20:39:38","新北市新店區安和路三段112號","121.517285","24.985435","6500600","新店區"
"231042","616-UM","2018/02/12 20:39:45","新北市新店區寶高路120巷1號","121.554633333333","24.9760416666667","6500600","新店區"
"231045","617-UM","2018/02/12 20:39:32","新北市新店區長春路66號","121.551115","24.9580533333333","6500600","新店區"
"231040","619-UM","2018/02/12 20:39:32","新北市新店區中正路263號","121.53863","24.9735166666667","6500600","新店區"
"231063","645-TV","2018/02/12 20:39:48","新北市新店區玫瑰路16號","121.494718333333","24.9504116666667","6500600","新店區"
"231068","718-UY","2018/02/12 20:39:45","新北市新店區寶慶街39號","121.542938333333","24.9866616666667","6500600","新店區"
"231065","719-UY","2018/02/12 20:39:40","新北市新店區安祥路102巷19號","121.484703333333","24.9645416666667","6500600","新店區"
"231062","720-UM","2018/02/12 20:39:41","新北市新店區安泰路60巷134弄98號","121.483523333333","24.943425","6500600","新店區"
"231044","897-TW","2018/02/12 20:39:34","新北市新店區民權路89號","121.537656666667","24.9827066666667","6500600","新店區"
"231043","899-TW","2018/02/12 20:39:50","新北市新店區建國路30號","121.540503333333","24.9744316666667","6500600","新店區"
"231066","AKT-0513","2018/02/12 20:39:40","新北市新店區安興路105號","121.514736666667","24.97775","6500600","新店區"
"241011","013-R5","2018/02/12 20:39:47","新北市三重區仁愛街20號","121.496746666667","25.0713316666667","6500200","三重區"
"241009","060-VK","2018/02/12 20:39:44","新北市三重區三和路四段390巷62號","121.4795","25.07838","6500200","三重區"
"241031","061-VK","2018/02/12 20:39:35","新北市三重區過圳街7巷16號","121.489893333333","25.0594833333333","6500200","三重區"
"241018","268-UM","2018/02/12 20:39:47","新北市三重區雙園街57巷15號","121.494923333333","25.067995","6500200","三重區"
"241013","270-UM","2018/02/12 20:39:30","新北市三重區三和路三段139巷3號","121.492756666667","25.0736616666667","6500200","三重區"
"241025","271-UM","2018/02/12 20:39:47","新北市三重區頂崁街210巷31號","121.4756","25.068235","6500200","三重區"
"241007","398-BY","2018/02/12 20:39:44","新北市三重區三和路四段143-1號","121.484358333333","25.0783233333333","6500200","三重區"
"241016","478-VK","2018/02/12 20:39:30","新北市三重區正義北路36巷39號","121.496108333333","25.063325","6500200","三重區"
"241023","545-UM","2018/02/12 20:39:35","新北市三重區自由街33號","121.479233333333","25.0667816666667","6500200","三重區"
"241001","547-UM","2018/02/12 20:39:41","新北市三重區聯華街118號","121.485126666667","25.0748283333333","6500200","三重區"
"241012","941-UM","2018/02/12 20:39:48","新北市三重區仁興街70號","121.498691666667","25.07635","6500200","三重區"
"241033","AAC-255","2018/02/12 20:39:42","新北市三重區五谷王北街58巷36號","121.474526666667","25.05169","6500200","三重區"
"235039","097-UM","2018/02/12 20:39:29","新北市中和區大勇街27巷18號","121.516676666667","24.99402","6500300","中和區"
"235038","185-VK","2018/02/12 20:39:43","新北市中和區大智街55巷36號","121.520556666667","24.9931033333333","6500300","中和區"
"235067","255-BX","2018/02/12 20:37:52","新北市五股區中直路21號","121.42109","25.1120366666667","6500300","中和區"
"235068","377-QA","2018/02/12 20:36:18","新北市中和區福美路268號","121.498073333333","25.0050983333333","6500300","中和區"
"235050","4979-A6","2018/02/12 20:39:31","新北市中和區南華路16號","121.50271","24.9955883333333","6500300","中和區"
"235069","4980-A6","2018/02/12 20:39:46","新北市中和區中正路426號","121.49142","24.9942516666667","6500300","中和區"
"235070","558-UM","2018/02/12 20:39:40","新北市板橋區長江路二段311巷18-1號","121.472268333333","25.0366133333333","6500300","中和區"
"235037","AAC-213","2018/02/12 20:39:46","新北市中和區自立路99巷22弄27號","121.523306666667","24.993845","6500300","中和區"
"235059","AAC-215","2018/02/12 20:39:45","新北市中和區圓通路367巷7號","121.492296666667","24.9881216666667","6500300","中和區"
"220106","075-UY","2018/02/12 20:39:34","新北市板橋區民治街57巷32-1號","121.480966666667","25.0356566666667","6500100","板橋區"
"247022","893-R6","2018/02/12 20:39:43","新北市蘆洲區中正路185巷26號","121.467953333333","25.0852666666667","6501400","蘆洲區"
"247012","546-UM","2018/02/12 20:39:39","新北市蘆洲區中興街132號","121.482243333333","25.0893966666667","6501400","蘆洲區"
"247020","500-BY","2018/02/12 20:39:45","新北市蘆洲區民族路331號","121.473696666667","25.0917566666667","6501400","蘆洲區"
"247008","341-TH","2018/02/12 20:39:48","新北市蘆洲區重陽街66號","121.481738333333","25.0839416666667","6501400","蘆洲區"
"247010","339-TH","2018/02/12 20:39:39","新北市蘆洲區集賢路224巷13號","121.482","25.0867733333333","6501400","蘆洲區"
"247002","337-TH","2018/02/12 20:39:40","新北市蘆洲區長安街361巷2-1號","121.456973333333","25.087515","6501400","蘆洲區"
"247004","336-TH","2018/02/12 20:39:37","新北市蘆洲區永康街79-8號","121.456356666667","25.084845","6501400","蘆洲區"
"247002","335-TH","2018/02/12 20:39:35","新北市五股區中興路二段182巷3號","121.455966666667","25.07811","6501400","蘆洲區"
"247016","057-VK","2018/02/12 20:39:42","新北市蘆洲區中正路1號","121.4716","25.0816016666667","6501400","蘆洲區"
"247006","056-VK","2018/02/12 20:39:49","新北市蘆洲區和平路177號","121.466396666667","25.08115","6501400","蘆洲區"
"247014","007-UY","2018/02/12 20:39:32","新北市蘆洲區中山二路28號","121.474723333333","25.0819566666667","6501400","蘆洲區"
"247024","002-UY","2018/02/12 20:39:47","新北市蘆洲區長樂路27號","121.463508333333","25.0853066666667","6501400","蘆洲區"
"247018","001-UY","2018/02/12 20:39:40","新北市蘆洲區民權路70號","121.474953333333","25.0874116666667","6501400","蘆洲區"
"222001","KEA-2212","2018/02/12 20:39:50","新北市深坑區北深路三段236巷2號","121.60079","25.004225","6501800","深坑區"
"251009","008-UM","2018/02/12 20:39:31","新北市淡水區民族路112巷74號","121.461595","25.133815","6501000","淡水區"
"251013","179-VK","2018/02/12 20:39:44","新北市淡水區奎柔山路381號","121.462703333333","25.2047333333333","6501000","淡水區"
"251014","180-VK","2018/02/12 20:39:46","新北市淡水區桂竹圍8號","121.472473333333","25.2322666666667","6501000","淡水區"
"251015","182-VK","2018/02/12 20:39:38","新北市淡水區興仁路162號","121.451571666667","25.220755","6501000","淡水區"
"251010","413-VK","2018/02/12 20:39:46","新北市淡水區沙崙路181巷12號","121.42392","25.184505","6501000","淡水區"
"251012","441-VK","2018/02/12 20:39:40","新北市淡水區興仁路108號","121.451623333333","25.2181616666667","6501000","淡水區"
"251016","442-VK","2018/02/12 20:39:48","新北市淡水區後洲子7號","121.449171666667","25.2239166666667","6501000","淡水區"
"251001","559-UM","2018/02/12 20:39:44","新北市淡水區淡金路65號","121.456136666667","25.1614933333333","6501000","淡水區"
"251006","561-UM","2018/02/12 20:39:38","新北市淡水區商工路196巷3號","121.450986666667","25.1871566666667","6501000","淡水區"
"251011","650-BX","2018/02/12 20:39:35","新北市淡水區新市一路一段361號","121.436211666667","25.1862466666667","6501000","淡水區"
"251002","672-BX","2018/02/12 20:39:42","新北市淡水區中正路38-1號","121.44374","25.16925","6501000","淡水區"
"251003","766-UM","2018/02/12 20:39:29","新北市淡水區新民街120巷17號","121.438131666667","25.1781333333333","6501000","淡水區"
"252002","178-VK","2018/02/12 20:39:33","新北市三芝區淡金路二段47-2號","121.503683333333","25.2607383333333","6502100","三芝區"
"252001","292-VK","2018/02/12 20:39:29","新北市三芝區長安街24號","121.502005","25.2558366666667","6502100","三芝區"
"237007","153-BY","2018/02/12 20:39:40","新北市三峽區二鬮路46號","121.362151666667","24.91025","6500900","三峽區"
"237006","5529-G3","2018/02/12 20:39:34","新北市三峽區大同路201號","121.37089","24.9270833333333","6500900","三峽區"
"237011","KEA-2596","2018/02/12 20:39:41","新北市三峽區中正路二段22號","121.367325","24.91972","6500900","三峽區"
"236078","166-UM","2018/02/12 20:39:32","新北市土城區金安街71號","121.420318333333","24.96539","6501300","土城區"
"242031","AAC-296","2018/02/12 20:39:49","新北市新莊區三和路48號","121.437863333333","25.0383666666667","6500500","新莊區"
"242029","986-R7","2018/02/12 20:39:46","新北市新莊區中華路二段165號","121.452681666667","25.05193","6500500","新莊區"
"242025","615-BX","2018/02/12 20:39:48","新北市新莊區五工三路62巷19號","121.460143333333","25.0649783333333","6500500","新莊區"
"242023","613-BX","2018/02/12 20:39:31","新北市新莊區化成路948巷7號","121.464963333333","25.06286","6500500","新莊區"
"242027","612-BX","2018/02/12 20:39:47","新北市新莊區幸福路53號","121.457615","25.0494083333333","6500500","新莊區"
"242039","566-BX","2018/02/12 20:39:47","新北市新莊區民安路296號","121.428158333333","25.0217266666667","6500500","新莊區"
"242048","441-UM","2018/02/12 20:39:32","新北市新莊區龍安路252號","121.421115","25.0195566666667","6500500","新莊區"
"242053","440-UM","2018/02/12 20:39:47","新北市新莊區西盛街323巷24號","121.42903","25.0147183333333","6500500","新莊區"
"242034","415-TV","2018/02/12 20:39:30","新北市新莊區中正路349號","121.447051666667","25.0347883333333","6500500","新莊區"
"242004","413-TV","2018/02/12 20:38:36","新北市新莊區化成路746巷37號","121.466901666667","25.0578633333333","6500500","新莊區"
"242042","400-BY","2018/02/12 20:39:46","新北市新莊區中正路694巷3弄1號","121.418483333333","25.028335","6500500","新莊區"
"242060","362-BY","2018/02/12 20:29:27","新北市新莊區新樹路232號","121.433408333333","25.0194783333333","6500500","新莊區"
"242058","353-BY","2018/02/12 20:39:36","新北市新莊區四維路201號","121.421953333333","25.02057","6500500","新莊區"
"242007","132-UY","2018/02/12 20:39:49","新北市新莊區思源路253號","121.459531666667","25.0472866666667","6500500","新莊區"
"242036","133-UY","2018/02/12 20:39:40","新北市新莊區建安街89號","121.42712","25.0244383333333","6500500","新莊區"
"242046","172-VK","2018/02/12 20:39:41","新北市新莊區富國路22巷19號","121.418435","25.0257366666667","6500500","新莊區"
"242009","173-VK","2018/02/12 20:39:46","新北市新莊區昌隆街90號","121.45608","25.0509116666667","6500500","新莊區"
"242015","175-VK","2018/02/12 20:39:49","新北市新莊區中平路82巷18號","121.445553333333","25.0449566666667","6500500","新莊區"
"242002","176-VK","2018/02/12 20:39:47","新北市新莊區中正路80號","121.45769","25.03734","6500500","新莊區"
"242013","346-TH","2018/02/12 20:39:39","新北市新莊區中和街191巷35號","121.447725","25.0514633333333","6500500","新莊區"
"242050","347-TH","2018/02/12 20:39:48","新北市新莊區民安西路252巷5號","121.425501666667","25.013585","6500500","新莊區"
"242019","348-TH","2018/02/12 20:39:47","新北市新莊區銘德街50號","121.457156666667","25.0437916666667","6500500","新莊區"
"242056","349-TH","2018/02/12 20:39:44","新北市新莊區新莊路751巷73號","121.442868333333","25.0310216666667","6500500","新莊區"
"242017","350-TH","2018/02/12 20:39:47","新北市新莊區中港三街11號","121.451105","25.0464483333333","6500500","新莊區"
"221008","489-VK","2018/02/12 20:39:33","新北市汐止區康寧街307巷1弄9號","121.626836666667","25.067305","6501100","汐止區"
"221036","130-UY","2018/02/12 20:39:37","新北市汐止區新台五路二段77號","121.664156666667","25.0666783333333","6501100","汐止區"
"221012","278-VK","2018/02/12 20:39:41","新北市汐止區汐平路一段156巷2-1號","121.688711666667","25.06707","6501100","汐止區"
"221023","279-VK","2018/02/12 20:39:40","新北市汐止區汐萬路一段256巷3號","121.65336","25.07469","6501100","汐止區"
"221027","281-BY","2018/02/12 20:39:46","新北市汐止區信義路7號","121.6621","25.06926","6501100","汐止區"
"221029","298-VK","2018/02/12 20:39:26","新北市汐止區大同路一段515巷46號","121.644303333333","25.06259","6501100","汐止區"
"221021","299-VK","2018/02/12 20:39:45","新北市汐止區水源路一段291巷5號","121.6545","25.05847","6501100","汐止區"
"221031","353-TW","2018/02/12 20:39:34","新北市汐止區福德一路86巷26號","121.63749","25.0693883333333","6501100","汐止區"
"221035","622-UM","2018/02/12 20:39:30","新北市汐止區長江街101-5號","121.658666666667","25.0731983333333","6501100","汐止區"
"221025","623-UM","2018/02/12 20:39:39","新北市汐止區水源路二段32號","121.654878333333","25.05732","6501100","汐止區"
"221038","646-BX","2018/02/12 20:39:35","新北市汐止區忠孝東路258號","121.663105","25.06757","6501100","汐止區"
"221033","647-BX","2018/02/12 20:39:36","新北市汐止區合順街18巷8弄5號","121.620288333333","25.0419283333333","6501100","汐止區"
"221002","707-TV","2018/02/12 20:39:42","新北市汐止區中興路135號","121.631778333333","25.0655083333333","6501100","汐止區"
"221018","753-BX","2018/02/12 20:39:47","新北市汐止區茄苳路204號","121.670503333333","25.06899","6501100","汐止區"
"220053","285-VK","2018/02/12 20:39:43","新北市板橋區萬板路820號","121.483678333333","25.0274666666667","6500100","板橋區"
"220083","286-VK","2018/02/12 20:39:46","新北市板橋區僑中二街104巷24號","121.445105","25.0080333333333","6500100","板橋區"
"220061","293-UM","2018/02/12 20:39:43","新北市板橋區四川路一段286巷12號","121.458296666667","25.000985","6500100","板橋區"
"220098","317-R6","2018/02/12 20:39:39","新北市八里區中山路三段335號","121.377051666667","25.1406466666667","6500100","板橋區"
"220089","487-VK","2018/02/12 20:39:44","新北市板橋區四維路256號","121.463523333333","25.0282066666667","6500100","板橋區"
"242044","280-VK","2018/02/12 20:39:37","新北市新莊區龍安路20號","121.414611666667","25.022475","6500500","新莊區"
"220103","561-BX","2018/02/12 20:39:37","新北市板橋區漢生東路63巷28號","121.467011666667","25.0171816666667","6500100","板橋區"
"220074","568-UM","2018/02/12 20:39:38","新北市板橋區明德街1巷12號","121.459021666667","25.0105566666667","6500100","板橋區"
"220054","741-BX","2018/02/12 20:39:41","新北市板橋區大觀路三段59巷17弄5-1號","121.435215","24.9952033333333","6500100","板橋區"
"220070","AAC-253","2018/02/12 20:39:48","新北市樹林區環河路2號","121.42807","24.9790183333333","6500100","板橋區"
