"lineid","car","time","location","longitude","latitude","cityid","cityname"
"234030","746-BX","2018/02/12 21:39:32","新北市永和區福和路1號","121.526276666667","25.0095433333333","6500400","永和區"
"231050","KEA-2219","2018/02/12 21:39:29","新北市新店區中正路446號","121.534051666667","24.9785866666667","6500600","新店區"
"231063","645-TV","2018/02/12 21:39:28","新北市新店區如意街39號","121.493655","24.94832","6500600","新店區"
"241011","013-R5","2018/02/12 21:39:27","新北市三重區龍門路67號","121.49668","25.0724383333333","6500200","三重區"
"241009","060-VK","2018/02/12 21:39:44","新北市三重區力行路二段151號","121.483613333333","25.0775833333333","6500200","三重區"
"241015","062-VK","2018/02/12 21:39:37","新北市三重區龍濱路2號","121.503195","25.0667616666667","6500200","三重區"
"241017","063-VK","2018/02/12 21:39:25","新北市三重區民生街32號","121.491775","25.0670766666667","6500200","三重區"
"241024","065-VK","2018/02/12 21:39:29","新北市三重區忠孝路三段15巷42號","121.479955","25.0681716666667","6500200","三重區"
"241026","066-VK","2018/02/12 21:39:25","新北市三重區中央南路92號","121.501633333333","25.0607833333333","6500200","三重區"
"241002","090-VK","2018/02/12 21:39:29","新北市三重區富華街137號","121.492823333333","25.0847116666667","6500200","三重區"
"241005","262-UM","2018/02/12 21:39:33","新北市三重區碧華街1號","121.483518333333","25.0812066666667","6500200","三重區"
"241018","268-UM","2018/02/12 21:39:27","新北市三重區正義北路222號","121.496043333333","25.0677966666667","6500200","三重區"
"241004","475-VK","2018/02/12 21:39:38","新北市三重區三和路四段117巷14號","121.485975","25.077795","6500200","三重區"
"241016","478-VK","2018/02/12 21:39:30","新北市三重區新北大道一段7號","121.489603333333","25.0611816666667","6500200","三重區"
"241030","480-VK","2018/02/12 21:39:40","新北市三重區中正南路287號","121.492841666667","25.0519633333333","6500200","三重區"
"241014","543-UM","2018/02/12 21:39:39","新北市三重區萬壽街16號","121.49949","25.0693716666667","6500200","三重區"
"241019","KEA-2593","2018/02/12 21:39:36","新北市三重區忠孝路一段68號","121.490183333333","25.0718066666667","6500200","三重區"
"235067","255-BX","2018/02/12 21:39:32","新北市中和區中正路809號","121.484551666667","25.0016466666667","6500300","中和區"
"235070","558-UM","2018/02/12 21:39:20","新北市三重區重新路五段326巷25-1號","121.479085","25.0428566666667","6500300","中和區"
"235026","800-TS","2018/02/12 21:37:54","新北市中和區員山路36巷16-3號","121.484886666667","24.9916416666667","6500300","中和區"
"220106","075-UY","2018/02/12 21:39:34","新北市三重區光復路二段87巷63號","121.475746666667","25.05816","6500100","板橋區"
"247008","341-TH","2018/02/12 21:37:48","新北市五股區中直路21號","121.42112","25.1120316666667","6501400","蘆洲區"
"251009","008-UM","2018/02/12 21:39:31","新北市淡水區民族路29巷2弄1號","121.46265","25.1373533333333","6501000","淡水區"
"251004","009-UM","2018/02/12 21:39:36","新北市淡水區民生路60號","121.462096666667","25.13794","6501000","淡水區"
"251005","010-UM","2018/02/12 21:39:28","新北市淡水區水源街一段34巷9號","121.443176666667","25.171805","6501000","淡水區"
"251014","180-VK","2018/02/12 21:39:25","新北市淡水區牛埔子10-1號","121.450005","25.2187533333333","6501000","淡水區"
"251008","181-VK","2018/02/12 21:39:43","新北市淡水區水源街二段88號","121.451688333333","25.1742783333333","6501000","淡水區"
"251010","413-VK","2018/02/12 21:39:46","新北市淡水區沙崙路238號","121.425681666667","25.1847683333333","6501000","淡水區"
"251012","441-VK","2018/02/12 21:39:39","新北市淡水區淡金路四段493號","121.451916666667","25.2251966666667","6501000","淡水區"
"251016","442-VK","2018/02/12 21:39:28","新北市淡水區崁頂69號","121.439566666667","25.20171","6501000","淡水區"
"251001","559-UM","2018/02/12 21:39:35","新北市淡水區新市二路三段152號","121.435381666667","25.194225","6501000","淡水區"
"251006","561-UM","2018/02/12 21:39:37","新北市淡水區中正路59號","121.441548333333","25.1690583333333","6501000","淡水區"
"251011","650-BX","2018/02/12 21:39:37","新北市淡水區新民街294號","121.435156666667","25.1823233333333","6501000","淡水區"
"251002","672-BX","2018/02/12 21:39:32","新北市淡水區學府路152號","121.446366666667","25.17428","6501000","淡水區"
"251001","757-BX","2018/02/12 21:39:36","新北市淡水區學府路171號","121.446278333333","25.1742183333333","6501000","淡水區"
"251003","766-UM","2018/02/12 21:39:29","新北市淡水區新春街85巷19弄56號","121.437493333333","25.1829883333333","6501000","淡水區"
"242048","441-UM","2018/02/12 21:39:32","新北市新莊區中正路596號","121.426861666667","25.03013","6500500","新莊區"
"242034","415-TV","2018/02/12 21:39:30","新北市板橋區金門街215巷111弄22號","121.434583333333","24.9878283333333","6500500","新莊區"
"242036","133-UY","2018/02/12 21:39:40","新北市新莊區後港一路46巷2號","121.4261","25.026005","6500500","新莊區"
"242009","173-VK","2018/02/12 21:39:46","新北市新莊區昌盛街105號","121.456298333333","25.0499633333333","6500500","新莊區"
"242044","280-VK","2018/02/12 21:39:37","新北市新莊區中正路891-43號","121.41399","25.0229616666667","6500500","新莊區"
"220057","686-BX","2018/02/12 21:13:34","新北市板橋區華東街1-9號","121.448251666667","24.9948816666667","6500100","板橋區"
