"lineid","car","time","location","longitude","latitude","cityid","cityname"
"234067","149-BY","2018/02/12 22:24:56","新北市永和區福和路1號","121.52642","25.0096216666667","6500400","永和區"
"241026","066-VK","2018/02/12 22:29:25","新北市三重區環河南路220-8號","121.493368333333","25.052575","6500200","三重區"
"247003","336-TH","2018/02/12 22:18:31","新北市五股區中興路三段163號","121.449051666667","25.080915","6501400","蘆洲區"
"247002","335-TH","2018/02/12 22:27:12","新北市五股區中興路三段163號","121.449245","25.0805516666667","6501400","蘆洲區"
"251004","009-UM","2018/02/12 22:29:35","新北市淡水區民族路33號","121.462308333333","25.13585","6501000","淡水區"
"251008","181-VK","2018/02/12 22:29:23","新北市淡水區學府路104號","121.449883333333","25.1718","6501000","淡水區"
"251010","413-VK","2018/02/12 22:29:26","新北市淡水區沙崙路200號","121.424606666667","25.18384","6501000","淡水區"
"251007","577-R6","2018/02/12 22:29:35","新北市淡水區北新路180號","121.449506666667","25.1787433333333","6501000","淡水區"
"251011","650-BX","2018/02/12 22:29:34","新北市淡水區水碓街7號","121.443141666667","25.1770966666667","6501000","淡水區"
