"lineid","car","time","location","longitude","latitude","cityid","cityname"
"248005","653-BX","2018/01/09 07:55:12","新北市五股區明德路12巷3號","121.433255","25.071805","6501500","五股區"
"244002","248-BX","2018/01/09 07:59:54","新北市林口區下福里10-1號","121.313096666667","25.1115683333333","6501700","林口區"
"222004","289-BY","2018/01/09 07:51:33","新北市深坑區文化街45號","121.61694","25.00173","6501800","深坑區"
"231007","189-VK","2018/01/09 07:59:30","新北市新店區安華路28-1號","121.51959","24.9608133333333","6500600","新店區"
"231009","192-VK","2018/01/09 07:59:53","新北市新店區安康路一段355-3號","121.519323333333","24.9614516666667","6500600","新店區"
"247001","402-BY","2018/01/09 07:59:47","新北市蘆洲區民生街2巷7號","121.47561","25.0796616666667","6501400","蘆洲區"
"226005","5620-A6","2018/01/09 07:59:54","新北市平溪區南山里南山坪118-1號","121.783245","25.044165","6502400","平溪區"
"226002","7418-A5","2018/01/09 07:59:55","新北市平溪區十分里十分街1-1號","121.773368333333","25.039205","6502400","平溪區"
"226003","AGD-0702","2018/01/09 07:59:46","新北市平溪區新寮里頂寮子56號","121.774041666667","25.0516066666667","6502400","平溪區"
"223006","022-BY","2018/01/09 07:59:46","新北市坪林區北宜路八段367號","121.709541666667","24.9324616666667","6501900","石碇區"
"223002","198-BX","2018/01/09 07:59:43","新北市石碇區樟空子1號","121.666678333333","24.9600216666667","6501900","石碇區"
"223008","406-TH","2018/01/09 07:59:36","新北市石碇區番子坑109號","121.67493","25.0112166666667","6501900","石碇區"
"223001","592-UM","2018/01/09 07:54:23","新北市石碇區樟空子10-1號","121.667033333333","24.96295","6501900","石碇區"
"223004","660-BX","2018/01/09 07:59:51","新北市石碇區外按9-2號","121.650643333333","24.997355","6501900","石碇區"
"223007","661-BX","2018/01/09 07:59:56","新北市石碇區靜安路一段260號","121.678581666667","25.0104966666667","6501900","石碇區"
"223005","677-TV","2018/01/09 07:59:53","新北市石碇區外按16-3號","121.650516666667","24.9982016666667","6501900","石碇區"
"227006","282-VK","2018/01/09 07:59:31","新北市雙溪區平林里梅竹蹊16號","121.862006666667","25.0359783333333","6502500","雙溪區"
"252004","249-BX","2018/01/09 07:59:52","新北市三芝區興華里車埕36-10號","121.50568","25.1931283333333","6502100","三芝區"
"252007","AAC-283","2018/01/09 07:59:51","新北市三芝區後厝里北勢子45-33號","121.470385","25.251035","6502100","三芝區"
"237001","159-UY","2018/01/09 07:59:46","新北市三峽區大學路49號","121.376763333333","24.94084","6500900","三峽區"
"236008","165-UM","2018/01/09 07:59:39","新北市土城區清水路194巷2號","121.460445","24.9815516666667","6501300","土城區"
"236002","339-SR","2018/01/09 07:58:49","新北市土城區龍泉路79-1號","121.429273333333","24.942355","6501300","土城區"
"239006","661-UM","2018/01/09 07:59:50","新北市鶯歌區文化路322-1號","121.352783333333","24.9458716666667","6500800","鶯歌區"
"220080","461-BY","2018/01/09 07:59:51","新北市板橋區南雅西路一段82號","121.45332","25.0057133333333","6500100","板橋區"
