"lineid","car","time","location","longitude","latitude","cityid","cityname"
"248005","653-BX","2018/01/09 09:09:54","新北市五股區水碓路19號","121.433318333333","25.072635","6501500","五股區"
"222004","289-BY","2018/01/09 09:09:57","新北市深坑區王軍寮7號","121.615675","24.9850616666667","6501800","深坑區"
"231007","189-VK","2018/01/09 09:09:50","新北市新店區新潭路三段1巷10-2號","121.508653333333","24.91735","6500600","新店區"
"231009","192-VK","2018/01/09 09:09:53","新北市新店區廣興路60巷35號","121.542368333333","24.916395","6500600","新店區"
"247001","402-BY","2018/01/09 09:09:46","新北市蘆洲區中山一路74巷55號","121.479995","25.0816483333333","6501400","蘆洲區"
"226002","7418-A5","2018/01/09 09:09:46","新北市平溪區石底里公園街17號","121.737336666667","25.0248616666667","6502400","平溪區"
"223002","198-BX","2018/01/09 08:17:23","新北市石碇區八分寮47-1號","121.643081666667","25.0133633333333","6501900","石碇區"
"223004","660-BX","2018/01/09 09:09:51","新北市石碇區碇坪路二段9號","121.680251666667","24.975625","6501900","石碇區"
"223005","677-TV","2018/01/09 09:09:45","新北市石碇區碇坪路二段35號","121.685058333333","24.9766133333333","6501900","石碇區"
"227006","282-VK","2018/01/09 09:09:51","新北市雙溪區長源里赤皮崙8-1號","121.794306666667","25.019115","6502500","雙溪區"
"227012","030-BX","2018/01/09 09:09:40","新北市坪林區坪雙路三段66號","121.792643333333","24.98243","6502500","雙溪區"
"252004","249-BX","2018/01/09 09:09:52","新北市三芝區興華里田心子7-1號","121.499163333333","25.2040966666667","6502100","三芝區"
"252007","AAC-283","2018/01/09 09:08:51","新北市三芝區後厝里北勢子4-20號","121.482835","25.2499733333333","6502100","三芝區"
"237001","159-UY","2018/01/09 09:09:41","新北市三峽區學府路120號","121.374365","24.9488916666667","6500900","三峽區"
"236008","165-UM","2018/01/09 09:09:39","新北市土城區民安街9號","121.421086666667","24.96513","6501300","土城區"
"236002","339-SR","2018/01/09 09:09:35","新北市土城區福仁街12號","121.440176666667","24.97605","6501300","土城區"
"236006","498-BY","2018/01/09 09:09:39","新北市土城區中央路三段76巷27號","121.435885","24.9680833333333","6501300","土城區"
"239006","661-UM","2018/01/09 09:09:50","桃園市龜山區宏德司法新村1號","121.331861666667","24.979625","6500800","鶯歌區"
"220080","461-BY","2018/01/09 09:09:39","新北市樹林區八德街65-2號","121.40065","24.9693166666667","6500100","板橋區"
