"lineid","car","time","location","longitude","latitude","cityid","cityname"
"248005","653-BX","2018/01/09 09:59:54","新北市五股區蓬萊路6巷4號","121.435656666667","25.07969","6501500","五股區"
"231007","189-VK","2018/01/09 09:59:50","新北市新店區新潭路三段21號","121.508435","24.9143433333333","6500600","新店區"
"231009","192-VK","2018/01/09 09:41:53","新北市新店區平廣路一段247號","121.50874","24.8889216666667","6500600","新店區"
"247001","402-BY","2018/01/09 09:51:00","新北市蘆洲區永安北路二段42-2號","121.482068333333","25.0824133333333","6501400","蘆洲區"
"227006","282-VK","2018/01/09 09:59:51","新北市雙溪區長源里柑腳18號","121.804686666667","25.01414","6502500","雙溪區"
"227012","030-BX","2018/01/09 09:56:39","新北市坪林區鷺鶿岫15-2號","121.7903","24.9494116666667","6502500","雙溪區"
"252004","249-BX","2018/01/09 09:59:52","新北市三芝區福德里土地公埔46-6號","121.51159","25.2313683333333","6502100","三芝區"
"252007","AAC-283","2018/01/09 09:59:51","新北市三芝區新庄里新庄子111號","121.520663333333","25.26603","6502100","三芝區"
"237001","159-UY","2018/01/09 09:59:41","新北市三峽區隆恩街162號","121.364816666667","24.9429933333333","6500900","三峽區"
