"lineid","car","time","location","longitude","latitude","cityid","cityname"
"248005","653-BX","2018/01/09 10:09:54","新北市五股區中興路二段37巷24號","121.460651666667","25.0751116666667","6501500","五股區"
"231007","189-VK","2018/01/09 10:09:50","新北市新店區新潭路二段62巷22號","121.520101666667","24.9275933333333","6500600","新店區"
"231009","192-VK","2018/01/09 10:09:53","新北市新店區平廣路一段86號","121.530443333333","24.898585","6500600","新店區"
"247001","402-BY","2018/01/09 10:09:44","新北市蘆洲區永安北路二段42-2號","121.482076666667","25.0825016666667","6501400","蘆洲區"
"227006","282-VK","2018/01/09 10:09:51","新北市雙溪區長源里柑腳18號","121.804691666667","25.0141416666667","6502500","雙溪區"
"227012","030-BX","2018/01/09 10:09:39","新北市雙溪區泰平里料角坑37號","121.79486","24.9593583333333","6502500","雙溪區"
"252004","249-BX","2018/01/09 10:09:52","新北市三芝區中正路三段30號","121.502245","25.2523983333333","6502100","三芝區"
"252007","AAC-283","2018/01/09 10:09:51","新北市三芝區新庄里新庄子51-13號","121.50753","25.2763883333333","6502100","三芝區"
"237001","159-UY","2018/01/09 10:09:41","新北市三峽區國際一街19號","121.37385","24.9427983333333","6500900","三峽區"
