"lineid","car","time","location","longitude","latitude","cityid","cityname"
"231007","189-VK","2018/01/09 10:19:50","新北市新店區新潭路二段61號","121.521738333333","24.92624","6500600","新店區"
"231009","192-VK","2018/01/09 10:19:53","新北市新店區小坑一路21-1號","121.531546666667","24.9127916666667","6500600","新店區"
"247001","402-BY","2018/01/09 10:19:44","新北市蘆洲區集賢路340號","121.481278333333","25.084265","6501400","蘆洲區"
"227006","282-VK","2018/01/09 10:19:51","新北市雙溪區長源里柑腳18號","121.804695","25.0141366666667","6502500","雙溪區"
"227012","030-BX","2018/01/09 10:18:59","新北市雙溪區泰平里料角坑37號","121.795131666667","24.9592516666667","6502500","雙溪區"
"252007","AAC-283","2018/01/09 10:19:51","新北市三芝區古庄里古庄103-1號","121.494586666667","25.2719366666667","6502100","三芝區"
"237001","159-UY","2018/01/09 10:19:41","新北市三峽區國際二街33-10號","121.372588333333","24.9433116666667","6500900","三峽區"
