"lineid","car","time","location","longitude","latitude","cityid","cityname"
"231007","189-VK","2018/01/09 11:19:50","新北市新店區新潭路一段160巷17號","121.529691666667","24.9320166666667","6500600","新店區"
"231009","192-VK","2018/01/09 11:19:33","新北市新店區成功路150號","121.532573333333","24.89118","6500600","新店區"
"247001","402-BY","2018/01/09 10:59:10","新北市五股區中興路三段5號","121.449523333333","25.079235","6501400","蘆洲區"
"227006","282-VK","2018/01/09 11:19:51","新北市雙溪區魚行里坤溪8號","121.866355","25.02135","6502500","雙溪區"
"236002","339-SR","2018/01/09 11:19:49","新北市土城區明德路一段385-1號","121.452608333333","24.9796766666667","6501300","土城區"
