"lineid","car","time","location","longitude","latitude","cityid","cityname"
"231007","189-VK","2018/01/09 11:29:50","新北市新店區新潭路一段95號","121.526485","24.938865","6500600","新店區"
"231009","192-VK","2018/01/09 11:29:53","新北市新店區成功路91-1號","121.537811666667","24.8951","6500600","新店區"
"247001","402-BY","2018/01/09 10:59:10","新北市五股區中興路三段5號","121.449523333333","25.079235","6501400","蘆洲區"
"227006","282-VK","2018/01/09 11:29:51","新北市雙溪區魚行里坤溪8號","121.86626","25.02119","6502500","雙溪區"
"236002","339-SR","2018/01/09 11:29:49","新北市土城區清水路1號","121.452891666667","24.9797683333333","6501300","土城區"
