"lineid","car","time","location","longitude","latitude","cityid","cityname"
"234012","149-BY","2018/01/09 14:19:37","新北市中和區光環路二段29號","121.487651666667","25.0135783333333","6500400","永和區"
"234005","207-UY","2018/01/09 14:19:56","新北市永和區中正路613號","121.516291666667","25.0098016666667","6500400","永和區"
"234078","298-R6","2018/01/09 14:19:38","新北市永和區永亨路59號","121.52094","25.00623","6500400","永和區"
"234036","336-UY","2018/01/09 14:19:37","新北市永和區成功路一段108號","121.526813333333","25.0027266666667","6500400","永和區"
"234062","337-UY","2018/01/09 14:19:55","新北市永和區得和路120號","121.518565","25.0001","6500400","永和區"
"234084","338-UY","2018/01/09 14:19:50","新北市永和區永和路二段182號","121.515443333333","25.0134066666667","6500400","永和區"
"234052","553-UM","2018/01/09 14:19:50","新北市永和區光復街2巷16弄15號","121.517631666667","25.0164016666667","6500400","永和區"
"234028","746-BX","2018/01/09 14:19:38","新北市永和區民權路49巷15號","121.520816666667","24.9973033333333","6500400","永和區"
"234040","838-RS","2018/01/09 14:19:47","新北市永和區中和路453號","121.509943333333","25.00159","6500400","永和區"
"234060","AAD-866","2018/01/09 14:19:51","新北市永和區安樂路194巷18號","121.516315","25.0009416666667","6500400","永和區"
"234068","847-RS","2018/01/09 14:19:53","新北市永和區福和路263巷10號","121.51794","25.00684","6500400","永和區"
"234040","862-TW","2018/01/09 12:33:25","新北市永和區福和路1號","121.52651","25.009665","6500400","永和區"
"234048","863-TW","2018/01/09 14:19:51","新北市永和區新生路2號","121.509206666667","25.0167","6500400","永和區"
"234025","9371-KE","2018/01/09 14:19:47","新北市永和區得和路42巷23號","121.515355","24.9996233333333","6500400","永和區"
"248017","225-UY","2018/01/09 14:19:50","新北市五股區壟路16-1號","121.414485","25.0852716666667","6501500","五股區"
"234022","9380-KE","2018/01/09 14:19:54","新北市永和區竹林路16號","121.516616666667","25.0148566666667","6500400","永和區"
"234076","969-R7","2018/01/09 14:19:54","新北市永和區民權路55號","121.520125","24.9966316666667","6500400","永和區"
"234072","AAC-211","2018/01/09 14:19:35","新北市永和區竹林路119巷30弄6號","121.522385","25.0116","6500400","永和區"
"234066","AAC-212","2018/01/09 14:19:42","新北市永和區保平路268巷51弄20號","121.50685","25.006135","6500400","永和區"
"234001","AAC-295","2018/01/09 14:19:47","新北市永和區自強街47號","121.516135","25.0080366666667","6500400","永和區"
"244001","248-BX","2018/01/09 14:06:33","新北市林口區竹林路266號","121.389645","25.08082","6501700","林口區"
"231002","001-UM","2018/01/09 14:19:54","新北市新店區中央路218號","121.529713333333","24.9731416666667","6500600","新店區"
"231025","0291-UT","2018/01/09 14:19:36","新北市新店區大豐路95號","121.538148333333","24.97892","6500600","新店區"
"231037","0293-UT","2018/01/09 14:19:45","新北市新店區車子路63號","121.503945","24.951355","6500600","新店區"
"231028","046-UY","2018/01/09 14:19:53","新北市新店區安和路二段1號","121.51776","24.9668483333333","6500600","新店區"
"231030","047-UY","2018/01/09 14:19:55","新北市新店區安民街11號","121.515323333333","24.9644566666667","6500600","新店區"
"231029","106-UY","2018/01/09 14:19:52","新北市新店區安康路二段213號","121.508865","24.95888","6500600","新店區"
"231018","107-UY","2018/01/09 14:19:41","新北市新店區中央四街39號","121.5282","24.974695","6500600","新店區"
"231012","108-UY","2018/01/09 14:19:51","新北市新店區五峰路59-7號","121.54741","24.9701366666667","6500600","新店區"
"231020","187-VK","2018/01/09 14:19:49","新北市新店區自強路252號","121.548375","24.9183416666667","6500600","新店區"
"231015","KEA-2219","2018/01/09 14:19:54","新北市新店區北宜路二段384號","121.564798333333","24.9532616666667","6500600","新店區"
"231023","AAD-862","2018/01/09 14:19:36","新北市新店區光明街140號","121.539393333333","24.961335","6500600","新店區"
"231027","3712-VJ","2018/01/09 14:19:49","新北市新店區北新路二段228巷13號","121.54349","24.9771483333333","6500600","新店區"
"231024","4716-K9","2018/01/09 14:19:41","新北市新店區新生街13巷42-1號","121.538898333333","24.9664883333333","6500600","新店區"
"231038","4715-K9","2018/01/09 14:19:51","新北市新店區溪洲路6巷32號","121.533883333333","24.962575","6500600","新店區"
"231036","512-UM","2018/01/09 14:19:46","新北市新店區安祥路109巷151弄16號","121.477731666667","24.9588366666667","6500600","新店區"
"231035","515-UM","2018/01/09 14:19:43","新北市新店區光華街18-2號","121.517268333333","24.9692266666667","6500600","新店區"
"231001","619-UM","2018/01/09 14:19:44","新北市新店區北新路一段331號","121.541821666667","24.9685433333333","6500600","新店區"
"231003","641-BX","2018/01/09 14:19:50","新北市新店區中興路一段203號","121.543505","24.96566","6500600","新店區"
"231034","645-TV","2018/01/09 14:19:50","新北市新店區黎明路3號","121.503488333333","24.9524183333333","6500600","新店區"
"231013","719-UM","2018/01/09 14:19:40","新北市新店區建國路253號","121.537471666667","24.982755","6500600","新店區"
"231032","720-UM","2018/01/09 14:19:45","新北市新店區太平路8號","121.534496666667","24.9581483333333","6500600","新店區"
"231005","897-TW","2018/01/09 14:19:42","新北市新店區北新路二段268號","121.542806666667","24.978805","6500600","新店區"
"231006","898-TW","2018/01/09 14:19:58","新北市新店區北宜路二段384號","121.564931666667","24.9533283333333","6500600","新店區"
"231004","899-TW","2018/01/09 14:19:48","新北市新店區中正路173號","121.540971666667","24.9720833333333","6500600","新店區"
"235030","003-UY","2018/01/09 14:19:51","新北市中和區中和路102號","121.502651666667","24.9997216666667","6500300","中和區"
"235028","005-UY","2018/01/09 14:19:57","新北市中和區中和路26巷10號","121.499396666667","25.0016316666667","6500300","中和區"
"235027","006-UY","2018/01/09 14:19:50","新北市中和區圓通路198巷6號","121.495648333333","24.9945083333333","6500300","中和區"
"235010","031-BX","2018/01/09 14:19:47","新北市中和區忠孝街2巷16號","121.510723333333","24.9813566666667","6500300","中和區"
"235020","096-UM","2018/01/09 14:19:48","新北市中和區中山路三段2號","121.479935","25.00624","6500300","中和區"
"235003","097-UM","2018/01/09 14:19:52","新北市中和區秀峰街103巷4弄2號","121.520516666667","24.9900833333333","6500300","中和區"
"235029","098-UM","2018/01/09 14:19:57","新北市中和區莊敬路1-6號","121.499553333333","25.0043366666667","6500300","中和區"
"235004","150-BY","2018/01/09 14:19:50","新北市中和區保健路106巷31號","121.512021666667","24.9953933333333","6500300","中和區"
"235022","151-BY","2018/01/09 14:19:41","新北市中和區員山路36巷16-6號","121.485345","24.992145","6500300","中和區"
"235019","183-VK","2018/01/09 14:19:49","新北市中和區中山路三段209號","121.471891666667","25.006355","6500300","中和區"
"235002","185-VK","2018/01/09 14:19:41","新北市中和區大仁街20巷59號","121.519951666667","24.9934233333333","6500300","中和區"
"235013","186-VK","2018/01/09 14:19:53","新北市中和區景新街230巷5號","121.508125","24.994095","6500300","中和區"
"235031","255-BX","2018/01/09 14:19:40","新北市中和區新生街183號","121.483708333333","25.0004883333333","6500300","中和區"
"235008","293-VK","2018/01/09 14:19:38","新北市中和區中興街250號","121.499535","24.9882083333333","6500300","中和區"
"235036","301-VK","2018/01/09 14:19:52","新北市中和區福美路247號","121.499013333333","25.005125","6500300","中和區"
"235007","352-BY","2018/01/09 14:19:41","新北市中和區景平路300號","121.51271","24.9926466666667","6500300","中和區"
"235032","377-QA","2018/01/09 14:19:42","新北市中和區景平路493巷4號","121.499416666667","24.99726","6500300","中和區"
"235025","378-QA","2018/01/09 14:19:51","新北市中和區連城路456巷9號","121.478596666667","24.99523","6500300","中和區"
"235014","4979-A6","2018/01/09 14:19:48","新北市中和區復興路251號","121.50334","24.9902266666667","6500300","中和區"
"235033","4980-A6","2018/01/09 14:19:40","新北市中和區景平路754號","121.496398333333","25.004505","6500300","中和區"
"235006","551-UM","2018/01/09 14:19:44","新北市永和區中正路198號","121.515813333333","24.9972316666667","6500300","中和區"
"235034","558-UM","2018/01/09 14:19:37","新北市中和區中和路27號","121.499828333333","25.0018633333333","6500300","中和區"
"235009","565-BX","2018/01/09 14:19:52","新北市中和區景新街423巷35弄9號","121.514001666667","24.990045","6500300","中和區"
"235018","640-BX","2018/01/09 14:19:50","新北市中和區國光街109巷2弄10號","121.469263333333","25.0007466666667","6500300","中和區"
"235024","647-TV","2018/01/09 14:19:50","新北市中和區中山路三段111號","121.474783333333","25.0059066666667","6500300","中和區"
"235011","732-UM","2018/01/09 14:19:53","新北市中和區景平路239巷59弄17號","121.508915","24.991775","6500300","中和區"
"235026","800-TS","2018/01/09 14:19:40","新北市中和區中山路二段488-1號","121.48746","25.0048866666667","6500300","中和區"
"235021","801-TS","2018/01/09 14:19:38","新北市中和區民利街26號","121.480083333333","24.9990816666667","6500300","中和區"
"235005","802-TS","2018/01/09 14:19:50","新北市中和區安平路132號","121.512046666667","24.9978716666667","6500300","中和區"
"235016","805-TS","2018/01/09 14:19:50","新北市中和區興南路二段128巷4號","121.50411","24.9837016666667","6500300","中和區"
"235012","896-TW","2018/01/09 14:19:52","新北市中和區忠孝街5-3號","121.50985","24.9828233333333","6500300","中和區"
"235017","900-TW","2018/01/09 14:19:35","新北市中和區華安街17巷26號","121.467636666667","24.9982716666667","6500300","中和區"
"235015","157-BY","2018/01/09 14:19:38","新北市中和區興南路一段55-2號","121.51068","24.9900216666667","6500300","中和區"
"235001","AAC-213","2018/01/09 14:19:45","新北市中和區自立路15巷25號","121.52319","24.9959366666667","6500300","中和區"
"235023","AAC-215","2018/01/09 14:19:50","新北市中和區圓通路286巷10號","121.491506666667","24.9912383333333","6500300","中和區"
"220013","072-UY","2018/01/09 14:19:47","新北市板橋區國泰街74號","121.467398333333","25.0065766666667","6500100","板橋區"
"220034","073-UY","2018/01/09 14:19:51","新北市板橋區中正路216巷8號","121.456355","25.0184366666667","6500100","板橋區"
"220105","075-UY","2018/01/09 14:19:53","新北市板橋區雙十路三段68巷1號","121.47043","25.032175","6500100","板橋區"
"220017","AAD-861","2018/01/09 14:19:48","新北市板橋區貴興路49號","121.457363333333","25.0033","6500100","板橋區"
"220045","120-SR","2018/01/09 14:19:43","新北市板橋區大同街50巷32號","121.478775","25.0264166666667","6500100","板橋區"
"247021","893-R6","2018/01/09 14:19:40","新北市蘆洲區仁愛街212巷28-1號","121.464178333333","25.0945866666667","6501400","蘆洲區"
"247011","546-UM","2018/01/09 14:19:46","新北市蘆洲區民權路38巷1號","121.476281666667","25.0866483333333","6501400","蘆洲區"
"247019","500-BY","2018/01/09 14:19:47","新北市蘆洲區民族路448號","121.472561666667","25.0921366666667","6501400","蘆洲區"
"247001","402-BY","2018/01/09 14:19:39","新北市三重區永安北路二段171號","121.483948333333","25.0848833333333","6501400","蘆洲區"
"247009","339-TH","2018/01/09 14:19:58","新北市蘆洲區三民路26巷18號","121.477065","25.08289","6501400","蘆洲區"
"247001","337-TH","2018/01/09 14:19:47","新北市蘆洲區永樂街45-1號","121.456936666667","25.0884866666667","6501400","蘆洲區"
"247003","336-TH","2018/01/09 14:19:57","新北市蘆洲區中原路78號","121.458093333333","25.0818566666667","6501400","蘆洲區"
"247015","057-VK","2018/01/09 14:19:13","新北市蘆洲區中正路185巷25弄32號","121.467465","25.0834033333333","6501400","蘆洲區"
"247005","056-VK","2018/01/09 14:19:51","新北市蘆洲區長安街23巷21號","121.463463333333","25.0784733333333","6501400","蘆洲區"
"247007","053-VK","2018/01/09 14:19:48","新北市蘆洲區中山一路197巷6弄22號","121.474113333333","25.0803266666667","6501400","蘆洲區"
"247013","007-UY","2018/01/09 14:19:50","新北市蘆洲區中山一路210號","121.473356666667","25.0806566666667","6501400","蘆洲區"
"247023","002-UY","2018/01/09 14:19:54","新北市蘆洲區三民路589號","121.461448333333","25.0931933333333","6501400","蘆洲區"
"247017","001-UY","2018/01/09 14:19:50","新北市蘆洲區民權路144號","121.4728","25.089195","6501400","蘆洲區"
"228004","212-TW","2018/01/09 14:19:40","新北市貢寮區雙玉里田寮洋街39號","121.92504","25.01394","6502600","貢寮區"
"228005","828-UM","2018/01/09 14:19:57","新北市貢寮區美豐里土地公嶺54號","121.89452","25.0650833333333","6502600","貢寮區"
"208004","AAC-292","2018/01/09 14:19:38","新北市金山區六股里下六股65號","121.61444","25.2236483333333","6502700","金山區"
"207002","749-BX","2018/01/09 14:19:39","新北市萬里區溪底里溪底路21號","121.612818333333","25.14924","6502800","萬里區"
"207001","662-BX","2018/01/09 14:19:38","新北市萬里區磺潭里清水18號","121.63777","25.19785","6502800","萬里區"
"252005","AAC-283","2018/01/09 14:19:51","新北市三芝區橫山里大坑23-1號","121.525018333333","25.2552783333333","6502100","三芝區"
"237010","280-TH","2018/01/09 14:19:38","新北市三峽區隆恩街245號","121.357733333333","24.940945","6500900","三峽區"
"236065","105-UM","2018/01/09 14:19:50","新北市土城區明德路一段128巷3號","121.463406666667","24.979095","6501300","土城區"
"236041","107-UM","2018/01/09 14:19:54","新北市土城區樂利街3巷11號","121.448468333333","24.9863783333333","6501300","土城區"
"236075","166-UM","2018/01/09 14:19:47","新北市土城區中央路三段281巷23弄19號","121.426363333333","24.9615316666667","6501300","土城區"
"236029","253-BX","2018/01/09 14:19:52","新北市土城區順風路63號","121.440158333333","24.9773","6501300","土城區"
"236025","269-VK","2018/01/09 14:19:38","新北市土城區承天路18號","121.439436666667","24.9633633333333","6501300","土城區"
"236013","270-VK","2018/01/09 14:19:56","新北市土城區青雲路39巷7號","121.460388333333","24.9876016666667","6501300","土城區"
"236034","271-VK","2018/01/09 14:19:41","新北市土城區青雲路451巷8弄12號","121.459513333333","24.97416","6501300","土城區"
"236002","339-SR","2018/01/09 12:05:01","新北市土城區永平街51號","121.427688333333","24.959185","6501300","土城區"
"236017","401-BY","2018/01/09 14:19:54","新北市土城區金城路二段23-1號","121.448158333333","24.9765266666667","6501300","土城區"
"236006","498-BY","2018/01/09 14:19:56","新北市土城區中華路一段70巷8號","121.444688333333","24.9886083333333","6501300","土城區"
"236057","912-UM","2018/01/09 14:19:42","新北市土城區中央路四段246號","121.415166666667","24.9569466666667","6501300","土城區"
"236045","913-UM","2018/01/09 14:19:49","新北市土城區明德路一段361-3號","121.456075","24.9778016666667","6501300","土城區"
"236061","915-UM","2018/01/09 14:19:35","新北市土城區延壽路44巷11號","121.471465","24.9929483333333","6501300","土城區"
"236054","AAC-216","2018/01/09 14:19:44","新北市土城區中華路二段100號","121.438088333333","24.9743983333333","6501300","土城區"
"221012","276-VK","2018/01/09 13:26:57","新北市汐止區汐萬路一段256巷3號","121.653425","25.0746383333333","6501100","汐止區"
"220027","145-BY","2018/01/09 14:19:57","新北市板橋區民權路202巷18弄1號","121.460853333333","25.016625","6500100","板橋區"
"220028","200-UY","2018/01/09 14:19:52","新北市板橋區大觀路二段3巷1號","121.447316666667","25.003855","6500100","板橋區"
"220030","610-BX","2018/01/09 14:19:54","新北市板橋區溪城路91號","121.427165","24.9830833333333","6500100","板橋區"
"220050","245-BX","2018/01/09 14:19:40","新北市板橋區莊敬路21號","121.473883333333","25.0280833333333","6500100","板橋區"
"220014","255-TC","2018/01/09 14:19:56","新北市板橋區長安街138巷3弄39號","121.47388","25.0098166666667","6500100","板橋區"
"220016","257-TC","2018/01/09 14:19:39","新北市板橋區萬安街103巷8號","121.483213333333","25.0246566666667","6500100","板橋區"
"220020","277-BY","2018/01/09 14:19:45","新北市板橋區金門街337巷7弄23號","121.430601666667","24.9852216666667","6500100","板橋區"
"220042","280-UM","2018/01/09 14:19:55","新北市板橋區文化路一段479巷44號","121.467765","25.022745","6500100","板橋區"
"220019","283-VK","2018/01/09 14:19:37","新北市板橋區忠孝路48巷36號","121.460941666667","25.0006133333333","6500100","板橋區"
"220043","285-UM","2018/01/09 14:19:42","新北市板橋區吳鳳路19巷18號","121.46684","25.0307866666667","6500100","板橋區"
"220001","285-VK","2018/01/09 14:19:53","新北市板橋區富山街12號","121.478545","25.021785","6500100","板橋區"
"220031","286-VK","2018/01/09 14:19:51","新北市板橋區龍興街97巷15號","121.443471666667","25.00278","6500100","板橋區"
"220029","287-VK","2018/01/09 14:19:46","新北市板橋區南雅西路一段49號","121.45375","25.0048466666667","6500100","板橋區"
"220039","288-VK","2018/01/09 14:19:39","新北市板橋區長江路一段106巷13弄19號","121.460808333333","25.0294966666667","6500100","板橋區"
"220009","293-UM","2018/01/09 14:19:45","新北市板橋區中山路二段255巷7號","121.477008333333","25.01796","6500100","板橋區"
"220032","296-UM","2018/01/09 14:19:53","新北市板橋區滿平街110巷20號","121.427826666667","24.9880783333333","6500100","板橋區"
"220023","303-R5","2018/01/09 14:19:43","新北市板橋區南雅南路一段1巷29號","121.457323333333","25.0066283333333","6500100","板橋區"
"220010","305-R5","2018/01/09 14:19:52","新北市板橋區三民路二段153巷30弄33號","121.48106","25.0147433333333","6500100","板橋區"
"220041","307-R5","2018/01/09 14:19:40","新北市板橋區光武街50巷31號","121.468178333333","25.0275916666667","6500100","板橋區"
"220047","317-R6","2018/01/09 14:19:38","新北市板橋區民有街91號","121.464733333333","25.0276416666667","6500100","板橋區"
"220012","486-VK","2018/01/09 14:19:56","新北市板橋區板新路219號","121.468318333333","25.0159683333333","6500100","板橋區"
"220038","487-VK","2018/01/09 14:19:53","新北市板橋區文化路二段59號","121.469176666667","25.0251183333333","6500100","板橋區"
"220037","491-VK","2018/01/09 14:19:39","新北市板橋區雙十路二段154號","121.473253333333","25.029295","6500100","板橋區"
"220052","561-BX","2018/01/09 14:19:46","新北市板橋區介壽街20號","121.467666666667","25.0200833333333","6500100","板橋區"
"220104","568-UM","2018/01/09 14:19:48","新北市板橋區中正路332-11號","121.454281666667","25.02328","6500100","板橋區"
"220011","609-BX","2018/01/09 14:19:41","新北市板橋區三民路二段216號","121.478898333333","25.01175","6500100","板橋區"
"220004","630-UY","2018/01/09 14:19:48","新北市板橋區信義路113號","121.457665","24.9933933333333","6500100","板橋區"
"220040","637-BX","2018/01/09 14:19:55","新北市板橋區文聖街204號","121.480263333333","25.02579","6500100","板橋區"
"220005","686-BX","2018/01/09 14:19:53","新北市板橋區國慶路256號","121.463381666667","24.9981733333333","6500100","板橋區"
"220025","687-BX","2018/01/09 14:19:53","新北市板橋區大觀路二段57號","121.446605","25.0027216666667","6500100","板橋區"
"220002","741-BX","2018/01/09 14:19:43","新北市板橋區校前街58號","121.461578333333","25.0033333333333","6500100","板橋區"
"220003","827-TW","2018/01/09 14:19:45","新北市板橋區實踐路181-2號","121.464313333333","25.003625","6500100","板橋區"
"220051","830-TW","2018/01/09 14:19:48","新北市板橋區田單街31號","121.48229","25.028755","6500100","板橋區"
"220022","895-R6","2018/01/09 14:19:43","新北市板橋區北門街25-1號","121.456496666667","25.0113083333333","6500100","板橋區"
"220021","985-R7","2018/01/09 14:19:45","新北市板橋區新生街68號","121.457845","25.0210733333333","6500100","板橋區"
"220046","AAC-210","2018/01/09 14:19:47","新北市板橋區漢生西路89巷3弄2號","121.461493333333","25.0192816666667","6500100","板橋區"
"220018","AAC-253","2018/01/09 14:19:50","新北市板橋區忠孝路136號","121.46354","25.0023266666667","6500100","板橋區"
