"lineid","car","time","location","longitude","latitude","cityid","cityname"
"234040","862-TW","2018/01/09 17:24:05","新北市中和區興南路三段35號","121.497025","24.977985","6500400","永和區"
"244024","742-UY","2018/01/09 20:20:42","新北市林口區粉寮路二段160巷28號","121.405193333333","25.0907683333333","6501700","林口區"
"231059","046-UY","2018/01/09 21:09:48","新北市新店區僑義路4號","121.500315","24.9512616666667","6500600","新店區"
"231061","047-UY","2018/01/09 21:09:44","新北市新店區永平街14號","121.51693","24.983675","6500600","新店區"
"231060","106-UY","2018/01/09 21:09:49","新北市新店區安康路三段131號","121.489868333333","24.95174","6500600","新店區"
"231051","107-UY","2018/01/09 21:09:19","新北市新店區中正路663巷7弄13號","121.532848333333","24.9900466666667","6500600","新店區"
"231048","108-UY","2018/01/09 21:09:44","新北市新店區文化路21巷2號","121.543285","24.9796666666667","6500600","新店區"
"231053","187-VK","2018/01/09 21:09:50","新北市新店區安康路一段216號","121.523928333333","24.963545","6500600","新店區"
"231050","KEA-2219","2018/01/09 21:09:36","新北市新店區華興街10號","121.537856666667","24.9697783333333","6500600","新店區"
"231054","AAD-862","2018/01/09 21:09:39","新北市新店區大新街7巷15號","121.543953333333","24.9680883333333","6500600","新店區"
"231067","4772-VM","2018/01/09 21:09:34","新北市新店區安康路二段266號","121.508621666667","24.9590033333333","6500600","新店區"
"231065","512-UM","2018/01/09 21:09:49","新北市新店區安祥路69巷41弄11號","121.482026666667","24.9607616666667","6500600","新店區"
"231064","515-UM","2018/01/09 21:09:31","新北市新店區安康路二段320巷6號","121.504908333333","24.9599533333333","6500600","新店區"
"231040","619-UM","2018/01/09 21:09:38","新北市新店區北新路一段128-3號","121.542245","24.969755","6500600","新店區"
"231042","641-BX","2018/01/09 21:09:36","新北市新店區寶興路60巷4號","121.54983","24.97186","6500600","新店區"
"231063","645-TV","2018/01/09 21:09:33","新北市新店區玫瑰路58巷2號","121.495373333333","24.9466833333333","6500600","新店區"
"231062","720-UM","2018/01/09 21:09:36","新北市新店區安康路二段382號","121.500466666667","24.9571483333333","6500600","新店區"
"241011","013-R5","2018/01/09 21:09:32","新北市三重區龍濱路130-1號","121.50165","25.071945","6500200","三重區"
"241028","022-UY","2018/01/09 21:09:42","新北市三重區正義南路60-1號","121.49832","25.0605883333333","6500200","三重區"
"241008","059-VK","2018/01/09 21:09:31","新北市三重區自強路一段64號","121.497225","25.0666966666667","6500200","三重區"
"241009","060-VK","2018/01/09 21:09:50","新北市三重區忠孝路二段122號","121.482993333333","25.06883","6500200","三重區"
"241031","061-VK","2018/01/09 21:09:52","新北市三重區重新路五段326巷5號","121.477346666667","25.047695","6500200","三重區"
"241015","062-VK","2018/01/09 21:09:46","新北市三重區三和路一段62號","121.502183333333","25.0658716666667","6500200","三重區"
"241017","063-VK","2018/01/09 21:09:43","新北市三重區國隆路31號","121.492313333333","25.0644416666667","6500200","三重區"
"241024","065-VK","2018/01/09 21:08:28","新北市三重區國道路一段58巷20號","121.481226666667","25.0720083333333","6500200","三重區"
"241026","066-VK","2018/01/09 21:09:35","新北市三重區文化南路42號","121.500415","25.06024","6500200","三重區"
"241002","090-VK","2018/01/09 21:09:40","新北市三重區五華街18號","121.494863333333","25.0803816666667","6500200","三重區"
"241003","091-VK","2018/01/09 21:09:52","新北市三重區仁義街337-1號","121.494995","25.08486","6500200","三重區"
"241005","262-UM","2018/01/09 21:09:43","新北市三重區三信路182號","121.487983333333","25.08615","6500200","三重區"
"241030","265-UM","2018/01/09 21:09:47","新北市三重區重新路五段416號","121.475561666667","25.047635","6500200","三重區"
"241016","266-UM","2018/01/09 21:09:49","新北市三重區信義西街138號","121.495675","25.0642533333333","6500200","三重區"
"241022","267-UM","2018/01/09 21:09:45","新北市三重區中正北路64巷24號","121.486158333333","25.063665","6500200","三重區"
"241018","268-UM","2018/01/09 21:09:46","新北市三重區正義北路330號","121.494466666667","25.07043","6500200","三重區"
"241032","269-UM","2018/01/09 21:09:48","新北市三重區中興北街283號","121.469255","25.0616633333333","6500200","三重區"
"241013","270-UM","2018/01/09 21:09:41","新北市三重區仁愛街141巷21號","121.496583333333","25.0757783333333","6500200","三重區"
"241025","271-UM","2018/01/09 21:09:44","新北市三重區中正北路208巷8號","121.482368333333","25.0670116666667","6500200","三重區"
"241007","398-BY","2018/01/09 21:09:45","新北市三重區三和路四段145巷85號","121.486376666667","25.0788033333333","6500200","三重區"
"241020","413-TH","2018/01/09 21:09:33","新北市三重區忠孝路二段35號","121.485806666667","25.0710916666667","6500200","三重區"
"241004","475-VK","2018/01/09 21:09:41","新北市三重區仁愛街423-1號","121.490441666667","25.0814466666667","6500200","三重區"
"241019","478-VK","2018/01/09 21:09:39","新北市三重區自強路二段74巷19號","121.488078333333","25.0698466666667","6500200","三重區"
"241014","543-UM","2018/01/09 21:09:44","新北市三重區長安街73號","121.501421666667","25.067415","6500200","三重區"
"241023","545-UM","2018/01/09 21:09:51","新北市三重區忠孝路三段50巷41弄64號","121.482376666667","25.063825","6500200","三重區"
"241001","547-UM","2018/01/09 21:09:41","新北市三重區福隆路99號","121.492381666667","25.07834","6500200","三重區"
"241006","AAD-863","2018/01/09 21:09:47","新北市三重區大同北路148巷76號","121.490213333333","25.0644966666667","6500200","三重區"
"241012","941-UM","2018/01/09 21:07:54","新北市三重區仁壽街214號","121.501673333333","25.0752233333333","6500200","三重區"
"241029","942-UM","2018/01/09 21:09:33","新北市三重區正義南路107號","121.498238333333","25.0585333333333","6500200","三重區"
"241033","AAC-255","2018/01/09 21:09:45","新北市三重區大有街23號","121.466606666667","25.0648933333333","6500200","三重區"
"235010","031-BX","2018/01/09 21:01:00","新北市中和區員山路36巷16-2號","121.485271666667","24.99166","6500300","中和區"
"235026","800-TS","2018/01/09 20:32:15","新北市中和區員山路36巷16-3號","121.484956666667","24.9916016666667","6500300","中和區"
"247022","893-R6","2018/01/09 21:09:48","新北市蘆洲區民族路435號","121.467926666667","25.0890083333333","6501400","蘆洲區"
"247012","546-UM","2018/01/09 21:09:33","新北市蘆洲區民族路24號","121.47622","25.0840283333333","6501400","蘆洲區"
"247020","500-BY","2018/01/09 21:09:42","新北市蘆洲區仁愛街2號","121.472703333333","25.0923033333333","6501400","蘆洲區"
"247008","341-TH","2018/01/09 21:09:39","新北市蘆洲區民生街56號","121.473658333333","25.07878","6501400","蘆洲區"
"247010","339-TH","2018/01/09 21:09:40","新北市蘆洲區三民路26巷39號","121.477441666667","25.08312","6501400","蘆洲區"
"247002","337-TH","2018/01/09 21:09:21","新北市蘆洲區長榮路387號","121.459248333333","25.0896683333333","6501400","蘆洲區"
"247004","336-TH","2018/01/09 21:09:39","新北市蘆洲區永安南路二段286號","121.457661666667","25.0812633333333","6501400","蘆洲區"
"247016","057-VK","2018/01/09 21:09:10","新北市蘆洲區正和街96巷7號","121.467706666667","25.0810766666667","6501400","蘆洲區"
"247006","056-VK","2018/01/09 21:09:32","新北市蘆洲區永安南路二段16巷18號","121.467995","25.077845","6501400","蘆洲區"
"247014","007-UY","2018/01/09 21:09:46","新北市蘆洲區中央路155號","121.472633333333","25.084695","6501400","蘆洲區"
"247024","002-UY","2018/01/09 21:09:43","新北市蘆洲區長興路50巷1號","121.46385","25.083765","6501400","蘆洲區"
"247018","001-UY","2018/01/09 21:09:49","新北市蘆洲區民族路408巷12號","121.474923333333","25.0919066666667","6501400","蘆洲區"
"251013","179-VK","2018/01/09 21:09:41","新北市淡水區行忠路328號","121.460486666667","25.199615","6501000","淡水區"
"251014","180-VK","2018/01/09 21:09:41","新北市淡水區溪口2號","121.449281666667","25.2381","6501000","淡水區"
"251015","182-VK","2018/01/09 21:09:38","新北市淡水區淡金路四段542巷59號","121.454785","25.22693","6501000","淡水區"
"251010","413-VK","2018/01/09 21:09:54","新北市淡水區中正路一段63巷9號","121.422486666667","25.1770633333333","6501000","淡水區"
"251012","441-VK","2018/01/09 21:09:45","新北市淡水區淡金路五段168號","121.456928333333","25.239485","6501000","淡水區"
"251016","442-VK","2018/01/09 21:09:49","新北市淡水區前洲子3-1號","121.443881666667","25.2165466666667","6501000","淡水區"
"251005","443-VK","2018/01/09 21:09:37","新北市淡水區博愛街47-1號","121.446766666667","25.1690233333333","6501000","淡水區"
"251001","559-UM","2018/01/09 21:09:40","新北市淡水區新市一路三段101巷16弄1號","121.446351666667","25.1838633333333","6501000","淡水區"
"251009","575-R6","2018/01/09 21:09:49","新北市淡水區民族路112巷57號","121.462113333333","25.134305","6501000","淡水區"
"251011","650-BX","2018/01/09 21:09:35","新北市淡水區新民街120巷45弄24號","121.437793333333","25.17975","6501000","淡水區"
"251002","672-BX","2018/01/09 21:09:33","新北市淡水區學府路172巷21號","121.448156666667","25.1745983333333","6501000","淡水區"
"251003","673-BX","2018/01/09 21:09:42","新北市淡水區新春街103-9號","121.440373333333","25.1818483333333","6501000","淡水區"
"237010","280-TH","2018/01/09 15:07:05","新北市三峽區中山路459巷137號","121.350123333333","24.9341266666667","6500900","三峽區"
"236002","339-SR","2018/01/09 12:05:01","新北市土城區永平街51號","121.427688333333","24.959185","6501300","土城區"
"242048","441-UM","2018/01/09 21:09:47","新北市樹林區中山路三段210-2號","121.380583333333","24.9669183333333","6500500","新莊區"
"221012","276-VK","2018/01/09 13:26:57","新北市汐止區汐萬路一段256巷3號","121.653425","25.0746383333333","6501100","汐止區"
"220070","AAC-253","2018/01/09 21:09:48","新北市林口區太平里180號","121.368288333333","25.1347383333333","6500100","板橋區"
