"lineid","car","time","location","longitude","latitude","cityid","cityname"
"234040","862-TW","2018/01/09 17:24:05","新北市中和區興南路三段35號","121.497025","24.977985","6500400","永和區"
"244024","742-UY","2018/01/09 20:20:42","新北市林口區粉寮路二段160巷28號","121.405193333333","25.0907683333333","6501700","林口區"
"231059","046-UY","2018/01/09 21:15:48","新北市新店區薏仁坑路23號","121.498083333333","24.9589816666667","6500600","新店區"
"231061","047-UY","2018/01/09 21:15:44","新北市新店區安業街2號","121.51521","24.9785733333333","6500600","新店區"
"231060","106-UY","2018/01/09 21:15:34","新北市新店區安康路二段450號","121.495436666667","24.95477","6500600","新店區"
"231051","107-UY","2018/01/09 21:15:39","新北市新店區中正路680巷35號","121.534673333333","24.9895316666667","6500600","新店區"
"231048","108-UY","2018/01/09 21:15:44","新北市新店區民族路193號","121.537191666667","24.97628","6500600","新店區"
"231053","187-VK","2018/01/09 21:15:50","新北市新店區安德街116巷46號","121.507698333333","24.9615816666667","6500600","新店區"
"231050","KEA-2219","2018/01/09 21:15:36","新北市新店區中華路83巷4弄11號","121.538553333333","24.9684316666667","6500600","新店區"
"231054","AAD-862","2018/01/09 21:15:39","新北市新店區大新街9巷17號","121.544188333333","24.9673266666667","6500600","新店區"
"231067","4772-VM","2018/01/09 21:15:14","新北市新店區薏仁坑路自強巷2號","121.497598333333","24.9588766666667","6500600","新店區"
"231065","512-UM","2018/01/09 21:15:49","新北市新店區安祥路98-3號","121.48734","24.95969","6500600","新店區"
"231040","619-UM","2018/01/09 21:15:40","新北市新店區北新路一段329號","121.541663333333","24.9684983333333","6500600","新店區"
"231042","641-BX","2018/01/09 21:15:36","新北市新店區寶興路41號","121.548888333333","24.9737316666667","6500600","新店區"
"231063","645-TV","2018/01/09 21:15:33","新北市新店區玫瑰路61巷2號","121.495983333333","24.9452466666667","6500600","新店區"
"241011","013-R5","2018/01/09 21:15:31","新北市三重區龍濱路114號","121.502196666667","25.0703016666667","6500200","三重區"
"241028","022-UY","2018/01/09 21:15:42","新北市三重區同安東街82號","121.499085","25.05741","6500200","三重區"
"241008","059-VK","2018/01/09 21:15:31","新北市三重區自強路一段64號","121.497241666667","25.066665","6500200","三重區"
"241009","060-VK","2018/01/09 21:15:50","新北市三重區忠孝路二段122號","121.48298","25.0688216666667","6500200","三重區"
"241031","061-VK","2018/01/09 21:15:32","新北市三重區五谷王南街46巷37號","121.475738333333","25.0455383333333","6500200","三重區"
"241015","062-VK","2018/01/09 21:15:46","新北市三重區河邊北街23號","121.504185","25.06532","6500200","三重區"
"241017","063-VK","2018/01/09 21:15:43","新北市三重區國隆路31號","121.492268333333","25.064555","6500200","三重區"
"241024","065-VK","2018/01/09 21:08:28","新北市三重區國道路一段58巷20號","121.481226666667","25.0720083333333","6500200","三重區"
"241026","066-VK","2018/01/09 21:15:35","新北市三重區大同南路218號","121.496791666667","25.0562533333333","6500200","三重區"
"241002","090-VK","2018/01/09 21:15:40","新北市三重區五華街19號","121.494876666667","25.0804066666667","6500200","三重區"
"241003","091-VK","2018/01/09 21:15:32","新北市三重區仁義街228巷1號","121.494905","25.0848433333333","6500200","三重區"
"241005","262-UM","2018/01/09 21:15:43","新北市三重區三信路182號","121.487988333333","25.08612","6500200","三重區"
"241030","265-UM","2018/01/09 21:15:47","新北市三重區五谷王北街20巷15弄1號","121.47494","25.0485183333333","6500200","三重區"
"241016","266-UM","2018/01/09 21:15:29","新北市三重區信義西街138號","121.495651666667","25.064275","6500200","三重區"
"241022","267-UM","2018/01/09 21:15:46","新北市三重區市前街14號","121.48918","25.062375","6500200","三重區"
"241018","268-UM","2018/01/09 21:15:46","新北市三重區正義北路332號","121.494528333333","25.0707783333333","6500200","三重區"
"241032","269-UM","2018/01/09 21:15:48","新北市三重區中興北街134-1號","121.46902","25.0558966666667","6500200","三重區"
"241013","270-UM","2018/01/09 21:15:41","新北市三重區仁愛街81-1號","121.495948333333","25.0731816666667","6500200","三重區"
"241025","271-UM","2018/01/09 21:15:44","新北市三重區中正北路208巷8號","121.482323333333","25.0670366666667","6500200","三重區"
"241007","398-BY","2018/01/09 21:15:45","新北市三重區車路頭街135-1號","121.484245","25.07605","6500200","三重區"
"241004","475-VK","2018/01/09 21:15:41","新北市三重區仁愛街420號","121.490405","25.0814266666667","6500200","三重區"
"241019","478-VK","2018/01/09 21:15:39","新北市三重區自強路二段74巷5號","121.488276666667","25.0699783333333","6500200","三重區"
"241014","543-UM","2018/01/09 21:15:44","新北市三重區長安街82-1號","121.501413333333","25.06773","6500200","三重區"
"241023","545-UM","2018/01/09 21:15:36","新北市三重區中正北路176巷16號","121.482691666667","25.0658766666667","6500200","三重區"
"241001","547-UM","2018/01/09 21:15:41","新北市三重區福隆路44號","121.492388333333","25.0783633333333","6500200","三重區"
"241006","AAD-863","2018/01/09 21:15:47","新北市三重區中正北路2號","121.489268333333","25.063175","6500200","三重區"
"241012","941-UM","2018/01/09 21:13:14","新北市三重區龍濱路287號","121.501131666667","25.0737133333333","6500200","三重區"
"241029","942-UM","2018/01/09 21:15:33","新北市三重區電信街31號","121.497136666667","25.0584733333333","6500200","三重區"
"241033","AAC-255","2018/01/09 21:15:37","新北市三重區光復路二段170號","121.471995","25.0612483333333","6500200","三重區"
"235010","031-BX","2018/01/09 21:01:00","新北市中和區員山路36巷16-2號","121.485271666667","24.99166","6500300","中和區"
"235026","800-TS","2018/01/09 20:32:15","新北市中和區員山路36巷16-3號","121.484956666667","24.9916016666667","6500300","中和區"
"247022","893-R6","2018/01/09 21:15:41","新北市蘆洲區三民路243號","121.468955","25.0889116666667","6501400","蘆洲區"
"247012","546-UM","2018/01/09 21:15:33","新北市蘆洲區民族路236巷8號","121.480303333333","25.08853","6501400","蘆洲區"
"247020","500-BY","2018/01/09 21:15:42","新北市蘆洲區民族路436巷26號","121.472668333333","25.0929966666667","6501400","蘆洲區"
"247008","341-TH","2018/01/09 21:15:39","新北市蘆洲區民生街47號","121.474995","25.0788266666667","6501400","蘆洲區"
"247010","339-TH","2018/01/09 21:15:40","新北市蘆洲區鷺江街33號","121.478628333333","25.082375","6501400","蘆洲區"
"247002","337-TH","2018/01/09 21:15:41","新北市蘆洲區永樂街38巷57弄2號","121.458603333333","25.09022","6501400","蘆洲區"
"247004","336-TH","2018/01/09 21:15:39","新北市蘆洲區永安南路二段320號","121.45698","25.0827033333333","6501400","蘆洲區"
"247016","057-VK","2018/01/09 21:15:48","新北市蘆洲區中正路185巷27號","121.466691666667","25.0843866666667","6501400","蘆洲區"
"247006","056-VK","2018/01/09 21:15:32","新北市蘆洲區長安街36-1號","121.463806666667","25.07941","6501400","蘆洲區"
"247014","007-UY","2018/01/09 21:15:46","新北市蘆洲區保和街50-6號","121.469848333333","25.0863033333333","6501400","蘆洲區"
"247024","002-UY","2018/01/09 21:15:43","新北市蘆洲區長興路50巷31號","121.464518333333","25.0842766666667","6501400","蘆洲區"
"247018","001-UY","2018/01/09 21:15:49","新北市蘆洲區民族路255巷37號","121.475908333333","25.0888966666667","6501400","蘆洲區"
"251004","009-UM","2018/01/09 21:05:34","新北市淡水區中正東路二段143巷2弄1號","121.460556666667","25.1472516666667","6501000","淡水區"
"251013","179-VK","2018/01/09 21:15:41","新北市淡水區行忠路328號","121.460495","25.1996066666667","6501000","淡水區"
"251014","180-VK","2018/01/09 21:15:41","新北市淡水區六塊厝2-1號","121.450156666667","25.2404733333333","6501000","淡水區"
"251008","181-VK","2018/01/09 21:15:51","新北市淡水區北投子93-2號","121.465623333333","25.1764666666667","6501000","淡水區"
"251015","182-VK","2018/01/09 21:15:47","新北市淡水區淡金路四段542巷83弄12號","121.456163333333","25.22693","6501000","淡水區"
"251010","413-VK","2018/01/09 21:15:47","新北市淡水區中正路一段156巷8號","121.42149","25.1806","6501000","淡水區"
"251012","441-VK","2018/01/09 21:15:45","新北市淡水區石頭埔8號","121.452628333333","25.2345816666667","6501000","淡水區"
"251016","442-VK","2018/01/09 21:15:49","新北市淡水區前洲子28號","121.441046666667","25.2191933333333","6501000","淡水區"
"251005","443-VK","2018/01/09 21:15:37","新北市淡水區英專路42-4號","121.445951666667","25.1702933333333","6501000","淡水區"
"251001","559-UM","2018/01/09 21:15:40","新北市淡水區中山北路二段375號","121.444133333333","25.18687","6501000","淡水區"
"251009","575-R6","2018/01/09 21:15:49","新北市淡水區民族路112巷57號","121.462071666667","25.13433","6501000","淡水區"
"251011","650-BX","2018/01/09 21:15:34","新北市淡水區新民街120巷29號","121.438785","25.1788933333333","6501000","淡水區"
"251002","672-BX","2018/01/09 21:15:33","新北市淡水區學府路172巷21號","121.448316666667","25.1748933333333","6501000","淡水區"
"251003","673-BX","2018/01/09 21:15:43","新北市淡水區新春街92號","121.439085","25.18222","6501000","淡水區"
"237010","280-TH","2018/01/09 15:07:05","新北市三峽區中山路459巷137號","121.350123333333","24.9341266666667","6500900","三峽區"
"236002","339-SR","2018/01/09 12:05:01","新北市土城區永平街51號","121.427688333333","24.959185","6501300","土城區"
"242048","441-UM","2018/01/09 21:13:08","新北市樹林區中山路三段214號","121.37998","24.96794","6500500","新莊區"
"221012","276-VK","2018/01/09 13:26:57","新北市汐止區汐萬路一段256巷3號","121.653425","25.0746383333333","6501100","汐止區"
"220070","AAC-253","2018/01/09 21:15:48","新北市林口區汕頭32號","121.366833333333","25.13503","6500100","板橋區"
