"lineid","car","time","location","longitude","latitude","cityid","cityname"
"248005","653-BX","2018/08/17 09:09:30","新北市五股區水碓路10號","121.433968333333","25.0722016666667","6501500","五股區"
"222005","289-BY","2018/08/17 09:09:24","新北市深坑區土庫尖路75-1號","121.63117","25.0182166666667","6501800","深坑區"
"231007","189-VK","2018/08/17 09:09:32","新北市新店區新潭路三段210號","121.505326666667","24.90504","6500600","新店區"
"231009","192-VK","2018/08/17 09:09:25","新北市新店區廣興路60巷6-2號","121.539755","24.9142733333333","6500600","新店區"
"235001","611-BX","2018/08/17 09:09:35","新北市中和區民享街245號","121.472001666667","24.99629","6500300","中和區"
"226001","7418-A5","2018/08/17 09:09:26","新北市平溪區東勢里東勢格1-1號","121.749053333333","25.0032083333333","6502400","平溪區"
"226006","AGD-0702","2018/08/17 09:09:24","新北市平溪區石底里石底街95號","121.733036666667","25.0236583333333","6502400","平溪區"
"223006","022-BY","2018/08/17 09:09:27","新北市石碇區石碇西街21號","121.658695","24.9880983333333","6501900","石碇區"
"223003","205-TH","2018/08/17 09:09:31","新北市石碇區北宜路四段30號","121.624336666667","24.95647","6501900","石碇區"
"223008","406-TH","2018/08/17 09:09:32","新北市石碇區大湖格1-1號","121.70364","25.0129166666667","6501900","石碇區"
"223001","592-UM","2018/08/17 09:09:25","新北市石碇區北宜路五段6號","121.630685","24.95648","6501900","石碇區"
"223004","660-BX","2018/08/17 09:09:24","新北市石碇區磨石坑16-3號","121.688253333333","24.9715716666667","6501900","石碇區"
"223005","677-TV","2018/08/17 09:09:16","新北市石碇區大崙16-2號","121.690833333333","24.97849","6501900","石碇區"
"228001","670-TC","2018/08/17 09:09:26","新北市貢寮區仁理村仁和路72號","121.922975","25.0499633333333","6502600","貢寮區"
"227005","282-VK","2018/08/17 09:09:21","新北市雙溪區泰平里料角坑9號","121.811983333333","24.9744516666667","6502500","雙溪區"
"237001","159-UY","2018/08/17 09:09:25","新北市三峽區國際一街52號","121.373168333333","24.9424383333333","6500900","三峽區"
"236010","165-UM","2018/08/17 09:09:31","新北市土城區金城路一段5號","121.439311666667","24.96894","6501300","土城區"
"236004","339-SR","2018/08/17 09:09:21","新北市土城區中正路1號","121.442311666667","24.9751133333333","6501300","土城區"
"236006","498-BY","2018/08/17 09:09:31","新北市土城區中央路三段76巷47號","121.435533333333","24.9694566666667","6501300","土城區"
