"lineid","car","time","location","longitude","latitude","cityid","cityname"
"234044","148-BY","2018/08/17 13:39:21","新北市永和區永亨路175號","121.526275","25.0035366666667","6500400","永和區"
"234070","149-BY","2018/08/17 13:39:38","新北市中和區永貞路262巷8號","121.5138","25.0041083333333","6500400","永和區"
"234005","207-UY","2018/08/17 13:39:33","新北市永和區中山路一段7號","121.514261666667","25.01028","6500400","永和區"
"234078","298-R6","2018/08/17 13:39:38","新北市永和區林森路20巷7號","121.525843333333","25.0056416666667","6500400","永和區"
"234062","337-UY","2018/08/17 13:39:24","新北市永和區秀朗路一段192巷6弄10號","121.519186666667","25.00236","6500400","永和區"
"234084","338-UY","2018/08/17 13:39:42","新北市永和區永亨路108號","121.523573333333","25.004545","6500400","永和區"
"234068","552-UM","2018/08/17 13:39:24","新北市永和區永和路二段237-1號","121.51558","25.0144416666667","6500400","永和區"
"234036","553-UM","2018/08/17 13:39:21","新北市永和區環河東路四段20號","121.528636666667","24.9996366666667","6500400","永和區"
"234015","745-BX","2018/08/17 13:39:38","新北市永和區忠孝街26巷27弄1號","121.515266666667","25.016945","6500400","永和區"
"234028","746-BX","2018/08/17 13:39:36","新北市永和區民權路29巷1號","121.52033","24.9978133333333","6500400","永和區"
"234052","KEA-2590","2018/08/17 13:39:29","新北市永和區竹林路39巷26號","121.519121666667","25.0148033333333","6500400","永和區"
"234012","KEA-2591","2018/08/17 13:39:31","新北市永和區仁愛路235號","121.509151666667","25.0121166666667","6500400","永和區"
"234060","AAD-866","2018/08/17 13:39:24","新北市永和區中正路456號","121.517511666667","25.0029016666667","6500400","永和區"
"234040","862-TW","2018/08/17 13:39:31","新北市永和區永貞路302號","121.512063333333","25.00472","6500400","永和區"
"234048","863-TW","2018/08/17 13:39:33","新北市永和區保安路104號","121.509393333333","25.0159116666667","6500400","永和區"
"234025","9371-KE","2018/08/17 13:39:28","新北市永和區中山路一段17巷4弄14號","121.513163333333","25.0101916666667","6500400","永和區"
"234010","9373-KE","2018/08/17 13:39:24","新北市永和區保福路二段56號","121.511055","25.0123633333333","6500400","永和區"
"248019","225-UY","2018/08/17 13:38:06","新北市五股區孝義路71-5號","121.445783333333","25.1195233333333","6501500","五股區"
"234022","9380-KE","2018/08/17 13:39:33","新北市永和區中正路702巷20弄1號","121.516533333333","25.010595","6500400","永和區"
"234076","969-R7","2018/08/17 13:39:26","新北市永和區民族街44號","121.518456666667","24.998625","6500400","永和區"
"234072","AAC-211","2018/08/17 13:39:36","新北市永和區竹林路213巷39號","121.52322","25.0091566666667","6500400","永和區"
"234066","AAC-212","2018/08/17 13:39:22","新北市永和區中山路一段191巷7弄1號","121.50951","25.0083516666667","6500400","永和區"
"234001","AAC-295","2018/08/17 13:39:26","新北市永和區永和路一段116號","121.513853333333","25.007465","6500400","永和區"
"244004","248-BX","2018/08/17 13:38:59","新北市林口區頂福里5-2號","121.360208333333","25.0829416666667","6501700","林口區"
"231006","001-UM","2018/08/17 13:39:35","新北市新店區北宜路一段107號","121.53938","24.95533","6500600","新店區"
"231002","002-UM","2018/08/17 13:39:36","新北市新店區溪園路403號","121.523916666667","24.97818","6500600","新店區"
"231028","046-UY","2018/08/17 13:39:32","新北市新店區安和路一段6-1號","121.517146666667","24.9650816666667","6500600","新店區"
"231001","047-UY","2018/08/17 13:39:22","新北市新店區中央路31號","121.533003333333","24.9778933333333","6500600","新店區"
"231005","106-UY","2018/08/17 13:39:29","新北市新店區寶中路72號","121.547936666667","24.9806183333333","6500600","新店區"
"231010","107-UY","2018/08/17 13:39:20","新北市新店區中正路307巷17號","121.535795","24.9736583333333","6500600","新店區"
"231012","187-VK","2018/08/17 13:39:38","新北市新店區德正街23巷17號","121.544736666667","24.9722783333333","6500600","新店區"
"231023","KEA-2219","2018/08/17 13:39:38","新北市新店區新店路170號","121.537175","24.95577","6500600","新店區"
"231026","256-BX","2018/08/17 13:39:22","新北市新店區中正路114號","121.542523333333","24.970905","6500600","新店區"
"231003","268-BY","2018/08/17 13:39:35","新北市新店區中正路2號","121.545861666667","24.9692566666667","6500600","新店區"
"231018","278-BY","2018/08/17 13:39:35","新北市新店區百忍街42巷1號","121.533475","24.9759016666667","6500600","新店區"
"231016","AAD-862","2018/08/17 13:39:27","新北市新店區竹林路2巷27弄11號","121.550971666667","24.95083","6500600","新店區"
"231038","3712-VJ","2018/08/17 13:39:19","新北市新店區安華路28-1號","121.519165","24.9608233333333","6500600","新店區"
"231027","3713-VJ","2018/08/17 13:39:35","新北市新店區北宜路一段105巷4弄9號","121.540415","24.9555433333333","6500600","新店區"
"231037","4716-K9","2018/08/17 13:39:34","新北市新店區薏仁坑路36號","121.493338333333","24.9633866666667","6500600","新店區"
"231025","4715-K9","2018/08/17 13:39:24","新北市新店區中央六街56號","121.527933333333","24.9756816666667","6500600","新店區"
"231036","512-UM","2018/08/17 13:39:41","新北市新店區安祥路142號","121.474351666667","24.9555183333333","6500600","新店區"
"231013","513-UM","2018/08/17 13:39:27","新北市新店區中正路454-5號","121.534431666667","24.9790483333333","6500600","新店區"
"231030","619-UM","2018/08/17 13:39:34","新北市新店區安康路一段238號","121.522035","24.9638133333333","6500600","新店區"
"231034","641-BX","2018/08/17 13:39:31","新北市新店區車子路134號","121.505248333333","24.9497316666667","6500600","新店區"
"231035","719-UM","2018/08/17 13:39:37","新北市新店區安忠路86-1號","121.511925","24.9585566666667","6500600","新店區"
"231032","720-UM","2018/08/17 13:39:23","新北市新店區安忠路205巷8號","121.51034","24.955335","6500600","新店區"
"231029","897-TW","2018/08/17 13:39:34","新北市新店區安康路二段354號","121.502281666667","24.9574633333333","6500600","新店區"
"231004","899-TW","2018/08/17 13:39:38","新北市新店區北新路二段1號","121.542655","24.9712733333333","6500600","新店區"
"231024","AKT-0513","2018/08/17 13:39:38","新北市新店區新生街18巷36號","121.53965","24.9669583333333","6500600","新店區"
"235030","003-UY","2018/08/17 13:39:26","新北市中和區水源路45號","121.504846666667","25.0036066666667","6500300","中和區"
"235028","005-UY","2018/08/17 13:39:24","新北市中和區連城路109巷15號","121.496745","24.9990566666667","6500300","中和區"
"235027","006-UY","2018/08/17 13:39:23","新北市中和區連城路347巷6弄38號","121.48666","24.9954","6500300","中和區"
"235020","096-UM","2018/08/17 13:39:26","新北市中和區員山路466巷21弄54號","121.480993333333","25.007595","6500300","中和區"
"235003","097-UM","2018/08/17 13:39:34","新北市中和區大勇街25巷40號","121.515448333333","24.9940016666667","6500300","中和區"
"235029","098-UM","2018/08/17 13:39:29","新北市中和區中山路二段2巷49號","121.50219","25.007405","6500300","中和區"
"235004","150-BY","2018/08/17 13:39:29","新北市中和區保健路50巷62-1號","121.509363333333","24.9952866666667","6500300","中和區"
"235022","151-BY","2018/08/17 13:39:25","新北市中和區連城路378號","121.480871666667","24.9950083333333","6500300","中和區"
"235019","183-VK","2018/08/17 13:39:32","新北市中和區莒光路120巷58號","121.471565","25.00075","6500300","中和區"
"235002","185-VK","2018/08/17 13:39:20","新北市中和區大勇街88號","121.517845","24.9953533333333","6500300","中和區"
"235013","186-VK","2018/08/17 13:39:32","新北市中和區景平路480號","121.505001666667","24.9938","6500300","中和區"
"235031","255-BX","2018/08/17 13:39:34","新北市中和區新生街186巷5弄27號","121.4829","24.9987066666667","6500300","中和區"
"235008","293-VK","2018/08/17 13:39:34","新北市中和區復興路280巷3弄1號","121.502268333333","24.9908066666667","6500300","中和區"
"235036","301-VK","2018/08/17 13:39:24","新北市中和區連城路171巷41弄1號","121.496076666667","24.9967266666667","6500300","中和區"
"235007","352-BY","2018/08/17 13:39:33","新北市中和區景平路296號","121.513045","24.9926266666667","6500300","中和區"
"235006","KEA-2878","2018/08/17 13:39:21","新北市中和區成功路41巷1號","121.526291666667","24.993165","6500300","中和區"
"247009","KEA-2869","2018/08/17 13:39:22","新北市五股區中興路三段163號","121.449085","25.0801516666667","6501400","蘆洲區"
"235014","4979-A6","2018/08/17 13:39:28","新北市中和區景新街496巷26號","121.513406666667","24.9858833333333","6500300","中和區"
"235033","4980-A6","2018/08/17 13:39:37","新北市中和區景平路597號","121.49708","25.0006283333333","6500300","中和區"
"235034","558-UM","2018/08/17 13:39:27","新北市中和區景平路592號","121.50103","24.99604","6500300","中和區"
"235009","565-BX","2018/08/17 13:39:32","新北市中和區南山路236巷36弄15號","121.50409","24.9878516666667","6500300","中和區"
"235018","640-BX","2018/08/17 13:39:26","新北市中和區莒光路149號","121.472783333333","25.0011866666667","6500300","中和區"
"235024","647-TV","2018/08/17 13:39:27","新北市中和區中山路二段503號","121.482335","25.0049716666667","6500300","中和區"
"235011","732-UM","2018/08/17 13:39:30","新北市中和區南山路320巷10弄14號","121.50696","24.986745","6500300","中和區"
"235010","733-UM","2018/08/17 13:39:38","新北市中和區南山路283巷6號","121.504433333333","24.9923","6500300","中和區"
"235035","783-BX","2018/08/17 13:39:39","新北市中和區光環路二段309號","121.487311666667","25.0141416666667","6500300","中和區"
"235026","800-TS","2018/08/17 13:39:24","新北市中和區景平路730號","121.496563333333","25.0038166666667","6500300","中和區"
"235021","801-TS","2018/08/17 13:39:25","新北市中和區民安街42巷24號","121.47956","25.00085","6500300","中和區"
"235005","802-TS","2018/08/17 13:39:32","新北市中和區中安街76號","121.512316666667","25.0018683333333","6500300","中和區"
"235016","805-TS","2018/08/17 13:39:39","新北市中和區興南路三段43號","121.496071666667","24.9773366666667","6500300","中和區"
"235017","900-TW","2018/08/17 13:39:34","新北市土城區延壽路118-6號","121.469068333333","24.99469","6500300","中和區"
"235015","157-BY","2018/08/17 13:39:30","新北市中和區華新街143巷106弄7號","121.506141666667","24.9789083333333","6500300","中和區"
"235001","AAC-213","2018/08/17 13:39:35","新北市中和區景德街54號","121.517498333333","24.9915166666667","6500300","中和區"
"235023","AAC-215","2018/08/17 13:39:32","新北市中和區中正路637巷52弄1號","121.48547","24.9934866666667","6500300","中和區"
"220028","015-TV","2018/08/17 13:39:26","新北市板橋區大觀路二段265巷76弄28號","121.441363333333","24.9967733333333","6500100","板橋區"
"220013","072-UY","2018/08/17 13:39:30","新北市板橋區民族路247巷5弄42號","121.4702","25.0085","6500100","板橋區"
"220034","073-UY","2018/08/17 13:39:33","新北市板橋區南雅西路二段192巷1弄3號","121.45202","25.01449","6500100","板橋區"
"220017","AAD-861","2018/08/17 13:39:33","新北市板橋區華東街1-9號","121.448148333333","24.99507","6500100","板橋區"
"247007","056-VK","2018/08/17 13:39:29","新北市蘆洲區國道路二段105號","121.470568333333","25.0749066666667","6501400","蘆洲區"
"247019","001-UY","2018/08/17 13:39:28","新北市五股區新城三路61號","121.449196666667","25.0935816666667","6501400","蘆洲區"
"207002","749-BX","2018/08/17 13:39:21","新北市萬里區崁腳里崁腳路166號","121.64507","25.155845","6502800","萬里區"
"207001","681-TV","2018/08/17 13:39:39","新北市萬里區大鵬里萬里加投45-2號","121.641981666667","25.2109233333333","6502800","萬里區"
"236077","166-UM","2018/08/17 13:39:27","新北市土城區城林路6巷80號","121.438815","24.9797116666667","6501300","土城區"
"236032","271-VK","2018/08/17 13:39:40","新北市土城區城林路6巷80號","121.438505","24.9798216666667","6501300","土城區"
"236016","401-BY","2018/08/17 13:39:27","新北市土城區城林路6巷80號","121.438525","24.9798116666667","6501300","土城區"
"236006","498-BY","2018/08/17 13:39:40","新北市土城區慶祥街59巷2號","121.43563","24.97275","6501300","土城區"
"242048","172-VK","2018/08/17 13:39:42","新北市新莊區成德街64號","121.424098333333","25.0225433333333","6500500","新莊區"
"221010","269-BY","2018/08/17 13:39:22","新北市汐止區八連路三段196號","121.615016666667","25.1198533333333","6501100","汐止區"
"221032","280-BY","2018/08/17 13:39:24","新北市汐止區新台五路一段207號","121.656861666667","25.06396","6501100","汐止區"
"220027","145-BY","2018/08/17 13:39:25","新北市板橋區館前西路166-1號","121.452488333333","25.0085866666667","6500100","板橋區"
"220030","610-BX","2018/08/17 13:39:40","新北市板橋區篤行路一段33號","121.43204","24.9942883333333","6500100","板橋區"
"220004","276-BY","2018/08/17 13:39:21","新北市板橋區四川路二段140巷18號","121.449366666667","24.9933516666667","6500100","板橋區"
"220020","277-BY","2018/08/17 13:39:36","新北市板橋區大觀路三段59巷17弄6-1號","121.437221666667","24.99542","6500100","板橋區"
"220011","280-UM","2018/08/17 13:39:29","新北市板橋區民生路二段120號","121.470598333333","25.0199983333333","6500100","板橋區"
"220019","283-VK","2018/08/17 13:39:19","新北市板橋區四川路二段51號","121.453776666667","24.9952733333333","6500100","板橋區"
"220043","285-UM","2018/08/17 13:39:31","新北市板橋區民生路二段161巷1號","121.4701","25.0200816666667","6500100","板橋區"
"220031","286-VK","2018/08/17 13:39:40","新北市板橋區大觀路二段5-5號","121.446876666667","25.0036816666667","6500100","板橋區"
"220029","287-VK","2018/08/17 13:39:26","新北市板橋區大觀路二段28號","121.446698333333","25.003045","6500100","板橋區"
"220009","293-UM","2018/08/17 13:39:23","新北市板橋區民生路二段120號","121.470318333333","25.0197683333333","6500100","板橋區"
"220032","296-UM","2018/08/17 13:39:36","新北市板橋區大觀路二段148巷1號","121.441841666667","24.9996116666667","6500100","板橋區"
"220023","303-R5","2018/08/17 13:39:26","新北市板橋區南雅西路二段95巷18號","121.451755","25.0101","6500100","板橋區"
"220047","317-R6","2018/08/17 13:39:27","新北市板橋區民生路二段120號","121.470585","25.0201333333333","6500100","板橋區"
"220012","486-VK","2018/08/17 13:39:38","新北市板橋區縣民大道二段22號","121.464041666667","25.0133116666667","6500100","板橋區"
"220104","560-BX","2018/08/17 13:39:20","新北市板橋區南雅西路二段145巷10號","121.451701666667","25.0119983333333","6500100","板橋區"
"220052","561-BX","2018/08/17 13:39:38","新北市板橋區民生路二段120號","121.47031","25.0198433333333","6500100","板橋區"
"220005","686-BX","2018/08/17 13:39:28","新北市板橋區華東街1-10號","121.448253333333","24.9949416666667","6500100","板橋區"
"220025","687-BX","2018/08/17 13:39:32","新北市板橋區沙崙街37號","121.430561666667","24.9945066666667","6500100","板橋區"
"220002","741-BX","2018/08/17 13:39:32","新北市板橋區華東街1-9號","121.44812","24.994945","6500100","板橋區"
"220003","827-TW","2018/08/17 13:39:37","新北市板橋區華東街1-10號","121.448335","24.9949483333333","6500100","板橋區"
"220014","829-TW","2018/08/17 13:39:32","新北市板橋區民生路二段161巷1號","121.47018","25.01989","6500100","板橋區"
"220022","895-R6","2018/08/17 13:39:36","新北市板橋區南雅南路一段6號","121.456173333333","25.0067","6500100","板橋區"
"220018","AAC-253","2018/08/17 13:39:42","新北市板橋區華東街1-10號","121.448631666667","24.9950116666667","6500100","板橋區"
"235032","KEA-2873","2018/08/17 13:39:21","新北市中和區中正路211巷36弄8號","121.497095","24.9926916666667","6500300","中和區"
"235025","KEA-2875","2018/08/17 13:39:32","新北市中和區民享街91號","121.474391666667","25.00148","6500300","中和區"
