"lineid","car","time","location","longitude","latitude","cityid","cityname"
"234070","149-BY","2018/08/17 15:09:38","新北市新莊區化成路565號","121.465165","25.0658366666667","6500400","永和區"
"234005","207-UY","2018/08/17 15:09:32","新北市林口區太平里180號","121.368198333333","25.1346533333333","6500400","永和區"
"248019","225-UY","2018/08/17 15:09:34","新北市五股區凌雲路三段24巷20-3號","121.43478","25.1064216666667","6501500","五股區"
"231006","001-UM","2018/08/17 15:09:35","新北市新店區新坡一街2號","121.54793","24.9608033333333","6500600","新店區"
"231002","002-UM","2018/08/17 15:09:36","新北市新店區中正路696號","121.534025","24.9904666666667","6500600","新店區"
"231028","046-UY","2018/08/17 15:09:32","新北市新店區僑信路111號","121.50058","24.9462783333333","6500600","新店區"
"231001","047-UY","2018/08/17 15:09:21","新北市新店區中正路272號","121.538945","24.9736366666667","6500600","新店區"
"231005","106-UY","2018/08/17 15:09:09","新北市新店區北新路三段60號","121.542173333333","24.98028","6500600","新店區"
"231022","108-UY","2018/08/17 15:09:33","新北市新店區新烏路三段1號","121.551635","24.90718","6500600","新店區"
"231012","187-VK","2018/08/17 15:09:38","新北市新店區寶元路一段65號","121.542216666667","24.9858066666667","6500600","新店區"
"231023","KEA-2219","2018/08/17 15:09:38","新北市新店區檳榔路109號","121.544473333333","24.961615","6500600","新店區"
"231026","256-BX","2018/08/17 15:09:42","新北市新店區建安街24號","121.53978","24.97546","6500600","新店區"
"231003","268-BY","2018/08/17 15:09:33","新北市新店區寶橋路156-3號","121.548655","24.9770516666667","6500600","新店區"
"231018","278-BY","2018/08/17 15:09:35","新北市新店區中央七街110號","121.525726666667","24.97762","6500600","新店區"
"231016","AAD-862","2018/08/17 15:09:27","新北市新店區明山路45號","121.563506666667","24.9557966666667","6500600","新店區"
"231038","3712-VJ","2018/08/17 15:09:38","新北市新店區安華路28-1號","121.519733333333","24.9608366666667","6500600","新店區"
"231037","4716-K9","2018/08/17 15:09:34","新北市新店區薏仁坑路自強巷1號","121.497416666667","24.9577033333333","6500600","新店區"
"231025","4715-K9","2018/08/17 15:09:24","新北市新店區民權路107-1號","121.536385","24.98239","6500600","新店區"
"231036","512-UM","2018/08/17 15:09:21","新北市新店區安祥路102巷67號","121.4864","24.9637516666667","6500600","新店區"
"231030","619-UM","2018/08/17 15:09:31","新北市新店區安民街341-1號","121.516843333333","24.9749433333333","6500600","新店區"
"231034","641-BX","2018/08/17 15:09:30","新北市新店區玫瑰路4-1號","121.49366","24.9513916666667","6500600","新店區"
"231039","718-UY","2018/08/17 15:09:31","新北市新店區寶安街29號","121.54199","24.9822283333333","6500600","新店區"
"231035","719-UM","2018/08/17 15:09:37","新北市新店區永安街56巷6-2號","121.51863","24.986165","6500600","新店區"
"231032","720-UM","2018/08/17 15:09:23","新北市新店區安泰路72號","121.485705","24.9464216666667","6500600","新店區"
"231029","897-TW","2018/08/17 15:09:34","新北市新店區安康路三段738號","121.473886666667","24.9420183333333","6500600","新店區"
"231004","899-TW","2018/08/17 15:09:38","新北市新店區建國路4號","121.539885","24.9732516666667","6500600","新店區"
"231024","AKT-0513","2018/08/17 15:09:37","新北市新店區中華路48巷45號","121.541568333333","24.96939","6500600","新店區"
"241011","013-R5","2018/08/17 15:09:22","新北市五股區中興路三段163號","121.449306666667","25.0802633333333","6500200","三重區"
"241028","022-UY","2018/08/17 15:09:33","新北市五股區中興路三段163號","121.44907","25.0808033333333","6500200","三重區"
"235030","003-UY","2018/08/17 15:09:26","新北市中和區水源路127巷2號","121.508095","25.0038116666667","6500300","中和區"
"235020","096-UM","2018/08/17 15:09:26","新北市中和區中山路三段168號","121.47289","25.0063466666667","6500300","中和區"
"235003","097-UM","2018/08/17 15:09:34","新北市中和區安平路166號","121.512751666667","24.9988","6500300","中和區"
"235029","098-UM","2018/08/17 15:09:29","新北市板橋區文化路二段656號","121.480913333333","25.0405333333333","6500300","中和區"
"235004","150-BY","2018/08/17 15:09:29","新北市中和區保健路12號","121.508051666667","24.99804","6500300","中和區"
"235007","352-BY","2018/08/17 15:09:33","新北市中和區興南路二段159巷1號","121.505261666667","24.9832433333333","6500300","中和區"
"235014","4979-A6","2018/08/17 15:09:28","新北市中和區景新街323-3號","121.511411666667","24.9921383333333","6500300","中和區"
"235033","4980-A6","2018/08/17 15:09:37","新北市中和區景新街132巷6-3號","121.504745","24.9981966666667","6500300","中和區"
"235034","558-UM","2018/08/17 15:09:27","新北市中和區中正路294號","121.494476666667","24.9940666666667","6500300","中和區"
"235018","640-BX","2018/08/17 15:09:26","新北市中和區民樂路81號","121.48454","25.00139","6500300","中和區"
"235010","733-UM","2018/08/17 15:09:37","新北市中和區忠孝街128號","121.512078333333","24.986505","6500300","中和區"
"235035","783-BX","2018/08/17 15:09:39","新北市中和區中正路872號","121.484323333333","25.00615","6500300","中和區"
"235012","896-TW","2018/08/17 15:09:26","新北市中和區興南路一段142-6號","121.508505","24.9871466666667","6500300","中和區"
"235015","157-BY","2018/08/17 15:09:30","新北市中和區中正路586號","121.485918333333","24.994845","6500300","中和區"
"235001","AAC-213","2018/08/17 15:09:35","新北市中和區立人街13號","121.52155","24.9941333333333","6500300","中和區"
"235023","AAC-215","2018/08/17 15:09:32","新北市中和區圓通路367巷13弄1號","121.492565","24.98824","6500300","中和區"
"220017","AAD-861","2018/08/17 15:09:33","新北市板橋區華東街1-10號","121.448656666667","24.9950066666667","6500100","板橋區"
"207002","749-BX","2018/08/17 15:09:41","新北市萬里區崁腳里崁腳路23-3號","121.65298","25.161925","6502800","萬里區"
"207001","681-TV","2018/08/17 15:02:19","新北市萬里區雙興里麗水路3-1號","121.65323","25.1801616666667","6502800","萬里區"
"236067","105-UM","2018/08/17 15:09:26","新北市土城區學成路144號","121.44891","24.9896033333333","6501300","土城區"
"236040","107-UM","2018/08/17 15:09:36","新北市土城區金城路二段245巷21號","121.455105","24.98353","6501300","土城區"
"236077","166-UM","2018/08/17 15:09:27","新北市土城區中州路52巷2弄22號","121.41255","24.9580016666667","6501300","土城區"
"236029","253-BX","2018/08/17 15:09:38","新北市土城區福祥街103巷2號","121.441721666667","24.9819633333333","6501300","土城區"
"236024","269-VK","2018/08/17 15:09:28","新北市土城區中央路二段190號","121.44199","24.976075","6501300","土城區"
"236013","270-VK","2018/08/17 15:09:43","新北市土城區學府路一段23巷25弄5號","121.457948333333","24.9867116666667","6501300","土城區"
"236032","271-VK","2018/08/17 15:09:40","新北市土城區國際路113號","121.467785","24.975775","6501300","土城區"
"236016","401-BY","2018/08/17 15:09:27","新北市土城區延峰街21號","121.469026666667","24.986035","6501300","土城區"
"236057","912-UM","2018/08/17 15:09:39","新北市土城區忠義路46號","121.440603333333","24.9695266666667","6501300","土城區"
"236045","913-UM","2018/08/17 15:09:42","新北市土城區清水路272號","121.461828333333","24.98344","6501300","土城區"
"236060","915-UM","2018/08/17 15:09:40","新北市土城區延平街14號","121.46828","24.9909433333333","6501300","土城區"
"236054","AAC-216","2018/08/17 15:09:24","新北市土城區學府路一段276號","121.450076666667","24.98322","6501300","土城區"
"220050","245-BX","2018/08/17 15:08:37","新北市板橋區莊敬路75巷31號","121.473693333333","25.0259716666667","6500100","板橋區"
"220029","287-VK","2018/08/17 15:09:26","新北市板橋區大觀路一段1-1號","121.451196666667","25.0082933333333","6500100","板橋區"
"220009","293-UM","2018/08/17 15:09:23","新北市板橋區中山路一段161號","121.465406666667","25.012135","6500100","板橋區"
"220041","299-UM","2018/08/17 15:09:31","新北市板橋區幸福路60巷73號","121.459883333333","25.0216316666667","6500100","板橋區"
"220047","317-R6","2018/08/17 15:09:27","新北市板橋區新海路72巷71號","121.461436666667","25.023415","6500100","板橋區"
"220012","486-VK","2018/08/17 15:09:37","新北市板橋區海山路45號","121.467046666667","25.01005","6500100","板橋區"
"220037","491-VK","2018/08/17 15:09:39","新北市板橋區懷德街127巷23弄7號","121.47939","25.03189","6500100","板橋區"
"220052","561-BX","2018/08/17 15:09:38","新北市板橋區陽明街279巷32-1號","121.461051666667","25.0257233333333","6500100","板橋區"
"220025","687-BX","2018/08/17 15:09:32","新北市板橋區大觀路一段29巷131弄125號","121.45174","25.0051483333333","6500100","板橋區"
"220042","689-BX","2018/08/17 15:09:32","新北市板橋區長江路二段108號","121.465136666667","25.0315","6500100","板橋區"
"220002","741-BX","2018/08/17 14:59:58","新北市板橋區忠孝路忠義巷15弄57號","121.465336666667","25.0048783333333","6500100","板橋區"
"220051","KEA-2699","2018/08/17 15:09:41","新北市板橋區文聖街73號","121.477306666667","25.0305233333333","6500100","板橋區"
"220003","827-TW","2018/08/17 15:09:37","新北市板橋區南雅南路二段140號","121.451766666667","24.9963266666667","6500100","板橋區"
"220014","829-TW","2018/08/17 15:09:32","新北市板橋區漢生東路83巷8號","121.46732","25.016025","6500100","板橋區"
"220016","830-TW","2018/08/17 15:09:32","新北市板橋區光復街230號","121.484761666667","25.0213466666667","6500100","板橋區"
"220038","833-TW","2018/08/17 15:09:27","新北市板橋區互助街71號","121.460301666667","25.02622","6500100","板橋區"
"220046","AAC-210","2018/08/17 15:09:25","新北市板橋區公館街94-1號","121.461261666667","25.0166466666667","6500100","板橋區"
"220018","AAC-253","2018/08/17 15:09:41","新北市板橋區德興街13號","121.453436666667","24.99441","6500100","板橋區"
"235032","KEA-2873","2018/08/17 15:09:21","新北市中和區連城路215號","121.494371666667","24.9978216666667","6500300","中和區"
