"lineid","car","time","location","longitude","latitude","cityid","cityname"
"249005","172-UM","2018/08/17 17:19:21","新北市八里區荖阡里40-1號","121.410143333333","25.1256716666667","6502300","八里區"
"249001","173-UM","2018/08/17 17:19:41","新北市八里區中華路二段165巷3號","121.407665","25.1508633333333","6502300","八里區"
"249004","303-UY","2018/08/17 17:19:39","新北市八里區賢三街96號","121.417318333333","25.1578633333333","6502300","八里區"
"249002","305-UY","2018/08/17 17:19:35","新北市八里區龍米路二段117巷30弄2號","121.444636666667","25.1426583333333","6502300","八里區"
"249003","593-UM","2018/08/17 17:19:40","新北市八里區中山路二段349號","121.399246666667","25.147195","6502300","八里區"
"244007","080-UY","2018/08/17 17:19:30","新北市林口區中湖48-11號","121.380336666667","25.0929883333333","6501700","林口區"
"244019","403-UM","2018/08/17 17:19:43","新北市林口區公園路233-4號","121.375968333333","25.0756833333333","6501700","林口區"
"244017","485-VK","2018/08/17 17:19:40","新北市林口區粉寮69號","121.405045","25.0908166666667","6501700","林口區"
"244009","656-BX","2018/08/17 17:19:43","新北市林口區文化北路二段550巷19弄12號","121.378736666667","25.0924133333333","6501700","林口區"
"244011","657-BX","2018/08/17 17:19:27","新北市林口區粉寮1號","121.397351666667","25.0798216666667","6501700","林口區"
"244025","837-TS","2018/08/17 17:19:25","新北市林口區中山路506號","121.379156666667","25.0827533333333","6501700","林口區"
"244021","838-TS","2018/08/17 17:19:36","新北市林口區粉寮路67-16號","121.404118333333","25.0914666666667","6501700","林口區"
"231046","107-UY","2018/08/17 17:19:36","新北市新店區直潭路92號","121.530896666667","24.9375933333333","6500600","新店區"
"241011","013-R5","2018/08/17 17:19:42","新北市三重區長壽街120巷113號","121.501801666667","25.0714366666667","6500200","三重區"
"241028","022-UY","2018/08/17 17:19:33","新北市三重區中正南路81號","121.494275","25.0585133333333","6500200","三重區"
"241008","059-VK","2018/08/17 17:19:39","新北市三重區永福街72巷37-3號","121.480431666667","25.07632","6500200","三重區"
"241022","060-VK","2018/08/17 17:19:28","新北市三重區中正北路64巷24號","121.486093333333","25.06374","6500200","三重區"
"241015","062-VK","2018/08/17 17:19:44","新北市三重區長元街82-1號","121.501856666667","25.0663066666667","6500200","三重區"
"241017","063-VK","2018/08/17 17:19:35","新北市三重區大同北路52號","121.495023333333","25.063065","6500200","三重區"
"241024","065-VK","2018/08/17 17:19:34","新北市三重區中正北路193巷11弄32號","121.478185","25.07047","6500200","三重區"
"241026","066-VK","2018/08/17 17:19:29","新北市三重區福裕街51號","121.49874","25.0615316666667","6500200","三重區"
"241002","090-VK","2018/08/17 17:19:39","新北市三重區自強路五段66-1號","121.49595","25.0826366666667","6500200","三重區"
"241003","091-VK","2018/08/17 17:19:29","新北市三重區富福街33號","121.490838333333","25.0836366666667","6500200","三重區"
"241005","262-UM","2018/08/17 17:19:46","新北市三重區永安北路二段25巷60號","121.483446666667","25.0820416666667","6500200","三重區"
"241016","266-UM","2018/08/17 17:19:41","新北市三重區大同北路54巷2號","121.494083333333","25.0635966666667","6500200","三重區"
"241009","267-UM","2018/08/17 17:19:23","新北市三重區仁美街115號","121.48561","25.0810616666667","6500200","三重區"
"241018","268-UM","2018/08/17 17:19:35","新北市三重區自強路一段248號","121.492746666667","25.0674666666667","6500200","三重區"
"241032","269-UM","2018/08/17 17:19:40","新北市三重區中華路2巷31弄10號","121.48224","25.0608033333333","6500200","三重區"
"241013","270-UM","2018/08/17 17:19:23","新北市三重區仁愛街80號","121.495618333333","25.0736266666667","6500200","三重區"
"241025","271-UM","2018/08/17 17:19:38","新北市三重區中正北路406號","121.475353333333","25.0706366666667","6500200","三重區"
"241007","398-BY","2018/08/17 17:19:28","新北市三重區慈愛街9號","121.485086666667","25.078585","6500200","三重區"
"241004","475-VK","2018/08/17 17:19:38","新北市三重區仁愛街425巷86號","121.492073333333","25.0828033333333","6500200","三重區"
"241020","478-VK","2018/08/17 17:19:30","新北市三重區忠孝路一段171號","121.48757","25.0719933333333","6500200","三重區"
"241030","480-VK","2018/08/17 17:19:37","新北市三重區集美街115號","121.489845","25.0527916666667","6500200","三重區"
"241014","543-UM","2018/08/17 17:19:32","新北市三重區三和路二段77號","121.500121666667","25.0682983333333","6500200","三重區"
"241023","545-UM","2018/08/17 17:19:34","新北市三重區三民街174號","121.482051666667","25.065615","6500200","三重區"
"241001","547-UM","2018/08/17 17:19:34","新北市三重區五華街141巷58號","121.493418333333","25.0865816666667","6500200","三重區"
"241019","KEA-2593","2018/08/17 17:19:34","新北市三重區忠孝路二段6號","121.486486666667","25.0712416666667","6500200","三重區"
"241012","941-UM","2018/08/17 17:19:30","新北市三重區仁昌街107號","121.500116666667","25.0751666666667","6500200","三重區"
"241033","AAC-255","2018/08/17 17:19:34","新北市三重區中興北街190號","121.46885","25.058475","6500200","三重區"
"247010","KEA-2869","2018/08/17 17:19:33","新北市蘆洲區中山一路120巷7弄33號","121.476905","25.08254","6501400","蘆洲區"
"247024","893-R6","2018/08/17 17:19:27","新北市蘆洲區光榮路2號","121.460358333333","25.086135","6501400","蘆洲區"
"247022","500-BY","2018/08/17 17:19:28","新北市蘆洲區三民路128巷29-3號","121.470178333333","25.0892016666667","6501400","蘆洲區"
"247012","339-TH","2018/08/17 17:19:37","新北市蘆洲區信義路319巷10弄5號","121.477448333333","25.086415","6501400","蘆洲區"
"247004","337-TH","2018/08/17 17:19:40","新北市蘆洲區長安街225號","121.459501666667","25.0824966666667","6501400","蘆洲區"
"247006","336-TH","2018/08/17 17:19:34","新北市蘆洲區永安南路二段156號","121.461636666667","25.078855","6501400","蘆洲區"
"247018","057-VK","2018/08/17 17:19:35","新北市蘆洲區民權路70號","121.474976666667","25.0873033333333","6501400","蘆洲區"
"247008","056-VK","2018/08/17 17:19:35","新北市三重區永福街135巷32弄21號","121.476753333333","25.07671","6501400","蘆洲區"
"247014","053-VK","2018/08/17 17:19:30","新北市蘆洲區中正路94號","121.470281666667","25.08404","6501400","蘆洲區"
"247016","007-UY","2018/08/17 17:19:30","新北市蘆洲區光華路121號","121.46678","25.0824483333333","6501400","蘆洲區"
"247002","002-UY","2018/08/17 17:19:41","新北市蘆洲區永樂街38巷33弄46號","121.456858333333","25.0897733333333","6501400","蘆洲區"
"247020","001-UY","2018/08/17 17:19:35","新北市蘆洲區仁愛街35巷11號","121.471786666667","25.092585","6501400","蘆洲區"
"228001","212-TW","2018/08/17 17:19:39","新北市貢寮區仁理村尖山腳街18-3號","121.925513333333","25.0483016666667","6502600","貢寮區"
"228002","663-BX","2018/08/17 17:19:48","新北市貢寮區雙玉里田寮洋街43號","121.925938333333","25.0126783333333","6502600","貢寮區"
"228003","828-UM","2018/08/17 17:19:35","新北市貢寮區福隆里興隆街38號","121.939541666667","25.01839","6502600","貢寮區"
"224006","676-BX","2018/08/17 17:19:41","新北市瑞芳區傑魚坑路263-1號","121.787173333333","25.105985","6501200","瑞芳區"
"224008","285-BY","2018/08/17 17:19:41","新北市瑞芳區侯硐路172號","121.828681666667","25.0860116666667","6501200","瑞芳區"
"224009","273-VK","2018/08/17 17:19:43","新北市瑞芳區汽車路9-12號","121.845895","25.1109766666667","6501200","瑞芳區"
"224005","271-BY","2018/08/17 17:19:16","新北市瑞芳區南雅路91號","121.885533333333","25.1224383333333","6501200","瑞芳區"
"227003","642-TC","2018/08/17 17:19:31","新北市雙溪區上林里內平林90號","121.827578333333","25.0275","6502500","雙溪區"
"227011","400-TW","2018/08/17 17:19:35","新北市雙溪區三貂里政光路3號","121.851356666667","25.063215","6502500","雙溪區"
"251005","180-VK","2018/08/17 17:19:35","新北市淡水區鄧公路19號","121.451393333333","25.17004","6501000","淡水區"
"251008","181-VK","2018/08/17 17:19:41","新北市淡水區大同路293號","121.467751666667","25.142425","6501000","淡水區"
"251010","413-VK","2018/08/17 17:19:40","新北市淡水區新民街一段117號","121.428115","25.1878383333333","6501000","淡水區"
"251012","441-VK","2018/08/17 17:19:44","新北市淡水區中山北路一段158號","121.44433","25.1777916666667","6501000","淡水區"
"251004","443-VK","2018/08/17 17:19:42","新北市淡水區中正東路二段88巷15號","121.459045","25.15049","6501000","淡水區"
"251001","559-UM","2018/08/17 17:19:36","新北市淡水區民權路92巷35-1號","121.462146666667","25.1266416666667","6501000","淡水區"
"251006","561-UM","2018/08/17 17:19:40","新北市淡水區中山路189號","121.44128","25.1745133333333","6501000","淡水區"
"251009","575-R6","2018/08/17 17:19:43","新北市淡水區三民街20號","121.439006666667","25.171765","6501000","淡水區"
"251007","577-R6","2018/08/17 17:19:36","新北市淡水區民生路60號","121.462188333333","25.1378366666667","6501000","淡水區"
"251011","650-BX","2018/08/17 17:19:32","新北市淡水區坪頂路128號","121.465076666667","25.161105","6501000","淡水區"
"251002","672-BX","2018/08/17 17:19:30","新北市淡水區中正路二段31號","121.419338333333","25.181635","6501000","淡水區"
"251003","673-BX","2018/08/17 17:19:33","新北市淡水區中正路一段37號","121.425431666667","25.1768383333333","6501000","淡水區"
"207003","550-UM","2018/08/17 17:19:33","新北市萬里區萬里里瑪鋉路126號","121.690506666667","25.1792033333333","6502800","萬里區"
"252002","178-VK","2018/08/17 17:19:26","新北市三芝區忠孝街1-14號","121.505413333333","25.2539283333333","6502100","三芝區"
"252001","292-VK","2018/08/17 17:19:38","新北市三芝區長安街119號","121.49805","25.259665","6502100","三芝區"
"242058","986-R7","2018/08/17 17:19:24","新北市新莊區中正路400號","121.441631666667","25.0339233333333","6500500","新莊區"
"242027","615-BX","2018/08/17 17:19:44","新北市新莊區中港一街161號","121.447186666667","25.0449716666667","6500500","新莊區"
"242025","613-BX","2018/08/17 17:19:29","新北市新莊區中平路82巷36-2號","121.446425","25.0448583333333","6500500","新莊區"
"242041","566-BX","2018/08/17 17:19:26","新北市新莊區中正路400號","121.441596666667","25.0338683333333","6500500","新莊區"
"242046","497-BY","2018/08/17 17:19:27","新北市新莊區新樹路67巷2-11號","121.439665","25.0300616666667","6500500","新莊區"
"242054","442-UM","2018/08/17 17:19:42","新北市新莊區環河路636-7號","121.437","25.0118666666667","6500500","新莊區"
"242050","441-UM","2018/08/17 17:19:44","新北市新莊區瓊林南路42巷1-1號","121.43594","25.0178616666667","6500500","新莊區"
"242056","440-UM","2018/08/17 17:19:40","新北市新莊區新莊路771巷10號","121.44208","25.031815","6500500","新莊區"
"242037","415-TV","2018/08/17 17:19:42","新北市新莊區新樹路223號","121.435385","25.0231666666667","6500500","新莊區"
"242007","413-TV","2018/08/17 17:19:36","新北市新莊區新泰路502巷6號","121.442745","25.0464016666667","6500500","新莊區"
"242044","400-BY","2018/08/17 17:19:30","新北市新莊區中正路562號","121.428496666667","25.0308133333333","6500500","新莊區"
"242023","362-BY","2018/08/17 17:19:36","新北市新莊區中華路一段130號","121.45259","25.0410266666667","6500500","新莊區"
"242060","353-BY","2018/08/17 17:19:36","新北市新莊區莊崑路31號","121.432306666667","24.9997266666667","6500500","新莊區"
"242009","132-UY","2018/08/17 17:19:28","新北市新莊區中和街61號","121.447486666667","25.046885","6500500","新莊區"
"242039","133-UY","2018/08/17 17:19:41","新北市新莊區中正路400號","121.441736666667","25.033875","6500500","新莊區"
"242048","172-VK","2018/08/17 17:19:31","新北市新莊區裕民街103巷30號","121.419403333333","25.0224083333333","6500500","新莊區"
"242017","175-VK","2018/08/17 17:19:32","新北市新莊區中平路82巷29號","121.44607","25.04502","6500500","新莊區"
"242005","176-VK","2018/08/17 17:19:27","新北市新莊區復興路一段211號","121.452416666667","25.0436233333333","6500500","新莊區"
"242021","347-TH","2018/08/17 17:19:43","新北市新莊區新泰路357巷3弄45號","121.44198","25.0402083333333","6500500","新莊區"
"242002","349-TH","2018/08/17 17:19:39","新北市新莊區新泰路214號","121.446743333333","25.038795","6500500","新莊區"
"242019","350-TH","2018/08/17 17:19:25","新北市新莊區中港路316號","121.452356666667","25.0454766666667","6500500","新莊區"
"238015","755-BX","2018/08/17 17:19:39","新北市樹林區大安路269號","121.418968333333","24.993695","6500700","樹林區"
"238019","599-UM","2018/08/17 17:19:40","新北市樹林區國凱街82號","121.42132","24.979325","6500700","樹林區"
"238018","571-TV","2018/08/17 17:19:36","新北市樹林區樹中街63-1號","121.421368333333","24.985135","6500700","樹林區"
"238024","5061-A6","2018/08/17 17:19:30","新北市樹林區保安街一段48巷27號","121.426535","24.99527","6500700","樹林區"
"238022","KEA-2213","2018/08/17 17:19:32","新北市樹林區仁愛街50號","121.423801666667","24.9828233333333","6500700","樹林區"
"238021","KEA-2539","2018/08/17 17:19:37","新北市樹林區西圳街一段111號","121.399276666667","24.9645516666667","6500700","樹林區"
"238025","303-VK","2018/08/17 17:19:42","新北市樹林區中山路一段237號","121.42069","24.9867816666667","6500700","樹林區"
"238017","283-BY","2018/08/17 17:19:30","新北市樹林區光武街7-3號","121.415746666667","25.0053666666667","6500700","樹林區"
"238020","268-VK","2018/08/17 17:19:24","新北市樹林區千歲街101號","121.428518333333","25.0008766666667","6500700","樹林區"
"238026","172-UY","2018/08/17 17:19:45","新北市樹林區味王街14號","121.403068333333","24.97602","6500700","樹林區"
"238016","169-UY","2018/08/17 17:19:43","新北市樹林區中山路一段296號","121.420353333333","24.9865016666667","6500700","樹林區"
"239007","AAC-297","2018/08/17 17:19:34","新北市鶯歌區光復街10-2號","121.35173","24.9551783333333","6500800","鶯歌區"
"239006","891-R6","2018/08/17 17:19:33","新北市鶯歌區德昌街13號","121.33349","24.9601616666667","6500800","鶯歌區"
"239008","527-UM","2018/08/17 17:19:45","新北市鶯歌區西湖街曾厝巷5號","121.33909","24.960675","6500800","鶯歌區"
"239005","526-UM","2018/08/17 17:19:38","新北市鶯歌區福德三街17號","121.329606666667","24.9673883333333","6500800","鶯歌區"
"239001","417-VK","2018/08/17 17:19:36","新北市鶯歌區黃厝街9號","121.3432","24.9457366666667","6500800","鶯歌區"
"239003","360-BY","2018/08/17 17:19:40","新北市鶯歌區德昌二街33號","121.333355","24.9586266666667","6500800","鶯歌區"
"239002","359-BY","2018/08/17 17:19:42","新北市鶯歌區建國路222號","121.34872","24.953495","6500800","鶯歌區"
"239004","193-VK","2018/08/17 17:19:33","新北市鶯歌區文化路256巷15弄14號","121.35203","24.9472516666667","6500800","鶯歌區"
"242013","280-VK","2018/08/17 17:19:24","新北市新莊區中環路二段392-1號","121.442446666667","25.0455083333333","6500500","新莊區"
"235061","KEA-2875","2018/08/17 17:07:44","新北市中和區和城路一段271巷1號","121.485415","24.9916833333333","6500300","中和區"
