"lineid","car","time","location","longitude","latitude","cityid","cityname"
"234026","9371-KE","2018/08/17 17:49:33","新北市永和區和平街107號","121.51093","25.0098533333333","6500400","永和區"
"249005","172-UM","2018/08/17 17:49:41","新北市八里區荖阡坑路34-1號","121.402491666667","25.1299983333333","6502300","八里區"
"249001","173-UM","2018/08/17 17:49:41","新北市八里區龍米路二段131號","121.445878333333","25.1468283333333","6502300","八里區"
"249004","303-UY","2018/08/17 17:49:39","新北市八里區中山路一段58號","121.421796666667","25.159025","6502300","八里區"
"249002","305-UY","2018/08/17 17:49:35","新北市八里區頂寮二街138號","121.449178333333","25.12936","6502300","八里區"
"249003","593-UM","2018/08/17 17:49:40","新北市八里區中山路二段125號","121.405473333333","25.151845","6502300","八里區"
"248018","225-UY","2018/08/17 17:49:25","新北市五股區中興路二段83巷26-6號","121.45999","25.0752733333333","6501500","五股區"
"248004","677-BX","2018/08/17 17:49:34","新北市五股區中興路二段83巷26-6號","121.460098333333","25.0752066666667","6501500","五股區"
"232011","076-UY","2018/08/17 17:49:29","新北市坪林區北宜路八段66號","121.705036666667","24.9353416666667","6502000","坪林區"
"244007","080-UY","2018/08/17 17:49:30","新北市林口區佳林路3號","121.387225","25.0823666666667","6501700","林口區"
"244019","403-UM","2018/08/17 17:49:43","新北市林口區忠孝路552巷17-1號","121.374133333333","25.0672033333333","6501700","林口區"
"244013","KEA-2802","2018/08/17 17:49:29","新北市林口區中正路436號","121.383973333333","25.0777983333333","6501700","林口區"
"244017","485-VK","2018/08/17 17:49:40","新北市林口區文化二路一段260巷7-1號","121.371523333333","25.07323","6501700","林口區"
"244009","656-BX","2018/08/17 17:49:43","新北市林口區寶林路37號","121.385731666667","25.0840933333333","6501700","林口區"
"244011","657-BX","2018/08/17 17:49:27","新北市林口區中正路338號","121.386843333333","25.07776","6501700","林口區"
"244025","837-TS","2018/08/17 17:49:44","新北市林口區忠孝三路42號","121.360201666667","25.06995","6501700","林口區"
"244021","838-TS","2018/08/17 17:49:36","新北市林口區仁愛路一段2-1號","121.39795","25.067185","6501700","林口區"
"222003","016-RS","2018/08/17 17:49:44","新北市深坑區阿柔洋60-1號","121.608603333333","24.9985233333333","6501800","深坑區"
"222002","659-BX","2018/08/17 17:49:37","新北市深坑區平埔街22巷17弄1號","121.614961666667","25.0008183333333","6501800","深坑區"
"231046","107-UY","2018/08/17 17:49:36","新北市新店區康雅崙路24號","121.535473333333","24.9268116666667","6500600","新店區"
"241008","059-VK","2018/08/17 17:49:34","新北市三重區永福街193號","121.479255","25.074915","6500200","三重區"
"241024","065-VK","2018/08/17 17:49:34","新北市三重區車路頭街62巷67號","121.48223","25.0722766666667","6500200","三重區"
"241005","262-UM","2018/08/17 17:49:46","新北市三重區碧華街392號","121.491533333333","25.0847066666667","6500200","三重區"
"241016","266-UM","2018/08/17 17:49:41","新北市三重區新北大道一段7號","121.489738333333","25.061105","6500200","三重區"
"241033","AAC-255","2018/08/17 17:49:34","新北市三重區光復路一段53號","121.472213333333","25.04895","6500200","三重區"
"235063","006-UY","2018/08/17 17:49:31","新北市中和區員山路36巷16-3號","121.484931666667","24.9912416666667","6500300","中和區"
"235065","098-UM","2018/08/17 17:49:42","新北市中和區中正路637巷52弄1號","121.485426666667","24.99357","6500300","中和區"
"235058","151-BY","2018/08/17 17:49:33","新北市中和區員山路36巷16-2號","121.48513","24.991755","6500300","中和區"
"247010","KEA-2869","2018/08/17 17:49:33","新北市蘆洲區信義路208號","121.479003333333","25.0848816666667","6501400","蘆洲區"
"247024","893-R6","2018/08/17 17:49:27","新北市蘆洲區光榮路65號","121.461211666667","25.0887216666667","6501400","蘆洲區"
"247022","500-BY","2018/08/17 17:49:28","新北市蘆洲區中正路367號","121.464946666667","25.09037","6501400","蘆洲區"
"247012","339-TH","2018/08/17 17:49:37","新北市蘆洲區復興路159號","121.47821","25.0890033333333","6501400","蘆洲區"
"247006","336-TH","2018/08/17 17:49:34","新北市蘆洲區九芎街88號","121.465888333333","25.0798733333333","6501400","蘆洲區"
"247018","057-VK","2018/08/17 17:49:35","新北市蘆洲區復興路227巷2弄9號","121.480426666667","25.09028","6501400","蘆洲區"
"247008","056-VK","2018/08/17 17:49:34","新北市蘆洲區中山一路196號","121.4738","25.0808566666667","6501400","蘆洲區"
"247014","053-VK","2018/08/17 17:49:45","新北市蘆洲區保和街67號","121.469461666667","25.0859016666667","6501400","蘆洲區"
"247016","007-UY","2018/08/17 17:49:38","新北市蘆洲區中正路185巷23弄2號","121.466896666667","25.0846133333333","6501400","蘆洲區"
"247002","002-UY","2018/08/17 17:49:41","新北市蘆洲區環堤大道224號","121.458181666667","25.0926283333333","6501400","蘆洲區"
"247020","001-UY","2018/08/17 17:49:39","新北市蘆洲區民義街71巷13號","121.472833333333","25.0904383333333","6501400","蘆洲區"
"228001","212-TW","2018/08/17 17:49:39","新北市貢寮區仁理村仁愛路95-1號","121.927653333333","25.0554166666667","6502600","貢寮區"
"228002","663-BX","2018/08/17 17:49:28","新北市貢寮區福隆里龜壽谷街26號","121.953418333333","25.007395","6502600","貢寮區"
"228003","828-UM","2018/08/17 17:49:35","新北市貢寮區真理里美艷山街6-2號","121.928848333333","25.0607433333333","6502600","貢寮區"
"224010","AGQ-8101","2018/08/17 17:49:39","新北市瑞芳區明燈路一段6號","121.823203333333","25.10736","6501200","瑞芳區"
"224006","676-BX","2018/08/17 17:49:44","新北市瑞芳區瑞興新村12巷1號","121.78843","25.1083283333333","6501200","瑞芳區"
"224008","285-BY","2018/08/17 17:49:41","新北市瑞芳區明燈路一段50號","121.820175","25.1070016666667","6501200","瑞芳區"
"224009","273-VK","2018/08/17 17:49:43","新北市瑞芳區山尖路197號","121.850878333333","25.1126783333333","6501200","瑞芳區"
"224005","271-BY","2018/08/17 17:49:36","新北市瑞芳區瑞濱路55-3號","121.825323333333","25.121055","6501200","瑞芳區"
"227003","642-TC","2018/08/17 17:49:31","新北市雙溪區共和里東榮街52號","121.866305","25.033645","6502500","雙溪區"
"253006","295-VK","2018/08/17 17:49:30","新北市石門區中央路6號","121.566493333333","25.2914666666667","6502200","石門區"
"222001","KEA-2212","2018/08/17 17:49:30","新北市深坑區北深路三段25巷15-2號","121.608883333333","24.999985","6501800","深坑區"
"208003","665-BX","2018/08/17 17:49:34","新北市金山區磺清路135號","121.639236666667","25.2276833333333","6502700","金山區"
"208001","761-BX","2018/08/17 17:49:26","新北市金山區磺清路135號","121.63927","25.2277016666667","6502700","金山區"
"251005","180-VK","2018/08/17 17:49:39","新北市淡水區學府路102巷2號","121.450431666667","25.1719783333333","6501000","淡水區"
"251008","181-VK","2018/08/17 17:49:41","新北市淡水區八勢路一段112號","121.46685","25.1562433333333","6501000","淡水區"
"251010","413-VK","2018/08/17 17:49:40","新北市淡水區淡海路280巷33弄34-2號","121.418718333333","25.1886166666667","6501000","淡水區"
"251012","441-VK","2018/08/17 17:49:44","新北市淡水區北新路二段13號","121.47602","25.1856216666667","6501000","淡水區"
"251004","443-VK","2018/08/17 17:49:42","新北市淡水區民權路6號","121.459335","25.1396933333333","6501000","淡水區"
"251001","559-UM","2018/08/17 17:49:36","新北市淡水區民權路94巷1號","121.463225","25.1248033333333","6501000","淡水區"
"251006","561-UM","2018/08/17 17:49:40","新北市淡水區中山北路一段45巷18號","121.441","25.17595","6501000","淡水區"
"251009","575-R6","2018/08/17 17:49:43","新北市淡水區長興街43-1號","121.44409","25.1715183333333","6501000","淡水區"
"251007","577-R6","2018/08/17 17:49:36","新北市淡水區民生路16巷1-1號","121.461023333333","25.137475","6501000","淡水區"
"251011","650-BX","2018/08/17 17:48:12","新北市淡水區吳(仔)厝31號","121.479591666667","25.1495666666667","6501000","淡水區"
"251002","672-BX","2018/08/17 17:49:30","新北市淡水區中山路29號","121.444041666667","25.1701966666667","6501000","淡水區"
"251003","673-BX","2018/08/17 17:49:33","新北市淡水區大忠街5巷1號","121.443051666667","25.1763833333333","6501000","淡水區"
"207003","550-UM","2018/08/17 17:49:31","新北市萬里區野柳里東澳路66號","121.692771666667","25.20097","6502800","萬里區"
"207004","225-TW","2018/08/17 17:49:41","新北市萬里區萬里里瑪鋉頂街100-1號","121.687761666667","25.1805083333333","6502800","萬里區"
"252002","178-VK","2018/08/17 17:49:46","新北市三芝區中山路一段88巷15號","121.502948333333","25.2567033333333","6502100","三芝區"
"252001","292-VK","2018/08/17 17:49:38","新北市三芝區中興街一段30號","121.497688333333","25.25782","6502100","三芝區"
"237004","KEA-2597","2018/08/17 17:49:44","新北市三峽區中山路138-1號","121.365203333333","24.93614","6500900","三峽區"
"237009","210-TH","2018/08/17 17:49:27","新北市三峽區大勇路3巷30號","121.367656666667","24.93683","6500900","三峽區"
"237013","252-BX","2018/08/17 17:49:31","新北市三峽區愛國路33-9號","121.374668333333","24.9328583333333","6500900","三峽區"
"237012","275-BY","2018/08/17 17:49:44","新北市三峽區文化路68號","121.372256666667","24.9361166666667","6500900","三峽區"
"237014","433-BY","2018/08/17 17:49:29","新北市三峽區文化路120巷3號","121.370993333333","24.9364533333333","6500900","三峽區"
"237006","5529-G3","2018/08/17 17:49:27","新北市三峽區介壽路一段552巷11號","121.387735","24.9325816666667","6500900","三峽區"
"237011","KEA-2596","2018/08/17 17:44:26","新北市三峽區中山路108號","121.365935","24.9356266666667","6500900","三峽區"
"237015","649-BX","2018/08/17 17:47:05","新北市三峽區白雞126號","121.399686666667","24.90518","6500900","三峽區"
"237010","706-TV","2018/08/17 17:49:46","新北市三峽區文化路201號","121.36647","24.9356833333333","6500900","三峽區"
"237005","AKY-6261","2018/08/17 17:49:26","新北市三峽區中山路459巷82號","121.354276666667","24.93654","6500900","三峽區"
"236069","105-UM","2018/08/17 17:49:34","新北市土城區城林路6巷80號","121.438468333333","24.979765","6501300","土城區"
"236079","166-UM","2018/08/17 17:49:32","新北市土城區中央路三段42號","121.437543333333","24.9682533333333","6501300","土城區"
"236030","253-BX","2018/08/17 17:49:28","新北市土城區城林路6巷80號","121.438646666667","24.9796933333333","6501300","土城區"
"236039","271-VK","2018/08/17 17:49:43","新北市土城區城林路6巷80號","121.43854","24.9796416666667","6501300","土城區"
"236059","912-UM","2018/08/17 17:49:29","新北市土城區中華路二段134號","121.437566666667","24.9731366666667","6501300","土城區"
"236048","913-UM","2018/08/17 17:49:44","新北市土城區城林路6巷80號","121.438621666667","24.979655","6501300","土城區"
"236063","915-UM","2018/08/17 17:49:29","新北市土城區城林路6巷80號","121.438675","24.9797","6501300","土城區"
"236055","AAC-216","2018/08/17 17:49:38","新北市土城區城林路6巷80號","121.43841","24.9795716666667","6501300","土城區"
"242034","AAC-296","2018/08/17 17:49:26","新北市新莊區新莊路761號","121.442503333333","25.0326866666667","6500500","新莊區"
"242058","986-R7","2018/08/17 17:49:44","新北市新莊區中正路730-7號","121.414705","25.0235633333333","6500500","新莊區"
"242027","615-BX","2018/08/17 17:49:44","新北市新莊區福壽街167號","121.457998333333","25.0537083333333","6500500","新莊區"
"242025","613-BX","2018/08/17 17:49:29","新北市新莊區新北大道二段183號","121.463908333333","25.0608383333333","6500500","新莊區"
"242041","566-BX","2018/08/17 17:49:26","新北市泰山區新北大道六段462號","121.422005","25.0329666666667","6500500","新莊區"
"242046","497-BY","2018/08/17 17:49:36","新北市新莊區福營路141號","121.43257","25.031735","6500500","新莊區"
"242054","442-UM","2018/08/17 17:49:42","新北市新莊區民安西路492號","121.432673333333","25.0072916666667","6500500","新莊區"
"242050","441-UM","2018/08/17 17:49:24","新北市新莊區西盛街311巷21號","121.428741666667","25.0152066666667","6500500","新莊區"
"242056","440-UM","2018/08/17 17:49:40","新北市新莊區豐年街116號","121.446418333333","25.03037","6500500","新莊區"
"242037","415-TV","2018/08/17 17:49:45","新北市新莊區後港一路84號","121.4273","25.0266183333333","6500500","新莊區"
"242007","413-TV","2018/08/17 17:49:36","新北市新莊區福樂街132巷2號","121.45674","25.0482166666667","6500500","新莊區"
"242044","400-BY","2018/08/17 17:49:30","新北市新莊區中正路855巷9號","121.420005","25.0271933333333","6500500","新莊區"
"242023","362-BY","2018/08/17 17:49:36","新北市新莊區福樂街35號","121.45758","25.0469983333333","6500500","新莊區"
"242060","353-BY","2018/08/17 17:49:36","新北市新莊區新樹路601號","121.433256666667","25.0058166666667","6500500","新莊區"
"242009","132-UY","2018/08/17 17:49:40","新北市新莊區昌明街42號","121.456316666667","25.0523933333333","6500500","新莊區"
"242039","133-UY","2018/08/17 17:49:41","新北市新莊區民安西路5號","121.426851666667","25.021945","6500500","新莊區"
"242032","135-UY","2018/08/17 17:49:46","新北市新莊區新泰路357巷1弄47號","121.442648333333","25.0398766666667","6500500","新莊區"
"242048","172-VK","2018/08/17 17:49:34","新北市新莊區萬安街60巷11號","121.420586666667","25.0233283333333","6500500","新莊區"
"242011","173-VK","2018/08/17 17:29:55","新北市新莊區中港路467號","121.452315","25.0490116666667","6500500","新莊區"
"242017","175-VK","2018/08/17 17:49:31","新北市新莊區中港路341號","121.45218","25.0453716666667","6500500","新莊區"
"242005","176-VK","2018/08/17 17:49:27","新北市新莊區福樂街54號","121.457866666667","25.04602","6500500","新莊區"
"242015","346-TH","2018/08/17 17:49:46","新北市新莊區新泰路478號","121.442818333333","25.045505","6500500","新莊區"
"242021","347-TH","2018/08/17 17:49:43","新北市新莊區中港路134號","121.455301666667","25.0407233333333","6500500","新莊區"
"242002","349-TH","2018/08/17 17:49:39","新北市新莊區景德路174號","121.45022","25.0341816666667","6500500","新莊區"
"242019","350-TH","2018/08/17 17:49:45","新北市新莊區長青街2號","121.457921666667","25.04243","6500500","新莊區"
"238015","755-BX","2018/08/17 17:49:39","新北市樹林區長壽街19巷2號","121.42184","24.994115","6500700","樹林區"
"238023","601-UM","2018/08/17 17:49:44","新北市樹林區龍興街30號","121.402758333333","25.01584","6500700","樹林區"
"238019","599-UM","2018/08/17 17:49:40","新北市樹林區太平路146號","121.418526666667","24.978225","6500700","樹林區"
"238018","571-TV","2018/08/17 17:49:36","新北市樹林區博愛街153號","121.425541666667","24.9902883333333","6500700","樹林區"
"238022","KEA-2213","2018/08/17 17:49:32","新北市樹林區太順街62巷3弄33號","121.416546666667","24.9791866666667","6500700","樹林區"
"238021","KEA-2539","2018/08/17 17:49:36","新北市樹林區柑園街一段21巷1號","121.404806666667","24.9606366666667","6500700","樹林區"
"238025","303-VK","2018/08/17 17:49:42","新北市樹林區三俊街71-2號","121.41508","25.0155133333333","6500700","樹林區"
"238017","283-BY","2018/08/17 17:49:31","新北市樹林區俊德街58號","121.41524","25.013225","6500700","樹林區"
"238020","268-VK","2018/08/17 17:49:46","新北市樹林區三俊街219號","121.421216666667","25.01504","6500700","樹林區"
"238026","172-UY","2018/08/17 17:49:25","新北市樹林區中洲街30巷13弄41號","121.398318333333","24.9723916666667","6500700","樹林區"
"238016","169-UY","2018/08/17 17:49:43","新北市樹林區備前街120號","121.41466","24.9866883333333","6500700","樹林區"
"239007","AAC-297","2018/08/17 17:38:34","新北市鶯歌區鶯桃路184號","121.336965","24.9555716666667","6500800","鶯歌區"
"239006","891-R6","2018/08/17 17:49:33","新北市鶯歌區鶯桃路417號","121.332908333333","24.9646883333333","6500800","鶯歌區"
"239008","527-UM","2018/08/17 17:40:05","新北市鶯歌區大湖路401號","121.330931666667","24.979135","6500800","鶯歌區"
"239005","526-UM","2018/08/17 17:49:37","新北市鶯歌區鶯桃路二段2號","121.32644","24.9718383333333","6500800","鶯歌區"
"239001","417-VK","2018/08/17 17:49:36","新北市鶯歌區中正三路460-1號","121.321086666667","24.9340966666667","6500800","鶯歌區"
"239003","360-BY","2018/08/17 17:49:40","新北市鶯歌區鶯桃路285巷2-5號","121.334365","24.959145","6500800","鶯歌區"
"239002","359-BY","2018/08/17 17:49:42","新北市鶯歌區育智路86號","121.345063333333","24.95463","6500800","鶯歌區"
"239004","193-VK","2018/08/17 17:43:52","新北市鶯歌區文化路393巷15號","121.352691666667","24.9509733333333","6500800","鶯歌區"
"221008","489-VK","2018/08/17 17:49:38","新北市汐止區康寧街901號","121.651356666667","25.0750666666667","6501100","汐止區"
"221036","130-UY","2018/08/17 17:49:38","新北市汐止區汐萬路一段37號","121.655616666667","25.0681533333333","6501100","汐止區"
"221015","131-UY","2018/08/17 17:49:36","新北市汐止區長江街321號","121.666468333333","25.0816716666667","6501100","汐止區"
"221010","269-BY","2018/08/17 17:49:43","新北市汐止區汐萬路二段122巷29號","121.64838","25.0864133333333","6501100","汐止區"
"221012","278-VK","2018/08/17 17:49:31","新北市汐止區長江街256巷1號","121.6647","25.0799733333333","6501100","汐止區"
"221023","279-VK","2018/08/17 17:49:41","新北市汐止區民族一街1-1號","121.634913333333","25.0709116666667","6501100","汐止區"
"221032","280-BY","2018/08/17 17:49:35","新北市汐止區大同路一段215號","121.633721666667","25.0576616666667","6501100","汐止區"
"221027","281-BY","2018/08/17 17:49:27","新北市汐止區汐萬路一段312號","121.650531666667","25.0754266666667","6501100","汐止區"
"221021","299-VK","2018/08/17 17:49:37","新北市汐止區水源路一段32號","121.657121666667","25.0664016666667","6501100","汐止區"
"221031","353-TW","2018/08/17 17:49:26","新北市汐止區中興路96巷16號","121.635501666667","25.0624783333333","6501100","汐止區"
"221002","129-UY","2018/08/17 17:49:36","新北市汐止區康寧街901號","121.651528333333","25.0749683333333","6501100","汐止區"
"221035","622-UM","2018/08/17 17:49:26","新北市汐止區汐萬路一段142號","121.653156666667","25.0712033333333","6501100","汐止區"
"221025","623-UM","2018/08/17 17:49:46","新北市汐止區大同路二段171號","121.651651666667","25.0649433333333","6501100","汐止區"
"221038","646-BX","2018/08/17 17:49:30","新北市汐止區大同路二段187巷45號","121.65199","25.065895","6501100","汐止區"
"221033","647-BX","2018/08/17 17:49:37","新北市汐止區民權街二段93號","121.618981666667","25.04753","6501100","汐止區"
"221018","753-BX","2018/08/17 17:49:30","新北市汐止區水碓街2號","121.663688333333","25.069985","6501100","汐止區"
"242013","280-VK","2018/08/17 17:49:45","新北市新莊區中泰街116號","121.4484","25.0466466666667","6500500","新莊區"
