"lineid","car","time","location","longitude","latitude","cityid","cityname"
"234046","148-BY","2018/08/17 18:29:44","新北市永和區福和路1號","121.526346666667","25.0097583333333","6500400","永和區"
"234007","207-UY","2018/08/17 18:29:47","新北市永和區仁愛路308號","121.503196666667","25.0076416666667","6500400","永和區"
"234081","298-R6","2018/08/17 18:29:39","新北市永和區豫溪街217巷11號","121.525026666667","25.0099783333333","6500400","永和區"
"234017","745-BX","2018/08/17 18:29:40","新北市永和區福和路1號","121.526046666667","25.0097183333333","6500400","永和區"
"234026","9371-KE","2018/08/17 18:29:46","新北市永和區豫溪街52巷18號","121.515695","25.0091433333333","6500400","永和區"
"234011","9373-KE","2018/08/17 18:29:28","新北市永和區保福路二段158巷1號","121.509023333333","25.0151066666667","6500400","永和區"
"249005","172-UM","2018/08/17 18:29:41","新北市八里區中華路三段134號","121.391223333333","25.13412","6502300","八里區"
"249001","173-UM","2018/08/17 18:29:40","新北市八里區龍米路一段133號","121.452153333333","25.126785","6502300","八里區"
"249004","303-UY","2018/08/17 18:29:39","新北市八里區忠四街3號","121.424813333333","25.1595533333333","6502300","八里區"
"249002","305-UY","2018/08/17 18:29:35","新北市八里區龍形三街26號","121.448001666667","25.1315766666667","6502300","八里區"
"248014","025-BX","2018/08/17 18:29:41","新北市五股區自強路90巷76號","121.431466666667","25.07131","6501500","五股區"
"248016","026-BX","2018/08/17 18:29:33","新北市五股區凌雲路一段83巷11號","121.449471666667","25.1009066666667","6501500","五股區"
"248006","077-UY","2018/08/17 18:29:39","新北市五股區四維路38號","121.467261666667","25.07154","6501500","五股區"
"248008","095-VK","2018/08/17 18:29:25","新北市五股區中興路二段78-5號","121.461451666667","25.0786016666667","6501500","五股區"
"248018","225-UY","2018/08/17 18:29:45","新北市五股區民義路二段52巷15號","121.41274","25.112","6501500","五股區"
"248012","247-BX","2018/08/17 18:29:32","新北市五股區御成路20號","121.441693333333","25.0914883333333","6501500","五股區"
"248010","272-BY","2018/08/17 18:29:26","新北市五股區成泰路一段139巷2弄2號","121.435081666667","25.07296","6501500","五股區"
"248004","677-BX","2018/08/17 18:29:34","新北市五股區工商路126號","121.436371666667","25.0858216666667","6501500","五股區"
"248002","678-BX","2018/08/17 18:29:40","新北市五股區西雲路116-3號","121.444608333333","25.0936116666667","6501500","五股區"
"234067","AAC-212","2018/08/17 18:29:43","新北市永和區福和路1號","121.526376666667","25.0095683333333","6500400","永和區"
"244007","080-UY","2018/08/17 18:29:30","新北市林口區湖北里8鄰3號","121.38944","25.0975083333333","6501700","林口區"
"244019","403-UM","2018/08/17 18:29:43","新北市林口區忠孝路622巷1弄1號","121.377795","25.0679183333333","6501700","林口區"
"244013","KEA-2802","2018/08/17 18:29:29","新北市林口區中山路299號","121.383973333333","25.0801816666667","6501700","林口區"
"244023","483-VK","2018/08/17 18:29:32","新北市林口區四維路176號","121.381331666667","25.0748283333333","6501700","林口區"
"244017","485-VK","2018/08/17 18:29:40","新北市林口區八德路78號","121.365483333333","25.0657033333333","6501700","林口區"
"244009","656-BX","2018/08/17 18:29:43","新北市林口區文林一街35號","121.377346666667","25.086515","6501700","林口區"
"244011","657-BX","2018/08/17 18:29:27","新北市林口區中山路73號","121.392846666667","25.0783583333333","6501700","林口區"
"244025","837-TS","2018/08/17 18:29:44","新北市林口區源泉街58號","121.356605","25.0724033333333","6501700","林口區"
"244021","838-TS","2018/08/17 18:29:36","新北市林口區自強二街26號","121.398075","25.0779683333333","6501700","林口區"
"243013","AAD-798","2018/08/17 18:29:46","新北市泰山區明志路三段206巷3號","121.423306666667","25.037915","6501600","泰山區"
"222003","016-RS","2018/08/17 18:29:44","新北市深坑區烏月路56-1號","121.63111","25.005605","6501800","深坑區"
"222002","659-BX","2018/08/17 18:29:37","新北市深坑區雲鄉路150號","121.623373333333","24.997905","6501800","深坑區"
"231045","001-UM","2018/08/17 18:29:35","新北市新店區安華路28-1號","121.519535","24.96075","6500600","新店區"
"231041","002-UM","2018/08/17 18:29:38","新北市新店區安華路28-1號","121.519646666667","24.9606533333333","6500600","新店區"
"231059","046-UY","2018/08/17 18:29:39","新北市新店區安華路3號","121.51929","24.9597066666667","6500600","新店區"
"231044","106-UY","2018/08/17 18:29:45","新北市新店區安華路28-1號","121.519808333333","24.9607866666667","6500600","新店區"
"231046","107-UY","2018/08/17 18:29:36","新北市新店區直潭七街60號","121.53222","24.9398983333333","6500600","新店區"
"231053","108-UY","2018/08/17 18:29:37","新北市新店區新烏路一段50-23號","121.545698333333","24.9495783333333","6500600","新店區"
"231048","187-VK","2018/08/17 18:29:44","新北市新店區安一路一段1-1號","121.519711666667","24.9611633333333","6500600","新店區"
"231054","KEA-2219","2018/08/17 18:29:46","新北市新店區安一路一段1-1號","121.51998","24.9612133333333","6500600","新店區"
"231057","256-BX","2018/08/17 18:29:25","新北市新店區安康路一段92-1號","121.527878333333","24.9620183333333","6500600","新店區"
"231042","268-BY","2018/08/17 18:29:35","新北市新店區安華路1-1號","121.519333333333","24.9604933333333","6500600","新店區"
"231051","278-BY","2018/08/17 18:29:45","新北市新店區安華路8號","121.519785","24.9626166666667","6500600","新店區"
"231050","AAD-862","2018/08/17 18:29:27","新北市新店區安華路28-1號","121.519778333333","24.9609066666667","6500600","新店區"
"231058","3713-VJ","2018/08/17 18:29:40","新北市新店區新店後街110號","121.537735","24.9554183333333","6500600","新店區"
"231066","4716-K9","2018/08/17 18:29:40","新北市新店區安一路一段1-1號","121.519241666667","24.9610766666667","6500600","新店區"
"231056","4715-K9","2018/08/17 18:29:37","新北市新店區二十張路105巷22號","121.537","24.9790283333333","6500600","新店區"
"231067","4772-VM","2018/08/17 18:29:34","新北市新店區安華路1-1號","121.519073333333","24.960565","6500600","新店區"
"231049","513-UM","2018/08/17 18:29:32","新北市新店區安一路一段1-1號","121.519736666667","24.961065","6500600","新店區"
"231040","617-UM","2018/08/17 18:29:38","新北市新店區安華路28-1號","121.519395","24.960985","6500600","新店區"
"231061","619-UM","2018/08/17 18:29:42","新北市新店區安華路28-1號","121.519633333333","24.960775","6500600","新店區"
"231063","641-BX","2018/08/17 18:29:40","新北市新店區安華路28-1號","121.519708333333","24.9605066666667","6500600","新店區"
"231064","719-UM","2018/08/17 18:29:35","新北市新店區安一路一段1-1號","121.519521666667","24.96123","6500600","新店區"
"231062","720-UM","2018/08/17 18:29:42","新北市新店區安一路一段1-1號","121.51921","24.96106","6500600","新店區"
"231060","897-TW","2018/08/17 18:29:43","新北市新店區安華路28-1號","121.519568333333","24.96062","6500600","新店區"
"231055","AKT-0513","2018/08/17 18:29:42","新北市新店區中正路156號","121.541553333333","24.971795","6500600","新店區"
"241033","AAC-255","2018/08/17 18:29:34","新北市三重區光復路一段68巷13號","121.471068333333","25.0493816666667","6500200","三重區"
"235066","003-UY","2018/08/17 18:29:41","新北市中和區中山路二段120號","121.502701666667","25.0036733333333","6500300","中和區"
"235064","005-UY","2018/08/17 18:29:36","新北市中和區圓通路158巷1弄1號","121.497438333333","24.995675","6500300","中和區"
"235063","006-UY","2018/08/17 18:29:31","新北市中和區連城路389巷9號","121.486578333333","24.99529","6500300","中和區"
"235056","096-UM","2018/08/17 18:29:43","新北市中和區員山路611巷1號","121.477891666667","25.011305","6500300","中和區"
"235039","097-UM","2018/08/17 18:29:39","新北市中和區安平路161號","121.512395","24.9984","6500300","中和區"
"235065","098-UM","2018/08/17 18:29:42","新北市中和區莊敬路49巷20弄20號","121.502671666667","25.00589","6500300","中和區"
"235040","150-BY","2018/08/17 18:29:44","新北市中和區安平路38號","121.50994","24.9952583333333","6500300","中和區"
"235058","151-BY","2018/08/17 18:29:33","新北市中和區圓通路369巷30弄32號","121.488935","24.9847316666667","6500300","中和區"
"235055","183-VK","2018/08/17 18:29:30","新北市土城區延吉街53號","121.472263333333","24.9876566666667","6500300","中和區"
"235038","185-VK","2018/08/17 18:29:27","新北市中和區秀朗路三段128巷17弄41號","121.522931666667","24.9931916666667","6500300","中和區"
"235049","186-VK","2018/08/17 18:29:40","新北市中和區景安路116號","121.505328333333","24.9949566666667","6500300","中和區"
"235067","255-BX","2018/08/17 18:29:29","新北市中和區中正路637巷52弄1號","121.485406666667","24.99361","6500300","中和區"
"235044","293-VK","2018/08/17 18:29:42","新北市中和區復興路301巷15號","121.50154","24.9898383333333","6500300","中和區"
"235072","301-VK","2018/08/17 18:29:32","新北市中和區連城路143號","121.495758333333","24.9987733333333","6500300","中和區"
"235043","352-BY","2018/08/17 18:29:37","新北市中和區景平路301號","121.506651666667","24.9931033333333","6500300","中和區"
"235042","KEA-2878","2018/08/17 18:29:36","新北市中和區自立路56巷14號","121.522778333333","24.991755","6500300","中和區"
"235050","4979-A6","2018/08/17 18:29:32","新北市中和區景新街362巷5號","121.511931666667","24.9901066666667","6500300","中和區"
"235069","4980-A6","2018/08/17 18:29:42","新北市中和區連城路127巷25號","121.497043333333","24.9977566666667","6500300","中和區"
"235070","558-UM","2018/08/17 18:29:29","新北市中和區南華路75號","121.505083333333","24.9973666666667","6500300","中和區"
"235045","565-BX","2018/08/17 18:29:39","新北市中和區南山路236巷24弄21號","121.504888333333","24.988905","6500300","中和區"
"235054","640-BX","2018/08/17 18:29:39","新北市中和區民享街111號","121.474785","24.9994616666667","6500300","中和區"
"235060","647-TV","2018/08/17 18:29:47","新北市中和區中山路二段561號","121.480715","25.005645","6500300","中和區"
"235047","732-UM","2018/08/17 18:29:43","新北市中和區南山路479號","121.50791","24.9883483333333","6500300","中和區"
"235046","733-UM","2018/08/17 18:29:26","新北市中和區中興街169號","121.499963333333","24.99048","6500300","中和區"
"235062","800-TS","2018/08/17 18:29:41","新北市中和區景平路989巷6-2號","121.495211666667","25.0053566666667","6500300","中和區"
"235057","801-TS","2018/08/17 18:29:40","新北市中和區民享街97巷21號","121.475408333333","24.99952","6500300","中和區"
"235041","802-TS","2018/08/17 18:29:28","新北市中和區景平路502號","121.50422","24.99378","6500300","中和區"
"235052","805-TS","2018/08/17 18:29:47","新北市中和區興南路二段96號","121.505206666667","24.9842016666667","6500300","中和區"
"235048","896-TW","2018/08/17 18:29:39","新北市中和區中正路83號","121.500645","24.9935016666667","6500300","中和區"
"235053","900-TW","2018/08/17 18:29:28","新北市中和區連城路607號","121.477933333333","24.9931766666667","6500300","中和區"
"235051","157-BY","2018/08/17 18:29:43","新北市中和區興南路二段142巷12-3號","121.503188333333","24.9839233333333","6500300","中和區"
"235037","AAC-213","2018/08/17 18:29:33","新北市中和區景德街89巷3號","121.516295","24.9912883333333","6500300","中和區"
"220080","015-TV","2018/08/17 18:29:40","新北市板橋區華東街1-9號","121.448135","24.9949383333333","6500100","板橋區"
"220086","073-UY","2018/08/17 18:29:42","新北市板橋區南雅南路二段11-23號","121.453936666667","25.0019983333333","6500100","板橋區"
"226004","205-ST","2018/08/17 18:29:29","新北市平溪區石底里公園街18-3號","121.735013333333","25.02494","6502400","平溪區"
"228001","212-TW","2018/08/17 18:29:39","新北市貢寮區仁理村仁和路104號","121.922891666667","25.0508066666667","6502600","貢寮區"
"228002","663-BX","2018/08/17 18:29:28","新北市貢寮區福連里福連街5號","121.988225","25.0154733333333","6502600","貢寮區"
"228003","828-UM","2018/08/17 18:29:35","新北市貢寮區和美里和美街44-1號","121.91487","25.0924183333333","6502600","貢寮區"
"224006","676-BX","2018/08/17 18:29:44","新北市瑞芳區明燈路二段42號","121.809963333333","25.10767","6501200","瑞芳區"
"224002","639-TC","2018/08/17 18:29:46","新北市瑞芳區三爪子坑路29巷35號","121.813761666667","25.1066183333333","6501200","瑞芳區"
"224008","285-BY","2018/08/17 18:29:41","新北市瑞芳區岳王路1巷41號","121.805715","25.110345","6501200","瑞芳區"
"224007","275-VK","2018/08/17 18:29:27","新北市瑞芳區大埔路23巷20-1號","121.764501666667","25.1014533333333","6501200","瑞芳區"
"224009","273-VK","2018/08/17 18:29:42","新北市瑞芳區五號路126號","121.854946666667","25.11087","6501200","瑞芳區"
"224005","271-BY","2018/08/17 18:29:42","新北市瑞芳區瑞濱路147-16號","121.818018333333","25.118485","6501200","瑞芳區"
"227003","642-TC","2018/08/17 18:29:31","新北市雙溪區魚行里坤溪22號","121.870433333333","25.02934","6502500","雙溪區"
"227011","400-TW","2018/08/17 18:29:35","新北市雙溪區牡丹里牡丹111號","121.851106666667","25.0599066666667","6502500","雙溪區"
"253005","032-BX","2018/08/17 18:29:45","新北市石門區老崩山10-1號","121.552888333333","25.2912083333333","6502200","石門區"
"253006","295-VK","2018/08/17 18:29:30","新北市石門區公地47號","121.545376666667","25.2900583333333","6502200","石門區"
"222001","KEA-2212","2018/08/17 18:29:30","新北市深坑區北深路一段185號","121.63184","25.0104633333333","6501800","深坑區"
"208002","KEA-2872","2018/08/17 18:29:43","新北市金山區民生路31號","121.643628333333","25.221985","6502700","金山區"
"208003","665-BX","2018/08/17 18:29:45","新北市金山區金包里街131號","121.636765","25.222435","6502700","金山區"
"208001","761-BX","2018/08/17 18:29:42","新北市金山區文化二路4號","121.636981666667","25.2244283333333","6502700","金山區"
"251005","180-VK","2018/08/17 18:29:35","新北市淡水區英專路2巷2號","121.446131666667","25.1685733333333","6501000","淡水區"
"251008","181-VK","2018/08/17 18:29:41","新北市淡水區北投子87-2號","121.468033333333","25.1784566666667","6501000","淡水區"
"251010","413-VK","2018/08/17 18:29:40","新北市淡水區沙崙路181巷1號","121.42415","25.1841566666667","6501000","淡水區"
"251012","441-VK","2018/08/17 18:29:44","新北市淡水區北新路一段128號","121.458313333333","25.1822716666667","6501000","淡水區"
"251004","443-VK","2018/08/17 18:29:42","新北市淡水區民族路31巷2號","121.46242","25.1364016666667","6501000","淡水區"
"251001","559-UM","2018/08/17 18:29:36","新北市淡水區自強路122巷1號","121.464501666667","25.13317","6501000","淡水區"
"251006","561-UM","2018/08/17 18:29:40","新北市淡水區大信街24巷2號","121.441965","25.176715","6501000","淡水區"
"251009","575-R6","2018/08/17 18:29:43","新北市淡水區下圭柔山91-3號","121.431138333333","25.2102316666667","6501000","淡水區"
"251007","577-R6","2018/08/17 18:29:36","新北市淡水區中正東路二段143巷2弄1號","121.460733333333","25.147405","6501000","淡水區"
"251011","650-BX","2018/08/17 18:29:32","新北市淡水區中正東路21號","121.448071666667","25.1664416666667","6501000","淡水區"
"251002","672-BX","2018/08/17 18:29:30","新北市淡水區中正東路一段21巷33號","121.452551666667","25.1642733333333","6501000","淡水區"
"251003","673-BX","2018/08/17 18:29:33","新北市淡水區北新路169巷9號","121.449858333333","25.1799033333333","6501000","淡水區"
"207003","550-UM","2018/08/17 18:29:31","新北市萬里區野柳里港東路151-3號","121.688728333333","25.2051066666667","6502800","萬里區"
"207004","225-TW","2018/08/17 18:29:34","新北市萬里區萬里里瑪鋉路252號","121.689016666667","25.180675","6502800","萬里區"
"252002","178-VK","2018/08/17 18:29:26","新北市三芝區中山路二段38號","121.502993333333","25.2550966666667","6502100","三芝區"
"252003","249-BX","2018/08/17 18:29:40","新北市三芝區後厝里北勢子44-3號","121.470908333333","25.2518583333333","6502100","三芝區"
"252001","292-VK","2018/08/17 18:29:38","新北市三芝區中興街二段6號","121.498421666667","25.2565633333333","6502100","三芝區"
"237004","KEA-2597","2018/08/17 18:29:44","新北市三峽區金敏16號","121.38999","24.8746166666667","6500900","三峽區"
"237009","210-TH","2018/08/17 18:29:47","新北市三峽區大同路240巷43號","121.365348333333","24.9256316666667","6500900","三峽區"
"237013","252-BX","2018/08/17 18:29:31","新北市三峽區永安街9巷22號","121.376885","24.9299683333333","6500900","三峽區"
"237012","275-BY","2018/08/17 18:29:44","新北市三峽區三樹路278號","121.380056666667","24.9436166666667","6500900","三峽區"
"237008","302-VK","2018/08/17 18:29:32","新北市三峽區白雞115-7號","121.40079","24.9067316666667","6500900","三峽區"
"237014","433-BY","2018/08/17 18:29:28","新北市三峽區和平街61號","121.370143333333","24.9364733333333","6500900","三峽區"
"237006","5529-G3","2018/08/17 18:29:27","新北市三峽區溪東路367號","121.41167","24.9292866666667","6500900","三峽區"
"237011","KEA-2596","2018/08/17 18:07:26","新北市三峽區介壽路一段390號","121.383273333333","24.93074","6500900","三峽區"
"237015","649-BX","2018/08/17 18:16:45","新北市三峽區紫新路25巷8號","121.422663333333","24.9214333333333","6500900","三峽區"
"237010","706-TV","2018/08/17 18:29:26","新北市三峽區復興路489號","121.361261666667","24.9383783333333","6500900","三峽區"
"237005","AKY-6261","2018/08/17 18:29:46","新北市三峽區清水街339號","121.371081666667","24.933775","6500900","三峽區"
"236069","105-UM","2018/08/17 18:29:34","新北市土城區永豐路255巷12號","121.475368333333","24.9731216666667","6501300","土城區"
"236042","107-UM","2018/08/17 18:29:47","新北市土城區學成路91巷1號","121.450525","24.9878466666667","6501300","土城區"
"236079","166-UM","2018/08/17 18:29:32","新北市土城區中央路四段25-10號","121.424553333333","24.96224","6501300","土城區"
"236030","253-BX","2018/08/17 18:29:34","新北市土城區水源街83號","121.439616666667","24.9764966666667","6501300","土城區"
"236026","269-VK","2018/08/17 18:29:41","新北市土城區南天母路135巷14號","121.448238333333","24.95455","6501300","土城區"
"236014","270-VK","2018/08/17 18:29:30","新北市土城區青雲路39巷7號","121.460383333333","24.9875483333333","6501300","土城區"
"236039","271-VK","2018/08/17 18:29:43","新北市土城區明德路一段299號","121.459941666667","24.9772166666667","6501300","土城區"
"236020","401-BY","2018/08/17 18:29:46","新北市土城區明德路一段93巷6號","121.46611","24.983295","6501300","土城區"
"236059","912-UM","2018/08/17 18:29:28","新北市土城區中央路四段196-1號","121.416138333333","24.9576033333333","6501300","土城區"
"236048","913-UM","2018/08/17 18:29:48","新北市土城區明德路一段319號","121.459205","24.9771033333333","6501300","土城區"
"236063","915-UM","2018/08/17 18:29:35","新北市土城區延壽路77巷6弄4號","121.468583333333","24.99263","6501300","土城區"
"236055","AAC-216","2018/08/17 18:29:38","新北市土城區中華路二段1號","121.439625","24.9790583333333","6501300","土城區"
"242058","986-R7","2018/08/17 18:29:44","桃園市龜山區萬壽路一段78號","121.408475","25.01891","6500500","新莊區"
"242025","613-BX","2018/08/17 18:29:29","新北市新莊區五工五路13號","121.454845","25.0620866666667","6500500","新莊區"
"242041","566-BX","2018/08/17 18:29:46","新北市新莊區天祥街94號","121.415166666667","25.02955","6500500","新莊區"
"242054","442-UM","2018/08/17 18:29:42","新北市新莊區民安西路458號","121.43129","25.008205","6500500","新莊區"
"242056","440-UM","2018/08/17 18:29:40","新北市新莊區瓊泰路83號","121.443085","25.029215","6500500","新莊區"
"242044","400-BY","2018/08/17 18:29:30","新北市新莊區中正路新旺巷41號","121.416498333333","25.0226066666667","6500500","新莊區"
"242060","353-BY","2018/08/17 18:29:36","新北市新莊區新樹路52號","121.437355","25.0267316666667","6500500","新莊區"
"242009","132-UY","2018/08/17 18:29:28","新北市新莊區中華路二段21號","121.453703333333","25.0458766666667","6500500","新莊區"
"242048","172-VK","2018/08/17 18:29:31","新北市新莊區中正路499號","121.440575","25.0334883333333","6500500","新莊區"
"242011","173-VK","2018/08/17 18:29:14","新北市新莊區中榮街84號","121.448025","25.052925","6500500","新莊區"
"242002","349-TH","2018/08/17 18:29:39","新北市新莊區瓊泰路77巷16號","121.442455","25.0293533333333","6500500","新莊區"
"238015","755-BX","2018/08/17 18:29:39","新北市樹林區大安路519號","121.414146666667","24.9861216666667","6500700","樹林區"
"238023","601-UM","2018/08/17 18:29:35","新北市樹林區三福街114號","121.406455","25.0162816666667","6500700","樹林區"
"238018","571-TV","2018/08/17 18:29:37","新北市樹林區樹新路30-3號","121.427316666667","24.9946366666667","6500700","樹林區"
"238024","5061-A6","2018/08/17 18:29:35","新北市樹林區中山路一段31號","121.424671666667","24.99292","6500700","樹林區"
"238025","303-VK","2018/08/17 18:29:42","新北市樹林區大安路586號","121.411611666667","24.9832766666667","6500700","樹林區"
"238017","283-BY","2018/08/17 18:29:30","新北市樹林區光榮街79號","121.412085","25.00296","6500700","樹林區"
"238020","268-VK","2018/08/17 18:29:44","新北市樹林區中正路642巷19號","121.41138","25.01747","6500700","樹林區"
"238026","172-UY","2018/08/17 18:29:25","新北市樹林區育德街78-1號","121.387378333333","24.968215","6500700","樹林區"
"238016","169-UY","2018/08/17 18:29:43","新北市樹林區日新街148巷37號","121.419445","24.98789","6500700","樹林區"
"239006","891-R6","2018/08/17 18:29:33","新北市鶯歌區鶯桃路296巷51號","121.33574","24.9613816666667","6500800","鶯歌區"
"239005","526-UM","2018/08/17 18:29:37","新北市鶯歌區鳳吉二街60號","121.326826666667","24.9738683333333","6500800","鶯歌區"
"239001","417-VK","2018/08/17 18:29:36","新北市鶯歌區高職南街13號","121.337418333333","24.9392033333333","6500800","鶯歌區"
"239003","360-BY","2018/08/17 18:29:40","新北市鶯歌區永和街116號","121.334708333333","24.96925","6500800","鶯歌區"
"239002","359-BY","2018/08/17 18:29:42","新北市鶯歌區中正一路84-1號","121.352301666667","24.9544266666667","6500800","鶯歌區"
"239004","193-VK","2018/08/17 18:08:33","新北市鶯歌區尖山路174巷35弄39號","121.343876666667","24.947865","6500800","鶯歌區"
"221008","489-VK","2018/08/17 18:29:38","新北市汐止區康寧街901號","121.651386666667","25.07511","6501100","汐止區"
"221036","130-UY","2018/08/17 18:29:38","新北市汐止區大同路二段585號","121.66374","25.0703716666667","6501100","汐止區"
"221015","131-UY","2018/08/17 18:29:36","新北市汐止區鄉長路一段55巷22號","121.664633333333","25.0763366666667","6501100","汐止區"
"221010","269-BY","2018/08/17 18:29:43","新北市汐止區汐萬路三段235號","121.643526666667","25.105255","6501100","汐止區"
"221012","278-VK","2018/08/17 18:29:31","新北市汐止區保長路149號","121.67698","25.07652","6501100","汐止區"
"221023","279-VK","2018/08/17 18:29:41","新北市汐止區康寧街534巷20號","121.634535","25.0689133333333","6501100","汐止區"
"221032","280-BY","2018/08/17 18:29:35","新北市汐止區福山街62巷5號","121.618165","25.046625","6501100","汐止區"
"221027","281-BY","2018/08/17 18:29:27","新北市汐止區和平街77號","121.661326666667","25.0706633333333","6501100","汐止區"
"221029","298-VK","2018/08/17 18:29:27","新北市汐止區樟樹二路330巷72-1號","121.642961666667","25.0699533333333","6501100","汐止區"
"221021","299-VK","2018/08/17 18:29:37","新北市汐止區復興路72號","121.657141666667","25.0621066666667","6501100","汐止區"
"221031","353-TW","2018/08/17 18:29:26","新北市汐止區大同路一段405-1號","121.641475","25.060195","6501100","汐止區"
"221002","129-UY","2018/08/17 18:29:36","新北市汐止區福德一路146號","121.636773333333","25.0671183333333","6501100","汐止區"
"221035","622-UM","2018/08/17 18:29:26","新北市汐止區大同路二段9-1號","121.646583333333","25.0626166666667","6501100","汐止區"
"221025","623-UM","2018/08/17 18:29:26","新北市汐止區仁愛路130-2號","121.66312","25.0640216666667","6501100","汐止區"
"221038","646-BX","2018/08/17 18:29:30","新北市汐止區汐萬路一段165號","121.653021666667","25.071065","6501100","汐止區"
"221033","647-BX","2018/08/17 18:29:37","新北市汐止區芳園街4號","121.625011666667","25.0377466666667","6501100","汐止區"
"221018","753-BX","2018/08/17 18:29:30","新北市汐止區茄苳路250巷13號","121.67159","25.0678083333333","6501100","汐止區"
"220079","145-BY","2018/08/17 18:29:46","新北市板橋區華東街1-10號","121.448338333333","24.995065","6500100","板橋區"
"220082","610-BX","2018/08/17 18:29:40","新北市板橋區華東街1-9號","121.448213333333","24.9949483333333","6500100","板橋區"
"220072","277-BY","2018/08/17 18:29:32","新北市板橋區華東街1-10號","121.448303333333","24.9951083333333","6500100","板橋區"
"220083","286-VK","2018/08/17 18:29:36","新北市板橋區華東街1-10號","121.448315","24.9950483333333","6500100","板橋區"
"220081","287-VK","2018/08/17 18:29:38","新北市板橋區華東街1-9號","121.44821","24.9949883333333","6500100","板橋區"
"220084","296-UM","2018/08/17 18:29:32","新北市板橋區華東街1-9號","121.448143333333","24.9949416666667","6500100","板橋區"
"220075","303-R5","2018/08/17 18:29:30","新北市板橋區華東街1-9號","121.448206666667","24.9949783333333","6500100","板橋區"
"220064","486-VK","2018/08/17 18:29:34","新北市板橋區華東街330號","121.452933333333","25.0034783333333","6500100","板橋區"
"220035","560-BX","2018/08/17 18:29:46","新北市板橋區四川路二段130巷32-2號","121.449685","24.9946166666667","6500100","板橋區"
"220057","686-BX","2018/08/17 18:29:43","新北市板橋區華東街1-9號","121.448243333333","24.9949283333333","6500100","板橋區"
"220077","687-BX","2018/08/17 18:29:40","新北市板橋區華東街1-10號","121.448333333333","24.9949416666667","6500100","板橋區"
"220054","741-BX","2018/08/17 18:29:28","新北市板橋區華東街1-9號","121.448105","24.994895","6500100","板橋區"
"220074","895-R6","2018/08/17 18:29:36","新北市板橋區華東街1-10號","121.448265","24.99496","6500100","板橋區"
"220073","985-R7","2018/08/17 18:29:40","新北市板橋區華東街1-10號","121.448606666667","24.9950083333333","6500100","板橋區"
"235068","KEA-2873","2018/08/17 18:29:44","新北市中和區圓通路333號","121.492078333333","24.9906883333333","6500300","中和區"
"235061","KEA-2875","2018/08/17 18:29:41","新北市中和區民享街116巷26號","121.473518333333","24.9991066666667","6500300","中和區"
