"lineid","car","time","location","longitude","latitude","cityid","cityname"
"234046","148-BY","2018/08/17 20:09:44","新北市永和區得和路392號","121.525265","24.999135","6500400","永和區"
"234007","207-UY","2018/08/17 20:09:47","新北市永和區環河西路二段215號","121.501443333333","25.0103866666667","6500400","永和區"
"234081","298-R6","2018/08/17 20:09:39","新北市永和區國中路31號","121.524511666667","25.00545","6500400","永和區"
"234064","337-UY","2018/08/17 20:09:31","新北市永和區秀朗路二段43號","121.521606666667","25.00247","6500400","永和區"
"234086","338-UY","2018/08/17 20:09:46","新北市永和區福和路247號","121.518075","25.0075433333333","6500400","永和區"
"234070","552-UM","2018/08/17 20:09:33","新北市永和區福和路183巷1號","121.520073333333","25.0072766666667","6500400","永和區"
"234038","553-UM","2018/08/17 20:09:45","新北市永和區成功路一段70號","121.526858333333","25.0035933333333","6500400","永和區"
"234017","745-BX","2018/08/17 20:09:39","新北市永和區文化路82號","121.514001666667","25.01517","6500400","永和區"
"234030","746-BX","2018/08/17 20:09:37","新北市永和區民權路49巷5弄20號","121.521463333333","24.99774","6500400","永和區"
"234054","KEA-2590","2018/08/17 20:09:32","新北市永和區博愛街19巷1號","121.517425","25.0158816666667","6500400","永和區"
"234013","KEA-2591","2018/08/17 20:09:46","新北市永和區中山路一段265號","121.507363333333","25.00732","6500400","永和區"
"234061","AAD-866","2018/08/17 20:09:44","新北市永和區中正路129巷2號","121.516083333333","24.9979833333333","6500400","永和區"
"234042","862-TW","2018/08/17 20:09:46","新北市永和區中和路453號","121.510056666667","25.001495","6500400","永和區"
"234050","863-TW","2018/08/17 20:09:44","新北市永和區環河西路二段149號","121.505741666667","25.013995","6500400","永和區"
"234026","9371-KE","2018/08/17 20:09:46","新北市永和區永貞路271號","121.51175","25.0048033333333","6500400","永和區"
"234011","9373-KE","2018/08/17 20:09:48","新北市永和區仁愛路352巷124號","121.500156666667","25.0085533333333","6500400","永和區"
"249005","172-UM","2018/08/17 20:09:38","新北市八里區下罟子58-3號","121.389085","25.1386566666667","6502300","八里區"
"249001","173-UM","2018/08/17 20:09:42","新北市八里區中華路二段326號","121.403305","25.1479383333333","6502300","八里區"
"249004","303-UY","2018/08/17 20:09:29","新北市八里區中山路一段209號","121.41141","25.1581166666667","6502300","八里區"
"249002","305-UY","2018/08/17 20:09:35","新北市八里區龍米路一段2-1號","121.45848","25.114405","6502300","八里區"
"249003","593-UM","2018/08/17 20:09:41","新北市八里區中山路二段540巷9弄6號","121.396773333333","25.1471283333333","6502300","八里區"
"248014","025-BX","2018/08/17 20:09:44","新北市五股區成泰路三段436號","121.452123333333","25.0993083333333","6501500","五股區"
"248016","026-BX","2018/08/17 20:09:35","新北市五股區凌雲路一段158巷50弄19號","121.44781","25.1043783333333","6501500","五股區"
"248008","095-VK","2018/08/17 20:09:45","新北市五股區中興路一段1巷11號","121.469456666667","25.0715","6501500","五股區"
"248018","225-UY","2018/08/17 20:09:45","新北市五股區自強路127號","121.432268333333","25.0700966666667","6501500","五股區"
"248012","247-BX","2018/08/17 20:09:13","新北市五股區六合街118號","121.43025","25.090795","6501500","五股區"
"248010","272-BY","2018/08/17 20:09:46","新北市五股區成泰路一段7巷12號","121.433236666667","25.06678","6501500","五股區"
"248004","677-BX","2018/08/17 20:09:34","新北市五股區成泰路一段142號","121.435056666667","25.075835","6501500","五股區"
"248002","678-BX","2018/08/17 20:09:39","新北市五股區成泰路三段311-2號","121.447958333333","25.094905","6501500","五股區"
"234023","9380-KE","2018/08/17 20:09:44","新北市永和區永和路二段127號","121.514973333333","25.012095","6500400","永和區"
"234077","969-R7","2018/08/17 20:09:35","新北市永和區智光街115號","121.515551666667","24.99612","6500400","永和區"
"234074","AAC-211","2018/08/17 20:09:43","新北市永和區豫溪街169巷2號","121.521861666667","25.0104633333333","6500400","永和區"
"234067","AAC-212","2018/08/17 20:09:42","新北市永和區保平路218號","121.509693333333","25.0059883333333","6500400","永和區"
"234003","AAC-295","2018/08/17 20:09:41","新北市永和區自強街32巷10號","121.516083333333","25.0078366666667","6500400","永和區"
"243013","AAD-798","2018/08/17 20:09:32","新北市泰山區明志路三段76號","121.424798333333","25.0417683333333","6501600","泰山區"
"243009","297-R6","2018/08/17 20:09:30","新北市泰山區泰林路二段116巷1弄1號","121.434836666667","25.0594","6501600","泰山區"
"243016","KEA-2801","2018/08/17 20:09:42","新北市泰山區貴陽街13號","121.421568333333","25.033325","6501600","泰山區"
"243015","421-VK","2018/08/17 20:09:39","新北市泰山區明志路一段326號","121.431373333333","25.0590966666667","6501600","泰山區"
"243011","KEA-2215","2018/08/17 20:09:49","新北市泰山區明志路三段413號","121.421086666667","25.033805","6501600","泰山區"
"243010","KEA-2216","2018/08/17 20:09:33","新北市泰山區明志路二段214巷16弄35號","121.42673","25.05017","6501600","泰山區"
"243012","646-TV","2018/08/17 20:09:47","新北市泰山區楓江路62號","121.436886666667","25.0632966666667","6501600","泰山區"
"243014","680-BX","2018/08/17 20:09:36","新北市泰山區明志路一段64號","121.433513333333","25.0647183333333","6501600","泰山區"
"222003","016-RS","2018/08/17 20:09:31","新北市深坑區埔新街56-1號","121.620348333333","25.0026483333333","6501800","深坑區"
"222002","659-BX","2018/08/17 20:09:37","新北市深坑區北深路三段192巷8號","121.602055","25.0040233333333","6501800","深坑區"
"231045","001-UM","2018/08/17 20:09:40","新北市新店區北宜路一段109巷2號","121.539876666667","24.954775","6500600","新店區"
"231041","002-UM","2018/08/17 20:09:37","新北市新店區中正路468號","121.534015","24.97945","6500600","新店區"
"231059","046-UY","2018/08/17 20:09:39","新北市新店區安成街30號","121.510113333333","24.9610016666667","6500600","新店區"
"231044","106-UY","2018/08/17 20:09:45","新北市新店區寶慶街58巷2號","121.542088333333","24.9868566666667","6500600","新店區"
"231053","108-UY","2018/08/17 20:09:37","新北市新店區新烏路三段286號","121.549803333333","24.898305","6500600","新店區"
"231048","187-VK","2018/08/17 20:09:45","新北市新店區寶橋路63號","121.545181666667","24.97513","6500600","新店區"
"231054","KEA-2219","2018/08/17 20:09:46","新北市新店區檳榔路34號","121.541418333333","24.9639483333333","6500600","新店區"
"231057","256-BX","2018/08/17 20:09:49","新北市新店區花園一路一段2號","121.553136666667","24.9324933333333","6500600","新店區"
"231042","268-BY","2018/08/17 20:09:34","新北市新店區中興路二段89號","121.54707","24.97147","6500600","新店區"
"231051","278-BY","2018/08/17 20:09:45","新北市新店區中央六街6號","121.530288333333","24.9744433333333","6500600","新店區"
"231050","AAD-862","2018/08/17 20:09:27","新北市新店區北新路一段339號","121.54186","24.968755","6500600","新店區"
"231058","3713-VJ","2018/08/17 20:09:39","新北市新店區薏仁坑路6-1號","121.499931666667","24.9584016666667","6500600","新店區"
"231056","4715-K9","2018/08/17 20:09:37","新北市新店區中正路328巷5號","121.53716","24.9752833333333","6500600","新店區"
"231067","4772-VM","2018/08/17 20:09:34","新北市新店區溪洲路32-1號","121.533256666667","24.96101","6500600","新店區"
"231065","512-UM","2018/08/17 20:09:27","新北市新店區安祥路106巷282號","121.472728333333","24.9583883333333","6500600","新店區"
"231049","513-UM","2018/08/17 20:09:32","新北市新店區北新路二段121巷17號","121.542176666667","24.97466","6500600","新店區"
"231040","617-UM","2018/08/17 20:09:38","新北市新店區中正路108號","121.543126666667","24.97071","6500600","新店區"
"231061","619-UM","2018/08/17 20:09:42","新北市新店區安民街317號","121.517498333333","24.9742266666667","6500600","新店區"
"231063","641-BX","2018/08/17 20:09:40","新北市新店區黎明路45號","121.50202","24.9496716666667","6500600","新店區"
"231068","718-UY","2018/08/17 20:09:47","新北市新店區中興路三段88號","121.545291666667","24.9788283333333","6500600","新店區"
"231064","719-UM","2018/08/17 20:09:38","新北市新店區安康路二段58巷9號","121.513273333333","24.9639666666667","6500600","新店區"
"231062","720-UM","2018/08/17 20:09:42","新北市新店區安康路二段170號","121.511928333333","24.9605933333333","6500600","新店區"
"231060","897-TW","2018/08/17 20:09:43","新北市新店區安康路三段486號","121.483291666667","24.9499816666667","6500600","新店區"
"231043","899-TW","2018/08/17 20:09:30","新北市新店區民族路168號","121.537266666667","24.9764683333333","6500600","新店區"
"231055","AKT-0513","2018/08/17 20:09:42","新北市新店區北新路一段297巷27號","121.540561666667","24.968185","6500600","新店區"
"241011","013-R5","2018/08/17 20:09:27","新北市三重區仁愛街32號","121.496358333333","25.0717933333333","6500200","三重區"
"241028","022-UY","2018/08/17 20:09:32","新北市三重區仁化街118號","121.49443","25.0581133333333","6500200","三重區"
"241008","059-VK","2018/08/17 20:09:40","新北市三重區永福街197巷17號","121.47888","25.0742966666667","6500200","三重區"
"241022","060-VK","2018/08/17 20:09:45","新北市三重區新北大道一段58號","121.48729","25.06149","6500200","三重區"
"241031","061-VK","2018/08/17 20:09:40","新北市三重區過圳街9-1號","121.488703333333","25.0601833333333","6500200","三重區"
"241015","062-VK","2018/08/17 20:09:28","新北市三重區福德北路43號","121.502311666667","25.0649416666667","6500200","三重區"
"241017","063-VK","2018/08/17 20:09:35","新北市三重區大同北路221巷18號","121.492076666667","25.0664866666667","6500200","三重區"
"241024","065-VK","2018/08/17 20:09:34","新北市三重區中正北路284號","121.480518333333","25.068585","6500200","三重區"
"241026","066-VK","2018/08/17 20:09:31","新北市三重區福德南路71號","121.502161666667","25.060195","6500200","三重區"
"241002","090-VK","2018/08/17 20:09:39","新北市三重區仁義街210號","121.496235","25.0822266666667","6500200","三重區"
"241003","091-VK","2018/08/17 20:09:47","新北市三重區富華街22號","121.489663333333","25.0825233333333","6500200","三重區"
"241016","266-UM","2018/08/17 20:09:29","新北市三重區中正北路25巷25弄6號","121.493385","25.06276","6500200","三重區"
"241009","267-UM","2018/08/17 20:09:43","新北市三重區三和路四段382巷153號","121.479086666667","25.0781183333333","6500200","三重區"
"241018","268-UM","2018/08/17 20:09:33","新北市三重區正義北路256巷132號","121.493181666667","25.0677433333333","6500200","三重區"
"241032","269-UM","2018/08/17 20:09:33","新北市三重區捷運路69號","121.48325","25.055535","6500200","三重區"
"241013","270-UM","2018/08/17 20:09:38","新北市三重區三和路三段139巷20號","121.493266666667","25.073885","6500200","三重區"
"241025","271-UM","2018/08/17 20:09:38","新北市三重區中正北路169號","121.478445","25.069295","6500200","三重區"
"241007","398-BY","2018/08/17 20:09:33","新北市三重區三和路四段111-7號","121.486221666667","25.0774766666667","6500200","三重區"
"241035","462-BY","2018/08/17 20:09:42","新北市三重區中央北路18巷41號","121.499441666667","25.06388","6500200","三重區"
"241004","475-VK","2018/08/17 20:09:44","新北市三重區自強路四段100號","121.491331666667","25.0797133333333","6500200","三重區"
"241020","478-VK","2018/08/17 20:09:30","新北市三重區大智街179巷38號","121.491015","25.0730583333333","6500200","三重區"
"241030","480-VK","2018/08/17 20:09:44","新北市三重區成功路145巷35號","121.487823333333","25.0532016666667","6500200","三重區"
"241014","543-UM","2018/08/17 20:09:38","新北市三重區長樂街135巷4號","121.503668333333","25.0698833333333","6500200","三重區"
"241023","545-UM","2018/08/17 20:09:36","新北市三重區頂崁街225號","121.476993333333","25.06818","6500200","三重區"
"241001","547-UM","2018/08/17 20:09:32","新北市三重區三和路四段89巷8號","121.48938","25.0757366666667","6500200","三重區"
"241019","KEA-2593","2018/08/17 20:09:43","新北市三重區自強路二段33巷64-3號","121.490935","25.0699683333333","6500200","三重區"
"241006","AAD-863","2018/08/17 20:09:39","新北市三重區車路頭街135-1號","121.484211666667","25.076195","6500200","三重區"
"241012","941-UM","2018/08/17 20:09:49","新北市三重區仁愛街125巷95號","121.498326666667","25.0762383333333","6500200","三重區"
"241029","942-UM","2018/08/17 20:09:44","新北市三重區光明路32巷38號","121.492195","25.058925","6500200","三重區"
"241033","AAC-255","2018/08/17 20:09:34","新北市三重區光復路一段61巷12號","121.472845","25.0492933333333","6500200","三重區"
"235066","003-UY","2018/08/17 20:09:41","新北市中和區水源路154巷2號","121.508093333333","25.00328","6500300","中和區"
"235039","097-UM","2018/08/17 20:09:39","新北市中和區大勇街25巷1號","121.517188333333","24.99317","6500300","中和區"
"235065","098-UM","2018/08/17 20:09:47","新北市中和區橋和路294號","121.496778333333","25.0068683333333","6500300","中和區"
"235040","150-BY","2018/08/17 20:09:44","新北市中和區保健路14號","121.508148333333","24.997955","6500300","中和區"
"247010","KEA-2869","2018/08/17 20:09:33","新北市蘆洲區集賢路400號","121.480215","25.0820833333333","6501400","蘆洲區"
"235050","4979-A6","2018/08/17 20:09:49","新北市中和區安樂路1號","121.511533333333","24.9918383333333","6500300","中和區"
"235069","4980-A6","2018/08/17 20:09:46","新北市中和區景新街64巷7弄14號","121.50458","24.9985316666667","6500300","中和區"
"235054","640-BX","2018/08/17 20:09:39","新北市新莊區化成路579巷2號","121.464091666667","25.06648","6500300","中和區"
"235046","733-UM","2018/08/17 20:09:26","新北市中和區景新街487號","121.513581666667","24.9873616666667","6500300","中和區"
"235052","805-TS","2018/08/17 20:09:46","新北市中和區忠孝街108-4號","121.512171666667","24.9849383333333","6500300","中和區"
"235051","157-BY","2018/08/17 20:09:43","新北市中和區中正路90號","121.499906666667","24.9938","6500300","中和區"
"235037","AAC-213","2018/08/17 20:09:33","新北市中和區立人街19號","121.521378333333","24.9940583333333","6500300","中和區"
"235059","AAC-215","2018/08/17 20:09:35","新北市中和區圓通路335巷33弄15號","121.493103333333","24.9890883333333","6500300","中和區"
"220069","AAD-861","2018/08/17 20:09:35","新北市板橋區華興街31巷19號","121.458446666667","25.0037466666667","6500100","板橋區"
"247024","893-R6","2018/08/17 20:09:44","新北市蘆洲區光榮路112號","121.46453","25.0886966666667","6501400","蘆洲區"
"247022","500-BY","2018/08/17 20:09:32","新北市蘆洲區三民路169號","121.471148333333","25.0871283333333","6501400","蘆洲區"
"247012","339-TH","2018/08/17 20:09:36","新北市蘆洲區民族路252號","121.479045","25.0887383333333","6501400","蘆洲區"
"247004","337-TH","2018/08/17 20:09:40","新北市蘆洲區長安街285巷2號","121.457988333333","25.0843833333333","6501400","蘆洲區"
"247006","336-TH","2018/08/17 20:09:33","新北市蘆洲區九芎街2號","121.468916666667","25.07854","6501400","蘆洲區"
"247018","057-VK","2018/08/17 20:09:37","新北市蘆洲區民族路314巷23號","121.478081666667","25.090675","6501400","蘆洲區"
"247008","056-VK","2018/08/17 20:09:45","新北市蘆洲區中山二路8號","121.475463333333","25.0816566666667","6501400","蘆洲區"
"247014","053-VK","2018/08/17 20:09:36","新北市蘆洲區中山二路218號","121.469965","25.0799533333333","6501400","蘆洲區"
"247016","007-UY","2018/08/17 20:09:37","新北市蘆洲區光華路186巷25號","121.464865","25.08307","6501400","蘆洲區"
"247002","002-UY","2018/08/17 20:09:42","新北市蘆洲區永康街2巷6號","121.459331666667","25.0860983333333","6501400","蘆洲區"
"247020","001-UY","2018/08/17 20:09:30","新北市蘆洲區民權路106巷5弄4號","121.474475","25.0891183333333","6501400","蘆洲區"
"224010","AGQ-8101","2018/08/17 20:09:39","新北市瑞芳區輕便路300-1號","121.843413333333","25.1087983333333","6501200","瑞芳區"
"222001","KEA-2212","2018/08/17 20:09:30","新北市深坑區北深路三段189巷1弄1號","121.601091666667","25.0034083333333","6501800","深坑區"
"208002","KEA-2872","2018/08/17 20:09:43","新北市金山區中山路16號","121.641656666667","25.217485","6502700","金山區"
"251008","181-VK","2018/08/17 20:09:36","新北市淡水區淡海路72巷35弄2號","121.424825","25.1827966666667","6501000","淡水區"
"251010","413-VK","2018/08/17 20:09:40","新北市淡水區新市五路一段152號","121.426831666667","25.198425","6501000","淡水區"
"251012","441-VK","2018/08/17 20:09:44","新北市淡水區淡金路三段266號","121.448913333333","25.20663","6501000","淡水區"
"251004","443-VK","2018/08/17 20:09:49","新北市淡水區民族路31巷33號","121.462161666667","25.1365466666667","6501000","淡水區"
"251001","559-UM","2018/08/17 20:09:36","新北市淡水區下圭柔山90-8號","121.431195","25.2103516666667","6501000","淡水區"
"251006","561-UM","2018/08/17 20:09:40","新北市淡水區北新路141巷29號","121.448271666667","25.1796183333333","6501000","淡水區"
"251009","575-R6","2018/08/17 20:09:43","新北市淡水區博愛街45號","121.446526666667","25.1692966666667","6501000","淡水區"
"251007","577-R6","2018/08/17 20:09:35","新北市淡水區中山北路三段165-1號","121.445271666667","25.1968466666667","6501000","淡水區"
"251002","672-BX","2018/08/17 20:09:30","新北市淡水區中正路332-1號","121.435866666667","25.1730783333333","6501000","淡水區"
"251003","673-BX","2018/08/17 20:09:33","新北市淡水區新市一路二段258號","121.443623333333","25.1828383333333","6501000","淡水區"
"207003","550-UM","2018/08/17 20:09:31","新北市萬里區大鵬里萬里加投180號","121.643018333333","25.2158416666667","6502800","萬里區"
"207004","225-TW","2018/08/17 20:09:29","新北市萬里區北基里大勇路15號","121.682021666667","25.176675","6502800","萬里區"
"252002","178-VK","2018/08/17 20:09:46","新北市三芝區中正路一段70號","121.503995","25.2578583333333","6502100","三芝區"
"252001","292-VK","2018/08/17 20:09:38","新北市三芝區公正街9號","121.49966","25.2576716666667","6502100","三芝區"
"237006","5529-G3","2018/08/17 20:09:27","新北市三峽區嘉添91號","121.36908","24.909815","6500900","三峽區"
"237015","649-BX","2018/08/17 20:09:45","新北市三峽區介壽路二段138巷45號","121.395373333333","24.9333816666667","6500900","三峽區"
"237005","AKY-6261","2018/08/17 20:09:26","新北市三峽區三樹路98巷56號","121.383686666667","24.9381633333333","6500900","三峽區"
"236069","105-UM","2018/08/17 20:09:34","新北市土城區中央路三段183-9號","121.431416666667","24.96484","6501300","土城區"
"236042","107-UM","2018/08/17 20:09:23","新北市土城區學府路一段163號","121.453088333333","24.98587","6501300","土城區"
"236079","166-UM","2018/08/17 20:09:35","新北市土城區中山路47號","121.420525","24.96284","6501300","土城區"
"236030","253-BX","2018/08/17 20:09:29","新北市土城區中央路一段145號","121.446716666667","24.987965","6501300","土城區"
"236026","269-VK","2018/08/17 20:09:34","新北市土城區裕生路106號","121.446556666667","24.9846166666667","6501300","土城區"
"236014","270-VK","2018/08/17 20:09:32","新北市土城區廣明街41巷1弄17號","121.455251666667","24.9925533333333","6501300","土城區"
"236039","271-VK","2018/08/17 20:09:43","新北市土城區延吉街363巷8號","121.464215","24.983475","6501300","土城區"
"236020","401-BY","2018/08/17 20:09:47","新北市土城區延吉街41號","121.472393333333","24.9880166666667","6501300","土城區"
"236059","912-UM","2018/08/17 20:09:48","新北市土城區中央路二段378號","121.439826666667","24.971345","6501300","土城區"
"236048","913-UM","2018/08/17 20:09:44","新北市土城區清水路294號","121.46247","24.9837533333333","6501300","土城區"
"236055","AAC-216","2018/08/17 20:09:38","新北市土城區中華路一段178號","121.441131666667","24.9825733333333","6501300","土城區"
"242058","986-R7","2018/08/17 20:09:32","新北市新莊區八德街87號","121.424533333333","25.021605","6500500","新莊區"
"242027","615-BX","2018/08/17 20:09:36","新北市新莊區幸福路798號","121.446338333333","25.0490833333333","6500500","新莊區"
"242025","613-BX","2018/08/17 20:07:03","新北市新莊區五權一路12巷25弄19號","121.458523333333","25.0647066666667","6500500","新莊區"
"242041","566-BX","2018/08/17 20:09:35","新北市新莊區壽山路57-10號","121.41173","25.0322633333333","6500500","新莊區"
"242046","497-BY","2018/08/17 20:09:46","新北市新莊區裕民街85巷22弄1號","121.419531666667","25.022965","6500500","新莊區"
"242054","442-UM","2018/08/17 20:09:42","新北市新莊區西盛街387巷34弄5號","121.428511666667","25.0129066666667","6500500","新莊區"
"242050","441-UM","2018/08/17 20:09:44","新北市新莊區民安西路172巷2弄2號","121.425793333333","25.01606","6500500","新莊區"
"242056","440-UM","2018/08/17 20:09:29","新北市新莊區新莊路649巷15弄1號","121.445058333333","25.03154","6500500","新莊區"
"242037","415-TV","2018/08/17 20:09:42","新北市新莊區建安街19號","121.428896666667","25.0261783333333","6500500","新莊區"
"242007","413-TV","2018/08/17 20:09:35","新北市新莊區福壽街164巷19號","121.459238333333","25.0528766666667","6500500","新莊區"
"242044","400-BY","2018/08/17 20:09:46","新北市新莊區中正路895-16號","121.41278","25.02118","6500500","新莊區"
"242023","362-BY","2018/08/17 20:09:41","新北市新莊區化成路708號","121.46579","25.0566616666667","6500500","新莊區"
"242060","353-BY","2018/08/17 20:09:36","新北市新莊區瓊林路瓊英巷4弄2號","121.443615","25.0274516666667","6500500","新莊區"
"242009","132-UY","2018/08/17 20:09:46","新北市新莊區昌隆街30號","121.454143333333","25.05073","6500500","新莊區"
"242039","133-UY","2018/08/17 20:09:40","新北市新莊區龍安路481號","121.42556","25.0180633333333","6500500","新莊區"
"242032","135-UY","2018/08/17 20:09:46","新北市新莊區中正路499號","121.44067","25.0336316666667","6500500","新莊區"
"242048","172-VK","2018/08/17 20:09:31","新北市新莊區四維路182巷4號","121.42201","25.0218533333333","6500500","新莊區"
"242011","173-VK","2018/08/17 20:09:39","新北市新莊區中信街67巷5號","121.448791666667","25.0507066666667","6500500","新莊區"
"242017","175-VK","2018/08/17 20:09:42","新北市新莊區中港一街8號","121.451743333333","25.0456833333333","6500500","新莊區"
"242005","176-VK","2018/08/17 20:09:42","新北市新莊區頭興街1-8號","121.463553333333","25.0535533333333","6500500","新莊區"
"242015","346-TH","2018/08/17 20:09:50","新北市新莊區中平路26巷51號","121.447268333333","25.043495","6500500","新莊區"
"242021","347-TH","2018/08/17 20:09:43","新北市新莊區建中街28號","121.449028333333","25.0375533333333","6500500","新莊區"
"242002","349-TH","2018/08/17 20:09:39","新北市新莊區中正路121-1號","121.459933333333","25.0385383333333","6500500","新莊區"
"242019","350-TH","2018/08/17 20:09:46","新北市新莊區民樂街79號","121.457978333333","25.0428866666667","6500500","新莊區"
"221008","489-VK","2018/08/17 20:09:38","台北市內湖區康樂街63號","121.61839","25.06858","6501100","汐止區"
"221036","130-UY","2018/08/17 20:09:38","新北市汐止區新台五路二段78-1號","121.662028333333","25.06588","6501100","汐止區"
"221015","131-UY","2018/08/17 20:09:36","新北市汐止區建成路33號","121.663913333333","25.072745","6501100","汐止區"
"221010","269-BY","2018/08/17 20:09:43","新北市汐止區八連路二段161號","121.635461666667","25.0948633333333","6501100","汐止區"
"221012","278-VK","2018/08/17 20:09:31","新北市汐止區汐平路二段43號","121.696316666667","25.063665","6501100","汐止區"
"221023","279-VK","2018/08/17 20:09:40","新北市汐止區明峰街298巷7弄1號","121.62496","25.068795","6501100","汐止區"
"221032","280-BY","2018/08/17 20:09:35","新北市汐止區弘道街8巷5弄5號","121.617316666667","25.0478866666667","6501100","汐止區"
"221027","281-BY","2018/08/17 20:09:27","新北市汐止區光明街28號","121.660186666667","25.0686633333333","6501100","汐止區"
"221029","298-VK","2018/08/17 20:09:47","新北市汐止區樟樹一路119巷10弄1號","121.641245","25.06462","6501100","汐止區"
"221021","299-VK","2018/08/17 20:09:37","新北市汐止區連興街122號","121.653698333333","25.0622683333333","6501100","汐止區"
"221031","353-TW","2018/08/17 20:09:46","新北市汐止區原興路74巷2號","121.632143333333","25.0661383333333","6501100","汐止區"
"221002","129-UY","2018/08/17 20:09:36","新北市汐止區工建路332號","121.633466666667","25.05962","6501100","汐止區"
"221035","622-UM","2018/08/17 20:09:46","新北市汐止區長江街79巷2號","121.657131666667","25.0725216666667","6501100","汐止區"
"221025","623-UM","2018/08/17 20:09:45","新北市汐止區水源路一段250號","121.654083333333","25.0600983333333","6501100","汐止區"
"221038","646-BX","2018/08/17 20:09:50","新北市汐止區橋東街5巷1號","121.667041666667","25.0759583333333","6501100","汐止區"
"221033","647-BX","2018/08/17 20:09:37","新北市汐止區東勢街201巷102號","121.633646666667","25.04297","6501100","汐止區"
"221018","753-BX","2018/08/17 20:09:49","新北市汐止區茄福街35巷39號","121.673518333333","25.0660833333333","6501100","汐止區"
"220101","245-BX","2018/08/17 19:57:40","新北市板橋區縣民大道三段91號","121.47578","25.0220033333333","6500100","板橋區"
"220083","286-VK","2018/08/17 20:09:36","新北市板橋區僑中二街104巷21號","121.445123333333","25.007955","6500100","板橋區"
"220081","287-VK","2018/08/17 20:09:43","新北市板橋區僑中一街80巷5弄17號","121.447016666667","25.01244","6500100","板橋區"
"220061","293-UM","2018/08/17 20:09:34","新北市板橋區縣民大道二段200巷11號","121.47003","25.017345","6500100","板橋區"
"220092","299-UM","2018/08/17 20:09:48","新北市板橋區文化路一段45巷9號","121.460256666667","25.0138233333333","6500100","板橋區"
"220064","486-VK","2018/08/17 20:09:35","新北市板橋區海山路17號","121.468991666667","25.00928","6500100","板橋區"
"242013","280-VK","2018/08/17 20:09:44","新北市新莊區中信街63巷4弄2號","121.448976666667","25.050375","6500500","新莊區"
"220088","491-VK","2018/08/17 20:09:30","新北市板橋區萬板路706號","121.481491666667","25.0275033333333","6500100","板橋區"
"220103","561-BX","2018/08/17 20:09:47","新北市板橋區陽明街79號","121.464016666667","25.0230033333333","6500100","板橋區"
"220093","689-BX","2018/08/17 20:09:43","新北市板橋區新海路466號","121.457678333333","25.0284966666667","6500100","板橋區"
"220102","KEA-2699","2018/08/17 20:09:38","新北市板橋區民治街132號","121.4777","25.03083","6500100","板橋區"
"220055","827-TW","2018/08/17 20:09:49","新北市板橋區忠孝路48巷11弄8號","121.46175","24.99981","6500100","板橋區"
"220067","829-TW","2018/08/17 20:09:47","新北市板橋區中山路一段206巷79號","121.471745","25.0132283333333","6500100","板橋區"
"220068","830-TW","2018/08/17 20:09:45","新北市板橋區中山路二段318巷2弄12號","121.480531666667","25.019355","6500100","板橋區"
"220089","833-TW","2018/08/17 20:09:43","新北市板橋區互助街1號","121.463161666667","25.027705","6500100","板橋區"
"220074","895-R6","2018/08/17 20:09:36","新北市板橋區南門街79號","121.45694","25.00788","6500100","板橋區"
"220097","AAC-210","2018/08/17 20:09:49","新北市板橋區建國街124號","121.461201666667","25.01752","6500100","板橋區"
"220070","AAC-253","2018/08/17 20:09:44","新北市板橋區四川路二段245巷55弄1號","121.452453333333","24.99251","6500100","板橋區"
"235068","KEA-2873","2018/08/17 20:09:43","新北市中和區福祥路72號","121.499248333333","25.00545","6500300","中和區"
