"lineid","car","time","location","longitude","latitude","cityid","cityname"
"234044","148-BY","2018/07/11 13:29:24","新北市永和區秀朗路二段218號","121.526218333333","24.9998633333333","6500400","永和區"
"234005","207-UY","2018/07/11 13:29:17","新北市永和區中山路一段76號","121.512281666667","25.0107766666667","6500400","永和區"
"234078","298-R6","2018/07/11 13:29:22","新北市永和區環河東路三段52巷7號","121.526376666667","25.00593","6500400","永和區"
"234036","336-UY","2018/07/11 13:29:30","新北市永和區成功路二段1巷4號","121.52713","25.0014033333333","6500400","永和區"
"234062","337-UY","2018/07/11 13:29:26","新北市永和區得和路243巷20號","121.52074","25.0009366666667","6500400","永和區"
"234068","552-UM","2018/07/11 13:29:28","新北市永和區中興街50號","121.51687","25.01163","6500400","永和區"
"234084","553-UM","2018/07/11 13:29:18","新北市永和區永亨路165巷8號","121.526176666667","25.0040816666667","6500400","永和區"
"234015","745-BX","2018/07/11 13:29:13","新北市永和區環河西路一段73號","121.513298333333","25.01809","6500400","永和區"
"234028","746-BX","2018/07/11 13:29:18","新北市永和區民生路69號","121.522688333333","24.9971733333333","6500400","永和區"
"234052","KEA-2590","2018/07/11 13:29:19","新北市永和區竹林路23號","121.517246666667","25.0146216666667","6500400","永和區"
"234012","KEA-2591","2018/07/11 13:29:28","新北市永和區中山路一段211-1號","121.50867","25.00847","6500400","永和區"
"234060","AAD-866","2018/07/11 13:29:25","新北市永和區永貞路139號","121.516471666667","25.0041983333333","6500400","永和區"
"234040","862-TW","2018/07/11 13:29:27","新北市永和區中和路593號","121.51229","25.00406","6500400","永和區"
"234048","863-TW","2018/07/11 13:29:27","新北市永和區仁愛路149號","121.511313333333","25.01297","6500400","永和區"
"234025","9371-KE","2018/07/11 13:29:17","新北市永和區中山路一段17巷4弄16號","121.513115","25.0101533333333","6500400","永和區"
"234010","9373-KE","2018/07/11 13:29:29","新北市永和區信義路43巷25號","121.511976666667","25.011965","6500400","永和區"
"248019","225-UY","2018/07/11 13:29:30","新北市五股區孝義路55巷1號","121.45353","25.112125","6501500","五股區"
"234022","9380-KE","2018/07/11 13:29:12","新北市永和區竹林路91巷43弄2號","121.521301666667","25.0128666666667","6500400","永和區"
"234076","969-R7","2018/07/11 13:29:28","新北市永和區智光街33號","121.517945","24.998835","6500400","永和區"
"234072","AAC-211","2018/07/11 13:29:30","新北市永和區光復街60巷4弄20號","121.51727","25.01773","6500400","永和區"
"234066","AAC-212","2018/07/11 13:29:24","新北市永和區保平路129號","121.510583333333","25.0063433333333","6500400","永和區"
"234001","AAC-295","2018/07/11 13:29:27","新北市永和區永和路一段118號","121.513935","25.0078266666667","6500400","永和區"
"244022","483-VK","2018/07/11 13:29:32","新北市林口區文化一路一段57號","121.371461666667","25.0699433333333","6501700","林口區"
"231001","047-UY","2018/07/11 13:29:27","新北市新店區環河路29巷1號","121.53605","24.9611433333333","6500600","新店區"
"231026","256-BX","2018/07/11 13:29:21","新北市新店區光明街9號","121.538165","24.9594333333333","6500600","新店區"
"231037","4716-K9","2018/07/11 13:29:26","新北市新店區安豐路30-1號","121.500681666667","24.9568833333333","6500600","新店區"
"231032","720-UM","2018/07/11 13:29:22","新北市新店區安豐路60-1號","121.497861666667","24.9536033333333","6500600","新店區"
"231024","AKT-0513","2018/07/11 13:29:24","新北市新店區中正路170號","121.541238333333","24.972","6500600","新店區"
"235030","003-UY","2018/07/11 13:29:26","新北市中和區中山路二段120號","121.502648333333","25.0037866666667","6500300","中和區"
"235028","005-UY","2018/07/11 13:29:20","新北市中和區連城路139巷48號","121.49665","24.997465","6500300","中和區"
"235027","006-UY","2018/07/11 13:29:22","新北市中和區連城路347巷2號","121.488095","24.99584","6500300","中和區"
"235020","096-UM","2018/07/11 13:29:24","新北市中和區新民街97號","121.480806666667","25.0083183333333","6500300","中和區"
"235003","097-UM","2018/07/11 13:29:12","新北市中和區大勇街27巷31號","121.516145","24.993895","6500300","中和區"
"235029","098-UM","2018/07/11 13:29:13","新北市中和區莊敬路49巷20弄12號","121.50223","25.00596","6500300","中和區"
"235004","150-BY","2018/07/11 13:29:28","新北市中和區保健路50巷66號","121.509206666667","24.9952416666667","6500300","中和區"
"235022","151-BY","2018/07/11 13:29:26","新北市中和區員山路24-1號","121.483663333333","24.98551","6500300","中和區"
"235019","183-VK","2018/07/11 13:29:24","新北市中和區莒光路207號","121.470035","24.9954416666667","6500300","中和區"
"235002","185-VK","2018/07/11 13:29:19","新北市中和區秀朗路三段128巷17弄18號","121.523326666667","24.9933983333333","6500300","中和區"
"235013","186-VK","2018/07/11 13:29:23","新北市中和區景安路143號","121.505583333333","24.9954383333333","6500300","中和區"
"235031","255-BX","2018/07/11 13:29:27","新北市中和區新生街186巷5弄27號","121.482863333333","24.9987033333333","6500300","中和區"
"235008","293-VK","2018/07/11 13:29:22","新北市中和區復興路301巷7號","121.501558333333","24.9899683333333","6500300","中和區"
"235036","301-VK","2018/07/11 13:29:20","新北市中和區連城路263巷4弄10號","121.491716666667","24.9953483333333","6500300","中和區"
"235007","352-BY","2018/07/11 13:29:30","新北市中和區景平路259巷54號","121.506123333333","24.9929283333333","6500300","中和區"
"235006","KEA-2878","2018/07/11 13:29:25","新北市中和區秀朗路三段136號","121.524313333333","24.9918083333333","6500300","中和區"
"235014","4979-A6","2018/07/11 13:29:20","新北市中和區景新街410巷18弄22號","121.511798333333","24.989915","6500300","中和區"
"235033","4980-A6","2018/07/11 13:29:15","新北市中和區連城路127巷11號","121.49661","24.9984833333333","6500300","中和區"
"235034","558-UM","2018/07/11 13:29:29","新北市中和區南華路70號","121.505","24.99723","6500300","中和區"
"235009","565-BX","2018/07/11 13:29:26","新北市中和區南山路236巷24弄20號","121.504945","24.9890833333333","6500300","中和區"
"235018","640-BX","2018/07/11 13:29:31","新北市中和區莒光路129巷2弄24號","121.473028333333","25.001135","6500300","中和區"
"235024","647-TV","2018/07/11 13:29:29","新北市中和區員山路429號","121.48089","25.0036","6500300","中和區"
"235011","732-UM","2018/07/11 13:29:20","新北市中和區南山路300號","121.507903333333","24.9871033333333","6500300","中和區"
"235035","783-BX","2018/07/11 13:29:18","新北市中和區光環路二段39號","121.485311666667","25.01363","6500300","中和區"
"235026","800-TS","2018/07/11 13:29:18","新北市中和區中山路二段312巷47號","121.495171666667","25.0042933333333","6500300","中和區"
"235021","801-TS","2018/07/11 13:29:16","新北市中和區民安街42巷2號","121.479901666667","25.00067","6500300","中和區"
"235005","802-TS","2018/07/11 13:29:25","新北市中和區中和路324巷3弄3號","121.51001","25.0009766666667","6500300","中和區"
"235016","805-TS","2018/07/11 13:29:24","新北市中和區興南路二段96號","121.505071666667","24.984035","6500300","中和區"
"235017","900-TW","2018/07/11 13:29:18","新北市中和區民享街457號","121.470375","24.993175","6500300","中和區"
"235015","157-BY","2018/07/11 13:29:21","新北市中和區興南路二段114巷12號","121.503801666667","24.984515","6500300","中和區"
"235001","AAC-213","2018/07/11 13:29:26","新北市中和區景德街95-1號","121.515493333333","24.9912483333333","6500300","中和區"
"220013","072-UY","2018/07/11 13:29:27","新北市板橋區民權路39巷20號","121.461356666667","25.010595","6500100","板橋區"
"220017","AAD-861","2018/07/11 13:29:23","新北市板橋區華東街1-10號","121.44862","24.9948966666667","6500100","板橋區"
"228005","097-TW","2018/07/11 13:29:21","新北市貢寮區美豐里文秀坑8號","121.902586666667","25.0504233333333","6502600","貢寮區"
"228004","212-TW","2018/07/11 13:29:29","新北市貢寮區龍崗里石壁坑街17號","121.910393333333","24.9894666666667","6502600","貢寮區"
"253003","6232-TK","2018/07/11 13:29:14","新北市石門區內石門18號","121.573041666667","25.2753733333333","6502200","石門區"
"253001","6251-TK","2018/07/11 13:29:29","新北市石門區白沙灣別墅37號","121.50945","25.2785316666667","6502200","石門區"
"253002","637-UY","2018/07/11 13:29:12","新北市石門區豬槽潭2-1號","121.555853333333","25.2663483333333","6502200","石門區"
"253004","8270-PC","2018/07/11 13:29:15","新北市石門區竹子湖11號","121.617963333333","25.258685","6502200","石門區"
"242058","986-R7","2018/07/11 13:29:29","新北市新莊區中正路636號","121.421931666667","25.0287066666667","6500500","新莊區"
"242054","751-BX","2018/07/11 13:29:26","新北市新莊區瓊林南路305巷1號","121.43468","25.0056133333333","6500500","新莊區"
"242027","615-BX","2018/07/11 13:29:23","新北市新莊區思源路32號","121.46019","25.040795","6500500","新莊區"
"242025","613-BX","2018/07/11 13:29:29","新北市新莊區復興路二段28號","121.4547","25.0440433333333","6500500","新莊區"
"242029","612-BX","2018/07/11 13:29:30","新北市新莊區復興路二段172號","121.458475","25.044325","6500500","新莊區"
"242042","566-BX","2018/07/11 13:29:27","新北市新莊區新樹路113巷21號","121.439348333333","25.02638","6500500","新莊區"
"242046","497-BY","2018/07/11 13:29:28","新北市新莊區福營路88號","121.437855","25.0326016666667","6500500","新莊區"
"242051","441-UM","2018/07/11 13:29:24","新北市新莊區西盛街201巷16號","121.429116666667","25.01689","6500500","新莊區"
"242037","415-TV","2018/07/11 13:29:25","新北市新莊區後港一路201號","121.434356666667","25.0283266666667","6500500","新莊區"
"242007","413-TV","2018/07/11 13:29:21","新北市新莊區自信街71號","121.455633333333","25.04827","6500500","新莊區"
"242044","400-BY","2018/07/11 13:29:22","新北市新莊區富國路17號","121.418451666667","25.0264166666667","6500500","新莊區"
"242023","362-BY","2018/07/11 13:29:31","新北市新莊區公園路59號","121.453795","25.0402233333333","6500500","新莊區"
"242061","353-BY","2018/07/11 13:29:30","新北市新莊區瓊林南路171-5號","121.433865","25.0110033333333","6500500","新莊區"
"242009","132-UY","2018/07/11 13:29:22","新北市新莊區福壽街200號","121.458156666667","25.0536766666667","6500500","新莊區"
"242039","133-UY","2018/07/11 13:29:22","新北市新莊區民安東路45號","121.429221666667","25.0210016666667","6500500","新莊區"
"242032","135-UY","2018/07/11 13:29:26","新北市新莊區新泰路369巷9號","121.443346666667","25.04327","6500500","新莊區"
"242048","172-VK","2018/07/11 13:29:24","新北市新莊區四維路212巷22號","121.420865","25.0202983333333","6500500","新莊區"
"242017","175-VK","2018/07/11 13:29:15","新北市新莊區德豐街1-1號","121.451585","25.044265","6500500","新莊區"
"242005","176-VK","2018/07/11 13:29:31","新北市新莊區中港路282號","121.453036666667","25.04413","6500500","新莊區"
"242015","346-TH","2018/07/11 13:29:22","新北市新莊區新泰路164號","121.44752","25.0376316666667","6500500","新莊區"
"242002","349-TH","2018/07/11 13:29:15","新北市新莊區新莊路211號","121.455303333333","25.0354566666667","6500500","新莊區"
"242019","350-TH","2018/07/11 13:29:30","新北市新莊區中港路108號","121.455381666667","25.0397266666667","6500500","新莊區"
"242013","351-TH","2018/07/11 13:29:27","新北市新莊區中誠街97號","121.449961666667","25.0476233333333","6500500","新莊區"
"238010","601-UM","2018/07/11 13:29:16","新北市樹林區三福街25號","121.408608333333","25.016675","6500700","樹林區"
"238006","599-UM","2018/07/11 13:29:26","新北市樹林區太平路141號","121.41917","24.9802083333333","6500700","樹林區"
"238018","571-TV","2018/07/11 13:29:31","新北市樹林區保安街一段7號","121.426708333333","24.9935966666667","6500700","樹林區"
"238011","5061-A6","2018/07/11 13:29:17","新北市樹林區鎮前街70-2號","121.425183333333","24.99219","6500700","樹林區"
"238009","KEA-2213","2018/07/11 13:29:25","新北市樹林區和平街16號","121.42187","24.9811616666667","6500700","樹林區"
"238008","KEA-2539","2018/07/11 13:29:14","新北市樹林區柑園街一段253巷5號","121.395813333333","24.9560733333333","6500700","樹林區"
"238025","303-VK","2018/07/11 13:29:18","新北市樹林區俊興街211巷5號","121.4171","25.014475","6500700","樹林區"
"238001","283-BY","2018/07/11 13:29:29","新北市樹林區三德街16號","121.413556666667","25.012865","6500700","樹林區"
"238001","282-BY","2018/07/11 13:29:21","新北市樹林區保安街一段247號","121.419815","24.9966783333333","6500700","樹林區"
"238007","268-VK","2018/07/11 13:29:21","新北市樹林區俊英街166巷12號","121.427081666667","25.0071916666667","6500700","樹林區"
"238013","172-UY","2018/07/11 13:29:26","新北市樹林區味王街46巷36號","121.402423333333","24.9735916666667","6500700","樹林區"
"221008","489-VK","2018/07/11 13:29:17","新北市汐止區康寧街901號","121.651443333333","25.0750216666667","6501100","汐止區"
"221036","130-UY","2018/07/11 13:29:25","新北市汐止區長興街一段50號","121.670863333333","25.0797183333333","6501100","汐止區"
"221015","131-UY","2018/07/11 13:29:14","新北市汐止區鄉長路二段23巷2號","121.666998333333","25.0827883333333","6501100","汐止區"
"221010","269-BY","2018/07/11 13:29:15","新北市汐止區汐萬路二段245巷13號","121.645335","25.08755","6501100","汐止區"
"221012","278-VK","2018/07/11 13:29:24","新北市汐止區保長路35巷20號","121.673275","25.080035","6501100","汐止區"
"221032","280-BY","2018/07/11 13:29:19","新北市汐止區力行街17號","121.617073333333","25.0508083333333","6501100","汐止區"
"221027","281-BY","2018/07/11 13:29:19","新北市汐止區和平街84號","121.66142","25.0707583333333","6501100","汐止區"
"221033","297-VK","2018/07/11 13:29:14","新北市汐止區宜興街37巷2號","121.622555","25.0425833333333","6501100","汐止區"
"221029","298-VK","2018/07/11 13:29:15","新北市汐止區樟樹二路316巷1號","121.641565","25.0699433333333","6501100","汐止區"
"221021","299-VK","2018/07/11 13:29:31","新北市汐止區連興街52號","121.653883333333","25.0629933333333","6501100","汐止區"
"221031","353-TW","2018/07/11 13:29:17","新北市汐止區中興路110巷3號","121.633133333333","25.0639816666667","6501100","汐止區"
"221035","622-UM","2018/07/11 13:29:26","新北市汐止區大同路二段169巷40-1號","121.650356666667","25.0652066666667","6501100","汐止區"
"221025","623-UM","2018/07/11 13:29:26","新北市汐止區勤進路12巷31號","121.659146666667","25.062465","6501100","汐止區"
"221038","646-BX","2018/07/11 13:29:22","新北市汐止區汐萬路一段81號","121.654598333333","25.0703166666667","6501100","汐止區"
"221018","753-BX","2018/07/11 13:29:22","新北市汐止區茄苳路202號","121.670433333333","25.0690283333333","6501100","汐止區"
"220027","145-BY","2018/07/11 13:29:13","新北市板橋區華東街1-10號","121.44834","24.9950983333333","6500100","板橋區"
"220028","200-UY","2018/07/11 13:29:15","新北市板橋區華東街1-9號","121.448141666667","24.9948666666667","6500100","板橋區"
"220030","610-BX","2018/07/11 13:29:16","新北市板橋區華東街1-10號","121.448326666667","24.9949616666667","6500100","板橋區"
"220019","283-VK","2018/07/11 13:29:22","新北市板橋區華東街1-9號","121.448095","24.994955","6500100","板橋區"
"220043","285-UM","2018/07/11 13:29:20","新北市板橋區民生路二段161巷1號","121.470025","25.0198366666667","6500100","板橋區"
"220031","286-VK","2018/07/11 13:29:20","新北市板橋區華東街1-10號","121.448351666667","24.9950766666667","6500100","板橋區"
"220029","287-VK","2018/07/11 13:29:18","新北市板橋區華東街1-10號","121.448245","24.9950266666667","6500100","板橋區"
"220032","296-UM","2018/07/11 13:29:16","新北市板橋區華東街1-9號","121.44816","24.9949383333333","6500100","板橋區"
"220023","303-R5","2018/07/11 13:29:16","新北市板橋區華東街1-10號","121.448283333333","24.9949183333333","6500100","板橋區"
"220010","305-R5","2018/07/11 13:29:15","新北市板橋區民生路二段120號","121.470375","25.0196866666667","6500100","板橋區"
"220012","486-VK","2018/07/11 13:29:27","新北市板橋區南雅南路二段122-2號","121.451478333333","24.9986016666667","6500100","板橋區"
"242056","280-VK","2018/07/11 13:29:32","新北市新莊區新莊路453號","121.449683333333","25.0332316666667","6500500","新莊區"
"220104","560-BX","2018/07/11 13:29:13","新北市板橋區南雅南路二段118號","121.453123333333","25.000035","6500100","板橋區"
"220020","568-UM","2018/07/11 13:29:19","新北市板橋區華東街1-10號","121.44826","24.995105","6500100","板橋區"
"220034","630-UY","2018/07/11 13:29:12","新北市板橋區板城路421號","121.44841","24.9958716666667","6500100","板橋區"
"220002","741-BX","2018/07/11 13:29:27","新北市板橋區華東街1-9號","121.448096666667","24.9948783333333","6500100","板橋區"
"220025","806-UM","2018/07/11 13:29:30","新北市板橋區大觀路三段231號","121.430613333333","24.9922483333333","6500100","板橋區"
"220003","827-TW","2018/07/11 13:29:16","新北市板橋區華東街1-8號","121.447625","24.9949316666667","6500100","板橋區"
"220014","829-TW","2018/07/11 13:29:27","新北市板橋區民生路二段161巷1號","121.470288333333","25.0199366666667","6500100","板橋區"
"220022","895-R6","2018/07/11 13:29:29","新北市板橋區南雅南路二段146號","121.451593333333","24.9961333333333","6500100","板橋區"
"220021","985-R7","2018/07/11 13:29:27","新北市板橋區華東街1-10號","121.448336666667","24.994955","6500100","板橋區"
"235032","KEA-2873","2018/07/11 13:29:21","新北市中和區中正路271-4號","121.495828333333","24.9934233333333","6500300","中和區"
"235025","KEA-2875","2018/07/11 13:29:02","新北市中和區民享街90巷7號","121.474543333333","25.000255","6500300","中和區"
