"lineid","car","time","location","longitude","latitude","cityid","cityname"
"234042","862-TW","2018/07/11 17:19:27","新北市永和區福和路1號","121.526441666667","25.0097983333333","6500400","永和區"
"249005","172-UM","2018/07/11 17:19:30","新北市五股區中直路崩山巷9-2號","121.417363333333","25.12452","6502300","八里區"
"249001","173-UM","2018/07/11 17:19:17","新北市八里區中華路二段165巷2-1號","121.407631666667","25.1508466666667","6502300","八里區"
"249004","303-UY","2018/07/11 17:19:29","新北市八里區文化街125號","121.422373333333","25.1600316666667","6502300","八里區"
"249002","305-UY","2018/07/11 17:19:18","新北市八里區龍米路二段117巷29-1號","121.44625","25.1428966666667","6502300","八里區"
"249003","593-UM","2018/07/11 17:19:28","新北市八里區中山路二段449號","121.396591666667","25.14569","6502300","八里區"
"244007","080-UY","2018/07/11 17:19:18","新北市林口區菁埔17鄰25號","121.377328333333","25.0965866666667","6501700","林口區"
"244019","403-UM","2018/07/11 17:19:28","新北市林口區文化二路一段384號","121.374536666667","25.07668","6501700","林口區"
"244013","742-UY","2018/07/11 17:19:22","新北市林口區粉寮69號","121.405005","25.09087","6501700","林口區"
"244009","410-SL","2018/07/11 17:19:19","新北市林口區文化一路二段309號","121.385843333333","25.08594","6501700","林口區"
"244023","483-VK","2018/07/11 17:19:32","新北市林口區隆林街20號","121.388863333333","25.0753966666667","6501700","林口區"
"244017","485-VK","2018/07/11 17:19:18","新北市林口區粉寮路二段160巷28號","121.40512","25.0907683333333","6501700","林口區"
"244011","657-BX","2018/07/11 17:19:28","新北市林口區仁愛路一段285巷116號","121.395211666667","25.0758666666667","6501700","林口區"
"244025","837-TS","2018/07/11 17:19:34","新北市林口區仁愛二路96號","121.368453333333","25.0755766666667","6501700","林口區"
"243010","267-VK","2018/07/11 17:19:33","新北市泰山區黎明路25號","121.421896666667","25.0607866666667","6501600","泰山區"
"231010","188-VK","2018/07/11 17:19:20","新北市新店區直潭路92號","121.530925","24.93758","6500600","新店區"
"241028","022-UY","2018/07/11 17:19:28","新北市三重區中正南路83號","121.494273333333","25.0584916666667","6500200","三重區"
"241008","059-VK","2018/07/11 17:19:22","新北市三重區永福街249號","121.481135","25.0742883333333","6500200","三重區"
"241022","060-VK","2018/07/11 17:19:27","新北市三重區重陽路二段34巷46號","121.485643333333","25.0638733333333","6500200","三重區"
"241015","062-VK","2018/07/11 17:19:33","新北市三重區長元街82-1號","121.50187","25.0662783333333","6500200","三重區"
"241024","065-VK","2018/07/11 17:19:23","新北市三重區中正北路193巷21弄26號","121.477881666667","25.0707983333333","6500200","三重區"
"241026","066-VK","2018/07/11 17:19:33","新北市三重區福裕街44號","121.49858","25.06149","6500200","三重區"
"241002","090-VK","2018/07/11 17:19:30","新北市三重區自強路五段35號","121.493723333333","25.0811433333333","6500200","三重區"
"241003","091-VK","2018/07/11 17:19:18","新北市三重區富福街52號","121.49174","25.0843733333333","6500200","三重區"
"241005","262-UM","2018/07/11 17:19:29","新北市三重區仁愛街697號","121.48302","25.0809466666667","6500200","三重區"
"241016","266-UM","2018/07/11 17:19:24","新北市三重區大同北路97-3號","121.494405","25.0636416666667","6500200","三重區"
"241009","267-UM","2018/07/11 17:19:25","新北市三重區仁愛街618號","121.483565","25.0806516666667","6500200","三重區"
"241018","268-UM","2018/07/11 17:19:33","新北市三重區安慶街97號","121.495415","25.0691316666667","6500200","三重區"
"241032","269-UM","2018/07/11 17:19:16","新北市三重區興華街115號","121.483725","25.0598133333333","6500200","三重區"
"241025","271-UM","2018/07/11 17:19:31","新北市三重區中正北路233號","121.475858333333","25.0703966666667","6500200","三重區"
"241007","398-BY","2018/07/11 17:19:34","新北市三重區三和路四段155巷8號","121.483908333333","25.0786016666667","6500200","三重區"
"241004","475-VK","2018/07/11 17:19:21","新北市三重區碧華街418號","121.492271666667","25.0852933333333","6500200","三重區"
"241030","480-VK","2018/07/11 17:19:34","新北市三重區成功路73巷13號","121.489508333333","25.0519716666667","6500200","三重區"
"241014","543-UM","2018/07/11 17:19:31","新北市三重區長榮路6號","121.500093333333","25.068555","6500200","三重區"
"241023","545-UM","2018/07/11 17:19:31","新北市三重區忠孝路三段46-1號","121.480893333333","25.0660083333333","6500200","三重區"
"241001","547-UM","2018/07/11 17:19:21","新北市三重區仁愛街269巷30號","121.493926666667","25.0793016666667","6500200","三重區"
"241019","KEA-2593","2018/07/11 17:19:28","新北市三重區忠孝路二段1號","121.487121666667","25.0715433333333","6500200","三重區"
"241006","AAD-863","2018/07/11 17:19:18","新北市三重區車路頭街135-1號","121.484251666667","25.0761533333333","6500200","三重區"
"241012","941-UM","2018/07/11 17:19:20","新北市三重區仁壽街184號","121.500563333333","25.074695","6500200","三重區"
"241029","942-UM","2018/07/11 17:19:30","新北市三重區新北大道一段117號","121.48333","25.06118","6500200","三重區"
"241033","AAC-255","2018/07/11 17:19:22","新北市新莊區化成路630巷19弄12號","121.467306666667","25.055915","6500200","三重區"
"235064","005-UY","2018/07/11 17:19:19","新北市中和區員山路36巷16-3號","121.48482","24.9911933333333","6500300","中和區"
"247024","893-R6","2018/07/11 17:19:33","新北市蘆洲區長榮路394號","121.459696666667","25.0873883333333","6501400","蘆洲區"
"247014","546-UM","2018/07/11 17:19:26","新北市蘆洲區中正路73號","121.47033","25.083185","6501400","蘆洲區"
"247022","500-BY","2018/07/11 17:19:28","新北市蘆洲區三民路128巷28號","121.47071","25.0883833333333","6501400","蘆洲區"
"247010","341-TH","2018/07/11 17:19:21","新北市蘆洲區中山一路120巷7弄2號","121.477485","25.081885","6501400","蘆洲區"
"247012","339-TH","2018/07/11 17:19:15","新北市蘆洲區信義路319巷10弄3號","121.477463333333","25.0864233333333","6501400","蘆洲區"
"247004","337-TH","2018/07/11 17:19:23","新北市蘆洲區永安南路二段276號","121.45818","25.0809583333333","6501400","蘆洲區"
"247006","336-TH","2018/07/11 17:19:24","新北市蘆洲區永安南路二段152號","121.461798333333","25.0788116666667","6501400","蘆洲區"
"247018","057-VK","2018/07/11 17:19:17","新北市蘆洲區復興路87巷16號","121.476075","25.0879866666667","6501400","蘆洲區"
"247008","056-VK","2018/07/11 17:19:29","新北市蘆洲區永安北路一段72巷16號","121.476726666667","25.0771916666667","6501400","蘆洲區"
"247016","007-UY","2018/07/11 17:19:29","新北市蘆洲區正和街65號","121.468758333333","25.0811083333333","6501400","蘆洲區"
"247002","002-UY","2018/07/11 17:19:19","新北市蘆洲區永樂街38巷33弄14號","121.457451666667","25.08965","6501400","蘆洲區"
"247020","001-UY","2018/07/11 17:19:33","新北市蘆洲區民族路446-4號","121.472606666667","25.0921166666667","6501400","蘆洲區"
"228003","097-TW","2018/07/11 17:19:18","新北市貢寮區福隆里興隆街36號","121.941605","25.0170833333333","6502600","貢寮區"
"228001","212-TW","2018/07/11 17:19:30","新北市貢寮區仁理村尖山腳街18-3號","121.925481666667","25.04831","6502600","貢寮區"
"228002","663-BX","2018/07/11 17:19:31","新北市貢寮區雙玉里下雙溪街28號","121.924741666667","25.0114916666667","6502600","貢寮區"
"224006","676-BX","2018/07/11 17:19:27","新北市瑞芳區傑魚坑路245巷2號","121.78845","25.1063133333333","6501200","瑞芳區"
"224008","285-BY","2018/07/11 17:19:15","新北市瑞芳區侯硐路152-1號","121.826555","25.08414","6501200","瑞芳區"
"224007","275-VK","2018/07/11 17:19:27","新北市瑞芳區頂坪路工業區131號","121.783255","25.0965133333333","6501200","瑞芳區"
"224009","273-VK","2018/07/11 17:19:21","新北市瑞芳區汽車路9-12號","121.845785","25.110955","6501200","瑞芳區"
"224005","271-BY","2018/07/11 17:19:30","新北市瑞芳區南雅路1號","121.895163333333","25.11987","6501200","瑞芳區"
"227008","642-TC","2018/07/11 17:19:20","新北市雙溪區三貂里定福路1號","121.849301666667","25.0642583333333","6502500","雙溪區"
"227001","400-TW","2018/07/11 17:19:30","新北市雙溪區上林里內平林90號","121.82754","25.0274666666667","6502500","雙溪區"
"251009","008-UM","2018/07/11 17:19:20","新北市淡水區三民街20號","121.439038333333","25.1717783333333","6501000","淡水區"
"251004","009-UM","2018/07/11 17:18:17","新北市淡水區中正東路二段88巷15號","121.459098333333","25.1505133333333","6501000","淡水區"
"251013","KEA-2871","2018/07/11 17:19:32","新北市淡水區演戲埔腳8號","121.47357","25.1954916666667","6501000","淡水區"
"251016","179-VK","2018/07/11 17:19:34","新北市淡水區鄒厝崙14號","121.4617","25.1905266666667","6501000","淡水區"
"251014","180-VK","2018/07/11 17:19:27","新北市淡水區公埔子5-1號","121.466695","25.226415","6501000","淡水區"
"251015","181-VK","2018/07/11 17:19:32","新北市淡水區三空泉18號","121.474473333333","25.1661266666667","6501000","淡水區"
"251010","413-VK","2018/07/11 17:19:17","新北市淡水區中正路二段208號","121.426248333333","25.18914","6501000","淡水區"
"251012","441-VK","2018/07/11 17:19:36","新北市淡水區中山北路一段158號","121.444301666667","25.1779033333333","6501000","淡水區"
"251008","442-VK","2018/07/11 17:19:32","新北市淡水區大同路233號","121.465656666667","25.142165","6501000","淡水區"
"251005","443-VK","2018/07/11 17:19:26","新北市淡水區鄧公路19號","121.45141","25.1700133333333","6501000","淡水區"
"251006","561-UM","2018/07/11 17:19:35","新北市淡水區中山路189號","121.4412","25.17449","6501000","淡水區"
"251007","577-R6","2018/07/11 17:19:21","新北市淡水區民生路47-4號","121.462041666667","25.13806","6501000","淡水區"
"251011","650-BX","2018/07/11 17:19:25","新北市淡水區坪頂路128號","121.465166666667","25.1610916666667","6501000","淡水區"
"251002","672-BX","2018/07/11 17:19:27","新北市淡水區中正路二段31號","121.419358333333","25.1816083333333","6501000","淡水區"
"251003","766-UM","2018/07/11 17:19:28","新北市淡水區中正路二段31號","121.41952","25.18148","6501000","淡水區"
"207003","550-UM","2018/07/11 17:19:35","新北市萬里區萬里里獅頭路23號","121.69328","25.1782633333333","6502800","萬里區"
"252002","178-VK","2018/07/11 17:19:22","新北市三芝區忠孝街1-14號","121.505478333333","25.253935","6502100","三芝區"
"252001","292-VK","2018/07/11 17:19:32","新北市三芝區長安街119號","121.498068333333","25.259645","6502100","三芝區"
"237012","275-BY","2018/07/11 17:19:37","新北市三峽區中山路459巷137號","121.349938333333","24.93394","6500900","三峽區"
"242034","AAC-296","2018/07/11 17:15:22","新北市新莊區新泰路361巷23號","121.442383333333","25.04283","6500500","新莊區"
"242058","986-R7","2018/07/11 17:19:21","新北市新莊區中正路400號","121.441625","25.0339383333333","6500500","新莊區"
"242054","751-BX","2018/07/11 17:19:36","新北市新莊區環河路636-7號","121.436821666667","25.011345","6500500","新莊區"
"242027","615-BX","2018/07/11 17:19:20","新北市新莊區中平路82巷29號","121.446233333333","25.04499","6500500","新莊區"
"242025","613-BX","2018/07/11 17:19:21","新北市新莊區復興路一段85號","121.4485","25.04272","6500500","新莊區"
"242029","612-BX","2018/07/11 17:19:21","新北市新莊區幸福路639號","121.45166","25.0491566666667","6500500","新莊區"
"242042","566-BX","2018/07/11 17:19:27","新北市新莊區中正路481號","121.441293333333","25.0338233333333","6500500","新莊區"
"242051","441-UM","2018/07/11 17:19:35","新北市新莊區瓊林南路42巷1-1號","121.435956666667","25.01783","6500500","新莊區"
"242037","415-TV","2018/07/11 17:19:38","新北市新莊區新樹路223號","121.435405","25.02309","6500500","新莊區"
"242007","413-TV","2018/07/11 17:19:23","新北市新莊區新泰路488號","121.442483333333","25.0459","6500500","新莊區"
"242044","400-BY","2018/07/11 17:19:28","新北市新莊區中正路695號","121.425913333333","25.0299616666667","6500500","新莊區"
"242023","362-BY","2018/07/11 17:19:32","新北市新莊區中平路82巷36-2號","121.446388333333","25.0449333333333","6500500","新莊區"
"242061","353-BY","2018/07/11 17:19:33","新北市新莊區中環路一段299號","121.442041666667","25.0323333333333","6500500","新莊區"
"242009","132-UY","2018/07/11 17:19:24","新北市新莊區中誠街168號","121.448075","25.0474333333333","6500500","新莊區"
"242039","133-UY","2018/07/11 17:19:35","新北市新莊區中正路481號","121.441383333333","25.0338333333333","6500500","新莊區"
"242032","135-UY","2018/07/11 17:19:19","新北市新莊區新泰路417-10號","121.442456666667","25.0447283333333","6500500","新莊區"
"242048","172-VK","2018/07/11 17:19:35","新北市新莊區龍安路116號","121.41898","25.02037","6500500","新莊區"
"242017","175-VK","2018/07/11 17:19:35","新北市新莊區中平路82巷29號","121.44622","25.0450366666667","6500500","新莊區"
"242005","176-VK","2018/07/11 17:19:22","新北市新莊區三和路12-10號","121.442243333333","25.0367383333333","6500500","新莊區"
"242015","346-TH","2018/07/11 16:52:17","新北市新莊區三和路12-17號","121.442216666667","25.03756","6500500","新莊區"
"242019","350-TH","2018/07/11 17:19:22","新北市新莊區中港路306號","121.452611666667","25.0450883333333","6500500","新莊區"
"242013","351-TH","2018/07/11 17:19:36","新北市新莊區新泰路421-9號","121.442551666667","25.0448116666667","6500500","新莊區"
"238015","755-BX","2018/07/11 17:19:19","新北市樹林區大安路267號","121.419015","24.9936916666667","6500700","樹林區"
"238023","601-UM","2018/07/11 17:19:34","新北市樹林區中正路433-2號","121.415053333333","25.008465","6500700","樹林區"
"238019","599-UM","2018/07/11 17:19:16","新北市樹林區八德街89號","121.420096666667","24.9813433333333","6500700","樹林區"
"238018","571-TV","2018/07/11 17:19:38","新北市樹林區鎮前街275-3號","121.419251666667","24.985475","6500700","樹林區"
"238024","5061-A6","2018/07/11 17:19:37","新北市樹林區鎮前街76號","121.425478333333","24.9922183333333","6500700","樹林區"
"238022","KEA-2213","2018/07/11 17:19:28","新北市樹林區信義街2號","121.42213","24.981595","6500700","樹林區"
"238021","KEA-2539","2018/07/11 17:19:29","新北市樹林區西圳街一段132-1號","121.397425","24.96367","6500700","樹林區"
"238025","303-VK","2018/07/11 17:19:28","新北市樹林區中山路一段73-1號","121.423593333333","24.99172","6500700","樹林區"
"238017","283-BY","2018/07/11 17:19:19","新北市樹林區中正路248巷16號","121.418201666667","25.007855","6500700","樹林區"
"238014","282-BY","2018/07/11 17:19:30","新北市樹林區長壽街84號","121.420083333333","24.9956733333333","6500700","樹林區"
"238020","268-VK","2018/07/11 17:19:17","新北市樹林區千歲街101號","121.428528333333","25.0008716666667","6500700","樹林區"
"238026","172-UY","2018/07/11 17:19:32","新北市樹林區味王街46巷9號","121.403758333333","24.9737616666667","6500700","樹林區"
"239007","AAC-297","2018/07/11 17:19:37","新北市鶯歌區行政路93號","121.354443333333","24.9564666666667","6500800","鶯歌區"
"239006","891-R6","2018/07/11 17:19:32","新北市鶯歌區鶯桃路301號","121.333668333333","24.96065","6500800","鶯歌區"
"239008","527-UM","2018/07/11 17:19:34","新北市鶯歌區西湖街289巷5-1號","121.3404","24.9690733333333","6500800","鶯歌區"
"239005","526-UM","2018/07/11 17:19:34","新北市鶯歌區福德二街18號","121.329723333333","24.9672133333333","6500800","鶯歌區"
"239001","417-VK","2018/07/11 17:19:23","新北市鶯歌區尖山路173巷1-2號","121.345103333333","24.94735","6500800","鶯歌區"
"239003","360-BY","2018/07/11 17:19:29","新北市鶯歌區德昌街72號","121.332886666667","24.95992","6500800","鶯歌區"
"239002","359-BY","2018/07/11 17:19:24","新北市鶯歌區國慶街82號","121.35009","24.9545116666667","6500800","鶯歌區"
"239004","193-VK","2018/07/11 17:19:32","新北市鶯歌區文化路300號","121.352413333333","24.9467033333333","6500800","鶯歌區"
"242021","281-VK","2018/07/11 17:19:20","新北市新莊區明中街51巷1號","121.456856666667","25.0396066666667","6500500","新莊區"
"242056","280-VK","2018/07/11 17:19:18","新北市新莊區新泰路357巷3號","121.441918333333","25.0415483333333","6500500","新莊區"
