"lineid","car","time","location","longitude","latitude","cityid","cityname"
"234042","862-TW","2018/07/11 17:29:27","新北市永和區福和路1號","121.526435","25.00982","6500400","永和區"
"249005","172-UM","2018/07/11 17:29:30","新北市八里區荖阡坑路30號","121.405096666667","25.129675","6502300","八里區"
"249001","173-UM","2018/07/11 17:29:17","新北市八里區大崁腳41-3號","121.426033333333","25.1594266666667","6502300","八里區"
"249004","303-UY","2018/07/11 17:29:29","新北市八里區埤頭二街6號","121.414383333333","25.1552866666667","6502300","八里區"
"249002","305-UY","2018/07/11 17:29:38","新北市八里區龍米路二段65巷15弄10號","121.447416666667","25.1401166666667","6502300","八里區"
"249003","593-UM","2018/07/11 17:29:28","新北市八里區中山路二段313號","121.400675","25.14785","6502300","八里區"
"244007","080-UY","2018/07/11 17:29:38","新北市林口區湖子15-1號","121.386723333333","25.0906333333333","6501700","林口區"
"244019","403-UM","2018/07/11 17:29:28","新北市林口區公園路199號","121.372306666667","25.0725033333333","6501700","林口區"
"244013","742-UY","2018/07/11 17:29:22","新北市林口區粉寮路60-17號","121.404233333333","25.09026","6501700","林口區"
"244009","410-SL","2018/07/11 17:29:19","新北市林口區中北三街361號","121.383528333333","25.08484","6501700","林口區"
"244023","483-VK","2018/07/11 17:29:32","新北市林口區東明三街326號","121.390738333333","25.0698866666667","6501700","林口區"
"244017","485-VK","2018/07/11 17:29:18","新北市林口區中山路258-1號","121.38511","25.07971","6501700","林口區"
"244011","657-BX","2018/07/11 17:29:27","新北市林口區佳林路211號","121.384216666667","25.0771016666667","6501700","林口區"
"244025","837-TS","2018/07/11 17:29:34","新北市林口區南勢街120號","121.363171666667","25.074175","6501700","林口區"
"231010","188-VK","2018/07/11 17:29:20","新北市新店區直潭路92號","121.530906666667","24.937575","6500600","新店區"
"241008","059-VK","2018/07/11 17:29:22","新北市三重區力行路二段136巷11弄24號","121.481818333333","25.076515","6500200","三重區"
"241015","062-VK","2018/07/11 17:29:33","新北市三重區長元街65巷8弄18號","121.503428333333","25.066465","6500200","三重區"
"241024","065-VK","2018/07/11 17:29:23","新北市三重區大勇街82巷15弄23號","121.480783333333","25.07196","6500200","三重區"
"241002","090-VK","2018/07/11 17:29:24","新北市三重區仁義街399號","121.494396666667","25.0856533333333","6500200","三重區"
"241003","091-VK","2018/07/11 17:29:39","新北市三重區富福街2號","121.489898333333","25.0831116666667","6500200","三重區"
"241005","262-UM","2018/07/11 17:29:29","新北市三重區永安北路二段25巷60號","121.483545","25.082235","6500200","三重區"
"241016","266-UM","2018/07/11 17:29:39","新北市三重區信義西街41號","121.495361666667","25.0641033333333","6500200","三重區"
"241018","268-UM","2018/07/11 17:29:33","新北市三重區安慶街179號","121.49349","25.068525","6500200","三重區"
"241032","269-UM","2018/07/11 17:29:16","新北市三重區名源街34-2號","121.48249","25.0601083333333","6500200","三重區"
"241025","271-UM","2018/07/11 17:29:17","新北市三重區中正北路211號","121.476286666667","25.06999","6500200","三重區"
"241007","398-BY","2018/07/11 17:29:34","新北市三重區三和路四段145巷82號","121.486493333333","25.0789333333333","6500200","三重區"
"241030","480-VK","2018/07/11 17:29:34","新北市三重區新興路51號","121.491461666667","25.0537133333333","6500200","三重區"
"241014","543-UM","2018/07/11 17:29:31","新北市三重區安和路17號","121.501318333333","25.0684833333333","6500200","三重區"
"241023","545-UM","2018/07/11 17:29:27","新北市三重區忠孝路三段50巷16號","121.481413333333","25.0655666666667","6500200","三重區"
"241001","547-UM","2018/07/11 17:29:21","新北市三重區五華街141巷60號","121.493588333333","25.08676","6500200","三重區"
"241019","KEA-2593","2018/07/11 17:29:39","新北市三重區自強路二段26巷27號","121.488616666667","25.069025","6500200","三重區"
"241006","AAD-863","2018/07/11 17:29:18","新北市五股區更洲路32巷8弄35-9號","121.460035","25.0795533333333","6500200","三重區"
"241012","941-UM","2018/07/11 17:29:20","新北市三重區河邊北街256巷5號","121.501433333333","25.0761666666667","6500200","三重區"
"241033","AAC-255","2018/07/11 17:29:02","新北市三重區興德路133號","121.47017","25.0528766666667","6500200","三重區"
"235064","005-UY","2018/07/11 17:29:19","新北市中和區員山路36巷16-3號","121.485106666667","24.9912666666667","6500300","中和區"
"247024","893-R6","2018/07/11 17:29:33","新北市蘆洲區長興路331號","121.46069","25.09034","6501400","蘆洲區"
"247014","546-UM","2018/07/11 17:29:26","新北市蘆洲區三民路33號","121.475431666667","25.0830133333333","6501400","蘆洲區"
"247022","500-BY","2018/07/11 17:29:35","新北市蘆洲區三民路186號","121.46952","25.088685","6501400","蘆洲區"
"247010","341-TH","2018/07/11 17:29:21","新北市蘆洲區中山一路120巷19號","121.477955","25.082005","6501400","蘆洲區"
"247012","339-TH","2018/07/11 17:29:35","新北市蘆洲區民族路42號","121.476636666667","25.0844133333333","6501400","蘆洲區"
"247004","337-TH","2018/07/11 17:29:29","新北市蘆洲區長安街227號","121.459548333333","25.0827533333333","6501400","蘆洲區"
"247006","336-TH","2018/07/11 17:29:24","新北市蘆洲區九芎街90巷29號","121.46421","25.0812866666667","6501400","蘆洲區"
"247018","057-VK","2018/07/11 17:29:38","新北市蘆洲區民權路116號","121.473518333333","25.0885516666667","6501400","蘆洲區"
"247008","056-VK","2018/07/11 17:29:28","新北市蘆洲區民生街105號","121.473433333333","25.0786366666667","6501400","蘆洲區"
"247016","007-UY","2018/07/11 17:29:29","新北市蘆洲區光華路117號","121.466786666667","25.0824283333333","6501400","蘆洲區"
"247002","002-UY","2018/07/11 17:28:39","新北市蘆洲區永樂街38巷57弄29號","121.457601666667","25.0904533333333","6501400","蘆洲區"
"247020","001-UY","2018/07/11 17:29:33","新北市蘆洲區仁愛街102-7號","121.469865","25.0948933333333","6501400","蘆洲區"
"228003","097-TW","2018/07/11 17:29:38","新北市貢寮區仁理村仁和路2-1號","121.923155","25.0486333333333","6502600","貢寮區"
"228001","212-TW","2018/07/11 17:29:30","新北市貢寮區仁理村仁愛路50號","121.925305","25.0533183333333","6502600","貢寮區"
"228002","663-BX","2018/07/11 17:29:31","新北市貢寮區福隆里興隆街24-1號","121.944203333333","25.01658","6502600","貢寮區"
"224011","AGQ-8101","2018/07/11 17:29:18","新北市瑞芳區逢甲路143號","121.807166666667","25.1098466666667","6501200","瑞芳區"
"224006","676-BX","2018/07/11 17:29:27","新北市瑞芳區傑魚坑路73號","121.793218333333","25.110505","6501200","瑞芳區"
"224008","285-BY","2018/07/11 17:29:35","新北市瑞芳區侯硐路204號","121.830455","25.08823","6501200","瑞芳區"
"224007","275-VK","2018/07/11 17:29:27","新北市瑞芳區靜安路四段2巷1號","121.793786666667","25.0842983333333","6501200","瑞芳區"
"224009","273-VK","2018/07/11 17:29:21","新北市瑞芳區崙頂路1-5號","121.846703333333","25.10661","6501200","瑞芳區"
"224005","271-BY","2018/07/11 17:29:30","新北市瑞芳區海濱路8-6號","121.831725","25.1260966666667","6501200","瑞芳區"
"227008","642-TC","2018/07/11 17:29:20","新北市雙溪區三貂里政光路3-1號","121.850786666667","25.0634","6502500","雙溪區"
"227001","400-TW","2018/07/11 17:29:30","新北市雙溪區平林里外平林55號","121.847118333333","25.0348983333333","6502500","雙溪區"
"208003","665-BX","2018/07/11 17:29:24","新北市金山區磺清路135號","121.639273333333","25.227685","6502700","金山區"
"251009","008-UM","2018/07/11 17:29:20","新北市淡水區重建街1巷3號","121.439773333333","25.173425","6501000","淡水區"
"251004","009-UM","2018/07/11 17:18:17","新北市淡水區中正東路二段88巷15號","121.459098333333","25.1505133333333","6501000","淡水區"
"251013","KEA-2871","2018/07/11 17:29:32","新北市淡水區大竹圍5號","121.466558333333","25.1952066666667","6501000","淡水區"
"251016","179-VK","2018/07/11 17:29:34","新北市淡水區大竹圍10號","121.465258333333","25.192975","6501000","淡水區"
"251014","180-VK","2018/07/11 17:28:46","新北市淡水區公埔子10號","121.475041666667","25.2271966666667","6501000","淡水區"
"251015","181-VK","2018/07/11 17:29:32","新北市淡水區樹林口168號","121.474928333333","25.16656","6501000","淡水區"
"251010","413-VK","2018/07/11 17:29:37","新北市淡水區中正路二段206號","121.426281666667","25.18912","6501000","淡水區"
"251012","441-VK","2018/07/11 17:29:16","新北市淡水區北新路114號","121.447831666667","25.1783766666667","6501000","淡水區"
"251008","442-VK","2018/07/11 17:29:32","新北市淡水區大同路124巷17號","121.463573333333","25.13984","6501000","淡水區"
"251005","443-VK","2018/07/11 17:29:26","新北市淡水區鄧公路31巷13號","121.451831666667","25.17067","6501000","淡水區"
"251006","561-UM","2018/07/11 17:29:34","新北市淡水區大仁街19號","121.442491666667","25.1751433333333","6501000","淡水區"
"251007","577-R6","2018/07/11 17:29:23","新北市淡水區民生路60號","121.46208","25.137955","6501000","淡水區"
"251011","650-BX","2018/07/11 17:29:25","新北市淡水區坪頂路718號","121.482531666667","25.1584816666667","6501000","淡水區"
"251002","672-BX","2018/07/11 17:29:27","新北市淡水區中正路437號","121.43219","25.17469","6501000","淡水區"
"251003","766-UM","2018/07/11 17:29:28","新北市淡水區中正路437號","121.43197","25.1748183333333","6501000","淡水區"
"207003","550-UM","2018/07/11 17:29:15","新北市萬里區龜吼里日光路6巷18號","121.683565","25.18629","6502800","萬里區"
"207004","225-TW","2018/07/11 17:29:37","新北市萬里區萬里里景美路6-1號","121.683736666667","25.1724683333333","6502800","萬里區"
"252002","178-VK","2018/07/11 17:29:22","新北市三芝區忠孝街1-15號","121.505536666667","25.2539183333333","6502100","三芝區"
"252001","292-VK","2018/07/11 17:29:32","新北市三芝區長安街119號","121.498048333333","25.2596616666667","6502100","三芝區"
"237012","275-BY","2018/07/11 17:29:17","新北市三峽區中山路459巷137號","121.349918333333","24.9339383333333","6500900","三峽區"
"237016","649-BX","2018/07/11 17:29:24","新北市三峽區中山路117號","121.365653333333","24.9358316666667","6500900","三峽區"
"242034","AAC-296","2018/07/11 17:28:42","新北市新莊區新莊路366號","121.449471666667","25.0334433333333","6500500","新莊區"
"242058","986-R7","2018/07/11 17:29:21","新北市新莊區中正路530號","121.430961666667","25.0316066666667","6500500","新莊區"
"242054","751-BX","2018/07/11 17:29:16","新北市新莊區瓊林南路305巷18號","121.435175","25.0051133333333","6500500","新莊區"
"242027","615-BX","2018/07/11 17:29:20","新北市新莊區思源路32號","121.46029","25.0409166666667","6500500","新莊區"
"242025","613-BX","2018/07/11 17:29:20","新北市新莊區復興路二段31號","121.454268333333","25.0441033333333","6500500","新莊區"
"242029","612-BX","2018/07/11 17:29:31","新北市新莊區復興路二段164號","121.45796","25.0442516666667","6500500","新莊區"
"242042","566-BX","2018/07/11 17:29:28","新北市新莊區新樹路113巷17號","121.438993333333","25.02642","6500500","新莊區"
"242046","497-BY","2018/07/11 17:29:36","新北市新莊區新樹路33號","121.440378333333","25.0322966666667","6500500","新莊區"
"242051","441-UM","2018/07/11 17:29:34","新北市新莊區西盛街245巷27弄1號","121.429345","25.016155","6500500","新莊區"
"242037","415-TV","2018/07/11 17:29:18","新北市新莊區建國一路288巷48號","121.434315","25.025835","6500500","新莊區"
"242007","413-TV","2018/07/11 17:29:23","新北市新莊區自強街39號","121.45471","25.0466966666667","6500500","新莊區"
"242044","400-BY","2018/07/11 17:29:28","新北市新莊區富國路73號","121.419943333333","25.0259666666667","6500500","新莊區"
"242023","362-BY","2018/07/11 17:29:32","新北市新莊區公園路150號","121.453153333333","25.040105","6500500","新莊區"
"242061","353-BY","2018/07/11 17:29:33","新北市新莊區瓊林南路73-26號","121.435113333333","25.01528","6500500","新莊區"
"242009","132-UY","2018/07/11 17:29:24","新北市新莊區中原路185號","121.45309","25.054325","6500500","新莊區"
"242039","133-UY","2018/07/11 17:29:27","新北市新莊區民安東路35號","121.428733333333","25.0209666666667","6500500","新莊區"
"242032","135-UY","2018/07/11 17:29:19","新北市新莊區新泰路369巷6號","121.44331","25.0433533333333","6500500","新莊區"
"242048","172-VK","2018/07/11 17:29:15","新北市新莊區龍安路252號","121.421153333333","25.01955","6500500","新莊區"
"242011","173-VK","2018/07/11 17:29:37","新北市新莊區中港路451號","121.452505","25.04852","6500500","新莊區"
"242017","175-VK","2018/07/11 17:29:35","新北市新莊區建豐街15號","121.45168","25.043755","6500500","新莊區"
"242005","176-VK","2018/07/11 17:29:26","新北市新莊區中港路286號","121.453013333333","25.044285","6500500","新莊區"
"242015","346-TH","2018/07/11 17:29:37","新北市新莊區新泰路240號","121.446376666667","25.0395333333333","6500500","新莊區"
"242002","349-TH","2018/07/11 17:29:29","新北市新莊區思明街1號","121.455328333333","25.0354633333333","6500500","新莊區"
"242019","350-TH","2018/07/11 17:29:25","新北市新莊區中港路114號","121.4553","25.0399716666667","6500500","新莊區"
"242013","351-TH","2018/07/11 17:29:36","新北市新莊區中誠街18號","121.451905","25.0482816666667","6500500","新莊區"
"238015","755-BX","2018/07/11 17:29:19","新北市樹林區大安路267號","121.41903","24.9936716666667","6500700","樹林區"
"238023","601-UM","2018/07/11 17:29:34","新北市樹林區三福街114號","121.406491666667","25.0162483333333","6500700","樹林區"
"238019","599-UM","2018/07/11 17:29:16","新北市樹林區太平路127巷12弄1號","121.419838333333","24.9805916666667","6500700","樹林區"
"238018","571-TV","2018/07/11 17:28:58","新北市樹林區鎮前街190號","121.424016666667","24.9893616666667","6500700","樹林區"
"238024","5061-A6","2018/07/11 17:29:37","新北市樹林區忠孝街67巷48號","121.425191666667","24.98193","6500700","樹林區"
"238022","KEA-2213","2018/07/11 17:29:28","新北市樹林區和平街2巷20號","121.421133333333","24.9807683333333","6500700","樹林區"
"238021","KEA-2539","2018/07/11 17:29:29","新北市樹林區西圳街一段203巷7號","121.393051666667","24.9601133333333","6500700","樹林區"
"238025","303-VK","2018/07/11 17:29:20","新北市樹林區保安街一段296號","121.419136666667","24.997245","6500700","樹林區"
"238017","283-BY","2018/07/11 17:29:19","新北市樹林區三德街21號","121.413416666667","25.01305","6500700","樹林區"
"238014","282-BY","2018/07/11 17:29:30","新北市樹林區保安街一段362號","121.417705","24.9984366666667","6500700","樹林區"
"238020","268-VK","2018/07/11 17:29:16","新北市樹林區俊英街116巷41弄38號","121.4287","25.0070333333333","6500700","樹林區"
"238026","172-UY","2018/07/11 17:29:32","新北市樹林區新興街16號","121.40016","24.9734383333333","6500700","樹林區"
"239007","AAC-297","2018/07/11 17:29:30","新北市鶯歌區鶯桃路182巷32號","121.337576666667","24.9563616666667","6500800","鶯歌區"
"239006","891-R6","2018/07/11 17:29:32","新北市鶯歌區鳳鳴路103號","121.334305","24.9662516666667","6500800","鶯歌區"
"239008","527-UM","2018/07/11 17:29:34","新北市鶯歌區大湖路401號","121.330945","24.9791166666667","6500800","鶯歌區"
"239005","526-UM","2018/07/11 17:29:34","新北市鶯歌區福隆一街36號","121.325211666667","24.9714516666667","6500800","鶯歌區"
"239001","417-VK","2018/07/11 17:29:23","新北市鶯歌區中正三路106-1號","121.33796","24.9408783333333","6500800","鶯歌區"
"239003","360-BY","2018/07/11 17:29:26","新北市鶯歌區鶯桃路289-1號","121.334781666667","24.960285","6500800","鶯歌區"
"239002","359-BY","2018/07/11 17:29:24","新北市鶯歌區南雅路31號","121.34924","24.9541883333333","6500800","鶯歌區"
"239004","193-VK","2018/07/11 17:29:32","新北市鶯歌區三鶯路15號","121.356351666667","24.9413083333333","6500800","鶯歌區"
"242021","281-VK","2018/07/11 17:29:20","新北市新莊區中華路一段2號","121.452178333333","25.0360966666667","6500500","新莊區"
"242056","280-VK","2018/07/11 17:29:38","新北市新莊區新泰路20號","121.449618333333","25.0336266666667","6500500","新莊區"
