"lineid","car","time","location","longitude","latitude","cityid","cityname"
"234042","862-TW","2018/07/11 17:39:27","新北市永和區福和路1號","121.526433333333","25.009785","6500400","永和區"
"234026","9371-KE","2018/07/11 17:39:25","新北市永和區豫溪街61號","121.517393333333","25.0099383333333","6500400","永和區"
"249005","172-UM","2018/07/11 17:39:30","新北市八里區荖阡坑路34-1號","121.402668333333","25.12983","6502300","八里區"
"249001","173-UM","2018/07/11 17:39:36","新北市八里區龍米路二段153-8號","121.440141666667","25.153475","6502300","八里區"
"249004","303-UY","2018/07/11 17:39:29","新北市八里區大崁二街30號","121.4179","25.157945","6502300","八里區"
"249002","305-UY","2018/07/11 17:39:18","新北市八里區龍形五街37巷2號","121.448708333333","25.1326933333333","6502300","八里區"
"249003","593-UM","2018/07/11 17:39:28","新北市八里區中山路二段173號","121.404928333333","25.1504716666667","6502300","八里區"
"248006","077-UY","2018/07/11 17:39:21","新北市五股區中興路二段37巷28號","121.460273333333","25.07504","6501500","五股區"
"244007","080-UY","2018/07/11 17:39:18","新北市林口區中湖46號","121.38291","25.0952266666667","6501700","林口區"
"244019","403-UM","2018/07/11 17:39:28","新北市林口區文化一路83巷14弄60號","121.372506666667","25.07142","6501700","林口區"
"244013","742-UY","2018/07/11 17:39:22","新北市林口區中正路553號","121.381246666667","25.0768683333333","6501700","林口區"
"244009","410-SL","2018/07/11 17:39:19","新北市林口區林口路303號","121.385588333333","25.08515","6501700","林口區"
"244023","483-VK","2018/07/11 17:39:32","新北市林口區興林路346號","121.388916666667","25.0698116666667","6501700","林口區"
"244017","485-VK","2018/07/11 17:39:38","新北市林口區忠孝路383號","121.369501666667","25.0714216666667","6501700","林口區"
"244011","657-BX","2018/07/11 17:39:27","新北市林口區佳林路211號","121.3843","25.0771166666667","6501700","林口區"
"244025","837-TS","2018/07/11 17:39:34","新北市林口區忠孝路308巷20號","121.36678","25.0723766666667","6501700","林口區"
"222002","016-RS","2018/07/11 17:39:27","新北市深坑區深南路32號","121.621918333333","25.0073416666667","6501800","深坑區"
"231010","188-VK","2018/07/11 17:39:20","新北市新店區直潭路113號","121.531206666667","24.93552","6500600","新店區"
"241024","065-VK","2018/07/11 17:39:23","新北市三重區大勇街24號","121.482705","25.0714716666667","6500200","三重區"
"241005","262-UM","2018/07/11 17:39:09","新北市三重區永安北路二段5巷14號","121.482148333333","25.081135","6500200","三重區"
"241016","266-UM","2018/07/11 17:39:24","新北市三重區重新路二段23號","121.497886666667","25.06253","6500200","三重區"
"241018","268-UM","2018/07/11 17:39:33","新北市三重區新北大道一段3-1號","121.490183333333","25.0614166666667","6500200","三重區"
"241007","398-BY","2018/07/11 17:39:34","新北市三重區車路頭街139巷2號","121.483988333333","25.0762516666667","6500200","三重區"
"241014","543-UM","2018/07/11 17:39:31","新北市三重區河邊北街72-6號","121.504378333333","25.0684433333333","6500200","三重區"
"241023","545-UM","2018/07/11 17:39:17","新北市三重區三民街148號","121.482653333333","25.0652683333333","6500200","三重區"
"241006","AAD-863","2018/07/11 17:39:18","新北市八里區荖阡坑路24-2號","121.399461666667","25.133235","6500200","三重區"
"241033","AAC-255","2018/07/11 17:39:22","新北市三重區光復路一段49號","121.472051666667","25.0488016666667","6500200","三重區"
"235064","005-UY","2018/07/11 17:39:39","新北市中和區員山路36巷16-3號","121.484985","24.9912533333333","6500300","中和區"
"247024","893-R6","2018/07/11 17:39:33","新北市蘆洲區長樂路125-1號","121.462106666667","25.0880366666667","6501400","蘆洲區"
"247014","546-UM","2018/07/11 17:39:34","新北市蘆洲區中正路15號","121.471291666667","25.0820966666667","6501400","蘆洲區"
"247022","500-BY","2018/07/11 17:39:28","新北市蘆洲區三民路263號","121.468056666667","25.0892516666667","6501400","蘆洲區"
"247010","341-TH","2018/07/11 17:39:21","新北市蘆洲區中山一路72號","121.478841666667","25.08125","6501400","蘆洲區"
"247004","337-TH","2018/07/11 17:39:23","新北市蘆洲區長安街249巷42號","121.457611666667","25.0826083333333","6501400","蘆洲區"
"247006","336-TH","2018/07/11 17:39:24","新北市蘆洲區長安街68巷12號","121.463155","25.0805116666667","6501400","蘆洲區"
"247018","057-VK","2018/07/11 17:39:38","新北市蘆洲區三民路110巷56號","121.472785","25.0880816666667","6501400","蘆洲區"
"247008","056-VK","2018/07/11 17:39:28","新北市蘆洲區民生街76號","121.472858333333","25.0790366666667","6501400","蘆洲區"
"247016","007-UY","2018/07/11 17:39:29","新北市蘆洲區光華路46巷22號","121.46831","25.08378","6501400","蘆洲區"
"247002","002-UY","2018/07/11 17:39:19","新北市蘆洲區永平街36號","121.458463333333","25.09108","6501400","蘆洲區"
"247020","001-UY","2018/07/11 17:39:33","新北市蘆洲區民族路464-1號","121.471823333333","25.0917733333333","6501400","蘆洲區"
"228003","097-TW","2018/07/11 17:39:38","新北市貢寮區仁理村仁和路268號","121.924286666667","25.0544966666667","6502600","貢寮區"
"228001","212-TW","2018/07/11 17:39:30","新北市貢寮區仁理村仁愛路95-1號","121.927663333333","25.0554333333333","6502600","貢寮區"
"228002","663-BX","2018/07/11 17:39:31","新北市貢寮區福隆里外隆林街15-1號","121.958558333333","25.0040633333333","6502600","貢寮區"
"224011","AGQ-8101","2018/07/11 17:38:18","新北市瑞芳區岳王路166-2號","121.808253333333","25.1117383333333","6501200","瑞芳區"
"224006","676-BX","2018/07/11 17:39:27","新北市瑞芳區傑魚坑路60號","121.79355","25.1105216666667","6501200","瑞芳區"
"224008","285-BY","2018/07/11 17:39:35","新北市瑞芳區瑞柑新村34號","121.829405","25.106955","6501200","瑞芳區"
"224007","275-VK","2018/07/11 17:39:27","新北市平溪區新寮里五分寮10-2號","121.799913333333","25.0740133333333","6501200","瑞芳區"
"224009","273-VK","2018/07/11 17:39:21","新北市瑞芳區新山路173號","121.851928333333","25.1088816666667","6501200","瑞芳區"
"224005","271-BY","2018/07/11 17:39:30","新北市瑞芳區海濱路8-6號","121.83166","25.126065","6501200","瑞芳區"
"227008","642-TC","2018/07/11 17:39:20","新北市雙溪區三貂里政光路3-1號","121.850801666667","25.0634083333333","6502500","雙溪區"
"208003","665-BX","2018/07/11 17:39:24","新北市金山區磺清路135號","121.63925","25.2276766666667","6502700","金山區"
"251009","008-UM","2018/07/11 17:39:20","新北市淡水區中正路38-1號","121.443733333333","25.1692566666667","6501000","淡水區"
"251004","009-UM","2018/07/11 17:39:20","新北市淡水區中正東路二段141號","121.45928","25.1477383333333","6501000","淡水區"
"251013","KEA-2871","2018/07/11 17:39:32","新北市淡水區演戲埔腳11號","121.469415","25.1946883333333","6501000","淡水區"
"251016","179-VK","2018/07/11 17:39:34","新北市淡水區埤島39-15號","121.452775","25.195815","6501000","淡水區"
"251014","180-VK","2018/07/11 17:39:27","新北市淡水區公埔子16-6號","121.48103","25.2245716666667","6501000","淡水區"
"251015","181-VK","2018/07/11 17:39:32","新北市淡水區糞箕湖11號","121.486421666667","25.17026","6501000","淡水區"
"251010","413-VK","2018/07/11 17:39:37","新北市淡水區淡海路276號","121.419965","25.188295","6501000","淡水區"
"251012","441-VK","2018/07/11 17:39:36","新北市淡水區北新路200巷8號","121.451775","25.1796783333333","6501000","淡水區"
"251008","442-VK","2018/07/11 17:39:35","新北市淡水區八勢路一段100巷6號","121.466786666667","25.155175","6501000","淡水區"
"251005","443-VK","2018/07/11 17:39:26","新北市淡水區鄧公路33巷11號","121.451906666667","25.1709366666667","6501000","淡水區"
"251001","559-UM","2018/07/11 17:39:34","新北市淡水區民權路92巷35-1號","121.462221666667","25.126695","6501000","淡水區"
"251006","561-UM","2018/07/11 17:39:34","新北市淡水區大信街32號","121.442058333333","25.1770866666667","6501000","淡水區"
"251007","577-R6","2018/07/11 17:39:21","新北市淡水區民生路124巷30號","121.464181666667","25.137625","6501000","淡水區"
"251011","650-BX","2018/07/11 17:39:25","新北市淡水區小坪頂20-1號","121.484586666667","25.1575283333333","6501000","淡水區"
"251002","672-BX","2018/07/11 17:39:29","新北市淡水區清水街246號","121.440555","25.172145","6501000","淡水區"
"251003","766-UM","2018/07/11 17:39:28","新北市淡水區中山北路一段51號","121.441765","25.1755916666667","6501000","淡水區"
"207003","550-UM","2018/07/11 17:39:35","新北市萬里區龜吼里漁澳路11-3號","121.68665","25.1944633333333","6502800","萬里區"
"207004","225-TW","2018/07/11 17:39:17","新北市萬里區中幅里中福路8-1號","121.685955","25.16469","6502800","萬里區"
"252002","178-VK","2018/07/11 17:39:22","新北市三芝區智成街85號","121.505081666667","25.2556866666667","6502100","三芝區"
"252001","292-VK","2018/07/11 17:39:32","新北市三芝區淡金路一段87號","121.50212","25.2590016666667","6502100","三芝區"
"237013","252-BX","2018/07/11 17:39:28","新北市三峽區愛國路33-8號","121.374633333333","24.9332433333333","6500900","三峽區"
"237012","275-BY","2018/07/11 17:39:37","新北市三峽區中山路459巷163-3號","121.348956666667","24.9332233333333","6500900","三峽區"
"237014","433-BY","2018/07/11 17:39:27","新北市三峽區中山路459巷163-3號","121.348598333333","24.9327216666667","6500900","三峽區"
"237006","5529-G3","2018/07/11 17:39:24","新北市三峽區介壽路二段12-1號","121.390055","24.93487","6500900","三峽區"
"237011","KEA-2596","2018/07/11 17:39:34","新北市三峽區中山路459巷163-3號","121.348656666667","24.9328966666667","6500900","三峽區"
"237016","649-BX","2018/07/11 17:39:24","新北市三峽區白雞42-3號","121.37949","24.9112666666667","6500900","三峽區"
"237010","706-TV","2018/07/11 17:39:20","新北市三峽區中山路153號","121.364845","24.9363316666667","6500900","三峽區"
"236079","166-UM","2018/07/11 17:39:16","新北市土城區城林路6巷80號","121.43848","24.979645","6501300","土城區"
"236014","270-VK","2018/07/11 17:39:37","新北市土城區城林路6巷80號","121.438595","24.9796366666667","6501300","土城區"
"236038","271-VK","2018/07/11 17:39:22","新北市土城區城林路6巷80號","121.43857","24.97963","6501300","土城區"
"236049","913-UM","2018/07/11 17:39:29","新北市土城區城林路6巷80號","121.438536666667","24.9795416666667","6501300","土城區"
"242034","AAC-296","2018/07/11 17:39:37","新北市新莊區新莊路546號","121.44524","25.0329533333333","6500500","新莊區"
"242058","986-R7","2018/07/11 17:39:35","新北市新莊區中正路696號","121.418911666667","25.0278683333333","6500500","新莊區"
"242054","751-BX","2018/07/11 17:39:18","新北市新莊區新樹路723號","121.431938333333","25.00187","6500500","新莊區"
"242027","615-BX","2018/07/11 17:39:20","新北市新莊區福壽街140號","121.457721666667","25.0518816666667","6500500","新莊區"
"242025","613-BX","2018/07/11 17:39:34","新北市新莊區思源路110號","121.460228333333","25.0466533333333","6500500","新莊區"
"242029","612-BX","2018/07/11 17:39:21","新北市新莊區復興路一段123號","121.449668333333","25.043025","6500500","新莊區"
"242042","566-BX","2018/07/11 17:39:27","新北市新莊區中正路514巷49號","121.43223","25.0336133333333","6500500","新莊區"
"242046","497-BY","2018/07/11 17:39:28","新北市新莊區建國一路21號","121.433948333333","25.03153","6500500","新莊區"
"242051","441-UM","2018/07/11 17:39:35","新北市新莊區西盛街311巷7號","121.428396666667","25.0152783333333","6500500","新莊區"
"242037","415-TV","2018/07/11 17:39:30","新北市新莊區建福路69巷46號","121.42887","25.0275216666667","6500500","新莊區"
"242007","413-TV","2018/07/11 17:39:23","新北市新莊區福樂街118巷3號","121.457236666667","25.0480166666667","6500500","新莊區"
"242044","400-BY","2018/07/11 17:39:28","新北市新莊區中正路871巷9弄42號","121.419815","25.026725","6500500","新莊區"
"242023","362-BY","2018/07/11 17:39:36","新北市新莊區公園路129-12號","121.457748333333","25.0411483333333","6500500","新莊區"
"242061","353-BY","2018/07/11 17:39:36","新北市新莊區瓊林南路299號","121.434193333333","25.0067033333333","6500500","新莊區"
"242009","132-UY","2018/07/11 17:39:24","新北市新莊區昌明街14巷18號","121.457395","25.05346","6500500","新莊區"
"242039","133-UY","2018/07/11 17:39:35","新北市新莊區民安西路7號","121.426876666667","25.0218833333333","6500500","新莊區"
"242032","135-UY","2018/07/11 17:39:23","新北市新莊區新泰路321巷19號","121.4438","25.04118","6500500","新莊區"
"242048","172-VK","2018/07/11 17:39:35","新北市新莊區萬安街155號","121.420293333333","25.0214166666667","6500500","新莊區"
"242011","173-VK","2018/07/11 17:39:03","新北市新莊區中港路607號","121.45136","25.0532166666667","6500500","新莊區"
"242017","175-VK","2018/07/11 17:39:16","新北市新莊區復興路一段127巷11號","121.45028","25.0439433333333","6500500","新莊區"
"242005","176-VK","2018/07/11 17:39:32","新北市新莊區自立街190號","121.456393333333","25.04545","6500500","新莊區"
"242015","346-TH","2018/07/11 17:39:17","新北市新莊區中平路41號","121.444585","25.0440516666667","6500500","新莊區"
"242002","349-TH","2018/07/11 17:39:28","新北市新莊區新莊路266號","121.451803333333","25.033935","6500500","新莊區"
"242019","350-TH","2018/07/11 17:39:22","新北市新莊區中港路252號","121.453746666667","25.04344","6500500","新莊區"
"242013","351-TH","2018/07/11 17:39:36","新北市新莊區中誠街98號","121.449911666667","25.0477733333333","6500500","新莊區"
"238015","755-BX","2018/07/11 17:39:19","新北市樹林區啟智街25號","121.420891666667","24.9933933333333","6500700","樹林區"
"238023","601-UM","2018/07/11 17:39:34","新北市樹林區龍興街13巷7號","121.40339","25.01652","6500700","樹林區"
"238019","599-UM","2018/07/11 17:39:37","新北市樹林區太元街64號","121.418618333333","24.979185","6500700","樹林區"
"238018","571-TV","2018/07/11 17:39:18","新北市樹林區博愛街29巷10號","121.427306666667","24.9925166666667","6500700","樹林區"
"238024","5061-A6","2018/07/11 17:39:17","新北市樹林區鎮前街4號","121.426478333333","24.9937466666667","6500700","樹林區"
"238022","KEA-2213","2018/07/11 17:39:28","新北市樹林區太順街62巷3弄12號","121.417133333333","24.97965","6500700","樹林區"
"238021","KEA-2539","2018/07/11 17:39:29","新北市樹林區柑園街一段253巷16號","121.396211666667","24.9551983333333","6500700","樹林區"
"238025","303-VK","2018/07/11 17:39:35","新北市樹林區保安街三段8號","121.412635","25.01088","6500700","樹林區"
"238017","283-BY","2018/07/11 17:39:19","新北市樹林區俊德街44號","121.41532","25.0137266666667","6500700","樹林區"
"238014","282-BY","2018/07/11 17:39:30","新北市樹林區大安路200號","121.420676666667","24.996155","6500700","樹林區"
"238020","268-VK","2018/07/11 17:39:16","新北市樹林區俊英街155巷1號","121.42436","25.0121183333333","6500700","樹林區"
"238026","172-UY","2018/07/11 17:39:32","新北市樹林區新興街19巷6號","121.40054","24.9726366666667","6500700","樹林區"
"239007","AAC-297","2018/07/11 17:39:37","新北市鶯歌區鶯桃路94巷23號","121.340516666667","24.9542866666667","6500800","鶯歌區"
"239006","891-R6","2018/07/11 17:39:32","新北市鶯歌區永和街34巷10弄6號","121.333338333333","24.96738","6500800","鶯歌區"
"239008","527-UM","2018/07/11 17:39:34","新北市鶯歌區大湖路700巷24號","121.333341666667","24.9766833333333","6500800","鶯歌區"
"239005","526-UM","2018/07/11 17:39:34","新北市鶯歌區福隆二街42號","121.324853333333","24.9716733333333","6500800","鶯歌區"
"239001","417-VK","2018/07/11 17:39:23","新北市鶯歌區中正三路271號","121.332693333333","24.9380666666667","6500800","鶯歌區"
"239003","360-BY","2018/07/11 17:39:26","新北市鶯歌區鶯桃路206巷54號","121.338075","24.9601816666667","6500800","鶯歌區"
"239002","359-BY","2018/07/11 17:39:24","新北市鶯歌區南雅路491號","121.34563","24.9540133333333","6500800","鶯歌區"
"239004","193-VK","2018/07/11 17:39:32","新北市三峽區隆恩街250號","121.356971666667","24.940765","6500800","鶯歌區"
"242021","281-VK","2018/07/11 17:39:25","新北市新莊區中華路一段65號","121.452011666667","25.0395","6500500","新莊區"
"242056","280-VK","2018/07/11 17:39:18","新北市新莊區泰豐街28號","121.44837","25.0318183333333","6500500","新莊區"
