"lineid","car","time","location","longitude","latitude","cityid","cityname"
"234042","862-TW","2018/07/11 17:49:27","新北市永和區福和路1號","121.526473333333","25.00972","6500400","永和區"
"234026","9371-KE","2018/07/11 17:49:36","新北市永和區和平街93巷2號","121.51133","25.00967","6500400","永和區"
"249005","172-UM","2018/07/11 17:49:30","新北市八里區荖阡坑路41-10號","121.402465","25.133525","6502300","八里區"
"249001","173-UM","2018/07/11 17:49:36","新北市八里區龍米路二段125巷1號","121.446311666667","25.1455316666667","6502300","八里區"
"249004","303-UY","2018/07/11 17:49:29","新北市八里區中華路一段81巷24號","121.419641666667","25.1537333333333","6502300","八里區"
"249002","305-UY","2018/07/11 17:49:38","新北市八里區龍形五街37巷6號","121.448756666667","25.1326333333333","6502300","八里區"
"249003","593-UM","2018/07/11 17:49:28","新北市八里區中山路二段119號","121.405401666667","25.1519866666667","6502300","八里區"
"248006","077-UY","2018/07/11 17:49:21","新北市五股區中興路二段37巷26號","121.460263333333","25.0751266666667","6501500","五股區"
"244007","080-UY","2018/07/11 17:49:18","新北市林口區林口路226號","121.386813333333","25.0838483333333","6501700","林口區"
"244019","403-UM","2018/07/11 17:49:28","新北市林口區忠孝路542巷6號","121.372821666667","25.0672333333333","6501700","林口區"
"244013","742-UY","2018/07/11 17:49:28","新北市林口區中正路398號","121.384845","25.07787","6501700","林口區"
"244009","410-SL","2018/07/11 17:49:19","新北市林口區竹林路437號","121.386653333333","25.08282","6501700","林口區"
"244023","483-VK","2018/07/11 17:49:32","新北市林口區隆林街101巷14號","121.385221666667","25.07424","6501700","林口區"
"244017","485-VK","2018/07/11 17:49:18","新北市林口區文化二路一段230巷80-1號","121.372085","25.0730183333333","6501700","林口區"
"244011","657-BX","2018/07/11 17:49:35","新北市林口區中正路313號","121.388878333333","25.0774","6501700","林口區"
"244025","837-TS","2018/07/11 17:49:34","新北市林口區文化三路一段181號","121.362175","25.0697733333333","6501700","林口區"
"244021","838-TS","2018/07/11 17:49:16","新北市林口區仁愛路一段61巷29號","121.397058333333","25.0695983333333","6501700","林口區"
"222002","016-RS","2018/07/11 17:49:27","新北市深坑區平埔街22巷17弄1號","121.614861666667","25.0008666666667","6501800","深坑區"
"222003","436-BY","2018/07/11 17:49:26","新北市深坑區阿柔洋60-1號","121.608403333333","24.998555","6501800","深坑區"
"231010","188-VK","2018/07/11 17:49:20","新北市新店區康雅崙路14號","121.537626666667","24.92655","6500600","新店區"
"231066","4716-K9","2018/07/11 17:49:30","新北市新店區安一路一段1-1號","121.519268333333","24.96112","6500600","新店區"
"241024","065-VK","2018/07/11 17:49:23","新北市三重區車路頭街62巷63號","121.482431666667","25.0723216666667","6500200","三重區"
"241005","262-UM","2018/07/11 17:49:29","新北市三重區仁愛街517號","121.487571666667","25.08225","6500200","三重區"
"241016","266-UM","2018/07/11 17:49:24","新北市三重區新北大道一段7號","121.489921666667","25.0612666666667","6500200","三重區"
"241006","AAD-863","2018/07/11 17:49:38","新北市八里區中山路三段409號","121.368663333333","25.134895","6500200","三重區"
"241033","AAC-255","2018/07/11 17:49:22","新北市三重區光復路一段11號","121.472115","25.0471916666667","6500200","三重區"
"235064","005-UY","2018/07/11 17:49:19","新北市中和區員山路36巷16-3號","121.484963333333","24.991255","6500300","中和區"
"235058","151-BY","2018/07/11 17:49:24","新北市中和區員山路36巷16-2號","121.485171666667","24.9917","6500300","中和區"
"235046","733-UM","2018/07/11 17:49:35","新北市中和區員山路36巷13號","121.484101666667","24.9908783333333","6500300","中和區"
"235053","900-TW","2018/07/11 17:49:22","新北市中和區員山路36巷16-3號","121.485016666667","24.9915216666667","6500300","中和區"
"247024","893-R6","2018/07/11 17:49:33","新北市蘆洲區長樂路233巷3號","121.461186666667","25.0896933333333","6501400","蘆洲區"
"247014","546-UM","2018/07/11 17:49:26","新北市蘆洲區保和街69巷33號","121.469733333333","25.085215","6501400","蘆洲區"
"247022","500-BY","2018/07/11 17:49:28","新北市蘆洲區中正路270巷19號","121.466013333333","25.0901683333333","6501400","蘆洲區"
"247010","341-TH","2018/07/11 17:49:26","新北市蘆洲區民族路60號","121.4772","25.0846716666667","6501400","蘆洲區"
"247012","339-TH","2018/07/11 17:49:15","新北市蘆洲區復興路111號","121.477085","25.08809","6501400","蘆洲區"
"247004","337-TH","2018/07/11 17:49:23","新北市蘆洲區長榮路152號","121.461196666667","25.0847683333333","6501400","蘆洲區"
"247006","336-TH","2018/07/11 17:49:24","新北市蘆洲區九芎街90巷8號","121.465721666667","25.0802683333333","6501400","蘆洲區"
"247018","057-VK","2018/07/11 17:49:17","新北市蘆洲區復興路210號","121.478718333333","25.0891566666667","6501400","蘆洲區"
"247008","056-VK","2018/07/11 17:49:28","新北市蘆洲區中山一路197巷6弄21號","121.474161666667","25.0802833333333","6501400","蘆洲區"
"247016","007-UY","2018/07/11 17:49:29","新北市蘆洲區中正路185巷31弄18號","121.4667","25.08383","6501400","蘆洲區"
"247002","002-UY","2018/07/11 17:49:19","新北市蘆洲區永平街32巷21弄25號","121.458218333333","25.092115","6501400","蘆洲區"
"247020","001-UY","2018/07/11 17:49:33","新北市蘆洲區民義街71巷6號","121.472926666667","25.0903633333333","6501400","蘆洲區"
"228003","097-TW","2018/07/11 17:49:18","新北市貢寮區真理里美艷山街6-2號","121.928853333333","25.0607483333333","6502600","貢寮區"
"228001","212-TW","2018/07/11 17:49:30","新北市貢寮區仁理村仁愛路95-1號","121.927655","25.0554333333333","6502600","貢寮區"
"228002","663-BX","2018/07/11 17:49:31","新北市貢寮區福隆里龜壽谷街26號","121.952975","25.0078583333333","6502600","貢寮區"
"224011","AGQ-8101","2018/07/11 17:48:18","新北市瑞芳區明燈路一段33號","121.822608333333","25.10734","6501200","瑞芳區"
"224006","676-BX","2018/07/11 17:49:27","新北市瑞芳區傑魚坑路183號","121.78846","25.1083016666667","6501200","瑞芳區"
"224008","285-BY","2018/07/11 17:49:35","新北市瑞芳區明燈路一段118號","121.81862","25.10893","6501200","瑞芳區"
"224007","275-VK","2018/07/11 17:49:27","新北市瑞芳區靜安路四段10號","121.796971666667","25.0861216666667","6501200","瑞芳區"
"224009","273-VK","2018/07/11 17:49:26","新北市瑞芳區金光路259號","121.849428333333","25.10853","6501200","瑞芳區"
"224005","271-BY","2018/07/11 17:49:30","新北市瑞芳區海濱路29-9號","121.830885","25.12436","6501200","瑞芳區"
"227008","642-TC","2018/07/11 17:49:20","新北市雙溪區三貂里政光路3-1號","121.850821666667","25.0634433333333","6502500","雙溪區"
"253006","295-VK","2018/07/11 17:49:26","新北市石門區中央路6號","121.566545","25.291375","6502200","石門區"
"222001","KEA-2212","2018/07/11 17:49:25","新北市深坑區文山路三段110號","121.60864","24.99952","6501800","深坑區"
"208003","665-BX","2018/07/11 17:49:24","新北市金山區磺清路135號","121.639201666667","25.2276683333333","6502700","金山區"
"208001","761-BX","2018/07/11 17:49:27","新北市金山區磺清路135號","121.639296666667","25.2277266666667","6502700","金山區"
"251009","008-UM","2018/07/11 17:49:20","新北市淡水區長興街47號","121.444235","25.1718033333333","6501000","淡水區"
"251004","009-UM","2018/07/11 17:49:20","新北市淡水區民權一街10號","121.45935","25.1370033333333","6501000","淡水區"
"251013","KEA-2871","2018/07/11 17:49:32","新北市淡水區泉洲厝30號","121.479716666667","25.1910116666667","6501000","淡水區"
"251016","179-VK","2018/07/11 17:49:34","新北市淡水區埤島39-15號","121.452686666667","25.19594","6501000","淡水區"
"251014","180-VK","2018/07/11 17:49:27","新北市淡水區公埔子16-6號","121.481018333333","25.224585","6501000","淡水區"
"251015","181-VK","2018/07/11 17:49:32","新北市淡水區興福寮22-3號","121.493835","25.1642266666667","6501000","淡水區"
"251010","413-VK","2018/07/11 17:49:17","新北市淡水區淡海路280巷33弄34-2號","121.41872","25.1885766666667","6501000","淡水區"
"251012","441-VK","2018/07/11 17:49:36","新北市淡水區北新路一段606號","121.472315","25.1849616666667","6501000","淡水區"
"251008","442-VK","2018/07/11 17:49:35","新北市淡水區八勢路一段155號","121.46766","25.1566183333333","6501000","淡水區"
"251005","443-VK","2018/07/11 17:49:26","新北市淡水區學府路102巷14號","121.451001666667","25.1718416666667","6501000","淡水區"
"251001","559-UM","2018/07/11 17:49:34","新北市淡水區自強路201巷39號","121.462285","25.1267683333333","6501000","淡水區"
"251006","561-UM","2018/07/11 17:49:34","新北市淡水區大信街1巷25號","121.440175","25.1767033333333","6501000","淡水區"
"251007","577-R6","2018/07/11 17:49:21","新北市淡水區民族路29巷32號","121.461413333333","25.13706","6501000","淡水區"
"251011","650-BX","2018/07/11 17:45:25","新北市淡水區吳(仔)厝9-1號","121.480086666667","25.1469366666667","6501000","淡水區"
"251002","672-BX","2018/07/11 17:49:29","新北市淡水區中山路46-1號","121.4442","25.1701466666667","6501000","淡水區"
"251003","766-UM","2018/07/11 17:49:28","新北市淡水區大忠街5巷2號","121.443138333333","25.1763583333333","6501000","淡水區"
"207003","550-UM","2018/07/11 17:49:35","新北市萬里區野柳里東澳路55號","121.692003333333","25.2032916666667","6502800","萬里區"
"207004","225-TW","2018/07/11 17:49:37","新北市萬里區萬里里瑪鋉頂街61號","121.68842","25.1805116666667","6502800","萬里區"
"252002","178-VK","2018/07/11 17:49:22","新北市三芝區中正路二段2號","121.504763333333","25.2556133333333","6502100","三芝區"
"252001","292-VK","2018/07/11 17:49:32","新北市三芝區中興街一段30號","121.497685","25.2578266666667","6502100","三芝區"
"237004","KEA-2597","2018/07/11 17:49:28","新北市三峽區中山路365-1號","121.35741","24.936425","6500900","三峽區"
"237009","210-TH","2018/07/11 17:49:24","新北市三峽區大勇路17號","121.367286666667","24.9367483333333","6500900","三峽區"
"237013","252-BX","2018/07/11 17:49:28","新北市三峽區中華路8-1號","121.37515","24.9329416666667","6500900","三峽區"
"237012","275-BY","2018/07/11 17:49:25","新北市三峽區民生街119號","121.373711666667","24.935315","6500900","三峽區"
"237008","302-VK","2018/07/11 17:49:21","新北市三峽區中正路一段528號","121.369191666667","24.9200433333333","6500900","三峽區"
"237014","433-BY","2018/07/11 17:49:27","新北市三峽區復興路101巷1弄57號","121.371501666667","24.9369416666667","6500900","三峽區"
"237006","5529-G3","2018/07/11 17:49:24","新北市三峽區介壽路二段38巷22號","121.391716666667","24.934595","6500900","三峽區"
"237011","KEA-2596","2018/07/11 17:49:34","新北市三峽區中園街12號","121.3685","24.92727","6500900","三峽區"
"237016","649-BX","2018/07/11 17:49:24","新北市三峽區白雞149-2號","121.399901666667","24.905065","6500900","三峽區"
"237010","706-TV","2018/07/11 17:49:20","新北市三峽區大勇路29巷6弄12號","121.36785","24.9358766666667","6500900","三峽區"
"237005","AKY-6261","2018/07/11 17:49:24","新北市三峽區中山路124號","121.365515","24.9359716666667","6500900","三峽區"
"236070","105-UM","2018/07/11 17:49:31","新北市土城區明德路一段385-1號","121.452306666667","24.9803","6501300","土城區"
"236042","107-UM","2018/07/11 17:49:35","新北市土城區城林路6巷80號","121.438481666667","24.9797733333333","6501300","土城區"
"236079","166-UM","2018/07/11 17:49:36","新北市土城區永寧路29號","121.430433333333","24.9632583333333","6501300","土城區"
"236014","270-VK","2018/07/11 17:49:37","新北市土城區城林路6巷80號","121.438568333333","24.9796116666667","6501300","土城區"
"236038","271-VK","2018/07/11 17:49:22","新北市土城區城林路6巷80號","121.438533333333","24.9796166666667","6501300","土城區"
"236021","401-BY","2018/07/11 17:49:27","新北市土城區城林路6巷80號","121.43877","24.9797066666667","6501300","土城區"
"236063","752-BX","2018/07/11 17:49:20","新北市土城區城林路6巷80號","121.43847","24.9797983333333","6501300","土城區"
"236059","912-UM","2018/07/11 17:49:30","新北市土城區中華路二段2號","121.439436666667","24.9795716666667","6501300","土城區"
"236049","913-UM","2018/07/11 17:49:29","新北市土城區城林路6巷80號","121.438558333333","24.9795666666667","6501300","土城區"
"236055","AAC-216","2018/07/11 17:49:28","新北市土城區城林路6巷80號","121.438485","24.9795783333333","6501300","土城區"
"242034","AAC-296","2018/07/11 17:49:26","新北市新莊區新樹路4-2號","121.440666666667","25.0329166666667","6500500","新莊區"
"242058","986-R7","2018/07/11 17:49:21","新北市新莊區新北大道七段373號","121.412578333333","25.0265383333333","6500500","新莊區"
"242054","751-BX","2018/07/11 17:49:16","新北市新莊區民安西路470-1號","121.43173","25.0078583333333","6500500","新莊區"
"242027","615-BX","2018/07/11 17:49:20","新北市新莊區中原路9號","121.45908","25.05437","6500500","新莊區"
"242025","613-BX","2018/07/11 17:49:20","新北市三重區光復路二段172號","121.47152","25.0615433333333","6500500","新莊區"
"242029","612-BX","2018/07/11 17:49:33","新北市新莊區中平路24號","121.444768333333","25.043155","6500500","新莊區"
"242042","566-BX","2018/07/11 17:49:27","新北市新莊區中正路612-1號","121.426155","25.0302083333333","6500500","新莊區"
"242046","497-BY","2018/07/11 17:49:28","新北市新莊區福營路141號","121.432626666667","25.03167","6500500","新莊區"
"242051","441-UM","2018/07/11 17:49:34","新北市新莊區民安西路155巷7弄19號","121.426635","25.0170316666667","6500500","新莊區"
"242037","415-TV","2018/07/11 17:49:18","新北市新莊區建福路57號","121.42675","25.0273116666667","6500500","新莊區"
"242007","413-TV","2018/07/11 17:49:28","新北市新莊區福樂街156巷12弄20號","121.45681","25.0487566666667","6500500","新莊區"
"242044","400-BY","2018/07/11 17:49:28","新北市新莊區雙鳳路21號","121.416786666667","25.0268983333333","6500500","新莊區"
"242023","362-BY","2018/07/11 17:49:32","新北市新莊區福樂街82號","121.457766666667","25.0468916666667","6500500","新莊區"
"242061","353-BY","2018/07/11 17:49:33","新北市新莊區新樹路525-3號","121.432785","25.0100516666667","6500500","新莊區"
"242009","132-UY","2018/07/11 17:49:24","新北市新莊區昌明街40號","121.456351666667","25.052425","6500500","新莊區"
"242039","133-UY","2018/07/11 17:49:15","新北市新莊區民安路142號","121.42446","25.0251766666667","6500500","新莊區"
"242032","135-UY","2018/07/11 17:49:39","新北市新莊區新泰路305巷3號","121.445131666667","25.04087","6500500","新莊區"
"242048","172-VK","2018/07/11 17:49:35","新北市新莊區萬安街58號","121.420955","25.023625","6500500","新莊區"
"242011","173-VK","2018/07/11 17:49:24","新北市新莊區中港路730號","121.450558333333","25.057975","6500500","新莊區"
"242017","175-VK","2018/07/11 17:49:35","新北市新莊區永安街30號","121.451806666667","25.044835","6500500","新莊區"
"242005","176-VK","2018/07/11 17:49:27","新北市新莊區自立街236號","121.458271666667","25.0454766666667","6500500","新莊區"
"242015","346-TH","2018/07/11 17:49:17","新北市新莊區中平路82巷32-1號","121.446181666667","25.04486","6500500","新莊區"
"242002","349-TH","2018/07/11 17:49:32","新北市新莊區景德路103號","121.451713333333","25.03461","6500500","新莊區"
"242019","350-TH","2018/07/11 17:49:22","新北市新莊區明中街36號","121.457143333333","25.03958","6500500","新莊區"
"242013","351-TH","2018/07/11 17:49:36","新北市新莊區中誠街168號","121.44812","25.0473916666667","6500500","新莊區"
"238015","755-BX","2018/07/11 17:49:19","新北市樹林區長壽街70巷1弄5號","121.42142","24.9943116666667","6500700","樹林區"
"238023","601-UM","2018/07/11 17:49:34","新北市樹林區福興街29號","121.404265","25.0157216666667","6500700","樹林區"
"238019","599-UM","2018/07/11 17:49:32","新北市樹林區國凱街156號","121.424233333333","24.9808066666667","6500700","樹林區"
"238018","571-TV","2018/07/11 17:49:18","新北市樹林區樹新路13號","121.426736666667","24.9940666666667","6500700","樹林區"
"238024","5061-A6","2018/07/11 17:49:37","新北市樹林區豐林街46號","121.421176666667","24.9979166666667","6500700","樹林區"
"238022","KEA-2213","2018/07/11 17:49:28","新北市樹林區太順街47-1號","121.418046666667","24.9792916666667","6500700","樹林區"
"238021","KEA-2539","2018/07/11 17:49:29","新北市樹林區田尾街82號","121.408941666667","24.9581716666667","6500700","樹林區"
"238025","303-VK","2018/07/11 17:49:20","新北市樹林區俊興街209號","121.417368333333","25.0137566666667","6500700","樹林區"
"238017","283-BY","2018/07/11 17:49:19","新北市樹林區中正路712號","121.409176666667","25.017805","6500700","樹林區"
"238014","282-BY","2018/07/11 17:49:30","新北市樹林區大安路11號","121.424955","25.0003966666667","6500700","樹林區"
"238020","268-VK","2018/07/11 17:49:16","新北市樹林區三俊街201號","121.42007","25.01563","6500700","樹林區"
"238026","172-UY","2018/07/11 17:49:32","新北市樹林區中洲街30巷13弄41號","121.398323333333","24.9724516666667","6500700","樹林區"
"239007","AAC-297","2018/07/11 17:49:37","新北市鶯歌區尖山埔路165巷3弄1號","121.346295","24.9503733333333","6500800","鶯歌區"
"239006","891-R6","2018/07/11 17:49:32","新北市鶯歌區鳳鳴路99號","121.334246666667","24.9661316666667","6500800","鶯歌區"
"239008","527-UM","2018/07/11 17:49:34","新北市鶯歌區香賓街11巷1號","121.336743333333","24.9794183333333","6500800","鶯歌區"
"239005","526-UM","2018/07/11 17:49:34","新北市鶯歌區鳳吉五街7號","121.326546666667","24.972345","6500800","鶯歌區"
"239001","417-VK","2018/07/11 17:49:23","新北市鶯歌區中正三路412號","121.324853333333","24.93468","6500800","鶯歌區"
"239003","360-BY","2018/07/11 17:49:26","新北市鶯歌區永吉街46巷43號","121.334486666667","24.9576666666667","6500800","鶯歌區"
"239002","359-BY","2018/07/11 17:49:24","新北市鶯歌區育智路86號","121.345053333333","24.9546","6500800","鶯歌區"
"242021","281-VK","2018/07/11 17:49:20","新北市新莊區永寧街35巷1號","121.45282","25.0392083333333","6500500","新莊區"
"242056","280-VK","2018/07/11 17:49:18","新北市新莊區瓊林路40巷29號","121.446651666667","25.0301366666667","6500500","新莊區"
