"lineid","car","time","location","longitude","latitude","cityid","cityname"
"234046","148-BY","2018/07/11 19:09:36","新北市永和區秀朗路二段126巷30號","121.524596666667","25.0007633333333","6500400","永和區"
"234007","207-UY","2018/07/11 19:09:25","新北市永和區中山路一段199號","121.509006666667","25.0087133333333","6500400","永和區"
"234081","298-R6","2018/07/11 19:09:35","新北市永和區國中路150號","121.522623333333","25.0067933333333","6500400","永和區"
"234038","336-UY","2018/07/11 19:09:37","新北市永和區民樂街69巷5號","121.527538333333","24.997795","6500400","永和區"
"234064","337-UY","2018/07/11 19:09:20","新北市永和區秀朗路二段31號","121.521238333333","25.0024516666667","6500400","永和區"
"234070","552-UM","2018/07/11 19:09:31","新北市永和區豫溪街137巷1弄22號","121.518486666667","25.0104683333333","6500400","永和區"
"234086","553-UM","2018/07/11 19:09:32","新北市永和區永利路4巷28號","121.517541666667","25.00464","6500400","永和區"
"234017","745-BX","2018/07/11 19:09:20","新北市永和區忠孝街27號","121.51396","25.01557","6500400","永和區"
"234030","746-BX","2018/07/11 19:09:25","新北市永和區民生路29號","121.52282","24.9984066666667","6500400","永和區"
"234054","KEA-2590","2018/07/11 19:09:39","新北市永和區中興街141號","121.518911666667","25.0123016666667","6500400","永和區"
"234013","KEA-2591","2018/07/11 19:09:20","新北市永和區中山路一段93號","121.511566666667","25.010685","6500400","永和區"
"234061","AAD-866","2018/07/11 19:09:24","新北市永和區安樂路306-8號","121.514663333333","25.0053366666667","6500400","永和區"
"234042","862-TW","2018/07/11 19:09:26","新北市永和區保平路196號","121.51021","25.0063316666667","6500400","永和區"
"234050","863-TW","2018/07/11 19:09:18","新北市永和區文化路135巷26弄2號","121.510623333333","25.01457","6500400","永和區"
"234011","9373-KE","2018/07/11 19:09:21","新北市永和區仁愛路141巷30弄26號","121.51204","25.011475","6500400","永和區"
"249005","172-UM","2018/07/11 19:09:30","新北市八里區中華路三段145巷9號","121.392393333333","25.13309","6502300","八里區"
"249001","173-UM","2018/07/11 19:09:36","新北市八里區龍米路二段246-1號","121.429898333333","25.158865","6502300","八里區"
"248016","026-BX","2018/07/11 19:09:32","新北市五股區成泰路三段543巷5號","121.450856666667","25.1021716666667","6501500","五股區"
"248008","095-VK","2018/07/11 19:09:18","新北市五股區中興路一段118巷6弄7號","121.466225","25.07437","6501500","五股區"
"248018","225-UY","2018/07/11 19:09:20","新北市五股區民義路一段255-29號","121.427488333333","25.091095","6501500","五股區"
"248012","247-BX","2018/07/11 19:09:17","新北市五股區中興路四段48巷16號","121.43863","25.08342","6501500","五股區"
"248004","677-BX","2018/07/11 19:09:28","新北市五股區五福路7號","121.43416","25.0877433333333","6501500","五股區"
"248002","678-BX","2018/07/11 19:09:23","新北市五股區凌雲路一段158巷6號","121.448071666667","25.1027566666667","6501500","五股區"
"248010","682-TV","2018/07/11 19:09:25","新北市五股區水碓二路1號","121.43058","25.0713","6501500","五股區"
"234023","9380-KE","2018/07/11 19:09:34","新北市永和區中興街10巷7號","121.515435","25.0112116666667","6500400","永和區"
"234077","969-R7","2018/07/11 19:09:23","新北市永和區民族街25號","121.5188","24.9996033333333","6500400","永和區"
"234074","AAC-211","2018/07/11 19:09:27","新北市永和區竹林路198號","121.520496666667","25.0095366666667","6500400","永和區"
"234067","AAC-212","2018/07/11 19:09:35","新北市永和區保平路39號","121.511985","25.0072383333333","6500400","永和區"
"234003","AAC-295","2018/07/11 19:09:19","新北市永和區保福路一段45號","121.512521666667","25.0093066666667","6500400","永和區"
"244019","403-UM","2018/07/11 19:09:28","新北市林口區麗園二街1巷4-2號","121.377563333333","25.0700883333333","6501700","林口區"
"244013","742-UY","2018/07/11 19:09:22","新北市林口區麗園一街9巷1號","121.376548333333","25.07135","6501700","林口區"
"244009","410-SL","2018/07/11 19:09:19","新北市林口區林口路63號","121.389888333333","25.07963","6501700","林口區"
"244023","483-VK","2018/07/11 19:09:32","新北市林口區文林六街30號","121.371361666667","25.08089","6501700","林口區"
"244017","485-VK","2018/07/11 19:09:38","新北市林口區文化二路一段120巷13號","121.36822","25.0692116666667","6501700","林口區"
"244011","657-BX","2018/07/11 19:09:27","新北市林口區中正路365號","121.387435","25.077705","6501700","林口區"
"244025","837-TS","2018/07/11 19:09:34","新北市林口區民族路86-99號","121.366071666667","25.0753916666667","6501700","林口區"
"243010","267-VK","2018/07/11 19:09:31","新北市泰山區明志路一段350號","121.430755","25.0583183333333","6501600","泰山區"
"243013","AAD-798","2018/07/11 19:09:23","新北市泰山區漢口街7號","121.423508333333","25.036585","6501600","泰山區"
"243009","297-R6","2018/07/11 19:09:34","新北市泰山區楓樹街15巷1-2號","121.435026666667","25.0629416666667","6501600","泰山區"
"243016","380-SR","2018/07/11 19:09:33","新北市泰山區明志路二段336號","121.426148333333","25.0455866666667","6501600","泰山區"
"243015","421-VK","2018/07/11 19:09:23","新北市泰山區明志路一段418號","121.43064","25.0564933333333","6501600","泰山區"
"243012","539-UM","2018/07/11 19:09:31","新北市泰山區辭修路34巷1號","121.42887","25.0580533333333","6501600","泰山區"
"243011","KEA-2215","2018/07/11 19:09:34","新北市泰山區明志路二段320巷1弄7號","121.425731666667","25.045865","6501600","泰山區"
"243014","680-BX","2018/07/11 19:09:28","新北市泰山區泰林路二段409號","121.42677","25.0642116666667","6501600","泰山區"
"222002","016-RS","2018/07/11 19:09:37","新北市深坑區烏月路1號","121.63339","25.008365","6501800","深坑區"
"222003","436-BY","2018/07/11 19:09:29","新北市深坑區深南路162號","121.62612","25.0149616666667","6501800","深坑區"
"231040","047-UY","2018/07/11 19:09:26","新北市新店區三民路155-1號","121.533875","24.973405","6500600","新店區"
"231010","188-VK","2018/07/11 19:09:20","新北市新店區華潭街1巷3號","121.529493333333","24.949625","6500600","新店區"
"231058","3713-VJ","2018/07/11 19:09:21","新北市新店區北新路一段77號","121.538421666667","24.96054","6500600","新店區"
"231066","4716-K9","2018/07/11 19:09:31","新北市新店區安康路二段456巷6號","121.493325","24.954585","6500600","新店區"
"231062","720-UM","2018/07/11 19:09:34","新北市新店區安平路35巷2-1號","121.521298333333","24.9678216666667","6500600","新店區"
"231006","898-TW","2018/07/11 19:09:21","新北市新店區北宜路一段190-8號","121.542378333333","24.9528333333333","6500600","新店區"
"241011","013-R5","2018/07/11 19:09:19","新北市三重區秀江街230號","121.496956666667","25.0715116666667","6500200","三重區"
"241028","022-UY","2018/07/11 19:09:28","新北市三重區中正南路3號","121.493285","25.0604766666667","6500200","三重區"
"241017","063-VK","2018/07/11 19:09:30","新北市三重區大仁街1號","121.49164","25.0635466666667","6500200","三重區"
"241026","066-VK","2018/07/11 19:09:25","新北市三重區重安街139號","121.495396666667","25.0546266666667","6500200","三重區"
"241020","742-BX","2018/07/11 19:09:18","新北市三重區自強路三段7巷64號","121.488886666667","25.0725333333333","6500200","三重區"
"241035","KEA-2210","2018/07/11 19:09:31","新北市三重區新北大道一段7號","121.489543333333","25.0612883333333","6500200","三重區"
"241006","AAD-863","2018/07/11 19:09:18","新北市三重區車路頭街135-1號","121.484216666667","25.076145","6500200","三重區"
"241012","941-UM","2018/07/11 19:09:19","新北市三重區河邊北街377號","121.501765","25.0764283333333","6500200","三重區"
"241029","942-UM","2018/07/11 19:09:30","新北市三重區集美街257號","121.492385","25.0556","6500200","三重區"
"235066","003-UY","2018/07/11 19:09:22","新北市中和區廣福路32號","121.504663333333","25.0023066666667","6500300","中和區"
"235064","005-UY","2018/07/11 19:09:19","新北市中和區泰和街8號","121.49968","25.001295","6500300","中和區"
"235063","006-UY","2018/07/11 19:09:30","新北市中和區連城路249巷2號","121.49344","24.99687","6500300","中和區"
"235056","096-UM","2018/07/11 19:09:17","新北市中和區員山路506巷2號","121.479241666667","25.0085716666667","6500300","中和區"
"235039","097-UM","2018/07/11 19:09:36","新北市中和區景平路64巷14弄22號","121.522825","24.991255","6500300","中和區"
"235065","098-UM","2018/07/11 19:09:23","新北市中和區中山路二段136巷64號","121.50073","25.0042366666667","6500300","中和區"
"235040","150-BY","2018/07/11 19:08:57","新北市中和區宜安路39號","121.512101666667","24.9964616666667","6500300","中和區"
"235058","151-BY","2018/07/11 19:09:24","新北市中和區連城路523巷9弄2號","121.481718333333","24.9945166666667","6500300","中和區"
"235055","183-VK","2018/07/11 19:09:23","新北市中和區德光路26號","121.470875","25.0043266666667","6500300","中和區"
"235038","185-VK","2018/07/11 19:09:34","新北市中和區大仁街10巷9弄29號","121.519268333333","24.99303","6500300","中和區"
"235049","186-VK","2018/07/11 19:09:32","新北市中和區景新街149號","121.506246666667","24.9964266666667","6500300","中和區"
"235067","255-BX","2018/07/11 19:09:19","新北市中和區新生街166巷17-2號","121.482843333333","25.00018","6500300","中和區"
"235044","293-VK","2018/07/11 19:09:23","新北市中和區中興街222-5號","121.500596666667","24.9896233333333","6500300","中和區"
"235072","301-VK","2018/07/11 19:09:21","新北市中和區連城路110號","121.496265","24.9998016666667","6500300","中和區"
"235043","352-BY","2018/07/11 19:09:30","新北市中和區景平路146號","121.518425","24.992025","6500300","中和區"
"235042","KEA-2878","2018/07/11 19:09:35","新北市中和區自立路16巷8號","121.521378333333","24.993645","6500300","中和區"
"235050","4979-A6","2018/07/11 19:09:30","新北市中和區復興路249巷11弄3-1號","121.503626666667","24.98968","6500300","中和區"
"235069","4980-A6","2018/07/11 19:09:28","新北市中和區中和路217巷18弄1號","121.504755","25.0002916666667","6500300","中和區"
"235070","558-UM","2018/07/11 19:09:31","新北市中和區中和路71號","121.500543333333","25.001025","6500300","中和區"
"235045","565-BX","2018/07/11 19:09:24","新北市中和區景新街451號","121.513455","24.98859","6500300","中和區"
"235054","640-BX","2018/07/11 19:09:19","新北市中和區國光街105號","121.470076666667","25.0003883333333","6500300","中和區"
"235060","647-TV","2018/07/11 19:09:25","新北市中和區民有街63號","121.476318333333","25.0033966666667","6500300","中和區"
"235047","732-UM","2018/07/11 19:09:29","新北市中和區捷運路6號","121.510151666667","24.98951","6500300","中和區"
"235046","733-UM","2018/07/11 19:09:35","新北市中和區忠孝街1巷42號","121.508648333333","24.98404","6500300","中和區"
"235071","783-BX","2018/07/11 19:09:35","新北市中和區連城路322號","121.483366666667","24.9960783333333","6500300","中和區"
"235057","801-TS","2018/07/11 19:09:28","新北市中和區民利街54號","121.47924","24.9986866666667","6500300","中和區"
"235041","802-TS","2018/07/11 19:09:32","新北市中和區中和路258號","121.507596666667","24.99967","6500300","中和區"
"235052","805-TS","2018/07/11 19:09:39","新北市中和區興南路二段242巷20號","121.502048333333","24.983315","6500300","中和區"
"235048","896-TW","2018/07/11 19:09:37","新北市中和區忠孝街13號","121.51008","24.9827733333333","6500300","中和區"
"235053","900-TW","2018/07/11 19:09:22","新北市中和區民德路274號","121.467613333333","24.99647","6500300","中和區"
"235051","157-BY","2018/07/11 19:09:38","新北市中和區興南路一段75號","121.510153333333","24.989165","6500300","中和區"
"235037","AAC-213","2018/07/11 19:09:28","新北市中和區秀朗路三段60巷9號","121.52567","24.9950383333333","6500300","中和區"
"235059","AAC-215","2018/07/11 19:09:33","新北市中和區圓通路294巷15號","121.488818333333","24.990175","6500300","中和區"
"220068","013-TV","2018/07/11 19:09:25","新北市板橋區三民路一段31巷39-1號","121.480561666667","25.0232816666667","6500100","板橋區"
"220065","072-UY","2018/07/11 19:09:24","新北市板橋區民族路219巷75號","121.468786666667","25.00896","6500100","板橋區"
"220106","075-UY","2018/07/11 19:09:22","新北市板橋區文化路二段317號","121.472176666667","25.0298066666667","6500100","板橋區"
"220069","AAD-861","2018/07/11 19:09:30","新北市板橋區大華街65號","121.459555","25.0033666666667","6500100","板橋區"
"228003","097-TW","2018/07/11 19:09:18","新北市貢寮區和美里和美街38號","121.912165","25.0883216666667","6502600","貢寮區"
"228001","212-TW","2018/07/11 19:09:29","新北市貢寮區真理里新港街10號","121.925483333333","25.054375","6502600","貢寮區"
"228002","663-BX","2018/07/11 19:09:31","新北市貢寮區福隆里興隆街16號","121.944995","25.0166933333333","6502600","貢寮區"
"224011","AGQ-8101","2018/07/11 19:09:09","新北市瑞芳區基山街104號","121.844078333333","25.10857","6501200","瑞芳區"
"224006","676-BX","2018/07/11 19:09:27","新北市瑞芳區中山路64號","121.802898333333","25.10641","6501200","瑞芳區"
"224011","420-VK","2018/07/11 19:09:34","新北市瑞芳區崙頂路3-1號","121.847035","25.1046933333333","6501200","瑞芳區"
"224008","285-BY","2018/07/11 19:09:35","新北市瑞芳區瑞芳街82-1號","121.80308","25.10995","6501200","瑞芳區"
"224007","275-VK","2018/07/11 19:09:27","新北市瑞芳區大寮路2號","121.785475","25.1002483333333","6501200","瑞芳區"
"224009","273-VK","2018/07/11 19:09:21","新北市瑞芳區洞頂路101巷56號","121.860471666667","25.12197","6501200","瑞芳區"
"224005","271-BY","2018/07/11 19:07:10","新北市瑞芳區阿美家園47號","121.82036","25.116675","6501200","瑞芳區"
"227008","642-TC","2018/07/11 19:09:25","新北市雙溪區牡丹里中正路46號","121.864905","25.03885","6502500","雙溪區"
"227001","400-TW","2018/07/11 19:09:31","新北市雙溪區平林里梅竹蹊56-4號","121.860725","25.03666","6502500","雙溪區"
"253005","032-BX","2018/07/11 19:09:27","新北市石門區阿里荖42-1號","121.60298","25.2855666666667","6502200","石門區"
"253006","295-VK","2018/07/11 19:09:26","新北市石門區崁子腳61-1號","121.532411666667","25.287615","6502200","石門區"
"222001","KEA-2212","2018/07/11 19:09:25","新北市深坑區北深路一段300號","121.624268333333","25.00564","6501800","深坑區"
"208002","KEA-2872","2018/07/11 19:09:27","新北市金山區仁愛路67巷26號","121.63416","25.2209616666667","6502700","金山區"
"208003","665-BX","2018/07/11 19:09:24","新北市金山區中正路135號","121.632396666667","25.221525","6502700","金山區"
"208001","761-BX","2018/07/11 19:09:27","新北市金山區金包里街51號","121.639028333333","25.221365","6502700","金山區"
"251009","008-UM","2018/07/11 19:09:19","新北市淡水區清水街147-2號","121.44023","25.1715916666667","6501000","淡水區"
"251013","KEA-2871","2018/07/11 19:09:32","新北市淡水區安子內12-1號","121.481568333333","25.21909","6501000","淡水區"
"251016","179-VK","2018/07/11 19:09:34","新北市淡水區淡金路三段36號","121.448121666667","25.1992033333333","6501000","淡水區"
"251014","180-VK","2018/07/11 19:09:26","新北市淡水區小中寮19-8號","121.486273333333","25.2279366666667","6501000","淡水區"
"251015","181-VK","2018/07/11 19:09:32","新北市淡水區南勢埔27-2號","121.483496666667","25.180505","6501000","淡水區"
"251010","413-VK","2018/07/11 19:09:36","新北市淡水區中正路一段156巷3號","121.421158333333","25.180285","6501000","淡水區"
"251008","442-VK","2018/07/11 19:09:15","新北市淡水區下圭柔山91-3號","121.430915","25.2096583333333","6501000","淡水區"
"251001","559-UM","2018/07/11 19:09:34","新北市淡水區自強路201巷47號","121.462116666667","25.126925","6501000","淡水區"
"251007","577-R6","2018/07/11 19:09:21","新北市淡水區民生路145巷58號","121.468006666667","25.1387666666667","6501000","淡水區"
"251002","672-BX","2018/07/11 19:09:27","新北市淡水區中山路89號","121.442421666667","25.1704866666667","6501000","淡水區"
"251003","766-UM","2018/07/11 19:09:27","新北市淡水區中山北路一段84號","121.442331666667","25.1761783333333","6501000","淡水區"
"207003","550-UM","2018/07/11 19:09:35","新北市萬里區大鵬里萬里加投15-2號","121.650301666667","25.2095183333333","6502800","萬里區"
"207004","225-TW","2018/07/11 19:09:17","新北市萬里區萬里里瑪鋉下街46號","121.691451666667","25.1792183333333","6502800","萬里區"
"252002","178-VK","2018/07/11 19:09:22","新北市三芝區中正路一段81號","121.504211666667","25.2569183333333","6502100","三芝區"
"252003","249-BX","2018/07/11 19:09:27","新北市三芝區錫板里南勢崗8號","121.479231666667","25.2616133333333","6502100","三芝區"
"252001","292-VK","2018/07/11 19:09:32","新北市三芝區長勤街45巷2號","121.500315","25.2550966666667","6502100","三芝區"
"237004","KEA-2597","2018/07/11 19:09:28","新北市三峽區有木206號","121.4391","24.8514733333333","6500900","三峽區"
"237007","153-BY","2018/07/11 19:09:31","新北市三峽區中正路二段83巷17號","121.36727","24.91787","6500900","三峽區"
"237013","252-BX","2018/07/11 19:09:28","新北市三峽區光明路69巷25號","121.376741666667","24.92925","6500900","三峽區"
"237012","275-BY","2018/07/11 19:09:37","新北市三峽區三樹路222巷236弄23號","121.391475","24.9430733333333","6500900","三峽區"
"237008","302-VK","2018/07/11 19:09:21","新北市三峽區大同路94號","121.375553333333","24.9277183333333","6500900","三峽區"
"237014","433-BY","2018/07/11 19:09:27","新北市三峽區中山路257巷39號","121.362126666667","24.9363516666667","6500900","三峽區"
"237006","5529-G3","2018/07/11 19:09:37","新北市三峽區溪東路46號","121.400955","24.93475","6500900","三峽區"
"237011","KEA-2596","2018/07/11 19:09:33","新北市三峽區介壽路一段233號","121.379205","24.9303516666667","6500900","三峽區"
"237016","649-BX","2018/07/11 19:09:24","新北市三峽區安坑64-5號","121.469036666667","24.9296666666667","6500900","三峽區"
"237010","706-TV","2018/07/11 19:09:40","新北市三峽區復興路47號","121.37342","24.9369566666667","6500900","三峽區"
"237005","AKY-6261","2018/07/11 19:09:24","新北市三峽區中山路459巷163-3號","121.348675","24.9329283333333","6500900","三峽區"
"236070","105-UM","2018/07/11 19:09:31","新北市土城區裕生路84巷4號","121.44703","24.985505","6501300","土城區"
"236042","107-UM","2018/07/11 19:09:35","新北市土城區學府路一段276號","121.450301666667","24.9833633333333","6501300","土城區"
"236079","166-UM","2018/07/11 19:09:38","新北市土城區中央路四段321巷28號","121.411393333333","24.9513183333333","6501300","土城區"
"236026","269-VK","2018/07/11 19:09:28","新北市土城區中央路二段228號","121.442016666667","24.9752466666667","6501300","土城區"
"236014","270-VK","2018/07/11 19:09:37","新北市土城區學府路一段99巷2號","121.456568333333","24.98721","6501300","土城區"
"236021","401-BY","2018/07/11 19:09:27","新北市土城區延吉街146號","121.469075","24.9855916666667","6501300","土城區"
"236059","912-UM","2018/07/11 19:09:29","新北市土城區金城路一段131號","121.444788333333","24.9737333333333","6501300","土城區"
"236049","913-UM","2018/07/11 19:09:29","新北市土城區明德路一段365-1號","121.453653333333","24.97907","6501300","土城區"
"236055","AAC-216","2018/07/11 19:09:28","新北市土城區學府路一段276號","121.450235","24.9832883333333","6501300","土城區"
"238015","755-BX","2018/07/11 19:08:59","新北市樹林區光明街22號","121.41125","24.9897983333333","6500700","樹林區"
"238023","601-UM","2018/07/11 19:09:34","新北市樹林區三興路37號","121.396088333333","25.0146533333333","6500700","樹林區"
"238019","599-UM","2018/07/11 19:09:16","新北市樹林區東榮街28號","121.417666666667","24.9834566666667","6500700","樹林區"
"238018","571-TV","2018/07/11 19:09:18","新北市樹林區太平路56巷27號","121.418271666667","24.9816733333333","6500700","樹林區"
"238024","5061-A6","2018/07/11 19:09:37","新北市樹林區中山路二段249巷30號","121.40352","24.97543","6500700","樹林區"
"238022","KEA-2213","2018/07/11 19:09:28","新北市樹林區中華路341-5號","121.415256666667","24.9802316666667","6500700","樹林區"
"238021","KEA-2539","2018/07/11 19:09:36","新北市樹林區柑園街二段453號","121.363345","24.9462766666667","6500700","樹林區"
"238025","303-VK","2018/07/11 19:09:20","新北市樹林區中山路三段75號","121.400471666667","24.9749","6500700","樹林區"
"238017","283-BY","2018/07/11 19:09:19","新北市樹林區光興街134巷1號","121.406611666667","25.0031616666667","6500700","樹林區"
"238014","282-BY","2018/07/11 19:09:30","新北市樹林區中正路22-1號","121.427691666667","24.9993616666667","6500700","樹林區"
"238020","268-VK","2018/07/11 19:09:36","新北市樹林區俊英街125巷2號","121.424076666667","25.010915","6500700","樹林區"
"238026","172-UY","2018/07/11 19:09:32","新北市樹林區佳園路三段51號","121.387813333333","24.9534283333333","6500700","樹林區"
"239007","AAC-297","2018/07/11 19:09:37","新北市鶯歌區大湖路326巷7號","121.345813333333","24.9703783333333","6500800","鶯歌區"
"239006","891-R6","2018/07/11 19:09:32","新北市鶯歌區鶯桃路296巷72弄8號","121.336846666667","24.9614866666667","6500800","鶯歌區"
"239008","527-UM","2018/07/11 19:09:40","新北市鶯歌區國際二路10巷13號","121.338228333333","24.9743516666667","6500800","鶯歌區"
"239005","526-UM","2018/07/11 19:09:34","新北市鶯歌區大湖路361巷62號","121.331043333333","24.9773533333333","6500800","鶯歌區"
"239001","417-VK","2018/07/11 19:09:23","新北市鶯歌區鶯桃路153號","121.33753","24.9550866666667","6500800","鶯歌區"
"239003","360-BY","2018/07/11 19:09:26","新北市鶯歌區德昌二街92號","121.332861666667","24.9558683333333","6500800","鶯歌區"
"239004","193-VK","2018/07/11 19:09:32","新北市鶯歌區中正三路400-1號","121.325725","24.93461","6500800","鶯歌區"
"220079","145-BY","2018/07/11 19:09:34","新北市板橋區民權路302巷1弄1號","121.457295","25.0162933333333","6500100","板橋區"
"220080","200-UY","2018/07/11 19:09:28","新北市板橋區大觀路二段7巷24號","121.447915","25.0033666666667","6500100","板橋區"
"220082","610-BX","2018/07/11 19:09:30","新北市板橋區溪崑二街88號","121.427146666667","24.989465","6500100","板橋區"
"220101","245-BX","2018/07/11 19:09:36","新北市板橋區民生路二段120號","121.471015","25.0195466666667","6500100","板橋區"
"220056","276-BY","2018/07/11 19:09:29","新北市板橋區信義路110巷2弄12號","121.457748333333","24.9926466666667","6500100","板橋區"
"220071","283-VK","2018/07/11 19:09:13","新北市板橋區重慶路243號","121.463131666667","25.0005933333333","6500100","板橋區"
"220094","285-UM","2018/07/11 19:09:34","新北市板橋區光武街133號","121.465585","25.0291866666667","6500100","板橋區"
"220053","285-VK","2018/07/11 19:09:29","新北市板橋區懷仁街31號","121.476481666667","25.0195633333333","6500100","板橋區"
"220083","286-VK","2018/07/11 19:09:38","新北市板橋區大觀路二段174巷173弄2號","121.44182","25.0036833333333","6500100","板橋區"
"220081","287-VK","2018/07/11 19:09:22","新北市板橋區南雅西路二段156巷7號","121.452213333333","25.01338","6500100","板橋區"
"220090","288-VK","2018/07/11 19:09:37","新北市板橋區裕民街47號","121.461398333333","25.0286183333333","6500100","板橋區"
"220061","293-UM","2018/07/11 19:09:37","新北市板橋區中山路二段267號","121.477606666667","25.0180016666667","6500100","板橋區"
"220084","296-UM","2018/07/11 19:09:31","新北市板橋區溪崑二街56巷20號","121.427886666667","24.9912","6500100","板橋區"
"220075","303-R5","2018/07/11 19:09:34","新北市板橋區南雅西路一段10巷11號","121.4545","25.0048916666667","6500100","板橋區"
"220062","305-R5","2018/07/11 19:09:22","新北市板橋區三民路二段居仁巷2弄15號","121.47969","25.012895","6500100","板橋區"
"220092","307-R5","2018/07/11 19:09:28","新北市板橋區文化路二段225巷72弄34號","121.46872","25.02919","6500100","板橋區"
"220098","317-R6","2018/07/11 19:09:24","新北市板橋區自由路51巷9-3號","121.465066666667","25.0234716666667","6500100","板橋區"
"220064","486-VK","2018/07/11 19:09:35","新北市板橋區中山路二段18號","121.472196666667","25.0148483333333","6500100","板橋區"
"220088","491-VK","2018/07/11 19:09:20","新北市板橋區文化路二段182巷1弄2號","121.470976666667","25.02749","6500100","板橋區"
"220035","560-BX","2018/07/11 19:09:27","新北市板橋區中正路330號","121.454686666667","25.0216183333333","6500100","板橋區"
"220103","561-BX","2018/07/11 19:09:24","新北市板橋區介壽街84巷56號","121.468696666667","25.0183216666667","6500100","板橋區"
"220072","568-UM","2018/07/11 19:09:26","新北市板橋區金門街260巷10弄2號","121.429305","24.9867366666667","6500100","板橋區"
"220063","609-BX","2018/07/11 19:09:36","新北市板橋區三民路二段212號","121.478773333333","25.011865","6500100","板橋區"
"220086","630-UY","2018/07/11 19:09:29","新北市板橋區中正路250巷103號","121.459891666667","25.02009","6500100","板橋區"
"220091","637-BX","2018/07/11 19:09:36","新北市板橋區縣民大道三段247巷11號","121.481678333333","25.0263983333333","6500100","板橋區"
"220057","686-BX","2018/07/11 19:09:36","新北市板橋區國慶路203號","121.463368333333","24.9970116666667","6500100","板橋區"
"220093","689-BX","2018/07/11 19:09:23","新北市板橋區民生路三段129號","121.466143333333","25.0259333333333","6500100","板橋區"
"220054","741-BX","2018/07/11 19:09:31","新北市板橋區校前街74號","121.461981666667","25.0033816666667","6500100","板橋區"
"220102","KEA-2699","2018/07/11 19:09:30","新北市板橋區田單街51號","121.482638333333","25.0279533333333","6500100","板橋區"
"220077","806-UM","2018/07/11 19:09:18","新北市板橋區大觀路一段31號","121.449936666667","25.0084783333333","6500100","板橋區"
"220055","827-TW","2018/07/11 19:09:37","新北市板橋區新民街4巷1號","121.46434","25.0101633333333","6500100","板橋區"
"220067","829-TW","2018/07/11 19:09:27","新北市板橋區中山路二段90巷41號","121.476296666667","25.014825","6500100","板橋區"
"220096","830-TW","2018/07/11 19:09:19","新北市板橋區雙十路二段33巷1-1號","121.47675","25.0257116666667","6500100","板橋區"
"220089","833-TW","2018/07/11 19:09:37","新北市板橋區文化路二段239號","121.471071666667","25.0286783333333","6500100","板橋區"
"220074","895-R6","2018/07/11 19:09:24","新北市板橋區中正路自強新村45-2號","121.454715","25.013865","6500100","板橋區"
"220073","985-R7","2018/07/11 19:09:36","新北市板橋區中正路316號","121.454745","25.0207733333333","6500100","板橋區"
"220097","AAC-210","2018/07/11 19:09:26","新北市板橋區幸福路70巷6號","121.460713333333","25.0202566666667","6500100","板橋區"
"220070","AAC-253","2018/07/11 19:09:29","新北市板橋區忠孝路101號","121.462468333333","25.0022566666667","6500100","板橋區"
"235068","KEA-2873","2018/07/11 19:09:12","新北市中和區連勝街38巷16號","121.497798333333","24.997855","6500300","中和區"
"235061","KEA-2875","2018/07/11 19:09:33","新北市中和區員山路312號","121.48148","25.002915","6500300","中和區"
