"lineid","car","time","location","longitude","latitude","cityid","cityname"
"234064","337-UY","2018/07/11 20:49:20","新北市五股區孝義路8號","121.452511666667","25.1062166666667","6500400","永和區"
"234086","553-UM","2018/07/11 20:49:32","新北市八里區荖阡坑路20-9號","121.398491666667","25.136935","6500400","永和區"
"234077","969-R7","2018/07/11 20:49:23","新北市八里區下罟子8-10號","121.383416666667","25.144515","6500400","永和區"
"234074","AAC-211","2018/07/11 20:49:34","新北市永和區環河東路二段36號","121.522723333333","25.0124616666667","6500400","永和區"
"243009","297-R6","2018/07/11 20:49:34","新北市泰山區泰林路二段542巷1弄2號","121.422801666667","25.0641083333333","6501600","泰山區"
"243011","KEA-2215","2018/07/11 20:49:34","新北市泰山區明志路三段42巷18號","121.424225","25.0424766666667","6501600","泰山區"
"222002","016-RS","2018/07/11 20:49:27","新北市深坑區北深路三段93巷73號","121.603441666667","25.001185","6501800","深坑區"
"222003","436-BY","2018/07/11 20:49:26","新北市深坑區文山路三段48-1號","121.609928333333","24.9985083333333","6501800","深坑區"
"231028","046-UY","2018/07/11 20:49:37","新北市新店區僑信路84巷43號","121.498503333333","24.94746","6500600","新店區"
"231040","047-UY","2018/07/11 20:49:26","新北市新店區中正路266號","121.539066666667","24.973535","6500600","新店區"
"231058","3713-VJ","2018/07/11 20:49:32","新北市新店區中央路131號","121.530481666667","24.9738266666667","6500600","新店區"
"231066","4716-K9","2018/07/11 20:49:31","新北市新店區安興路61號","121.515981666667","24.9727316666667","6500600","新店區"
"231067","4772-VM","2018/07/11 20:49:31","新北市新店區安華路28-1號","121.519741666667","24.9608633333333","6500600","新店區"
"231062","720-UM","2018/07/11 20:49:29","新北市新店區和成街17巷31號","121.488725","24.9465583333333","6500600","新店區"
"241028","022-UY","2018/07/11 20:49:28","新北市三重區中正南路48號","121.493921666667","25.0599516666667","6500200","三重區"
"241008","059-VK","2018/07/11 20:49:32","新北市三重區永福街72巷11號","121.479418333333","25.0767966666667","6500200","三重區"
"241022","060-VK","2018/07/11 20:49:27","新北市三重區過圳街27-5號","121.488016666667","25.06241","6500200","三重區"
"241031","061-VK","2018/07/11 20:49:23","新北市三重區重陽路一段113巷2弄2號","121.487566666667","25.05987","6500200","三重區"
"241015","062-VK","2018/07/11 20:49:22","新北市三重區自強路一段3號","121.498833333333","25.0683966666667","6500200","三重區"
"241024","065-VK","2018/07/11 20:49:23","新北市三重區國道路一段58巷20號","121.481175","25.0720166666667","6500200","三重區"
"241026","066-VK","2018/07/11 20:49:25","新北市三重區和平街3號","121.500186666667","25.0623766666667","6500200","三重區"
"241002","090-VK","2018/07/11 20:49:28","新北市三重區仁義街157巷96號","121.499095","25.0821783333333","6500200","三重區"
"241005","262-UM","2018/07/11 20:49:29","新北市三重區碧華街446號","121.493091666667","25.0860016666667","6500200","三重區"
"241016","266-UM","2018/07/11 20:49:24","新北市三重區正義北路208號","121.49616","25.0673883333333","6500200","三重區"
"241009","267-UM","2018/07/11 20:49:25","新北市三重區三和路四段394號","121.481596666667","25.0793033333333","6500200","三重區"
"241018","268-UM","2018/07/11 20:49:39","新北市三重區正義北路271號","121.495356666667","25.070015","6500200","三重區"
"241032","269-UM","2018/07/11 20:49:35","新北市三重區重陽路一段120巷37號","121.48502","25.06024","6500200","三重區"
"241013","270-UM","2018/07/11 20:49:32","新北市三重區三和路三段168號","121.492631666667","25.0732133333333","6500200","三重區"
"241025","271-UM","2018/07/11 20:49:34","新北市三重區新北大道一段148號","121.484286666667","25.0618433333333","6500200","三重區"
"241007","398-BY","2018/07/11 20:49:34","新北市三重區慈愛街10號","121.484538333333","25.0784333333333","6500200","三重區"
"241035","KEA-2210","2018/07/11 20:49:31","新北市三重區文化北路248號","121.497383333333","25.0698933333333","6500200","三重區"
"241004","475-VK","2018/07/11 20:49:21","新北市三重區分子尾街33號","121.489348333333","25.0813833333333","6500200","三重區"
"241030","480-VK","2018/07/11 20:49:34","新北市三重區昌隆街26號","121.491945","25.052275","6500200","三重區"
"241014","543-UM","2018/07/11 20:49:31","新北市三重區安和路52號","121.500763333333","25.0698033333333","6500200","三重區"
"241023","545-UM","2018/07/11 20:49:37","新北市三重區忠孝路三段84巷1號","121.480136666667","25.064575","6500200","三重區"
"241001","547-UM","2018/07/11 20:49:25","新北市三重區自強路三段83號","121.487385","25.07485","6500200","三重區"
"241019","KEA-2593","2018/07/11 20:49:28","新北市三重區三張街19號","121.49196","25.07132","6500200","三重區"
"241006","AAD-863","2018/07/11 20:49:38","新北市三重區車路頭街137號","121.483906666667","25.0761916666667","6500200","三重區"
"241012","941-UM","2018/07/11 20:49:19","新北市三重區龍濱路205巷16號","121.502823333333","25.072045","6500200","三重區"
"241029","942-UM","2018/07/11 20:49:30","新北市三重區重安街18號","121.49031","25.0581283333333","6500200","三重區"
"241033","AAC-255","2018/07/11 20:49:21","新北市三重區光復路二段1號","121.472263333333","25.0532966666667","6500200","三重區"
"235069","4980-A6","2018/07/11 20:49:27","新北市中和區新生街235號","121.483863333333","24.9990366666667","6500300","中和區"
"247024","893-R6","2018/07/11 20:49:34","新北市蘆洲區長樂路136號","121.462058333333","25.0901383333333","6501400","蘆洲區"
"247014","546-UM","2018/07/11 20:49:31","新北市蘆洲區三民路95號","121.473843333333","25.084945","6501400","蘆洲區"
"247022","500-BY","2018/07/11 20:49:33","新北市蘆洲區中正路168號","121.468643333333","25.0857966666667","6501400","蘆洲區"
"247010","341-TH","2018/07/11 20:49:30","新北市蘆洲區鷺江街91號","121.476916666667","25.0837766666667","6501400","蘆洲區"
"247012","339-TH","2018/07/11 20:49:30","新北市蘆洲區集賢路222-6號","121.482545","25.0866366666667","6501400","蘆洲區"
"247004","337-TH","2018/07/11 20:49:23","新北市蘆洲區長安街101號","121.461598333333","25.080835","6501400","蘆洲區"
"247006","336-TH","2018/07/11 20:49:30","新北市蘆洲區九芎街98號","121.465596666667","25.079735","6501400","蘆洲區"
"247018","057-VK","2018/07/11 20:49:22","新北市蘆洲區民權路72巷1號","121.47486","25.0875933333333","6501400","蘆洲區"
"247016","007-UY","2018/07/11 20:49:39","新北市蘆洲區中正路71號","121.47046","25.0827566666667","6501400","蘆洲區"
"247002","002-UY","2018/07/11 20:49:38","新北市蘆洲區長興路229號","121.460373333333","25.08678","6501400","蘆洲區"
"247020","001-UY","2018/07/11 20:49:34","新北市蘆洲區仁愛街73號","121.471568333333","25.09374","6501400","蘆洲區"
"222001","KEA-2212","2018/07/11 20:49:25","新北市深坑區北深路三段133號","121.604015","25.0024416666667","6501800","深坑區"
"251013","KEA-2871","2018/07/11 20:49:32","新北市淡水區埤島41號","121.45199","25.197575","6501000","淡水區"
"251016","179-VK","2018/07/11 20:49:29","新北市淡水區淡金路四段467號","121.451805","25.22379","6501000","淡水區"
"251014","180-VK","2018/07/11 20:49:26","新北市淡水區公埔子32-8號","121.461635","25.2323616666667","6501000","淡水區"
"251015","181-VK","2018/07/11 20:49:32","新北市淡水區淡金路四段542巷17號","121.452745","25.2270633333333","6501000","淡水區"
"251010","413-VK","2018/07/11 20:49:36","新北市淡水區沙崙路141-1號","121.423288333333","25.1831033333333","6501000","淡水區"
"251012","441-VK","2018/07/11 20:49:36","新北市淡水區淡金路四段514號","121.452073333333","25.2257216666667","6501000","淡水區"
"251001","559-UM","2018/07/11 20:49:34","新北市淡水區淡金路一段69號","121.458826666667","25.1731066666667","6501000","淡水區"
"251006","561-UM","2018/07/11 20:49:33","新北市淡水區新春街97號","121.439783333333","25.182485","6501000","淡水區"
"251007","577-R6","2018/07/11 20:49:40","新北市淡水區鄧公路35巷19弄7號","121.452471666667","25.1717533333333","6501000","淡水區"
"251011","650-BX","2018/07/11 20:49:25","新北市淡水區新民街一段13號","121.433016666667","25.1847433333333","6501000","淡水區"
"251002","672-BX","2018/07/11 20:49:27","新北市淡水區中正東路6號","121.447056666667","25.167095","6501000","淡水區"
"251003","766-UM","2018/07/11 20:49:27","新北市淡水區中山北路一段247巷86號","121.44242","25.17941","6501000","淡水區"
"242034","AAC-296","2018/07/11 20:49:39","新北市新莊區中正路309號","121.448156666667","25.03519","6500500","新莊區"
"242054","751-BX","2018/07/11 20:49:29","新北市新莊區民安西路228號","121.425938333333","25.01442","6500500","新莊區"
"242027","615-BX","2018/07/11 20:49:30","新北市新莊區新樹路613號","121.435745","25.0034433333333","6500500","新莊區"
"242042","566-BX","2018/07/11 20:49:31","新北市新莊區天祥街22號","121.417376666667","25.02734","6500500","新莊區"
"242037","415-TV","2018/07/11 20:49:38","新北市新莊區中正路380號","121.443005","25.034175","6500500","新莊區"
"242023","362-BY","2018/07/11 20:49:22","新北市新莊區新樹路613號","121.435831666667","25.0036366666667","6500500","新莊區"
"242009","132-UY","2018/07/11 20:49:25","新北市新莊區幸福路1號","121.459688333333","25.04949","6500500","新莊區"
"242017","175-VK","2018/07/11 20:49:23","新北市新莊區新樹路647-1號","121.435643333333","25.002915","6500500","新莊區"
"242005","176-VK","2018/07/11 20:49:32","新北市新莊區瓊林路59-56號","121.444468333333","25.0258383333333","6500500","新莊區"
"242002","349-TH","2018/07/11 20:49:28","新北市新莊區中港路五守新村1巷7號","121.455298333333","25.0381416666667","6500500","新莊區"
"242056","280-VK","2018/07/11 20:49:38","新北市新莊區環河路508-1號","121.438246666667","25.0153433333333","6500500","新莊區"
"220070","AAC-253","2018/07/11 20:49:29","新北市林口區汕頭32號","121.366536666667","25.1348933333333","6500100","板橋區"
