"lineid","car","time","location","longitude","latitude","cityid","cityname"
"243001","297-R6","2018/07/11 21:21:58","新北市泰山區黎明路25號","121.421935","25.0608966666667","6501600","泰山區"
"241020","742-BX","2018/07/11 21:49:43","新北市三重區忠孝路一段29號","121.49173","25.0718316666667","6500200","三重區"
"241006","AAD-863","2018/07/11 21:49:38","新北市八里區中山路三段247號","121.381483333333","25.1402133333333","6500200","三重區"
"235010","733-UM","2018/07/11 21:39:34","新北市中和區員山路36巷13號","121.484188333333","24.9908016666667","6500300","中和區"
"247012","339-TH","2018/07/11 21:49:30","新北市林口區太平里180號","121.367163333333","25.13372","6501400","蘆洲區"
"224011","420-VK","2018/07/11 21:49:34","新北市瑞芳區中正路61號","121.806366666667","25.1073033333333","6501200","瑞芳區"
"251009","008-UM","2018/07/11 21:49:39","新北市淡水區民族路35巷46號","121.465441666667","25.1371883333333","6501000","淡水區"
"251004","009-UM","2018/07/11 21:49:42","新北市淡水區民權路92巷35-1號","121.462148333333","25.1267333333333","6501000","淡水區"
"251010","413-VK","2018/07/11 21:49:36","新北市淡水區中正路二段211號","121.426213333333","25.18913","6501000","淡水區"
"251012","441-VK","2018/07/11 21:49:36","新北市淡水區淡金路三段333號","121.448946666667","25.20632","6501000","淡水區"
"251008","442-VK","2018/07/11 21:49:35","新北市淡水區學府路104號","121.44989","25.1718683333333","6501000","淡水區"
"251005","443-VK","2018/07/11 21:49:26","新北市淡水區鄧公路30巷30弄3號","121.453723333333","25.1698416666667","6501000","淡水區"
"251001","559-UM","2018/07/11 21:49:34","新北市淡水區新市三路一段312號","121.430958333333","25.1973583333333","6501000","淡水區"
"251006","561-UM","2018/07/11 21:44:39","新北市淡水區中正路11巷3號","121.437815","25.1707383333333","6501000","淡水區"
"251007","577-R6","2018/07/11 21:49:20","新北市淡水區水源街二段177巷92號","121.452103333333","25.1775516666667","6501000","淡水區"
"251011","650-BX","2018/07/11 21:49:25","新北市淡水區新民街322巷9號","121.436386666667","25.18289","6501000","淡水區"
"251002","672-BX","2018/07/11 21:49:26","新北市淡水區學府路211-2號","121.447588333333","25.1765983333333","6501000","淡水區"
"251003","766-UM","2018/07/11 21:49:27","新北市淡水區新春街90號","121.438853333333","25.1823583333333","6501000","淡水區"
"220070","AAC-253","2018/07/11 21:49:29","新北市板橋區華東街1-9號","121.44826","24.9948616666667","6500100","板橋區"
