"lineid","car","time","location","longitude","latitude","cityid","cityname"
"247005","336-TH","2018/07/11 22:25:34","新北市五股區中興路三段163號","121.449111666667","25.0807866666667","6501400","蘆洲區"
"251004","009-UM","2018/07/11 22:29:42","新北市淡水區民族路60號","121.461968333333","25.1358216666667","6501000","淡水區"
"251010","413-VK","2018/07/11 22:29:36","新北市淡水區沙崙路200號","121.424691666667","25.183895","6501000","淡水區"
"251008","442-VK","2018/07/11 22:29:35","新北市淡水區學府路104號","121.44989","25.1718883333333","6501000","淡水區"
"251001","559-UM","2018/07/11 22:29:34","新北市淡水區下圭柔山90-8號","121.431376666667","25.210385","6501000","淡水區"
"251011","650-BX","2018/07/11 22:29:25","新北市淡水區水碓街7號","121.443216666667","25.177175","6501000","淡水區"
