"lineid","car","time","location","longitude","latitude","cityid","cityname"
"232002","290-BY","2018/07/12 06:39:51","新北市坪林區北宜路八段558號","121.71807","24.9095833333333","6502000","坪林區"
"232014","291-BY","2018/07/12 06:39:33","新北市坪林區北宜路八段558號","121.718013333333","24.909475","6502000","坪林區"
"232018","705-BZ","2018/07/12 06:39:44","新北市坪林區北宜路八段558號","121.717868333333","24.90929","6502000","坪林區"
"232007","758-BX","2018/07/12 06:39:45","新北市坪林區北宜路八段558號","121.718","24.9093783333333","6502000","坪林區"
"223006","022-BY","2018/07/12 06:39:44","新北市石碇區碇坪路一段121號","121.665541666667","24.9874383333333","6501900","石碇區"
"223002","KEA-2673","2018/07/12 06:39:47","新北市石碇區碇坪路一段130號","121.659378333333","24.9912716666667","6501900","石碇區"
"223003","205-TH","2018/07/12 06:39:43","新北市石碇區石碇東街12號","121.661763333333","24.9908516666667","6501900","石碇區"
"223008","406-TH","2018/07/12 06:39:36","新北市石碇區碇坪路一段18號","121.651293333333","25.0032983333333","6501900","石碇區"
"223001","592-UM","2018/07/12 06:39:46","新北市石碇區湳窟22-1號","121.661171666667","24.9908533333333","6501900","石碇區"
"223004","660-BX","2018/07/12 06:39:52","新北市石碇區小粗坑(潭邊里)9-2號","121.678563333333","24.9853916666667","6501900","石碇區"
"223007","661-BX","2018/07/12 06:39:47","新北市石碇區八分寮80-2號","121.653131666667","25.007375","6501900","石碇區"
"223005","677-TV","2018/07/12 06:39:33","新北市石碇區小粗坑(潭邊里)9-2號","121.67806","24.9859966666667","6501900","石碇區"
"227007","282-VK","2018/07/12 06:39:53","新北市雙溪區牡丹里聖南10-2號","121.860695","25.0496566666667","6502500","雙溪區"
