"lineid","car","time","location","longitude","latitude","cityid","cityname"
"248005","653-BX","2018/07/12 07:09:35","新北市五股區成泰路一段98巷5號","121.436611666667","25.0727966666667","6501500","五股區"
"232002","290-BY","2018/07/12 07:09:51","新北市坪林區桶盤嶼8-2號","121.707275","24.9575233333333","6502000","坪林區"
"232014","291-BY","2018/07/12 07:09:53","新北市坪林區金瓜寮9-1號","121.681193333333","24.9170766666667","6502000","坪林區"
"232010","375-UM","2018/07/12 07:09:30","新北市坪林區水聳淒坑7-1號","121.724731666667","24.92716","6502000","坪林區"
"232018","705-BZ","2018/07/12 07:09:44","新北市坪林區九芎坑3-2號","121.72875","24.9625633333333","6502000","坪林區"
"232007","758-BX","2018/07/12 07:09:51","新北市坪林區魚堀52-1號","121.705318333333","24.93107","6502000","坪林區"
"244003","248-BX","2018/07/12 07:09:53","新北市林口區頭湖82-6號","121.369656666667","25.0829316666667","6501700","林口區"
"235001","611-BX","2018/07/12 07:09:48","新北市中和區圓通路367巷6號","121.491595","24.989255","6500300","中和區"
"226005","5620-A6","2018/07/12 07:09:34","新北市平溪區菁桐里菁桐街8號","121.727318333333","25.0241066666667","6502400","平溪區"
"226007","7418-A5","2018/07/12 07:09:36","新北市平溪區石底里石筍尖9號","121.735385","25.0248533333333","6502400","平溪區"
"226003","AGD-0702","2018/07/12 07:09:36","新北市平溪區靜安路二段430號","121.740821666667","25.024775","6502400","平溪區"
"223006","022-BY","2018/07/12 07:09:44","新北市石碇區新興坑5號","121.655235","25.016625","6501900","石碇區"
"223002","KEA-2673","2018/07/12 07:09:47","新北市石碇區碇格路二段8號","121.645258333333","24.9613833333333","6501900","石碇區"
"223003","205-TH","2018/07/12 07:09:54","新北市石碇區烏塗窟8號","121.655801666667","24.9751066666667","6501900","石碇區"
"223008","406-TH","2018/07/12 07:09:40","新北市石碇區番子坑25-1號","121.67773","25.0024183333333","6501900","石碇區"
"223001","592-UM","2018/07/12 07:09:45","新北市石碇區烏塗窟14-1號","121.656263333333","24.9756233333333","6501900","石碇區"
"223004","660-BX","2018/07/12 07:09:52","新北市石碇區碇坪路一段10號","121.651663333333","25.0059783333333","6501900","石碇區"
"223007","661-BX","2018/07/12 07:09:47","新北市石碇區番子坑24-7號","121.680276666667","25.0037433333333","6501900","石碇區"
"223005","677-TV","2018/07/12 07:09:33","新北市石碇區碇坪路一段18號","121.651736666667","25.00584","6501900","石碇區"
"227007","282-VK","2018/07/12 07:09:33","新北市雙溪區新基里自強路5號","121.8663","25.0390533333333","6502500","雙溪區"
"252004","249-BX","2018/07/12 07:09:44","新北市三芝區錫板里小坑子20號","121.501061666667","25.2352816666667","6502100","三芝區"
"252007","AAC-283","2018/07/12 07:09:43","新北市三芝區錫板里小坑子5-1號","121.495625","25.24526","6502100","三芝區"
"237001","159-UY","2018/07/12 07:09:48","新北市三峽區中山路459巷163-3號","121.348901666667","24.9331016666667","6500900","三峽區"
"236009","165-UM","2018/07/12 07:09:39","新北市土城區永寧路43號","121.430038333333","24.9618033333333","6501300","土城區"
"236003","339-SR","2018/07/12 07:09:37","新北市土城區金城路一段60號","121.442588333333","24.9708566666667","6501300","土城區"
