"lineid","car","time","location","longitude","latitude","cityid","cityname"
"234084","338-UY","2018/12/18 11:44:58","新北市中和區興南路三段47巷32-6號","121.496876666667","24.9777416666667","6500400","永和區"
"231009","192-VK","2018/12/18 11:49:12","新北市新店區安德街116巷38號","121.50824","24.9617316666667","6500600","新店區"
"235026","800-TS","2018/12/18 11:48:39","新北市中和區員山路36巷16-3號","121.484878333333","24.99174","6500300","中和區"
"228004","212-TW","2018/12/18 11:49:03","新北市貢寮區貢寮里朝陽街1-2號","121.912188333333","25.0211416666667","6502600","貢寮區"
"228005","828-UM","2018/12/18 11:48:56","新北市貢寮區貢寮里朝陽街1-2號","121.912335","25.0212316666667","6502600","貢寮區"
"227006","282-VK","2018/12/18 11:49:04","新北市雙溪區共和里東榮街16號","121.865533333333","25.034125","6502500","雙溪區"
