"lineid","car","time","location","longitude","latitude","cityid","cityname"
"234084","338-UY","2018/12/18 11:51:32","新北市中和區興南路三段47巷32-6號","121.496876666667","24.9777416666667","6500400","永和區"
"234068","552-UM","2018/12/18 12:19:10","新北市永和區福和路1號","121.525605","25.00937","6500400","永和區"
"234040","862-TW","2018/12/18 12:19:09","新北市永和區福和路1號","121.525463333333","25.0094133333333","6500400","永和區"
"235026","800-TS","2018/12/18 11:49:20","新北市中和區員山路36巷16-3號","121.48497","24.9917366666667","6500300","中和區"
"228004","212-TW","2018/12/18 12:19:03","新北市貢寮區貢寮里長泰路21號","121.891466666667","25.02143","6502600","貢寮區"
"228005","828-UM","2018/12/18 12:18:56","新北市貢寮區福連里福連街5號","121.988045","25.0147616666667","6502600","貢寮區"
