"lineid","car","time","location","longitude","latitude","cityid","cityname"
"234044","148-BY","2018/12/18 13:09:01","新北市永和區得和路373巷31弄12號","121.524273333333","25.000395","6500400","永和區"
"234005","207-UY","2018/12/18 13:09:08","新北市永和區中山路一段217號","121.508316666667","25.007935","6500400","永和區"
"234078","298-R6","2018/12/18 13:08:59","新北市永和區永亨路61號","121.521101666667","25.0060616666667","6500400","永和區"
"234036","336-UY","2018/12/18 13:09:12","新北市永和區民樂街69巷1號","121.527438333333","24.99777","6500400","永和區"
"234062","337-UY","2018/12/18 13:09:12","新北市永和區秀朗路二段33號","121.521233333333","25.00241","6500400","永和區"
"234084","338-UY","2018/12/18 13:09:08","新北市中和區興南路三段35號","121.497058333333","24.9780433333333","6500400","永和區"
"234068","552-UM","2018/12/18 13:09:10","新北市永和區豫溪街137巷1弄18號","121.518816666667","25.0104433333333","6500400","永和區"
"234015","745-BX","2018/12/18 13:09:10","新北市永和區文化路90巷15號","121.513703333333","25.0160383333333","6500400","永和區"
"234028","746-BX","2018/12/18 13:09:15","新北市永和區民生路23號","121.522858333333","24.9988266666667","6500400","永和區"
"234052","KEA-2590","2018/12/18 13:09:07","新北市永和區中興街133巷6號","121.518748333333","25.012625","6500400","永和區"
"234012","KEA-2591","2018/12/18 13:09:02","新北市永和區保福路二段48號","121.510988333333","25.012165","6500400","永和區"
"234060","AAD-866","2018/12/18 13:09:17","新北市永和區安樂路461號","121.51433","25.005065","6500400","永和區"
"234084","748-BX","2018/12/18 13:09:06","新北市永和區永貞路47-1號","121.519605","25.0045783333333","6500400","永和區"
"234040","862-TW","2018/12/18 13:09:09","新北市永和區永貞路334號","121.511235","25.0055233333333","6500400","永和區"
"234048","863-TW","2018/12/18 13:09:08","新北市永和區仁愛路104巷7弄62號","121.510895","25.014125","6500400","永和區"
"234025","9371-KE","2018/12/18 13:09:05","新北市永和區永和路一段72巷6號","121.51345","25.0060883333333","6500400","永和區"
"234010","9373-KE","2018/12/18 13:09:12","新北市永和區仁愛路31巷1號","121.514306666667","25.0130566666667","6500400","永和區"
"248017","225-UY","2018/12/18 13:09:15","新北市五股區工商路8號","121.440913333333","25.0826433333333","6501500","五股區"
"234022","9380-KE","2018/12/18 13:09:14","新北市永和區中興街10巷19號","121.515853333333","25.011165","6500400","永和區"
"234076","969-R7","2018/12/18 13:08:58","新北市永和區中正路164號","121.51508","24.9965883333333","6500400","永和區"
"234072","AAC-211","2018/12/18 13:09:08","新北市永和區福和路129號","121.52143","25.00781","6500400","永和區"
"234066","AAC-212","2018/12/18 13:08:58","新北市永和區永和路一段100號","121.513163333333","25.00705","6500400","永和區"
"234001","AAC-295","2018/12/18 13:09:15","新北市永和區和平街25號","121.513295","25.0099066666667","6500400","永和區"
"244001","248-BX","2018/12/18 13:09:13","新北市林口區頭湖74-3號","121.365248333333","25.0885","6501700","林口區"
"231027","0293-UT","2018/12/18 13:09:02","新北市新店區安華路28-1號","121.51955","24.9605616666667","6500600","新店區"
"231028","046-UY","2018/12/18 13:09:11","新北市新店區安華路28-1號","121.519598333333","24.9607816666667","6500600","新店區"
"231001","047-UY","2018/12/18 13:09:12","新北市新店區安華路28-1號","121.519168333333","24.9609216666667","6500600","新店區"
"231005","106-UY","2018/12/18 13:09:07","新北市新店區安華路28-1號","121.519611666667","24.9608016666667","6500600","新店區"
"231010","107-UY","2018/12/18 13:09:03","新北市新店區安一路一段1-1號","121.519291666667","24.9613266666667","6500600","新店區"
"231020","108-UY","2018/12/18 13:09:12","新北市新店區安一路一段1-1號","121.519591666667","24.9611566666667","6500600","新店區"
"231012","187-VK","2018/12/18 13:09:02","新北市新店區安一路一段1-1號","121.51965","24.9612466666667","6500600","新店區"
"231036","188-VK","2018/12/18 13:09:01","新北市新店區安一路一段1-1號","121.519103333333","24.9613333333333","6500600","新店區"
"231023","KEA-2219","2018/12/18 13:09:10","新北市新店區安一路一段1-1號","121.51995","24.9611883333333","6500600","新店區"
"231026","256-BX","2018/12/18 13:08:56","新北市新店區安一路一段1-1號","121.519628333333","24.96113","6500600","新店區"
"231003","268-BY","2018/12/18 13:09:14","新北市新店區安一路一段1-1號","121.519668333333","24.9610516666667","6500600","新店區"
"231018","278-BY","2018/12/18 13:09:07","新北市新店區安一路一段1-1號","121.51969","24.9611266666667","6500600","新店區"
"231015","AAD-862","2018/12/18 13:09:11","新北市新店區安一路一段1-1號","121.519963333333","24.9611783333333","6500600","新店區"
"231029","355-BY","2018/12/18 13:09:15","新北市新店區安華路28-1號","121.519195","24.9609633333333","6500600","新店區"
"231037","4716-K9","2018/12/18 13:09:18","新北市新店區安華路28-1號","121.519615","24.9606766666667","6500600","新店區"
"231025","4715-K9","2018/12/18 13:09:01","新北市新店區安康路一段355號","121.519878333333","24.963475","6500600","新店區"
"231013","513-UM","2018/12/18 13:09:00","新北市新店區安一路一段1-1號","121.519676666667","24.9611483333333","6500600","新店區"
"231030","619-UM","2018/12/18 13:08:59","新北市新店區安華路28-1號","121.519516666667","24.9608183333333","6500600","新店區"
"231034","641-BX","2018/12/18 13:09:11","新北市新店區安華路28-1號","121.519661666667","24.96056","6500600","新店區"
"231035","719-UM","2018/12/18 13:09:14","新北市新店區安一路一段1-1號","121.519453333333","24.9613966666667","6500600","新店區"
"231032","720-UM","2018/12/18 13:09:03","新北市新店區安一路一段1-1號","121.519255","24.96127","6500600","新店區"
"231006","898-TW","2018/12/18 13:09:03","新北市新店區安華路28-1號","121.519291666667","24.9607366666667","6500600","新店區"
"231024","AKT-0513","2018/12/18 13:09:12","新北市新店區安華路28-1號","121.519545","24.9605233333333","6500600","新店區"
"235028","005-UY","2018/12/18 13:08:57","新北市中和區中正路131號","121.49981","24.9934883333333","6500300","中和區"
"235027","006-UY","2018/12/18 13:09:14","新北市中和區員山路36巷16-3號","121.484955","24.9913633333333","6500300","中和區"
"235003","097-UM","2018/12/18 13:09:12","新北市中和區中正路637巷60弄61號","121.485496666667","24.99324","6500300","中和區"
"235022","151-BY","2018/12/18 13:09:08","新北市中和區圓通路367巷66號","121.493306666667","24.983255","6500300","中和區"
"235019","183-VK","2018/12/18 13:09:15","新北市中和區員山路36巷16-3號","121.485016666667","24.9914216666667","6500300","中和區"
"235002","185-VK","2018/12/18 13:09:02","新北市中和區大智街7-3號","121.51955","24.99187","6500300","中和區"
"235031","255-BX","2018/12/18 13:09:13","新北市中和區新生街195號","121.48388","25.000185","6500300","中和區"
"235008","293-VK","2018/12/18 13:09:03","新北市中和區員山路36巷16-3號","121.485113333333","24.9913983333333","6500300","中和區"
"235006","KEA-2878","2018/12/18 13:08:59","新北市中和區景平路299號","121.506738333333","24.9932216666667","6500300","中和區"
"235034","558-UM","2018/12/18 13:09:11","新北市中和區圓通路176-1號","121.497155","24.9944716666667","6500300","中和區"
"235009","565-BX","2018/12/18 13:09:02","新北市中和區中正路637巷52弄1號","121.485431666667","24.9934483333333","6500300","中和區"
"235018","640-BX","2018/12/18 13:09:05","新北市土城區金城路三段257號","121.471856666667","24.9901","6500300","中和區"
"235035","783-BX","2018/12/18 13:09:14","新北市中和區板南路500號","121.484695","25.00798","6500300","中和區"
"235026","800-TS","2018/12/18 13:09:05","新北市中和區中正路752號","121.485475","24.9988616666667","6500300","中和區"
"235021","801-TS","2018/12/18 13:09:09","新北市中和區員山路36巷16-3號","121.484886666667","24.9916416666667","6500300","中和區"
"235005","802-TS","2018/12/18 13:09:14","新北市中和區中正路545巷1號","121.487225","24.9935383333333","6500300","中和區"
"235016","805-TS","2018/12/18 13:09:12","新北市中和區中正路637巷60弄61號","121.485411666667","24.993285","6500300","中和區"
"235012","896-TW","2018/12/18 13:09:16","新北市中和區員山路36巷16-3號","121.484996666667","24.9918366666667","6500300","中和區"
"235017","900-TW","2018/12/18 13:09:05","新北市中和區員山路36巷16-2號","121.485093333333","24.9917666666667","6500300","中和區"
"235029","911-UM","2018/12/18 13:09:19","新北市中和區福祥路66號","121.499425","25.004975","6500300","中和區"
"235015","157-BY","2018/12/18 13:09:05","新北市中和區景安路209號","121.504523333333","24.9918833333333","6500300","中和區"
"235001","AAC-213","2018/12/18 13:09:00","新北市中和區景平路149號","121.513856666667","24.9921216666667","6500300","中和區"
"235023","AAC-215","2018/12/18 13:09:10","新北市中和區員山路36巷16-3號","121.484865","24.991435","6500300","中和區"
"247021","001-UY","2018/12/18 13:09:06","新北市五股區中興路三段163號","121.449058333333","25.080815","6501400","蘆洲區"
"228004","212-TW","2018/12/18 13:09:03","新北市貢寮區吉林里內寮街75號","121.891281666667","24.97239","6502600","貢寮區"
"228005","828-UM","2018/12/18 13:09:16","新北市貢寮區仁理村仁和路82號","121.922828333333","25.050285","6502600","貢寮區"
"207002","749-BX","2018/12/18 13:09:13","新北市萬里區崁腳里內崁路2-1號","121.639931666667","25.16013","6502800","萬里區"
"207001","662-BX","2018/12/18 13:09:15","新北市萬里區萬里里瑪鋉路86號","121.690203333333","25.178425","6502800","萬里區"
"252005","AAC-283","2018/12/18 13:09:07","新北市三芝區埔坪里埔頭坑164-1號","121.507975","25.2479733333333","6502100","三芝區"
"221010","269-BY","2018/12/18 13:09:06","新北市汐止區忠三街8號","121.624805","25.0784566666667","6501100","汐止區"
"221032","280-BY","2018/12/18 13:09:07","新北市汐止區大同路二段298號","121.65521","25.06661","6501100","汐止區"
"221025","623-UM","2018/12/18 13:09:00","新北市汐止區大同路一段349-1號","121.639333333333","25.0597816666667","6501100","汐止區"
"221033","647-BX","2018/12/18 13:08:58","新北市汐止區秀峰路151巷3號","121.661063333333","25.0623466666667","6501100","汐止區"
"220021","985-R7","2018/12/18 13:09:14","新北市板橋區華東街1-10號","121.448273333333","24.99493","6500100","板橋區"
"235032","KEA-2873","2018/12/18 13:09:05","新北市中和區員山路36巷16-3號","121.485085","24.9913766666667","6500300","中和區"
"235025","KEA-2875","2018/12/18 13:09:02","新北市中和區員山路36巷16-4號","121.485293333333","24.991935","6500300","中和區"
