"lineid","car","time","location","longitude","latitude","cityid","cityname"
"234044","148-BY","2018/12/18 13:29:01","新北市永和區秀朗路二段230號","121.526196666667","24.9994883333333","6500400","永和區"
"234005","207-UY","2018/12/18 13:29:08","新北市永和區中山路一段102-1號","121.51108","25.0105333333333","6500400","永和區"
"234078","298-R6","2018/12/18 13:28:59","新北市永和區福和路5-9號","121.525525","25.0083266666667","6500400","永和區"
"234036","336-UY","2018/12/18 13:29:12","新北市永和區民樂街28號","121.527498333333","25.0015233333333","6500400","永和區"
"234062","337-UY","2018/12/18 13:29:12","新北市永和區得和路243巷26號","121.520798333333","25.0011466666667","6500400","永和區"
"234084","338-UY","2018/12/18 13:10:00","新北市中和區興南路三段35號","121.496905","24.977955","6500400","永和區"
"234068","552-UM","2018/12/18 13:29:12","新北市永和區警光街2號","121.520171666667","25.0096433333333","6500400","永和區"
"234015","745-BX","2018/12/18 13:29:10","新北市永和區環河西路一段1號","121.515315","25.0180483333333","6500400","永和區"
"234028","746-BX","2018/12/18 13:29:15","新北市永和區四維街64號","121.52424","24.9982466666667","6500400","永和區"
"234052","KEA-2590","2018/12/18 13:29:07","新北市永和區竹林路23號","121.517281666667","25.014645","6500400","永和區"
"234012","KEA-2591","2018/12/18 13:29:02","新北市永和區永貞路424號","121.508101666667","25.0088416666667","6500400","永和區"
"234060","AAD-866","2018/12/18 13:29:02","新北市永和區永貞路135號","121.516616666667","25.004185","6500400","永和區"
"234084","748-BX","2018/12/18 13:29:06","新北市永和區國中路2-1號","121.524046666667","25.0042416666667","6500400","永和區"
"234040","862-TW","2018/12/18 13:29:11","新北市永和區中和路519巷12號","121.510926666667","25.0032383333333","6500400","永和區"
"234048","863-TW","2018/12/18 13:29:08","新北市永和區保福路二段157號","121.509391666667","25.01469","6500400","永和區"
"234025","9371-KE","2018/12/18 13:29:05","新北市永和區中山路一段17巷4弄5號","121.513738333333","25.0101533333333","6500400","永和區"
"234010","9373-KE","2018/12/18 13:29:12","新北市永和區保福路二段44巷2弄10號","121.511625","25.011905","6500400","永和區"
"248017","225-UY","2018/12/18 13:29:15","新北市五股區御史路300號","121.417045","25.1095866666667","6501500","五股區"
"234022","9380-KE","2018/12/18 13:29:14","新北市永和區環河東路2段6-1號","121.521905","25.0133383333333","6500400","永和區"
"234076","969-R7","2018/12/18 13:29:12","新北市永和區中正路320號","121.517815","24.9995216666667","6500400","永和區"
"234072","AAC-211","2018/12/18 13:29:08","新北市永和區光復街42號","121.516676666667","25.0176783333333","6500400","永和區"
"234066","AAC-212","2018/12/18 13:29:18","新北市永和區永貞路422號","121.508516666667","25.0081933333333","6500400","永和區"
"234001","AAC-295","2018/12/18 13:29:15","新北市永和區福和路378號","121.514205","25.0079266666667","6500400","永和區"
"244001","248-BX","2018/12/18 13:29:13","新北市林口區頂福20-18號","121.355031666667","25.092695","6501700","林口區"
"231002","001-UM","2018/12/18 13:29:08","新北市新店區安一路一段1-1號","121.51991","24.9618283333333","6500600","新店區"
"231027","0293-UT","2018/12/18 13:29:02","新北市新店區環河路19巷36號","121.537468333333","24.9600966666667","6500600","新店區"
"231028","046-UY","2018/12/18 13:29:11","新北市新店區安華路28-1號","121.519533333333","24.9608216666667","6500600","新店區"
"231001","047-UY","2018/12/18 13:29:12","新北市新店區安康路一段61號","121.530595","24.9610116666667","6500600","新店區"
"231005","106-UY","2018/12/18 13:29:07","新北市新店區光明街119號","121.538925","24.9617333333333","6500600","新店區"
"231010","107-UY","2018/12/18 13:29:03","新北市新店區中央路39號","121.532926666667","24.9776266666667","6500600","新店區"
"231020","108-UY","2018/12/18 13:29:13","新北市新店區北宜路一段123-2號","121.540515","24.9533866666667","6500600","新店區"
"231012","187-VK","2018/12/18 13:29:02","新北市新店區北新路一段91號","121.538725","24.9617116666667","6500600","新店區"
"231036","188-VK","2018/12/18 13:29:01","新北市新店區建業路102-1號","121.478948333333","24.9553166666667","6500600","新店區"
"231023","KEA-2219","2018/12/18 13:29:10","新北市新店區新店路13號","121.540365","24.9528333333333","6500600","新店區"
"231026","256-BX","2018/12/18 13:29:15","新北市新店區環河路29巷1號","121.536528333333","24.9612283333333","6500600","新店區"
"231003","268-BY","2018/12/18 13:29:14","新北市新店區環河路2號","121.538481666667","24.9617483333333","6500600","新店區"
"231018","278-BY","2018/12/18 13:29:07","新北市新店區中央路208號","121.530268333333","24.9738833333333","6500600","新店區"
"231015","AAD-862","2018/12/18 13:29:12","新北市新店區北宜路二段52-1號","121.54911","24.9513933333333","6500600","新店區"
"231029","355-BY","2018/12/18 13:28:55","新北市新店區安一路一段1-1號","121.519185","24.961025","6500600","新店區"
"231038","3712-VJ","2018/12/18 13:29:20","新北市新店區安華路28-1號","121.519243333333","24.96064","6500600","新店區"
"231037","4716-K9","2018/12/18 13:28:58","新北市新店區安豐路49號","121.500021666667","24.9549483333333","6500600","新店區"
"231025","4715-K9","2018/12/18 13:29:01","新北市新店區中央五街38號","121.528496666667","24.974965","6500600","新店區"
"231013","513-UM","2018/12/18 13:29:00","新北市新店區中央路137號","121.530208333333","24.9736883333333","6500600","新店區"
"231030","619-UM","2018/12/18 13:28:59","新北市新店區安華路28-1號","121.519668333333","24.960915","6500600","新店區"
"231034","641-BX","2018/12/18 13:29:11","新北市新店區安華路1-1號","121.519511666667","24.9603966666667","6500600","新店區"
"231035","719-UM","2018/12/18 13:29:14","新北市新店區安一路一段1-1號","121.519465","24.9612966666667","6500600","新店區"
"231032","720-UM","2018/12/18 13:29:10","新北市新店區安豐路58號","121.498873333333","24.9542133333333","6500600","新店區"
"231006","898-TW","2018/12/18 13:29:03","新北市新店區安華路28-1號","121.519395","24.9609916666667","6500600","新店區"
"231004","899-TW","2018/12/18 13:29:11","新北市新店區安康路一段355號","121.51987","24.9634233333333","6500600","新店區"
"231024","AKT-0513","2018/12/18 13:29:12","新北市新店區中正路195號","121.540488333333","24.97246","6500600","新店區"
"235030","003-UY","2018/12/18 13:29:15","新北市中和區中山路二段120號","121.50271","25.0037333333333","6500300","中和區"
"235028","005-UY","2018/12/18 13:29:14","新北市中和區連城路97號","121.496518333333","24.9998533333333","6500300","中和區"
"235027","006-UY","2018/12/18 13:29:14","新北市中和區連城路347巷16號","121.48839","24.995095","6500300","中和區"
"235020","096-UM","2018/12/18 13:29:16","新北市中和區中山路二段594號","121.4823","25.0054216666667","6500300","中和區"
"235003","097-UM","2018/12/18 13:29:12","新北市中和區景新街293號","121.509986666667","24.9932","6500300","中和區"
"235004","150-BY","2018/12/18 13:28:36","新北市中和區安平路57號","121.509595","24.9954383333333","6500300","中和區"
"235022","151-BY","2018/12/18 13:29:08","新北市中和區圓通路369巷152號","121.487985","24.9815466666667","6500300","中和區"
"235019","183-VK","2018/12/18 13:29:15","新北市中和區莒光路137號","121.47256","25.0015766666667","6500300","中和區"
"235002","185-VK","2018/12/18 13:29:02","新北市中和區立人街3號","121.521835","24.9940033333333","6500300","中和區"
"235013","186-VK","2018/12/18 13:29:16","新北市中和區景安路142號","121.504988333333","24.9940083333333","6500300","中和區"
"235031","255-BX","2018/12/18 13:29:13","新北市中和區新生街220巷15弄12號","121.482898333333","24.9982416666667","6500300","中和區"
"235008","293-VK","2018/12/18 13:29:03","新北市中和區復興路301巷2弄1號","121.501473333333","24.9898433333333","6500300","中和區"
"235036","301-VK","2018/12/18 13:29:07","新北市中和區連城路184號","121.492903333333","24.9968283333333","6500300","中和區"
"235006","KEA-2878","2018/12/18 13:28:59","新北市中和區自立路181號","121.523476666667","24.9918733333333","6500300","中和區"
"235014","4979-A6","2018/12/18 13:29:06","新北市中和區景新街368號","121.512151666667","24.990345","6500300","中和區"
"235033","4980-A6","2018/12/18 13:29:10","新北市中和區連城路125號","121.496171666667","24.99915","6500300","中和區"
"235034","558-UM","2018/12/18 13:29:08","新北市中和區南華路41號","121.503791666667","24.99661","6500300","中和區"
"235009","565-BX","2018/12/18 13:29:02","新北市中和區復興路13號","121.505776666667","24.9896633333333","6500300","中和區"
"235018","640-BX","2018/12/18 13:29:09","新北市中和區民享街86巷1號","121.474486666667","25.0008866666667","6500300","中和區"
"235024","647-TV","2018/12/18 13:29:11","新北市中和區中山路二段648號","121.480813333333","25.0056516666667","6500300","中和區"
"235011","732-UM","2018/12/18 13:29:11","新北市中和區中興街169號","121.499913333333","24.990455","6500300","中和區"
"235035","783-BX","2018/12/18 13:29:14","新北市中和區環中路120號","121.481971666667","25.0124066666667","6500300","中和區"
"235026","800-TS","2018/12/18 13:29:05","新北市中和區景平路989巷33號","121.495123333333","25.00496","6500300","中和區"
"235021","801-TS","2018/12/18 13:29:09","新北市中和區民享街97巷8號","121.475168333333","24.99952","6500300","中和區"
"235005","802-TS","2018/12/18 13:29:14","新北市中和區中和路318號","121.509473333333","25.0005033333333","6500300","中和區"
"235016","805-TS","2018/12/18 13:29:12","新北市中和區興南路二段96號","121.505203333333","24.9842066666667","6500300","中和區"
"235012","896-TW","2018/12/18 13:29:16","新北市中和區中正路748號","121.485643333333","24.9985166666667","6500300","中和區"
"235017","900-TW","2018/12/18 13:29:05","新北市土城區金城路三段257號","121.471831666667","24.99002","6500300","中和區"
"235029","911-UM","2018/12/18 13:29:07","新北市中和區中山路二段64巷9號","121.503241666667","25.0050283333333","6500300","中和區"
"235015","157-BY","2018/12/18 13:29:05","新北市中和區興南路二段128巷7弄1-2號","121.503421666667","24.98417","6500300","中和區"
"235001","AAC-213","2018/12/18 13:29:00","新北市中和區景德街95-1號","121.515635","24.9912266666667","6500300","中和區"
"235023","AAC-215","2018/12/18 13:29:10","新北市中和區員山路36巷16-3號","121.48488","24.991425","6500300","中和區"
"220003","015-TV","2018/12/18 13:29:14","新北市板橋區華東街1-10號","121.44854","24.99488","6500100","板橋區"
"220013","072-UY","2018/12/18 13:29:00","新北市板橋區南雅南路二段4巷2號","121.454266666667","25.0037816666667","6500100","板橋區"
"247013","053-VK","2018/12/18 13:29:03","新北市五股區中興路三段163號","121.449285","25.0807316666667","6501400","蘆洲區"
"247021","001-UY","2018/12/18 13:29:05","新北市五股區中興路三段163號","121.449006666667","25.080775","6501400","蘆洲區"
"228004","212-TW","2018/12/18 13:29:03","新北市貢寮區龍崗里石壁坑街17號","121.910378333333","24.9894483333333","6502600","貢寮區"
"228005","828-UM","2018/12/18 13:29:16","新北市貢寮區美豐里文秀坑8號","121.902558333333","25.0503983333333","6502600","貢寮區"
"207002","749-BX","2018/12/18 13:29:13","新北市萬里區崁腳里崁腳路166號","121.645136666667","25.1557666666667","6502800","萬里區"
"207001","662-BX","2018/12/18 13:27:55","新北市萬里區龜吼里石角路43號","121.68426","25.1921","6502800","萬里區"
"252005","AAC-283","2018/12/18 13:29:07","新北市三芝區圓山里木屐寮38-2號","121.531546666667","25.22721","6502100","三芝區"
"239005","292-BY","2018/12/18 13:29:17","新北市鶯歌區西湖街249號","121.339403333333","24.967865","6500800","鶯歌區"
"221010","269-BY","2018/12/18 13:29:06","台北市內湖區大湖山莊街219巷36號","121.599805","25.0892316666667","6501100","汐止區"
"221032","280-BY","2018/12/18 13:29:07","新北市汐止區水源路一段72號","121.656805","25.06539","6501100","汐止區"
"221025","623-UM","2018/12/18 13:29:00","新北市汐止區大同路一段89-3號","121.624616666667","25.054595","6501100","汐止區"
"221033","647-BX","2018/12/18 13:28:58","新北市汐止區民權街二段93號","121.618945","25.0475716666667","6501100","汐止區"
"220030","610-BX","2018/12/18 13:29:07","新北市板橋區華東街1-10號","121.448263333333","24.9949233333333","6500100","板橋區"
"220004","276-BY","2018/12/18 13:28:58","新北市板橋區華東街1-9號","121.448123333333","24.9949633333333","6500100","板橋區"
"220043","285-UM","2018/12/18 13:29:03","新北市板橋區民生路二段161巷1號","121.47011","25.0198066666667","6500100","板橋區"
"220031","286-VK","2018/12/18 13:29:11","新北市板橋區華東街1-10號","121.448341666667","24.99508","6500100","板橋區"
"220029","287-VK","2018/12/18 13:29:07","新北市板橋區華東街1-10號","121.44826","24.995005","6500100","板橋區"
"220023","303-R5","2018/12/18 13:29:09","新北市板橋區華東街1-9號","121.44821","24.9949716666667","6500100","板橋區"
"220010","305-R5","2018/12/18 13:28:58","新北市板橋區民生路二段120號","121.470358333333","25.0195783333333","6500100","板橋區"
"242036","280-VK","2018/12/18 13:29:00","新北市新莊區中正路400號","121.44187","25.0344533333333","6500500","新莊區"
"220104","560-BX","2018/12/18 13:29:15","新北市板橋區南雅南路二段144巷8號","121.45113","24.996035","6500100","板橋區"
"220052","561-BX","2018/12/18 13:29:05","新北市板橋區民生路二段161巷5號","121.47028","25.0198116666667","6500100","板橋區"
"220025","687-BX","2018/12/18 13:29:12","新北市板橋區大觀路二段265巷7-7號","121.444093333333","24.9945933333333","6500100","板橋區"
"220002","741-BX","2018/12/18 13:29:04","新北市板橋區華東街1-9號","121.448078333333","24.9949183333333","6500100","板橋區"
"220022","895-R6","2018/12/18 13:29:15","新北市板橋區華東街1-10號","121.448253333333","24.9949833333333","6500100","板橋區"
"220021","985-R7","2018/12/18 13:29:14","新北市板橋區華東街1號","121.448396666667","24.9941666666667","6500100","板橋區"
"220012","AAC-253","2018/12/18 13:29:01","新北市板橋區縣民大道一段296號","121.460806666667","25.0100133333333","6500100","板橋區"
"235032","KEA-2873","2018/12/18 13:29:05","新北市中和區圓通路230號","121.495188333333","24.99296","6500300","中和區"
"235025","KEA-2875","2018/12/18 13:29:02","新北市中和區民享街117巷1號","121.474628333333","24.9991816666667","6500300","中和區"
