"lineid","car","time","location","longitude","latitude","cityid","cityname"
"234078","298-R6","2018/12/18 14:28:58","新北市永和區永貞路80號","121.520183333333","25.00505","6500400","永和區"
"234036","336-UY","2018/12/18 14:29:12","新北市永和區環河東路四段38號","121.528715","24.9989716666667","6500400","永和區"
"234062","337-UY","2018/12/18 14:29:12","新北市永和區中正路403號","121.517143333333","25.004705","6500400","永和區"
"234068","552-UM","2018/12/18 14:29:09","新北市永和區永亨路7號","121.51943","25.005675","6500400","永和區"
"234028","746-BX","2018/12/18 14:29:15","新北市永和區民權路84號","121.51993","24.9969716666667","6500400","永和區"
"234052","KEA-2590","2018/12/18 14:29:07","新北市永和區光復街31-1號","121.516371666667","25.01786","6500400","永和區"
"234060","AAD-866","2018/12/18 14:29:16","新北市永和區秀朗路一段175號","121.517068333333","25.00369","6500400","永和區"
"234084","748-BX","2018/12/18 14:29:06","新北市永和區光復街27號","121.516508333333","25.0175","6500400","永和區"
"234040","862-TW","2018/12/18 14:29:09","新北市永和區自由街26號","121.514368333333","25.006435","6500400","永和區"
"234048","863-TW","2018/12/18 14:29:08","新北市永和區保安路144號","121.508568333333","25.014945","6500400","永和區"
"234025","9371-KE","2018/12/18 14:29:05","新北市中和區安平路222號","121.514026666667","25","6500400","永和區"
"248017","225-UY","2018/12/18 14:29:15","新北市五股區外寮路1-6號","121.425116666667","25.0766983333333","6501500","五股區"
"234072","AAC-211","2018/12/18 14:29:08","新北市永和區環河東路一段124號","121.520656666667","25.0154066666667","6500400","永和區"
"234001","AAC-295","2018/12/18 14:29:15","新北市永和區大新街52巷2號","121.51593","25.008215","6500400","永和區"
"244001","248-BX","2018/12/18 14:08:00","新北市林口區林口路76號","121.389686666667","25.080685","6501700","林口區"
"231002","001-UM","2018/12/18 14:29:09","新北市新店區中央路23號","121.533008333333","24.97813","6500600","新店區"
"231027","0293-UT","2018/12/18 14:29:02","新北市新店區北新路二段98號","121.543005","24.9732683333333","6500600","新店區"
"231028","046-UY","2018/12/18 14:29:11","新北市新店區安康路二段130號","121.512636666667","24.9623916666667","6500600","新店區"
"231001","047-UY","2018/12/18 14:29:12","新北市新店區大新街18號","121.543125","24.96852","6500600","新店區"
"231005","106-UY","2018/12/18 14:29:09","新北市新店區北新路三段179號","121.541046666667","24.9842233333333","6500600","新店區"
"231020","108-UY","2018/12/18 14:29:13","新北市新店區桂山路81巷1號","121.567453333333","24.8992783333333","6500600","新店區"
"231012","187-VK","2018/12/18 14:29:02","新北市新店區五峰路59-8號","121.547601666667","24.9699916666667","6500600","新店區"
"231036","188-VK","2018/12/18 14:29:01","新北市新店區安祥路109巷151弄3號","121.478121666667","24.9586066666667","6500600","新店區"
"231023","KEA-2219","2018/12/18 14:29:10","新北市新店區光明街96巷1號","121.539221666667","24.96011","6500600","新店區"
"231003","268-BY","2018/12/18 14:29:14","新北市新店區中興路一段265號","121.54473","24.96746","6500600","新店區"
"231018","278-BY","2018/12/18 14:29:07","新北市新店區中央路216-1號","121.529901666667","24.973175","6500600","新店區"
"231015","AAD-862","2018/12/18 14:29:11","新北市新店區北宜路三段221號","121.592431666667","24.9531183333333","6500600","新店區"
"231029","355-BY","2018/12/18 14:29:15","新北市新店區安康路二段454號","121.494411666667","24.9543166666667","6500600","新店區"
"231038","3712-VJ","2018/12/18 14:28:59","新北市新店區溪洲路200號","121.528685","24.9664433333333","6500600","新店區"
"231037","4716-K9","2018/12/18 14:28:58","新北市新店區車子路37號","121.50444","24.9522633333333","6500600","新店區"
"231013","513-UM","2018/12/18 14:29:20","新北市新店區民權路108-2號","121.536045","24.9834716666667","6500600","新店區"
"231030","619-UM","2018/12/18 14:29:19","新北市新店區安民街65巷1號","121.516088333333","24.966655","6500600","新店區"
"231034","641-BX","2018/12/18 14:29:11","新北市新店區車子路11號","121.503011666667","24.951905","6500600","新店區"
"231035","719-UM","2018/12/18 14:29:14","新北市新店區吉安街31號","121.516013333333","24.965845","6500600","新店區"
"231032","720-UM","2018/12/18 14:29:03","新北市新店區安業街215巷9號","121.52311","24.972925","6500600","新店區"
"231006","898-TW","2018/12/18 14:29:03","新北市新店區北宜路二段346號","121.562773333333","24.9537516666667","6500600","新店區"
"231004","899-TW","2018/12/18 14:29:11","新北市新店區中正路263-4號","121.538311666667","24.9738516666667","6500600","新店區"
"235030","003-UY","2018/12/18 14:29:15","新北市中和區景新街32號","121.503306666667","24.999355","6500300","中和區"
"235028","005-UY","2018/12/18 14:29:16","新北市中和區南山路72-7號","121.50224","24.9960033333333","6500300","中和區"
"235027","006-UY","2018/12/18 14:29:14","新北市中和區連勝街145號","121.49453","24.9960383333333","6500300","中和區"
"235020","096-UM","2018/12/18 14:29:10","新北市中和區民富街31號","121.476411666667","25.007785","6500300","中和區"
"235003","097-UM","2018/12/18 14:29:12","新北市中和區秀峰街103巷7弄4號","121.519413333333","24.9890216666667","6500300","中和區"
"235004","150-BY","2018/12/18 14:29:16","新北市中和區宜安路23巷2號","121.512688333333","24.9957583333333","6500300","中和區"
"235022","151-BY","2018/12/18 14:29:08","新北市中和區連城路511號","121.482305","24.995435","6500300","中和區"
"235019","183-VK","2018/12/18 14:29:15","新北市中和區中山路三段181巷18弄41號","121.472658333333","25.0050716666667","6500300","中和區"
"235002","185-VK","2018/12/18 14:29:02","新北市中和區自立路111號","121.521991666667","24.9945683333333","6500300","中和區"
"235013","186-VK","2018/12/18 14:29:08","新北市中和區景新街295巷29號","121.511121666667","24.99352","6500300","中和區"
"235031","255-BX","2018/12/18 14:29:13","新北市中和區新生街186巷1弄31號","121.483421666667","24.9985366666667","6500300","中和區"
"235008","293-VK","2018/12/18 14:29:03","新北市中和區景安路194號","121.504276666667","24.9916283333333","6500300","中和區"
"235036","301-VK","2018/12/18 14:29:07","新北市中和區中和路74號","121.500765","25.0001316666667","6500300","中和區"
"235006","KEA-2878","2018/12/18 14:28:59","新北市中和區中和路262巷49號","121.510183333333","24.9999366666667","6500300","中和區"
"247011","KEA-2869","2018/12/18 14:29:08","新北市蘆洲區復興路82號","121.475191666667","25.08673","6501400","蘆洲區"
"247005","KED-0682","2018/12/18 14:29:16","新北市蘆洲區長安街72號","121.462563333333","25.08011","6501400","蘆洲區"
"235014","4979-A6","2018/12/18 14:29:05","新北市中和區中正路553號","121.487235","24.9937966666667","6500300","中和區"
"235033","4980-A6","2018/12/18 14:29:10","新北市中和區連城路134巷15號","121.495131666667","25.0001433333333","6500300","中和區"
"235034","558-UM","2018/12/18 14:29:08","新北市中和區景平路634-4號","121.499233333333","24.99921","6500300","中和區"
"235009","565-BX","2018/12/18 14:29:02","新北市中和區景新街467巷20弄110號","121.514933333333","24.9866866666667","6500300","中和區"
"235018","640-BX","2018/12/18 14:29:05","新北市中和區莒光路4號","121.472013333333","25.0048","6500300","中和區"
"235024","647-TV","2018/12/18 14:29:11","新北市中和區員山路266巷25號","121.482128333333","25.0018516666667","6500300","中和區"
"235011","732-UM","2018/12/18 14:29:11","新北市中和區景平路241巷64弄8號","121.507708333333","24.992495","6500300","中和區"
"235010","733-UM","2018/12/18 14:29:11","新北市中和區忠孝街37巷52號","121.511106666667","24.984885","6500300","中和區"
"235035","783-BX","2018/12/18 14:29:14","新北市中和區連城路358號","121.482091666667","24.995485","6500300","中和區"
"235026","800-TS","2018/12/18 14:29:05","新北市中和區中山路二段526巷32號","121.485948333333","25.0059566666667","6500300","中和區"
"235021","801-TS","2018/12/18 14:29:09","新北市中和區中山路三段37巷25號","121.479411666667","25.0050233333333","6500300","中和區"
"235005","802-TS","2018/12/18 14:29:14","新北市中和區中和路228號","121.506505","24.99944","6500300","中和區"
"235016","805-TS","2018/12/18 14:29:12","新北市中和區華新街143巷67弄1號","121.506763333333","24.9788183333333","6500300","中和區"
"235012","896-TW","2018/12/18 14:29:16","新北市中和區忠孝街64號","121.511893333333","24.9839733333333","6500300","中和區"
"235017","900-TW","2018/12/18 14:29:05","新北市中和區民德路197號","121.469063333333","24.9982616666667","6500300","中和區"
"235029","911-UM","2018/12/18 14:29:07","新北市中和區中山路二段178巷7號","121.500411666667","25.00283","6500300","中和區"
"235015","157-BY","2018/12/18 14:29:10","新北市中和區中興街178號","121.499698333333","24.9909533333333","6500300","中和區"
"235001","AAC-213","2018/12/18 14:29:19","新北市中和區秀朗路三段10巷14弄15號","121.524691666667","24.996505","6500300","中和區"
"235023","AAC-215","2018/12/18 14:29:10","新北市中和區錦和路372號","121.490528333333","24.9908833333333","6500300","中和區"
"220003","015-TV","2018/12/18 14:29:14","新北市板橋區重慶路290巷22弄19號","121.462153333333","24.999265","6500100","板橋區"
"220013","072-UY","2018/12/18 14:29:00","新北市板橋區實踐路93巷71號","121.467063333333","25.0050266666667","6500100","板橋區"
"220034","073-UY","2018/12/18 14:29:05","新北市板橋區中正路216巷150弄9號","121.460858333333","25.0191033333333","6500100","板橋區"
"220105","075-UY","2018/12/18 14:29:14","新北市板橋區文化路二段606號","121.477448333333","25.03525","6500100","板橋區"
"247001","893-R6","2018/12/18 14:29:12","新北市蘆洲區永樂街38巷43號","121.458286666667","25.0897766666667","6501400","蘆洲區"
"247015","546-UM","2018/12/18 14:29:10","新北市蘆洲區中正路185巷68弄31號","121.466108333333","25.0855583333333","6501400","蘆洲區"
"247023","500-BY","2018/12/18 14:29:03","新北市蘆洲區中正路263巷2號","121.467251666667","25.0876083333333","6501400","蘆洲區"
"247019","057-VK","2018/12/18 14:29:17","新北市蘆洲區仁愛街145巷3-1號","121.47001","25.0947","6501400","蘆洲區"
"247009","056-VK","2018/12/18 14:29:04","新北市蘆洲區信義路136號","121.479625","25.0830383333333","6501400","蘆洲區"
"247013","053-VK","2018/12/18 14:29:03","新北市蘆洲區忠孝路22號","121.470985","25.0841416666667","6501400","蘆洲區"
"247017","007-UY","2018/12/18 14:29:01","新北市蘆洲區民族路314巷1號","121.477285","25.090135","6501400","蘆洲區"
"228004","212-TW","2018/12/18 14:29:03","新北市貢寮區雙玉里田寮洋街33-1號","121.932163333333","25.01366","6502600","貢寮區"
"228005","828-UM","2018/12/18 14:29:16","新北市貢寮區美豐里巫里岸9-1號","121.90193","25.0700933333333","6502600","貢寮區"
"207002","749-BX","2018/12/18 14:29:13","新北市萬里區溪底里香員林路17-1號","121.635815","25.15997","6502800","萬里區"
"207001","662-BX","2018/12/18 14:29:15","新北市萬里區磺潭里清水9號","121.640245","25.1997433333333","6502800","萬里區"
"252005","AAC-283","2018/12/18 14:29:07","新北市三芝區橫山里大坑26號","121.525823333333","25.2547033333333","6502100","三芝區"
"236065","105-UM","2018/12/18 14:29:10","新北市土城區永豐路209號","121.473765","24.9773216666667","6501300","土城區"
"236040","KED-0685","2018/12/18 14:29:20","新北市土城區學成路91巷1號","121.450528333333","24.9879083333333","6501300","土城區"
"236074","166-UM","2018/12/18 14:29:12","新北市土城區大暖路42號","121.423298333333","24.9594866666667","6501300","土城區"
"236029","253-BX","2018/12/18 14:29:11","新北市土城區福仁街10號","121.440161666667","24.9762133333333","6501300","土城區"
"236024","269-VK","2018/12/18 14:29:05","新北市土城區承天路43巷4號","121.439115","24.963915","6501300","土城區"
"236013","270-VK","2018/12/18 14:29:17","新北市土城區青雲路39巷7號","121.460368333333","24.98759","6501300","土城區"
"236032","271-VK","2018/12/18 14:29:04","新北市土城區明德路一段323號","121.458883333333","24.976855","6501300","土城區"
"247007","KED-0683","2018/12/18 14:29:14","新北市蘆洲區民生街47號","121.474996666667","25.07884","6501400","蘆洲區"
"236017","401-BY","2018/12/18 14:29:09","新北市土城區永豐路202巷14號","121.466401666667","24.9834116666667","6501300","土城區"
"236057","912-UM","2018/12/18 14:29:17","新北市土城區中央路四段127號","121.416198333333","24.957545","6501300","土城區"
"236045","913-UM","2018/12/18 14:29:16","新北市土城區青雲路465號","121.458636666667","24.97428","6501300","土城區"
"236060","915-UM","2018/12/18 14:29:08","新北市土城區延壽路109巷27號","121.468341666667","24.9934433333333","6501300","土城區"
"236054","AAC-216","2018/12/18 14:29:00","新北市土城區中華路一段247號","121.44094","24.9816583333333","6501300","土城區"
"239005","292-BY","2018/12/18 14:29:17","新北市鶯歌區中山路7號","121.352926666667","24.957055","6500800","鶯歌區"
"221010","269-BY","2018/12/18 14:29:06","新北市汐止區長青路210巷170號","121.616301666667","25.11335","6501100","汐止區"
"221032","280-BY","2018/12/18 14:29:07","新北市汐止區橫科路407巷30弄28-2號","121.627421666667","25.0482966666667","6501100","汐止區"
"221033","647-BX","2018/12/18 14:29:17","新北市汐止區汐萬路二段3號","121.649226666667","25.0799016666667","6501100","汐止區"
"220027","145-BY","2018/12/18 14:29:06","新北市板橋區民權路202巷17弄8號","121.460443333333","25.0166966666667","6500100","板橋區"
"220028","200-UY","2018/12/18 14:29:16","新北市板橋區大觀路二段37巷252號","121.449851666667","25.0021416666667","6500100","板橋區"
"220030","610-BX","2018/12/18 14:29:07","新北市板橋區金門街291號","121.430265","24.9867883333333","6500100","板橋區"
"220004","276-BY","2018/12/18 14:29:18","新北市板橋區信義路148號","121.458916666667","24.991975","6500100","板橋區"
"220020","277-BY","2018/12/18 14:29:16","新北市板橋區金門街222號","121.430995","24.98804","6500100","板橋區"
"220019","283-VK","2018/12/18 14:29:03","新北市板橋區四川路一段283巷23號","121.459448333333","25.0005833333333","6500100","板橋區"
"220043","285-UM","2018/12/18 14:29:02","新北市板橋區銘傳街37號","121.468615","25.0311466666667","6500100","板橋區"
"220001","285-VK","2018/12/18 14:29:12","新北市板橋區富山街53巷1弄12號","121.477876666667","25.0206083333333","6500100","板橋區"
"220031","286-VK","2018/12/18 14:29:12","新北市板橋區龍興街71巷32號","121.442423333333","25.00246","6500100","板橋區"
"220029","287-VK","2018/12/18 14:29:07","新北市板橋區大觀路一段75巷15號","121.447981666667","25.004425","6500100","板橋區"
"220039","288-VK","2018/12/18 14:29:15","新北市板橋區裕民街118號","121.459365","25.0275816666667","6500100","板橋區"
"220009","293-UM","2018/12/18 14:28:59","新北市板橋區板新路200巷4號","121.469155","25.016115","6500100","板橋區"
"220032","296-UM","2018/12/18 14:29:00","新北市板橋區滿平街84巷98號","121.42658","24.986715","6500100","板橋區"
"220023","303-R5","2018/12/18 14:29:09","新北市板橋區中正路289巷14號","121.454775","25.019085","6500100","板橋區"
"220010","305-R5","2018/12/18 14:29:18","新北市板橋區三民路二段160號","121.479081666667","25.0151383333333","6500100","板橋區"
"220041","307-R5","2018/12/18 14:29:13","新北市板橋區四維路137巷1弄14號","121.464873333333","25.024605","6500100","板橋區"
"220047","317-R6","2018/12/18 14:29:06","新北市板橋區四維路204號","121.464186666667","25.0273166666667","6500100","板橋區"
"220038","487-VK","2018/12/18 14:29:01","新北市板橋區新海路332號","121.460446666667","25.02426","6500100","板橋區"
"242036","280-VK","2018/12/18 14:29:00","新北市新莊區環河路636-7號","121.43722","25.0112316666667","6500500","新莊區"
"220037","491-VK","2018/12/18 14:29:15","新北市板橋區雙十路二段4號","121.477173333333","25.0254633333333","6500100","板橋區"
"220104","560-BX","2018/12/18 14:29:15","新北市板橋區中正路379巷3弄42號","121.453536666667","25.0209983333333","6500100","板橋區"
"220052","561-BX","2018/12/18 14:29:17","新北市板橋區陽明街29巷1弄17號","121.464286666667","25.0219","6500100","板橋區"
"220017","568-UM","2018/12/18 14:29:12","新北市板橋區貴興路88-3號","121.456018333333","25.0032716666667","6500100","板橋區"
"220011","609-BX","2018/12/18 14:29:03","新北市板橋區三民路二段110-1號","121.479148333333","25.01659","6500100","板橋區"
"220040","637-BX","2018/12/18 14:29:00","新北市板橋區文聖街149巷10號","121.478993333333","25.0282366666667","6500100","板橋區"
"220005","686-BX","2018/12/18 14:29:04","新北市板橋區國慶路49巷1號","121.459373333333","24.9955133333333","6500100","板橋區"
"220025","687-BX","2018/12/18 14:29:12","新北市板橋區大觀路一段28巷73號","121.449618333333","25.0110816666667","6500100","板橋區"
"220042","689-BX","2018/12/18 14:29:00","新北市板橋區新海路438號","121.458016666667","25.02778","6500100","板橋區"
"220002","741-BX","2018/12/18 14:29:05","新北市板橋區忠孝路239巷36號","121.467356666667","25.0036","6500100","板橋區"
"220051","KEA-2699","2018/12/18 14:29:00","新北市板橋區雙十路二段46巷16號","121.476121666667","25.028045","6500100","板橋區"
"220014","829-TW","2018/12/18 14:29:15","新北市板橋區漢生東路299巷8-2號","121.472085","25.0086783333333","6500100","板橋區"
"220016","830-TW","2018/12/18 14:28:59","新北市板橋區中山路二段559號","121.484021666667","25.0218","6500100","板橋區"
"220022","895-R6","2018/12/18 14:29:14","新北市板橋區大東街2號","121.456483333333","25.0094466666667","6500100","板橋區"
"220021","985-R7","2018/12/18 14:29:19","新北市板橋區新生街89巷28號","121.45704","25.02264","6500100","板橋區"
"220046","AAC-210","2018/12/18 14:29:05","新北市板橋區文化路一段285巷2弄29號","121.464006666667","25.0196016666667","6500100","板橋區"
"220012","AAC-253","2018/12/18 14:29:11","新北市板橋區民權路4號","121.463251666667","25.0096033333333","6500100","板橋區"
"235032","KEA-2873","2018/12/18 14:29:04","新北市中和區莊敬路16巷15弄2號","121.500175","25.0036533333333","6500300","中和區"
"235025","KEA-2875","2018/12/18 14:29:15","新北市中和區民利街50號","121.479301666667","24.9987466666667","6500300","中和區"
