"lineid","car","time","location","longitude","latitude","cityid","cityname"
"234048","863-TW","2018/12/18 15:55:32","新北市永和區福和路1號","121.526495","25.0098383333333","6500400","永和區"
"249003","593-UM","2018/12/18 16:19:20","新北市八里區博物館路29號","121.414231666667","25.1629466666667","6502300","八里區"
"234067","AAC-212","2018/12/18 16:19:19","新北市永和區福和路1號","121.526386666667","25.009645","6500400","永和區"
"231046","107-UY","2018/12/18 16:19:07","新北市新店區灣潭路3-3號","121.538248333333","24.950785","6500600","新店區"
"231018","278-BY","2018/12/18 16:19:07","新北市新店區中正路700巷82號","121.535916666667","24.9932366666667","6500600","新店區"
"241011","013-R5","2018/12/18 16:19:10","新北市三重區龍濱路190號","121.501118333333","25.0732916666667","6500200","三重區"
"241028","022-UY","2018/12/18 16:19:07","新北市三重區同安東街34號","121.497618333333","25.057175","6500200","三重區"
"241008","059-VK","2018/12/18 16:19:00","新北市三重區永福街96號","121.478813333333","25.0759516666667","6500200","三重區"
"241022","060-VK","2018/12/18 16:19:08","新北市三重區過圳街31巷2號","121.489261666667","25.0605633333333","6500200","三重區"
"241031","061-VK","2018/12/18 16:19:04","新北市三重區捷運路19巷1號","121.485381666667","25.0560566666667","6500200","三重區"
"241015","062-VK","2018/12/18 16:19:06","新北市三重區福德北路83號","121.50187","25.0659033333333","6500200","三重區"
"241017","063-VK","2018/12/18 16:19:22","新北市三重區大同北路91號","121.494645","25.06359","6500200","三重區"
"241024","065-VK","2018/12/18 16:19:11","新北市三重區中正北路145巷2弄1號","121.482968333333","25.0675833333333","6500200","三重區"
"241002","090-VK","2018/12/18 16:19:01","新北市三重區仁義街91號","121.499658333333","25.0796616666667","6500200","三重區"
"241003","091-VK","2018/12/18 16:19:03","新北市三重區五華街57巷30號","121.493881666667","25.0831266666667","6500200","三重區"
"241005","262-UM","2018/12/18 16:19:12","新北市三重區溪尾街300-2號","121.487491666667","25.0837083333333","6500200","三重區"
"241016","266-UM","2018/12/18 16:19:14","新北市三重區大仁街88號","121.492835","25.0654983333333","6500200","三重區"
"241018","268-UM","2018/12/18 16:19:04","新北市三重區重陽路三段37號","121.489426666667","25.066945","6500200","三重區"
"241032","269-UM","2018/12/18 16:19:05","新北市三重區三陽路116巷4號","121.483098333333","25.0580666666667","6500200","三重區"
"241013","270-UM","2018/12/18 16:19:08","新北市三重區三和路三段83巷46號","121.496508333333","25.07272","6500200","三重區"
"241025","271-UM","2018/12/18 16:19:14","新北市三重區中正北路560巷100弄2號","121.472431666667","25.0681933333333","6500200","三重區"
"241007","398-BY","2018/12/18 16:19:07","新北市三重區三和路四段163巷95號","121.486573333333","25.079575","6500200","三重區"
"241009","462-BY","2018/12/18 16:19:07","新北市三重區溪尾街196巷29號","121.487281666667","25.080675","6500200","三重區"
"241004","475-VK","2018/12/18 16:19:10","新北市三重區自強路五段63號","121.494741666667","25.0818933333333","6500200","三重區"
"241020","478-VK","2018/12/18 16:19:20","新北市三重區後竹圍街268號","121.483803333333","25.0710483333333","6500200","三重區"
"241014","543-UM","2018/12/18 16:19:10","新北市三重區河邊北街96-1號","121.504043333333","25.0699233333333","6500200","三重區"
"241023","545-UM","2018/12/18 16:19:05","新北市三重區忠孝路三段84巷1號","121.480226666667","25.0646933333333","6500200","三重區"
"241001","547-UM","2018/12/18 16:19:16","新北市三重區自強路四段87號","121.491035","25.0792833333333","6500200","三重區"
"241019","KEA-2593","2018/12/18 16:19:06","新北市三重區重陽路三段97號","121.490193333333","25.06801","6500200","三重區"
"241006","AAD-863","2018/12/18 16:19:06","新北市三重區永福街46巷41弄25號","121.481686666667","25.0770983333333","6500200","三重區"
"241026","743-BX","2018/12/18 16:19:05","新北市三重區正義南路105巷5號","121.4981","25.05914","6500200","三重區"
"241012","941-UM","2018/12/18 16:19:06","新北市三重區河邊北街313號","121.502426666667","25.0748633333333","6500200","三重區"
"241029","942-UM","2018/12/18 16:19:03","新北市三重區重安街103號","121.493935","25.055315","6500200","三重區"
"235026","800-TS","2018/12/18 16:19:18","新北市中和區建八路158號","121.489963333333","24.998535","6500300","中和區"
"235065","911-UM","2018/12/18 15:55:17","新北市中和區員山路36巷16-2號","121.48531","24.9917383333333","6500300","中和區"
"224007","275-VK","2018/12/18 16:19:05","新北市瑞芳區大埔路216號","121.761183333333","25.1021666666667","6501200","瑞芳區"
"227003","642-TC","2018/12/18 16:19:11","新北市雙溪區上林里內平林81號","121.82826","25.0279183333333","6502500","雙溪區"
"227009","400-TW","2018/12/18 16:19:22","新北市雙溪區三港里雙澳路80號","121.883801666667","25.0538683333333","6502500","雙溪區"
"251013","KEA-2871","2018/12/18 16:19:18","新北市淡水區北新路二段13號","121.476156666667","25.1856533333333","6501000","淡水區"
"251008","181-VK","2018/12/18 16:18:45","新北市淡水區中正東路65號","121.447086666667","25.167595","6501000","淡水區"
"247008","KED-0683","2018/12/18 16:19:03","新北市五股區中興路三段163號","121.4493","25.0806966666667","6501400","蘆洲區"
