"lineid","car","time","location","longitude","latitude","cityid","cityname"
"249005","172-UM","2018/12/18 17:29:17","新北市八里區荖阡坑路65-3號","121.404245","25.1310083333333","6502300","八里區"
"249001","173-UM","2018/12/18 17:29:13","新北市八里區中華路一段1-5號","121.423265","25.1586016666667","6502300","八里區"
"249004","303-UY","2018/12/18 17:29:08","新北市八里區埤頭一街146號","121.41435","25.1579666666667","6502300","八里區"
"249002","305-UY","2018/12/18 17:29:18","新北市八里區龍形五街35巷3號","121.449376666667","25.133155","6502300","八里區"
"249003","593-UM","2018/12/18 17:29:20","新北市八里區中山路二段289號","121.40147","25.1484516666667","6502300","八里區"
"232011","375-UM","2018/12/18 17:29:20","新北市坪林區鶯子瀨12-1號","121.713613333333","24.9139633333333","6502000","坪林區"
"244019","402-UM","2018/12/18 17:29:11","新北市林口區公園路163號","121.370845","25.0715416666667","6501700","林口區"
"244013","KEA-2802","2018/12/18 17:29:02","新北市林口區粉寮路二段14號","121.401911666667","25.085555","6501700","林口區"
"244023","483-VK","2018/12/18 17:29:10","新北市林口區興林一街107號","121.391715","25.0725533333333","6501700","林口區"
"244017","485-VK","2018/12/18 17:29:05","新北市林口區文化一路二段202號","121.383313333333","25.08067","6501700","林口區"
"244009","656-BX","2018/12/18 17:29:10","新北市林口區文化一路二段285-1號","121.384846666667","25.08458","6501700","林口區"
"244007","657-BX","2018/12/18 17:29:12","新北市林口區中華路96號","121.385233333333","25.0911316666667","6501700","林口區"
"244011","701-TV","2018/12/18 17:29:16","新北市林口區仁愛路一段671號","121.387521666667","25.076685","6501700","林口區"
"244025","837-TS","2018/12/18 17:29:09","新北市林口區文化三路一段339號","121.364493333333","25.0729333333333","6501700","林口區"
"244021","838-TS","2018/12/18 17:29:15","新北市林口區醒吾新村1號","121.396305","25.0791333333333","6501700","林口區"
"231046","107-UY","2018/12/18 17:29:07","新北市新店區直潭路92號","121.530915","24.93757","6500600","新店區"
"241011","013-R5","2018/12/18 17:29:13","新北市三重區河邊北街124巷17號","121.503221666667","25.071345","6500200","三重區"
"241008","059-VK","2018/12/18 17:29:20","新北市三重區車路頭街150號","121.48371","25.076325","6500200","三重區"
"241015","062-VK","2018/12/18 17:29:22","新北市三重區開元街30號","121.503691666667","25.0658316666667","6500200","三重區"
"241017","063-VK","2018/12/18 17:29:22","新北市三重區中正北路15號","121.492871666667","25.0618033333333","6500200","三重區"
"241024","065-VK","2018/12/18 17:29:11","新北市三重區大勇街82巷15弄9號","121.480176666667","25.07178","6500200","三重區"
"241005","262-UM","2018/12/18 17:29:12","新北市蘆洲區集賢路269巷42-1號","121.482116666667","25.0823533333333","6500200","三重區"
"241016","266-UM","2018/12/18 17:29:14","新北市三重區信義西街148號","121.495285","25.0639183333333","6500200","三重區"
"241032","269-UM","2018/12/18 17:29:05","新北市三重區名源街61巷3號","121.481956666667","25.0593333333333","6500200","三重區"
"241025","271-UM","2018/12/18 17:29:14","新北市三重區中正北路311號","121.47398","25.071465","6500200","三重區"
"241007","398-BY","2018/12/18 17:29:14","新北市三重區三和路四段145巷91號","121.486625","25.0788766666667","6500200","三重區"
"241020","478-VK","2018/12/18 17:29:19","新北市三重區忠孝路二段85號","121.484491666667","25.0701833333333","6500200","三重區"
"241030","480-VK","2018/12/18 17:29:10","新北市三重區環河南路220-8號","121.493361666667","25.052725","6500200","三重區"
"241014","543-UM","2018/12/18 17:29:10","新北市三重區長壽街63號","121.501543333333","25.0684333333333","6500200","三重區"
"241023","545-UM","2018/12/18 17:29:05","新北市三重區三民街146巷3弄2號","121.481555","25.064515","6500200","三重區"
"241019","KEA-2593","2018/12/18 17:29:16","新北市三重區自強路二段26巷1號","121.489266666667","25.0691283333333","6500200","三重區"
"241012","941-UM","2018/12/18 17:29:05","新北市三重區仁興街39巷18號","121.500221666667","25.0762016666667","6500200","三重區"
"247012","KEA-2869","2018/12/18 17:29:15","新北市蘆洲區民族路31-12號","121.47796","25.085065","6501400","蘆洲區"
"247006","KED-0682","2018/12/18 17:29:06","新北市蘆洲區長安街68巷29號","121.463766666667","25.0809166666667","6501400","蘆洲區"
"235065","911-UM","2018/12/18 17:29:23","新北市中和區員山路36巷16-2號","121.485151666667","24.9918383333333","6500300","中和區"
"247002","893-R6","2018/12/18 17:29:14","新北市蘆洲區永樂街38巷69號","121.458535","25.0904866666667","6501400","蘆洲區"
"247024","500-BY","2018/12/18 17:29:03","新北市蘆洲區長興路389號","121.461016666667","25.0915016666667","6501400","蘆洲區"
"247020","057-VK","2018/12/18 17:29:01","新北市蘆洲區水湳街281號","121.469498333333","25.0929566666667","6501400","蘆洲區"
"247010","056-VK","2018/12/18 17:29:21","新北市蘆洲區集賢路406號","121.47985","25.081945","6501400","蘆洲區"
"247014","053-VK","2018/12/18 17:29:16","新北市蘆洲區三民路38-1號","121.475473333333","25.08303","6501400","蘆洲區"
"247018","007-UY","2018/12/18 17:29:12","新北市蘆洲區民義街48號","121.472111666667","25.089165","6501400","蘆洲區"
"247004","002-UY","2018/12/18 17:29:11","新北市蘆洲區長安街233巷14號","121.458845","25.0826766666667","6501400","蘆洲區"
"247022","001-UY","2018/12/18 17:29:16","新北市蘆洲區三民路341-3號","121.464856666667","25.0909366666667","6501400","蘆洲區"
"228001","212-TW","2018/12/18 17:29:05","新北市貢寮區仁理村仁愛路26號","121.924671666667","25.05324","6502600","貢寮區"
"228002","585-TW","2018/12/18 17:29:16","新北市貢寮區福隆里興隆街23號","121.942628333333","25.0165283333333","6502600","貢寮區"
"228003","828-UM","2018/12/18 17:29:20","新北市貢寮區仁理村仁和路2-1號","121.923168333333","25.04864","6502600","貢寮區"
"224010","AGQ-8101","2018/12/18 17:28:42","新北市瑞芳區明燈路二段2巷8號","121.814028333333","25.1086666666667","6501200","瑞芳區"
"224006","676-BX","2018/12/18 17:29:21","新北市瑞芳區靜安路四段63-1號","121.7934","25.108625","6501200","瑞芳區"
"224008","285-BY","2018/12/18 17:29:11","新北市瑞芳區侯硐路204號","121.830453333333","25.088195","6501200","瑞芳區"
"224009","273-VK","2018/12/18 17:29:21","新北市瑞芳區烏勢巷136號","121.846671666667","25.107435","6501200","瑞芳區"
"224005","271-BY","2018/12/18 17:29:22","新北市瑞芳區籠山路10號","121.83259","25.12615","6501200","瑞芳區"
"227003","642-TC","2018/12/18 17:29:11","新北市雙溪區上林里新寮子6號","121.838658333333","25.0309383333333","6502500","雙溪區"
"227009","400-TW","2018/12/18 17:29:05","新北市雙溪區三貂里定福路2號","121.850986666667","25.0667","6502500","雙溪區"
"251004","009-UM","2018/12/18 17:22:50","新北市淡水區中正東路二段88巷15號","121.459163333333","25.1503316666667","6501000","淡水區"
"251013","KEA-2871","2018/12/18 17:29:18","新北市淡水區大竹圍5號","121.466573333333","25.195225","6501000","淡水區"
"251016","179-VK","2018/12/18 17:29:09","新北市淡水區埤島72號","121.456018333333","25.1930783333333","6501000","淡水區"
"251014","180-VK","2018/12/18 17:29:16","新北市淡水區公埔子20-6號","121.471876666667","25.2265733333333","6501000","淡水區"
"251008","181-VK","2018/12/18 17:29:18","新北市淡水區大同路109巷6號","121.463251666667","25.1411983333333","6501000","淡水區"
"251015","182-VK","2018/12/18 17:29:10","新北市淡水區三空泉16-10號","121.471226666667","25.1650066666667","6501000","淡水區"
"251010","413-VK","2018/12/18 17:29:09","新北市淡水區中正路二段211號","121.426203333333","25.1891","6501000","淡水區"
"251012","441-VK","2018/12/18 17:29:23","新北市淡水區北新路113號","121.448278333333","25.1783816666667","6501000","淡水區"
"251007","442-VK","2018/12/18 17:29:16","新北市淡水區民生路60號","121.4621","25.137955","6501000","淡水區"
"251005","443-VK","2018/12/18 17:29:08","新北市淡水區鄧公路31巷3號","121.451381666667","25.1708","6501000","淡水區"
"251006","561-UM","2018/12/18 17:29:15","新北市淡水區大仁街33號","121.442575","25.175605","6501000","淡水區"
"251009","575-R6","2018/12/18 17:29:10","新北市淡水區新生街30巷64號","121.439576666667","25.17306","6501000","淡水區"
"251011","650-BX","2018/12/18 17:29:02","新北市淡水區坪頂路718號","121.48256","25.1584933333333","6501000","淡水區"
"251002","672-BX","2018/12/18 17:29:14","新北市淡水區中正路32巷7號","121.430491666667","25.1753116666667","6501000","淡水區"
"251003","673-BX","2018/12/18 17:29:06","新北市淡水區中山路158號","121.44083","25.1728866666667","6501000","淡水區"
"207003","550-UM","2018/12/18 17:29:12","新北市萬里區龜吼里翡翠路17號","121.683403333333","25.18709","6502800","萬里區"
"207004","225-TW","2018/12/18 17:29:15","新北市萬里區萬里里景美路11號","121.68504","25.1731583333333","6502800","萬里區"
"252002","178-VK","2018/12/18 17:29:07","新北市三芝區忠孝街1-15號","121.505558333333","25.2539333333333","6502100","三芝區"
"252001","292-VK","2018/12/18 17:29:07","新北市三芝區長安街119號","121.498045","25.2596383333333","6502100","三芝區"
"237016","649-BX","2018/12/18 17:29:07","新北市三峽區中山路143號","121.365106666667","24.9361533333333","6500900","三峽區"
"247008","KED-0683","2018/12/18 17:29:02","新北市蘆洲區信義路34巷64號","121.475256666667","25.0778016666667","6501400","蘆洲區"
"242037","AAC-296","2018/12/18 17:29:06","新北市新莊區建國二路1號","121.434903333333","25.0236166666667","6500500","新莊區"
"242058","986-R7","2018/12/18 17:29:09","新北市新莊區福營路94號","121.43687","25.0330516666667","6500500","新莊區"
"242056","751-BX","2018/12/18 17:29:17","新北市新莊區新泰路16號","121.449651666667","25.033125","6500500","新莊區"
"242027","615-BX","2018/12/18 17:29:18","新北市新莊區思源路32號","121.460223333333","25.0404866666667","6500500","新莊區"
"242025","613-BX","2018/12/18 17:29:10","新北市新莊區復興路二段31號","121.4544","25.0441266666667","6500500","新莊區"
"242029","612-BX","2018/12/18 17:29:07","新北市新莊區復興路二段192號","121.459225","25.0444616666667","6500500","新莊區"
"242044","566-BX","2018/12/18 17:29:19","新北市新莊區富國路101-1號","121.421368333333","25.0255316666667","6500500","新莊區"
"242048","497-BY","2018/12/18 17:29:07","新北市新莊區四維路210號","121.421328333333","25.0201133333333","6500500","新莊區"
"242051","442-UM","2018/12/18 17:29:10","新北市新莊區新樹路447號","121.432766666667","25.0134733333333","6500500","新莊區"
"242002","440-UM","2018/12/18 17:29:17","新北市新莊區新莊路225號","121.45506","25.03525","6500500","新莊區"
"242039","415-TV","2018/12/18 17:29:15","新北市新莊區民安路270號","121.427588333333","25.0213233333333","6500500","新莊區"
"242046","400-BY","2018/12/18 17:29:05","新北市新莊區新樹路67巷3號","121.441695","25.030665","6500500","新莊區"
"242023","362-BY","2018/12/18 17:29:03","新北市新莊區中華路一段130號","121.452608333333","25.0411866666667","6500500","新莊區"
"242061","353-BY","2018/12/18 17:29:19","新北市新莊區瓊林路59-20號","121.440151666667","25.0217966666667","6500500","新莊區"
"242011","132-UY","2018/12/18 17:29:17","新北市新莊區中港路469號","121.452291666667","25.049085","6500500","新莊區"
"242034","135-UY","2018/12/18 17:29:10","新北市新莊區新莊路372號","121.449303333333","25.0334783333333","6500500","新莊區"
"242013","173-VK","2018/12/18 17:29:12","新北市新莊區中誠街101號","121.449838333333","25.0477233333333","6500500","新莊區"
"242019","175-VK","2018/12/18 17:29:13","新北市新莊區中港路85號","121.455436666667","25.0390766666667","6500500","新莊區"
"242007","176-VK","2018/12/18 17:29:11","新北市新莊區自強街50號","121.45474","25.0466816666667","6500500","新莊區"
"242017","KED-0687","2018/12/18 17:29:18","新北市新莊區復興路一段203號","121.452228333333","25.0435","6500500","新莊區"
"242054","346-TH","2018/12/18 17:29:04","新北市新莊區瓊林南路305巷3號","121.434806666667","25.0054533333333","6500500","新莊區"
"242032","348-TH","2018/12/18 17:29:09","新北市新莊區新泰路381巷38號","121.442518333333","25.0437233333333","6500500","新莊區"
"242005","349-TH","2018/12/18 17:29:06","新北市新莊區中港路278號","121.45301","25.044045","6500500","新莊區"
"242021","350-TH","2018/12/18 17:29:11","新北市新莊區中港路2號","121.454953333333","25.0368033333333","6500500","新莊區"
"242015","351-TH","2018/12/18 17:29:01","新北市新莊區建中街73號","121.447478333333","25.0367516666667","6500500","新莊區"
"238015","755-BX","2018/12/18 17:29:03","新北市樹林區長壽街70巷14弄1號","121.422346666667","24.9952333333333","6500700","樹林區"
"238019","599-UM","2018/12/18 17:29:14","新北市樹林區太平路45號","121.419096666667","24.9829383333333","6500700","樹林區"
"238018","571-TV","2018/12/18 17:29:13","新北市樹林區鎮前街93號","121.424695","24.989785","6500700","樹林區"
"238024","5061-A6","2018/12/18 17:29:15","新北市樹林區鎮前街86巷8號","121.425186666667","24.9920566666667","6500700","樹林區"
"238022","KEA-2213","2018/12/18 17:29:05","新北市樹林區和平街6巷2號","121.421448333333","24.98129","6500700","樹林區"
"238021","KEA-2539","2018/12/18 17:29:07","新北市樹林區西圳街一段203巷10號","121.392683333333","24.960885","6500700","樹林區"
"238025","303-VK","2018/12/18 17:29:22","新北市樹林區保安街一段298號","121.41899","24.99731","6500700","樹林區"
"238017","283-BY","2018/12/18 17:29:19","新北市樹林區中正路246號","121.417976666667","25.007595","6500700","樹林區"
"238014","282-BY","2018/12/18 17:29:09","新北市樹林區保安街一段294巷3號","121.419235","24.9975833333333","6500700","樹林區"
"238020","268-VK","2018/12/18 17:29:16","新北市樹林區俊英街48號","121.428791666667","25.0026866666667","6500700","樹林區"
"238026","172-UY","2018/12/18 17:29:08","新北市樹林區味王街6號","121.402883333333","24.97619","6500700","樹林區"
"238016","169-UY","2018/12/18 17:28:36","新北市樹林區長壽街32號","121.422803333333","24.9939866666667","6500700","樹林區"
"239007","AAC-297","2018/12/18 17:29:13","新北市鶯歌區國光街112號","121.34135","24.9560833333333","6500800","鶯歌區"
"239006","891-R6","2018/12/18 17:29:08","新北市鶯歌區鶯桃路301號","121.333658333333","24.96058","6500800","鶯歌區"
"239008","527-UM","2018/12/18 17:29:24","新北市鶯歌區大湖路584號","121.335783333333","24.9738666666667","6500800","鶯歌區"
"239005","526-UM","2018/12/18 17:29:15","新北市鶯歌區鶯桃路二段13號","121.325708333333","24.9719216666667","6500800","鶯歌區"
"239001","417-VK","2018/12/18 17:29:06","新北市鶯歌區中正三路149號","121.336803333333","24.940245","6500800","鶯歌區"
"239003","360-BY","2018/12/18 17:28:51","新北市鶯歌區德昌街175號","121.331758333333","24.9605233333333","6500800","鶯歌區"
"239002","359-BY","2018/12/18 17:29:05","新北市鶯歌區育才街25號","121.349368333333","24.95493","6500800","鶯歌區"
"239004","193-VK","2018/12/18 17:29:06","新北市鶯歌區三鶯路16號","121.356413333333","24.9413283333333","6500800","鶯歌區"
"221008","489-VK","2018/12/18 17:29:11","新北市汐止區康寧街901號","121.65139","25.0749883333333","6501100","汐止區"
"221010","269-BY","2018/12/18 17:29:08","新北市汐止區汐萬路一段256巷3號","121.652066666667","25.0748466666667","6501100","汐止區"
"242042","281-VK","2018/12/18 17:29:08","新北市新莊區新樹路111號","121.437726666667","25.0266666666667","6500500","新莊區"
"242009","280-VK","2018/12/18 17:29:21","新北市新莊區中原路187-1號","121.452698333333","25.0542666666667","6500500","新莊區"
