"lineid","car","time","location","longitude","latitude","cityid","cityname"
"234007","207-UY","2018/12/18 18:19:05","新北市永和區環河西路一段83號","121.512773333333","25.018175","6500400","永和區"
"234042","862-TW","2018/12/18 18:19:20","新北市永和區福和路1號","121.526143333333","25.0098383333333","6500400","永和區"
"234026","9371-KE","2018/12/18 18:19:09","新北市永和區中正路629號","121.515531666667","25.0098983333333","6500400","永和區"
"234011","9373-KE","2018/12/18 18:19:23","新北市永和區保安路22號","121.510566666667","25.0170766666667","6500400","永和區"
"249005","172-UM","2018/12/18 18:19:17","新北市八里區荖阡坑路15-3號","121.400885","25.1402283333333","6502300","八里區"
"249001","173-UM","2018/12/18 18:19:13","新北市八里區龍米路一段172-1號","121.452453333333","25.1265016666667","6502300","八里區"
"249004","303-UY","2018/12/18 18:19:08","新北市八里區觀海大道36號","121.430503333333","25.160375","6502300","八里區"
"249002","305-UY","2018/12/18 18:19:18","新北市八里區龍形二街52號","121.450226666667","25.1329633333333","6502300","八里區"
"248014","025-BX","2018/12/18 18:19:05","新北市五股區自強路19巷5-1號","121.434598333333","25.0737166666667","6501500","五股區"
"248016","026-BX","2018/12/18 18:19:14","新北市五股區成泰路三段477巷18號","121.449935","25.0988833333333","6501500","五股區"
"248006","077-UY","2018/12/18 18:19:09","新北市五股區中興路一段175號","121.464501666667","25.07375","6501500","五股區"
"248008","095-VK","2018/12/18 18:19:22","新北市五股區更洲路32巷8弄14號","121.459263333333","25.0796233333333","6501500","五股區"
"248020","225-UY","2018/12/18 18:19:23","新北市五股區孝義路47巷22號","121.45192","25.1092116666667","6501500","五股區"
"248012","247-BX","2018/12/18 18:19:11","新北市五股區御史路1巷75號","121.441185","25.090465","6501500","五股區"
"248004","677-BX","2018/12/18 18:19:06","新北市五股區成泰路二段101號","121.438248333333","25.08427","6501500","五股區"
"248002","678-BX","2018/12/18 18:19:18","新北市五股區西雲路46號","121.443445","25.09098","6501500","五股區"
"248010","682-TV","2018/12/18 18:19:25","新北市五股區成泰路一段143號","121.435396666667","25.073035","6501500","五股區"
"234067","AAC-212","2018/12/18 17:53:50","新北市永和區福和路1號","121.526426666667","25.0095983333333","6500400","永和區"
"244019","402-UM","2018/12/18 18:19:11","新北市林口區麗園路23-2號","121.374428333333","25.0691766666667","6501700","林口區"
"244013","KEA-2802","2018/12/18 18:19:02","新北市林口區佳林路101巷34號","121.38695","25.0800066666667","6501700","林口區"
"244023","483-VK","2018/12/18 18:19:10","新北市林口區東湖路153巷151號","121.382211666667","25.073695","6501700","林口區"
"244017","485-VK","2018/12/18 18:19:05","新北市林口區公園路37號","121.367098333333","25.0680766666667","6501700","林口區"
"244009","656-BX","2018/12/18 18:19:11","新北市林口區文林一街121號","121.378796666667","25.08719","6501700","林口區"
"244007","657-BX","2018/12/18 18:19:12","新北市林口區林口路124巷10弄7號","121.38917","25.0816016666667","6501700","林口區"
"244011","701-TV","2018/12/18 18:19:16","新北市林口區新生街22號","121.394098333333","25.0765666666667","6501700","林口區"
"244025","837-TS","2018/12/18 18:19:09","新北市林口區南勢二街85巷1號","121.355955","25.0696516666667","6501700","林口區"
"244021","838-TS","2018/12/18 18:19:15","新北市林口區自強二街1號","121.397413333333","25.078455","6501700","林口區"
"243013","AAD-798","2018/12/18 18:19:02","新北市新莊區壽山路160巷27號","121.415575","25.0355233333333","6501600","泰山區"
"222003","436-BY","2018/12/18 18:19:19","新北市深坑區旺耽路67號","121.626256666667","25.002985","6501800","深坑區"
"222002","659-BX","2018/12/18 18:19:09","新北市深坑區雲鄉路3號","121.620996666667","25.000165","6501800","深坑區"
"231041","001-UM","2018/12/18 18:19:07","新北市新店區安華路28-1號","121.51945","24.960755","6500600","新店區"
"231059","046-UY","2018/12/18 18:19:13","新北市新店區安華路28-1號","121.519506666667","24.9609016666667","6500600","新店區"
"231040","047-UY","2018/12/18 18:19:12","新北市新店區安華路28-1號","121.519313333333","24.9609216666667","6500600","新店區"
"231044","106-UY","2018/12/18 18:19:13","新北市新店區安華路28-1號","121.519553333333","24.960735","6500600","新店區"
"231046","107-UY","2018/12/18 18:19:07","新北市新店區直潭七街60號","121.532238333333","24.9398933333333","6500600","新店區"
"231053","108-UY","2018/12/18 18:19:13","新北市新店區安康路一段289號","121.522846666667","24.9636566666667","6500600","新店區"
"231048","187-VK","2018/12/18 18:19:15","新北市新店區安一路一段1-1號","121.519485","24.9611166666667","6500600","新店區"
"231054","KEA-2219","2018/12/18 18:19:09","新北市新店區安一路一段1-1號","121.51995","24.9611216666667","6500600","新店區"
"231042","268-BY","2018/12/18 18:19:06","新北市新店區安一路一段1-1號","121.519606666667","24.9610583333333","6500600","新店區"
"231050","AAD-862","2018/12/18 18:19:14","新北市新店區安華路28-1號","121.51963","24.9609266666667","6500600","新店區"
"231060","355-BY","2018/12/18 18:19:12","新北市新店區安華路28-1號","121.519163333333","24.9608766666667","6500600","新店區"
"231058","3713-VJ","2018/12/18 18:19:02","新北市新店區安康路一段124號","121.526906666667","24.9626883333333","6500600","新店區"
"231066","4716-K9","2018/12/18 18:19:03","新北市新店區安一路一段1-1號","121.519221666667","24.9613083333333","6500600","新店區"
"231056","4715-K9","2018/12/18 18:19:24","新北市新店區中正路444號","121.5341","24.9784816666667","6500600","新店區"
"231067","4772-VM","2018/12/18 18:19:04","新北市新店區安華路3號","121.518985","24.96045","6500600","新店區"
"231049","513-UM","2018/12/18 18:19:09","新北市新店區安一路一段1-1號","121.51969","24.9611116666667","6500600","新店區"
"231061","619-UM","2018/12/18 18:19:08","新北市新店區安華路28-1號","121.51937","24.9606616666667","6500600","新店區"
"231064","719-UM","2018/12/18 18:19:18","新北市新店區安一路一段1-1號","121.51941","24.9614216666667","6500600","新店區"
"231062","720-UM","2018/12/18 18:19:18","新北市新店區安一路一段1-1號","121.51901","24.9614383333333","6500600","新店區"
"231045","898-TW","2018/12/18 18:19:16","新北市新店區安華路28-1號","121.519233333333","24.9609116666667","6500600","新店區"
"231043","899-TW","2018/12/18 18:19:18","新北市新店區安華路28-1號","121.519073333333","24.9608616666667","6500600","新店區"
"231055","AKT-0513","2018/12/18 18:19:23","新北市新店區北新路一段91號","121.538866666667","24.9617766666667","6500600","新店區"
"235064","005-UY","2018/12/18 18:19:23","新北市中和區圓通路145巷20號","121.498121666667","24.9950183333333","6500300","中和區"
"235063","006-UY","2018/12/18 18:19:14","新北市中和區中正路547號","121.487313333333","24.9942433333333","6500300","中和區"
"235056","096-UM","2018/12/18 18:19:01","新北市中和區中正路721號","121.485195","24.99883","6500300","中和區"
"235039","097-UM","2018/12/18 18:19:23","新北市中和區景平路408-1號","121.508555","24.9930966666667","6500300","中和區"
"235058","151-BY","2018/12/18 18:19:14","新北市中和區圓通路433巷8號","121.487656666667","24.9879933333333","6500300","中和區"
"235055","183-VK","2018/12/18 18:19:13","新北市中和區連城路469巷70弄16號","121.482841666667","24.9936333333333","6500300","中和區"
"235038","185-VK","2018/12/18 18:19:12","新北市中和區大智街98號","121.523763333333","24.99252","6500300","中和區"
"235049","186-VK","2018/12/18 18:19:15","新北市中和區中正路637巷60弄61號","121.485486666667","24.993235","6500300","中和區"
"235067","255-BX","2018/12/18 18:19:14","新北市中和區和城路一段271巷1號","121.485916666667","24.991765","6500300","中和區"
"235044","293-VK","2018/12/18 18:19:10","新北市中和區中正路637巷52弄1號","121.485493333333","24.9934033333333","6500300","中和區"
"235072","301-VK","2018/12/18 18:19:05","新北市中和區連城路263巷1號","121.491971666667","24.996505","6500300","中和區"
"235042","KEA-2878","2018/12/18 18:18:54","新北市中和區景德街84號","121.51638","24.9916916666667","6500300","中和區"
"235050","4979-A6","2018/12/18 18:19:10","新北市中和區捷運路185號","121.505506666667","24.9914633333333","6500300","中和區"
"235069","4980-A6","2018/12/18 18:19:18","新北市中和區中正路458號","121.490598333333","24.9941833333333","6500300","中和區"
"235070","558-UM","2018/12/18 18:19:11","新北市中和區圓通路138號","121.498355","24.9958","6500300","中和區"
"235045","565-BX","2018/12/18 18:19:15","新北市中和區景安路200巷7號","121.503266666667","24.9916133333333","6500300","中和區"
"235054","640-BX","2018/12/18 18:19:12","新北市中和區莒光路183號","121.472681666667","24.99909","6500300","中和區"
"235060","647-TV","2018/12/18 18:19:18","新北市中和區員山路168號","121.481311666667","24.9998066666667","6500300","中和區"
"235047","732-UM","2018/12/18 18:19:16","新北市中和區南山路252號","121.507918333333","24.9885483333333","6500300","中和區"
"235046","733-UM","2018/12/18 18:19:15","新北市中和區中正路637巷52弄1號","121.485438333333","24.9933733333333","6500300","中和區"
"235062","800-TS","2018/12/18 18:19:18","新北市中和區景平路999巷1號","121.495411666667","25.005985","6500300","中和區"
"235057","801-TS","2018/12/18 18:19:21","新北市中和區民安街180號","121.476281666667","24.9999166666667","6500300","中和區"
"235041","802-TS","2018/12/18 18:19:19","新北市中和區錦和路350-1號","121.489968333333","24.9935033333333","6500300","中和區"
"235052","805-TS","2018/12/18 18:19:16","新北市中和區中正路19號","121.502966666667","24.9934316666667","6500300","中和區"
"235048","896-TW","2018/12/18 18:19:06","新北市中和區中正路503號","121.488713333333","24.9935166666667","6500300","中和區"
"235053","900-TW","2018/12/18 18:19:18","新北市中和區員山路36巷16-3號","121.484875","24.991865","6500300","中和區"
"235065","911-UM","2018/12/18 18:19:23","新北市中和區莊敬路49巷18號","121.501818333333","25.0060733333333","6500300","中和區"
"235051","157-BY","2018/12/18 18:19:22","新北市中和區信義街65號","121.511588333333","24.9881266666667","6500300","中和區"
"235037","AAC-213","2018/12/18 18:19:06","新北市中和區景德街67號","121.516958333333","24.9914433333333","6500300","中和區"
"226004","205-ST","2018/12/18 18:19:10","新北市平溪區靜安路二段7巷8號","121.70817","25.0187016666667","6502400","平溪區"
"228001","212-TW","2018/12/18 18:19:05","新北市貢寮區真理里新港街26巷55弄2-1號","121.927431666667","25.0528716666667","6502600","貢寮區"
"228002","585-TW","2018/12/18 18:19:16","新北市貢寮區福連里馬崗街1號","121.99751","25.0169716666667","6502600","貢寮區"
"228003","828-UM","2018/12/18 18:19:20","新北市貢寮區真理里美艷山街21號","121.92348","25.0687066666667","6502600","貢寮區"
"224006","676-BX","2018/12/18 18:19:21","新北市瑞芳區中正路2號","121.809306666667","25.1070783333333","6501200","瑞芳區"
"224008","285-BY","2018/12/18 18:19:11","新北市瑞芳區逢甲路84號","121.809765","25.1087416666667","6501200","瑞芳區"
"224007","275-VK","2018/12/18 18:19:14","新北市瑞芳區大埔路67巷3-1號","121.764411666667","25.1014666666667","6501200","瑞芳區"
"224009","273-VK","2018/12/18 18:19:21","新北市瑞芳區五號路5-1號","121.8556","25.1089283333333","6501200","瑞芳區"
"224005","271-BY","2018/12/18 18:19:02","新北市瑞芳區建基新村28號","121.812918333333","25.1294966666667","6501200","瑞芳區"
"227003","642-TC","2018/12/18 18:19:21","新北市雙溪區共和里中山路2號","121.863765","25.033795","6502500","雙溪區"
"227009","400-TW","2018/12/18 18:19:22","新北市雙溪區牡丹里牡丹73號","121.851718333333","25.05934","6502500","雙溪區"
"253006","032-BX","2018/12/18 18:19:21","新北市石門區老梅路77號","121.5462","25.2892666666667","6502200","石門區"
"253005","295-VK","2018/12/18 18:19:21","新北市石門區中央路22號","121.567873333333","25.292605","6502200","石門區"
"222001","KEA-2212","2018/12/18 18:19:16","新北市深坑區北深路二段66號","121.618998333333","25.0041533333333","6501800","深坑區"
"208002","KEA-2872","2018/12/18 18:19:15","新北市金山區清泉里清水路16巷12號","121.633233333333","25.2305266666667","6502700","金山區"
"208003","665-BX","2018/12/18 18:19:07","新北市金山區中山路16號","121.641688333333","25.218005","6502700","金山區"
"208001","761-BX","2018/12/18 18:19:17","新北市金山區中山路16號","121.64165","25.2178516666667","6502700","金山區"
"251004","009-UM","2018/12/18 18:19:23","新北市淡水區民族路31巷7號","121.462391666667","25.136155","6501000","淡水區"
"251013","KEA-2871","2018/12/18 18:19:18","新北市淡水區行忠路590號","121.468063333333","25.1991333333333","6501000","淡水區"
"251016","179-VK","2018/12/18 18:19:09","新北市淡水區下圭柔山33號","121.450481666667","25.20484","6501000","淡水區"
"251014","180-VK","2018/12/18 18:19:16","新北市淡水區崙頂13號","121.492045","25.2205333333333","6501000","淡水區"
"251008","181-VK","2018/12/18 18:19:19","新北市淡水區水源街二段346巷1弄1號","121.463323333333","25.1758683333333","6501000","淡水區"
"251015","182-VK","2018/12/18 18:19:10","新北市淡水區興福寮88巷1號","121.485273333333","25.16489","6501000","淡水區"
"251010","413-VK","2018/12/18 18:19:09","新北市淡水區淡海路180巷12-3號","121.420386666667","25.1846533333333","6501000","淡水區"
"251012","441-VK","2018/12/18 18:19:03","新北市淡水區北新路二段77-5號","121.480526666667","25.1855616666667","6501000","淡水區"
"251005","443-VK","2018/12/18 18:19:08","新北市淡水區水源街一段122巷37號","121.447106666667","25.1704766666667","6501000","淡水區"
"251001","559-UM","2018/12/18 18:19:12","新北市淡水區自強路110-8號","121.46155","25.131465","6501000","淡水區"
"251006","561-UM","2018/12/18 18:19:05","新北市淡水區新民街35號","121.438866666667","25.175965","6501000","淡水區"
"251011","650-BX","2018/12/18 18:19:21","新北市淡水區坪頂路51巷2號","121.458421666667","25.1626833333333","6501000","淡水區"
"251002","672-BX","2018/12/18 18:19:14","新北市淡水區中正東路一段38號","121.452656666667","25.16224","6501000","淡水區"
"251003","673-BX","2018/12/18 18:19:06","新北市淡水區北新路180號","121.449511666667","25.1787416666667","6501000","淡水區"
"207003","550-UM","2018/12/18 18:19:12","新北市萬里區野柳里港東路23號","121.687391666667","25.203655","6502800","萬里區"
"207004","225-TW","2018/12/18 18:19:15","新北市萬里區中幅里中福路39-2號","121.676845","25.16584","6502800","萬里區"
"252002","178-VK","2018/12/18 18:19:07","新北市三芝區中山路二段39號","121.502931666667","25.2551016666667","6502100","三芝區"
"252003","249-BX","2018/12/18 18:19:07","新北市三芝區錫板里南勢崗5-6號","121.479706666667","25.2623883333333","6502100","三芝區"
"252001","292-VK","2018/12/18 18:19:07","新北市三芝區中興街二段2號","121.498458333333","25.2566633333333","6502100","三芝區"
"237004","KEA-2597","2018/12/18 18:19:20","新北市三峽區五寮65號","121.360243333333","24.8596816666667","6500900","三峽區"
"237007","153-BY","2018/12/18 18:19:07","新北市三峽區中正路二段612號","121.35869","24.9057566666667","6500900","三峽區"
"237009","210-TH","2018/12/18 18:19:04","新北市三峽區中山路146號","121.364925","24.936355","6500900","三峽區"
"237013","252-BX","2018/12/18 18:19:13","新北市三峽區長泰街33巷14弄9號","121.377126666667","24.9317383333333","6500900","三峽區"
"237012","275-BY","2018/12/18 18:19:23","新北市三峽區三樹路74號","121.378053333333","24.9383233333333","6500900","三峽區"
"237008","302-VK","2018/12/18 18:19:05","新北市三峽區白雞68-83號","121.392516666667","24.9086133333333","6500900","三峽區"
"237014","433-BY","2018/12/18 18:19:21","新北市三峽區民生街106號","121.373693333333","24.9354","6500900","三峽區"
"237006","5529-G3","2018/12/18 18:19:07","新北市三峽區溪東路140號","121.404856666667","24.9332883333333","6500900","三峽區"
"237011","KEA-2596","2018/12/18 18:19:08","新北市三峽區溪東路182號","121.406651666667","24.93258","6500900","三峽區"
"237016","649-BX","2018/12/18 18:19:07","新北市三峽區紫新路17號","121.423125","24.9206616666667","6500900","三峽區"
"237010","706-TV","2018/12/18 18:19:07","新北市三峽區中山路275號","121.362076666667","24.9375233333333","6500900","三峽區"
"237005","AKY-6261","2018/12/18 18:19:19","新北市三峽區長福街6-2號","121.370105","24.9337216666667","6500900","三峽區"
"236070","105-UM","2018/12/18 18:19:15","新北市土城區永豐路149號","121.467268333333","24.9828016666667","6501300","土城區"
"236042","KED-0685","2018/12/18 18:19:21","新北市土城區裕生路21巷19號","121.448785","24.9871216666667","6501300","土城區"
"236079","166-UM","2018/12/18 18:19:24","新北市土城區中央路三段281巷23弄19號","121.426311666667","24.96156","6501300","土城區"
"236030","253-BX","2018/12/18 18:19:05","新北市土城區順風路24號","121.440706666667","24.976695","6501300","土城區"
"236026","269-VK","2018/12/18 18:19:04","新北市土城區承天路18號","121.439525","24.96341","6501300","土城區"
"236014","270-VK","2018/12/18 18:19:05","新北市土城區青雲路39巷7號","121.460288333333","24.9874033333333","6501300","土城區"
"236038","271-VK","2018/12/18 18:19:08","新北市土城區青雲路451巷8弄6號","121.459551666667","24.9743283333333","6501300","土城區"
"236021","401-BY","2018/12/18 18:19:06","新北市土城區明德路一段385-1號","121.452365","24.9802033333333","6501300","土城區"
"236059","912-UM","2018/12/18 18:19:20","新北市土城區中央路四段440號","121.41064","24.9514616666667","6501300","土城區"
"236049","913-UM","2018/12/18 18:19:21","新北市土城區明德路一段375-3號","121.454148333333","24.978545","6501300","土城區"
"236063","915-UM","2018/12/18 18:19:08","新北市土城區金城路三段202-3號","121.46935","24.9884833333333","6501300","土城區"
"236055","AAC-216","2018/12/18 18:19:21","新北市土城區中華路二段98號","121.43811","24.9744466666667","6501300","土城區"
"242058","986-R7","2018/12/18 18:19:09","新北市新莊區新北大道七段842號","121.413728333333","25.0236566666667","6500500","新莊區"
"242056","751-BX","2018/12/18 18:19:17","新北市新莊區瓊林路38-12號","121.44778","25.0298183333333","6500500","新莊區"
"242027","615-BX","2018/12/18 18:19:18","新北市新莊區幸福路914號","121.442656666667","25.0490016666667","6500500","新莊區"
"242025","613-BX","2018/12/18 18:19:09","新北市新莊區五權一路12巷9弄13號","121.457793333333","25.0650916666667","6500500","新莊區"
"242044","566-BX","2018/12/18 18:19:19","新北市新莊區天泉二街24巷1號","121.414683333333","25.0255066666667","6500500","新莊區"
"242002","440-UM","2018/12/18 18:19:09","新北市新莊區新泰路2號","121.449896666667","25.0323616666667","6500500","新莊區"
"242039","415-TV","2018/12/18 18:19:16","新北市新莊區新樹路206巷15號","121.432915","25.021605","6500500","新莊區"
"242046","400-BY","2018/12/18 18:19:05","新北市新莊區民安路46號","121.422681666667","25.0274416666667","6500500","新莊區"
"242061","353-BY","2018/12/18 18:19:19","新北市新莊區新樹路207-7號","121.435901666667","25.023905","6500500","新莊區"
"242011","132-UY","2018/12/18 18:19:16","新北市新莊區中港路605巷9號","121.450783333333","25.052865","6500500","新莊區"
"242007","176-VK","2018/12/18 18:19:11","新北市新莊區中平路82巷36-2號","121.446483333333","25.0449083333333","6500500","新莊區"
"242054","346-TH","2018/12/18 18:19:04","新北市新莊區民安西路412-3號","121.428828333333","25.0098466666667","6500500","新莊區"
"242032","348-TH","2018/12/18 18:19:14","新北市新莊區新泰路277巷57弄17號","121.442868333333","25.0397616666667","6500500","新莊區"
"242005","349-TH","2018/12/18 18:19:06","新北市新莊區新泰路357巷3弄1號","121.44235","25.04131","6500500","新莊區"
"242021","350-TH","2018/12/18 18:19:10","新北市新莊區中正路267號","121.44953","25.0353766666667","6500500","新莊區"
"242015","351-TH","2018/12/18 18:19:21","新北市新莊區中和街122號","121.4475","25.0478066666667","6500500","新莊區"
"238015","755-BX","2018/12/18 18:19:22","新北市樹林區文化街79巷1號","121.41682","24.9890916666667","6500700","樹林區"
"238019","599-UM","2018/12/18 18:19:11","新北市樹林區國凱街136巷29弄14號","121.424021666667","24.9796116666667","6500700","樹林區"
"238018","571-TV","2018/12/18 18:19:13","新北市樹林區保安街一段7號","121.426758333333","24.9936616666667","6500700","樹林區"
"238024","5061-A6","2018/12/18 18:19:08","新北市樹林區立仁街4號","121.422905","24.9885616666667","6500700","樹林區"
"238025","303-VK","2018/12/18 18:19:03","新北市樹林區保安二街59號","121.424431666667","24.99452","6500700","樹林區"
"238017","283-BY","2018/12/18 18:19:18","新北市樹林區保安街二段333巷2號","121.412483333333","25.0076683333333","6500700","樹林區"
"238014","282-BY","2018/12/18 18:19:09","新北市樹林區大安路111巷25號","121.423173333333","24.9975033333333","6500700","樹林區"
"238020","268-VK","2018/12/18 18:19:16","新北市樹林區三俊街65巷2號","121.413496666667","25.0163066666667","6500700","樹林區"
"238026","172-UY","2018/12/18 18:19:08","新北市樹林區佳園路一段41巷28弄14號","121.394625","24.9703833333333","6500700","樹林區"
"238016","169-UY","2018/12/18 17:56:43","新北市樹林區復興路343號","121.417695","24.9875483333333","6500700","樹林區"
"239007","AAC-297","2018/12/18 18:19:05","新北市鶯歌區重慶街96號","121.348281666667","24.95225","6500800","鶯歌區"
"239006","891-R6","2018/12/18 18:19:07","新北市鶯歌區鶯桃路365巷124號","121.330193333333","24.962315","6500800","鶯歌區"
"239008","527-UM","2018/12/18 18:19:24","新北市鶯歌區國際一路179號","121.336285","24.9765333333333","6500800","鶯歌區"
"239005","526-UM","2018/12/18 18:19:21","新北市鶯歌區鳳吉三街31巷3號","121.327535","24.9740616666667","6500800","鶯歌區"
"239001","417-VK","2018/12/18 18:19:06","新北市鶯歌區國中街201號","121.338095","24.9390583333333","6500800","鶯歌區"
"239003","360-BY","2018/12/18 18:19:11","新北市鶯歌區福安街58號","121.335575","24.9652","6500800","鶯歌區"
"239002","359-BY","2018/12/18 18:19:05","新北市鶯歌區中正一路154號","121.352275","24.9560283333333","6500800","鶯歌區"
"239004","193-VK","2018/12/18 18:19:06","新北市鶯歌區尖山路174巷35弄3號","121.344325","24.9485683333333","6500800","鶯歌區"
"221008","489-VK","2018/12/18 18:19:11","新北市汐止區汐萬路一段329號","121.649936666667","25.0756666666667","6501100","汐止區"
"221036","130-UY","2018/12/18 18:19:18","新北市汐止區長興街一段39號","121.670078333333","25.079095","6501100","汐止區"
"221015","131-UY","2018/12/18 18:19:12","新北市汐止區鄉長路二段23巷18號","121.667723333333","25.0830866666667","6501100","汐止區"
"221010","269-BY","2018/12/18 18:19:08","新北市汐止區汐萬路二段339號","121.644845","25.0905133333333","6501100","汐止區"
"221012","278-VK","2018/12/18 18:19:09","新北市汐止區保長路25號","121.672406666667","25.079705","6501100","汐止區"
"221023","279-VK","2018/12/18 18:19:15","新北市汐止區康寧街474巷18-1號","121.631335","25.0676533333333","6501100","汐止區"
"221032","280-BY","2018/12/18 18:19:06","新北市汐止區橫科路2巷11號","121.616423333333","25.0507716666667","6501100","汐止區"
"221027","281-BY","2018/12/18 18:19:03","新北市汐止區和平街35號","121.662373333333","25.0707233333333","6501100","汐止區"
"221029","298-VK","2018/12/18 18:19:14","新北市汐止區樟樹一路219號","121.642955","25.069785","6501100","汐止區"
"221021","299-VK","2018/12/18 18:19:07","新北市汐止區連興街120號","121.653728333333","25.0625333333333","6501100","汐止區"
"221031","353-TW","2018/12/18 18:19:10","新北市汐止區大同路一段160號","121.633265","25.056985","6501100","汐止區"
"221035","622-UM","2018/12/18 18:19:20","新北市汐止區大同路二段187巷4弄1號","121.65237","25.06513","6501100","汐止區"
"221025","623-UM","2018/12/18 18:19:15","新北市汐止區勤進路1號","121.660428333333","25.0621583333333","6501100","汐止區"
"221038","646-BX","2018/12/18 18:19:11","新北市汐止區忠孝東路303號","121.664223333333","25.06897","6501100","汐止區"
"221033","647-BX","2018/12/18 18:19:21","新北市汐止區宜興街79巷1號","121.623188333333","25.0434016666667","6501100","汐止區"
"221002","707-TV","2018/12/18 18:19:08","新北市汐止區福德一路213巷29號","121.63554","25.0649216666667","6501100","汐止區"
"221018","753-BX","2018/12/18 18:19:09","新北市汐止區茄苳路108號","121.667786666667","25.0704083333333","6501100","汐止區"
"224002","257-TC","2018/12/18 18:19:18","新北市瑞芳區三爪子坑路69巷34號","121.812383333333","25.1063283333333","6501200","瑞芳區"
"242042","281-VK","2018/12/18 18:19:08","新北市新莊區天祥街69號","121.415885","25.02909","6500500","新莊區"
"242009","280-VK","2018/12/18 18:19:21","新北市新莊區自立街64號","121.454066666667","25.0453833333333","6500500","新莊區"
"220073","985-R7","2018/12/18 18:19:13","新北市板橋區華東街1-10號","121.448276666667","24.994925","6500100","板橋區"
"220064","AAC-253","2018/12/18 18:19:04","新北市板橋區板城路407號","121.447493333333","24.9952416666667","6500100","板橋區"
"235068","KEA-2873","2018/12/18 18:19:05","新北市中和區員山路36巷16-3號","121.485116666667","24.9911916666667","6500300","中和區"
"235061","KEA-2875","2018/12/18 18:18:54","新北市中和區國光街215巷47號","121.467205","25.0003833333333","6500300","中和區"
