"lineid","car","time","location","longitude","latitude","cityid","cityname"
"234046","148-BY","2018/12/18 19:09:11","新北市永和區永元路52巷52號","121.524481666667","25.0005333333333","6500400","永和區"
"234007","207-UY","2018/12/18 19:09:25","新北市永和區中山路一段253-1號","121.507568333333","25.0075366666667","6500400","永和區"
"234081","298-R6","2018/12/18 19:09:20","新北市永和區國中路148號","121.522985","25.007155","6500400","永和區"
"234038","336-UY","2018/12/18 19:09:15","新北市永和區民樂街69巷1號","121.527351666667","24.9977366666667","6500400","永和區"
"234064","337-UY","2018/12/18 19:09:22","新北市永和區秀朗路二段12號","121.520675","25.00292","6500400","永和區"
"234070","552-UM","2018/12/18 19:09:23","新北市永和區豫溪街95巷7號","121.518343333333","25.0104233333333","6500400","永和區"
"234017","745-BX","2018/12/18 19:09:09","新北市永和區文化路90巷3弄2號","121.513903333333","25.0156066666667","6500400","永和區"
"234030","746-BX","2018/12/18 19:08:51","新北市永和區四維街80號","121.523351666667","24.998305","6500400","永和區"
"234054","KEA-2590","2018/12/18 19:09:20","新北市永和區中興街133巷8號","121.518745","25.0127216666667","6500400","永和區"
"234013","KEA-2591","2018/12/18 19:09:13","新北市永和區永和路二段8號","121.514458333333","25.0102316666667","6500400","永和區"
"234061","AAD-866","2018/12/18 19:09:20","新北市永和區安樂路304巷7號","121.514385","25.0051416666667","6500400","永和區"
"234086","748-BX","2018/12/18 19:09:15","新北市永和區永貞路132號","121.518333333333","25.0044833333333","6500400","永和區"
"234042","862-TW","2018/12/18 19:09:20","新北市永和區永貞路348號","121.510788333333","25.00597","6500400","永和區"
"234050","863-TW","2018/12/18 19:09:22","新北市永和區文化路135巷26弄2號","121.510568333333","25.0144466666667","6500400","永和區"
"234026","9371-KE","2018/12/18 19:09:09","新北市永和區安樂路272巷9弄7號","121.515138333333","25.0045666666667","6500400","永和區"
"234011","9373-KE","2018/12/18 19:09:02","新北市永和區信義路25巷53號","121.512311666667","25.0115833333333","6500400","永和區"
"249005","172-UM","2018/12/18 19:09:16","新北市八里區中華路三段43號","121.395963333333","25.1423083333333","6502300","八里區"
"249001","173-UM","2018/12/18 19:09:13","新北市八里區龍米路二段228-3號","121.432465","25.158455","6502300","八里區"
"249003","593-UM","2018/12/18 19:09:04","新北市八里區博物館路181號","121.406063333333","25.15707","6502300","八里區"
"248016","026-BX","2018/12/18 19:09:14","新北市五股區成泰路三段543巷23號","121.45052","25.1024683333333","6501500","五股區"
"248008","095-VK","2018/12/18 19:09:22","新北市五股區中興路一段118巷17號","121.465916666667","25.07427","6501500","五股區"
"248020","225-UY","2018/12/18 19:06:05","新北市五股區凌雲路三段57號","121.425303333333","25.1249966666667","6501500","五股區"
"248012","247-BX","2018/12/18 19:09:11","新北市五股區中興路四段48巷16號","121.438638333333","25.083435","6501500","五股區"
"248004","677-BX","2018/12/18 19:09:26","新北市五股區工商路148號","121.433808333333","25.0871","6501500","五股區"
"248002","678-BX","2018/12/18 19:09:18","新北市五股區凌雲路一段158巷6號","121.447826666667","25.1028183333333","6501500","五股區"
"248010","682-TV","2018/12/18 19:09:05","新北市五股區水碓一路23號","121.430635","25.0712433333333","6501500","五股區"
"234023","9380-KE","2018/12/18 19:09:03","新北市永和區中興街29巷11號","121.516338333333","25.0124583333333","6500400","永和區"
"234077","969-R7","2018/12/18 19:09:19","新北市永和區民族街27巷7號","121.519298333333","24.9995966666667","6500400","永和區"
"234074","AAC-211","2018/12/18 19:09:08","新北市永和區竹林路222號","121.520771666667","25.0081183333333","6500400","永和區"
"234067","AAC-212","2018/12/18 19:09:15","新北市永和區保平路23號","121.512695","25.0073566666667","6500400","永和區"
"234003","AAC-295","2018/12/18 19:09:08","新北市永和區保福路一段96號","121.51202","25.0104316666667","6500400","永和區"
"244019","402-UM","2018/12/18 19:09:11","新北市林口區四維路116號","121.377495","25.0780133333333","6501700","林口區"
"244013","KEA-2802","2018/12/18 19:09:22","新北市林口區麗園一街2巷1號","121.376083333333","25.07199","6501700","林口區"
"244023","483-VK","2018/12/18 19:09:10","新北市林口區民權路10-3號","121.371621666667","25.07985","6501700","林口區"
"244017","485-VK","2018/12/18 19:09:25","新北市林口區公園路131巷3號","121.369016666667","25.070535","6501700","林口區"
"244007","657-BX","2018/12/18 19:09:12","新北市林口區太平里28-1號","121.377025","25.117875","6501700","林口區"
"244011","701-TV","2018/12/18 19:09:16","新北市林口區中山路185-1號","121.388118333333","25.078825","6501700","林口區"
"244025","837-TS","2018/12/18 19:09:09","新北市林口區文化三路一段447巷29號","121.367775","25.0751916666667","6501700","林口區"
"243013","AAD-798","2018/12/18 19:09:02","新北市泰山區明志路三段277號","121.423181666667","25.0367516666667","6501600","泰山區"
"243009","297-R6","2018/12/18 19:09:18","新北市泰山區明志路一段117巷22號","121.43413","25.06337","6501600","泰山區"
"243016","KEA-2801","2018/12/18 19:09:14","新北市泰山區明志路二段341號","121.425516666667","25.04465","6501600","泰山區"
"243015","421-VK","2018/12/18 19:09:24","新北市泰山區明志路一段485號","121.430661666667","25.0554516666667","6501600","泰山區"
"243011","KEA-2215","2018/12/18 19:09:08","新北市泰山區明志路二段318號","121.426193333333","25.046","6501600","泰山區"
"243010","KEA-2216","2018/12/18 19:09:17","新北市泰山區明志路一段483巷1弄1號","121.431048333333","25.0554916666667","6501600","泰山區"
"243012","646-TV","2018/12/18 19:09:17","新北市泰山區辭修路36巷8弄1號","121.427851666667","25.058545","6501600","泰山區"
"243014","680-BX","2018/12/18 19:09:20","新北市泰山區泰林路二段480-1號","121.424996666667","25.0641016666667","6501600","泰山區"
"222003","436-BY","2018/12/18 19:09:19","新北市深坑區深南路170號","121.625868333333","25.0151266666667","6501800","深坑區"
"222002","659-BX","2018/12/18 19:09:09","新北市深坑區北深路一段240號","121.630005","25.008755","6501800","深坑區"
"231041","001-UM","2018/12/18 19:09:25","新北市新店區溪園路411號","121.524288333333","24.9784683333333","6500600","新店區"
"231059","046-UY","2018/12/18 19:09:13","新北市新店區安康路一段351-1號","121.519471666667","24.9640566666667","6500600","新店區"
"231040","047-UY","2018/12/18 19:09:15","新北市新店區三民路155-1號","121.533881666667","24.97333","6500600","新店區"
"231044","106-UY","2018/12/18 19:09:13","新北市新店區中興路三段160號","121.544361666667","24.98081","6500600","新店區"
"231046","107-UY","2018/12/18 19:09:07","新北市新店區永業路96-1號","121.530016666667","24.95139","6500600","新店區"
"231053","108-UY","2018/12/18 19:09:13","新北市新店區自強路106巷5號","121.545613333333","24.9230016666667","6500600","新店區"
"231048","187-VK","2018/12/18 19:09:15","新北市新店區德正街27巷25號","121.545535","24.9716116666667","6500600","新店區"
"231065","188-VK","2018/12/18 19:09:19","新北市新店區安祥路142號","121.474288333333","24.9556","6500600","新店區"
"231054","KEA-2219","2018/12/18 19:09:09","新北市新店區新店路94號","121.537191666667","24.9542316666667","6500600","新店區"
"231042","268-BY","2018/12/18 19:09:06","新北市新店區中興路一段203號","121.543663333333","24.9656283333333","6500600","新店區"
"231051","278-BY","2018/12/18 19:09:14","新北市新店區中正路398號","121.534756666667","24.9775","6500600","新店區"
"231050","AAD-862","2018/12/18 19:09:14","新北市新店區竹林路30巷21號","121.551983333333","24.950165","6500600","新店區"
"231060","355-BY","2018/12/18 19:08:51","新北市新店區安豐路54-1號","121.499758333333","24.9541916666667","6500600","新店區"
"231058","3713-VJ","2018/12/18 19:09:02","新北市新店區光明街94號","121.538885","24.9603633333333","6500600","新店區"
"231066","4716-K9","2018/12/18 19:09:23","新北市新店區安康路二段337-1號","121.49855","24.9561083333333","6500600","新店區"
"231056","4715-K9","2018/12/18 19:09:04","新北市新店區中央路2號","121.53395","24.979275","6500600","新店區"
"231067","4772-VM","2018/12/18 19:09:24","新北市新店區安康路一段283號","121.523648333333","24.963245","6500600","新店區"
"231049","513-UM","2018/12/18 19:09:23","新北市新店區二十張路25巷12號","121.539018333333","24.9820733333333","6500600","新店區"
"231061","619-UM","2018/12/18 19:09:08","新北市新店區安康路一段355-4號","121.517426666667","24.9638966666667","6500600","新店區"
"231063","641-BX","2018/12/18 19:09:25","新北市新店區車子路110號","121.505261666667","24.9520866666667","6500600","新店區"
"231064","719-UM","2018/12/18 19:09:18","新北市新店區安忠路56巷6號","121.512923333333","24.9594233333333","6500600","新店區"
"231062","720-UM","2018/12/18 19:09:13","新北市新店區安和路二段70-1號","121.519118333333","24.968605","6500600","新店區"
"231045","898-TW","2018/12/18 19:09:16","新北市新店區北宜路一段154號","121.540358333333","24.953655","6500600","新店區"
"231043","899-TW","2018/12/18 19:09:17","新北市新店區寶橋路77號","121.545788333333","24.9752883333333","6500600","新店區"
"231055","AKT-0513","2018/12/18 19:09:03","新北市新店區安康路二段320巷15弄2號","121.50372","24.9595483333333","6500600","新店區"
"241022","060-VK","2018/12/18 19:09:20","新北市三重區三民街153-1號","121.48418","25.0645033333333","6500200","三重區"
"241035","KEA-2210","2018/12/18 19:09:08","新北市三重區三寧街50號","121.490281666667","25.060465","6500200","三重區"
"241026","743-BX","2018/12/18 19:09:04","新北市三重區重安街137號","121.495333333333","25.054695","6500200","三重區"
"241029","942-UM","2018/12/18 19:09:07","新北市三重區集美街263號","121.49251","25.0557566666667","6500200","三重區"
"235064","005-UY","2018/12/18 19:09:03","新北市中和區連城路41號","121.498333333333","25.0019183333333","6500300","中和區"
"235063","006-UY","2018/12/18 19:09:14","新北市中和區連城路365號","121.487523333333","24.9961733333333","6500300","中和區"
"235056","096-UM","2018/12/18 19:09:21","新北市中和區員山路528號","121.478821666667","25.00972","6500300","中和區"
"235039","097-UM","2018/12/18 19:09:03","新北市中和區自立路60號","121.52368","24.99156","6500300","中和區"
"235040","150-BY","2018/12/18 19:08:56","新北市永和區中正路42巷14號","121.513501666667","24.994075","6500300","中和區"
"235058","151-BY","2018/12/18 19:09:14","新北市中和區員山路123號","121.480981666667","24.9954916666667","6500300","中和區"
"235055","183-VK","2018/12/18 19:09:13","新北市中和區德光路39號","121.470485","25.00417","6500300","中和區"
"235038","185-VK","2018/12/18 19:09:19","新北市中和區大仁街10巷27弄3號","121.519175","24.9927133333333","6500300","中和區"
"235049","186-VK","2018/12/18 19:09:15","新北市中和區明禮街39號","121.504038333333","24.9963233333333","6500300","中和區"
"235067","255-BX","2018/12/18 19:09:14","新北市中和區新生街177巷5號","121.484075","25.0007616666667","6500300","中和區"
"235044","293-VK","2018/12/18 19:09:09","新北市中和區中興街222-5號","121.500628333333","24.9896166666667","6500300","中和區"
"235072","301-VK","2018/12/18 19:09:24","新北市中和區連城路136號","121.495751666667","24.9989933333333","6500300","中和區"
"235042","KEA-2878","2018/12/18 19:09:14","新北市中和區自立路16巷6號","121.521466666667","24.9936833333333","6500300","中和區"
"235050","4979-A6","2018/12/18 19:09:10","新北市中和區復興路249巷11弄3號","121.503513333333","24.9896916666667","6500300","中和區"
"235069","4980-A6","2018/12/18 19:09:18","新北市中和區中和路217巷20號","121.504765","25.0004333333333","6500300","中和區"
"235070","558-UM","2018/12/18 19:09:11","新北市中和區枋寮街2號","121.502408333333","24.9998633333333","6500300","中和區"
"235045","565-BX","2018/12/18 19:09:15","新北市中和區景新街437巷2弄1號","121.513571666667","24.9890966666667","6500300","中和區"
"235054","640-BX","2018/12/18 19:08:52","新北市中和區民德路142號","121.46867","25.0004733333333","6500300","中和區"
"235060","647-TV","2018/12/18 19:09:18","新北市中和區民享街1號","121.473845","25.00586","6500300","中和區"
"235047","732-UM","2018/12/18 19:09:16","新北市中和區興南路一段113號","121.509181666667","24.98794","6500300","中和區"
"235046","733-UM","2018/12/18 19:09:20","新北市中和區忠孝街1巷42號","121.50854","24.98412","6500300","中和區"
"235071","783-BX","2018/12/18 19:09:17","新北市中和區員山路72號","121.480916666667","24.9936233333333","6500300","中和區"
"235057","801-TS","2018/12/18 19:09:21","新北市中和區民利街80號","121.478148333333","24.998185","6500300","中和區"
"235041","802-TS","2018/12/18 19:09:19","新北市永和區中和路327號","121.507306666667","24.9996516666667","6500300","中和區"
"235052","805-TS","2018/12/18 19:09:16","新北市中和區興南路二段142巷19弄13號","121.502748333333","24.9834916666667","6500300","中和區"
"235048","896-TW","2018/12/18 19:09:06","新北市中和區忠孝街5巷5號","121.50938","24.98298","6500300","中和區"
"235053","900-TW","2018/12/18 19:09:18","新北市中和區華福街83號","121.467555","24.9965","6500300","中和區"
"235065","911-UM","2018/12/18 19:09:23","新北市中和區莊敬路39號","121.500848333333","25.0049883333333","6500300","中和區"
"235051","157-BY","2018/12/18 19:09:22","新北市中和區興南路一段73巷2號","121.510208333333","24.98898","6500300","中和區"
"235037","AAC-213","2018/12/18 19:09:06","新北市中和區秀朗路三段58號","121.526096666667","24.995145","6500300","中和區"
"235059","AAC-215","2018/12/18 19:09:21","新北市中和區圓通路294巷11弄11號","121.488053333333","24.9897783333333","6500300","中和區"
"220055","015-TV","2018/12/18 19:09:08","新北市板橋區中山路一段158巷6號","121.466085","25.0116333333333","6500100","板橋區"
"220065","072-UY","2018/12/18 19:09:23","新北市板橋區民族路151巷57號","121.469241666667","25.0083183333333","6500100","板橋區"
"220086","073-UY","2018/12/18 19:09:06","新北市板橋區國光路173巷14號","121.460398333333","25.0190866666667","6500100","板橋區"
"220106","075-UY","2018/12/18 19:09:15","新北市板橋區雙十路三段43號","121.470561666667","25.0318533333333","6500100","板橋區"
"226004","205-ST","2018/12/18 19:09:10","新北市平溪區嶺腳里嶺腳寮1號","121.746528333333","25.0289216666667","6502400","平溪區"
"228001","212-TW","2018/12/18 19:09:05","新北市貢寮區真理里新港街10號","121.925518333333","25.05437","6502600","貢寮區"
"228002","585-TW","2018/12/18 19:09:16","新北市貢寮區福隆里福隆街32-1號","121.945058333333","25.0173516666667","6502600","貢寮區"
"228003","828-UM","2018/12/18 19:09:20","新北市貢寮區和美里和美街36-1號","121.912186666667","25.0856","6502600","貢寮區"
"224006","676-BX","2018/12/18 19:09:21","新北市瑞芳區中山路201號","121.801461666667","25.106705","6501200","瑞芳區"
"224008","285-BY","2018/12/18 19:09:11","新北市瑞芳區一坑路70-10號","121.80346","25.1082216666667","6501200","瑞芳區"
"224007","275-VK","2018/12/18 19:09:14","新北市瑞芳區瑞竹路46號","121.763518333333","25.103355","6501200","瑞芳區"
"224009","273-VK","2018/12/18 19:09:21","新北市瑞芳區洞頂路101巷47號","121.860573333333","25.1203933333333","6501200","瑞芳區"
"227003","642-TC","2018/12/18 19:09:21","新北市雙溪區平林里外平林9-5號","121.859143333333","25.0380316666667","6502500","雙溪區"
"227009","400-TW","2018/12/18 19:09:22","新北市雙溪區牡丹里中正路50號","121.865125","25.0391666666667","6502500","雙溪區"
"253006","032-BX","2018/12/18 19:09:21","新北市石門區崁子腳1-1號","121.532081666667","25.2876916666667","6502200","石門區"
"253005","295-VK","2018/12/18 19:09:21","新北市石門區阿里荖41-1號","121.60562","25.2805466666667","6502200","石門區"
"222001","KEA-2212","2018/12/18 19:09:16","新北市深坑區北深路一段300號","121.624281666667","25.00579","6501800","深坑區"
"208002","KEA-2872","2018/12/18 19:09:15","新北市金山區中正路67號","121.633905","25.2217383333333","6502700","金山區"
"208003","665-BX","2018/12/18 19:09:07","新北市金山區中正路57號","121.63427","25.2219583333333","6502700","金山區"
"208001","761-BX","2018/12/18 19:09:17","新北市金山區金包里街49號","121.639013333333","25.22133","6502700","金山區"
"251013","KEA-2871","2018/12/18 19:09:18","新北市淡水區安子內12-1號","121.48153","25.2191033333333","6501000","淡水區"
"251016","179-VK","2018/12/18 19:09:09","新北市淡水區淡金路三段188號","121.448908333333","25.203335","6501000","淡水區"
"251014","180-VK","2018/12/18 19:09:16","新北市淡水區小中寮19-7號","121.48475","25.2296","6501000","淡水區"
"251008","181-VK","2018/12/18 19:09:20","新北市淡水區中正路二段31號","121.41944","25.18196","6501000","淡水區"
"251015","182-VK","2018/12/18 19:09:16","新北市淡水區南勢埔6-2號","121.482503333333","25.1809266666667","6501000","淡水區"
"251010","413-VK","2018/12/18 19:09:09","新北市淡水區中正路一段156巷3號","121.421166666667","25.1802916666667","6501000","淡水區"
"251007","442-VK","2018/12/18 19:09:16","新北市淡水區民生路145巷36號","121.466846666667","25.1388766666667","6501000","淡水區"
"251005","443-VK","2018/12/18 19:09:07","新北市淡水區原德路11號","121.442143333333","25.1712366666667","6501000","淡水區"
"251001","559-UM","2018/12/18 19:09:12","新北市淡水區自強路201巷39號","121.462131666667","25.1267916666667","6501000","淡水區"
"251009","575-R6","2018/12/18 19:09:09","新北市淡水區清水街194號","121.440491666667","25.171005","6501000","淡水區"
"251002","672-BX","2018/12/18 19:09:14","新北市淡水區中山路93-2號","121.442233333333","25.1704566666667","6501000","淡水區"
"251003","673-BX","2018/12/18 19:09:09","新北市淡水區中山北路一段96號","121.442481666667","25.1764366666667","6501000","淡水區"
"207003","550-UM","2018/12/18 19:09:12","新北市萬里區大鵬里萬里加投79-3號","121.647323333333","25.2123383333333","6502800","萬里區"
"207004","225-TW","2018/12/18 19:09:15","新北市萬里區萬里里瑪鋉下街52號","121.691646666667","25.1795633333333","6502800","萬里區"
"252002","178-VK","2018/12/18 19:09:07","新北市三芝區埔坪里埔頭坑78號","121.509283333333","25.2544166666667","6502100","三芝區"
"252003","249-BX","2018/12/18 19:09:07","新北市三芝區錫板里南勢崗8號","121.479276666667","25.2616983333333","6502100","三芝區"
"252001","292-VK","2018/12/18 19:09:07","新北市三芝區長勤街82號","121.500248333333","25.2550583333333","6502100","三芝區"
"237004","KEA-2597","2018/12/18 19:09:20","新北市三峽區有木206號","121.439095","24.8514866666667","6500900","三峽區"
"237007","153-BY","2018/12/18 19:09:07","新北市三峽區中正路二段42巷12-1號","121.364108333333","24.9206966666667","6500900","三峽區"
"237013","252-BX","2018/12/18 19:09:13","新北市三峽區大同路52號","121.37684","24.9290566666667","6500900","三峽區"
"237012","275-BY","2018/12/18 19:09:23","新北市三峽區三樹路222巷236弄23號","121.391388333333","24.9430583333333","6500900","三峽區"
"237008","302-VK","2018/12/18 19:09:05","新北市三峽區大同路100號","121.37472","24.9271833333333","6500900","三峽區"
"237014","433-BY","2018/12/18 19:09:21","新北市三峽區復興路311-2號","121.36525","24.9388066666667","6500900","三峽區"
"237006","5529-G3","2018/12/18 19:09:07","新北市三峽區橫溪路95號","121.398431666667","24.9354133333333","6500900","三峽區"
"237011","KEA-2596","2018/12/18 19:09:08","新北市三峽區介壽路三段107號","121.395481666667","24.93927","6500900","三峽區"
"237016","649-BX","2018/12/18 19:09:07","新北市三峽區安坑48-1號","121.458565","24.9322516666667","6500900","三峽區"
"237010","706-TV","2018/12/18 19:09:07","新北市三峽區復興路138號","121.37187","24.9380816666667","6500900","三峽區"
"237005","AKY-6261","2018/12/18 19:09:19","新北市三峽區中山路459巷163-3號","121.348645","24.9329033333333","6500900","三峽區"
"236070","105-UM","2018/12/18 19:09:05","新北市土城區裕生路84巷2號","121.447305","24.9853966666667","6501300","土城區"
"236042","KED-0685","2018/12/18 19:09:07","新北市土城區學府路一段239號","121.450396666667","24.9833133333333","6501300","土城區"
"236079","166-UM","2018/12/18 19:09:03","新北市土城區龍泉路32號","121.411358333333","24.9471916666667","6501300","土城區"
"236026","269-VK","2018/12/18 19:09:24","新北市土城區中正路13號","121.442936666667","24.9754083333333","6501300","土城區"
"236014","270-VK","2018/12/18 19:09:05","新北市土城區學府路一段73號","121.456966666667","24.988155","6501300","土城區"
"236038","271-VK","2018/12/18 19:09:07","新北市土城區清水路98巷3弄1號","121.457546666667","24.9813316666667","6501300","土城區"
"236021","401-BY","2018/12/18 19:09:14","新北市土城區延峰街28號","121.46921","24.9854066666667","6501300","土城區"
"236059","912-UM","2018/12/18 19:09:10","新北市土城區金城路一段141號","121.445283333333","24.97425","6501300","土城區"
"236049","913-UM","2018/12/18 19:09:21","新北市土城區明德路一段365-1號","121.453646666667","24.979075","6501300","土城區"
"236063","915-UM","2018/12/18 19:09:08","新北市土城區延和路108巷4弄1號","121.46739","24.989205","6501300","土城區"
"236055","AAC-216","2018/12/18 19:09:21","新北市土城區學府路一段276號","121.450233333333","24.9832866666667","6501300","土城區"
"238019","599-UM","2018/12/18 19:09:11","新北市樹林區東榮街91巷4弄2號","121.416243333333","24.9819583333333","6500700","樹林區"
"238024","5061-A6","2018/12/18 19:09:07","新北市樹林區中山路二段249巷12號","121.402438333333","24.975785","6500700","樹林區"
"238022","KEA-2213","2018/12/18 19:09:25","新北市樹林區中山路二段151巷8弄24號","121.405785","24.9775233333333","6500700","樹林區"
"238021","KEA-2539","2018/12/18 19:09:07","新北市樹林區柑園街二段394號","121.366903333333","24.9485233333333","6500700","樹林區"
"238025","303-VK","2018/12/18 19:09:22","新北市樹林區中山路三段174號","121.388715","24.9698816666667","6500700","樹林區"
"238017","283-BY","2018/12/18 19:09:18","新北市樹林區光興街44號","121.409893333333","25.0026883333333","6500700","樹林區"
"238014","282-BY","2018/12/18 19:09:08","新北市樹林區千歲街90號","121.426581666667","24.9977833333333","6500700","樹林區"
"238020","268-VK","2018/12/18 19:09:16","新北市樹林區俊英街133巷34號","121.422915","25.0109816666667","6500700","樹林區"
"238026","172-UY","2018/12/18 19:09:08","新北市樹林區佳園路一段41巷18號","121.39404","24.9710633333333","6500700","樹林區"
"238016","169-UY","2018/12/18 19:08:43","新北市樹林區復興路335巷6弄2號","121.418375","24.9874566666667","6500700","樹林區"
"239007","AAC-297","2018/12/18 19:09:05","新北市鶯歌區中山路138巷44號","121.352351666667","24.9608333333333","6500800","鶯歌區"
"239006","891-R6","2018/12/18 19:09:08","新北市鶯歌區建國路512巷3號","121.340443333333","24.9510533333333","6500800","鶯歌區"
"239008","527-UM","2018/12/18 19:09:23","新北市鶯歌區國際二路6巷18號","121.339076666667","24.9738833333333","6500800","鶯歌區"
"239005","526-UM","2018/12/18 19:09:21","新北市鶯歌區中湖街276號","121.348426666667","24.976985","6500800","鶯歌區"
"239001","417-VK","2018/12/18 19:09:06","新北市鶯歌區永智街43巷23號","121.337168333333","24.9538566666667","6500800","鶯歌區"
"239003","360-BY","2018/12/18 19:09:10","新北市鶯歌區文化路124號","121.35178","24.9519616666667","6500800","鶯歌區"
"239002","359-BY","2018/12/18 19:09:05","新北市鶯歌區大湖路408號","121.342616666667","24.973055","6500800","鶯歌區"
"239004","193-VK","2018/12/18 19:09:26","新北市鶯歌區中正三路351號","121.327755","24.9349666666667","6500800","鶯歌區"
"221008","489-VK","2018/12/18 19:09:11","新北市汐止區康寧街432號","121.63084","25.068165","6501100","汐止區"
"221036","130-UY","2018/12/18 19:09:18","新北市汐止區康寧街901號","121.651113333333","25.07513","6501100","汐止區"
"221015","131-UY","2018/12/18 19:09:12","新北市汐止區康寧街901號","121.651553333333","25.0749633333333","6501100","汐止區"
"221010","269-BY","2018/12/18 19:09:08","新北市汐止區康寧街901號","121.65154","25.0750816666667","6501100","汐止區"
"221012","278-VK","2018/12/18 19:09:09","新北市汐止區康寧街901號","121.650785","25.0752683333333","6501100","汐止區"
"221023","279-VK","2018/12/18 19:09:15","新北市汐止區康寧街901號","121.651693333333","25.0749316666667","6501100","汐止區"
"221027","281-BY","2018/12/18 19:09:23","新北市汐止區康寧街901號","121.651426666667","25.0750366666667","6501100","汐止區"
"221029","298-VK","2018/12/18 19:09:14","新北市汐止區汐萬路一段312號","121.650445","25.0754483333333","6501100","汐止區"
"221021","299-VK","2018/12/18 19:09:07","新北市汐止區康寧街901號","121.65149","25.0750183333333","6501100","汐止區"
"221031","353-TW","2018/12/18 19:09:10","新北市汐止區汐萬路一段333巷23號","121.648696666667","25.0760816666667","6501100","汐止區"
"221025","623-UM","2018/12/18 19:05:33","新北市汐止區康寧街901號","121.65111","25.0751616666667","6501100","汐止區"
"221038","646-BX","2018/12/18 19:09:11","新北市汐止區康寧街901號","121.650735","25.075355","6501100","汐止區"
"221033","647-BX","2018/12/18 19:09:21","新北市汐止區南勢街3號","121.627078333333","25.0374383333333","6501100","汐止區"
"221002","707-TV","2018/12/18 19:09:08","新北市汐止區大同路一段296號","121.63542","25.0579666666667","6501100","汐止區"
"220079","145-BY","2018/12/18 19:09:17","新北市板橋區民權路202巷7弄26號","121.45904","25.0150083333333","6500100","板橋區"
"220080","200-UY","2018/12/18 19:09:12","新北市板橋區大觀路二段7巷41號","121.448278333333","25.0033583333333","6500100","板橋區"
"220082","610-BX","2018/12/18 19:09:20","新北市板橋區溪崑二街89號","121.427275","24.9894633333333","6500100","板橋區"
"220101","245-BX","2018/12/18 19:09:23","新北市板橋區雙十路二段33巷1-1號","121.476866666667","25.0255833333333","6500100","板橋區"
"220056","276-BY","2018/12/18 19:09:18","新北市板橋區信義路74巷3弄1號","121.45705","24.9930566666667","6500100","板橋區"
"220072","277-BY","2018/12/18 19:09:16","新北市板橋區溪城路105號","121.427385","24.98268","6500100","板橋區"
"220071","283-VK","2018/12/18 19:09:11","新北市板橋區忠孝路154巷42號","121.46414","25.0014883333333","6500100","板橋區"
"220094","285-UM","2018/12/18 19:09:10","新北市板橋區吳鳳路82號","121.466973333333","25.0313383333333","6500100","板橋區"
"220053","285-VK","2018/12/18 19:09:18","新北市板橋區懷仁街25巷18號","121.476943333333","25.0200483333333","6500100","板橋區"
"220083","286-VK","2018/12/18 19:09:07","新北市板橋區龍興街99巷17號","121.443263333333","25.0029683333333","6500100","板橋區"
"220081","287-VK","2018/12/18 19:09:04","新北市板橋區南雅西路二段156巷2號","121.45179","25.0133666666667","6500100","板橋區"
"220090","288-VK","2018/12/18 19:09:17","新北市板橋區長江路一段106巷13弄29號","121.461156666667","25.029685","6500100","板橋區"
"220061","293-UM","2018/12/18 19:09:14","新北市板橋區三民路二段21巷38號","121.48055","25.018215","6500100","板橋區"
"220084","296-UM","2018/12/18 19:09:13","新北市板橋區溪崑一街45號","121.430211666667","24.9909966666667","6500100","板橋區"
"220075","303-R5","2018/12/18 19:09:19","新北市板橋區南雅南路一段60-1號","121.455355","25.00535","6500100","板橋區"
"220062","305-R5","2018/12/18 19:09:17","新北市板橋區三民路二段245巷71號","121.481106666667","25.0128366666667","6500100","板橋區"
"220092","307-R5","2018/12/18 19:09:19","新北市板橋區松江街51號","121.468618333333","25.0274966666667","6500100","板橋區"
"220098","317-R6","2018/12/18 19:09:08","新北市板橋區民有街31號","121.465976666667","25.025405","6500100","板橋區"
"220089","487-VK","2018/12/18 19:09:23","新北市板橋區漢生西路23號","121.463361666667","25.0182783333333","6500100","板橋區"
"220088","491-VK","2018/12/18 19:09:12","新北市板橋區文化路二段294號","121.471868333333","25.0293566666667","6500100","板橋區"
"220035","560-BX","2018/12/18 19:09:18","新北市板橋區中正路322-1號","121.454785","25.021385","6500100","板橋區"
"220103","561-BX","2018/12/18 19:09:10","新北市板橋區文化路一段216號","121.466458333333","25.020455","6500100","板橋區"
"220069","568-UM","2018/12/18 19:09:23","新北市板橋區貴興路35號","121.457563333333","25.0039116666667","6500100","板橋區"
"220063","609-BX","2018/12/18 19:09:17","新北市板橋區三民路二段202-5號","121.479053333333","25.0145033333333","6500100","板橋區"
"220091","637-BX","2018/12/18 19:09:23","新北市板橋區縣民大道三段203號","121.479971666667","25.0249616666667","6500100","板橋區"
"220057","686-BX","2018/12/18 19:09:14","新北市板橋區重慶路163號","121.462666666667","25.0027883333333","6500100","板橋區"
"220077","687-BX","2018/12/18 19:09:05","新北市板橋區大觀路二段265巷2號","121.44284","24.9988083333333","6500100","板橋區"
"220093","689-BX","2018/12/18 19:09:15","新北市板橋區漢生西路130號","121.4627","25.0200466666667","6500100","板橋區"
"220054","741-BX","2018/12/18 19:09:21","新北市板橋區重慶路60-1號","121.461695","25.0068783333333","6500100","板橋區"
"220102","KEA-2699","2018/12/18 19:09:14","新北市板橋區萬板路558號","121.48084","25.02695","6500100","板橋區"
"220067","829-TW","2018/12/18 19:09:25","新北市板橋區長安街138巷1弄67號","121.474511666667","25.0107316666667","6500100","板橋區"
"220068","830-TW","2018/12/18 19:09:18","新北市板橋區中山路二段443巷52弄2號","121.481066666667","25.0214983333333","6500100","板橋區"
"220074","895-R6","2018/12/18 19:09:08","新北市板橋區中正路自強新村44號","121.454893333333","25.0138083333333","6500100","板橋區"
"220073","985-R7","2018/12/18 19:09:22","新北市板橋區中正路307號","121.4552","25.0197366666667","6500100","板橋區"
"220097","AAC-210","2018/12/18 19:09:23","新北市板橋區幸福路60巷17號","121.460616666667","25.0206833333333","6500100","板橋區"
"220064","AAC-253","2018/12/18 19:09:24","新北市板橋區板新路236號","121.468276666667","25.0161066666667","6500100","板橋區"
"235068","KEA-2873","2018/12/18 19:09:05","新北市中和區圓通路162巷4號","121.49697","24.99526","6500300","中和區"
"235061","KEA-2875","2018/12/18 19:09:24","新北市中和區民有街73號","121.476525","25.003165","6500300","中和區"
