"lineid","car","time","location","longitude","latitude","cityid","cityname"
"234046","148-BY","2018/12/18 19:19:11","新北市永和區得和路291號","121.522586666667","24.9997083333333","6500400","永和區"
"234007","207-UY","2018/12/18 19:19:05","新北市永和區中山路一段144號","121.509928333333","25.0096233333333","6500400","永和區"
"234081","298-R6","2018/12/18 19:19:05","新北市永和區福和路50號","121.523535","25.0081233333333","6500400","永和區"
"234038","336-UY","2018/12/18 19:19:15","新北市永和區民樂街70號","121.5274","24.9984366666667","6500400","永和區"
"234064","337-UY","2018/12/18 19:19:23","新北市永和區永元路17巷1弄1號","121.521685","25.0004533333333","6500400","永和區"
"234070","552-UM","2018/12/18 19:19:03","新北市永和區豫溪街74巷1號","121.517235","25.009895","6500400","永和區"
"234017","745-BX","2018/12/18 19:19:16","新北市永和區文化路144巷31弄8號","121.512395","25.016835","6500400","永和區"
"234030","746-BX","2018/12/18 19:19:16","新北市永和區厚德街84號","121.523718333333","24.99892","6500400","永和區"
"234054","KEA-2590","2018/12/18 19:19:14","新北市永和區中興街45號","121.516428333333","25.0117283333333","6500400","永和區"
"234013","KEA-2591","2018/12/18 19:19:13","新北市永和區仁愛路106號","121.51201","25.0131866666667","6500400","永和區"
"234061","AAD-866","2018/12/18 19:19:20","新北市永和區中正路381號","121.517135","25.0037083333333","6500400","永和區"
"234086","748-BX","2018/12/18 19:19:15","新北市永和區永亨路4號","121.519338333333","25.005205","6500400","永和區"
"234042","862-TW","2018/12/18 19:19:20","新北市永和區保平路151巷2弄3號","121.509936666667","25.0054533333333","6500400","永和區"
"234050","863-TW","2018/12/18 19:19:22","新北市永和區仁愛路104巷10號","121.512135","25.0136933333333","6500400","永和區"
"234026","9371-KE","2018/12/18 19:19:24","新北市永和區安樂路144巷20號","121.515083333333","24.999725","6500400","永和區"
"234011","9373-KE","2018/12/18 19:19:22","新北市永和區保福路二段15巷29號","121.510138333333","25.0110716666667","6500400","永和區"
"249001","173-UM","2018/12/18 19:19:13","新北市八里區中華路二段61-6號","121.409165","25.1527466666667","6502300","八里區"
"249003","593-UM","2018/12/18 19:19:24","新北市八里區中山路二段466巷3號","121.398821666667","25.1474016666667","6502300","八里區"
"248016","026-BX","2018/12/18 19:19:13","新北市五股區成洲五路12號","121.452353333333","25.1015533333333","6501500","五股區"
"248008","095-VK","2018/12/18 19:19:22","新北市五股區中興路二段83巷26-6號","121.460091666667","25.0752316666667","6501500","五股區"
"248020","225-UY","2018/12/18 19:06:05","新北市五股區凌雲路三段57號","121.425303333333","25.1249966666667","6501500","五股區"
"248012","247-BX","2018/12/18 19:19:11","新北市五股區中興路四段48巷16號","121.438623333333","25.083425","6501500","五股區"
"248004","677-BX","2018/12/18 19:19:06","新北市五股區五福路109號","121.432085","25.0908533333333","6501500","五股區"
"248002","678-BX","2018/12/18 19:19:18","新北市五股區凌雲路一段158巷6號","121.447856666667","25.1031366666667","6501500","五股區"
"248010","682-TV","2018/12/18 19:19:05","新北市五股區水碓一路23號","121.430605","25.0712566666667","6501500","五股區"
"234023","9380-KE","2018/12/18 19:19:22","新北市永和區竹林路124巷16號","121.51901","25.0112583333333","6500400","永和區"
"234077","969-R7","2018/12/18 19:19:19","新北市永和區民治街52號","121.518645","24.9978516666667","6500400","永和區"
"234074","AAC-211","2018/12/18 19:19:08","新北市永和區竹林路83號","121.519581666667","25.01235","6500400","永和區"
"234067","AAC-212","2018/12/18 19:19:15","新北市永和區保平路44號","121.511341666667","25.007135","6500400","永和區"
"234003","AAC-295","2018/12/18 19:19:08","新北市永和區永平路179號","121.510388333333","25.00919","6500400","永和區"
"244023","483-VK","2018/12/18 19:19:10","新北市林口區文林六街27巷23號","121.370218333333","25.0813983333333","6501700","林口區"
"244017","485-VK","2018/12/18 19:19:05","新北市林口區忠孝路377號","121.369398333333","25.0714883333333","6501700","林口區"
"244011","701-TV","2018/12/18 19:19:16","新北市林口區中山路97巷9號","121.389563333333","25.0783","6501700","林口區"
"244025","837-TS","2018/12/18 19:19:09","新北市林口區文化三路一段555巷27號","121.369226666667","25.0761666666667","6501700","林口區"
"243013","AAD-798","2018/12/18 19:19:22","新北市泰山區明志路三段145巷5弄1號","121.425363333333","25.039965","6501600","泰山區"
"243009","297-R6","2018/12/18 19:19:17","新北市泰山區和平街9-2號","121.43412","25.0646133333333","6501600","泰山區"
"243016","KEA-2801","2018/12/18 19:19:11","新北市泰山區明志路三段133號","121.425013333333","25.040435","6501600","泰山區"
"243015","421-VK","2018/12/18 19:19:04","新北市泰山區公園路6號","121.429916666667","25.05405","6501600","泰山區"
"243011","KEA-2215","2018/12/18 19:19:14","新北市泰山區中央路11巷1號","121.426236666667","25.04284","6501600","泰山區"
"243010","KEA-2216","2018/12/18 19:19:17","新北市泰山區明志路二段23號","121.42984","25.0533733333333","6501600","泰山區"
"243012","646-TV","2018/12/18 19:19:17","新北市泰山區仁愛路100巷22號","121.433326666667","25.0546583333333","6501600","泰山區"
"243014","680-BX","2018/12/18 19:19:21","新北市泰山區明志路一段193號","121.43288","25.0617833333333","6501600","泰山區"
"222003","436-BY","2018/12/18 19:19:19","新北市深坑區深南路204號","121.626631666667","25.016025","6501800","深坑區"
"222002","659-BX","2018/12/18 19:19:09","新北市深坑區北深路一段177號","121.632545","25.0108533333333","6501800","深坑區"
"231041","001-UM","2018/12/18 19:19:07","新北市新店區溪園路247號","121.525781666667","24.98366","6500600","新店區"
"231059","046-UY","2018/12/18 19:19:16","新北市新店區安和路二段155號","121.519","24.97426","6500600","新店區"
"231040","047-UY","2018/12/18 19:19:12","新北市新店區三民路24號","121.537036666667","24.9710083333333","6500600","新店區"
"231044","106-UY","2018/12/18 19:19:13","新北市新店區寶元路一段65號","121.54224","24.9858216666667","6500600","新店區"
"231046","107-UY","2018/12/18 19:19:07","新北市新店區華城路5-3號","121.529281666667","24.957895","6500600","新店區"
"231053","108-UY","2018/12/18 19:19:13","新北市新店區新烏路二段200巷11號","121.547673333333","24.9165583333333","6500600","新店區"
"231048","187-VK","2018/12/18 19:19:15","新北市新店區德正街29號","121.544611666667","24.9712733333333","6500600","新店區"
"231065","188-VK","2018/12/18 19:19:13","新北市新店區安祥路142號","121.474016666667","24.95581","6500600","新店區"
"231054","KEA-2219","2018/12/18 19:19:09","新北市新店區北宜路一段22號","121.537855","24.9571283333333","6500600","新店區"
"231042","268-BY","2018/12/18 19:19:23","新北市新店區中興路一段115號","121.541468333333","24.962805","6500600","新店區"
"231051","278-BY","2018/12/18 19:19:23","新北市新店區中央路133巷4號","121.530568333333","24.9736416666667","6500600","新店區"
"231050","AAD-862","2018/12/18 19:19:14","新北市新店區竹林路30巷1號","121.552316666667","24.951315","6500600","新店區"
"231060","355-BY","2018/12/18 19:19:12","新北市新店區安康路二段113號","121.512541666667","24.9617783333333","6500600","新店區"
"231058","3713-VJ","2018/12/18 19:19:02","新北市新店區光明街224巷20弄3號","121.540701666667","24.9624133333333","6500600","新店區"
"231066","4716-K9","2018/12/18 19:19:23","新北市新店區安康路二段458號","121.49396","24.9541433333333","6500600","新店區"
"231056","4715-K9","2018/12/18 19:19:25","新北市新店區薏仁坑路6-1號","121.499863333333","24.9584633333333","6500600","新店區"
"231067","4772-VM","2018/12/18 19:19:24","新北市新店區安康路一段207巷6弄6號","121.525725","24.9626866666667","6500600","新店區"
"231049","513-UM","2018/12/18 19:19:09","新北市新店區明德路64號","121.541575","24.979415","6500600","新店區"
"231061","619-UM","2018/12/18 19:19:08","新北市新店區安康路一段94-2號","121.527801666667","24.9621516666667","6500600","新店區"
"231063","641-BX","2018/12/18 19:19:05","新北市新店區達觀路10號","121.503388333333","24.943845","6500600","新店區"
"231064","719-UM","2018/12/18 19:19:21","新北市新店區安忠路38號","121.513075","24.9594883333333","6500600","新店區"
"231062","720-UM","2018/12/18 19:19:13","新北市新店區安康路一段241號","121.525046666667","24.9633116666667","6500600","新店區"
"231045","898-TW","2018/12/18 19:19:16","新北市新店區北宜路一段260號","121.545706666667","24.9527416666667","6500600","新店區"
"231043","899-TW","2018/12/18 19:19:19","新北市新店區寶橋路8號","121.543741666667","24.9737166666667","6500600","新店區"
"241022","060-VK","2018/12/18 19:19:20","新北市三重區重陽路二段50號","121.487133333333","25.0633866666667","6500200","三重區"
"241031","061-VK","2018/12/18 19:19:23","新北市三重區重新路四段216號","121.485911666667","25.0543133333333","6500200","三重區"
"241017","063-VK","2018/12/18 19:19:21","新北市三重區大同北路182號","121.491613333333","25.065885","6500200","三重區"
"241032","269-UM","2018/12/18 19:19:04","新北市三重區新生街94號","121.483521666667","25.0593566666667","6500200","三重區"
"241007","398-BY","2018/12/18 19:19:25","新北市三重區慈愛街52號","121.486168333333","25.07922","6500200","三重區"
"241035","KEA-2210","2018/12/18 19:19:08","新北市三重區信義西街138號","121.495458333333","25.0643283333333","6500200","三重區"
"241009","462-BY","2018/12/18 19:19:07","新北市三重區溪尾街230巷42號","121.48627","25.081185","6500200","三重區"
"241020","478-VK","2018/12/18 19:19:19","新北市三重區大智街181號","121.489608333333","25.0727416666667","6500200","三重區"
"241030","480-VK","2018/12/18 19:19:10","新北市三重區新興路42號","121.491475","25.0534566666667","6500200","三重區"
"241006","AAD-863","2018/12/18 19:19:06","新北市三重區車路頭街151號","121.48379","25.0769383333333","6500200","三重區"
"241026","743-BX","2018/12/18 19:19:24","新北市三重區正義南路169號","121.49901","25.057425","6500200","三重區"
"241029","942-UM","2018/12/18 19:19:20","新北市三重區重安街46號","121.490758333333","25.05767","6500200","三重區"
"235064","005-UY","2018/12/18 19:19:03","新北市中和區連城路47號","121.498131666667","25.0017733333333","6500300","中和區"
"235063","006-UY","2018/12/18 19:19:14","新北市中和區連勝街121巷9號","121.495441666667","24.9944583333333","6500300","中和區"
"235056","096-UM","2018/12/18 19:19:21","新北市中和區員山路476號","121.479841666667","25.0066666666667","6500300","中和區"
"235039","097-UM","2018/12/18 19:19:23","新北市中和區秀峰街121號","121.520003333333","24.9907716666667","6500300","中和區"
"235040","150-BY","2018/12/18 19:19:16","新北市中和區安平路74-1號","121.511101666667","24.99628","6500300","中和區"
"235058","151-BY","2018/12/18 19:19:14","新北市中和區連城路477巷6弄18號","121.48251","24.9951066666667","6500300","中和區"
"235055","183-VK","2018/12/18 19:19:13","新北市中和區德光路72號","121.469271666667","25.0037116666667","6500300","中和區"
"235038","185-VK","2018/12/18 19:19:12","新北市中和區大仁街108號","121.520603333333","24.992885","6500300","中和區"
"235049","186-VK","2018/12/18 19:19:15","新北市中和區景新街235號","121.508108333333","24.9945383333333","6500300","中和區"
"235067","255-BX","2018/12/18 19:19:14","新北市中和區中正路729號","121.484921666667","24.999085","6500300","中和區"
"235044","293-VK","2018/12/18 19:19:10","新北市中和區復興路304號","121.501305","24.99034","6500300","中和區"
"235072","301-VK","2018/12/18 19:19:24","新北市中和區連城路265巷6弄1號","121.491518333333","24.9958033333333","6500300","中和區"
"235042","KEA-2878","2018/12/18 19:19:14","新北市中和區安樂路143巷2弄5號","121.514071666667","24.9977916666667","6500300","中和區"
"235050","4979-A6","2018/12/18 19:19:10","新北市中和區景安路208巷15號","121.503216666667","24.99138","6500300","中和區"
"235069","4980-A6","2018/12/18 19:19:18","新北市中和區中山路二段136巷35弄1號","121.500941666667","25.0043183333333","6500300","中和區"
"235070","558-UM","2018/12/18 19:19:11","新北市中和區連城路71號","121.497386666667","25.001075","6500300","中和區"
"235045","565-BX","2018/12/18 19:19:15","新北市中和區景新街423巷33弄8-3號","121.513771666667","24.99007","6500300","中和區"
"235054","640-BX","2018/12/18 19:19:12","新北市中和區國光街110號","121.470035","25.0007583333333","6500300","中和區"
"235060","647-TV","2018/12/18 19:19:18","新北市中和區員山路425號","121.481016666667","25.003475","6500300","中和區"
"235047","732-UM","2018/12/18 19:19:16","新北市中和區和平街54巷3弄2號","121.508815","24.99123","6500300","中和區"
"235046","733-UM","2018/12/18 19:19:14","新北市中和區忠孝街6號","121.510073333333","24.9825983333333","6500300","中和區"
"235071","783-BX","2018/12/18 19:19:17","新北市中和區中正路637巷52弄1號","121.485555","24.9940783333333","6500300","中和區"
"235057","801-TS","2018/12/18 19:19:21","新北市中和區員山路423巷7號","121.480513333333","25.0031533333333","6500300","中和區"
"235041","802-TS","2018/12/18 19:19:19","新北市永和區中和路381號","121.508461666667","24.9999683333333","6500300","中和區"
"235052","805-TS","2018/12/18 19:19:16","新北市中和區興南路二段159巷1號","121.505226666667","24.9832283333333","6500300","中和區"
"235048","896-TW","2018/12/18 19:19:06","新北市中和區忠孝街116號","121.51218","24.985615","6500300","中和區"
"235053","900-TW","2018/12/18 19:19:18","新北市中和區華安街21巷2號","121.467466666667","24.9974883333333","6500300","中和區"
"235065","911-UM","2018/12/18 19:19:03","新北市中和區中山路二段64巷8號","121.503676666667","25.0049916666667","6500300","中和區"
"235051","157-BY","2018/12/18 19:19:22","新北市中和區景平路239巷33弄33號","121.509613333333","24.99149","6500300","中和區"
"235037","AAC-213","2018/12/18 19:19:06","新北市中和區秀朗路三段10巷37弄14號","121.523548333333","24.995845","6500300","中和區"
"235059","AAC-215","2018/12/18 19:19:21","新北市中和區圓通路367巷2號","121.491171666667","24.989325","6500300","中和區"
"220055","015-TV","2018/12/18 19:19:08","新北市板橋區新民街4巷10號","121.464671666667","25.009995","6500100","板橋區"
"220065","072-UY","2018/12/18 19:19:23","新北市板橋區國泰街76巷21號","121.467136666667","25.0070733333333","6500100","板橋區"
"220086","073-UY","2018/12/18 19:19:12","新北市板橋區中正路216巷22號","121.456778333333","25.0187133333333","6500100","板橋區"
"220106","075-UY","2018/12/18 19:19:15","新北市板橋區長江路三段62號","121.473636666667","25.0338416666667","6500100","板橋區"
"226004","205-ST","2018/12/18 19:19:17","新北市平溪區南山里南山坪15號","121.769081666667","25.0341116666667","6502400","平溪區"
"228001","212-TW","2018/12/18 19:19:05","新北市貢寮區真理里新港街10號","121.92552","25.054375","6502600","貢寮區"
"228002","585-TW","2018/12/18 19:19:16","新北市貢寮區龍門里復興街8-1號","121.92673","25.0267866666667","6502600","貢寮區"
"228003","828-UM","2018/12/18 19:19:20","新北市貢寮區和美里和美街19-2號","121.912803333333","25.0826016666667","6502600","貢寮區"
"224010","AGQ-8101","2018/12/18 19:19:02","新北市瑞芳區基山街109號","121.844468333333","25.108555","6501200","瑞芳區"
"227003","642-TC","2018/12/18 19:19:21","新北市雙溪區平林里梅竹蹊66-1號","121.86013","25.0358183333333","6502500","雙溪區"
"227009","400-TW","2018/12/18 19:19:22","新北市雙溪區新基里新基北街40號","121.86851","25.0380166666667","6502500","雙溪區"
"253006","032-BX","2018/12/18 19:19:22","新北市石門區楓林17-6號","121.53692","25.2924566666667","6502200","石門區"
"253005","295-VK","2018/12/18 19:19:21","新北市石門區阿里荖18-3號","121.607731666667","25.2805666666667","6502200","石門區"
"222001","KEA-2212","2018/12/18 19:19:16","新北市深坑區北深路二段82號","121.617548333333","25.003535","6501800","深坑區"
"208002","KEA-2872","2018/12/18 19:19:15","新北市金山區環金路336號","121.633126666667","25.2210283333333","6502700","金山區"
"208003","665-BX","2018/12/18 19:19:07","新北市金山區中山路110號","121.63962","25.2194766666667","6502700","金山區"
"208001","761-BX","2018/12/18 19:19:17","新北市金山區民生路69號","121.64012","25.2197","6502700","金山區"
"251013","KEA-2871","2018/12/18 19:19:18","新北市淡水區安子內12-1號","121.481533333333","25.2191016666667","6501000","淡水區"
"251016","179-VK","2018/12/18 19:19:09","新北市淡水區下圭柔山119-51號","121.450698333333","25.20852","6501000","淡水區"
"251014","180-VK","2018/12/18 19:19:16","新北市淡水區小中寮19-7號","121.484758333333","25.2295916666667","6501000","淡水區"
"251008","181-VK","2018/12/18 19:19:12","新北市淡水區中正路二段31號","121.419316666667","25.1819766666667","6501000","淡水區"
"251015","182-VK","2018/12/18 19:19:10","新北市淡水區南勢埔45-1號","121.482238333333","25.178115","6501000","淡水區"
"251010","413-VK","2018/12/18 19:19:09","新北市淡水區沙崙路30號","121.421526666667","25.181495","6501000","淡水區"
"251007","442-VK","2018/12/18 19:19:26","新北市淡水區民生路119號","121.46516","25.138745","6501000","淡水區"
"251005","443-VK","2018/12/18 19:19:01","新北市淡水區水源街一段27巷1-6號","121.443065","25.1725683333333","6501000","淡水區"
"251001","559-UM","2018/12/18 19:19:12","新北市淡水區自強路201巷43號","121.462093333333","25.126815","6501000","淡水區"
"251009","575-R6","2018/12/18 19:19:09","新北市淡水區中山路141號","121.440831666667","25.1716833333333","6501000","淡水區"
"251003","673-BX","2018/12/18 19:19:12","新北市淡水區水碓街37號","121.443633333333","25.1776766666667","6501000","淡水區"
"207003","550-UM","2018/12/18 19:19:12","新北市萬里區大鵬里萬里加投79-3號","121.64731","25.2123383333333","6502800","萬里區"
"207004","225-TW","2018/12/18 19:19:15","新北市萬里區萬里里成功新村51號","121.688048333333","25.1746016666667","6502800","萬里區"
"252002","178-VK","2018/12/18 19:19:07","新北市三芝區淡金路二段18-1號","121.502666666667","25.2595116666667","6502100","三芝區"
"252001","292-VK","2018/12/18 19:19:07","新北市三芝區長勤街9巷11弄1號","121.501765","25.25474","6502100","三芝區"
"237004","KEA-2597","2018/12/18 19:19:20","新北市三峽區有木206號","121.43909","24.8514833333333","6500900","三峽區"
"237007","153-BY","2018/12/18 19:19:07","新北市三峽區二鬮路110巷28號","121.358625","24.90931","6500900","三峽區"
"237009","210-TH","2018/12/18 19:19:24","新北市三峽區信義街26號","121.370865","24.93541","6500900","三峽區"
"237013","252-BX","2018/12/18 19:19:12","新北市三峽區大同路39巷7號","121.377093333333","24.9278783333333","6500900","三峽區"
"237012","275-BY","2018/12/18 19:19:23","新北市三峽區三樹路222巷141號","121.385716666667","24.9428516666667","6500900","三峽區"
"237008","302-VK","2018/12/18 19:19:05","新北市三峽區大同路119巷5號","121.374336666667","24.926495","6500900","三峽區"
"237014","433-BY","2018/12/18 19:19:21","新北市三峽區中山路257巷1號","121.36244","24.9373416666667","6500900","三峽區"
"237006","5529-G3","2018/12/18 19:19:07","新北市三峽區中正路一段336巷15弄2號","121.369981666667","24.9249533333333","6500900","三峽區"
"237011","KEA-2596","2018/12/18 19:19:08","新北市三峽區介壽路三段87號","121.395505","24.9386","6500900","三峽區"
"237016","649-BX","2018/12/18 19:19:07","新北市三峽區安坑60-2號","121.46607","24.93058","6500900","三峽區"
"237010","706-TV","2018/12/18 19:19:07","新北市三峽區復興路49號","121.373358333333","24.937075","6500900","三峽區"
"237005","AKY-6261","2018/12/18 19:19:19","新北市鶯歌區三鶯路29巷28號","121.354051666667","24.9396816666667","6500900","三峽區"
"236070","105-UM","2018/12/18 19:19:17","新北市土城區學成路70巷5號","121.451891666667","24.9883733333333","6501300","土城區"
"236042","KED-0685","2018/12/18 19:19:07","新北市土城區學府路一段239號","121.45043","24.9833383333333","6501300","土城區"
"236079","166-UM","2018/12/18 19:19:24","新北市土城區中央路四段183號","121.414993333333","24.95673","6501300","土城區"
"236026","269-VK","2018/12/18 19:19:24","新北市土城區員林街76號","121.444411666667","24.9767166666667","6501300","土城區"
"236014","270-VK","2018/12/18 19:19:15","新北市土城區學府路一段52號","121.457518333333","24.988585","6501300","土城區"
"236021","401-BY","2018/12/18 19:19:06","新北市土城區峰廷街3號","121.469058333333","24.987285","6501300","土城區"
"236059","912-UM","2018/12/18 19:19:10","新北市土城區中央路二段225號","121.440383333333","24.9726233333333","6501300","土城區"
"236049","913-UM","2018/12/18 19:19:21","新北市土城區明德路一段365-1號","121.453638333333","24.9790766666667","6501300","土城區"
"238015","755-BX","2018/12/18 19:19:02","新北市樹林區大安路590號","121.411576666667","24.98326","6500700","樹林區"
"238019","599-UM","2018/12/18 19:19:11","新北市樹林區東榮街28號","121.417591666667","24.9835416666667","6500700","樹林區"
"238018","571-TV","2018/12/18 19:19:14","新北市樹林區太元街2巷9號","121.417091666667","24.9809666666667","6500700","樹林區"
"238024","5061-A6","2018/12/18 19:19:08","新北市樹林區福德街48-8號","121.398898333333","24.9748483333333","6500700","樹林區"
"238022","KEA-2213","2018/12/18 19:19:05","新北市樹林區中山路二段121號","121.408418333333","24.9799516666667","6500700","樹林區"
"238021","KEA-2539","2018/12/18 19:19:07","新北市樹林區柑園街二段203巷25號","121.376383333333","24.9508983333333","6500700","樹林區"
"238025","303-VK","2018/12/18 19:19:22","新北市樹林區中山路二段209號","121.403141666667","24.97663","6500700","樹林區"
"238017","283-BY","2018/12/18 19:19:19","新北市樹林區光興街223巷54號","121.406796666667","25.00491","6500700","樹林區"
"238014","282-BY","2018/12/18 19:19:08","新北市樹林區千歲街38號","121.425723333333","24.99672","6500700","樹林區"
"238020","268-VK","2018/12/18 19:19:16","新北市樹林區俊英街119號","121.42431","25.010305","6500700","樹林區"
"238026","172-UY","2018/12/18 19:19:08","新北市樹林區佳園路二段65巷1號","121.390988333333","24.9607983333333","6500700","樹林區"
"238016","169-UY","2018/12/18 19:18:03","新北市樹林區復興路364號","121.415691666667","24.9858266666667","6500700","樹林區"
"239007","AAC-297","2018/12/18 19:19:25","新北市鶯歌區西湖街53巷21號","121.341036666667","24.9599883333333","6500800","鶯歌區"
"239006","891-R6","2018/12/18 19:19:07","新北市鶯歌區尖山埔路144號","121.343455","24.9498116666667","6500800","鶯歌區"
"239008","527-UM","2018/12/18 19:19:24","新北市鶯歌區大湖路428號","121.34197","24.9727466666667","6500800","鶯歌區"
"239001","417-VK","2018/12/18 19:19:06","新北市鶯歌區建國路596巷80號","121.340456666667","24.95169","6500800","鶯歌區"
"239002","359-BY","2018/12/18 19:19:05","新北市鶯歌區大湖路185巷10號","121.343595","24.9706033333333","6500800","鶯歌區"
"239004","193-VK","2018/12/18 19:19:06","新北市鶯歌區鶯華新村6號","121.330015","24.93483","6500800","鶯歌區"
"221008","489-VK","2018/12/18 19:19:11","新北市汐止區康寧街279號","121.62604","25.06721","6501100","汐止區"
"221036","130-UY","2018/12/18 19:19:18","新北市汐止區康寧街901號","121.651106666667","25.0751166666667","6501100","汐止區"
"221015","131-UY","2018/12/18 19:19:12","新北市汐止區康寧街901號","121.651558333333","25.0749616666667","6501100","汐止區"
"221010","269-BY","2018/12/18 19:19:08","新北市汐止區康寧街901號","121.651295","25.075005","6501100","汐止區"
"221012","278-VK","2018/12/18 19:19:09","新北市汐止區汐萬路一段110號","121.653991666667","25.0712666666667","6501100","汐止區"
"221023","279-VK","2018/12/18 19:19:15","新北市汐止區康寧街901號","121.651681666667","25.074915","6501100","汐止區"
"221027","281-BY","2018/12/18 19:19:03","新北市汐止區康寧街901號","121.650843333333","25.075285","6501100","汐止區"
"221029","298-VK","2018/12/18 19:19:14","新北市汐止區康寧街901號","121.651571666667","25.0749233333333","6501100","汐止區"
"221021","299-VK","2018/12/18 19:19:07","新北市汐止區康寧街901號","121.651485","25.075015","6501100","汐止區"
"221031","353-TW","2018/12/18 19:19:10","新北市汐止區康寧街901號","121.650853333333","25.0752833333333","6501100","汐止區"
"221025","623-UM","2018/12/18 19:19:24","新北市汐止區汐萬路一段312號","121.650491666667","25.07529","6501100","汐止區"
"221038","646-BX","2018/12/18 19:19:11","新北市汐止區康寧街901號","121.650728333333","25.07532","6501100","汐止區"
"221033","647-BX","2018/12/18 19:19:21","新北市汐止區南勢街3號","121.627088333333","25.037445","6501100","汐止區"
"221002","707-TV","2018/12/18 19:19:08","新北市汐止區中興路15號","121.637031666667","25.05942","6501100","汐止區"
"220079","145-BY","2018/12/18 19:19:17","新北市板橋區民權路202巷18弄2號","121.460738333333","25.01637","6500100","板橋區"
"220080","200-UY","2018/12/18 19:19:11","新北市板橋區大觀路二段19巷71號","121.448738333333","25.0029833333333","6500100","板橋區"
"220082","610-BX","2018/12/18 19:19:20","新北市板橋區滿平街84巷102號","121.426753333333","24.9868","6500100","板橋區"
"220101","245-BX","2018/12/18 19:17:33","新北市板橋區莊敬路263巷7號","121.473503333333","25.021695","6500100","板橋區"
"220056","276-BY","2018/12/18 19:19:21","新北市板橋區信義路200號","121.459858333333","24.9910766666667","6500100","板橋區"
"220072","277-BY","2018/12/18 19:19:23","新北市板橋區金門街325號","121.429516666667","24.9859516666667","6500100","板橋區"
"220071","283-VK","2018/12/18 19:19:14","新北市板橋區重慶路269巷13號","121.463915","24.9994716666667","6500100","板橋區"
"220094","285-UM","2018/12/18 19:19:10","新北市板橋區松江街124巷7號","121.469555","25.0302766666667","6500100","板橋區"
"220053","285-VK","2018/12/18 19:19:21","新北市板橋區富山街77號","121.476956666667","25.0218816666667","6500100","板橋區"
"220083","286-VK","2018/12/18 19:19:07","新北市板橋區大觀路二段174巷186弄2-3號","121.442416666667","25.00361","6500100","板橋區"
"220081","287-VK","2018/12/18 19:19:04","新北市板橋區南雅西路一段10巷7弄16號","121.453941666667","25.004535","6500100","板橋區"
"220090","288-VK","2018/12/18 19:19:24","新北市板橋區裕民街92號","121.460271666667","25.0280616666667","6500100","板橋區"
"220061","293-UM","2018/12/18 19:19:14","新北市板橋區中山路二段255巷7號","121.477038333333","25.01795","6500100","板橋區"
"220084","296-UM","2018/12/18 19:19:08","新北市板橋區溪北路73巷5號","121.428361666667","24.989895","6500100","板橋區"
"220075","303-R5","2018/12/18 19:19:19","新北市板橋區中正路275巷55號","121.453155","25.0179783333333","6500100","板橋區"
"220062","305-R5","2018/12/18 19:19:17","新北市板橋區三民路二段153巷36弄2號","121.48111","25.0141466666667","6500100","板橋區"
"220092","307-R5","2018/12/18 19:19:20","新北市板橋區光武街2巷15號","121.468303333333","25.02539","6500100","板橋區"
"220098","317-R6","2018/12/18 19:19:08","新北市板橋區自由路51巷9-3號","121.465088333333","25.0234116666667","6500100","板橋區"
"220089","487-VK","2018/12/18 19:19:03","新北市板橋區英士路18號","121.461876666667","25.02527","6500100","板橋區"
"220088","491-VK","2018/12/18 19:19:20","新北市板橋區雙十路二段4-1號","121.477163333333","25.0255233333333","6500100","板橋區"
"220035","560-BX","2018/12/18 19:19:23","新北市板橋區中正路362號","121.45438","25.023925","6500100","板橋區"
"220103","561-BX","2018/12/18 19:19:10","新北市板橋區文化路一段288號","121.46736","25.02155","6500100","板橋區"
"220069","568-UM","2018/12/18 19:19:13","新北市板橋區稚暉街46巷1號","121.456438333333","25.0043166666667","6500100","板橋區"
"220063","609-BX","2018/12/18 19:19:17","新北市板橋區三民路一段1巷39號","121.480273333333","25.0247216666667","6500100","板橋區"
"220091","637-BX","2018/12/18 19:19:23","新北市板橋區縣民大道三段237號","121.481196666667","25.02583","6500100","板橋區"
"220057","686-BX","2018/12/18 19:19:21","新北市板橋區重慶路290-3號","121.463693333333","24.998855","6500100","板橋區"
"220077","687-BX","2018/12/18 19:19:25","新北市板橋區大觀路一段61號","121.44752","25.0059383333333","6500100","板橋區"
"220093","689-BX","2018/12/18 19:19:15","新北市板橋區英士路55號","121.460743333333","25.0243833333333","6500100","板橋區"
"220054","741-BX","2018/12/18 19:19:21","新北市板橋區重慶路155巷19號","121.463","25.0040916666667","6500100","板橋區"
"220102","KEA-2699","2018/12/18 19:19:21","新北市板橋區松柏街22巷26號","121.47483","25.0291183333333","6500100","板橋區"
"220067","829-TW","2018/12/18 19:19:25","新北市板橋區漢生東路313巷2弄26號","121.472428333333","25.00772","6500100","板橋區"
"220068","830-TW","2018/12/18 19:19:21","新北市板橋區萬安街137號","121.48329","25.02543","6500100","板橋區"
"220074","895-R6","2018/12/18 19:19:08","新北市板橋區中正路1巷14號","121.455288333333","25.0115883333333","6500100","板橋區"
"220073","985-R7","2018/12/18 19:19:13","新北市板橋區金華街69號","121.45744","25.0208233333333","6500100","板橋區"
"220097","AAC-210","2018/12/18 19:19:25","新北市板橋區幸福路32巷3號","121.461523333333","25.0205433333333","6500100","板橋區"
"220064","AAC-253","2018/12/18 19:19:04","新北市板橋區民族路47號","121.46293","25.0095716666667","6500100","板橋區"
"235068","KEA-2873","2018/12/18 19:19:05","新北市中和區連勝街38巷26號","121.497695","24.9981166666667","6500300","中和區"
"235061","KEA-2875","2018/12/18 19:19:24","新北市中和區中山路二段523巷60號","121.48212","25.0027533333333","6500300","中和區"
