"lineid","car","time","location","longitude","latitude","cityid","cityname"
"234081","298-R6","2018/12/18 20:39:25","新北市永和區永利路69號","121.5198","25.0047983333333","6500400","永和區"
"234064","337-UY","2018/12/18 20:39:22","台北市中正區汀州路三段230巷16弄5號","121.531646666667","25.0082616666667","6500400","永和區"
"234030","746-BX","2018/12/18 20:39:11","新北市新店區安興路69號","121.515833333333","24.9750683333333","6500400","永和區"
"234061","AAD-866","2018/12/18 20:39:20","新北市永和區秀朗路一段175號","121.517046666667","25.00358","6500400","永和區"
"249001","173-UM","2018/12/18 20:39:20","新北市八里區中山路三段335號","121.377291666667","25.138745","6502300","八里區"
"249004","303-UY","2018/12/18 20:39:07","新北市八里區中山路一段109號","121.41416","25.15987","6502300","八里區"
"234023","9380-KE","2018/12/18 20:39:23","新北市永和區竹林路25巷21號","121.518145","25.014985","6500400","永和區"
"234074","AAC-211","2018/12/18 20:39:08","新北市永和區竹林路117-1號","121.520115","25.0114966666667","6500400","永和區"
"243016","KEA-2801","2018/12/18 20:39:11","新北市泰山區文程路3號","121.427721666667","25.049575","6501600","泰山區"
"243011","KEA-2215","2018/12/18 20:39:07","新北市泰山區公園路12號","121.429761666667","25.0540283333333","6501600","泰山區"
"243010","KEA-2216","2018/12/18 20:39:17","新北市泰山區橫窠雅2號","121.402906666667","25.072895","6501600","泰山區"
"222003","436-BY","2018/12/18 20:39:23","新北市深坑區深坑街153號","121.613003333333","25.001135","6501800","深坑區"
"222002","659-BX","2018/12/18 20:39:09","新北市深坑區萬福路45號","121.59944","25.0068","6501800","深坑區"
"231041","001-UM","2018/12/18 20:39:07","新北市新店區中正路695巷2號","121.53398","24.99063","6500600","新店區"
"231059","046-UY","2018/12/18 20:39:13","新北市新店區僑信路101號","121.500308333333","24.9467566666667","6500600","新店區"
"231040","047-UY","2018/12/18 20:39:12","新北市新店區中正路263巷4號","121.538383333333","24.9733933333333","6500600","新店區"
"231044","106-UY","2018/12/18 20:39:13","新北市新店區建國路291巷1號","121.536965","24.9854316666667","6500600","新店區"
"231053","108-UY","2018/12/18 20:39:13","新北市新店區新烏路二段212-1號","121.548005","24.9145883333333","6500600","新店區"
"231048","187-VK","2018/12/18 20:39:15","新北市新店區寶慶街7號","121.543811666667","24.9866266666667","6500600","新店區"
"231065","188-VK","2018/12/18 20:39:13","新北市新店區安祥路102巷129號","121.486416666667","24.9647733333333","6500600","新店區"
"231054","KEA-2219","2018/12/18 20:39:09","新北市新店區北新路一段64巷35號","121.542183333333","24.9658083333333","6500600","新店區"
"231057","256-BX","2018/12/18 20:39:11","新北市新店區花園二路一段9-6號","121.556348333333","24.9328566666667","6500600","新店區"
"231042","268-BY","2018/12/18 20:39:05","新北市新店區寶橋路234號","121.551575","24.9788216666667","6500600","新店區"
"231051","278-BY","2018/12/18 20:39:14","新北市新店區民生路147巷2-3號","121.528668333333","24.9802266666667","6500600","新店區"
"231050","AAD-862","2018/12/18 20:39:14","新北市新店區建國路37巷1號","121.540468333333","24.9748483333333","6500600","新店區"
"231060","355-BY","2018/12/18 20:39:12","新北市新店區安康路三段738號","121.473836666667","24.942035","6500600","新店區"
"231058","3713-VJ","2018/12/18 20:39:22","新北市新店區平等街48巷12號","121.535608333333","24.9733266666667","6500600","新店區"
"231066","4716-K9","2018/12/18 20:39:23","新北市新店區安興路112號","121.514628333333","24.9776733333333","6500600","新店區"
"231056","4715-K9","2018/12/18 20:39:04","新北市新店區溪園路401號","121.523798333333","24.9780166666667","6500600","新店區"
"231067","4772-VM","2018/12/18 20:39:24","新北市新店區安華路28-1號","121.519661666667","24.9609833333333","6500600","新店區"
"231049","513-UM","2018/12/18 20:39:09","新北市新店區永業路81巷5弄26號","121.530946666667","24.949555","6500600","新店區"
"231061","619-UM","2018/12/18 20:39:08","新北市新店區新和街37號","121.51922","24.9849516666667","6500600","新店區"
"231063","641-BX","2018/12/18 20:39:25","新北市新店區玫瑰路4-1號","121.493568333333","24.9513633333333","6500600","新店區"
"231068","718-UY","2018/12/18 20:39:17","新北市新店區中興路三段326號","121.542135","24.9862816666667","6500600","新店區"
"231064","719-UM","2018/12/18 20:39:18","新北市新店區安和路三段173號","121.51583","24.9861633333333","6500600","新店區"
"231062","720-UM","2018/12/18 20:39:13","新北市新店區安泰路60巷53-5號","121.484016666667","24.945405","6500600","新店區"
"231045","898-TW","2018/12/18 20:39:16","新北市新店區長春路557-1號","121.553956666667","24.9609233333333","6500600","新店區"
"231043","899-TW","2018/12/18 20:39:17","新北市新店區建國路4號","121.539875","24.9733216666667","6500600","新店區"
"241011","013-R5","2018/12/18 20:39:10","新北市三重區龍濱路190號","121.501095","25.07331","6500200","三重區"
"241028","022-UY","2018/12/18 20:39:27","新北市三重區大同南路50巷57號","121.497355","25.06004","6500200","三重區"
"241008","059-VK","2018/12/18 20:39:22","新北市三重區下竹圍街91號","121.481121666667","25.0747783333333","6500200","三重區"
"241022","060-VK","2018/12/18 20:39:20","新北市三重區中山路33巷12號","121.48786","25.0620833333333","6500200","三重區"
"241031","061-VK","2018/12/18 20:39:04","新北市三重區重陽路一段113巷1弄51號","121.488183333333","25.0585366666667","6500200","三重區"
"241015","062-VK","2018/12/18 20:39:25","新北市三重區文化北路103號","121.497871666667","25.06842","6500200","三重區"
"241017","063-VK","2018/12/18 20:39:21","新北市三重區大同北路269號","121.490813333333","25.06733","6500200","三重區"
"241024","065-VK","2018/12/18 20:39:20","新北市三重區三民街212號","121.480461666667","25.0669866666667","6500200","三重區"
"241002","090-VK","2018/12/18 20:39:21","新北市三重區仁義街167巷23號","121.49785","25.08193","6500200","三重區"
"241003","091-VK","2018/12/18 20:39:20","新北市三重區集賢路87-1號","121.49361","25.08682","6500200","三重區"
"241005","262-UM","2018/12/18 20:39:12","新北市三重區碧華街446號","121.493138333333","25.0859016666667","6500200","三重區"
"241016","266-UM","2018/12/18 20:39:19","新北市三重區長壽西街143-2號","121.494575","25.0667533333333","6500200","三重區"
"241018","268-UM","2018/12/18 20:39:23","新北市三重區重陽路四段1號","121.491","25.0687916666667","6500200","三重區"
"241032","269-UM","2018/12/18 20:39:04","新北市三重區重陽路一段120巷35號","121.485103333333","25.0601633333333","6500200","三重區"
"241013","270-UM","2018/12/18 20:39:24","新北市三重區三和路四段85號","121.48926","25.0754333333333","6500200","三重區"
"241025","271-UM","2018/12/18 20:39:13","新北市三重區大有街1-41號","121.476136666667","25.0656666666667","6500200","三重區"
"241007","398-BY","2018/12/18 20:39:05","新北市三重區三和路四段101巷7號","121.488246666667","25.076875","6500200","三重區"
"241035","KEA-2210","2018/12/18 20:39:07","新北市三重區正義北路250號","121.496033333333","25.0682283333333","6500200","三重區"
"241009","462-BY","2018/12/18 20:39:27","新北市三重區碧華街51號","121.484663333333","25.0813166666667","6500200","三重區"
"241004","475-VK","2018/12/18 20:39:10","新北市三重區仁愛街400號","121.490721666667","25.0811316666667","6500200","三重區"
"241020","478-VK","2018/12/18 20:39:19","新北市三重區忠孝路一段101號","121.48962","25.0722166666667","6500200","三重區"
"241030","480-VK","2018/12/18 20:39:10","新北市三重區成功路73巷12號","121.489378333333","25.0518266666667","6500200","三重區"
"241014","543-UM","2018/12/18 20:39:14","新北市三重區萬壽街8號","121.49917","25.0693366666667","6500200","三重區"
"241023","545-UM","2018/12/18 20:39:05","新北市三重區自由街35巷2號","121.478986666667","25.0668483333333","6500200","三重區"
"241001","547-UM","2018/12/18 20:39:11","新北市三重區自強路三段110巷37號","121.48591","25.074595","6500200","三重區"
"241019","KEA-2593","2018/12/18 20:39:23","新北市三重區忠孝路一段10巷35號","121.491105","25.07132","6500200","三重區"
"241006","AAD-863","2018/12/18 20:39:06","新北市三重區車路頭街139巷12號","121.484246666667","25.0762066666667","6500200","三重區"
"241026","743-BX","2018/12/18 20:39:24","新北市三重區和平街1號","121.500095","25.06218","6500200","三重區"
"241012","941-UM","2018/12/18 20:39:05","新北市三重區龍濱路251號","121.501566666667","25.072675","6500200","三重區"
"241029","942-UM","2018/12/18 20:39:27","新北市三重區集美街126巷23號","121.48986","25.053735","6500200","三重區"
"235067","255-BX","2018/12/18 20:39:14","新北市八里區下罟子8-28號","121.38389","25.1409083333333","6500300","中和區"
"247006","KED-0682","2018/12/18 20:39:13","新北市蘆洲區和平路130號","121.467146666667","25.0803816666667","6501400","蘆洲區"
"235069","4980-A6","2018/12/18 20:39:18","新北市中和區新生街226號","121.483838333333","24.998345","6500300","中和區"
"235059","AAC-215","2018/12/18 20:39:21","新北市中和區員山路66-4號","121.481941666667","24.99175","6500300","中和區"
"247002","893-R6","2018/12/18 20:39:20","新北市蘆洲區長榮路343號","121.459608333333","25.0874666666667","6501400","蘆洲區"
"247016","546-UM","2018/12/18 20:39:17","新北市蘆洲區中山二路191號","121.470866666667","25.0807733333333","6501400","蘆洲區"
"247024","500-BY","2018/12/18 20:39:21","新北市蘆洲區長樂路56-1號","121.46299","25.08634","6501400","蘆洲區"
"247020","057-VK","2018/12/18 20:39:10","新北市蘆洲區民族路331號","121.473788333333","25.0917233333333","6501400","蘆洲區"
"247014","053-VK","2018/12/18 20:39:08","新北市蘆洲區中山一路211號","121.473966666667","25.080695","6501400","蘆洲區"
"247004","002-UY","2018/12/18 20:39:10","新北市蘆洲區長安街297號","121.458066666667","25.0848933333333","6501400","蘆洲區"
"247022","001-UY","2018/12/18 20:39:20","新北市蘆洲區中正路185巷46弄14號","121.46697","25.085365","6501400","蘆洲區"
"222001","KEA-2212","2018/12/18 20:39:16","新北市深坑區北深路三段230號","121.600761666667","25.0039433333333","6501800","深坑區"
"251013","KEA-2871","2018/12/18 20:39:18","新北市淡水區番子厝12-3號","121.45899","25.2025566666667","6501000","淡水區"
"251016","179-VK","2018/12/18 20:39:11","新北市淡水區後洲子16-1號","121.44937","25.2240083333333","6501000","淡水區"
"251014","180-VK","2018/12/18 20:39:16","新北市淡水區公埔子29-1號","121.463793333333","25.232685","6501000","淡水區"
"251015","182-VK","2018/12/18 20:39:10","新北市淡水區淡金路四段542巷17號","121.452726666667","25.227085","6501000","淡水區"
"251010","413-VK","2018/12/18 20:39:09","新北市淡水區沙崙路181巷15號","121.423995","25.1843333333333","6501000","淡水區"
"251012","441-VK","2018/12/18 20:39:10","新北市淡水區興仁路107號","121.451598333333","25.2181433333333","6501000","淡水區"
"251007","442-VK","2018/12/18 20:39:15","新北市淡水區忠愛街4號","121.459373333333","25.1713433333333","6501000","淡水區"
"251001","559-UM","2018/12/18 20:39:12","新北市淡水區淡金路218號","121.460488333333","25.1672183333333","6501000","淡水區"
"251006","561-UM","2018/12/18 20:39:25","新北市淡水區淡金路二段201號","121.448178333333","25.1836","6501000","淡水區"
"251002","672-BX","2018/12/18 20:39:13","新北市淡水區中正路36號","121.443763333333","25.169275","6501000","淡水區"
"251003","673-BX","2018/12/18 20:39:06","新北市淡水區新民街152巷6弄22號","121.43876","25.1785666666667","6501000","淡水區"
"252002","178-VK","2018/12/18 20:39:12","新北市三芝區淡金路二段47-2號","121.503758333333","25.2605833333333","6502100","三芝區"
"252001","292-VK","2018/12/18 20:39:07","新北市三芝區中山路一段77號","121.501285","25.2568516666667","6502100","三芝區"
"247008","KED-0683","2018/12/18 20:39:08","新北市蘆洲區集賢路281號","121.481231666667","25.08302","6501400","蘆洲區"
"242037","AAC-296","2018/12/18 20:39:10","新北市新莊區建安街10-1號","121.428545","25.0264583333333","6500500","新莊區"
"242058","986-R7","2018/12/18 20:39:08","新北市新莊區四維路117號","121.423091666667","25.0232666666667","6500500","新莊區"
"242056","751-BX","2018/12/18 20:39:24","新北市新莊區瓊泰路95號","121.443203333333","25.0298216666667","6500500","新莊區"
"242027","615-BX","2018/12/18 20:39:22","新北市新莊區思源路293號","121.459758333333","25.0485266666667","6500500","新莊區"
"242025","613-BX","2018/12/18 20:39:09","新北市新莊區化成路579巷1號","121.464285","25.0660233333333","6500500","新莊區"
"242029","612-BX","2018/12/18 20:39:14","新北市新莊區中華路二段30號","121.45355","25.0451516666667","6500500","新莊區"
"242044","566-BX","2018/12/18 20:39:20","新北市新莊區龍安路92號","121.417646666667","25.0207433333333","6500500","新莊區"
"242048","497-BY","2018/12/18 20:39:19","新北市新莊區中正路654號","121.421288333333","25.0284483333333","6500500","新莊區"
"242051","442-UM","2018/12/18 20:39:15","新北市新莊區民安西路68號","121.427268333333","25.0201383333333","6500500","新莊區"
"242002","440-UM","2018/12/18 20:39:20","新北市新莊區明中街13號","121.458623333333","25.0383583333333","6500500","新莊區"
"242039","415-TV","2018/12/18 20:39:23","新北市新莊區新樹路168號","121.434713333333","25.0224333333333","6500500","新莊區"
"242046","400-BY","2018/12/18 20:39:04","新北市新莊區富國路22巷23號","121.41832","25.0257283333333","6500500","新莊區"
"242023","362-BY","2018/12/18 20:39:13","新北市新莊區復興路三段71-1號","121.462581666667","25.04448","6500500","新莊區"
"242061","353-BY","2018/12/18 20:39:24","新北市新莊區新樹路262號","121.432688333333","25.0148216666667","6500500","新莊區"
"242011","132-UY","2018/12/18 20:39:16","新北市新莊區中原路323-1號","121.446608333333","25.0540083333333","6500500","新莊區"
"242034","135-UY","2018/12/18 20:39:19","新北市新莊區中正路334巷25弄10號","121.4454","25.036205","6500500","新莊區"
"242019","175-VK","2018/12/18 20:39:17","新北市新莊區銘德街48號","121.45725","25.0437283333333","6500500","新莊區"
"242007","176-VK","2018/12/18 20:39:11","新北市新莊區思源路287巷2弄1號","121.45931","25.0482983333333","6500500","新莊區"
"242017","KED-0687","2018/12/18 20:39:10","新北市新莊區中港三街110號","121.448248333333","25.046045","6500500","新莊區"
"242054","346-TH","2018/12/18 20:39:24","新北市新莊區西盛街324巷22號","121.427006666667","25.01479","6500500","新莊區"
"242032","348-TH","2018/12/18 20:39:15","新北市新莊區中正路535-11號","121.437518333333","25.0329766666667","6500500","新莊區"
"242005","349-TH","2018/12/18 20:39:26","新北市新莊區福德二街1號","121.463108333333","25.0570116666667","6500500","新莊區"
"242021","350-TH","2018/12/18 20:39:14","新北市新莊區公園路90號","121.450483333333","25.0397383333333","6500500","新莊區"
"242015","351-TH","2018/12/18 20:39:07","新北市新莊區中和街36號","121.448168333333","25.0439566666667","6500500","新莊區"
"221008","489-VK","2018/12/18 20:39:11","新北市汐止區翠峰街2巷2號","121.64532","25.0765983333333","6501100","汐止區"
"221036","130-UY","2018/12/18 20:39:18","新北市汐止區忠孝東路274號","121.663518333333","25.0680366666667","6501100","汐止區"
"221015","131-UY","2018/12/18 20:39:12","新北市汐止區建成路29號","121.664038333333","25.0726633333333","6501100","汐止區"
"221023","279-VK","2018/12/18 20:39:15","新北市汐止區民族二街7-1號","121.63508","25.071685","6501100","汐止區"
"221032","280-BY","2018/12/18 20:39:26","新北市汐止區橫科路322巷24弄6-1號","121.620326666667","25.0501266666667","6501100","汐止區"
"221027","281-BY","2018/12/18 20:39:23","新北市汐止區大同路二段567號","121.662931666667","25.0698916666667","6501100","汐止區"
"221029","298-VK","2018/12/18 20:39:20","新北市汐止區新台五路一段79-11號","121.645626666667","25.0620633333333","6501100","汐止區"
"221021","299-VK","2018/12/18 20:39:07","新北市汐止區水源路一段286號","121.654136666667","25.05818","6501100","汐止區"
"221035","622-UM","2018/12/18 20:39:20","新北市汐止區長江街101-5號","121.658818333333","25.073115","6501100","汐止區"
"221025","623-UM","2018/12/18 20:39:24","新北市汐止區水源路二段271-1號","121.659156666667","25.04986","6501100","汐止區"
"221038","646-BX","2018/12/18 20:39:11","新北市汐止區汐萬路一段150號","121.652726666667","25.0712733333333","6501100","汐止區"
"221033","647-BX","2018/12/18 20:39:21","新北市汐止區合順街18巷8弄5號","121.620338333333","25.041935","6501100","汐止區"
"221002","707-TV","2018/12/18 20:39:08","新北市汐止區福德二路167號","121.630893333333","25.0651916666667","6501100","汐止區"
"221018","753-BX","2018/12/18 20:39:09","新北市汐止區茄苳路109號","121.667951666667","25.0711433333333","6501100","汐止區"
"220080","200-UY","2018/12/18 20:39:11","新北市樹林區八德街65-2號","121.40023","24.9692866666667","6500100","板橋區"
"220083","286-VK","2018/12/18 20:39:07","新北市板橋區僑中二街108巷15號","121.4451","25.0073216666667","6500100","板橋區"
"242042","281-VK","2018/12/18 20:39:08","新北市新莊區天祥街47巷29號","121.416128333333","25.0278483333333","6500500","新莊區"
"242009","280-VK","2018/12/18 20:39:18","新北市新莊區昌隆街73號","121.45733","25.0510366666667","6500500","新莊區"
"220103","561-BX","2018/12/18 20:39:09","新北市樹林區水源街81號","121.425923333333","24.979655","6500100","板橋區"
"220064","AAC-253","2018/12/18 20:39:23","新北市林口區汕頭32號","121.366831666667","25.1350966666667","6500100","板橋區"
