"lineid","car","time","location","longitude","latitude","cityid","cityname"
"243006","680-BX","2018/12/18 21:06:47","新北市泰山區黎明路25號","121.422263333333","25.0607416666667","6501600","泰山區"
"231059","046-UY","2018/12/18 21:09:13","新北市新店區僑仁路2號","121.499563333333","24.9515333333333","6500600","新店區"
"231040","047-UY","2018/12/18 21:09:12","新北市新店區北新路一段351號","121.541906666667","24.969295","6500600","新店區"
"231048","187-VK","2018/12/18 21:09:15","新北市新店區文化路45號","121.544655","24.9809866666667","6500600","新店區"
"231065","188-VK","2018/12/18 21:09:13","新北市新店區安祥路65號","121.483843333333","24.9602316666667","6500600","新店區"
"231054","KEA-2219","2018/12/18 21:09:09","新北市新店區大新街7巷48號","121.544451666667","24.967625","6500600","新店區"
"231042","268-BY","2018/12/18 21:09:25","新北市新店區寶興路60巷4號","121.549863333333","24.9718766666667","6500600","新店區"
"231051","278-BY","2018/12/18 21:09:14","新北市新店區中正路700巷82號","121.53601","24.9932383333333","6500600","新店區"
"231050","AAD-862","2018/12/18 21:09:14","新北市新店區中華路83號","121.539396666667","24.9685766666667","6500600","新店區"
"231060","355-BY","2018/12/18 21:09:12","新北市新店區薏仁坑路自強巷6號","121.496681666667","24.9583583333333","6500600","新店區"
"231061","619-UM","2018/12/18 21:09:23","新北市新店區永安街28-2號","121.517461666667","24.9865133333333","6500600","新店區"
"231063","641-BX","2018/12/18 21:09:25","新北市新店區玫瑰路66巷1號","121.495913333333","24.94522","6500600","新店區"
"231064","719-UM","2018/12/18 21:09:18","新北市新店區薏仁坑路自強巷1號","121.497136666667","24.9578266666667","6500600","新店區"
"231062","720-UM","2018/12/18 21:09:13","新北市新店區雙城路60巷6號","121.491868333333","24.9476233333333","6500600","新店區"
"241011","013-R5","2018/12/18 21:09:09","新北市三重區秀江街71號","121.500648333333","25.0724583333333","6500200","三重區"
"241028","022-UY","2018/12/18 21:09:07","新北市三重區正義南路47號","121.498198333333","25.0607033333333","6500200","三重區"
"241008","059-VK","2018/12/18 21:09:22","新北市三重區自強路一段62號","121.497298333333","25.0666433333333","6500200","三重區"
"241022","060-VK","2018/12/18 21:09:20","新北市三重區中正北路64巷21號","121.486041666667","25.063805","6500200","三重區"
"241031","061-VK","2018/12/18 21:09:23","新北市三重區重新路五段283號","121.47908","25.04914","6500200","三重區"
"241015","062-VK","2018/12/18 21:09:05","新北市三重區福德北路89號","121.501886666667","25.066045","6500200","三重區"
"241017","063-VK","2018/12/18 21:09:21","新北市三重區國隆路26號","121.492456666667","25.0642883333333","6500200","三重區"
"241024","065-VK","2018/12/18 21:09:10","新北市三重區大勇街49號","121.481295","25.071985","6500200","三重區"
"241002","090-VK","2018/12/18 21:09:21","新北市三重區五華街19-1號","121.494913333333","25.0804983333333","6500200","三重區"
"241003","091-VK","2018/12/18 21:09:20","新北市三重區仁義街228巷1號","121.494878333333","25.0847833333333","6500200","三重區"
"241005","262-UM","2018/12/18 21:09:12","新北市三重區三信路11號","121.488173333333","25.0860566666667","6500200","三重區"
"241016","266-UM","2018/12/18 21:09:13","新北市三重區信義西街138號","121.495443333333","25.064545","6500200","三重區"
"241018","268-UM","2018/12/18 21:09:23","新北市三重區正義北路338巷2號","121.494223333333","25.0706033333333","6500200","三重區"
"241032","269-UM","2018/12/18 21:09:24","新北市三重區新北大道一段170號","121.483251666667","25.0615833333333","6500200","三重區"
"241013","270-UM","2018/12/18 21:09:26","新北市三重區仁愛街118號","121.495186666667","25.0744916666667","6500200","三重區"
"241025","271-UM","2018/12/18 21:09:13","新北市三重區中正北路208巷10弄4號","121.482451666667","25.0668883333333","6500200","三重區"
"241007","398-BY","2018/12/18 21:09:25","新北市三重區三和路四段145巷82號","121.486355","25.078835","6500200","三重區"
"241009","462-BY","2018/12/18 21:09:07","新北市三重區忠孝路二段124號","121.48297","25.06895","6500200","三重區"
"241004","475-VK","2018/12/18 21:09:10","新北市三重區仁愛街418號","121.490463333333","25.0813616666667","6500200","三重區"
"241020","478-VK","2018/12/18 21:09:19","新北市三重區忠孝路二段34號","121.485736666667","25.0710016666667","6500200","三重區"
"241030","480-VK","2018/12/18 21:09:10","新北市三重區五谷王北街20巷15弄1號","121.475048333333","25.0484883333333","6500200","三重區"
"241014","543-UM","2018/12/18 21:09:10","新北市三重區長安街82-1號","121.501378333333","25.0677066666667","6500200","三重區"
"241023","545-UM","2018/12/18 21:09:05","新北市三重區忠孝路三段84巷63號","121.482301666667","25.063765","6500200","三重區"
"241001","547-UM","2018/12/18 21:09:21","新北市三重區福隆路42號","121.492316666667","25.0783483333333","6500200","三重區"
"241019","KEA-2593","2018/12/18 21:09:23","新北市三重區自強路二段74巷21號","121.48792","25.0698733333333","6500200","三重區"
"241006","AAD-863","2018/12/18 21:09:06","新北市三重區明志街135號","121.489303333333","25.0632483333333","6500200","三重區"
"241026","743-BX","2018/12/18 21:09:24","新北市三重區文化南路42號","121.500376666667","25.0601766666667","6500200","三重區"
"241012","941-UM","2018/12/18 21:09:25","新北市三重區河邊北街319號","121.502336666667","25.0749766666667","6500200","三重區"
"241029","942-UM","2018/12/18 21:09:07","新北市三重區正義南路107號","121.498171666667","25.0585133333333","6500200","三重區"
"247006","KED-0682","2018/12/18 21:09:25","新北市蘆洲區長安街22巷42號","121.465131666667","25.0803866666667","6501400","蘆洲區"
"247002","893-R6","2018/12/18 21:09:20","新北市蘆洲區永樂街38巷40號","121.458505","25.090075","6501400","蘆洲區"
"247024","500-BY","2018/12/18 21:09:21","新北市蘆洲區長興路50巷1號","121.463726666667","25.0837616666667","6501400","蘆洲區"
"247020","057-VK","2018/12/18 21:09:10","新北市蘆洲區民族路343-3號","121.47248","25.09187","6501400","蘆洲區"
"247010","056-VK","2018/12/18 21:09:09","新北市蘆洲區三民路26巷39號","121.477488333333","25.0830416666667","6501400","蘆洲區"
"247014","053-VK","2018/12/18 21:09:28","新北市蘆洲區中央路155號","121.472631666667","25.0847","6501400","蘆洲區"
"247018","007-UY","2018/12/18 21:09:24","新北市蘆洲區民族路408巷6號","121.474795","25.0918016666667","6501400","蘆洲區"
"247004","002-UY","2018/12/18 21:09:10","新北市蘆洲區永安南路二段276號","121.458095","25.08098","6501400","蘆洲區"
"247022","001-UY","2018/12/18 21:09:20","新北市蘆洲區三民路251號","121.46831","25.08927","6501400","蘆洲區"
"251013","KEA-2871","2018/12/18 21:09:18","新北市淡水區行忠路328號","121.460548333333","25.1995083333333","6501000","淡水區"
"251016","179-VK","2018/12/18 21:09:17","新北市淡水區前洲子11號","121.441893333333","25.2189516666667","6501000","淡水區"
"251014","180-VK","2018/12/18 21:09:16","新北市淡水區六塊厝2-6號","121.449901666667","25.241305","6501000","淡水區"
"251015","182-VK","2018/12/18 21:09:10","新北市淡水區淡金路四段542巷60號","121.455063333333","25.22643","6501000","淡水區"
"251010","413-VK","2018/12/18 21:09:15","新北市淡水區中正路一段63巷9號","121.422491666667","25.1770716666667","6501000","淡水區"
"251012","441-VK","2018/12/18 21:09:10","新北市淡水區淡金路五段172號","121.457015","25.2400616666667","6501000","淡水區"
"251005","443-VK","2018/12/18 21:08:47","新北市淡水區博愛街47-1號","121.446773333333","25.1689966666667","6501000","淡水區"
"251001","559-UM","2018/12/18 21:09:17","新北市淡水區新市一路三段5號","121.445103333333","25.182975","6501000","淡水區"
"251009","575-R6","2018/12/18 21:09:09","新北市淡水區民族路112巷47號","121.46209","25.134365","6501000","淡水區"
"251011","650-BX","2018/12/18 21:09:14","新北市淡水區新民街180巷33號","121.438015","25.1796966666667","6501000","淡水區"
"251002","672-BX","2018/12/18 21:09:15","新北市淡水區水源街一段110號","121.446653333333","25.172015","6501000","淡水區"
"251003","673-BX","2018/12/18 21:09:26","新北市淡水區新春街96號","121.43906","25.1824533333333","6501000","淡水區"
"247008","KED-0683","2018/12/18 21:09:08","新北市蘆洲區民生街74號","121.472965","25.0789866666667","6501400","蘆洲區"
"242011","132-UY","2018/12/18 21:09:16","新北市八里區下罟子17號","121.381751666667","25.1440533333333","6500500","新莊區"
"242007","176-VK","2018/12/18 21:09:11","新北市八里區商港路120號","121.392886666667","25.150015","6500500","新莊區"
"220103","561-BX","2018/12/18 21:09:09","新北市板橋區華東街328號","121.452326666667","25.00334","6500100","板橋區"
"220064","AAC-253","2018/12/18 21:09:04","新北市五股區成泰路三段590-3號","121.452695","25.1059883333333","6500100","板橋區"
