"lineid","car","time","location","longitude","latitude","cityid","cityname"
"243006","680-BX","2018/12/18 21:06:47","新北市泰山區黎明路25號","121.422263333333","25.0607416666667","6501600","泰山區"
"231059","046-UY","2018/12/18 21:19:13","新北市新店區僑信路2巷2號","121.499766666667","24.9536483333333","6500600","新店區"
"231040","047-UY","2018/12/18 21:19:12","新北市新店區光明街306號","121.54055","24.9648533333333","6500600","新店區"
"231048","187-VK","2018/12/18 21:19:15","新北市新店區中正路347號","121.535448333333","24.9758983333333","6500600","新店區"
"231065","188-VK","2018/12/18 21:19:13","新北市新店區薏仁坑路自強巷1號","121.49702","24.9580066666667","6500600","新店區"
"231054","KEA-2219","2018/12/18 21:19:09","新北市新店區力行路90號","121.538476666667","24.9664816666667","6500600","新店區"
"231051","278-BY","2018/12/18 21:19:14","新北市新店區中正路700巷77號","121.535621666667","24.9940833333333","6500600","新店區"
"231050","AAD-862","2018/12/18 21:19:25","新北市新店區中正路195號","121.540505","24.972455","6500600","新店區"
"231063","641-BX","2018/12/18 21:19:25","新北市新店區吉祥街6巷1號","121.497673333333","24.94568","6500600","新店區"
"231062","720-UM","2018/12/18 21:19:13","新北市新店區薏仁坑路自強巷6號","121.496753333333","24.9581866666667","6500600","新店區"
"241011","013-R5","2018/12/18 21:19:10","新北市三重區龍濱路191號","121.501946666667","25.07128","6500200","三重區"
"241028","022-UY","2018/12/18 21:19:28","新北市三重區同安東街69號","121.498686666667","25.0573466666667","6500200","三重區"
"241008","059-VK","2018/12/18 21:19:22","新北市三重區自強路一段230號","121.493558333333","25.066965","6500200","三重區"
"241031","061-VK","2018/12/18 21:19:23","新北市三重區五谷王南街46巷37號","121.47571","25.0455466666667","6500200","三重區"
"241017","063-VK","2018/12/18 21:19:21","新北市三重區中正北路25巷28號","121.49385","25.0632966666667","6500200","三重區"
"241024","065-VK","2018/12/18 21:19:10","新北市三重區中正北路145巷14號","121.484115","25.0678183333333","6500200","三重區"
"241002","090-VK","2018/12/18 21:19:21","新北市三重區自強路五段43號","121.494061666667","25.08155","6500200","三重區"
"241003","091-VK","2018/12/18 21:19:20","新北市三重區仁義街319號","121.495346666667","25.0842466666667","6500200","三重區"
"241005","262-UM","2018/12/18 21:19:12","新北市三重區三信路186號","121.487915","25.0859816666667","6500200","三重區"
"241016","266-UM","2018/12/18 21:19:13","新北市三重區自強路一段101號","121.4957","25.0665","6500200","三重區"
"241018","268-UM","2018/12/18 21:19:23","新北市三重區忠孝路二段102號","121.483355","25.0692866666667","6500200","三重區"
"241032","269-UM","2018/12/18 21:19:24","新北市三重區光復路二段152號","121.472145","25.0603566666667","6500200","三重區"
"241013","270-UM","2018/12/18 21:19:24","新北市三重區仁愛街83號","121.495905","25.0732333333333","6500200","三重區"
"241025","271-UM","2018/12/18 21:19:13","新北市三重區中正北路208巷10弄6號","121.482476666667","25.066825","6500200","三重區"
"241007","398-BY","2018/12/18 21:19:25","新北市三重區正義北路243號","121.495686666667","25.0693916666667","6500200","三重區"
"241009","462-BY","2018/12/18 21:19:27","新北市三重區忠孝路三段99巷4號","121.480161666667","25.0643233333333","6500200","三重區"
"241004","475-VK","2018/12/18 21:19:10","新北市三重區碧華街213號","121.488681666667","25.082755","6500200","三重區"
"241030","480-VK","2018/12/18 21:19:10","新北市三重區五谷王北街181-1號","121.477178333333","25.0542416666667","6500200","三重區"
"241014","543-UM","2018/12/18 21:19:10","新北市三重區介壽路39巷13號","121.499235","25.0698866666667","6500200","三重區"
"241023","545-UM","2018/12/18 21:19:25","新北市三重區中正北路176巷27號","121.482635","25.06592","6500200","三重區"
"241001","547-UM","2018/12/18 21:19:11","新北市三重區仁愛街453號","121.490023333333","25.0817","6500200","三重區"
"241019","KEA-2593","2018/12/18 21:19:23","新北市三重區重陽路三段7-3號","121.489266666667","25.066585","6500200","三重區"
"241006","AAD-863","2018/12/18 21:19:25","新北市三重區新北大道一段108號","121.485101666667","25.06142","6500200","三重區"
"241026","743-BX","2018/12/18 21:13:44","新北市三重區環河南路110-1號","121.4986","25.0564483333333","6500200","三重區"
"247006","KED-0682","2018/12/18 21:19:20","新北市蘆洲區中華街3號","121.463938333333","25.081805","6501400","蘆洲區"
"247002","893-R6","2018/12/18 21:19:20","新北市蘆洲區永樂街90號","121.456663333333","25.0886333333333","6501400","蘆洲區"
"247024","500-BY","2018/12/18 21:19:21","新北市蘆洲區光明路77號","121.461438333333","25.0870883333333","6501400","蘆洲區"
"247020","057-VK","2018/12/18 21:19:10","新北市蘆洲區民族路422巷84-1號","121.473581666667","25.0938066666667","6501400","蘆洲區"
"247010","056-VK","2018/12/18 21:19:09","新北市蘆洲區鷺江街16-2號","121.478851666667","25.0824766666667","6501400","蘆洲區"
"247014","053-VK","2018/12/18 21:19:08","新北市蘆洲區保和街50-1號","121.469661666667","25.0863083333333","6501400","蘆洲區"
"247018","007-UY","2018/12/18 21:19:24","新北市蘆洲區復興路107號","121.476883333333","25.0878316666667","6501400","蘆洲區"
"247004","002-UY","2018/12/18 21:19:19","新北市蘆洲區永安南路二段330號","121.456815","25.0829766666667","6501400","蘆洲區"
"247022","001-UY","2018/12/18 21:19:20","新北市蘆洲區民族路502號","121.469555","25.0904483333333","6501400","蘆洲區"
"251013","KEA-2871","2018/12/18 21:19:18","新北市淡水區行忠路328號","121.460528333333","25.1995866666667","6501000","淡水區"
"251016","179-VK","2018/12/18 21:19:11","新北市淡水區前洲子20號","121.441028333333","25.2194366666667","6501000","淡水區"
"251014","180-VK","2018/12/18 21:19:16","新北市淡水區六塊厝2-1號","121.450143333333","25.2404333333333","6501000","淡水區"
"251008","181-VK","2018/12/18 21:19:11","新北市淡水區水源街二段225號","121.46042","25.1764483333333","6501000","淡水區"
"251015","182-VK","2018/12/18 21:19:10","新北市淡水區淡金路四段542巷17號","121.452663333333","25.2270916666667","6501000","淡水區"
"251010","413-VK","2018/12/18 21:19:29","新北市淡水區中正路一段156巷51號","121.421911666667","25.1809516666667","6501000","淡水區"
"251012","441-VK","2018/12/18 21:19:10","新北市淡水區淡金路五段35巷46號","121.452476666667","25.2347483333333","6501000","淡水區"
"251005","443-VK","2018/12/18 21:14:07","新北市淡水區博愛街14號","121.446068333333","25.1699416666667","6501000","淡水區"
"251001","559-UM","2018/12/18 21:19:12","新北市淡水區濱海路一段53號","121.443525","25.1891416666667","6501000","淡水區"
"251009","575-R6","2018/12/18 21:19:09","新北市淡水區民族路112巷1號","121.462635","25.1351583333333","6501000","淡水區"
"251011","650-BX","2018/12/18 21:19:14","新北市淡水區新民街120巷29號","121.438895","25.1788916666667","6501000","淡水區"
"251002","672-BX","2018/12/18 21:19:14","新北市淡水區學府路172巷21號","121.448335","25.17492","6501000","淡水區"
"251003","673-BX","2018/12/18 21:19:06","新北市淡水區崁頂15-5號","121.438983333333","25.185895","6501000","淡水區"
"247008","KED-0683","2018/12/18 21:19:28","新北市蘆洲區民生街1號","121.476191666667","25.0792183333333","6501400","蘆洲區"
"242007","176-VK","2018/12/18 21:19:11","新北市八里區中山路三段409號","121.368413333333","25.1348366666667","6500500","新莊區"
"220103","561-BX","2018/12/18 21:18:49","新北市板橋區民生路二段120號","121.470443333333","25.0196983333333","6500100","板橋區"
"220064","AAC-253","2018/12/18 21:19:23","新北市新莊區中環路一段36號","121.442308333333","25.027455","6500100","板橋區"
