"lineid","car","time","location","longitude","latitude","cityid","cityname"
"234040","862-TW","2018/12/18 21:49:19","新北市永和區福和路1號","121.52619","25.0098266666667","6500400","永和區"
"231062","720-UM","2018/12/18 21:49:13","新北市新店區安一路一段1-1號","121.519305","24.961325","6500600","新店區"
"235010","733-UM","2018/12/18 21:44:53","新北市中和區員山路36巷13號","121.484151666667","24.9908","6500300","中和區"
"251004","009-UM","2018/12/18 21:49:28","新北市淡水區自強路201巷39號","121.462153333333","25.1267883333333","6501000","淡水區"
"251008","181-VK","2018/12/18 21:49:11","新北市淡水區學府路96號","121.449705","25.1716283333333","6501000","淡水區"
"251010","413-VK","2018/12/18 21:49:09","新北市淡水區中正路二段215號","121.426246666667","25.1892666666667","6501000","淡水區"
"251012","441-VK","2018/12/18 21:49:10","新北市淡水區淡金路三段323號","121.449146666667","25.2059733333333","6501000","淡水區"
"251007","442-VK","2018/12/18 21:49:15","新北市淡水區水源街二段177巷76號","121.452253333333","25.1772483333333","6501000","淡水區"
"251005","443-VK","2018/12/18 21:48:07","新北市淡水區鄧公路29巷12號","121.45221","25.1699","6501000","淡水區"
"251001","559-UM","2018/12/18 21:49:12","新北市淡水區新市二路三段152號","121.43531","25.1940466666667","6501000","淡水區"
"251006","561-UM","2018/12/18 21:42:47","新北市淡水區中正路11巷3號","121.437758333333","25.1707766666667","6501000","淡水區"
"251009","575-R6","2018/12/18 21:49:29","新北市淡水區民族路35巷13號","121.464685","25.1367216666667","6501000","淡水區"
"251011","650-BX","2018/12/18 21:49:14","新北市淡水區新民街322巷5弄6號","121.436416666667","25.1828783333333","6501000","淡水區"
"251002","672-BX","2018/12/18 21:49:13","新北市淡水區學府路208號","121.447593333333","25.1763416666667","6501000","淡水區"
"251003","673-BX","2018/12/18 21:49:26","新北市淡水區新春街83號","121.43886","25.182395","6501000","淡水區"
"220064","AAC-253","2018/12/18 21:49:23","新北市板橋區華東街1-10號","121.44837","24.99494","6500100","板橋區"
