"lineid","car","time","location","longitude","latitude","cityid","cityname"
"248005","653-BX","2018/07/05 07:09:39","新北市五股區成泰路一段98巷5號","121.436601666667","25.0727716666667","6501500","五股區"
"232001","290-BY","2018/07/05 07:09:39","新北市坪林區桶盤嶼9號","121.708091666667","24.9579516666667","6502000","坪林區"
"232014","291-BY","2018/07/05 07:09:34","新北市坪林區金瓜寮3-1號","121.680883333333","24.918225","6502000","坪林區"
"232010","375-UM","2018/07/05 07:09:25","新北市坪林區水聳淒坑7-8號","121.72494","24.927265","6502000","坪林區"
"232018","705-BZ","2018/07/05 07:09:25","新北市坪林區九芎坑5號","121.733343333333","24.9607383333333","6502000","坪林區"
"232007","758-BX","2018/07/05 07:09:34","新北市坪林區魚堀52-1號","121.704755","24.9315366666667","6502000","坪林區"
"244003","248-BX","2018/07/05 07:09:24","新北市林口區文化北路一段425號","121.366605","25.0785666666667","6501700","林口區"
"235001","611-BX","2018/07/05 07:09:32","新北市中和區圓通路367巷6號","121.491453333333","24.9892816666667","6500300","中和區"
"226005","5620-A6","2018/07/05 07:09:35","新北市平溪區菁桐里菁桐街2號","121.727586666667","25.0241883333333","6502400","平溪區"
"226007","7418-A5","2018/07/05 07:09:42","新北市平溪區石底里石筍尖3號","121.73655","25.0257583333333","6502400","平溪區"
"226003","AGD-0702","2018/07/05 07:09:35","新北市平溪區嶺腳里嶺腳寮9-1號","121.747566666667","25.02969","6502400","平溪區"
"223006","022-BY","2018/07/05 07:09:26","新北市石碇區新興坑21-1號","121.651401666667","25.0220333333333","6501900","石碇區"
"223002","KEA-2673","2018/07/05 07:09:30","新北市石碇區碇格路二段5號","121.647236666667","24.9573666666667","6501900","石碇區"
"223003","205-TH","2018/07/05 07:09:36","新北市石碇區溪邊寮1-6號","121.658551666667","24.9784483333333","6501900","石碇區"
"223008","406-TH","2018/07/05 07:09:42","新北市石碇區番子坑24-2號","121.675648333333","25.0046533333333","6501900","石碇區"
"223001","592-UM","2018/07/05 07:09:34","新北市石碇區溪邊寮1-3號","121.658088333333","24.9775466666667","6501900","石碇區"
"223004","660-BX","2018/07/05 07:09:24","新北市石碇區碇坪路一段10號","121.651611666667","25.00597","6501900","石碇區"
"223007","661-BX","2018/07/05 07:09:21","新北市石碇區番子坑14-2號","121.679671666667","25.0016316666667","6501900","石碇區"
"223005","677-TV","2018/07/05 07:09:36","新北市石碇區碇坪路一段18號","121.65172","25.0058316666667","6501900","石碇區"
"227007","282-VK","2018/07/05 07:09:36","新北市雙溪區新基里自強路5號","121.866318333333","25.03904","6502500","雙溪區"
"252005","073-UM","2018/07/05 07:09:29","新北市三芝區中山路二段50號","121.50313","25.25433","6502100","三芝區"
"252004","249-BX","2018/07/05 07:09:36","新北市三芝區錫板里小坑子20號","121.501188333333","25.2353983333333","6502100","三芝區"
"252007","AAC-283","2018/07/05 07:09:27","新北市三芝區錫板里小坑子1號","121.491388333333","25.249425","6502100","三芝區"
"236009","165-UM","2018/07/05 07:09:32","新北市土城區永安街1號","121.43468","24.965375","6501300","土城區"
"236003","339-SR","2018/07/05 07:09:37","新北市土城區和平路53號","121.443768333333","24.9715683333333","6501300","土城區"
"242016","175-VK","2018/07/05 07:09:35","新北市新莊區三和路12-21號","121.442105","25.038635","6500500","新莊區"
