"lineid","car","time","location","longitude","latitude","cityid","cityname"
"248005","653-BX","2018/02/01 07:09:43","新北市五股區成泰路一段105號","121.435701666667","25.0712833333333","6501500","五股區"
"232001","290-BY","2018/02/01 07:09:40","新北市坪林區桶盤嶼8-2號","121.707165","24.9574483333333","6502000","坪林區"
"232014","291-BY","2018/02/01 07:09:30","新北市坪林區金瓜寮3-2號","121.681045","24.9185483333333","6502000","坪林區"
"232010","375-UM","2018/02/01 07:09:29","新北市坪林區水聳淒坑14號","121.723576666667","24.927655","6502000","坪林區"
"232018","705-BZ","2018/02/01 07:09:38","新北市坪林區九芎坑3-2號","121.73084","24.9622983333333","6502000","坪林區"
"232007","758-BX","2018/02/01 07:09:31","新北市坪林區魚堀52號","121.705198333333","24.9308183333333","6502000","坪林區"
"244002","248-BX","2018/02/01 07:09:30","新北市林口區頭湖83-2號","121.369536666667","25.082735","6501700","林口區"
"222006","289-BY","2018/02/01 07:09:33","新北市深坑區萬福路83號","121.601755","25.0097583333333","6501800","深坑區"
"235008","293-VK","2018/02/01 07:09:34","新北市中和區和平街29-1號","121.507506666667","24.991045","6500300","中和區"
"235001","611-BX","2018/02/01 07:09:37","新北市中和區圓通路367巷4號","121.491406666667","24.9892283333333","6500300","中和區"
"226005","5620-A6","2018/02/01 07:09:30","新北市平溪區菁桐里菁桐街127號","121.724056666667","25.0238283333333","6502400","平溪區"
"226003","AGD-0702","2018/02/01 07:09:30","新北市平溪區菁桐里菁桐街129號","121.724006666667","25.0238233333333","6502400","平溪區"
"223006","022-BY","2018/02/01 07:09:43","新北市石碇區新興坑28-2號","121.651775","25.0147033333333","6501900","石碇區"
"223001","205-TH","2018/02/01 07:09:47","新北市石碇區烏塗窟23號","121.657073333333","24.975095","6501900","石碇區"
"223001","437-BY","2018/02/01 07:09:35","新北市石碇區烏塗窟16-2號","121.656396666667","24.9753666666667","6501900","石碇區"
"223007","592-UM","2018/02/01 07:09:38","新北市石碇區十八重溪45號","121.675553333333","25.01251","6501900","石碇區"
"223004","660-BX","2018/02/01 07:09:35","新北市石碇區碇坪路一段10號","121.651618333333","25.006035","6501900","石碇區"
"223005","677-TV","2018/02/01 07:09:38","新北市石碇區碇坪路一段18號","121.651681666667","25.00584","6501900","石碇區"
"227007","282-VK","2018/02/01 07:09:27","新北市雙溪區新基里自強路5號","121.866291666667","25.0391116666667","6502500","雙溪區"
"252004","249-BX","2018/02/01 07:09:36","新北市三芝區錫板里小坑子11-1號","121.503245","25.237795","6502100","三芝區"
"252007","AAC-283","2018/02/01 07:09:29","新北市三芝區福德里埔尾1-2號","121.499503333333","25.2485783333333","6502100","三芝區"
"236009","165-UM","2018/02/01 07:09:44","新北市土城區中華路二段165號","121.438793333333","24.9755216666667","6501300","土城區"
"236003","339-SR","2018/02/01 07:09:40","新北市土城區永平街51號","121.427658333333","24.9591633333333","6501300","土城區"
"220064","282-UM","2018/02/01 07:09:46","新北市板橋區國光路51號","121.45809","25.0180233333333","6500100","板橋區"
