"lineid","car","time","location","longitude","latitude","cityid","cityname"
"248005","653-BX","2018/02/01 07:19:43","新北市五股區明德路12巷6號","121.43337","25.0718283333333","6501500","五股區"
"232001","290-BY","2018/02/01 07:19:40","新北市坪林區桶盤嶼8-2號","121.70633","24.957105","6502000","坪林區"
"232014","291-BY","2018/02/01 07:19:30","新北市坪林區金瓜寮15號","121.682581666667","24.9173683333333","6502000","坪林區"
"232010","375-UM","2018/02/01 07:19:29","新北市坪林區水聳淒坑10號","121.724455","24.9286016666667","6502000","坪林區"
"232018","705-BZ","2018/02/01 07:19:38","新北市坪林區樟空子3-2號","121.725941666667","24.9677783333333","6502000","坪林區"
"232007","758-BX","2018/02/01 07:19:31","新北市坪林區魚堀39-2號","121.699728333333","24.93196","6502000","坪林區"
"244002","248-BX","2018/02/01 07:19:31","新北市林口區南勢里6鄰72-99號","121.355","25.0777183333333","6501700","林口區"
"222006","289-BY","2018/02/01 07:13:35","新北市深坑區萬福路52號","121.605378333333","25.0135366666667","6501800","深坑區"
"235008","293-VK","2018/02/01 07:19:34","新北市中和區和平街90號","121.507385","24.9911583333333","6500300","中和區"
"235001","611-BX","2018/02/01 07:19:37","新北市中和區圓通路367巷6號","121.491401666667","24.989215","6500300","中和區"
"226005","5620-A6","2018/02/01 07:18:30","新北市平溪區薯榔里雙菁路1號","121.720485","25.025475","6502400","平溪區"
"226003","AGD-0702","2018/02/01 07:19:30","新北市平溪區白石里中埔227-1號","121.721935","25.020945","6502400","平溪區"
"223006","022-BY","2018/02/01 07:19:43","新北市石碇區靜安路一段194號","121.672223333333","25.0064383333333","6501900","石碇區"
"223001","205-TH","2018/02/01 07:12:40","新北市石碇區烏塗窟8號","121.655841666667","24.9750983333333","6501900","石碇區"
"223008","406-TH","2018/02/01 07:19:33","新北市石碇區番子坑22-5號","121.677048333333","24.9999083333333","6501900","石碇區"
"223001","437-BY","2018/02/01 07:19:35","新北市石碇區烏塗窟3號","121.654506666667","24.9761566666667","6501900","石碇區"
"223007","592-UM","2018/02/01 07:19:38","新北市石碇區番子坑14-2號","121.6798","25.001785","6501900","石碇區"
"223004","660-BX","2018/02/01 07:19:35","新北市石碇區新興坑1號","121.654541666667","25.0159616666667","6501900","石碇區"
"223005","677-TV","2018/02/01 07:19:38","新北市石碇區新興坑26號","121.650108333333","25.0139283333333","6501900","石碇區"
"227007","282-VK","2018/02/01 07:19:47","新北市雙溪區新基里自強路5號","121.866316666667","25.0390783333333","6502500","雙溪區"
"252004","249-BX","2018/02/01 07:19:36","新北市三芝區福德里大湖10號","121.504593333333","25.22354","6502100","三芝區"
"252007","AAC-283","2018/02/01 07:19:29","新北市三芝區錫板里小坑子1號","121.492213333333","25.2474933333333","6502100","三芝區"
"236009","165-UM","2018/02/01 07:19:43","新北市土城區中央路一段31號","121.448296666667","24.9907516666667","6501300","土城區"
"236003","339-SR","2018/02/01 07:19:40","新北市土城區和平路91巷1-5號","121.44822","24.971825","6501300","土城區"
"242024","615-BX","2018/02/01 07:19:44","新北市新莊區新泰路255巷83號","121.442321666667","25.0388116666667","6500500","新莊區"
"242039","566-BX","2018/02/01 07:19:46","新北市新莊區三和路12-21號","121.441901666667","25.038855","6500500","新莊區"
"242059","362-BY","2018/02/01 07:19:40","新北市新莊區三和路12-21號","121.442175","25.038405","6500500","新莊區"
"242010","351-TH","2018/02/01 07:19:32","新北市新莊區新泰路357巷3弄57號","121.44198","25.0395183333333","6500500","新莊區"
"220064","282-UM","2018/02/01 07:17:25","新北市板橋區國光路49巷2號","121.458115","25.0180333333333","6500100","板橋區"
