"lineid","car","time","location","longitude","latitude","cityid","cityname"
"248005","653-BX","2018/02/01 07:29:43","新北市五股區明德路12巷6號","121.433483333333","25.071825","6501500","五股區"
"232001","290-BY","2018/02/01 07:29:40","新北市坪林區上坑子口5號","121.699551666667","24.9597716666667","6502000","坪林區"
"232014","291-BY","2018/02/01 07:29:30","新北市坪林區金瓜寮24-3號","121.678405","24.9087466666667","6502000","坪林區"
"232010","375-UM","2018/02/01 07:29:49","新北市坪林區苦苓腳2號","121.714056666667","24.9363483333333","6502000","坪林區"
"232018","705-BZ","2018/02/01 07:29:38","新北市坪林區大舌湖13-4號","121.731366666667","24.9675116666667","6502000","坪林區"
"232007","758-BX","2018/02/01 07:29:31","新北市坪林區魚堀37-17號","121.699161666667","24.9265716666667","6502000","坪林區"
"244002","248-BX","2018/02/01 07:29:30","新北市林口區頂福里71-69號","121.354373333333","25.0814133333333","6501700","林口區"
"244010","656-BX","2018/02/01 07:29:31","新北市林口區粉寮路二段160巷28號","121.405131666667","25.0907016666667","6501700","林口區"
"222006","289-BY","2018/02/01 07:13:35","新北市深坑區萬福路52號","121.605378333333","25.0135366666667","6501800","深坑區"
"235008","293-VK","2018/02/01 07:29:34","新北市中和區和平街90號","121.507385","24.9911883333333","6500300","中和區"
"235001","611-BX","2018/02/01 07:29:37","新北市中和區圓通路367巷4號","121.491333333333","24.989265","6500300","中和區"
"226005","5620-A6","2018/02/01 07:29:30","新北市平溪區嶺腳里中華街28號","121.739333333333","25.0254533333333","6502400","平溪區"
"226003","AGD-0702","2018/02/01 07:29:30","新北市平溪區平溪里平溪街22號","121.738788333333","25.0253733333333","6502400","平溪區"
"223006","022-BY","2018/02/01 07:29:43","新北市石碇區蚯蚓坑11-10號","121.69034","25.0061833333333","6501900","石碇區"
"223001","205-TH","2018/02/01 07:29:32","新北市石碇區中楒子腳2-5號","121.637543333333","24.97252","6501900","石碇區"
"223008","406-TH","2018/02/01 07:29:33","新北市石碇區靜安路一段337號","121.698983333333","25.0147216666667","6501900","石碇區"
"223001","437-BY","2018/02/01 07:29:35","新北市石碇區中楒子腳5號","121.637698333333","24.972435","6501900","石碇區"
"223007","592-UM","2018/02/01 07:29:38","新北市石碇區蚯蚓坑19-7號","121.691946666667","25.00374","6501900","石碇區"
"223004","660-BX","2018/02/01 07:29:35","新北市石碇區八分寮56號","121.644371666667","25.0177383333333","6501900","石碇區"
"223005","677-TV","2018/02/01 07:29:38","新北市石碇區新興坑36號","121.648591666667","25.019655","6501900","石碇區"
"227007","282-VK","2018/02/01 07:29:27","新北市雙溪區新基里自強路11號","121.865565","25.0392766666667","6502500","雙溪區"
"252004","249-BX","2018/02/01 07:29:36","新北市三芝區興華里楓子林55-1號","121.5006","25.2140333333333","6502100","三芝區"
"252007","AAC-283","2018/02/01 07:29:29","新北市三芝區錫板里海尾14-8號","121.477343333333","25.25876","6502100","三芝區"
"237001","159-UY","2018/02/01 07:29:37","新北市三峽區隆恩街245號","121.357796666667","24.9408633333333","6500900","三峽區"
"236009","165-UM","2018/02/01 07:29:43","新北市土城區永豐路13巷5弄5號","121.461278333333","24.989275","6501300","土城區"
"236003","339-SR","2018/02/01 07:29:40","新北市土城區和平路108-6號","121.44738","24.9632033333333","6501300","土城區"
"242024","615-BX","2018/02/01 07:29:44","新北市新莊區新泰路255巷83號","121.44232","25.0388016666667","6500500","新莊區"
"242039","566-BX","2018/02/01 07:29:46","新北市新莊區三和路12-21號","121.441863333333","25.03865","6500500","新莊區"
"242040","400-BY","2018/02/01 07:29:35","新北市新莊區新泰路357巷3弄57號","121.442321666667","25.0395866666667","6500500","新莊區"
"242059","362-BY","2018/02/01 07:29:40","新北市新莊區三和路12-21號","121.442211666667","25.0386533333333","6500500","新莊區"
"242057","353-BY","2018/02/01 07:29:41","新北市新莊區新泰路255巷83號","121.442206666667","25.038765","6500500","新莊區"
"242035","133-UY","2018/02/01 07:29:48","新北市新莊區三和路12-21號","121.44203","25.03866","6500500","新莊區"
"242001","176-VK","2018/02/01 07:29:32","新北市新莊區三和路12-21號","121.44189","25.0384616666667","6500500","新莊區"
"242018","348-TH","2018/02/01 07:29:28","新北市新莊區新泰路357巷3弄57號","121.44207","25.03951","6500500","新莊區"
"242010","351-TH","2018/02/01 07:29:32","新北市新莊區新泰路357巷3弄57號","121.442005","25.0394883333333","6500500","新莊區"
"220064","282-UM","2018/02/01 07:29:33","新北市板橋區國光路51號","121.45812","25.0179883333333","6500100","板橋區"
"242047","281-VK","2018/02/01 07:29:29","新北市新莊區三和路12-16號","121.442115","25.0374566666667","6500500","新莊區"
