"lineid","car","time","location","longitude","latitude","cityid","cityname"
"248005","653-BX","2018/02/01 09:59:43","新北市五股區蓬萊路6巷41號","121.435835","25.0801616666667","6501500","五股區"
"244012","069-UM","2018/02/01 09:59:33","新北市林口區文化一路一段126號","121.375645","25.0724166666667","6501700","林口區"
"244018","402-UM","2018/02/01 09:59:27","新北市林口區麗園二街15號","121.379188333333","25.0696316666667","6501700","林口區"
"244008","410-SL","2018/02/01 09:59:29","新北市林口區佳林路43號","121.386356666667","25.0817033333333","6501700","林口區"
"244022","483-VK","2018/02/01 09:59:33","新北市林口區文林六街27巷13號","121.370801666667","25.0811783333333","6501700","林口區"
"244010","656-BX","2018/02/01 09:59:09","新北市林口區瑞平里52-3號","121.341598333333","25.1257583333333","6501700","林口區"
"222006","289-BY","2018/02/01 09:59:28","新北市深坑區王軍寮1-3號","121.620746666667","24.9857866666667","6501800","深坑區"
"231069","189-VK","2018/02/01 09:59:33","新北市新店區新潭路三段215巷25號","121.508128333333","24.9041616666667","6500600","新店區"
"231008","192-VK","2018/02/01 09:52:26","新北市新店區平廣路一段256號","121.507833333333","24.88823","6500600","新店區"
"223001","205-TH","2018/02/01 09:59:32","新北市石碇區楓子林1-2號","121.642551666667","25.0086083333333","6501900","石碇區"
"223007","592-UM","2018/02/01 09:59:38","新北市石碇區小粗坑(潭邊里)14-6號","121.680598333333","24.9828483333333","6501900","石碇區"
"252004","249-BX","2018/02/01 09:55:36","新北市三芝區圓山里石曹子坑64-28號","121.524431666667","25.210655","6502100","三芝區"
"252007","AAC-283","2018/02/01 09:59:29","新北市三芝區新庄里新庄子51-57號","121.507556666667","25.2782","6502100","三芝區"
"237001","159-UY","2018/02/01 09:59:31","新北市三峽區大德路491號","121.373975","24.9482533333333","6500900","三峽區"
"236005","498-BY","2018/02/01 09:59:27","新北市土城區中華路二段80號","121.438643333333","24.9757416666667","6501300","土城區"
"242030","AAC-296","2018/02/01 09:59:43","新北市新莊區中正路545號","121.435303333333","25.0327616666667","6500500","新莊區"
"242022","613-BX","2018/02/01 09:59:30","新北市新莊區新泰路255巷83號","121.442405","25.0392733333333","6500500","新莊區"
"220089","146-RM","2018/02/01 09:59:42","新北市板橋區民生路二段36-1號","121.472513333333","25.0168116666667","6500100","板橋區"
