"lineid","car","time","location","longitude","latitude","cityid","cityname"
"234044","148-BY","2018/02/01 12:39:43","新北市永和區永元路68號","121.52255","25.0015866666667","6500400","永和區"
"234066","149-BY","2018/02/01 12:39:44","新北市永和區福和路1號","121.526253333333","25.0096083333333","6500400","永和區"
"234005","207-UY","2018/02/01 12:39:38","新北市永和區環河西路一段95巷4弄1號","121.511511666667","25.017845","6500400","永和區"
"234078","298-R6","2018/02/01 12:39:29","新北市永和區林森路81號","121.523921666667","25.003835","6500400","永和區"
"234036","336-UY","2018/02/01 12:39:40","新北市永和區福和路1號","121.526563333333","25.010135","6500400","永和區"
"234084","338-UY","2018/02/01 12:39:45","新北市中和區景新街273巷32號","121.510721666667","24.9941233333333","6500400","永和區"
"234068","552-UM","2018/02/01 12:39:31","新北市永和區福和路1號","121.525678333333","25.0093816666667","6500400","永和區"
"234015","745-BX","2018/02/01 12:39:32","新北市永和區福和路1號","121.526241666667","25.0096333333333","6500400","永和區"
"234028","746-BX","2018/02/01 12:39:35","新北市永和區得和路328號","121.523408333333","24.9995133333333","6500400","永和區"
"234012","KEA-2591","2018/02/01 12:39:33","新北市永和區保福路二段109巷2號","121.510181666667","25.0133783333333","6500400","永和區"
"234040","862-TW","2018/02/01 12:39:36","新北市永和區永貞路267號","121.511821666667","25.0048","6500400","永和區"
"234048","863-TW","2018/02/01 12:39:32","新北市永和區福和路1號","121.526665","25.0095333333333","6500400","永和區"
"234025","9371-KE","2018/02/01 12:39:42","新北市永和區福和路1號","121.525671666667","25.0094366666667","6500400","永和區"
"248005","077-UY","2018/02/01 12:39:45","新北市五股區中興路二段37巷28號","121.460118333333","25.0749383333333","6501500","五股區"
"234022","9380-KE","2018/02/01 12:39:46","新北市永和區永利路69號","121.51976","25.0049616666667","6500400","永和區"
"234076","969-R7","2018/02/01 12:39:35","新北市永和區中正路226號","121.516","24.9978566666667","6500400","永和區"
"234072","AAC-211","2018/02/01 12:39:46","新北市永和區福和路1號","121.526131666667","25.009545","6500400","永和區"
"234001","AAC-295","2018/02/01 12:39:35","新北市永和區福和路1號","121.526561666667","25.0100666666667","6500400","永和區"
"243003","297-R6","2018/02/01 12:28:16","新北市泰山區黎明路25號","121.421878333333","25.060915","6501600","泰山區"
"243007","380-SR","2018/02/01 12:11:37","新北市泰山區犁頭窠3-1號","121.422065","25.060395","6501600","泰山區"
"243001","KEA-2216","2018/02/01 12:36:20","新北市泰山區黎明路25號","121.421948333333","25.0608233333333","6501600","泰山區"
"231029","106-UY","2018/02/01 12:39:42","新北市新店區安華路28-1號","121.519821666667","24.9608183333333","6500600","新店區"
"231013","110-UY","2018/02/01 12:39:29","新北市新店區安華路28-1號","121.51983","24.9614","6500600","新店區"
"231023","AAD-862","2018/02/01 12:39:33","新北市新店區安華路28-1號","121.519758333333","24.96095","6500600","新店區"
"231037","AKT-0513","2018/02/01 12:39:42","新北市新店區安華路28-1號","121.519241666667","24.9607666666667","6500600","新店區"
"235013","031-BX","2018/02/01 12:39:34","新北市中和區員山路36巷13號","121.484196666667","24.9908383333333","6500300","中和區"
"235031","255-BX","2018/02/01 12:39:37","新北市中和區新生街41號","121.483303333333","25.00328","6500300","中和區"
"235001","611-BX","2018/02/01 12:39:40","新北市中和區員山路481號","121.47999","25.0053733333333","6500300","中和區"
"228005","097-TW","2018/02/01 12:39:42","新北市貢寮區福連里蓬萊街14號","121.995103333333","25.0031083333333","6502600","貢寮區"
"228004","212-TW","2018/02/01 12:39:41","新北市貢寮區吉林里枋腳街6-2號","121.887691666667","25.0063266666667","6502600","貢寮區"
"227010","400-TW","2018/02/01 12:25:30","新北市雙溪區三貂里政光路3-1號","121.85087","25.0630816666667","6502500","雙溪區"
"207002","749-BX","2018/02/01 12:39:42","新北市萬里區雙興里太和路7-2號","121.658575","25.1739583333333","6502800","萬里區"
"221036","130-UY","2018/02/01 12:39:35","新北市汐止區汐萬路一段256巷1號","121.651821666667","25.074805","6501100","汐止區"
"221032","280-BY","2018/02/01 12:39:39","新北市汐止區汐萬路一段256巷1號","121.652","25.0748416666667","6501100","汐止區"
