"lineid","car","time","location","longitude","latitude","cityid","cityname"
"234044","148-BY","2018/02/01 12:59:39","新北市永和區得和路373巷14號","121.525163333333","25.0002133333333","6500400","永和區"
"234066","149-BY","2018/02/01 12:59:44","新北市永和區中和路625號","121.512961666667","25.0048783333333","6500400","永和區"
"234005","207-UY","2018/02/01 12:59:38","新北市永和區中山路一段31號","121.513256666667","25.0104983333333","6500400","永和區"
"234078","298-R6","2018/02/01 12:59:46","新北市永和區永亨路79號","121.521713333333","25.00576","6500400","永和區"
"234036","336-UY","2018/02/01 12:59:40","新北市中和區秀朗路三段38號","121.526513333333","24.995945","6500400","永和區"
"234062","337-UY","2018/02/01 12:59:31","新北市永和區秀朗路一段150巷1弄3號","121.518436666667","25.0030666666667","6500400","永和區"
"234084","338-UY","2018/02/01 12:59:44","新北市永和區永寧街127號","121.518003333333","25.0056283333333","6500400","永和區"
"234068","552-UM","2018/02/01 12:59:31","新北市永和區中興街84巷8號","121.518503333333","25.0116433333333","6500400","永和區"
"234015","745-BX","2018/02/01 12:59:32","新北市永和區永和路二段299號","121.516125","25.01626","6500400","永和區"
"234028","746-BX","2018/02/01 12:59:35","新北市永和區四維街71號","121.525456666667","24.99796","6500400","永和區"
"234052","KEA-2590","2018/02/01 12:59:28","新北市永和區竹林路66巷2號","121.518378333333","25.0133466666667","6500400","永和區"
"234012","KEA-2591","2018/02/01 12:59:33","新北市永和區信義路17巷5號","121.51401","25.011735","6500400","永和區"
"234060","AAD-866","2018/02/01 12:59:28","新北市永和區福和路309巷1號","121.516416666667","25.00702","6500400","永和區"
"234040","862-TW","2018/02/01 12:59:49","新北市永和區永貞路320號","121.511661666667","25.004985","6500400","永和區"
"234048","863-TW","2018/02/01 12:59:32","新北市永和區文化路147號","121.510766666667","25.01617","6500400","永和區"
"234025","9371-KE","2018/02/01 12:59:45","新北市永和區永和路一段64號","121.513021666667","25.00592","6500400","永和區"
"234010","9373-KE","2018/02/01 12:59:48","新北市永和區文化路9巷22弄46號","121.514093333333","25.0145483333333","6500400","永和區"
"248013","025-BX","2018/02/01 12:59:35","新北市五股區更洲路47號","121.456801666667","25.0791033333333","6501500","五股區"
"248015","026-BX","2018/02/01 12:59:37","新北市五股區中興路二段67-3號","121.460126666667","25.0759033333333","6501500","五股區"
"248005","077-UY","2018/02/01 12:59:44","新北市五股區中興路二段83巷26-6號","121.46003","25.0749416666667","6501500","五股區"
"248007","095-VK","2018/02/01 12:59:31","新北市五股區更洲路10號","121.458356666667","25.0788433333333","6501500","五股區"
"248017","225-UY","2018/02/01 12:59:39","新北市五股區中興路二段83巷26-6號","121.460065","25.0752066666667","6501500","五股區"
"248003","677-BX","2018/02/01 12:59:29","新北市五股區中興路二段37巷28號","121.459736666667","25.0744883333333","6501500","五股區"
"248001","678-BX","2018/02/01 12:58:32","新北市五股區中興路二段83巷26-6號","121.459988333333","25.074945","6501500","五股區"
"234022","9380-KE","2018/02/01 12:59:46","新北市永和區竹林路75巷33弄35號","121.520901666667","25.014495","6500400","永和區"
"234076","969-R7","2018/02/01 12:59:35","新北市永和區民享街3號","121.515075","24.9956066666667","6500400","永和區"
"234072","AAC-211","2018/02/01 12:59:46","新北市永和區環河東路二段98號","121.524116666667","25.0103433333333","6500400","永和區"
"234001","AAC-295","2018/02/01 12:59:35","新北市永和區保福路一段27號","121.512755","25.0086583333333","6500400","永和區"
"243003","297-R6","2018/02/01 12:55:20","新北市泰山區黎明路25號","121.421938333333","25.0612883333333","6501600","泰山區"
"243001","KEA-2216","2018/02/01 12:36:20","新北市泰山區黎明路25號","121.421948333333","25.0608233333333","6501600","泰山區"
"231002","002-UM","2018/02/01 12:59:43","新北市新店區安華路28-1號","121.519731666667","24.9604916666667","6500600","新店區"
"231027","0293-UT","2018/02/01 12:59:37","新北市新店區安華路1-1號","121.519615","24.9603566666667","6500600","新店區"
"231028","046-UY","2018/02/01 12:59:31","新北市新店區安華路28-1號","121.519746666667","24.9606716666667","6500600","新店區"
"231030","047-UY","2018/02/01 12:59:41","新北市新店區安華路28-1號","121.519193333333","24.9609216666667","6500600","新店區"
"231029","106-UY","2018/02/01 12:59:42","新北市新店區安華路28-1號","121.51978","24.9608283333333","6500600","新店區"
"231018","107-UY","2018/02/01 12:59:33","新北市新店區安華路28-1號","121.519365","24.9611616666667","6500600","新店區"
"231013","110-UY","2018/02/01 12:59:49","新北市新店區安華路28-1號","121.519583333333","24.9612533333333","6500600","新店區"
"231021","187-VK","2018/02/01 12:59:42","新北市新店區安華路28-1號","121.519625","24.9611533333333","6500600","新店區"
"231026","256-BX","2018/02/01 12:59:47","新北市新店區安華路28-1號","121.51992","24.9609216666667","6500600","新店區"
"231023","AAD-862","2018/02/01 12:59:33","新北市新店區安華路28-1號","121.51994","24.96121","6500600","新店區"
"231034","645-TV","2018/02/01 12:59:45","新北市新店區安華路28-1號","121.519241666667","24.9605816666667","6500600","新店區"
"231031","720-UM","2018/02/01 12:59:45","新北市新店區安華路28-1號","121.519265","24.961165","6500600","新店區"
"231005","897-TW","2018/02/01 12:59:47","新北市新店區安華路28-1號","121.5194","24.9607416666667","6500600","新店區"
"231004","899-TW","2018/02/01 12:59:40","新北市新店區安華路28-1號","121.519238333333","24.9608133333333","6500600","新店區"
"231037","AKT-0513","2018/02/01 12:59:42","新北市新店區安華路28-1號","121.519455","24.9606733333333","6500600","新店區"
"235030","003-UY","2018/02/01 12:59:39","新北市中和區中正路637巷52弄1號","121.485431666667","24.993565","6500300","中和區"
"235028","005-UY","2018/02/01 12:59:35","新北市中和區員山路36巷16-3號","121.484953333333","24.9909833333333","6500300","中和區"
"235013","031-BX","2018/02/01 12:57:04","新北市中和區員山路36巷13號","121.484198333333","24.9907466666667","6500300","中和區"
"235029","098-UM","2018/02/01 12:59:43","新北市中和區連城路301號","121.489831666667","24.99618","6500300","中和區"
"235022","151-BY","2018/02/01 12:59:41","新北市中和區中正路395號","121.489345","24.993515","6500300","中和區"
"235002","185-VK","2018/02/01 12:59:32","新北市中和區立人街1號","121.521883333333","24.9940133333333","6500300","中和區"
"235031","255-BX","2018/02/01 12:59:37","新北市中和區中正路877巷2-2號","121.484256666667","25.0040466666667","6500300","中和區"
"235036","301-VK","2018/02/01 12:59:30","新北市中和區員山路36巷13號","121.48401","24.9910683333333","6500300","中和區"
"235035","269-TV","2018/02/01 12:59:31","新北市中和區民樂路78號","121.484426666667","25.0012116666667","6500300","中和區"
"235006","551-UM","2018/02/01 12:59:45","新北市中和區和城路一段271巷1號","121.485436666667","24.9917616666667","6500300","中和區"
"235001","611-BX","2018/02/01 12:59:40","新北市中和區中山路三段136巷49號","121.473301666667","25.0077","6500300","中和區"
"235026","800-TS","2018/02/01 12:59:39","新北市中和區中正路589巷15號","121.485868333333","24.99371","6500300","中和區"
"235005","802-TS","2018/02/01 12:59:47","新北市中和區員山路36巷16-2號","121.485131666667","24.9917266666667","6500300","中和區"
"235016","805-TS","2018/02/01 12:59:44","新北市中和區員山路36巷13號","121.484341666667","24.9914666666667","6500300","中和區"
"235015","157-BY","2018/02/01 12:59:48","新北市中和區中正路395號","121.489645","24.9934983333333","6500300","中和區"
"228005","097-TW","2018/02/01 12:59:42","新北市貢寮區福隆里桂安街18號","121.959355","25.0203333333333","6502600","貢寮區"
"228004","212-TW","2018/02/01 12:59:41","新北市貢寮區吉林里內寮街57號","121.886951666667","24.9873166666667","6502600","貢寮區"
"253001","6251-TK","2018/02/01 12:59:45","新北市石門區中央路6號","121.566448333333","25.2911266666667","6502200","石門區"
"253004","8270-PC","2018/02/01 12:59:40","新北市石門區中央路28號","121.567883333333","25.2921933333333","6502200","石門區"
"208004","AAC-292","2018/02/01 12:59:34","新北市金山區磺港里磺港路308號","121.643966666667","25.2273733333333","6502700","金山區"
"208001","761-BX","2018/02/01 12:59:37","新北市萬里區大鵬里萬里加投108號","121.645545","25.2132966666667","6502700","金山區"
"207002","749-BX","2018/02/01 12:59:42","新北市萬里區雙興里大坪路38-2號","121.62743","25.1711133333333","6502800","萬里區"
"252005","073-UM","2018/02/01 12:59:29","新北市三芝區埔坪里埔頭坑107號","121.504618333333","25.2617266666667","6502100","三芝區"
"207001","662-BX","2018/02/01 12:54:42","新北市萬里區萬里里獅頭路23號","121.693415","25.178225","6502800","萬里區"
"236005","498-BY","2018/02/01 12:59:31","新北市土城區亞洲路30號","121.436153333333","24.9742533333333","6501300","土城區"
"221032","280-BY","2018/02/01 12:59:39","新北市汐止區建成路80號","121.662726666667","25.0731283333333","6501100","汐止區"
