"lineid","car","time","location","longitude","latitude","cityid","cityname"
"234044","148-BY","2018/02/01 13:19:39","新北市永和區得和路373巷1號","121.52466","24.9995933333333","6500400","永和區"
"234066","149-BY","2018/02/01 13:19:45","新北市永和區永平路81巷12號","121.511693333333","25.0079766666667","6500400","永和區"
"234005","207-UY","2018/02/01 13:19:38","新北市中和區中山路二段11號","121.505186666667","25.0055716666667","6500400","永和區"
"234078","298-R6","2018/02/01 13:19:49","新北市永和區福和路7巷9號","121.525508333333","25.0078266666667","6500400","永和區"
"234036","336-UY","2018/02/01 13:19:40","新北市永和區成功路二段121巷11號","121.527366666667","24.9984816666667","6500400","永和區"
"234062","337-UY","2018/02/01 13:19:31","新北市永和區永元路17巷19號","121.521315","25.0008766666667","6500400","永和區"
"234084","338-UY","2018/02/01 13:19:44","新北市永和區永利路4巷2號","121.51747","25.0053833333333","6500400","永和區"
"234068","552-UM","2018/02/01 13:19:31","新北市永和區豫溪街86號","121.51845","25.00995","6500400","永和區"
"234015","745-BX","2018/02/01 13:19:36","新北市永和區文化路144巷31弄1號","121.512386666667","25.0166783333333","6500400","永和區"
"234028","746-BX","2018/02/01 13:19:36","新北市永和區厚德街83號","121.524268333333","24.9987483333333","6500400","永和區"
"234052","KEA-2590","2018/02/01 13:19:48","新北市永和區中興街36號","121.516406666667","25.011725","6500400","永和區"
"234012","KEA-2591","2018/02/01 13:19:42","新北市永和區信義路33號","121.513665","25.0122666666667","6500400","永和區"
"234060","AAD-866","2018/02/01 13:19:28","新北市永和區秀朗路一段175號","121.51698","25.00367","6500400","永和區"
"234040","862-TW","2018/02/01 13:19:37","新北市永和區保平路203巷37號","121.509545","25.0043216666667","6500400","永和區"
"234048","863-TW","2018/02/01 13:19:32","新北市永和區仁愛路132號","121.511056666667","25.0132066666667","6500400","永和區"
"234025","9371-KE","2018/02/01 13:19:42","新北市永和區豫溪街28巷7號","121.515263333333","25.009465","6500400","永和區"
"234010","9373-KE","2018/02/01 13:19:48","新北市永和區文化路90巷32弄9號","121.513518333333","25.0167833333333","6500400","永和區"
"248013","025-BX","2018/02/01 13:19:35","新北市五股區自強路19巷26號","121.434523333333","25.0736433333333","6501500","五股區"
"248015","026-BX","2018/02/01 13:19:37","新北市五股區成泰路三段477巷18號","121.449885","25.0989083333333","6501500","五股區"
"248005","077-UY","2018/02/01 13:19:44","新北市五股區中興路一段181號","121.464296666667","25.0738366666667","6501500","五股區"
"248007","095-VK","2018/02/01 13:19:51","新北市五股區更洲路32巷8弄17號","121.45927","25.079655","6501500","五股區"
"248017","225-UY","2018/02/01 13:19:39","新北市五股區御史路195-3號","121.436028333333","25.09771","6501500","五股區"
"248011","247-BX","2018/02/01 13:19:39","新北市五股區御史路1巷75號","121.441181666667","25.0904616666667","6501500","五股區"
"248009","272-BY","2018/02/01 13:19:40","新北市五股區成泰路一段139巷2弄4號","121.4351","25.0730266666667","6501500","五股區"
"248003","677-BX","2018/02/01 13:19:29","新北市五股區成泰路二段238號","121.43996","25.0869466666667","6501500","五股區"
"248001","678-BX","2018/02/01 13:19:32","新北市五股區西雲路66號","121.443635","25.091595","6501500","五股區"
"234022","9380-KE","2018/02/01 13:19:46","新北市永和區竹林路115號","121.5199","25.0116","6500400","永和區"
"234076","969-R7","2018/02/01 13:19:35","新北市永和區民有街25巷2號","121.517278333333","24.996065","6500400","永和區"
"234072","AAC-211","2018/02/01 13:19:46","新北市永和區復興街91號","121.517761666667","25.01424","6500400","永和區"
"234001","AAC-295","2018/02/01 13:19:35","新北市永和區中山路一段106號","121.511033333333","25.0104283333333","6500400","永和區"
"243004","AAD-798","2018/02/01 13:11:04","新北市泰山區黎明路25號","121.422018333333","25.0607866666667","6501600","泰山區"
"243003","297-R6","2018/02/01 12:55:20","新北市泰山區黎明路25號","121.421938333333","25.0612883333333","6501600","泰山區"
"243005","646-TV","2018/02/01 13:19:50","新北市泰山區南泰路4巷5弄8號","121.416941666667","25.0392933333333","6501600","泰山區"
"231002","002-UM","2018/02/01 13:19:43","新北市新店區安華路28-1號","121.519545","24.9608716666667","6500600","新店區"
"231025","0291-UT","2018/02/01 13:19:40","新北市新店區中央路173號","121.534278333333","24.970045","6500600","新店區"
"231027","0293-UT","2018/02/01 13:19:37","新北市新店區安康路一段17號","121.533118333333","24.96039","6500600","新店區"
"231028","046-UY","2018/02/01 13:19:31","新北市新店區安華路28-1號","121.519453333333","24.961075","6500600","新店區"
"231030","047-UY","2018/02/01 13:19:41","新北市新店區安華路28-1號","121.519173333333","24.9609233333333","6500600","新店區"
"231029","106-UY","2018/02/01 13:19:42","新北市新店區安華路28-1號","121.519761666667","24.9608883333333","6500600","新店區"
"231018","107-UY","2018/02/01 13:19:33","新北市新店區中央路151號","121.52926","24.9719666666667","6500600","新店區"
"231011","108-UY","2018/02/01 13:19:37","新北市新店區秀山路43號","121.531556666667","24.9608516666667","6500600","新店區"
"231013","110-UY","2018/02/01 13:19:49","新北市新店區安康路一段35號","121.531563333333","24.9608666666667","6500600","新店區"
"231021","187-VK","2018/02/01 13:19:42","新北市新店區北宜路一段2號","121.538026666667","24.95879","6500600","新店區"
"231035","188-VK","2018/02/01 13:19:46","新北市新店區安華路28-1號","121.51975","24.9614666666667","6500600","新店區"
"231014","KEA-2219","2018/02/01 13:19:37","新北市新店區安康路一段299-3號","121.521045","24.9638366666667","6500600","新店區"
"231026","256-BX","2018/02/01 13:19:47","新北市新店區安華路28-1號","121.519906666667","24.9611766666667","6500600","新店區"
"231010","278-BY","2018/02/01 13:19:40","新北市新店區安康路一段17號","121.533168333333","24.960385","6500600","新店區"
"231023","AAD-862","2018/02/01 13:19:33","新北市新店區安華路16號","121.51763","24.9580733333333","6500600","新店區"
"231024","4716-K9","2018/02/01 13:19:41","新北市新店區安康路一段17號","121.533078333333","24.9603816666667","6500600","新店區"
"231038","4715-K9","2018/02/01 13:19:47","新北市新店區安華路1-1號","121.519276666667","24.9604333333333","6500600","新店區"
"231036","512-UM","2018/02/01 13:19:47","新北市新店區安康路二段458號","121.494143333333","24.9540566666667","6500600","新店區"
"231003","616-UM","2018/02/01 13:19:29","新北市新店區安華路8號","121.520083333333","24.9616283333333","6500600","新店區"
"231001","619-UM","2018/02/01 13:19:47","新北市新店區安華路28-1號","121.519488333333","24.9609066666667","6500600","新店區"
"231034","645-TV","2018/02/01 13:19:45","新北市新店區安華路28-1號","121.519185","24.96076","6500600","新店區"
"231031","720-UM","2018/02/01 13:19:45","新北市新店區安忠路205巷8號","121.509401666667","24.9549416666667","6500600","新店區"
"231005","897-TW","2018/02/01 13:19:47","新北市新店區安康路一段94-1號","121.52767","24.9621266666667","6500600","新店區"
"231006","898-TW","2018/02/01 13:19:32","新北市新店區安華路28-1號","121.519241666667","24.961095","6500600","新店區"
"231004","899-TW","2018/02/01 13:19:40","新北市新店區安華路28-1號","121.519003333333","24.9609633333333","6500600","新店區"
"231037","AKT-0513","2018/02/01 13:19:42","新北市新店區安華路28-1號","121.519503333333","24.9605333333333","6500600","新店區"
"235030","003-UY","2018/02/01 13:19:39","新北市中和區中山路二段64巷11號","121.503353333333","25.0055533333333","6500300","中和區"
"235028","005-UY","2018/02/01 13:19:35","新北市中和區中正路152號","121.498835","24.9938616666667","6500300","中和區"
"235013","031-BX","2018/02/01 13:19:31","新北市中和區員山路36巷13號","121.484093333333","24.9908666666667","6500300","中和區"
"235020","096-UM","2018/02/01 13:19:35","新北市中和區和城路一段271巷1號","121.485446666667","24.9919383333333","6500300","中和區"
"235003","097-UM","2018/02/01 13:19:45","新北市中和區安和路63號","121.508568333333","24.99503","6500300","中和區"
"235029","098-UM","2018/02/01 13:19:43","新北市中和區莊敬路49巷20弄24號","121.502806666667","25.0058266666667","6500300","中和區"
"235004","150-BY","2018/02/01 13:19:36","新北市中和區景安路72號","121.505635","24.9966216666667","6500300","中和區"
"235022","151-BY","2018/02/01 13:19:41","新北市中和區圓通路395號","121.489623333333","24.9891683333333","6500300","中和區"
"235019","183-VK","2018/02/01 13:19:32","新北市中和區中正路637巷60弄61號","121.485448333333","24.9931116666667","6500300","中和區"
"235002","185-VK","2018/02/01 13:19:32","新北市中和區秀朗路三段128巷3號","121.524415","24.9926266666667","6500300","中和區"
"235031","255-BX","2018/02/01 13:19:37","新北市中和區民樂路65號","121.4837","25.0012733333333","6500300","中和區"
"235036","301-VK","2018/02/01 13:19:30","新北市中和區錦和路107號","121.49015","24.9952166666667","6500300","中和區"
"235007","352-BY","2018/02/01 13:19:35","新北市中和區南山路229巷6號","121.50392","24.993155","6500300","中和區"
"235032","377-QA","2018/02/01 13:08:52","新北市中和區員山路36巷16-3號","121.485253333333","24.9909883333333","6500300","中和區"
"235025","378-QA","2018/02/01 13:19:29","新北市中和區國光街215巷24弄8號","121.466608333333","25.0001183333333","6500300","中和區"
"235035","269-TV","2018/02/01 13:19:31","新北市中和區永和路458巷2弄2號","121.484025","25.012235","6500300","中和區"
"235014","4979-A6","2018/02/01 13:19:37","新北市中和區捷運路61巷28號","121.509093333333","24.9893","6500300","中和區"
"235033","4980-A6","2018/02/01 13:19:48","新北市中和區連城路283號","121.490406666667","24.9964233333333","6500300","中和區"
"235006","551-UM","2018/02/01 13:19:45","新北市中和區景平路256號","121.515455","24.9929216666667","6500300","中和區"
"235009","565-BX","2018/02/01 13:19:46","新北市中和區復興路321號","121.500866666667","24.9902283333333","6500300","中和區"
"235018","640-BX","2018/02/01 13:19:37","新北市中和區民享街86巷21號","121.473385","25.00059","6500300","中和區"
"235024","647-TV","2018/02/01 13:19:41","新北市中和區員山路36巷16-3號","121.484783333333","24.9916266666667","6500300","中和區"
"235011","732-UM","2018/02/01 13:19:47","新北市中和區復興路317號","121.500971666667","24.990245","6500300","中和區"
"235026","800-TS","2018/02/01 13:19:39","新北市中和區景平路999巷1號","121.495448333333","25.0059783333333","6500300","中和區"
"235005","802-TS","2018/02/01 13:19:47","新北市中和區景安路66號","121.505878333333","24.99673","6500300","中和區"
"235016","805-TS","2018/02/01 13:19:44","新北市中和區興南路二段9號","121.507966666667","24.9861433333333","6500300","中和區"
"235012","896-TW","2018/02/01 13:19:47","新北市中和區員山路36巷16-2號","121.484961666667","24.99194","6500300","中和區"
"235017","900-TW","2018/02/01 13:19:39","新北市中和區員山路36巷16-2號","121.484978333333","24.9919516666667","6500300","中和區"
"235027","911-UM","2018/02/01 13:19:31","新北市中和區中正路585號","121.485891666667","24.9945383333333","6500300","中和區"
"235015","157-BY","2018/02/01 13:19:28","新北市中和區忠孝街2-4號","121.509","24.982945","6500300","中和區"
"235023","AAC-215","2018/02/01 13:19:32","新北市中和區員山路36巷16-2號","121.485206666667","24.9914816666667","6500300","中和區"
"220034","073-UY","2018/02/01 13:19:45","新北市板橋區華東街1-10號","121.448241666667","24.9950616666667","6500100","板橋區"
"235021","251-BX","2018/02/01 13:19:33","新北市中和區員山路76號","121.480853333333","24.9938216666667","6500300","中和區"
"228005","097-TW","2018/02/01 13:19:42","新北市貢寮區美豐里丹裡街59-2號","121.911365","25.059225","6502600","貢寮區"
"228004","212-TW","2018/02/01 13:19:41","新北市貢寮區吉林里內寮街23號","121.901823333333","24.9849166666667","6502600","貢寮區"
"253003","6232-TK","2018/02/01 13:19:38","新北市石門區內石門50-1號","121.571911666667","25.2617483333333","6502200","石門區"
"253001","6251-TK","2018/02/01 13:19:45","新北市石門區楓林6-1號","121.53773","25.2960683333333","6502200","石門區"
"253002","637-UY","2018/02/01 13:19:29","新北市石門區大溪墘9-7號","121.552628333333","25.27501","6502200","石門區"
"253004","8270-PC","2018/02/01 13:19:40","新北市石門區阿里荖4-2號","121.613898333333","25.2786783333333","6502200","石門區"
"208004","AAC-292","2018/02/01 13:19:34","新北市金山區南勢湖4號","121.621668333333","25.2193866666667","6502700","金山區"
"208001","761-BX","2018/02/01 13:19:37","基隆市安樂區武訓街92號","121.699106666667","25.1509133333333","6502700","金山區"
"207002","749-BX","2018/02/01 13:19:42","新北市萬里區崁腳里崁腳路166號","121.644935","25.1558916666667","6502800","萬里區"
"252005","073-UM","2018/02/01 13:19:29","新北市三芝區八賢里八連溪88號","121.520471666667","25.2287383333333","6502100","三芝區"
"207001","662-BX","2018/02/01 13:19:30","新北市萬里區龜吼里玉田路29號","121.681348333333","25.1944033333333","6502800","萬里區"
"236005","498-BY","2018/02/01 13:19:31","新北市土城區大安路138巷30號","121.43432","24.971515","6501300","土城區"
"221032","280-BY","2018/02/01 13:19:39","新北市汐止區龍安路28巷14號","121.654768333333","25.0643066666667","6501100","汐止區"
"220010","295-UM","2018/02/01 13:19:47","新北市板橋區民生路二段120號","121.470438333333","25.0195266666667","6500100","板橋區"
"220104","560-BX","2018/02/01 13:19:48","新北市板橋區四川路二段130巷71號","121.449656666667","24.9952983333333","6500100","板橋區"
"220018","AAC-253","2018/02/01 13:19:28","新北市板橋區華東街1-9號","121.448263333333","24.9949066666667","6500100","板橋區"
