"lineid","car","time","location","longitude","latitude","cityid","cityname"
"234044","148-BY","2018/02/01 13:59:39","新北市永和區成功路一段16巷2號","121.526841666667","25.00545","6500400","永和區"
"234066","149-BY","2018/02/01 13:59:46","新北市永和區永貞路368號","121.510038333333","25.00679","6500400","永和區"
"234005","207-UY","2018/02/01 13:59:38","新北市中和區中和路356號","121.510223333333","25.0014616666667","6500400","永和區"
"234078","298-R6","2018/02/01 13:59:34","新北市永和區國中路10號","121.52435","25.0047566666667","6500400","永和區"
"234036","336-UY","2018/02/01 13:59:40","新北市永和區成功路二段141號","121.526761666667","24.9978383333333","6500400","永和區"
"234062","337-UY","2018/02/01 13:59:31","新北市永和區中正路412巷2弄11號","121.518513333333","25.0019333333333","6500400","永和區"
"234084","338-UY","2018/02/01 13:59:50","新北市永和區永利路20號","121.518121666667","25.0058983333333","6500400","永和區"
"234068","552-UM","2018/02/01 13:59:38","新北市永和區國光路14號","121.519105","25.0084116666667","6500400","永和區"
"234015","745-BX","2018/02/01 13:59:39","新北市永和區文化路97號","121.513163333333","25.0151966666667","6500400","永和區"
"234028","746-BX","2018/02/01 13:59:49","新北市永和區民生路67巷56號","121.525485","24.9975366666667","6500400","永和區"
"234052","KEA-2590","2018/02/01 13:59:48","新北市永和區復興街116號","121.517768333333","25.0139016666667","6500400","永和區"
"234012","KEA-2591","2018/02/01 13:59:33","新北市永和區保生路55號","121.5047","25.01064","6500400","永和區"
"234060","AAD-866","2018/02/01 13:59:48","新北市永和區中正路151巷14號","121.515615","24.99881","6500400","永和區"
"234040","862-TW","2018/02/01 13:59:37","新北市永和區雙和街17巷21號","121.508976666667","25.001305","6500400","永和區"
"234048","863-TW","2018/02/01 13:59:33","新北市永和區保安路107號","121.507941666667","25.0140933333333","6500400","永和區"
"234025","9371-KE","2018/02/01 13:59:49","新北市永和區安樂路467號","121.514308333333","25.0054716666667","6500400","永和區"
"234010","9373-KE","2018/02/01 13:59:48","新北市永和區仁愛路310號","121.502756666667","25.0073133333333","6500400","永和區"
"248015","026-BX","2018/02/01 13:59:37","新北市五股區成泰路三段559巷14弄2號","121.451373333333","25.1024066666667","6501500","五股區"
"248007","095-VK","2018/02/01 13:59:31","新北市五股區中興路一段128巷38號","121.465928333333","25.0754566666667","6501500","五股區"
"248017","225-UY","2018/02/01 13:59:39","新北市五股區民義路二段22巷21號","121.421336666667","25.0978283333333","6501500","五股區"
"248011","247-BX","2018/02/01 13:59:39","新北市五股區成泰路二段195巷1號","121.440431666667","25.0874033333333","6501500","五股區"
"248009","272-BY","2018/02/01 13:59:40","新北市五股區水碓一路23號","121.430626666667","25.0712783333333","6501500","五股區"
"248003","677-BX","2018/02/01 13:59:35","新北市五股區民義路二段73號","121.408918333333","25.1057233333333","6501500","五股區"
"248001","678-BX","2018/02/01 13:59:32","新北市五股區凌雲路一段158巷6號","121.448165","25.102805","6501500","五股區"
"234022","9380-KE","2018/02/01 13:59:46","新北市永和區復興街39號","121.516496666667","25.0132466666667","6500400","永和區"
"234076","969-R7","2018/02/01 13:59:35","新北市永和區民治街29號","121.51965","24.9976966666667","6500400","永和區"
"234072","AAC-211","2018/02/01 13:59:46","新北市永和區豫溪街185號","121.522471666667","25.0103483333333","6500400","永和區"
"234001","AAC-295","2018/02/01 13:59:49","新北市永和區福和路316-1號","121.516018333333","25.0073166666667","6500400","永和區"
"243004","AAD-798","2018/02/01 13:59:35","新北市泰山區仁德路114號","121.432826666667","25.05705","6501600","泰山區"
"243003","297-R6","2018/02/01 13:59:44","新北市泰山區明志路二段246-1號","121.427146666667","25.0480533333333","6501600","泰山區"
"243007","380-SR","2018/02/01 13:59:45","新北市泰山區明志路一段222號","121.432571666667","25.0613783333333","6501600","泰山區"
"243006","421-VK","2018/02/01 13:59:38","新北市泰山區黎明路23號","121.420885","25.062605","6501600","泰山區"
"243002","KEA-2215","2018/02/01 13:59:48","新北市泰山區辭修路24號","121.42899","25.0581516666667","6501600","泰山區"
"243001","KEA-2216","2018/02/01 13:59:35","新北市泰山區泰林路二段240號","121.432241666667","25.06209","6501600","泰山區"
"243005","646-TV","2018/02/01 13:59:48","新北市泰山區明志路三段351巷24號","121.422645","25.0347633333333","6501600","泰山區"
"243008","680-BX","2018/02/01 13:59:44","新北市泰山區明志路二段135號","121.427685","25.0507483333333","6501600","泰山區"
"231002","002-UM","2018/02/01 13:59:43","新北市新店區中正路696號","121.533983333333","24.9905116666667","6500600","新店區"
"231025","0291-UT","2018/02/01 13:59:40","新北市新店區中正路275巷45號","121.53666","24.972615","6500600","新店區"
"231027","0293-UT","2018/02/01 13:59:37","新北市新店區中興路一段24號","121.538706666667","24.95831","6500600","新店區"
"231028","046-UY","2018/02/01 13:59:31","新北市新店區安和路三段157號","121.516485","24.98575","6500600","新店區"
"231030","047-UY","2018/02/01 13:59:41","新北市新店區安興路7-1號","121.515023333333","24.9685316666667","6500600","新店區"
"231029","106-UY","2018/02/01 13:59:42","新北市新店區安康路二段3-1號","121.51613","24.963715","6500600","新店區"
"231018","107-UY","2018/02/01 13:59:33","新北市新店區中央路97號","121.531113333333","24.9750983333333","6500600","新店區"
"231011","108-UY","2018/02/01 13:59:38","新北市新店區中興路一段298號","121.546145","24.969475","6500600","新店區"
"231013","110-UY","2018/02/01 13:59:49","新北市新店區明德路113號","121.541488333333","24.9795416666667","6500600","新店區"
"231021","187-VK","2018/02/01 13:59:42","新北市新店區屈尺路75號","121.545531666667","24.9226716666667","6500600","新店區"
"231035","188-VK","2018/02/01 13:59:46","新北市新店區安康路二段85巷17號","121.514416666667","24.9615216666667","6500600","新店區"
"231017","KEA-2219","2018/02/01 13:59:37","新北市新店區郵政路3巷2號","121.557331666667","24.9518566666667","6500600","新店區"
"231026","256-BX","2018/02/01 13:59:47","新北市新店區中央路192號","121.530923333333","24.97474","6500600","新店區"
"231023","AAD-862","2018/02/01 13:59:33","新北市新店區文中路40號","121.539701666667","24.9565966666667","6500600","新店區"
"231024","4716-K9","2018/02/01 13:59:41","新北市新店區北新路一段271巷9號","121.540476666667","24.9667683333333","6500600","新店區"
"231038","4715-K9","2018/02/01 13:59:47","新北市新店區溪洲路121號","121.531166666667","24.9628","6500600","新店區"
"231036","512-UM","2018/02/01 13:59:47","新北市新店區安祥路128號","121.474445","24.9562866666667","6500600","新店區"
"231003","616-UM","2018/02/01 13:59:49","新北市新店區中興路一段34號","121.538618333333","24.95867","6500600","新店區"
"231001","619-UM","2018/02/01 13:59:46","新北市新店區三民路24號","121.53716","24.9710266666667","6500600","新店區"
"231034","645-TV","2018/02/01 13:59:45","新北市新店區達觀路16-7號","121.502148333333","24.9408966666667","6500600","新店區"
"231031","720-UM","2018/02/01 13:59:45","新北市新店區太平路28巷1號","121.533438333333","24.9587583333333","6500600","新店區"
"231005","897-TW","2018/02/01 13:59:47","新北市新店區寶中路51號","121.546595","24.9800383333333","6500600","新店區"
"231006","898-TW","2018/02/01 13:59:52","新北市新店區北宜路二段203號","121.553018333333","24.95341","6500600","新店區"
"231004","899-TW","2018/02/01 13:59:40","新北市新店區北新路二段108號","121.543028333333","24.974165","6500600","新店區"
"231037","AKT-0513","2018/02/01 13:59:42","新北市新店區安康路三段207巷5號","121.488005","24.9509766666667","6500600","新店區"
"235030","003-UY","2018/02/01 13:59:39","新北市中和區中山路二段131巷7號","121.502741666667","25.0026316666667","6500300","中和區"
"235028","005-UY","2018/02/01 13:59:35","新北市中和區連勝街2號","121.499108333333","24.9985916666667","6500300","中和區"
"235013","031-BX","2018/02/01 13:59:31","新北市中和區景安路167巷17號","121.506488333333","24.9949116666667","6500300","中和區"
"235020","096-UM","2018/02/01 13:59:35","新北市中和區中正路1206巷6號","121.480238333333","25.0110233333333","6500300","中和區"
"235003","097-UM","2018/02/01 13:59:45","新北市中和區景平路64巷12號","121.522341666667","24.991285","6500300","中和區"
"235029","098-UM","2018/02/01 13:59:43","新北市中和區勝利路35巷10-4號","121.49899","25.0074166666667","6500300","中和區"
"235004","150-BY","2018/02/01 13:59:36","新北市中和區保健路63號","121.509566666667","24.9972616666667","6500300","中和區"
"235022","151-BY","2018/02/01 13:59:41","新北市中和區連城路526-1號","121.476051666667","24.991545","6500300","中和區"
"235019","183-VK","2018/02/01 13:59:32","新北市板橋區民族路310號","121.470708333333","25.0065083333333","6500300","中和區"
"235002","185-VK","2018/02/01 13:59:32","新北市中和區立人街24-4號","121.518898333333","24.994225","6500300","中和區"
"235031","255-BX","2018/02/01 13:59:37","新北市中和區新生街268號","121.48352","24.9971866666667","6500300","中和區"
"235008","293-VK","2018/02/01 13:59:34","新北市中和區中興街161巷8弄1號","121.501096666667","24.9908966666667","6500300","中和區"
"235036","301-VK","2018/02/01 13:59:30","新北市中和區中山路二段75號","121.503828333333","25.0044883333333","6500300","中和區"
"235007","352-BY","2018/02/01 13:59:35","新北市永和區成功路二段213號","121.526588333333","24.9958383333333","6500300","中和區"
"235032","377-QA","2018/02/01 13:59:32","新北市中和區圓通路162巷2弄7號","121.497003333333","24.9956","6500300","中和區"
"235025","378-QA","2018/02/01 13:58:09","新北市中和區民享街38-3號","121.473756666667","25.00289","6500300","中和區"
"235035","269-TV","2018/02/01 13:59:51","新北市中和區永和路197號","121.490936666667","25.0071066666667","6500300","中和區"
"235014","4979-A6","2018/02/01 13:59:36","新北市中和區華新街50巷6號","121.507685","24.9839533333333","6500300","中和區"
"235033","4980-A6","2018/02/01 13:59:28","新北市中和區南山路52巷13號","121.501478333333","24.9973283333333","6500300","中和區"
"235006","551-UM","2018/02/01 13:59:45","新北市中和區秀朗路三段22巷11號","121.525711666667","24.9962033333333","6500300","中和區"
"235009","565-BX","2018/02/01 13:59:46","新北市中和區景新街467巷20弄7-5號","121.514386666667","24.98782","6500300","中和區"
"235018","640-BX","2018/02/01 13:59:37","新北市中和區民享街4號","121.474053333333","25.0051416666667","6500300","中和區"
"235024","647-TV","2018/02/01 13:59:41","新北市中和區中山路三段170巷152-1號","121.473451666667","25.0063933333333","6500300","中和區"
"235011","732-UM","2018/02/01 13:59:47","新北市中和區興南路二段54巷8號","121.505906666667","24.9856066666667","6500300","中和區"
"235010","733-UM","2018/02/01 13:59:45","新北市中和區興南路一段135巷22弄2號","121.509165","24.986795","6500300","中和區"
"235026","800-TS","2018/02/01 13:59:38","新北市中和區中山路二段340巷50號","121.493166666667","25.004235","6500300","中和區"
"235005","802-TS","2018/02/01 13:59:47","新北市中和區中安街40巷10號","121.512645","25.0029916666667","6500300","中和區"
"235016","805-TS","2018/02/01 13:59:44","新北市中和區興南路二段347號","121.500795","24.9802966666667","6500300","中和區"
"235012","896-TW","2018/02/01 13:59:47","新北市中和區華新街47號","121.507835","24.98454","6500300","中和區"
"235017","900-TW","2018/02/01 13:59:39","新北市中和區壽德街25號","121.466233333333","24.9949583333333","6500300","中和區"
"235027","911-UM","2018/02/01 13:59:31","新北市中和區中正路631號","121.485386666667","24.9950283333333","6500300","中和區"
"235015","157-BY","2018/02/01 13:59:48","新北市中和區忠孝街13號","121.510013333333","24.9827866666667","6500300","中和區"
"235023","AAC-215","2018/02/01 13:59:32","新北市中和區圓通路367巷20弄23號","121.491461666667","24.988345","6500300","中和區"
"220016","013-TV","2018/02/01 13:59:48","新北市板橋區中山路二段465巷37號","121.481223333333","25.0214","6500100","板橋區"
"220013","072-UY","2018/02/01 13:59:46","新北市板橋區漢生東路325號","121.471941666667","25.007845","6500100","板橋區"
"220034","073-UY","2018/02/01 13:59:45","新北市板橋區中正路191號","121.456415","25.017045","6500100","板橋區"
"220105","075-UY","2018/02/01 13:59:45","新北市板橋區莊敬路66號","121.471756666667","25.0254083333333","6500100","板橋區"
"220017","AAD-861","2018/02/01 13:59:48","新北市板橋區華興街59號","121.45745","25.0048766666667","6500100","板橋區"
"220047","120-SR","2018/02/01 13:59:42","新北市板橋區民有街33號","121.465935","25.025445","6500100","板橋區"
"247021","893-R6","2018/02/01 13:59:45","新北市蘆洲區中正路263巷2號","121.467446666667","25.087445","6501400","蘆洲區"
"247009","339-TH","2018/02/01 13:59:44","新北市蘆洲區集賢路226號","121.482283333333","25.0866083333333","6501400","蘆洲區"
"247001","337-TH","2018/02/01 13:59:37","新北市蘆洲區三民路601號","121.460695","25.09358","6501400","蘆洲區"
"247003","336-TH","2018/02/01 13:59:34","新北市蘆洲區長榮路38-8號","121.463016666667","25.082885","6501400","蘆洲區"
"247015","057-VK","2018/02/01 13:59:50","新北市蘆洲區光華路39號","121.468985","25.0830033333333","6501400","蘆洲區"
"247005","056-VK","2018/02/01 13:59:36","新北市蘆洲區永安南路二段32號","121.467146666667","25.0772166666667","6501400","蘆洲區"
"247007","053-VK","2018/02/01 13:59:39","新北市三重區仁愛街743號","121.4813","25.080675","6501400","蘆洲區"
"247013","007-UY","2018/02/01 13:59:40","新北市蘆洲區中正路100號","121.469785","25.0843333333333","6501400","蘆洲區"
"247017","001-UY","2018/02/01 13:59:29","新北市蘆洲區民權路96巷26號","121.475648333333","25.0889116666667","6501400","蘆洲區"
"235021","251-BX","2018/02/01 13:59:33","新北市中和區民利街16-1號","121.48053","24.999145","6500300","中和區"
"228005","097-TW","2018/02/01 13:58:02","新北市貢寮區美豐里雞母嶺街52-1號","121.8886","25.06854","6502600","貢寮區"
"228004","212-TW","2018/02/01 13:59:41","新北市貢寮區龍崗里嵩陽街35-1號","121.906711666667","25.0174966666667","6502600","貢寮區"
"227010","400-TW","2018/02/01 13:59:47","新北市雙溪區三貂里政光路3-1號","121.850905","25.06318","6502500","雙溪區"
"253003","6232-TK","2018/02/01 13:59:38","新北市石門區尖子鹿11號","121.575643333333","25.2801316666667","6502200","石門區"
"253001","6251-TK","2018/02/01 13:59:45","新北市石門區下員坑51號","121.52733","25.2659783333333","6502200","石門區"
"253002","637-UY","2018/02/01 13:59:46","新北市石門區七股33-1號","121.552831666667","25.2612133333333","6502200","石門區"
"253004","8270-PC","2018/02/01 13:59:37","新北市石門區草埔尾31-1號","121.603185","25.2650566666667","6502200","石門區"
"208004","AAC-292","2018/02/01 13:59:34","新北市金山區山城路1巷1號","121.595891666667","25.2006683333333","6502700","金山區"
"208001","761-BX","2018/02/01 13:59:37","新北市新店區薏仁坑路自強巷1號","121.497936666667","24.9576583333333","6502700","金山區"
"207002","749-BX","2018/02/01 13:59:22","新北市萬里區溪底里富士坪路21-5號","121.629683333333","25.14954","6502800","萬里區"
"252005","073-UM","2018/02/01 13:59:49","新北市三芝區橫山里大坑60號","121.535211666667","25.24835","6502100","三芝區"
"207001","662-BX","2018/02/01 13:59:30","新北市萬里區磺潭里清水18號","121.637983333333","25.1976116666667","6502800","萬里區"
"236066","105-UM","2018/02/01 13:59:49","新北市土城區員福街16號","121.44162","24.9785783333333","6501300","土城區"
"236040","107-UM","2018/02/01 13:59:31","新北市土城區城林路6巷80號","121.438426666667","24.9797133333333","6501300","土城區"
"236076","166-UM","2018/02/01 13:59:38","新北市土城區永寧路32巷10弄23號","121.428891666667","24.9610566666667","6501300","土城區"
"236028","253-BX","2018/02/01 13:59:38","新北市土城區城林路6巷80號","121.438435","24.9797783333333","6501300","土城區"
"236024","269-VK","2018/02/01 13:59:45","新北市土城區承天路18號","121.439466666667","24.96357","6501300","土城區"
"236012","270-VK","2018/02/01 13:59:34","新北市土城區城林路6巷80號","121.438501666667","24.979785","6501300","土城區"
"236033","271-VK","2018/02/01 13:59:42","新北市土城區中華路一段301號","121.439976666667","24.97935","6501300","土城區"
"236018","401-BY","2018/02/01 13:59:30","新北市土城區城林路6巷80號","121.438588333333","24.9797533333333","6501300","土城區"
"236005","498-BY","2018/02/01 13:59:30","新北市土城區中央路一段365巷9號","121.444381666667","24.9806783333333","6501300","土城區"
"236056","912-UM","2018/02/01 13:59:43","新北市土城區永寧路1號","121.430543333333","24.9648716666667","6501300","土城區"
"236047","913-UM","2018/02/01 13:59:36","新北市土城區城林路6巷80號","121.438425","24.9798083333333","6501300","土城區"
"236060","915-UM","2018/02/01 13:59:38","新北市土城區學士路123號","121.446806666667","24.9758316666667","6501300","土城區"
"236052","AAC-216","2018/02/01 13:59:47","新北市土城區城林路6巷80號","121.43848","24.97982","6501300","土城區"
"220027","145-BY","2018/02/01 13:59:42","新北市板橋區民權路254號","121.458241666667","25.0149333333333","6500100","板橋區"
"220028","200-UY","2018/02/01 13:59:44","新北市板橋區大觀路二段力行1巷103號","121.445041666667","24.998005","6500100","板橋區"
"220030","610-BX","2018/02/01 13:59:46","新北市板橋區篤行路三段玉平巷45號","121.428561666667","24.9868066666667","6500100","板橋區"
"220052","257-TC","2018/02/01 13:59:47","新北市板橋區介壽街120號","121.469783333333","25.0177066666667","6500100","板橋區"
"220004","276-BY","2018/02/01 13:59:41","新北市板橋區信義路78號","121.457686666667","24.993345","6500100","板橋區"
"220020","277-BY","2018/02/01 13:59:46","新北市樹林區樹新路120巷20號","121.430656666667","24.996925","6500100","板橋區"
"220050","280-UM","2018/02/01 13:59:49","新北市板橋區文化路二段182巷11號","121.471993333333","25.0268016666667","6500100","板橋區"
"220019","283-VK","2018/02/01 13:59:41","新北市板橋區忠孝路136號","121.46356","25.00231","6500100","板橋區"
"220043","285-UM","2018/02/01 13:59:48","新北市板橋區光武街31號","121.467766666667","25.0249833333333","6500100","板橋區"
"220001","285-VK","2018/02/01 13:59:41","新北市板橋區中山路二段92號","121.475296666667","25.0163883333333","6500100","板橋區"
"220031","286-VK","2018/02/01 13:59:47","新北市板橋區大觀路一段38巷170弄1號","121.442001666667","25.0045616666667","6500100","板橋區"
"220029","287-VK","2018/02/01 13:59:44","新北市板橋區南雅西路二段100號","121.452376666667","25.0117283333333","6500100","板橋區"
"220039","288-VK","2018/02/01 13:59:31","新北市板橋區四維路177巷1弄2號","121.46409","25.0262416666667","6500100","板橋區"
"220009","293-UM","2018/02/01 13:59:43","新北市板橋區富山街100號","121.476341666667","25.021915","6500100","板橋區"
"220010","295-UM","2018/02/01 13:59:47","新北市板橋區三民路二段245巷53號","121.480688333333","25.0125983333333","6500100","板橋區"
"220032","296-UM","2018/02/01 13:59:38","新北市板橋區龍興街63巷2號","121.442985","25.0013116666667","6500100","板橋區"
"220023","303-R5","2018/02/01 13:59:46","新北市板橋區南興路22號","121.4549","25.0078433333333","6500100","板橋區"
"220041","307-R5","2018/02/01 13:59:47","新北市板橋區文化路一段90號","121.464383333333","25.0176083333333","6500100","板橋區"
"220012","486-VK","2018/02/01 13:59:42","新北市板橋區漢生東路113巷4-1號","121.467588333333","25.0151883333333","6500100","板橋區"
"220038","487-VK","2018/02/01 13:59:47","新北市板橋區文化路二段315號","121.472216666667","25.0297366666667","6500100","板橋區"
"220037","491-VK","2018/02/01 13:59:44","新北市板橋區民生路二段216號","121.4693","25.0215116666667","6500100","板橋區"
"220104","560-BX","2018/02/01 13:59:48","新北市板橋區中正路339號","121.4547","25.0203716666667","6500100","板橋區"
"220003","568-UM","2018/02/01 13:59:43","新北市板橋區新站路3號","121.467128333333","25.0112416666667","6500100","板橋區"
"220040","637-BX","2018/02/01 13:59:32","新北市板橋區莒光路165巷46號","121.474633333333","25.0251983333333","6500100","板橋區"
"220005","686-BX","2018/02/01 13:59:45","新北市板橋區館前東路46號","121.460748333333","25.007245","6500100","板橋區"
"220025","687-BX","2018/02/01 13:59:32","新北市板橋區大觀路三段59巷17弄6-1號","121.43721","24.9951933333333","6500100","板橋區"
"220042","689-BX","2018/02/01 13:59:22","新北市板橋區民生路三段106號","121.466726666667","25.0260283333333","6500100","板橋區"
"220002","741-BX","2018/02/01 13:59:34","新北市板橋區後埔街79-1號","121.460671666667","25.0053766666667","6500100","板橋區"
"220014","829-TW","2018/02/01 13:59:47","新北市板橋區三民路二段正隆巷12弄9號","121.477856666667","25.0132366666667","6500100","板橋區"
"220045","830-TW","2018/02/01 13:59:37","新北市板橋區莒光路74號","121.471453333333","25.02412","6500100","板橋區"
"220011","833-TW","2018/02/01 13:59:40","新北市板橋區中山路二段87號","121.474071666667","25.0159283333333","6500100","板橋區"
"220022","895-R6","2018/02/01 13:59:45","新北市板橋區南雅南路一段107號","121.45539","25.005055","6500100","板橋區"
"220021","985-R7","2018/02/01 13:59:34","新北市板橋區館前西路156-1號","121.45501","25.0084566666667","6500100","板橋區"
"220046","AAC-210","2018/02/01 13:59:48","新北市板橋區陽明街162號","121.463396666667","25.0243533333333","6500100","板橋區"
"220018","AAC-253","2018/02/01 13:59:47","新北市板橋區四川路一段351號","121.458465","25.0000866666667","6500100","板橋區"
