"lineid","car","time","location","longitude","latitude","cityid","cityname"
"234044","148-BY","2018/02/01 14:19:19","新北市永和區永元路120號","121.522761666667","25.0026633333333","6500400","永和區"
"234066","149-BY","2018/02/01 14:19:25","新北市永和區保平路292巷13弄16號","121.506548333333","25.0056866666667","6500400","永和區"
"234005","207-UY","2018/02/01 14:19:17","新北市永和區永貞路372號","121.50994","25.006805","6500400","永和區"
"234078","298-R6","2018/02/01 14:19:09","新北市永和區國中路132巷6弄1號","121.523793333333","25.0073566666667","6500400","永和區"
"234036","336-UY","2018/02/01 14:19:19","新北市永和區環河東路三段96號","121.52824","25.0040333333333","6500400","永和區"
"234062","337-UY","2018/02/01 14:19:31","新北市永和區得和路213號","121.519318333333","25.0002633333333","6500400","永和區"
"234084","338-UY","2018/02/01 14:19:24","新北市永和區福和路247號","121.518018333333","25.0073766666667","6500400","永和區"
"234068","552-UM","2018/02/01 14:19:27","新北市永和區永利路25號","121.518141666667","25.00611","6500400","永和區"
"234015","745-BX","2018/02/01 14:19:32","新北市永和區仁愛路85號","121.513148333333","25.0131116666667","6500400","永和區"
"234028","746-BX","2018/02/01 14:19:15","新北市永和區民權路49巷5弄30號","121.521896666667","24.9978783333333","6500400","永和區"
"234052","KEA-2590","2018/02/01 14:19:28","新北市永和區博愛街3號","121.516613333333","25.0158533333333","6500400","永和區"
"234012","KEA-2591","2018/02/01 14:19:13","新北市永和區保生路60號","121.505341666667","25.0087916666667","6500400","永和區"
"234060","AAD-866","2018/02/01 14:19:28","新北市永和區安樂路164號","121.51473","25.0008083333333","6500400","永和區"
"234040","862-TW","2018/02/01 14:19:15","新北市中和區中安街222號","121.512091666667","24.9987433333333","6500400","永和區"
"234048","863-TW","2018/02/01 14:19:32","新北市永和區新生路28巷16號","121.508325","25.01629","6500400","永和區"
"234025","9371-KE","2018/02/01 14:19:24","新北市永和區安樂路144巷29號","121.515103333333","24.99978","6500400","永和區"
"234010","9373-KE","2018/02/01 14:19:28","新北市永和區保生路55號","121.504551666667","25.0108616666667","6500400","永和區"
"248015","026-BX","2018/02/01 14:19:17","新北市五股區成洲五路12號","121.452388333333","25.10154","6501500","五股區"
"248017","225-UY","2018/02/01 14:19:19","新北市五股區民義路二段12-1號","121.421076666667","25.0963133333333","6501500","五股區"
"248011","247-BX","2018/02/01 14:19:18","新北市五股區工商路85巷1號","121.437881666667","25.0847766666667","6501500","五股區"
"248009","272-BY","2018/02/01 14:19:20","新北市五股區水碓一路23號","121.43064","25.0712583333333","6501500","五股區"
"248003","677-BX","2018/02/01 14:19:09","新北市五股區五福路11-6號","121.434165","25.0887383333333","6501500","五股區"
"248001","678-BX","2018/02/01 14:19:17","新北市五股區成泰路四段8號","121.453035","25.1064916666667","6501500","五股區"
"234022","9380-KE","2018/02/01 14:19:26","新北市永和區竹林路27號","121.517471666667","25.014705","6500400","永和區"
"234076","969-R7","2018/02/01 14:19:15","新北市永和區民族街81巷3號","121.518801666667","24.9966366666667","6500400","永和區"
"234072","AAC-211","2018/02/01 14:19:26","新北市永和區福和路1號","121.525235","25.0087866666667","6500400","永和區"
"234001","AAC-295","2018/02/01 14:19:18","新北市永和區中正路605號","121.51636","25.0096","6500400","永和區"
"243004","AAD-798","2018/02/01 14:19:15","新北市泰山區仁義路224號","121.433035","25.0535766666667","6501600","泰山區"
"243003","297-R6","2018/02/01 14:19:24","新北市泰山區中央路11巷2號","121.426346666667","25.04271","6501600","泰山區"
"243007","380-SR","2018/02/01 14:19:21","新北市泰山區公園路42號","121.428863333333","25.0544166666667","6501600","泰山區"
"243006","421-VK","2018/02/01 14:19:10","新北市泰山區泰林路二段236號","121.432275","25.0620866666667","6501600","泰山區"
"243002","KEA-2215","2018/02/01 14:19:28","新北市泰山區明志路二段7巷4號","121.430463333333","25.0534266666667","6501600","泰山區"
"243001","KEA-2216","2018/02/01 14:19:11","新北市泰山區半山雅6號","121.431626666667","25.0673216666667","6501600","泰山區"
"243005","646-TV","2018/02/01 14:19:27","新北市泰山區明志路三段145巷5弄3號","121.425403333333","25.0401183333333","6501600","泰山區"
"243008","680-BX","2018/02/01 14:19:24","新北市泰山區工專路7號","121.42374","25.0396233333333","6501600","泰山區"
"231002","002-UM","2018/02/01 14:19:23","新北市新店區中正路470號","121.533906666667","24.9807233333333","6500600","新店區"
"231025","0291-UT","2018/02/01 14:19:20","新北市新店區二十張路129巷3弄1號","121.536188333333","24.9789433333333","6500600","新店區"
"231027","0293-UT","2018/02/01 14:19:17","新北市新店區北新路一段60號","121.541068333333","24.966365","6500600","新店區"
"231028","046-UY","2018/02/01 14:19:24","新北市新店區安和路二段35號","121.518051666667","24.9678316666667","6500600","新店區"
"231030","047-UY","2018/02/01 14:19:21","新北市新店區安德街60巷5號","121.510083333333","24.9627833333333","6500600","新店區"
"231029","106-UY","2018/02/01 14:19:22","新北市新店區安康路二段218號","121.509778333333","24.9593283333333","6500600","新店區"
"231018","107-UY","2018/02/01 14:19:33","新北市新店區環河路186號","121.525081666667","24.976055","6500600","新店區"
"231011","108-UY","2018/02/01 14:19:17","新北市新店區五峰路61巷13號","121.549438333333","24.9695116666667","6500600","新店區"
"231013","110-UY","2018/02/01 14:19:09","新北市新店區建國路128巷1號","121.539053333333","24.97938","6500600","新店區"
"231021","187-VK","2018/02/01 14:19:22","新北市新店區桂山路35號","121.559216666667","24.9029033333333","6500600","新店區"
"231035","188-VK","2018/02/01 14:19:05","新北市新店區光華街5巷21號","121.517663333333","24.9682516666667","6500600","新店區"
"231017","KEA-2219","2018/02/01 14:19:17","新北市新店區北宜路二段382號","121.56432","24.9532416666667","6500600","新店區"
"231023","AAD-862","2018/02/01 14:19:21","新北市新店區光明街84號","121.538788333333","24.960145","6500600","新店區"
"231038","4715-K9","2018/02/01 14:19:27","新北市新店區溪洲路6巷2-2號","121.533863333333","24.9610166666667","6500600","新店區"
"231036","512-UM","2018/02/01 14:19:27","新北市新店區安祥路109巷85弄33號","121.478568333333","24.9598566666667","6500600","新店區"
"231003","616-UM","2018/02/01 14:19:08","新北市新店區中興路一段214號","121.543805","24.9656466666667","6500600","新店區"
"231001","619-UM","2018/02/01 14:19:26","新北市新店區北新路一段12號","121.540791666667","24.96552","6500600","新店區"
"231034","645-TV","2018/02/01 14:19:25","新北市新店區黎明路3號","121.503461666667","24.95241","6500600","新店區"
"231031","720-UM","2018/02/01 14:19:25","新北市新店區溪洲路196-6號","121.53049","24.9667866666667","6500600","新店區"
"231005","897-TW","2018/02/01 14:19:27","新北市新店區中興路三段240號","121.543128333333","24.9836883333333","6500600","新店區"
"231006","898-TW","2018/02/01 14:19:32","新北市新店區北宜路二段599號","121.568186666667","24.955495","6500600","新店區"
"231004","899-TW","2018/02/01 14:19:27","新北市新店區北新路二段82號","121.543046666667","24.9727883333333","6500600","新店區"
"231037","AKT-0513","2018/02/01 14:19:21","新北市新店區車子路67號","121.503606666667","24.9512933333333","6500600","新店區"
"235030","003-UY","2018/02/01 14:19:19","新北市中和區景新街2號","121.502623333333","24.999705","6500300","中和區"
"235028","005-UY","2018/02/01 14:19:26","新北市中和區連城路25號","121.4989","25.00188","6500300","中和區"
"235013","031-BX","2018/02/01 14:19:31","新北市中和區景新街228-6號","121.50818","24.99424","6500300","中和區"
"235020","096-UM","2018/02/01 14:19:15","新北市中和區員山路573號","121.479436666667","25.007845","6500300","中和區"
"235003","097-UM","2018/02/01 14:19:25","新北市中和區秀峰街103巷8弄10號","121.519835","24.989635","6500300","中和區"
"235029","098-UM","2018/02/01 14:19:22","新北市中和區中山路二段2巷3弄1號","121.504976666667","25.00613","6500300","中和區"
"235004","150-BY","2018/02/01 14:19:16","新北市中和區保健路106巷24號","121.511346666667","24.9946866666667","6500300","中和區"
"235022","151-BY","2018/02/01 14:19:21","新北市中和區連城路469巷44弄19號","121.482328333333","24.9946733333333","6500300","中和區"
"235019","183-VK","2018/02/01 14:19:12","新北市中和區莒光路3巷11號","121.472378333333","25.0061133333333","6500300","中和區"
"235002","185-VK","2018/02/01 14:19:12","新北市中和區大仁街10巷48-6號","121.52025","24.9925916666667","6500300","中和區"
"235031","255-BX","2018/02/01 14:19:17","新北市中和區新生街168號","121.483725","25.0002166666667","6500300","中和區"
"235008","293-VK","2018/02/01 14:19:13","新北市中和區中興街250號","121.499543333333","24.9881733333333","6500300","中和區"
"235036","301-VK","2018/02/01 14:19:10","新北市中和區莊敬路33巷18號","121.500265","25.0054316666667","6500300","中和區"
"235007","352-BY","2018/02/01 14:19:15","新北市中和區景平路298號","121.512773333333","24.99254","6500300","中和區"
"235032","377-QA","2018/02/01 14:19:12","新北市中和區圓通路158巷3-1號","121.497636666667","24.99615","6500300","中和區"
"235025","378-QA","2018/02/01 14:19:29","新北市中和區員山路143巷40弄1號","121.479011666667","24.9956583333333","6500300","中和區"
"235035","269-TV","2018/02/01 14:19:11","新北市中和區建一路2號","121.488026666667","25.0042566666667","6500300","中和區"
"235014","4979-A6","2018/02/01 14:19:16","新北市中和區景安路208巷4號","121.503786666667","24.991145","6500300","中和區"
"235033","4980-A6","2018/02/01 14:19:28","新北市中和區中山路二段181巷16號","121.501065","25.0021916666667","6500300","中和區"
"235006","551-UM","2018/02/01 14:19:25","新北市永和區民有街1號","121.515666666667","24.9974016666667","6500300","中和區"
"235009","565-BX","2018/02/01 14:19:26","新北市中和區景新街423巷35弄2號","121.514088333333","24.9899533333333","6500300","中和區"
"235018","640-BX","2018/02/01 14:19:17","新北市中和區民德路142號","121.468705","25.00046","6500300","中和區"
"235024","647-TV","2018/02/01 14:19:21","新北市中和區民有街5號","121.475705","25.0057116666667","6500300","中和區"
"235011","732-UM","2018/02/01 14:09:27","新北市中和區興南路一段58號","121.510903333333","24.9904516666667","6500300","中和區"
"235010","733-UM","2018/02/01 14:19:25","新北市中和區忠孝街2號","121.508656666667","24.9828433333333","6500300","中和區"
"235026","800-TS","2018/02/01 14:19:18","新北市中和區中山路二段380巷8號","121.490881666667","25.00458","6500300","中和區"
"235005","802-TS","2018/02/01 14:19:27","新北市中和區中安街192號","121.511328333333","24.99927","6500300","中和區"
"235016","805-TS","2018/02/01 14:19:30","新北市中和區興南路二段142巷31弄54號","121.501768333333","24.9835716666667","6500300","中和區"
"235012","896-TW","2018/02/01 14:19:27","新北市中和區華新街111號","121.508608333333","24.9816133333333","6500300","中和區"
"235017","900-TW","2018/02/01 14:19:19","新北市中和區民德路218號","121.468195","24.9979083333333","6500300","中和區"
"235027","911-UM","2018/02/01 14:19:11","新北市中和區圓通路198巷11號","121.495551666667","24.994455","6500300","中和區"
"235015","157-BY","2018/02/01 14:19:28","新北市中和區興南路一段58號","121.510858333333","24.9905166666667","6500300","中和區"
"235023","AAC-215","2018/02/01 14:19:12","新北市中和區圓通路286巷10號","121.491516666667","24.99118","6500300","中和區"
"220016","013-TV","2018/02/01 14:19:28","新北市板橋區林森街1巷27號","121.482653333333","25.0242833333333","6500100","板橋區"
"220013","072-UY","2018/02/01 14:19:26","新北市板橋區民族路129巷14號","121.467731666667","25.0084533333333","6500100","板橋區"
"220034","073-UY","2018/02/01 14:19:25","新北市板橋區中正路216巷94號","121.458593333333","25.01914","6500100","板橋區"
"220105","075-UY","2018/02/01 14:19:25","新北市板橋區雙十路三段66巷1號","121.470551666667","25.0319433333333","6500100","板橋區"
"220017","AAD-861","2018/02/01 14:19:28","新北市板橋區四川路一段104號","121.459743333333","25.004645","6500100","板橋區"
"220047","120-SR","2018/02/01 14:19:27","新北市板橋區民有街65號","121.465198333333","25.0268266666667","6500100","板橋區"
"247021","893-R6","2018/02/01 14:19:25","新北市蘆洲區仁愛街180號","121.467611666667","25.0938166666667","6501400","蘆洲區"
"247011","546-UM","2018/02/01 14:19:21","新北市蘆洲區信義路351巷16號","121.476835","25.0869283333333","6501400","蘆洲區"
"247019","500-BY","2018/02/01 14:19:25","新北市蘆洲區民族路446-5號","121.472663333333","25.0921833333333","6501400","蘆洲區"
"247009","339-TH","2018/02/01 14:19:22","新北市蘆洲區三民路26巷33號","121.476953333333","25.0829133333333","6501400","蘆洲區"
"247001","337-TH","2018/02/01 14:19:17","新北市蘆洲區永樂街23號","121.458838333333","25.0882683333333","6501400","蘆洲區"
"247003","336-TH","2018/02/01 14:19:14","新北市蘆洲區長安街150號","121.459895","25.0822633333333","6501400","蘆洲區"
"247015","057-VK","2018/02/01 14:16:58","新北市蘆洲區光華路54巷2號","121.468246666667","25.0831783333333","6501400","蘆洲區"
"247005","056-VK","2018/02/01 14:19:16","新北市蘆洲區長安街22巷48號","121.465371666667","25.0804783333333","6501400","蘆洲區"
"247007","053-VK","2018/02/01 14:19:19","新北市蘆洲區信義路37巷6號","121.474386666667","25.0796966666667","6501400","蘆洲區"
"247013","007-UY","2018/02/01 14:19:21","新北市蘆洲區三民路15號","121.475756666667","25.0823083333333","6501400","蘆洲區"
"247023","002-UY","2018/02/01 14:19:16","新北市蘆洲區長榮路688號","121.460046666667","25.090945","6501400","蘆洲區"
"247017","001-UY","2018/02/01 14:19:29","新北市蘆洲區民權路116號","121.473508333333","25.0884483333333","6501400","蘆洲區"
"235021","251-BX","2018/02/01 14:19:13","新北市中和區民利街48號","121.479371666667","24.9988233333333","6500300","中和區"
"228005","097-TW","2018/02/01 14:18:02","新北市貢寮區美豐里土地公嶺54號","121.894531666667","25.0650633333333","6502600","貢寮區"
"228004","212-TW","2018/02/01 14:19:26","新北市貢寮區雙玉里田寮洋街39號","121.92505","25.0139416666667","6502600","貢寮區"
"227010","400-TW","2018/02/01 14:03:41","新北市雙溪區三貂里政光路3-1號","121.850898333333","25.0630966666667","6502500","雙溪區"
"253003","6232-TK","2018/02/01 14:19:18","新北市石門區尖子鹿31-1號","121.579263333333","25.2670233333333","6502200","石門區"
"253001","6251-TK","2018/02/01 14:19:25","新北市石門區八甲20-2號","121.525265","25.2804466666667","6502200","石門區"
"253002","637-UY","2018/02/01 14:19:09","新北市石門區大丘田7號","121.547586666667","25.2843083333333","6502200","石門區"
"253004","8270-PC","2018/02/01 14:19:16","新北市石門區小坑41號","121.597351666667","25.2628016666667","6502200","石門區"
"208004","AAC-292","2018/02/01 14:19:14","新北市金山區六股里頂六股2-1號","121.614166666667","25.2216466666667","6502700","金山區"
"208001","761-BX","2018/02/01 14:19:17","新北市新店區薏仁坑路5號","121.499","24.9589766666667","6502700","金山區"
"207002","749-BX","2018/02/01 14:19:22","新北市萬里區溪底里瑞泉路2-6號","121.609966666667","25.142835","6502800","萬里區"
"252005","073-UM","2018/02/01 14:19:29","新北市三芝區橫山里大坑85號","121.529373333333","25.2587766666667","6502100","三芝區"
"207001","662-BX","2018/02/01 14:19:30","新北市萬里區磺潭里清水18號","121.637791666667","25.1977","6502800","萬里區"
"236066","105-UM","2018/02/01 14:19:29","新北市土城區明德路一段128巷2號","121.463228333333","24.9790233333333","6501300","土城區"
"236040","107-UM","2018/02/01 14:19:31","新北市土城區裕生路21巷6弄23號","121.448721666667","24.9867883333333","6501300","土城區"
"236076","166-UM","2018/02/01 14:19:18","新北市土城區永安街115巷38弄2號","121.428668333333","24.96272","6501300","土城區"
"236028","253-BX","2018/02/01 14:19:18","新北市土城區順風路63號","121.44007","24.9771883333333","6501300","土城區"
"236024","269-VK","2018/02/01 14:19:25","新北市土城區承天路67號","121.439516666667","24.9635783333333","6501300","土城區"
"236012","270-VK","2018/02/01 14:19:13","新北市土城區青雲路39巷7號","121.460323333333","24.9875616666667","6501300","土城區"
"236033","271-VK","2018/02/01 14:19:22","新北市土城區青雲路451巷8弄11號","121.45959","24.9743583333333","6501300","土城區"
"236018","401-BY","2018/02/01 14:19:10","新北市土城區金城路二段362號","121.46223","24.9852733333333","6501300","土城區"
"236005","498-BY","2018/02/01 14:19:11","新北市土城區中華路一段56巷26-10號","121.444681666667","24.990365","6501300","土城區"
"236056","912-UM","2018/02/01 14:19:23","新北市土城區中央路四段161號","121.415143333333","24.9568666666667","6501300","土城區"
"236047","913-UM","2018/02/01 14:19:17","新北市土城區明德路一段375-1號","121.454946666667","24.9781183333333","6501300","土城區"
"236060","915-UM","2018/02/01 14:19:18","新北市土城區延壽路44巷11號","121.471466666667","24.9929166666667","6501300","土城區"
"236052","AAC-216","2018/02/01 14:19:27","新北市土城區中華路二段199號","121.438111666667","24.9742466666667","6501300","土城區"
"220027","145-BY","2018/02/01 14:19:22","新北市板橋區民權路302巷1弄1號","121.45732","25.0162916666667","6500100","板橋區"
"220028","200-UY","2018/02/01 14:19:24","新北市板橋區大觀路二段3巷31號","121.448461666667","25.00363","6500100","板橋區"
"220030","610-BX","2018/02/01 14:19:13","新北市板橋區溪崑二街134號","121.425915","24.9877083333333","6500100","板橋區"
"220052","257-TC","2018/02/01 14:19:27","新北市板橋區介壽街68號","121.469378333333","25.01937","6500100","板橋區"
"220004","276-BY","2018/02/01 14:19:21","新北市板橋區信義路171號","121.458906666667","24.9920633333333","6500100","板橋區"
"220020","277-BY","2018/02/01 14:19:26","新北市板橋區金門街306號","121.428896666667","24.9853566666667","6500100","板橋區"
"220050","280-UM","2018/02/01 14:19:12","新北市板橋區雙十路二段100號","121.474573333333","25.0284233333333","6500100","板橋區"
"220019","283-VK","2018/02/01 14:19:21","新北市板橋區忠孝路48巷7弄1-3號","121.46105","25.0004416666667","6500100","板橋區"
"220043","285-UM","2018/02/01 14:19:29","新北市板橋區吳鳳路23號","121.467016666667","25.03112","6500100","板橋區"
"220001","285-VK","2018/02/01 14:19:21","新北市板橋區永豐街146號","121.478146666667","25.02123","6500100","板橋區"
"220031","286-VK","2018/02/01 14:19:26","新北市板橋區大觀路二段174巷184號","121.442245","25.00369","6500100","板橋區"
"220029","287-VK","2018/02/01 14:19:24","新北市板橋區南雅西路一段154號","121.4527","25.0076183333333","6500100","板橋區"
"220039","288-VK","2018/02/01 14:19:31","新北市板橋區裕民街36巷11號","121.461655","25.0293066666667","6500100","板橋區"
"220009","293-UM","2018/02/01 14:19:21","新北市板橋區中山路二段318巷20弄37號","121.481151666667","25.01886","6500100","板橋區"
"220010","295-UM","2018/02/01 14:19:27","新北市板橋區三民路二段居仁巷1弄36號","121.480488333333","25.013635","6500100","板橋區"
"220032","296-UM","2018/02/01 14:19:19","新北市板橋區溪崑二街56巷31號","121.427741666667","24.9911116666667","6500100","板橋區"
"220023","303-R5","2018/02/01 14:19:26","新北市板橋區館前西路167號","121.455841666667","25.0081016666667","6500100","板橋區"
"220041","307-R5","2018/02/01 14:19:27","新北市板橋區光武街36巷22號","121.468283333333","25.026225","6500100","板橋區"
"220012","486-VK","2018/02/01 14:19:15","新北市板橋區板新路82號","121.472765","25.0144016666667","6500100","板橋區"
"220038","487-VK","2018/02/01 14:19:27","新北市板橋區文化路二段39號","121.46901","25.0249233333333","6500100","板橋區"
"220037","491-VK","2018/02/01 14:19:15","新北市板橋區雙十路二段239號","121.472826666667","25.0288916666667","6500100","板橋區"
"220104","560-BX","2018/02/01 14:19:28","新北市板橋區中正路433巷25號","121.453311666667","25.0235983333333","6500100","板橋區"
"220003","568-UM","2018/02/01 14:19:03","新北市板橋區新民街6巷20號","121.465348333333","25.010055","6500100","板橋區"
"220040","637-BX","2018/02/01 14:19:12","新北市板橋區縣民大道三段189號","121.479543333333","25.0247083333333","6500100","板橋區"
"220005","686-BX","2018/02/01 14:19:25","新北市板橋區重慶路308巷8號","121.46344","24.99781","6500100","板橋區"
"220025","687-BX","2018/02/01 14:19:12","新北市板橋區龍興街34號","121.44314","25.0005383333333","6500100","板橋區"
"220042","689-BX","2018/02/01 14:19:22","新北市板橋區文化路一段160號","121.465375","25.01933","6500100","板橋區"
"220002","741-BX","2018/02/01 14:19:14","新北市板橋區四川路一段189號","121.46091","25.0038166666667","6500100","板橋區"
"220014","829-TW","2018/02/01 14:19:26","新北市板橋區長安街222-2號","121.474993333333","25.0123683333333","6500100","板橋區"
"220045","830-TW","2018/02/01 14:19:18","新北市板橋區大同街8巷36號","121.47753","25.0259116666667","6500100","板橋區"
"220011","833-TW","2018/02/01 14:19:20","新北市板橋區三民路二段169號","121.479171666667","25.01449","6500100","板橋區"
"220022","895-R6","2018/02/01 14:19:25","新北市板橋區府中路126-1號","121.454973333333","25.0095483333333","6500100","板橋區"
"220021","985-R7","2018/02/01 14:19:15","新北市板橋區中正路233號","121.455935","25.0179716666667","6500100","板橋區"
"220046","AAC-210","2018/02/01 14:19:29","新北市板橋區幸福路51號","121.461121666667","25.01994","6500100","板橋區"
"220018","AAC-253","2018/02/01 14:19:28","新北市板橋區忠孝路142號","121.463795","25.0023916666667","6500100","板橋區"
