"lineid","car","time","location","longitude","latitude","cityid","cityname"
"234005","207-UY","2018/02/01 14:39:17","新北市永和區中正路401號","121.517255","25.0045766666667","6500400","永和區"
"234078","298-R6","2018/02/01 14:39:29","新北市永和區中正路562號","121.51716","25.0059966666667","6500400","永和區"
"234062","337-UY","2018/02/01 14:39:31","新北市永和區永和路二段278號","121.515973333333","25.01538","6500400","永和區"
"234084","338-UY","2018/02/01 14:39:25","新北市永和區光復街13號","121.516466666667","25.0171483333333","6500400","永和區"
"234028","746-BX","2018/02/01 14:39:15","新北市中和區景平路488號","121.504535","24.993665","6500400","永和區"
"234048","863-TW","2018/02/01 14:39:12","新北市永和區保安路134號","121.508585","25.015455","6500400","永和區"
"234025","9371-KE","2018/02/01 14:39:22","新北市永和區中和路503號","121.510621666667","25.0024466666667","6500400","永和區"
"234010","9373-KE","2018/02/01 14:39:28","新北市永和區環河東路二段58號","121.523483333333","25.011415","6500400","永和區"
"248013","025-BX","2018/02/01 14:39:27","新北市五股區五福路52巷3弄6號","121.433523333333","25.0901466666667","6501500","五股區"
"248015","026-BX","2018/02/01 14:39:17","新北市五股區成泰路四段24-9號","121.45388","25.10702","6501500","五股區"
"248007","095-VK","2018/02/01 14:39:21","新北市五股區四維路155巷11號","121.467211666667","25.0743783333333","6501500","五股區"
"248017","225-UY","2018/02/01 14:26:39","新北市五股區壟路16號","121.415371666667","25.085695","6501500","五股區"
"248011","247-BX","2018/02/01 14:39:18","新北市五股區民義路一段84號","121.436011666667","25.0849383333333","6501500","五股區"
"248009","272-BY","2018/02/01 14:39:00","新北市五股區登林路74-3號","121.43106","25.0693083333333","6501500","五股區"
"248003","677-BX","2018/02/01 14:39:29","新北市五股區成泰路二段82號","121.437413333333","25.082215","6501500","五股區"
"248001","678-BX","2018/02/01 14:39:24","新北市五股區成泰路三段280號","121.447308333333","25.0942666666667","6501500","五股區"
"234072","AAC-211","2018/02/01 14:39:26","新北市永和區環河東路二段8號","121.522148333333","25.0133966666667","6500400","永和區"
"234001","AAC-295","2018/02/01 14:39:15","新北市永和區大新街50號","121.516025","25.0083233333333","6500400","永和區"
"243004","AAD-798","2018/02/01 14:39:15","新北市泰山區明志路一段289號","121.431991666667","25.0595983333333","6501600","泰山區"
"243003","297-R6","2018/02/01 14:39:24","新北市泰山區新北大道六段196號","121.427093333333","25.03728","6501600","泰山區"
"243007","380-SR","2018/02/01 14:39:21","新北市泰山區明志路二段237巷21號","121.428025","25.0480966666667","6501600","泰山區"
"243006","421-VK","2018/02/01 14:39:30","新北市泰山區泰林路二段33-8號","121.435115","25.0563933333333","6501600","泰山區"
"243002","KEA-2215","2018/02/01 14:39:28","新北市泰山區明志路二段136巷48號","121.426115","25.0520416666667","6501600","泰山區"
"243001","KEA-2216","2018/02/01 14:39:31","新北市泰山區泰林路二段142巷3號","121.434588333333","25.0600333333333","6501600","泰山區"
"243005","646-TV","2018/02/01 14:36:54","新北市泰山區應化街13號","121.423821666667","25.04369","6501600","泰山區"
"243008","680-BX","2018/02/01 14:39:24","新北市泰山區明志路三段514號","121.420993333333","25.03085","6501600","泰山區"
"231002","002-UM","2018/02/01 14:39:23","新北市新店區中正路460號","121.534026666667","24.9792883333333","6500600","新店區"
"231025","0291-UT","2018/02/01 14:39:20","新北市新店區民族路161號","121.537815","24.9767883333333","6500600","新店區"
"231027","0293-UT","2018/02/01 14:39:17","新北市新店區中正路102巷8弄2號","121.543413333333","24.9710883333333","6500600","新店區"
"231028","046-UY","2018/02/01 14:39:30","新北市新店區安德街60巷35號","121.511218333333","24.9635766666667","6500600","新店區"
"231030","047-UY","2018/02/01 14:39:20","新北市新店區安民街123號","121.516325","24.9686883333333","6500600","新店區"
"231029","106-UY","2018/02/01 14:39:22","新北市新店區安康路三段191號","121.488131666667","24.9517366666667","6500600","新店區"
"231018","107-UY","2018/02/01 14:39:13","新北市新店區中央路216-1號","121.529873333333","24.9732466666667","6500600","新店區"
"231011","108-UY","2018/02/01 14:39:17","新北市新店區寶橋路162號","121.549061666667","24.9771233333333","6500600","新店區"
"231013","110-UY","2018/02/01 14:39:29","新北市新店區北新路二段171巷8號","121.542095","24.9766066666667","6500600","新店區"
"231021","187-VK","2018/02/01 14:39:22","新北市新店區新烏路二段132號","121.549613333333","24.9202916666667","6500600","新店區"
"231035","188-VK","2018/02/01 14:39:26","新北市新店區安民街3巷1號","121.514651666667","24.9642666666667","6500600","新店區"
"231017","KEA-2219","2018/02/01 14:39:17","新北市新店區北宜路三段221號","121.592406666667","24.953285","6500600","新店區"
"231023","AAD-862","2018/02/01 14:39:13","新北市新店區檳榔路22巷1號","121.54132","24.9641783333333","6500600","新店區"
"231038","4715-K9","2018/02/01 14:39:27","新北市新店區溪洲路187-1號","121.529375","24.9646616666667","6500600","新店區"
"231036","512-UM","2018/02/01 14:39:30","新北市新店區安祥路106巷2號","121.478866666667","24.9620766666667","6500600","新店區"
"231003","616-UM","2018/02/01 14:39:29","新北市新店區中正路2號","121.54607","24.9694483333333","6500600","新店區"
"231001","619-UM","2018/02/01 14:39:26","新北市新店區中正路80號","121.543796666667","24.9703133333333","6500600","新店區"
"231034","645-TV","2018/02/01 14:39:25","新北市新店區黎明路51巷6號","121.502148333333","24.9488666666667","6500600","新店區"
"231005","897-TW","2018/02/01 14:39:27","新北市新店區北新路三段55號","121.541706666667","24.9807383333333","6500600","新店區"
"231006","898-TW","2018/02/01 14:39:12","新北市新店區北宜路二段133號","121.551083333333","24.9531166666667","6500600","新店區"
"231004","899-TW","2018/02/01 14:39:19","新北市新店區中正路282-11號","121.538446666667","24.973925","6500600","新店區"
"231037","AKT-0513","2018/02/01 14:39:21","新北市新店區薏仁坑路6號","121.500283333333","24.95798","6500600","新店區"
"235030","003-UY","2018/02/01 14:39:19","新北市中和區景新街164號","121.505733333333","24.9970866666667","6500300","中和區"
"235028","005-UY","2018/02/01 14:39:15","新北市中和區南山路81巷53號","121.503953333333","24.9981966666667","6500300","中和區"
"235013","031-BX","2018/02/01 14:39:11","新北市中和區景新街273巷10號","121.50994","24.9938483333333","6500300","中和區"
"235020","096-UM","2018/02/01 14:39:16","新北市中和區員山路581巷2號","121.478038333333","25.009455","6500300","中和區"
"235003","097-UM","2018/02/01 14:39:26","新北市中和區宜安路56號","121.511763333333","24.9969166666667","6500300","中和區"
"235029","098-UM","2018/02/01 14:39:22","新北市中和區永和路8巷17號","121.50063","25.0034533333333","6500300","中和區"
"235004","150-BY","2018/02/01 14:39:16","新北市中和區宜安路23巷20號","121.512265","24.9951483333333","6500300","中和區"
"235022","151-BY","2018/02/01 14:39:21","新北市中和區員山路122號","121.48125","24.9959383333333","6500300","中和區"
"235019","183-VK","2018/02/01 14:39:26","新北市中和區民生街14號","121.470368333333","25.0055016666667","6500300","中和區"
"235002","185-VK","2018/02/01 14:39:12","新北市中和區自立路141巷3號","121.522415","24.9935783333333","6500300","中和區"
"235031","255-BX","2018/02/01 14:39:17","新北市中和區新生街184號","121.483706666667","24.999675","6500300","中和區"
"235008","293-VK","2018/02/01 14:39:13","新北市中和區捷運路10-3號","121.509283333333","24.9899716666667","6500300","中和區"
"235036","301-VK","2018/02/01 14:39:10","新北市中和區廣福路59號","121.502645","25.0012816666667","6500300","中和區"
"235007","352-BY","2018/02/01 14:39:15","新北市中和區景平路532號","121.502768333333","24.9945166666667","6500300","中和區"
"235032","377-QA","2018/02/01 14:39:12","新北市中和區廟美街54號","121.50027","25.0023433333333","6500300","中和區"
"235025","378-QA","2018/02/01 14:39:29","新北市中和區員山路226巷22弄1號","121.482105","25.0000666666667","6500300","中和區"
"235035","269-TV","2018/02/01 14:39:31","新北市中和區連城路469巷2號","121.483586666667","24.9956016666667","6500300","中和區"
"235014","4979-A6","2018/02/01 14:39:16","新北市中和區中正路273號","121.495705","24.99363","6500300","中和區"
"235033","4980-A6","2018/02/01 14:39:28","新北市中和區連城路134巷10號","121.49561","24.999415","6500300","中和區"
"235006","551-UM","2018/02/01 14:39:25","新北市中和區宜安路169號","121.508606666667","24.9991233333333","6500300","中和區"
"235009","565-BX","2018/02/01 14:39:26","新北市中和區景新街326號","121.511743333333","24.9910633333333","6500300","中和區"
"235018","640-BX","2018/02/01 14:39:17","新北市中和區國光街102巷2號","121.47027","25.000425","6500300","中和區"
"235024","647-TV","2018/02/01 14:39:21","新北市中和區新生街112巷2號","121.483058333333","25.002925","6500300","中和區"
"235010","733-UM","2018/02/01 14:39:25","新北市中和區四維街37巷1號","121.512553333333","24.9869133333333","6500300","中和區"
"235026","800-TS","2018/02/01 14:39:18","新北市中和區中山路二段530-1號","121.485723333333","25.0048716666667","6500300","中和區"
"235005","802-TS","2018/02/01 14:39:27","新北市中和區中和路232號","121.506698333333","24.999605","6500300","中和區"
"235016","805-TS","2018/02/01 14:39:24","新北市中和區華新街143巷72號","121.506371666667","24.9792116666667","6500300","中和區"
"235012","896-TW","2018/02/01 14:39:27","新北市中和區四維街17號","121.51308","24.98716","6500300","中和區"
"235017","900-TW","2018/02/01 14:39:19","新北市中和區民德路197-2號","121.468866666667","24.9988133333333","6500300","中和區"
"235027","911-UM","2018/02/01 14:39:31","新北市中和區連城路174巷39號","121.494356666667","25.0003766666667","6500300","中和區"
"235015","157-BY","2018/02/01 14:39:28","新北市中和區板南路116號","121.503198333333","24.99255","6500300","中和區"
"235023","AAC-215","2018/02/01 14:39:32","新北市中和區圓通路307號","121.493325","24.9908716666667","6500300","中和區"
"220016","013-TV","2018/02/01 14:39:28","新北市板橋區中山路二段418號","121.483063333333","25.0211633333333","6500100","板橋區"
"220013","072-UY","2018/02/01 14:39:26","新北市板橋區實踐路93巷101號","121.467366666667","25.0058966666667","6500100","板橋區"
"220105","075-UY","2018/02/01 14:39:25","新北市板橋區文化路二段402號","121.473665","25.0313316666667","6500100","板橋區"
"220017","AAD-861","2018/02/01 14:39:28","新北市板橋區稚暉街1號","121.456061666667","25.0044933333333","6500100","板橋區"
"220047","120-SR","2018/02/01 14:39:22","新北市板橋區四維路269巷27號","121.462013333333","25.0278283333333","6500100","板橋區"
"247021","893-R6","2018/02/01 14:39:24","新北市蘆洲區三民路128巷94號","121.469625","25.0902133333333","6501400","蘆洲區"
"247011","546-UM","2018/02/01 14:39:21","新北市蘆洲區集賢路224巷64弄1號","121.480876666667","25.0882416666667","6501400","蘆洲區"
"247019","500-BY","2018/02/01 14:39:25","新北市蘆洲區民權路131巷10號","121.471428333333","25.089945","6501400","蘆洲區"
"247009","339-TH","2018/02/01 14:39:22","新北市蘆洲區信義路222巷20號","121.479968333333","25.0854166666667","6501400","蘆洲區"
"247001","337-TH","2018/02/01 14:39:17","新北市蘆洲區永樂街38巷45弄2號","121.458113333333","25.08987","6501400","蘆洲區"
"247003","336-TH","2018/02/01 14:39:14","新北市蘆洲區長安街172巷35弄11號","121.460301666667","25.0844833333333","6501400","蘆洲區"
"247015","057-VK","2018/02/01 14:37:55","新北市蘆洲區光華路87巷5號","121.467955","25.0822366666667","6501400","蘆洲區"
"247005","056-VK","2018/02/01 14:39:16","新北市蘆洲區長安街68巷18號","121.463686666667","25.0807466666667","6501400","蘆洲區"
"247007","053-VK","2018/02/01 14:39:19","新北市蘆洲區中山一路265號","121.472643333333","25.0801","6501400","蘆洲區"
"247013","007-UY","2018/02/01 14:39:20","新北市蘆洲區忠孝路20號","121.47063","25.0842","6501400","蘆洲區"
"247023","002-UY","2018/02/01 14:39:16","新北市蘆洲區中山二路220號","121.46984","25.0798883333333","6501400","蘆洲區"
"247017","001-UY","2018/02/01 14:39:29","新北市蘆洲區民族路408巷50號","121.47471","25.0933433333333","6501400","蘆洲區"
"235021","251-BX","2018/02/01 14:39:33","新北市中和區員山路370-4號","121.480771666667","25.0040566666667","6500300","中和區"
"228005","097-TW","2018/02/01 14:39:22","新北市貢寮區美豐里雞母嶺街6-6號","121.902096666667","25.0642166666667","6502600","貢寮區"
"228004","212-TW","2018/02/01 14:39:20","新北市貢寮區福隆里龜壽谷街30號","121.946818333333","25.0133683333333","6502600","貢寮區"
"253003","6232-TK","2018/02/01 14:39:18","新北市石門區尖子鹿87號","121.579106666667","25.2911733333333","6502200","石門區"
"253001","6251-TK","2018/02/01 14:39:25","新北市石門區海灣新城1號","121.523313333333","25.2853833333333","6502200","石門區"
"253002","637-UY","2018/02/01 14:34:09","新北市三芝區橫山里橫山39-5號","121.545846666667","25.253015","6502200","石門區"
"253004","8270-PC","2018/02/01 14:38:16","新北市石門區內阿里磅55號","121.579263333333","25.24922","6502200","石門區"
"208004","AAC-292","2018/02/01 14:39:14","新北市金山區重和里牛埔仔10號","121.599941666667","25.22445","6502700","金山區"
"208001","761-BX","2018/02/01 14:39:17","新北市新店區安忠路57巷13號","121.513518333333","24.9572816666667","6502700","金山區"
"207002","749-BX","2018/02/01 14:39:22","新北市萬里區崁腳里崁腳路118-1號","121.64494","25.1586066666667","6502800","萬里區"
"252005","073-UM","2018/02/01 14:39:09","新北市三芝區埔坪里埔頭坑140號","121.513553333333","25.2473933333333","6502100","三芝區"
"207001","662-BX","2018/02/01 14:39:10","新北市萬里區磺潭里員潭路54號","121.643396666667","25.1905733333333","6502800","萬里區"
"236066","105-UM","2018/02/01 14:39:28","新北市土城區永豐路211-2號","121.474651666667","24.97581","6501300","土城區"
"236040","107-UM","2018/02/01 14:39:31","新北市土城區裕民路55巷17號","121.449345","24.988875","6501300","土城區"
"236076","166-UM","2018/02/01 14:39:29","新北市土城區中央路四段52巷8號","121.420101666667","24.9609116666667","6501300","土城區"
"236028","253-BX","2018/02/01 14:39:18","新北市土城區中華路二段175號","121.438526666667","24.9750116666667","6501300","土城區"
"236024","269-VK","2018/02/01 14:39:25","新北市土城區和平路18號","121.442983333333","24.97366","6501300","土城區"
"236012","270-VK","2018/02/01 14:39:13","新北市土城區清水路207巷11號","121.45988","24.9823566666667","6501300","土城區"
"236033","271-VK","2018/02/01 14:39:22","新北市土城區明德路一段313巷3弄1號","121.459626666667","24.9763766666667","6501300","土城區"
"236018","401-BY","2018/02/01 14:39:30","新北市土城區延吉街327-1號","121.46555","24.98421","6501300","土城區"
"236005","498-BY","2018/02/01 14:39:11","新北市土城區城林路6巷80號","121.438613333333","24.9796733333333","6501300","土城區"
"236056","912-UM","2018/02/01 14:39:23","新北市土城區中央路四段99-1號","121.416648333333","24.9578983333333","6501300","土城區"
"236047","913-UM","2018/02/01 14:39:31","新北市土城區明德路一段109號","121.465618333333","24.9822583333333","6501300","土城區"
"236060","915-UM","2018/02/01 14:39:18","新北市土城區延壽路13巷7號","121.470846666667","24.9905066666667","6501300","土城區"
"236052","AAC-216","2018/02/01 14:39:27","新北市土城區中華路一段49號","121.445713333333","24.9882716666667","6501300","土城區"
"238022","KEA-2213","2018/02/01 14:33:11","新北市樹林區育德街78-1號","121.38792","24.9679683333333","6500700","樹林區"
"220027","145-BY","2018/02/01 14:39:22","新北市板橋區建國街5號","121.457266666667","25.0169233333333","6500100","板橋區"
"220028","200-UY","2018/02/01 14:39:24","新北市板橋區大觀路二段37巷188號","121.449611666667","25.001855","6500100","板橋區"
"220030","610-BX","2018/02/01 14:39:19","新北市板橋區金門街291號","121.430291666667","24.986805","6500100","板橋區"
"220052","257-TC","2018/02/01 14:39:28","新北市板橋區民生路二段241號","121.468261666667","25.0214883333333","6500100","板橋區"
"220034","259-TC","2018/02/01 14:39:27","新北市板橋區中正路216巷142號","121.460418333333","25.019375","6500100","板橋區"
"220004","276-BY","2018/02/01 14:39:21","新北市板橋區信義路1巷26弄2號","121.457991666667","24.99698","6500100","板橋區"
"220020","277-BY","2018/02/01 14:39:26","新北市板橋區金門街253巷16弄11號","121.432731666667","24.987955","6500100","板橋區"
"220050","280-UM","2018/02/01 14:39:12","新北市板橋區莊敬路220巷29弄2號","121.472755","25.0204033333333","6500100","板橋區"
"220019","283-VK","2018/02/01 14:39:21","新北市板橋區信義路42號","121.457071666667","24.9945083333333","6500100","板橋區"
"220043","285-UM","2018/02/01 14:39:29","新北市板橋區宏國路93號","121.469718333333","25.03235","6500100","板橋區"
"220001","285-VK","2018/02/01 14:39:21","新北市板橋區懷仁街91號","121.477483333333","25.0181783333333","6500100","板橋區"
"220031","286-VK","2018/02/01 14:39:26","新北市板橋區龍興街65巷20號","121.443186666667","25.0015833333333","6500100","板橋區"
"220029","287-VK","2018/02/01 14:39:24","新北市板橋區大觀路一段29巷20號","121.449146666667","25.00535","6500100","板橋區"
"220039","288-VK","2018/02/01 14:39:11","新北市板橋區長江路一段48巷1弄1號","121.458966666667","25.0288616666667","6500100","板橋區"
"220009","293-UM","2018/02/01 14:39:28","新北市板橋區漢生東路113巷6弄2號","121.467623333333","25.0152366666667","6500100","板橋區"
"220010","295-UM","2018/02/01 14:39:27","新北市板橋區三民路二段181巷7號","121.479871666667","25.0144033333333","6500100","板橋區"
"220032","296-UM","2018/02/01 14:39:18","新北市板橋區滿平二街10巷2弄16號","121.425483333333","24.9874716666667","6500100","板橋區"
"220023","303-R5","2018/02/01 14:39:26","新北市板橋區中正路291號","121.455463333333","25.0192733333333","6500100","板橋區"
"220041","307-R5","2018/02/01 14:39:27","新北市板橋區文化路一段322-1號","121.467883333333","25.0223833333333","6500100","板橋區"
"220012","486-VK","2018/02/01 14:39:13","新北市板橋區中山路一段50-9號","121.46122","25.0094916666667","6500100","板橋區"
"220038","487-VK","2018/02/01 14:39:27","新北市板橋區公館街252號","121.459991666667","25.020995","6500100","板橋區"
"220037","491-VK","2018/02/01 14:39:18","新北市板橋區雙十路二段42號","121.475993333333","25.027335","6500100","板橋區"
"220104","560-BX","2018/02/01 14:39:28","新北市板橋區金華街85巷29號","121.458696666667","25.0213316666667","6500100","板橋區"
"220003","568-UM","2018/02/01 14:39:23","新北市板橋區重慶路290巷24號","121.462273333333","24.9987733333333","6500100","板橋區"
"220040","637-BX","2018/02/01 14:39:12","新北市板橋區文聖街149巷41號","121.480061666667","25.0289833333333","6500100","板橋區"
"220005","686-BX","2018/02/01 14:39:25","新北市板橋區和平路91號","121.461883333333","24.99476","6500100","板橋區"
"220025","687-BX","2018/02/01 14:39:33","新北市板橋區大觀路一段28巷62號","121.449806666667","25.0104033333333","6500100","板橋區"
"220042","689-BX","2018/02/01 14:39:22","新北市板橋區新海路360號","121.459646666667","25.024995","6500100","板橋區"
"220002","741-BX","2018/02/01 14:39:22","新北市板橋區忠孝路239巷34號","121.467353333333","25.0035883333333","6500100","板橋區"
"220014","829-TW","2018/02/01 14:39:26","新北市板橋區長安街138巷8號","121.472886666667","25.0093366666667","6500100","板橋區"
"220045","830-TW","2018/02/01 14:39:18","新北市板橋區民生路二段226巷9號","121.470206666667","25.02185","6500100","板橋區"
"220011","833-TW","2018/02/01 14:39:19","新北市板橋區三民路二段224號","121.478808333333","25.01157","6500100","板橋區"
"220022","895-R6","2018/02/01 14:39:25","新北市板橋區館前西路150-4號","121.455641666667","25.00863","6500100","板橋區"
"220021","985-R7","2018/02/01 14:39:14","新北市板橋區瑞安街46巷1號","121.455363333333","25.022115","6500100","板橋區"
"220046","AAC-210","2018/02/01 14:39:28","新北市板橋區幸福路32巷6號","121.46154","25.0205983333333","6500100","板橋區"
"220018","AAC-253","2018/02/01 14:39:28","新北市板橋區民族路204號","121.468266666667","25.00751","6500100","板橋區"
