"lineid","car","time","location","longitude","latitude","cityid","cityname"
"234005","207-UY","2018/02/01 14:49:38","新北市永和區安樂路218號","121.515051666667","25.002115","6500400","永和區"
"234078","298-R6","2018/02/01 14:49:49","新北市中和區環河西路三段123號","121.489385","25.0105366666667","6500400","永和區"
"234025","9371-KE","2018/02/01 14:49:42","新北市永和區雙和街52巷1號","121.509061666667","25.00319","6500400","永和區"
"248013","025-BX","2018/02/01 14:49:27","新北市五股區五福路32巷26號","121.435086666667","25.0896883333333","6501500","五股區"
"248015","026-BX","2018/02/01 14:49:37","新北市五股區成泰路三段577巷80弄50號","121.449646666667","25.1049133333333","6501500","五股區"
"248007","095-VK","2018/02/01 14:49:41","新北市五股區四維路161號","121.467886666667","25.0748733333333","6501500","五股區"
"248017","225-UY","2018/02/01 14:26:39","新北市五股區壟路16號","121.415371666667","25.085695","6501500","五股區"
"248011","247-BX","2018/02/01 14:49:39","新北市五股區民義路一段212號","121.430485","25.089515","6501500","五股區"
"248009","272-BY","2018/02/01 14:49:40","新北市五股區登林路46巷2號","121.432051666667","25.0686266666667","6501500","五股區"
"248003","677-BX","2018/02/01 14:49:29","新北市五股區成泰路一段110-7號","121.4356","25.0724566666667","6501500","五股區"
"248001","678-BX","2018/02/01 14:49:32","新北市五股區成泰路三段101-1號","121.444006666667","25.0902883333333","6501500","五股區"
"243004","AAD-798","2018/02/01 14:49:35","新北市泰山區楓江路86巷16-1號","121.437411666667","25.0624766666667","6501600","泰山區"
"243003","297-R6","2018/02/01 14:49:44","新北市泰山區明志路三段201號","121.42408","25.0384266666667","6501600","泰山區"
"243007","380-SR","2018/02/01 14:49:41","新北市泰山區明志路二段198號","121.427331666667","25.0494333333333","6501600","泰山區"
"243006","421-VK","2018/02/01 14:49:31","新北市泰山區明志路一段180號","121.433136666667","25.06239","6501600","泰山區"
"243002","KEA-2215","2018/02/01 14:49:47","新北市泰山區明志路二段254號","121.426896666667","25.0476683333333","6501600","泰山區"
"243001","KEA-2216","2018/02/01 14:49:31","新北市泰山區泰林路二段191號","121.43336","25.0611416666667","6501600","泰山區"
"243005","646-TV","2018/02/01 14:49:43","新北市泰山區明志路三段77號","121.425045","25.0418866666667","6501600","泰山區"
"243008","680-BX","2018/02/01 14:49:44","新北市泰山區貴陽街4-1號","121.421588333333","25.033105","6501600","泰山區"
"231002","002-UM","2018/02/01 14:49:42","新北市新店區民權路99號","121.536891666667","24.9829166666667","6500600","新店區"
"231025","0291-UT","2018/02/01 14:49:40","新北市新店區民族路161號","121.537786666667","24.976815","6500600","新店區"
"231027","0293-UT","2018/02/01 14:49:37","新北市新店區三民路157-1號","121.53373","24.9737233333333","6500600","新店區"
"231028","046-UY","2018/02/01 14:49:44","新北市新店區安德街160號","121.508451666667","24.959245","6500600","新店區"
"231030","047-UY","2018/02/01 14:49:41","新北市新店區安民街237號","121.517128333333","24.9720533333333","6500600","新店區"
"231029","106-UY","2018/02/01 14:49:41","新北市新店區錦秀路1-3號","121.479061666667","24.94547","6500600","新店區"
"231018","107-UY","2018/02/01 14:49:33","新北市新店區中央一街20-1號","121.528343333333","24.9730783333333","6500600","新店區"
"231011","108-UY","2018/02/01 14:49:37","新北市新店區寶橋路76-1號","121.546788333333","24.9750033333333","6500600","新店區"
"231013","110-UY","2018/02/01 14:49:29","新北市新店區北新路二段35號","121.542561666667","24.97268","6500600","新店區"
"231021","187-VK","2018/02/01 14:49:22","新北市新店區金興路38-1號","121.55463","24.928995","6500600","新店區"
"231035","188-VK","2018/02/01 14:49:26","新北市新店區安樂街12號","121.520795","24.9733783333333","6500600","新店區"
"231017","KEA-2219","2018/02/01 14:49:37","新北市新店區北宜路三段86號","121.577623333333","24.9514983333333","6500600","新店區"
"231026","256-BX","2018/02/01 14:49:42","新北市新店區安華路28-1號","121.51971","24.96107","6500600","新店區"
"231023","AAD-862","2018/02/01 14:49:33","新北市新店區檳榔路107號","121.544871666667","24.961485","6500600","新店區"
"231036","512-UM","2018/02/01 14:49:27","新北市新店區安祥路106巷94號","121.474338333333","24.9595533333333","6500600","新店區"
"231003","616-UM","2018/02/01 14:49:29","新北市新店區中興路二段121巷1號","121.5475","24.9720016666667","6500600","新店區"
"231001","619-UM","2018/02/01 14:49:26","新北市新店區三民路125號","121.534661666667","24.97242","6500600","新店區"
"231034","645-TV","2018/02/01 14:49:45","新北市新店區玫瑰路4-1號","121.493615","24.9513633333333","6500600","新店區"
"231039","718-UY","2018/02/01 14:49:38","新北市新店區安華路8號","121.519836666667","24.962365","6500600","新店區"
"231031","720-UM","2018/02/01 14:49:45","新北市新店區安康路二段385-1號","121.494805","24.9545133333333","6500600","新店區"
"231005","897-TW","2018/02/01 14:49:47","新北市新店區復興路40-1號","121.538748333333","24.9867416666667","6500600","新店區"
"231006","898-TW","2018/02/01 14:49:32","新北市新店區北宜路一段115巷1號","121.540225","24.9543233333333","6500600","新店區"
"231004","899-TW","2018/02/01 14:49:42","新北市新店區民族路161號","121.537806666667","24.9769","6500600","新店區"
"231037","AKT-0513","2018/02/01 14:49:42","新北市新店區柴埕路52巷16號","121.511101666667","24.9654483333333","6500600","新店區"
"235030","003-UY","2018/02/01 14:49:39","新北市中和區南工路6號","121.50543","25.0002583333333","6500300","中和區"
"235028","005-UY","2018/02/01 14:49:35","新北市中和區南山路127巷18弄1號","121.503618333333","24.997445","6500300","中和區"
"235013","031-BX","2018/02/01 14:49:36","新北市中和區景平路572號","121.501725","24.9953416666667","6500300","中和區"
"235020","096-UM","2018/02/01 14:49:35","新北市中和區中山路三段114巷29號","121.475461666667","25.0083466666667","6500300","中和區"
"235003","097-UM","2018/02/01 14:49:45","新北市中和區安樂路243巷2號","121.513883333333","24.9996566666667","6500300","中和區"
"235029","098-UM","2018/02/01 14:49:43","新北市中和區福祥路68號","121.499223333333","25.0052616666667","6500300","中和區"
"235004","150-BY","2018/02/01 14:49:46","新北市中和區景安路77號","121.506421666667","24.99734","6500300","中和區"
"235022","151-BY","2018/02/01 14:49:41","新北市中和區員山路142巷24號","121.482445","24.9965","6500300","中和區"
"235019","183-VK","2018/02/01 14:49:32","新北市中和區民生街85巷6弄1號","121.469203333333","25.0040216666667","6500300","中和區"
"235002","185-VK","2018/02/01 14:49:32","新北市永和區民生路42號","121.52244","24.9966483333333","6500300","中和區"
"235031","255-BX","2018/02/01 14:49:37","新北市中和區新生街220巷27號","121.482565","24.99847","6500300","中和區"
"235008","293-VK","2018/02/01 14:49:34","新北市中和區南山路399巷9號","121.506935","24.9903466666667","6500300","中和區"
"235036","301-VK","2018/02/01 14:49:30","新北市中和區泰和街25號","121.499361666667","25.0001","6500300","中和區"
"235007","352-BY","2018/02/01 14:49:35","新北市中和區安和路9號","121.511515","24.99367","6500300","中和區"
"235032","377-QA","2018/02/01 14:49:39","新北市中和區福美路301巷2號","121.49711","25.004635","6500300","中和區"
"235025","378-QA","2018/02/01 14:49:29","新北市中和區員山路127-1號","121.480965","24.9956566666667","6500300","中和區"
"235035","269-TV","2018/02/01 14:49:31","新北市中和區連城路268-8號","121.486653333333","24.99644","6500300","中和區"
"235014","4979-A6","2018/02/01 14:49:36","新北市中和區景平路241巷82弄29號","121.506655","24.992355","6500300","中和區"
"235006","551-UM","2018/02/01 14:49:45","新北市中和區保健路27-4號","121.508585","24.99782","6500300","中和區"
"235018","640-BX","2018/02/01 14:49:37","新北市中和區莒光路119號","121.472485","25.0022633333333","6500300","中和區"
"235024","647-TV","2018/02/01 14:49:41","新北市中和區新生街16巷9號","121.482741666667","25.0042466666667","6500300","中和區"
"235010","733-UM","2018/02/01 14:49:45","新北市中和區仁愛街38號","121.510983333333","24.98828","6500300","中和區"
"235026","800-TS","2018/02/01 14:49:38","新北市中和區錦和路3號","121.486005","25.00421","6500300","中和區"
"235005","802-TS","2018/02/01 14:49:27","新北市中和區安平路17號","121.509173333333","24.99415","6500300","中和區"
"235016","805-TS","2018/02/01 14:49:44","新北市中和區華新街192巷34號","121.506206666667","24.9834433333333","6500300","中和區"
"235012","896-TW","2018/02/01 14:49:47","新北市中和區信義街115號","121.512236666667","24.9869016666667","6500300","中和區"
"235017","900-TW","2018/02/01 14:49:39","新北市中和區國光街142巷10號","121.468276666667","25.0017783333333","6500300","中和區"
"235015","157-BY","2018/02/01 14:49:28","新北市中和區中興街127號","121.500095","24.991715","6500300","中和區"
"235023","AAC-215","2018/02/01 14:49:35","新北市中和區圓通路305巷5弄50號","121.49495","24.99004","6500300","中和區"
"220016","013-TV","2018/02/01 14:49:48","新北市板橋區光復街133巷31號","121.484228333333","25.0196116666667","6500100","板橋區"
"220013","072-UY","2018/02/01 14:49:26","新北市板橋區國泰街38巷3弄18號","121.468143333333","25.006695","6500100","板橋區"
"220105","075-UY","2018/02/01 14:49:45","新北市板橋區仁化街221號","121.478821666667","25.0346633333333","6500100","板橋區"
"220017","AAD-861","2018/02/01 14:49:28","新北市板橋區貴興路106巷16弄2號","121.454865","25.0034566666667","6500100","板橋區"
"220047","120-SR","2018/02/01 14:49:41","新北市板橋區裕民街111巷6號","121.459781666667","25.0273916666667","6500100","板橋區"
"247021","893-R6","2018/02/01 14:49:44","新北市蘆洲區仁愛街212巷9號","121.464661666667","25.093335","6501400","蘆洲區"
"247019","500-BY","2018/02/01 14:49:25","新北市蘆洲區民義街68巷5號","121.47342","25.0896616666667","6501400","蘆洲區"
"247001","337-TH","2018/02/01 14:49:37","新北市蘆洲區長安街377號","121.457266666667","25.08782","6501400","蘆洲區"
"247003","336-TH","2018/02/01 14:49:34","新北市蘆洲區永康街1巷13號","121.459571666667","25.0857816666667","6501400","蘆洲區"
"247015","057-VK","2018/02/01 14:49:10","新北市蘆洲區光華路119巷7號","121.467146666667","25.081905","6501400","蘆洲區"
"247007","053-VK","2018/02/01 14:49:39","新北市蘆洲區中山一路135巷8號","121.475776666667","25.0811266666667","6501400","蘆洲區"
"247013","007-UY","2018/02/01 14:49:40","新北市蘆洲區成功路151號","121.472188333333","25.0825783333333","6501400","蘆洲區"
"247023","002-UY","2018/02/01 14:49:37","新北市蘆洲區和平路79號","121.468855","25.0792516666667","6501400","蘆洲區"
"235021","251-BX","2018/02/01 14:49:48","新北市中和區員山路150-27號","121.481331666667","24.9981433333333","6500300","中和區"
"228005","097-TW","2018/02/01 14:49:42","新北市貢寮區美豐里丹裡街69號","121.906438333333","25.0578416666667","6502600","貢寮區"
"228004","212-TW","2018/02/01 14:49:40","新北市貢寮區福隆里裕隆街5號","121.946148333333","25.0159366666667","6502600","貢寮區"
"253003","6232-TK","2018/02/01 14:49:38","新北市石門區尖子鹿101-1號","121.580098333333","25.29245","6502200","石門區"
"253001","6251-TK","2018/02/01 14:45:05","新北市石門區崁子腳65-3號","121.532618333333","25.2852433333333","6502200","石門區"
"253002","637-UY","2018/02/01 14:49:28","新北市石門區楓林58號","121.542228333333","25.2730166666667","6502200","石門區"
"253004","8270-PC","2018/02/01 14:49:36","新北市石門區內阿里磅28號","121.58919","25.242455","6502200","石門區"
"208004","AAC-292","2018/02/01 14:49:33","新北市金山區兩湖里倒照湖45號","121.59022","25.234925","6502700","金山區"
"208001","761-BX","2018/02/01 14:49:37","台北市文山區新光路二段98號","121.594671666667","24.99946","6502700","金山區"
"207002","749-BX","2018/02/01 14:49:42","新北市萬里區崁腳里崁腳路73號","121.647641666667","25.1596216666667","6502800","萬里區"
"207001","662-BX","2018/02/01 14:48:50","新北市萬里區雙興里豐稟路39號","121.64285","25.18182","6502800","萬里區"
"236066","105-UM","2018/02/01 14:49:29","新北市土城區明德路一段361-3號","121.456155","24.9778","6501300","土城區"
"236040","107-UM","2018/02/01 14:49:31","新北市土城區裕民路114巷1-2號","121.450771666667","24.9861766666667","6501300","土城區"
"236076","166-UM","2018/02/01 14:49:38","新北市土城區中央路四段185巷23號","121.415631666667","24.955785","6501300","土城區"
"236028","253-BX","2018/02/01 14:49:38","新北市土城區千歲路5號","121.440775","24.9700416666667","6501300","土城區"
"236024","269-VK","2018/02/01 14:49:45","新北市土城區慶安街52號","121.441051666667","24.973185","6501300","土城區"
"236012","270-VK","2018/02/01 14:49:34","新北市土城區金城路二段338巷8號","121.460648333333","24.984035","6501300","土城區"
"236033","271-VK","2018/02/01 14:49:42","新北市土城區明德路一段221巷5號","121.463731666667","24.9781016666667","6501300","土城區"
"236018","401-BY","2018/02/01 14:49:27","新北市土城區延吉街253巷15號","121.467915","24.9842916666667","6501300","土城區"
"236056","912-UM","2018/02/01 14:49:43","新北市土城區中央路三段227號","121.429333333333","24.9644116666667","6501300","土城區"
"236047","913-UM","2018/02/01 14:49:43","新北市土城區廣福街68巷18弄1號","121.459455","24.9905133333333","6501300","土城區"
"236060","915-UM","2018/02/01 14:49:38","新北市土城區金城路三段207巷8弄13號","121.470246666667","24.9904666666667","6501300","土城區"
"236052","AAC-216","2018/02/01 14:49:27","新北市土城區裕民路169-1號","121.45315","24.9851416666667","6501300","土城區"
"238022","KEA-2213","2018/02/01 14:49:42","新北市樹林區育德街78-1號","121.387866666667","24.9680383333333","6500700","樹林區"
"238012","303-VK","2018/02/01 14:49:37","新北市樹林區育德街78號","121.387465","24.968415","6500700","樹林區"
"220027","145-BY","2018/02/01 14:49:42","新北市板橋區建國街112號","121.460221666667","25.0174916666667","6500100","板橋區"
"220028","200-UY","2018/02/01 14:49:45","新北市板橋區大觀路二段37巷32號","121.448413333333","25.00273","6500100","板橋區"
"220030","610-BX","2018/02/01 14:49:42","新北市板橋區大觀路三段198巷1號","121.430833333333","24.9925966666667","6500100","板橋區"
"220052","257-TC","2018/02/01 14:49:27","新北市板橋區陽明街27巷1號","121.465725","25.0218566666667","6500100","板橋區"
"220034","259-TC","2018/02/01 14:49:27","新北市板橋區國光路31號","121.457128333333","25.0175466666667","6500100","板橋區"
"220004","276-BY","2018/02/01 14:49:41","新北市板橋區德興街37巷14號","121.45394","24.9938166666667","6500100","板橋區"
"220020","277-BY","2018/02/01 14:49:46","新北市板橋區金門街215巷109號","121.433486666667","24.9880466666667","6500100","板橋區"
"220050","280-UM","2018/02/01 14:49:41","新北市板橋區莊敬路247號","121.473183333333","25.0215366666667","6500100","板橋區"
"220019","283-VK","2018/02/01 14:49:41","新北市板橋區五權街30巷37弄16-2號","121.463506666667","24.9923066666667","6500100","板橋區"
"220043","285-UM","2018/02/01 14:49:29","新北市板橋區長江路一段114號","121.459861666667","25.0297433333333","6500100","板橋區"
"220001","285-VK","2018/02/01 14:49:48","新北市板橋區民享街2號","121.475531666667","25.014745","6500100","板橋區"
"220031","286-VK","2018/02/01 14:49:46","新北市板橋區龍興街101巷2號","121.444436666667","25.0031616666667","6500100","板橋區"
"220029","287-VK","2018/02/01 14:49:44","新北市板橋區大觀路一段29巷131弄10號","121.450608333333","25.0050966666667","6500100","板橋區"
"220039","288-VK","2018/02/01 14:49:31","新北市板橋區龍泉街54巷7弄2號","121.456798333333","25.02659","6500100","板橋區"
"220009","293-UM","2018/02/01 14:49:41","新北市板橋區板新路131號","121.470833333333","25.0154483333333","6500100","板橋區"
"220010","295-UM","2018/02/01 14:49:47","新北市板橋區三民路二段40號","121.479253333333","25.0177216666667","6500100","板橋區"
"220032","296-UM","2018/02/01 14:49:38","新北市板橋區溪崑二街124巷14號","121.425558333333","24.988355","6500100","板橋區"
"220023","303-R5","2018/02/01 14:49:47","新北市板橋區大勇街77號","121.452935","25.016585","6500100","板橋區"
"220041","307-R5","2018/02/01 14:49:47","新北市板橋區陽明街164巷26號","121.4647","25.02462","6500100","板橋區"
"220012","486-VK","2018/02/01 14:49:33","新北市板橋區民族路60號","121.462593333333","25.009545","6500100","板橋區"
"220038","487-VK","2018/02/01 14:49:27","新北市板橋區龍泉街135號","121.457661666667","25.0240066666667","6500100","板橋區"
"220037","491-VK","2018/02/01 14:49:35","新北市板橋區文化路二段486號","121.475173333333","25.033005","6500100","板橋區"
"220104","560-BX","2018/02/01 14:49:28","新北市板橋區金華街52號","121.456801666667","25.0204516666667","6500100","板橋區"
"220003","568-UM","2018/02/01 14:49:43","新北市板橋區國慶路149巷31號","121.460861666667","24.9977383333333","6500100","板橋區"
"220040","637-BX","2018/02/01 14:49:32","新北市板橋區懷德街139巷20弄8號","121.480128333333","25.0305433333333","6500100","板橋區"
"220005","686-BX","2018/02/01 14:49:45","新北市板橋區廣和街62號","121.462115","24.9938533333333","6500100","板橋區"
"220025","687-BX","2018/02/01 14:49:32","新北市板橋區僑中二街106巷1號","121.445861666667","25.007505","6500100","板橋區"
"220042","689-BX","2018/02/01 14:49:43","新北市板橋區長江路一段100號","121.459385","25.0294933333333","6500100","板橋區"
"220002","741-BX","2018/02/01 14:49:46","新北市板橋區忠孝路忠義巷15弄110號","121.465316666667","25.00606","6500100","板橋區"
"220014","829-TW","2018/02/01 14:49:47","新北市板橋區長安街255巷40號","121.472433333333","25.0112416666667","6500100","板橋區"
"220045","830-TW","2018/02/01 14:49:45","新北市板橋區民生路二段234巷45號","121.469511666667","25.0227683333333","6500100","板橋區"
"220011","833-TW","2018/02/01 14:49:40","新北市板橋區三民路二段142號","121.479076666667","25.0157216666667","6500100","板橋區"
"220022","895-R6","2018/02/01 14:49:45","新北市板橋區府中路29-2號","121.458486666667","25.0080433333333","6500100","板橋區"
"220021","985-R7","2018/02/01 14:49:34","新北市板橋區大仁街42號","121.455093333333","25.0167","6500100","板橋區"
"220046","AAC-210","2018/02/01 14:49:28","新北市板橋區文化路一段307巷3號","121.464706666667","25.0192566666667","6500100","板橋區"
"220018","AAC-253","2018/02/01 14:49:47","新北市板橋區民族路215號","121.46944","25.0072683333333","6500100","板橋區"
