"lineid","car","time","location","longitude","latitude","cityid","cityname"
"234005","207-UY","2018/02/01 15:59:37","新北市五股區凌雲路三段24巷21-9號","121.433788333333","25.10755","6500400","永和區"
"248020","225-UY","2018/02/01 15:37:48","新北市五股區中興路二段83巷26-6號","121.46009","25.0751933333333","6501500","五股區"
"231030","047-UY","2018/02/01 15:59:41","新北市新店區永平街6號","121.517455","24.9835183333333","6500600","新店區"
"231018","107-UY","2018/02/01 15:59:32","新北市新店區中正路663巷7弄13號","121.532836666667","24.9900466666667","6500600","新店區"
"231011","108-UY","2018/02/01 15:59:37","新北市新店區中央路2號","121.533938333333","24.9788383333333","6500600","新店區"
"231013","110-UY","2018/02/01 15:59:29","新北市新店區安康路一段222-1號","121.522786666667","24.9637283333333","6500600","新店區"
"231021","187-VK","2018/02/01 15:59:42","新北市新店區安康路二段58巷3號","121.514808333333","24.964205","6500600","新店區"
"231035","188-VK","2018/02/01 15:59:26","新北市新店區安民街269巷11號","121.516775","24.973055","6500600","新店區"
"231017","KEA-2219","2018/02/01 15:59:37","新北市新店區中正路284巷2號","121.538346666667","24.97476","6500600","新店區"
"231026","256-BX","2018/02/01 15:59:22","新北市新店區民生路45號","121.53225","24.9859166666667","6500600","新店區"
"231046","278-BY","2018/02/01 15:59:38","新北市新店區安康路一段355-3號","121.51985","24.962615","6500600","新店區"
"231038","4715-K9","2018/02/01 15:59:27","新北市新店區安康路二段226號","121.509531666667","24.9592666666667","6500600","新店區"
"231034","645-TV","2018/02/01 15:59:25","新北市新店區吉祥街2巷2號","121.497295","24.9476516666667","6500600","新店區"
"231037","AKT-0513","2018/02/01 15:59:21","新北市新店區安和路一段43號","121.517153333333","24.9655366666667","6500600","新店區"
"241011","013-R5","2018/02/01 15:59:23","新北市三重區雙園街16號","121.4972","25.06829","6500200","三重區"
"241028","022-UY","2018/02/01 15:59:38","新北市三重區大同南路124號","121.496403333333","25.0583716666667","6500200","三重區"
"241008","059-VK","2018/02/01 15:59:22","新北市三重區慈愛街42號","121.485601666667","25.0789966666667","6500200","三重區"
"241015","062-VK","2018/02/01 15:59:30","新北市三重區重新路四段121號","121.48509","25.0520766666667","6500200","三重區"
"241017","063-VK","2018/02/01 15:59:38","新北市三重區大仁街48巷41號","121.490861666667","25.0644216666667","6500200","三重區"
"241024","065-VK","2018/02/01 15:59:29","新北市三重區中正北路145巷5弄3號","121.484393333333","25.0676383333333","6500200","三重區"
"241005","262-UM","2018/02/01 15:59:29","新北市三重區溪尾街305號","121.487526666667","25.0836883333333","6500200","三重區"
"241016","266-UM","2018/02/01 15:59:26","新北市三重區重新路四段121號","121.485146666667","25.0520716666667","6500200","三重區"
"241022","267-UM","2018/02/01 15:59:35","新北市三重區忠孝路三段40巷44號","121.482908333333","25.0658583333333","6500200","三重區"
"241013","270-UM","2018/02/01 15:59:31","新北市三重區三和路三段18號","121.496893333333","25.0702666666667","6500200","三重區"
"241025","271-UM","2018/02/01 15:59:43","新北市三重區三民街158號","121.482375","25.065465","6500200","三重區"
"241007","398-BY","2018/02/01 15:59:34","新北市三重區力行路二段1號","121.482048333333","25.0718666666667","6500200","三重區"
"241020","413-TH","2018/02/01 15:59:42","新北市三重區忠孝路二段70號","121.484386666667","25.06999","6500200","三重區"
"241019","478-VK","2018/02/01 15:59:28","新北市三重區自強路二段74巷19號","121.488018333333","25.0699716666667","6500200","三重區"
"241014","543-UM","2018/02/01 15:59:32","新北市三重區重新路四段121號","121.485068333333","25.0520466666667","6500200","三重區"
"241023","545-UM","2018/02/01 15:59:33","新北市三重區中正北路174-6號","121.483548333333","25.0667766666667","6500200","三重區"
"241001","547-UM","2018/02/01 15:59:28","新北市三重區捷運路36號","121.48284","25.055235","6500200","三重區"
"241006","AAD-863","2018/02/01 15:59:31","新北市三重區重新路四段121號","121.484646666667","25.05186","6500200","三重區"
"241003","887-TS","2018/02/01 15:59:38","新北市三重區集賢路11-3號","121.496215","25.0845716666667","6500200","三重區"
"241012","941-UM","2018/02/01 15:59:42","新北市三重區正義北路119號","121.497051666667","25.06605","6500200","三重區"
"241029","942-UM","2018/02/01 15:59:35","新北市三重區大同南路212巷24號","121.497466666667","25.0566583333333","6500200","三重區"
"241033","AAC-255","2018/02/01 15:59:35","新北市三重區重新路五段454號","121.47448","25.04736","6500200","三重區"
"235026","800-TS","2018/02/01 15:59:38","新北市中和區中山路二段365號","121.48773","25.0047666666667","6500300","中和區"
"235023","AAC-215","2018/02/01 15:59:33","新北市中和區員山路57號","121.480843333333","24.9934033333333","6500300","中和區"
"224005","271-BY","2018/02/01 15:59:34","新北市瑞芳區傑魚坑路37號","121.793691666667","25.1105033333333","6501200","瑞芳區"
"227004","642-TC","2018/02/01 15:59:25","新北市雙溪區平林里外平林71號","121.842126666667","25.034925","6502500","雙溪區"
"227010","400-TW","2018/02/01 15:59:39","新北市雙溪區三港里雙澳路38號","121.871981666667","25.0510266666667","6502500","雙溪區"
"208004","AAC-292","2018/02/01 15:59:33","新北市金山區磺港里磺港路171-1號","121.643671666667","25.22391","6502700","金山區"
"236066","105-UM","2018/02/01 15:59:28","新北市土城區福安街19-1號","121.419898333333","24.9649966666667","6501300","土城區"
"236076","166-UM","2018/02/01 15:59:38","新北市土城區福安街2號","121.420311666667","24.9652183333333","6501300","土城區"
"236018","401-BY","2018/02/01 15:59:30","新北市土城區延吉街23巷37號","121.47423","24.98764","6501300","土城區"
"236056","912-UM","2018/02/01 15:59:43","新北市土城區中央路二段38-3號","121.442725","24.9798783333333","6501300","土城區"
"238002","755-BX","2018/02/01 15:59:34","新北市樹林區啟智街80巷6號","121.41914","24.99226","6500700","樹林區"
"238010","601-UM","2018/02/01 15:59:29","新北市樹林區龍興街31巷29號","121.40405","25.01619","6500700","樹林區"
"238006","599-UM","2018/02/01 15:59:28","新北市樹林區水源街32巷72號","121.425028333333","24.9802166666667","6500700","樹林區"
"238005","571-TV","2018/02/01 15:59:31","新北市樹林區水源街213號","121.424295","24.9870933333333","6500700","樹林區"
"238011","5061-A6","2018/02/01 15:59:43","新北市樹林區中山路三段183號","121.394516666667","24.97246","6500700","樹林區"
"238008","KEA-2217","2018/02/01 15:59:24","新北市樹林區柑園街二段172號","121.381625","24.9541033333333","6500700","樹林區"
"238009","KEA-2213","2018/02/01 15:59:42","新北市樹林區太元街73號","121.41909","24.97855","6500700","樹林區"
"238012","303-VK","2018/02/01 15:59:37","新北市樹林區保安街一段100號","121.424055","24.9947866666667","6500700","樹林區"
"238004","283-BY","2018/02/01 15:59:26","新北市樹林區保安街二段68號","121.415323333333","25.00278","6500700","樹林區"
"238001","282-BY","2018/02/01 15:59:34","新北市樹林區保安二街64巷1弄6號","121.424208333333","24.9956316666667","6500700","樹林區"
"238007","268-VK","2018/02/01 15:59:25","新北市樹林區三俊街201號","121.4202","25.0155416666667","6500700","樹林區"
"238013","172-UY","2018/02/01 15:59:24","新北市樹林區佳園路一段81號","121.393335","24.9697866666667","6500700","樹林區"
"238003","169-UY","2018/02/01 15:59:34","新北市樹林區日新街156號","121.42035","24.98835","6500700","樹林區"
