"lineid","car","time","location","longitude","latitude","cityid","cityname"
"234005","207-UY","2018/02/01 16:19:17","新北市永和區豫溪街191巷7弄8號","121.523765","25.0109216666667","6500400","永和區"
"231018","107-UY","2018/02/01 16:19:13","新北市新店區中正路694巷15號","121.535405","24.9908816666667","6500600","新店區"
"231046","278-BY","2018/02/01 16:19:18","新北市新店區灣潭路3-3號","121.538215","24.9507683333333","6500600","新店區"
"241011","013-R5","2018/02/01 16:19:23","新北市三重區龍濱路285號","121.501128333333","25.0733466666667","6500200","三重區"
"241028","022-UY","2018/02/01 16:19:18","新北市三重區正義南路169號","121.498903333333","25.0575116666667","6500200","三重區"
"241008","059-VK","2018/02/01 16:19:22","新北市三重區力行路二段136巷45弄12號","121.479136666667","25.07535","6500200","三重區"
"241009","060-VK","2018/02/01 16:19:12","新北市三重區碧華街159號","121.486811666667","25.0820516666667","6500200","三重區"
"241031","061-VK","2018/02/01 16:19:20","新北市三重區重陽路一段45號","121.486746666667","25.0581733333333","6500200","三重區"
"241015","062-VK","2018/02/01 16:19:10","新北市三重區福德北路77號","121.50199","25.065835","6500200","三重區"
"241017","063-VK","2018/02/01 16:19:18","新北市三重區大同北路91號","121.494685","25.0636533333333","6500200","三重區"
"241024","065-VK","2018/02/01 16:19:29","新北市三重區中正北路324號","121.478888333333","25.0692216666667","6500200","三重區"
"241026","066-VK","2018/02/01 16:19:14","新北市三重區正義南路38號","121.498205","25.06087","6500200","三重區"
"241002","090-VK","2018/02/01 16:19:24","新北市三重區仁義街91號","121.499683333333","25.0797766666667","6500200","三重區"
"241005","262-UM","2018/02/01 16:19:09","新北市三重區溪尾街300-2號","121.487508333333","25.0835933333333","6500200","三重區"
"241016","266-UM","2018/02/01 16:19:06","新北市三重區大仁街88號","121.492828333333","25.0655066666667","6500200","三重區"
"241022","267-UM","2018/02/01 16:19:15","新北市三重區新北大道一段7號","121.489875","25.061355","6500200","三重區"
"241018","268-UM","2018/02/01 16:19:16","新北市三重區重陽路三段144號","121.489571666667","25.067355","6500200","三重區"
"241013","270-UM","2018/02/01 16:19:11","新北市三重區仁愛街50號","121.49607","25.07266","6500200","三重區"
"241025","271-UM","2018/02/01 16:19:08","新北市三重區中正北路560巷100弄2號","121.472578333333","25.06824","6500200","三重區"
"241007","398-BY","2018/02/01 16:19:15","新北市三重區仁美街83號","121.486196666667","25.0794716666667","6500200","三重區"
"241020","413-TH","2018/02/01 16:19:22","新北市三重區車路頭街17巷7號","121.484308333333","25.0705566666667","6500200","三重區"
"241004","475-VK","2018/02/01 16:19:30","新北市三重區五華街74號","121.49349","25.0819566666667","6500200","三重區"
"241019","478-VK","2018/02/01 16:19:28","新北市三重區忠孝路二段2號","121.487375","25.0713783333333","6500200","三重區"
"241030","480-VK","2018/02/01 16:19:20","新北市三重區重新路四段121號","121.484833333333","25.0524316666667","6500200","三重區"
"241014","543-UM","2018/02/01 16:19:12","新北市三重區河邊北街100巷25號","121.502891666667","25.0702833333333","6500200","三重區"
"241023","545-UM","2018/02/01 16:19:28","新北市三重區中正北路145巷4弄19號","121.482821666667","25.0680633333333","6500200","三重區"
"241001","547-UM","2018/02/01 16:19:15","新北市三重區自強路四段77號","121.490738333333","25.078975","6500200","三重區"
"241006","AAD-863","2018/02/01 16:19:20","新北市三重區永福街46巷31弄3號","121.481943333333","25.07753","6500200","三重區"
"241003","887-TS","2018/02/01 16:19:22","新北市三重區仁義街220巷33號","121.494146666667","25.0835083333333","6500200","三重區"
"241012","941-UM","2018/02/01 16:19:21","新北市三重區龍門路292號","121.502268333333","25.0742","6500200","三重區"
"241029","942-UM","2018/02/01 16:19:15","新北市三重區泉州街72號","121.494841666667","25.0548283333333","6500200","三重區"
"241033","AAC-255","2018/02/01 16:19:21","新北市三重區五谷王南街11巷17弄1號","121.472765","25.0446083333333","6500200","三重區"
"235026","800-TS","2018/02/01 16:19:18","新北市中和區永和路179號","121.491741666667","25.0073833333333","6500300","中和區"
"224008","275-VK","2018/02/01 16:19:15","新北市瑞芳區中山路209號","121.801228333333","25.10671","6501200","瑞芳區"
"224007","273-VK","2018/02/01 16:19:15","新北市瑞芳區大埔路152號","121.761958333333","25.1010716666667","6501200","瑞芳區"
"224005","271-BY","2018/02/01 16:19:14","新北市瑞芳區明燈路二段66號","121.809538333333","25.1076066666667","6501200","瑞芳區"
"227004","642-TC","2018/02/01 16:19:25","新北市雙溪區上林里內平林80號","121.828266666667","25.0279233333333","6502500","雙溪區"
"227010","400-TW","2018/02/01 16:19:19","新北市雙溪區三港里雙澳路80號","121.883816666667","25.0538716666667","6502500","雙溪區"
"251013","179-VK","2018/02/01 16:19:28","新北市淡水區行忠路157號","121.456141666667","25.200245","6501000","淡水區"
"251008","181-VK","2018/02/01 16:19:24","新北市淡水區中正東路34-3號","121.448565","25.16591","6501000","淡水區"
"236056","912-UM","2018/02/01 16:19:23","新北市土城區大安路2號","121.432796666667","24.9655316666667","6501300","土城區"
"238002","755-BX","2018/02/01 16:19:27","新北市樹林區中山路二段111號","121.410475","24.9809433333333","6500700","樹林區"
"238010","601-UM","2018/02/01 16:19:28","新北市樹林區三寶街12號","121.406483333333","25.01537","6500700","樹林區"
"238006","599-UM","2018/02/01 16:19:28","新北市樹林區東榮街169號","121.41403","24.98137","6500700","樹林區"
"238005","571-TV","2018/02/01 16:19:11","新北市樹林區博愛街206號","121.424605","24.9891533333333","6500700","樹林區"
"238009","KEA-2213","2018/02/01 16:19:22","新北市樹林區佳園路一段75巷202號","121.397216666667","24.9705666666667","6500700","樹林區"
"238004","283-BY","2018/02/01 16:19:26","新北市樹林區中正路433-2號","121.414905","25.0081816666667","6500700","樹林區"
"238001","282-BY","2018/02/01 16:19:14","新北市樹林區中正路22-1號","121.427805","24.999435","6500700","樹林區"
"238007","268-VK","2018/02/01 16:19:25","新北市樹林區俊興街298號","121.418575","25.0178616666667","6500700","樹林區"
"238013","172-UY","2018/02/01 16:19:24","新北市樹林區佳園路一段4號","121.392768333333","24.971645","6500700","樹林區"
