"lineid","car","time","location","longitude","latitude","cityid","cityname"
"249005","172-UM","2018/02/01 17:09:37","新北市八里區華富山3-1號","121.417631666667","25.1461566666667","6502300","八里區"
"249001","173-UM","2018/02/01 17:09:33","新北市八里區中華路二段301號","121.404798333333","25.1490383333333","6502300","八里區"
"249004","303-UY","2018/02/01 17:09:48","新北市八里區忠孝路246號","121.421336666667","25.161045","6502300","八里區"
"249002","305-UY","2018/02/01 17:09:48","新北市八里區米倉13-1號","121.438535","25.14948","6502300","八里區"
"249003","593-UM","2018/02/01 17:09:41","新北市八里區中山路二段486號","121.398566666667","25.1470266666667","6502300","八里區"
"244013","069-UM","2018/02/01 17:09:40","新北市林口區粉寮69號","121.404985","25.09086","6501700","林口區"
"244007","080-UY","2018/02/01 17:09:52","新北市林口區菁埔路16號","121.37804","25.096775","6501700","林口區"
"244019","402-UM","2018/02/01 17:09:41","新北市林口區文化一路一段190巷5弄3-2號","121.379898333333","25.07551","6501700","林口區"
"244023","483-VK","2018/02/01 17:09:55","新北市林口區粉寮路一段17號","121.396358333333","25.07654","6501700","林口區"
"244017","485-VK","2018/02/01 17:09:38","新北市林口區粉寮69號","121.404965","25.0908666666667","6501700","林口區"
"244009","656-BX","2018/02/01 17:09:35","新北市林口區文化二路二段310號","121.382726666667","25.0881","6501700","林口區"
"244021","657-BX","2018/02/01 17:09:48","新北市林口區宏昌街15號","121.403976666667","25.08516","6501700","林口區"
"231046","278-BY","2018/02/01 17:09:38","新北市新店區直潭路97號","121.532035","24.9401066666667","6500600","新店區"
"241011","013-R5","2018/02/01 17:09:43","新北市三重區龍濱路287號","121.500818333333","25.0735666666667","6500200","三重區"
"241028","022-UY","2018/02/01 17:09:38","新北市三重區重新路三段110號","121.492205","25.0604333333333","6500200","三重區"
"241008","059-VK","2018/02/01 17:09:42","新北市三重區力行路二段134號","121.482035","25.0756633333333","6500200","三重區"
"241009","060-VK","2018/02/01 17:09:51","新北市三重區三和路四段215巷36號","121.48305","25.0801483333333","6500200","三重區"
"241031","061-VK","2018/02/01 17:09:40","新北市三重區重陽路一段113巷1弄21號","121.487613333333","25.059235","6500200","三重區"
"241015","062-VK","2018/02/01 17:09:50","新北市三重區長生街20號","121.499366666667","25.0664216666667","6500200","三重區"
"241017","063-VK","2018/02/01 17:09:38","新北市三重區大仁街3巷42號","121.492523333333","25.0641933333333","6500200","三重區"
"241024","065-VK","2018/02/01 17:09:48","新北市三重區中正北路177號","121.47787","25.06939","6500200","三重區"
"241026","066-VK","2018/02/01 17:09:33","新北市三重區正義南路8號","121.498053333333","25.0616633333333","6500200","三重區"
"241002","090-VK","2018/02/01 17:09:45","新北市三重區仁義街227號","121.49679","25.0822816666667","6500200","三重區"
"241005","262-UM","2018/02/01 17:09:49","新北市三重區碧華街50號","121.483466666667","25.0812533333333","6500200","三重區"
"241016","266-UM","2018/02/01 17:09:27","新北市三重區大同北路126-1號","121.492911666667","25.0644333333333","6500200","三重區"
"241022","267-UM","2018/02/01 17:09:42","新北市三重區三民街79號","121.485721666667","25.0629483333333","6500200","三重區"
"241018","268-UM","2018/02/01 17:09:36","新北市三重區六張街126巷2弄36號","121.492826666667","25.0696083333333","6500200","三重區"
"241032","269-UM","2018/02/01 17:09:46","新北市三重區三陽路6號","121.486053333333","25.0587983333333","6500200","三重區"
"241013","270-UM","2018/02/01 17:09:51","新北市三重區仁昌街59號","121.49713","25.0740966666667","6500200","三重區"
"241025","271-UM","2018/02/01 17:09:48","新北市三重區中正北路560巷89號","121.471468333333","25.0682216666667","6500200","三重區"
"241007","398-BY","2018/02/01 17:09:34","新北市三重區三和路四段163巷46號","121.485911666667","25.0794166666667","6500200","三重區"
"241020","413-TH","2018/02/01 17:09:44","新北市三重區自強路三段55號","121.48688","25.0731333333333","6500200","三重區"
"241004","475-VK","2018/02/01 17:09:50","新北市三重區五華街98巷6號","121.492165","25.08196","6500200","三重區"
"241019","478-VK","2018/02/01 17:09:48","新北市三重區力行路一段153巷32號","121.48614","25.069095","6500200","三重區"
"241030","480-VK","2018/02/01 17:09:53","新北市三重區成功路86號","121.488126666667","25.0512616666667","6500200","三重區"
"241014","543-UM","2018/02/01 17:09:52","新北市三重區龍濱路120-6號","121.501835","25.0713566666667","6500200","三重區"
"241023","545-UM","2018/02/01 17:09:48","新北市三重區忠孝路三段84巷1號","121.480261666667","25.0645116666667","6500200","三重區"
"241001","547-UM","2018/02/01 17:09:48","新北市三重區仁愛街182號","121.494133333333","25.0769433333333","6500200","三重區"
"241006","AAD-863","2018/02/01 17:09:51","新北市三重區三和路四段264巷2弄13號","121.485155","25.0768483333333","6500200","三重區"
"241003","887-TS","2018/02/01 17:09:38","新北市三重區仁義街252號","121.49384","25.0859766666667","6500200","三重區"
"241012","941-UM","2018/02/01 17:09:41","新北市三重區仁興街10號","121.499516666667","25.07425","6500200","三重區"
"241029","942-UM","2018/02/01 17:09:35","新北市三重區中正南路254號","121.493305","25.0534333333333","6500200","三重區"
"241033","AAC-255","2018/02/01 17:09:55","新北市三重區中興北街271號","121.469158333333","25.06061","6500200","三重區"
"235046","733-UM","2018/02/01 17:03:59","新北市中和區員山路36巷13號","121.484168333333","24.990815","6500300","中和區"
"235062","800-TS","2018/02/01 17:05:29","新北市中和區員山路36巷16-3號","121.48496","24.9916683333333","6500300","中和區"
"247022","893-R6","2018/02/01 17:09:40","新北市蘆洲區三民路249號","121.468681666667","25.08921","6501400","蘆洲區"
"247012","546-UM","2018/02/01 17:09:48","新北市蘆洲區信義路294號","121.477923333333","25.087635","6501400","蘆洲區"
"247020","500-BY","2018/02/01 17:09:44","新北市蘆洲區仁愛街64號","121.47145","25.0939116666667","6501400","蘆洲區"
"247008","341-TH","2018/02/01 17:09:46","新北市蘆洲區信義路34巷14號","121.474658333333","25.0787816666667","6501400","蘆洲區"
"247010","339-TH","2018/02/01 17:09:49","新北市蘆洲區民族路26號","121.476173333333","25.08425","6501400","蘆洲區"
"247002","337-TH","2018/02/01 17:09:37","新北市蘆洲區永樂街108號","121.455633333333","25.0888583333333","6501400","蘆洲區"
"247004","336-TH","2018/02/01 17:09:45","新北市蘆洲區長安街193巷41號","121.45916","25.0811066666667","6501400","蘆洲區"
"247016","057-VK","2018/02/01 17:09:51","新北市蘆洲區正和街96巷42號","121.467745","25.0815633333333","6501400","蘆洲區"
"247006","056-VK","2018/02/01 17:09:39","新北市蘆洲區中華街6巷30號","121.46278","25.0822166666667","6501400","蘆洲區"
"247014","007-UY","2018/02/01 17:09:45","新北市蘆洲區中央路26號","121.473553333333","25.08285","6501400","蘆洲區"
"247024","002-UY","2018/02/01 17:09:40","新北市蘆洲區長興路15號","121.464081666667","25.082955","6501400","蘆洲區"
"247018","001-UY","2018/02/01 17:09:43","新北市蘆洲區復興路164號","121.477513333333","25.0881866666667","6501400","蘆洲區"
"228003","097-TW","2018/02/01 17:09:45","新北市貢寮區福隆里東興街11號","121.950453333333","25.0184816666667","6502600","貢寮區"
"228001","212-TW","2018/02/01 17:09:42","新北市貢寮區仁理村研海街62-2號","121.925705","25.0445883333333","6502600","貢寮區"
"228002","663-BX","2018/02/01 17:09:54","新北市貢寮區龍崗里泮宮路6號","121.907681666667","25.0182566666667","6502600","貢寮區"
"224006","676-BX","2018/02/01 17:09:44","新北市瑞芳區大寮路95-1號","121.779275","25.0988733333333","6501200","瑞芳區"
"224009","285-BY","2018/02/01 17:09:47","新北市瑞芳區輕便路124-2號","121.844741666667","25.112375","6501200","瑞芳區"
"224008","275-VK","2018/02/01 17:09:47","新北市瑞芳區侯硐路61號","121.829496666667","25.0886833333333","6501200","瑞芳區"
"224007","273-VK","2018/02/01 17:09:43","新北市瑞芳區瑞竹路5-1號","121.765128333333","25.10325","6501200","瑞芳區"
"224005","271-BY","2018/02/01 17:09:54","新北市瑞芳區鼻頭路227-2號","121.914516666667","25.124025","6501200","瑞芳區"
"227004","642-TC","2018/02/01 17:09:46","新北市雙溪區外柑里外柑腳77號","121.806891666667","25.0175116666667","6502500","雙溪區"
"227010","400-TW","2018/02/01 17:09:38","新北市雙溪區三貂里子崙坑1-6號","121.849905","25.05746","6502500","雙溪區"
"251009","008-UM","2018/02/01 17:09:50","新北市淡水區三民街20號","121.439008333333","25.171785","6501000","淡水區"
"251004","009-UM","2018/02/01 17:09:47","新北市淡水區建設街1巷1號","121.439041666667","25.1728066666667","6501000","淡水區"
"251005","010-UM","2018/02/01 17:09:45","新北市淡水區水源街一段67號","121.444356666667","25.1723266666667","6501000","淡水區"
"251013","179-VK","2018/02/01 17:09:48","新北市淡水區桂花樹1號","121.482933333333","25.1967383333333","6501000","淡水區"
"251014","180-VK","2018/02/01 17:09:53","新北市淡水區八里堆7-5號","121.460363333333","25.2248133333333","6501000","淡水區"
"251008","181-VK","2018/02/01 17:09:12","新北市淡水區樹梅坑7-1號","121.472608333333","25.1448783333333","6501000","淡水區"
"251015","182-VK","2018/02/01 17:09:10","新北市淡水區樹林口42-8號","121.467448333333","25.1684783333333","6501000","淡水區"
"251010","413-VK","2018/02/01 17:09:48","新北市淡水區新市五路二段75號","121.431236666667","25.1982733333333","6501000","淡水區"
"251012","441-VK","2018/02/01 17:09:54","新北市淡水區中山北路一段156號","121.444095","25.177945","6501000","淡水區"
"251016","442-VK","2018/02/01 17:09:53","新北市淡水區社厝坑1號","121.476473333333","25.18887","6501000","淡水區"
"251006","561-UM","2018/02/01 17:09:37","新北市淡水區新民街21號","121.439325","25.175245","6501000","淡水區"
"251007","577-R6","2018/02/01 17:09:39","新北市淡水區中正東路二段141號","121.459576666667","25.1481416666667","6501000","淡水區"
"251011","650-BX","2018/02/01 17:09:43","新北市淡水區坪頂路49號","121.457913333333","25.1626016666667","6501000","淡水區"
"251003","766-UM","2018/02/01 17:09:47","新北市淡水區中正路二段31號","121.419456666667","25.18149","6501000","淡水區"
"252002","178-VK","2018/02/01 17:09:47","新北市三芝區忠孝街9號","121.50589","25.25498","6502100","三芝區"
"252001","292-VK","2018/02/01 17:09:52","新北市三芝區埔坪里埔頭坑33號","121.501628333333","25.2615633333333","6502100","三芝區"
"242031","AAC-296","2018/02/01 17:09:55","新北市新莊區新泰路357巷3弄57號","121.442185","25.039415","6500500","新莊區"
"242023","613-BX","2018/02/01 17:09:45","新北市新莊區新泰路357巷3弄57號","121.442156666667","25.0392616666667","6500500","新莊區"
"242027","612-BX","2018/02/01 17:09:43","新北市新莊區新泰路357巷3弄57號","121.442148333333","25.039285","6500500","新莊區"
"242039","566-BX","2018/02/01 17:09:45","新北市新莊區新泰路357巷3弄19號","121.442055","25.04078","6500500","新莊區"
"242044","442-UM","2018/02/01 17:09:42","新北市新莊區中正路535-4號","121.437835","25.0332116666667","6500500","新莊區"
"242053","440-UM","2018/02/01 17:09:38","新北市新莊區新泰路357巷3弄1號","121.44234","25.04134","6500500","新莊區"
"242034","415-TV","2018/02/01 16:40:03","新北市新莊區新泰路357巷3弄57號","121.441896666667","25.0393333333333","6500500","新莊區"
"242004","413-TV","2018/02/01 17:09:55","新北市新莊區新泰路357巷3弄57號","121.441961666667","25.0394783333333","6500500","新莊區"
"242042","400-BY","2018/02/01 17:09:34","新北市新莊區新泰路357巷3弄57號","121.442135","25.0395","6500500","新莊區"
"242058","353-BY","2018/02/01 17:09:35","新北市新莊區新泰路255巷83號","121.442138333333","25.0389066666667","6500500","新莊區"
"242007","132-UY","2018/02/01 17:09:46","新北市新莊區新泰路255巷83號","121.442055","25.038975","6500500","新莊區"
"242036","133-UY","2018/02/01 17:09:52","新北市泰山區磚雅厝3號","121.442023333333","25.0418516666667","6500500","新莊區"
"242021","135-UY","2018/02/01 17:09:38","新北市新莊區新泰路255巷83號","121.442071666667","25.038875","6500500","新莊區"
"242009","173-VK","2018/02/01 17:09:41","新北市新莊區三和路12-21號","121.442085","25.0387683333333","6500500","新莊區"
"242015","175-VK","2018/02/01 17:09:52","新北市新莊區三和路12-21號","121.441986666667","25.0387333333333","6500500","新莊區"
"242002","176-VK","2018/02/01 17:09:38","新北市新莊區三和路12-21號","121.44195","25.0386983333333","6500500","新莊區"
"242013","346-TH","2018/02/01 17:09:47","新北市新莊區三和路12-16號","121.442171666667","25.0374633333333","6500500","新莊區"
"242051","347-TH","2018/02/01 17:09:51","新北市新莊區新泰路357巷3弄51號","121.441916666667","25.04001","6500500","新莊區"
"242019","348-TH","2018/02/01 17:09:53","新北市新莊區新泰路357巷3弄57號","121.44187","25.0395433333333","6500500","新莊區"
"242017","350-TH","2018/02/01 17:09:50","新北市新莊區新泰路255巷83號","121.441988333333","25.0389466666667","6500500","新莊區"
"242011","351-TH","2018/02/01 17:09:42","新北市新莊區新泰路357巷3弄57號","121.442033333333","25.0396","6500500","新莊區"
"238023","601-UM","2018/02/01 17:09:48","新北市樹林區中山路二段209號","121.403071666667","24.978385","6500700","樹林區"
"238019","599-UM","2018/02/01 17:09:28","新北市樹林區八德街1012號","121.391385","24.968505","6500700","樹林區"
"238018","571-TV","2018/02/01 17:09:54","新北市樹林區博愛街257號","121.424526666667","24.98459","6500700","樹林區"
"238024","5061-A6","2018/02/01 17:09:43","新北市樹林區鎮前街77-21號","121.424761666667","24.9902166666667","6500700","樹林區"
"238004","283-BY","2018/02/01 17:09:46","新北市樹林區中正路433-2號","121.414746666667","25.0082666666667","6500700","樹林區"
"238001","282-BY","2018/02/01 17:09:54","新北市樹林區中正路22-1號","121.427626666667","24.99948","6500700","樹林區"
"238026","172-UY","2018/02/01 17:07:54","新北市樹林區育德街78-1號","121.387726666667","24.9682416666667","6500700","樹林區"
"238016","169-UY","2018/02/01 17:09:44","新北市樹林區八德街1號","121.417478333333","24.9849433333333","6500700","樹林區"
"239007","AAC-297","2018/02/01 17:09:51","新北市鶯歌區建國路77號","121.35348","24.9541533333333","6500800","鶯歌區"
"239006","891-R6","2018/02/01 17:09:44","新北市鶯歌區八德路2巷37弄10號","121.337133333333","24.9464583333333","6500800","鶯歌區"
"239008","527-UM","2018/02/01 17:09:44","新北市鶯歌區尖山路90號","121.348315","24.9492916666667","6500800","鶯歌區"
"239005","526-UM","2018/02/01 17:09:52","新北市鶯歌區德昌二街95號","121.333293333333","24.9574983333333","6500800","鶯歌區"
"239001","417-VK","2018/02/01 17:09:49","新北市鶯歌區尖山路140巷8號","121.346446666667","24.9491583333333","6500800","鶯歌區"
"239003","360-BY","2018/02/01 17:09:52","新北市鶯歌區八德路50號","121.330493333333","24.9555","6500800","鶯歌區"
"239002","359-BY","2018/02/01 17:09:40","新北市鶯歌區建國路200號","121.34949","24.953425","6500800","鶯歌區"
"239004","193-VK","2018/02/01 17:09:47","新北市鶯歌區文化路324巷4弄2號","121.349676666667","24.9451866666667","6500800","鶯歌區"
"242048","281-VK","2018/02/01 17:09:37","新北市新莊區中正路535-5號","121.438688333333","25.0333033333333","6500500","新莊區"
