"lineid","car","time","location","longitude","latitude","cityid","cityname"
"234007","207-UY","2018/02/01 18:09:40","新北市永和區環河西路二段157-1號","121.505321666667","25.01391","6500400","永和區"
"234038","336-UY","2018/02/01 18:09:30","新北市永和區福和路1號","121.526603333333","25.0101166666667","6500400","永和區"
"234026","9371-KE","2018/02/01 18:09:25","新北市永和區自強街8巷5弄1號","121.514753333333","25.0077266666667","6500400","永和區"
"249005","172-UM","2018/02/01 18:09:37","新北市八里區荖阡坑路15號","121.401698333333","25.1399033333333","6502300","八里區"
"249001","173-UM","2018/02/01 18:09:33","新北市八里區龍米路二段26號","121.448765","25.139375","6502300","八里區"
"249004","303-UY","2018/02/01 18:09:28","新北市八里區龍米路二段150號","121.435938333333","25.1566033333333","6502300","八里區"
"249002","305-UY","2018/02/01 18:09:28","新北市八里區龍米路一段386巷9號","121.452278333333","25.1322516666667","6502300","八里區"
"249003","593-UM","2018/02/01 18:09:20","新北市八里區中華路二段165巷19弄15號","121.409636666667","25.151335","6502300","八里區"
"248014","025-BX","2018/02/01 18:09:31","新北市五股區成泰路一段235-1號","121.436221666667","25.0794833333333","6501500","五股區"
"248016","026-BX","2018/02/01 18:09:30","新北市五股區成泰路三段101-1號","121.44424","25.0903916666667","6501500","五股區"
"248006","077-UY","2018/02/01 18:09:36","新北市五股區中興路二段77-1號","121.461081666667","25.077025","6501500","五股區"
"248008","095-VK","2018/02/01 18:09:35","新北市五股區中興路二段182巷15弄13號","121.457123333333","25.08134","6501500","五股區"
"248020","225-UY","2018/02/01 18:09:30","新北市五股區成泰路四段2號","121.452843333333","25.1061583333333","6501500","五股區"
"248012","247-BX","2018/02/01 18:09:40","新北市五股區中興路三段188號","121.444423333333","25.0811933333333","6501500","五股區"
"248010","272-BY","2018/02/01 18:09:35","新北市五股區新五路二段258號","121.440991666667","25.082065","6501500","五股區"
"248004","677-BX","2018/02/01 18:09:35","新北市五股區工商路16號","121.439583333333","25.083235","6501500","五股區"
"248002","678-BX","2018/02/01 18:09:39","新北市五股區中興路三段190-2號","121.44355","25.081465","6501500","五股區"
"232011","375-UM","2018/02/01 18:09:31","新北市坪林區坪林街16-1號","121.71247","24.936275","6502000","坪林區"
"244013","069-UM","2018/02/01 18:09:40","新北市林口區中山路27號","121.39541","25.07825","6501700","林口區"
"244007","080-UY","2018/02/01 18:09:32","新北市林口區林口路237號","121.386996666667","25.0834833333333","6501700","林口區"
"244019","402-UM","2018/02/01 18:09:41","新北市林口區文化一路一段124號","121.37483","25.0721916666667","6501700","林口區"
"244023","483-VK","2018/02/01 18:09:35","新北市林口區東湖路153巷135號","121.382263333333","25.0735483333333","6501700","林口區"
"244017","485-VK","2018/02/01 18:09:37","新北市林口區忠孝路504巷21號","121.369623333333","25.0696316666667","6501700","林口區"
"244009","656-BX","2018/02/01 18:09:35","新北市林口區佳林路56巷41號","121.385128333333","25.0808216666667","6501700","林口區"
"244021","657-BX","2018/02/01 18:08:28","新北市林口區新寮43-1號","121.403073333333","25.065455","6501700","林口區"
"244011","701-TV","2018/02/01 18:09:32","新北市林口區中正路79號","121.394963333333","25.077415","6501700","林口區"
"244025","837-TS","2018/02/01 18:09:26","新北市林口區南勢二街152-5號","121.358768333333","25.07321","6501700","林口區"
"243012","AAD-798","2018/02/01 17:52:53","新北市泰山區黎明路25號","121.42208","25.0607283333333","6501600","泰山區"
"243013","646-TV","2018/02/01 18:09:31","新北市泰山區南林路89-4號","121.415466666667","25.0512866666667","6501600","泰山區"
"222003","436-BY","2018/02/01 18:09:30","新北市深坑區腳坑1號","121.611708333333","24.9968566666667","6501800","深坑區"
"222002","659-BX","2018/02/01 18:09:33","新北市深坑區文化街52號","121.618976666667","25.0015466666667","6501800","深坑區"
"231058","0293-UT","2018/02/01 18:09:29","新北市新店區安華路28-1號","121.519255","24.9606733333333","6500600","新店區"
"231059","046-UY","2018/02/01 18:09:25","新北市新店區安華路28-1號","121.519498333333","24.9608433333333","6500600","新店區"
"231060","106-UY","2018/02/01 18:09:24","新北市新店區安華路28-1號","121.519566666667","24.96078","6500600","新店區"
"231052","187-VK","2018/02/01 18:09:29","新北市新店區安華路28-1號","121.51957","24.96114","6500600","新店區"
"231050","KEA-2219","2018/02/01 18:09:24","新北市新店區安華路28-1號","121.519933333333","24.9612","6500600","新店區"
"231046","278-BY","2018/02/01 18:09:38","新北市新店區直潭路113號","121.53229","24.9347516666667","6500600","新店區"
"231054","AAD-862","2018/02/01 18:09:39","新北市新店區安華路28-1號","121.519873333333","24.9610766666667","6500600","新店區"
"231056","3713-VJ","2018/02/01 18:09:40","新北市新店區安華路1-1號","121.519343333333","24.9605316666667","6500600","新店區"
"231055","4716-K9","2018/02/01 18:09:34","新北市新店區安華路28-1號","121.51967","24.9611266666667","6500600","新店區"
"231063","645-TV","2018/02/01 18:09:29","新北市新店區安華路28-1號","121.519376666667","24.96073","6500600","新店區"
"231044","897-TW","2018/02/01 18:09:29","新北市新店區安華路28-1號","121.519736666667","24.9608066666667","6500600","新店區"
"241024","462-BY","2018/02/01 18:09:36","新北市三重區中正北路193巷35弄77號","121.478885","25.0714583333333","6500200","三重區"
"241033","AAC-255","2018/02/01 18:09:35","新北市三重區中興北街133-1號","121.469418333333","25.050585","6500200","三重區"
"235066","003-UY","2018/02/01 18:09:38","新北市中和區圓通路196號","121.496345","24.9943633333333","6500300","中和區"
"235064","005-UY","2018/02/01 18:09:25","新北市中和區中正路271號","121.495833333333","24.993695","6500300","中和區"
"235056","096-UM","2018/02/01 18:09:32","新北市中和區連城路467-6號","121.483581666667","24.995905","6500300","中和區"
"235065","098-UM","2018/02/01 18:09:23","新北市中和區中山路二段2巷87號","121.500783333333","25.0076966666667","6500300","中和區"
"235040","150-BY","2018/02/01 18:09:36","新北市中和區錦和路350-1號","121.490706666667","24.9936083333333","6500300","中和區"
"235058","151-BY","2018/02/01 18:09:25","新北市中和區圓通路367巷33弄15號","121.495236666667","24.9850683333333","6500300","中和區"
"235038","185-VK","2018/02/01 18:09:42","新北市中和區景平路124號","121.519133333333","24.9918483333333","6500300","中和區"
"235072","301-VK","2018/02/01 18:09:27","新北市中和區員山路36巷16-3號","121.484685","24.99139","6500300","中和區"
"235050","4979-A6","2018/02/01 18:09:42","新北市中和區中正路173號","121.497643333333","24.9935816666667","6500300","中和區"
"235042","551-UM","2018/02/01 18:09:22","新北市中和區景平路239巷3號","121.509975","24.9926883333333","6500300","中和區"
"235070","558-UM","2018/02/01 18:09:38","新北市中和區員山路36巷16-2號","121.485446666667","24.9910166666667","6500300","中和區"
"235045","565-BX","2018/02/01 18:09:25","新北市中和區錦和路350-1號","121.490075","24.9935866666667","6500300","中和區"
"235054","640-BX","2018/02/01 18:09:37","新北市中和區連城路583巷15號","121.479153333333","24.9934266666667","6500300","中和區"
"235046","733-UM","2018/02/01 18:09:38","新北市中和區員山路36巷13號","121.484101666667","24.9909566666667","6500300","中和區"
"235062","800-TS","2018/02/01 18:09:38","新北市中和區橋和路56號","121.489366666667","25.005075","6500300","中和區"
"235052","805-TS","2018/02/01 18:09:32","新北市中和區錦和路350-1號","121.490096666667","24.99351","6500300","中和區"
"235053","900-TW","2018/02/01 18:09:38","新北市中和區員山路36巷16-2號","121.485345","24.9914883333333","6500300","中和區"
"235051","157-BY","2018/02/01 18:09:24","新北市中和區板南路100號","121.503915","24.992395","6500300","中和區"
"235037","AAC-213","2018/02/01 18:09:43","新北市中和區景平路263-1號","121.508373333333","24.9929716666667","6500300","中和區"
"226004","205-ST","2018/02/01 18:09:40","新北市平溪區菁桐里菁桐街30號","121.725648333333","25.023855","6502400","平溪區"
"235057","251-BX","2018/02/01 18:09:25","新北市中和區員山路36巷16-3號","121.485153333333","24.9914183333333","6500300","中和區"
"228003","097-TW","2018/02/01 18:09:25","新北市貢寮區真理里美艷山街6-2號","121.928886666667","25.06072","6502600","貢寮區"
"228001","212-TW","2018/02/01 18:09:22","新北市貢寮區真理里新港街26巷55弄2-1號","121.927401666667","25.05288","6502600","貢寮區"
"228002","663-BX","2018/02/01 18:09:34","新北市貢寮區福連里馬崗街1號","121.997943333333","25.0164333333333","6502600","貢寮區"
"224006","676-BX","2018/02/01 18:09:24","新北市瑞芳區中正路2號","121.809271666667","25.1069216666667","6501200","瑞芳區"
"224002","639-TC","2018/02/01 18:09:32","新北市瑞芳區三爪子坑路90號","121.809681666667","25.1054466666667","6501200","瑞芳區"
"224009","285-BY","2018/02/01 18:09:23","新北市瑞芳區金光路354號","121.850521666667","25.1101","6501200","瑞芳區"
"224008","275-VK","2018/02/01 18:09:27","新北市瑞芳區員山子路23號","121.821341666667","25.1030066666667","6501200","瑞芳區"
"224007","273-VK","2018/02/01 18:09:35","新北市瑞芳區四腳亭埔路30號","121.778248333333","25.104235","6501200","瑞芳區"
"224005","271-BY","2018/02/01 18:09:34","新北市瑞芳區深澳路1號","121.8165","25.1285483333333","6501200","瑞芳區"
"227004","642-TC","2018/02/01 18:09:25","新北市雙溪區共和里東榮街29號","121.86624","25.0336266666667","6502500","雙溪區"
"253005","032-BX","2018/02/01 18:09:44","新北市石門區福安街13號","121.568531666667","25.2926583333333","6502200","石門區"
"253006","295-VK","2018/02/01 18:09:28","新北市石門區老梅路52巷25弄2-1號","121.546605","25.2876333333333","6502200","石門區"
"222001","KEA-2212","2018/02/01 18:09:42","新北市深坑區北深路二段188號","121.614","25.0021733333333","6501800","深坑區"
"208002","742-BX","2018/02/01 18:09:40","新北市金山區三界壇路99巷9號","121.620623333333","25.2277733333333","6502700","金山區"
"208003","665-BX","2018/02/01 18:09:28","新北市金山區磺港里磺港路202-1號","121.645228333333","25.22756","6502700","金山區"
"208001","761-BX","2018/02/01 18:09:31","新北市金山區磺港里磺港路104號","121.647006666667","25.2270383333333","6502700","金山區"
"251009","008-UM","2018/02/01 18:09:30","新北市淡水區大忠街34巷15號","121.44391","25.1756716666667","6501000","淡水區"
"251004","009-UM","2018/02/01 18:09:27","新北市淡水區民族路110巷36弄2號","121.4616","25.1352916666667","6501000","淡水區"
"251005","010-UM","2018/02/01 18:09:25","新北市淡水區水源街一段118號","121.447155","25.171865","6501000","淡水區"
"251001","011-UM","2018/02/01 18:09:34","新北市淡水區自立路1巷27號","121.46262","25.129595","6501000","淡水區"
"251013","179-VK","2018/02/01 18:09:27","新北市淡水區桂花樹4-3號","121.476331666667","25.1956416666667","6501000","淡水區"
"251014","180-VK","2018/02/01 18:09:33","新北市淡水區南平14-3號","121.48609","25.220755","6501000","淡水區"
"251008","181-VK","2018/02/01 18:09:31","新北市淡水區中正東路二段7號","121.458033333333","25.1585233333333","6501000","淡水區"
"251015","182-VK","2018/02/01 18:09:30","新北市淡水區興福寮88巷1號","121.485595","25.16507","6501000","淡水區"
"251010","413-VK","2018/02/01 18:09:28","新北市淡水區中正路二段50巷10號","121.419858333333","25.1833233333333","6501000","淡水區"
"251012","441-VK","2018/02/01 18:09:39","新北市淡水區北新路三段165號","121.489571666667","25.190575","6501000","淡水區"
"251016","442-VK","2018/02/01 18:09:28","新北市淡水區下圭柔山15-5號","121.452163333333","25.2015216666667","6501000","淡水區"
"251006","561-UM","2018/02/01 18:09:37","新北市淡水區真理街15號","121.436745","25.1742966666667","6501000","淡水區"
"251011","650-BX","2018/02/01 18:09:03","新北市淡水區三空泉9-2號","121.474086666667","25.1635133333333","6501000","淡水區"
"251002","672-BX","2018/02/01 18:09:30","新北市淡水區中正東路一段125號","121.455398333333","25.15929","6501000","淡水區"
"251003","766-UM","2018/02/01 18:09:27","新北市淡水區大忠街113巷20號","121.447245","25.1774483333333","6501000","淡水區"
"207003","550-UM","2018/02/01 18:09:34","新北市萬里區野柳里港西路701-2號","121.685291666667","25.2045666666667","6502800","萬里區"
"207004","225-TW","2018/02/01 18:09:41","新北市萬里區中幅里中福路115號","121.67641","25.1684016666667","6502800","萬里區"
"252002","178-VK","2018/02/01 18:09:27","新北市三芝區中山路二段35號","121.502818333333","25.2551916666667","6502100","三芝區"
"252003","249-BX","2018/02/01 18:09:29","新北市三芝區埔頭里埔頭39-3號","121.499348333333","25.2609533333333","6502100","三芝區"
"252001","292-VK","2018/02/01 18:09:32","新北市三芝區中興街二段2號","121.498381666667","25.256635","6502100","三芝區"
"237004","078-UY","2018/02/01 18:09:23","新北市三峽區大埔路150-2號","121.365001666667","24.8971433333333","6500900","三峽區"
"237007","153-BY","2018/02/01 18:09:33","新北市三峽區中正路二段352號","121.365785","24.910025","6500900","三峽區"
"237009","210-TH","2018/02/01 18:09:41","新北市三峽區復興路303巷1弄8號","121.365801666667","24.9383666666667","6500900","三峽區"
"237013","252-BX","2018/02/01 18:09:42","新北市三峽區長泰街70-1號","121.376875","24.933115","6500900","三峽區"
"237012","275-BY","2018/02/01 18:09:40","新北市三峽區民生街1巷1-25號","121.377616666667","24.935425","6500900","三峽區"
"237008","302-VK","2018/02/01 18:09:31","新北市三峽區白雞44-18號","121.37819","24.909605","6500900","三峽區"
"237014","433-BY","2018/02/01 18:09:27","新北市三峽區復興路159號","121.370518333333","24.938435","6500900","三峽區"
"237006","5529-G3","2018/02/01 18:09:25","新北市三峽區介壽路二段138巷1弄145-10號","121.400961666667","24.930615","6500900","三峽區"
"237016","649-BX","2018/02/01 18:09:35","新北市三峽區紫新路36巷1號","121.42202","24.9222666666667","6500900","三峽區"
"237010","706-TV","2018/02/01 18:09:22","新北市三峽區民權街193號","121.36772","24.92917","6500900","三峽區"
"237005","AKY-6261","2018/02/01 18:09:32","新北市三峽區和平街79巷9號","121.36966","24.9371066666667","6500900","三峽區"
"236071","105-UM","2018/02/01 18:09:24","新北市土城區石門路15號","121.459325","24.9676616666667","6501300","土城區"
"236042","107-UM","2018/02/01 18:09:25","新北市土城區明德路二段106號","121.445173333333","24.9840983333333","6501300","土城區"
"236078","166-UM","2018/02/01 18:09:45","新北市土城區永安街3號","121.434413333333","24.9653233333333","6501300","土城區"
"236030","253-BX","2018/02/01 18:09:35","新北市土城區城林路6巷80號","121.438591666667","24.97968","6501300","土城區"
"236026","269-VK","2018/02/01 18:09:33","新北市土城區承天路18號","121.439465","24.963395","6501300","土城區"
"236014","270-VK","2018/02/01 18:09:26","新北市土城區學府路一段187號","121.45217","24.9849866666667","6501300","土城區"
"236037","271-VK","2018/02/01 18:09:20","新北市土城區金城路二段18號","121.449523333333","24.977505","6501300","土城區"
"236021","401-BY","2018/02/01 18:09:39","新北市土城區城林路6巷80號","121.438418333333","24.97981","6501300","土城區"
"236058","912-UM","2018/02/01 18:09:38","新北市土城區中央路四段38號","121.420815","24.9608533333333","6501300","土城區"
"236051","913-UM","2018/02/01 18:09:36","新北市土城區金城路二段37號","121.449775","24.9776983333333","6501300","土城區"
"236062","915-UM","2018/02/01 18:09:38","新北市土城區學士路123號","121.446576666667","24.9758533333333","6501300","土城區"
"236053","AAC-216","2018/02/01 18:09:40","新北市土城區中華路二段2號","121.438801666667","24.9798416666667","6501300","土城區"
"242031","AAC-296","2018/02/01 18:09:35","新北市新莊區新泰路289巷52號","121.44321","25.0404516666667","6500500","新莊區"
"242029","986-R7","2018/02/01 18:09:33","新北市新莊區中平路81巷2號","121.444748333333","25.0453533333333","6500500","新莊區"
"242025","615-BX","2018/02/01 18:09:30","新北市新莊區五權一路7-9號","121.458696666667","25.0669583333333","6500500","新莊區"
"242023","613-BX","2018/02/01 18:09:25","新北市新莊區幸福路822號","121.445336666667","25.0490733333333","6500500","新莊區"
"242027","612-BX","2018/02/01 18:09:43","新北市新莊區幸福路44號","121.457805","25.0494283333333","6500500","新莊區"
"242039","566-BX","2018/02/01 18:09:26","新北市新莊區民安西路88巷3弄2號","121.426438333333","25.0199766666667","6500500","新莊區"
"242044","442-UM","2018/02/01 18:09:26","新北市新莊區鳳山街52號","121.41428","25.025795","6500500","新莊區"
"242053","440-UM","2018/02/01 18:09:38","新北市新莊區西盛街429巷25號","121.428053333333","25.0115783333333","6500500","新莊區"
"242034","415-TV","2018/02/01 18:09:23","新北市新莊區新豐街68巷7號","121.446441666667","25.034015","6500500","新莊區"
"242004","413-TV","2018/02/01 18:09:35","新北市新莊區自由街46號","121.455873333333","25.0459733333333","6500500","新莊區"
"242042","400-BY","2018/02/01 18:09:35","新北市新莊區明志路17號","121.420006666667","25.0290366666667","6500500","新莊區"
"242061","362-BY","2018/02/01 18:09:35","新北市新莊區新樹路255-4號","121.434701666667","25.02166","6500500","新莊區"
"242058","353-BY","2018/02/01 18:09:35","新北市新莊區壽山路49-6號","121.414138333333","25.030725","6500500","新莊區"
"242007","132-UY","2018/02/01 18:09:26","新北市新莊區自信街28號","121.454223333333","25.0481733333333","6500500","新莊區"
"242036","133-UY","2018/02/01 18:09:32","新北市新莊區後港一路65巷11弄12號","121.42567","25.02727","6500500","新莊區"
"242021","135-UY","2018/02/01 18:09:38","新北市新莊區建興街89巷2號","121.449935","25.0390416666667","6500500","新莊區"
"242046","172-VK","2018/02/01 18:09:26","新北市新莊區福營路231號","121.42989","25.0299683333333","6500500","新莊區"
"242009","173-VK","2018/02/01 18:09:21","新北市新莊區昌平街41巷4號","121.45441","25.0525916666667","6500500","新莊區"
"242015","175-VK","2018/02/01 18:09:32","新北市新莊區中和街59巷10弄9號","121.446833333333","25.0472016666667","6500500","新莊區"
"242002","176-VK","2018/02/01 18:09:38","新北市新莊區新莊路85號","121.457886666667","25.0367716666667","6500500","新莊區"
"242051","347-TH","2018/02/01 18:09:31","新北市新莊區民本街33巷22號","121.429085","25.0185","6500500","新莊區"
"242019","348-TH","2018/02/01 18:09:33","新北市新莊區公園路129-11號","121.457595","25.0409183333333","6500500","新莊區"
"242056","349-TH","2018/02/01 18:09:34","新北市新莊區豐年街豐1巷39號","121.447815","25.0312816666667","6500500","新莊區"
"242017","350-TH","2018/02/01 18:09:30","新北市新莊區永樂街45號","121.451443333333","25.0449533333333","6500500","新莊區"
"242011","351-TH","2018/02/01 18:09:42","新北市新莊區中信街78號","121.448016666667","25.053025","6500500","新莊區"
"238023","601-UM","2018/02/01 18:09:28","新北市樹林區龍興街46巷30號","121.401975","25.0152433333333","6500700","樹林區"
"238019","599-UM","2018/02/01 18:09:28","新北市樹林區忠孝街101巷2弄2號","121.424673333333","24.9809916666667","6500700","樹林區"
"238018","571-TV","2018/02/01 18:09:31","新北市板橋區大觀路三段160巷48號","121.429418333333","24.9942366666667","6500700","樹林區"
"238024","5061-A6","2018/02/01 18:09:43","新北市樹林區保安街一段294巷40號","121.421076666667","24.9979383333333","6500700","樹林區"
"238021","KEA-2217","2018/02/01 18:09:25","新北市樹林區柑園街一段132巷17號","121.399295","24.9584416666667","6500700","樹林區"
"238022","KEA-2213","2018/02/01 18:09:32","新北市樹林區太平路225巷2號","121.418516666667","24.9770233333333","6500700","樹林區"
"238025","303-VK","2018/02/01 18:09:40","新北市樹林區中正路691號","121.41178","25.0137233333333","6500700","樹林區"
"238017","283-BY","2018/02/01 18:09:26","新北市樹林區中正路592號","121.410506666667","25.0155516666667","6500700","樹林區"
"238014","282-BY","2018/02/01 18:09:34","新北市樹林區中正路45巷5號","121.426808333333","24.999335","6500700","樹林區"
"238020","268-VK","2018/02/01 18:09:25","新北市新莊區龍安路254巷18-1號","121.42061","25.01851","6500700","樹林區"
"238026","172-UY","2018/02/01 18:09:25","新北市樹林區育德街12號","121.390848333333","24.9701983333333","6500700","樹林區"
"238016","169-UY","2018/02/01 18:09:24","新北市樹林區文化街33號","121.418591666667","24.9879233333333","6500700","樹林區"
"239007","AAC-297","2018/02/01 18:09:27","新北市鶯歌區鶯桃路16號","121.342161666667","24.95173","6500800","鶯歌區"
"239006","891-R6","2018/02/01 18:09:25","新北市鶯歌區鶯桃路455巷2弄1號","121.331983333333","24.9652166666667","6500800","鶯歌區"
"239008","527-UM","2018/02/01 18:09:24","新北市鶯歌區明圓街5號","121.335893333333","24.97698","6500800","鶯歌區"
"239005","526-UM","2018/02/01 18:09:31","新北市鶯歌區鶯桃路668巷73號","121.329875","24.971735","6500800","鶯歌區"
"239001","417-VK","2018/02/01 18:09:29","新北市鶯歌區尖山路卓厝巷7號","121.341695","24.9452866666667","6500800","鶯歌區"
"239003","360-BY","2018/02/01 18:09:32","新北市鶯歌區鶯桃路256號","121.335903333333","24.959715","6500800","鶯歌區"
"239002","359-BY","2018/02/01 18:09:40","新北市鶯歌區育英街17巷1弄3號","121.347456666667","24.95523","6500800","鶯歌區"
"221036","130-UY","2018/02/01 18:09:37","新北市汐止區大同路三段199號","121.671365","25.077215","6501100","汐止區"
"221010","269-BY","2018/02/01 18:09:33","新北市汐止區汐萬路二段267號","121.646166666667","25.0887983333333","6501100","汐止區"
"221012","278-VK","2018/02/01 18:09:37","新北市汐止區保一街67號","121.674241666667","25.07991","6501100","汐止區"
"221023","279-VK","2018/02/01 18:09:38","新北市汐止區中興路291巷1號","121.627998333333","25.06999","6501100","汐止區"
"221032","280-BY","2018/02/01 18:09:37","新北市汐止區橫科路8號","121.617746666667","25.0512916666667","6501100","汐止區"
"221027","281-BY","2018/02/01 18:09:36","新北市汐止區大同路二段507號","121.661291666667","25.0686166666667","6501100","汐止區"
"221002","297-VK","2018/02/01 18:09:23","新北市汐止區福德一路208號","121.634588333333","25.0652683333333","6501100","汐止區"
"221029","298-VK","2018/02/01 18:09:29","新北市汐止區樟樹二路134號","121.64002","25.0656633333333","6501100","汐止區"
"221021","299-VK","2018/02/01 18:09:32","新北市汐止區龍安路204號","121.65259","25.0630716666667","6501100","汐止區"
"221031","353-TW","2018/02/01 18:09:39","新北市汐止區中興路181號","121.630246666667","25.0667566666667","6501100","汐止區"
"221015","567-BX","2018/02/01 18:09:25","新北市汐止區長江街347號","121.667366666667","25.082005","6501100","汐止區"
"221035","622-UM","2018/02/01 18:09:35","新北市汐止區大同路二段208號","121.653458333333","25.06508","6501100","汐止區"
"221025","623-UM","2018/02/01 18:09:38","新北市汐止區秀峰路151巷1號","121.660858333333","25.0620133333333","6501100","汐止區"
"221038","646-BX","2018/02/01 18:09:33","新北市汐止區莊敬街131巷6號","121.654621666667","25.06033","6501100","汐止區"
"221033","647-BX","2018/02/01 18:09:34","新北市汐止區林森街19號","121.621706666667","25.0405716666667","6501100","汐止區"
"221018","753-BX","2018/02/01 18:09:41","新北市汐止區忠孝東路343號","121.665483333333","25.0701933333333","6501100","汐止區"
"242048","281-VK","2018/02/01 18:09:37","新北市新莊區富國路110號","121.422001666667","25.02528","6500500","新莊區"
