"lineid","car","time","location","longitude","latitude","cityid","cityname"
"234007","207-UY","2018/02/01 18:29:40","新北市永和區環河西路二段223號","121.501261666667","25.0099666666667","6500400","永和區"
"234081","298-R6","2018/02/01 18:29:44","新北市永和區林森路46巷1號","121.524953333333","25.004805","6500400","永和區"
"234038","336-UY","2018/02/01 18:29:50","新北市永和區福和路1號","121.526676666667","25.01025","6500400","永和區"
"234013","KEA-2591","2018/02/01 18:29:41","新北市永和區永和路二段237-1號","121.51568","25.0144483333333","6500400","永和區"
"234042","862-TW","2018/02/01 18:29:43","新北市永和區福和路14號","121.524381666667","25.0085433333333","6500400","永和區"
"234026","9371-KE","2018/02/01 18:29:44","新北市永和區永貞路417巷31號","121.50576","25.0090016666667","6500400","永和區"
"234011","9373-KE","2018/02/01 18:29:41","新北市永和區保福路二段158巷1號","121.509078333333","25.0150216666667","6500400","永和區"
"249005","172-UM","2018/02/01 18:29:37","新北市八里區中華路三段90號","121.39327","25.1392183333333","6502300","八里區"
"249001","173-UM","2018/02/01 18:29:53","新北市八里區龍米路一段126號","121.453086666667","25.1253733333333","6502300","八里區"
"249004","303-UY","2018/02/01 18:29:48","新北市八里區忠四街43號","121.424978333333","25.1610466666667","6502300","八里區"
"249002","305-UY","2018/02/01 18:29:28","新北市八里區龍形二街52號","121.450255","25.1329816666667","6502300","八里區"
"248014","025-BX","2018/02/01 18:29:51","新北市五股區明德路20號","121.432936666667","25.0713733333333","6501500","五股區"
"248016","026-BX","2018/02/01 18:29:53","新北市五股區凌雲路一段109巷19號","121.449675","25.1008","6501500","五股區"
"248006","077-UY","2018/02/01 18:29:56","新北市五股區四維路15號","121.467058333333","25.070405","6501500","五股區"
"248008","095-VK","2018/02/01 18:29:35","新北市五股區四維路185巷46號","121.463416666667","25.0776433333333","6501500","五股區"
"248020","225-UY","2018/02/01 18:29:50","新北市五股區孝義路57-1號","121.453908333333","25.11249","6501500","五股區"
"248012","247-BX","2018/02/01 18:29:40","新北市五股區御史路8號","121.442213333333","25.09042","6501500","五股區"
"248010","272-BY","2018/02/01 18:29:55","新北市五股區水碓路9號","121.433658333333","25.0723266666667","6501500","五股區"
"248004","677-BX","2018/02/01 18:29:35","新北市五股區工商路91號","121.43768","25.0852283333333","6501500","五股區"
"248002","678-BX","2018/02/01 18:29:39","新北市五股區西雲路117號","121.443983333333","25.0930516666667","6501500","五股區"
"232011","375-UM","2018/02/01 18:20:17","新北市坪林區坪雙路一段31號","121.711685","24.9424383333333","6502000","坪林區"
"244013","069-UM","2018/02/01 18:29:40","新北市林口區佳林路101巷26號","121.386763333333","25.0797666666667","6501700","林口區"
"244007","080-UY","2018/02/01 18:29:52","新北市林口區文化一路二段398號","121.386051666667","25.086005","6501700","林口區"
"244019","402-UM","2018/02/01 18:29:41","新北市林口區忠孝路584號","121.375091666667","25.0681066666667","6501700","林口區"
"244023","483-VK","2018/02/01 18:29:35","新北市林口區仁愛路二段138巷20號","121.382403333333","25.075255","6501700","林口區"
"244017","485-VK","2018/02/01 18:29:37","新北市林口區文化二路一段62-6號","121.36537","25.068575","6501700","林口區"
"244009","656-BX","2018/02/01 18:29:55","新北市林口區民生路131巷1號","121.377536666667","25.0887066666667","6501700","林口區"
"244021","657-BX","2018/02/01 18:29:48","新北市林口區自強一街33號","121.398748333333","25.0779716666667","6501700","林口區"
"244011","701-TV","2018/02/01 18:29:52","新北市林口區中山路73號","121.392861666667","25.0784583333333","6501700","林口區"
"244025","837-TS","2018/02/01 18:29:46","新北市林口區南勢三街39號","121.357866666667","25.0778983333333","6501700","林口區"
"243012","AAD-798","2018/02/01 18:29:54","新北市泰山區忠孝街17巷2號","121.427561666667","25.0653683333333","6501600","泰山區"
"243013","646-TV","2018/02/01 18:29:51","新北市泰山區明志路三段206巷3號","121.423248333333","25.0379133333333","6501600","泰山區"
"222003","436-BY","2018/02/01 18:29:50","新北市深坑區文山路一段28號","121.629735","25.006775","6501800","深坑區"
"222002","659-BX","2018/02/01 18:29:54","新北市深坑區雲鄉路105號","121.623208333333","24.99837","6501800","深坑區"
"231041","002-UM","2018/02/01 18:29:39","新北市新店區安華路28-1號","121.520178333333","24.9607516666667","6500600","新店區"
"231058","0293-UT","2018/02/01 18:29:49","新北市新店區新店後街116號","121.537655","24.9555116666667","6500600","新店區"
"231059","046-UY","2018/02/01 18:29:45","新北市新店區安華路28-1號","121.51957","24.9608283333333","6500600","新店區"
"231061","047-UY","2018/02/01 18:29:51","新北市新店區安華路28-1號","121.519196666667","24.9608516666667","6500600","新店區"
"231060","106-UY","2018/02/01 18:29:44","新北市新店區安華路28-1號","121.519666666667","24.9608083333333","6500600","新店區"
"231051","107-UY","2018/02/01 18:29:46","新北市新店區安華路28-1號","121.519286666667","24.9613333333333","6500600","新店區"
"231047","108-UY","2018/02/01 18:29:36","新北市新店區安華路28-1號","121.519578333333","24.9610266666667","6500600","新店區"
"231049","110-UY","2018/02/01 18:29:38","新北市新店區安華路28-1號","121.519598333333","24.96111","6500600","新店區"
"231052","187-VK","2018/02/01 18:29:49","新北市新店區新烏路一段12號","121.546891666667","24.95148","6500600","新店區"
"231064","188-VK","2018/02/01 18:29:41","新北市新店區安華路28-1號","121.519335","24.9613733333333","6500600","新店區"
"231050","KEA-2219","2018/02/01 18:29:44","新北市新店區安華路28-1號","121.519875","24.9613283333333","6500600","新店區"
"231057","256-BX","2018/02/01 18:29:43","新北市新店區秀山路20號","121.532551666667","24.96032","6500600","新店區"
"231046","278-BY","2018/02/01 18:29:37","新北市新店區直潭七街60號","121.53227","24.9398216666667","6500600","新店區"
"231054","AAD-862","2018/02/01 18:29:39","新北市新店區安華路28-1號","121.519816666667","24.9611533333333","6500600","新店區"
"231056","3713-VJ","2018/02/01 18:29:40","新北市新店區自立街45巷7號","121.536621666667","24.9795416666667","6500600","新店區"
"231055","4716-K9","2018/02/01 18:29:53","新北市新店區中正路128巷17號","121.542473333333","24.972475","6500600","新店區"
"231067","4772-VM","2018/02/01 18:29:50","新北市新店區安華路28-1號","121.519181666667","24.9606416666667","6500600","新店區"
"231065","512-UM","2018/02/01 18:29:52","新北市新店區安華路28-1號","121.519321666667","24.9614283333333","6500600","新店區"
"231042","616-UM","2018/02/01 18:29:38","新北市新店區安華路1-1號","121.519366666667","24.9603766666667","6500600","新店區"
"231063","645-TV","2018/02/01 18:29:49","新北市新店區安華路28-1號","121.519315","24.9605766666667","6500600","新店區"
"231062","720-UM","2018/02/01 18:29:39","新北市新店區安華路28-1號","121.519228333333","24.961155","6500600","新店區"
"231044","897-TW","2018/02/01 18:29:49","新北市新店區安華路28-1號","121.519703333333","24.9605516666667","6500600","新店區"
"231045","898-TW","2018/02/01 18:18:31","新北市新店區安華路28-1號","121.51942","24.9609766666667","6500600","新店區"
"231043","899-TW","2018/02/01 18:29:45","新北市新店區安華路28-1號","121.519065","24.96077","6500600","新店區"
"231066","AKT-0513","2018/02/01 18:29:52","新北市新店區安華路28-1號","121.51958","24.9605633333333","6500600","新店區"
"241013","270-UM","2018/02/01 18:29:51","新北市三重區仁昌街30號","121.49666","25.07413","6500200","三重區"
"241023","545-UM","2018/02/01 18:29:48","新北市三重區三民街146巷3弄2-1號","121.481496666667","25.064775","6500200","三重區"
"235066","003-UY","2018/02/01 18:29:38","新北市中和區中山路二段122號","121.502521666667","25.0036466666667","6500300","中和區"
"235064","005-UY","2018/02/01 18:29:44","新北市中和區連城路139巷66號","121.496838333333","24.9968516666667","6500300","中和區"
"235049","031-BX","2018/02/01 18:29:44","新北市中和區景安路130號","121.505106666667","24.9944733333333","6500300","中和區"
"235056","096-UM","2018/02/01 18:29:53","新北市中和區員山路611巷1號","121.477806666667","25.0112516666667","6500300","中和區"
"235039","097-UM","2018/02/01 18:29:53","新北市中和區安平路114號","121.511675","24.997565","6500300","中和區"
"235065","098-UM","2018/02/01 18:29:43","新北市中和區莊敬路49巷10弄9號","121.502063333333","25.00558","6500300","中和區"
"235040","150-BY","2018/02/01 18:29:36","新北市中和區安平路38號","121.509803333333","24.9949616666667","6500300","中和區"
"235058","151-BY","2018/02/01 18:29:45","新北市中和區圓通路369巷30弄16號","121.489548333333","24.9851366666667","6500300","中和區"
"235055","183-VK","2018/02/01 18:29:51","新北市中和區莒光路94號","121.472403333333","25.0024466666667","6500300","中和區"
"235038","185-VK","2018/02/01 18:29:42","新北市中和區自立路141巷1號","121.522295","24.9934966666667","6500300","中和區"
"235044","293-VK","2018/02/01 18:29:39","新北市中和區復興路301巷2弄1號","121.501515","24.989855","6500300","中和區"
"235072","301-VK","2018/02/01 18:29:47","新北市中和區連城路110號","121.496218333333","24.9997966666667","6500300","中和區"
"235043","352-BY","2018/02/01 18:29:50","新北市中和區景平路291號","121.507148333333","24.992985","6500300","中和區"
"235068","377-QA","2018/02/01 18:29:42","新北市中和區圓通路282號","121.491658333333","24.9906016666667","6500300","中和區"
"235061","378-QA","2018/02/01 18:29:54","新北市中和區民享街97巷18號","121.475206666667","24.999845","6500300","中和區"
"235050","4979-A6","2018/02/01 18:29:42","新北市中和區景新街410巷18弄20號","121.511865","24.989795","6500300","中和區"
"235069","4980-A6","2018/02/01 18:29:51","新北市中和區連城路127巷30號","121.496801666667","24.9980216666667","6500300","中和區"
"235042","551-UM","2018/02/01 18:29:42","新北市中和區景平路64巷19號","121.522315","24.991535","6500300","中和區"
"235070","558-UM","2018/02/01 18:29:37","新北市中和區員山路36巷16-2號","121.485446666667","24.9910166666667","6500300","中和區"
"235045","565-BX","2018/02/01 18:29:45","新北市中和區南山路236巷22弄21號","121.505015","24.9892416666667","6500300","中和區"
"235054","640-BX","2018/02/01 18:29:56","新北市中和區民享街84號","121.474355","25.0011483333333","6500300","中和區"
"235060","647-TV","2018/02/01 18:29:52","新北市中和區員山路214號","121.481271666667","25.00086","6500300","中和區"
"235047","732-UM","2018/02/01 18:29:43","新北市中和區南山路300號","121.507873333333","24.9871866666667","6500300","中和區"
"235046","733-UM","2018/02/01 18:29:38","新北市中和區錦和路350-1號","121.490303333333","24.9935383333333","6500300","中和區"
"235062","800-TS","2018/02/01 18:29:38","新北市中和區景平路722-2號","121.496821666667","25.00305","6500300","中和區"
"235041","802-TS","2018/02/01 18:29:53","新北市中和區景安路55號","121.507243333333","24.99816","6500300","中和區"
"235052","805-TS","2018/02/01 18:29:52","新北市中和區興南路二段133號","121.505263333333","24.98418","6500300","中和區"
"235048","896-TW","2018/02/01 18:29:50","新北市中和區中正路83號","121.50064","24.9934016666667","6500300","中和區"
"235053","900-TW","2018/02/01 18:29:38","新北市中和區民享街467號","121.469846666667","24.992605","6500300","中和區"
"235063","911-UM","2018/02/01 18:29:50","新北市中和區連城路389巷8號","121.486453333333","24.9957016666667","6500300","中和區"
"235051","157-BY","2018/02/01 18:29:45","新北市中和區興南路二段142巷35弄1號","121.502493333333","24.9844983333333","6500300","中和區"
"235037","AAC-213","2018/02/01 18:29:43","新北市中和區景德街121號","121.515056666667","24.991025","6500300","中和區"
"220065","072-UY","2018/02/01 18:29:49","新北市板橋區四川路二段130巷45號","121.449595","24.99471","6500100","板橋區"
"220086","073-UY","2018/02/01 18:29:52","新北市板橋區南雅南路二段76號","121.453681666667","25.0017516666667","6500100","板橋區"
"226004","205-ST","2018/02/01 18:29:40","新北市平溪區靜安路二段202號","121.723695","25.0219833333333","6502400","平溪區"
"235057","251-BX","2018/02/01 18:29:45","新北市中和區民享街97巷19號","121.475323333333","24.99958","6500300","中和區"
"228003","097-TW","2018/02/01 18:29:45","新北市貢寮區和美里和美街43號","121.914805","25.0919816666667","6502600","貢寮區"
"228001","212-TW","2018/02/01 18:29:54","新北市貢寮區仁理村仁和路60號","121.922801666667","25.049775","6502600","貢寮區"
"228002","663-BX","2018/02/01 18:29:54","新北市貢寮區福連里香蘭街16-2號","121.981031666667","25.0225966666667","6502600","貢寮區"
"224010","AGQ-8101","2018/02/01 18:26:44","新北市瑞芳區街頂巷49號","121.844558333333","25.1076","6501200","瑞芳區"
"224006","676-BX","2018/02/01 18:29:49","新北市瑞芳區明燈路三段30號","121.808275","25.107595","6501200","瑞芳區"
"224002","639-TC","2018/02/01 18:29:46","新北市瑞芳區正貿新村16號","121.813466666667","25.1058933333333","6501200","瑞芳區"
"224009","285-BY","2018/02/01 18:29:43","新北市瑞芳區五號路4號","121.854795","25.11036","6501200","瑞芳區"
"224008","275-VK","2018/02/01 18:29:47","新北市瑞芳區逢甲路149號","121.807071666667","25.109955","6501200","瑞芳區"
"224007","273-VK","2018/02/01 18:29:55","新北市瑞芳區大埔路吉慶公園城19號","121.765083333333","25.0999033333333","6501200","瑞芳區"
"224005","271-BY","2018/02/01 18:29:53","新北市瑞芳區台電新村142號","121.811465","25.128025","6501200","瑞芳區"
"227004","642-TC","2018/02/01 18:29:46","新北市雙溪區魚行里新店76號","121.872303333333","25.0264083333333","6502500","雙溪區"
"227010","400-TW","2018/02/01 18:29:38","新北市雙溪區牡丹里牡丹133號","121.850955","25.059095","6502500","雙溪區"
"253005","032-BX","2018/02/01 18:29:44","新北市石門區老崩山10-5號","121.552673333333","25.2910283333333","6502200","石門區"
"253006","295-VK","2018/02/01 18:29:48","新北市石門區公地20-1號","121.545765","25.2901766666667","6502200","石門區"
"222001","KEA-2212","2018/02/01 18:29:42","新北市深坑區北深路一段199號","121.630655","25.0091416666667","6501800","深坑區"
"208002","742-BX","2018/02/01 18:29:42","新北市金山區磺清路135號","121.639363333333","25.22729","6502700","金山區"
"208003","665-BX","2018/02/01 18:29:48","新北市金山區中山路175號","121.638561666667","25.22076","6502700","金山區"
"208001","761-BX","2018/02/01 18:29:51","新北市金山區文化二路6號","121.636803333333","25.2246183333333","6502700","金山區"
"251004","009-UM","2018/02/01 18:27:07","新北市淡水區大同路21號","121.465843333333","25.1453966666667","6501000","淡水區"
"251005","010-UM","2018/02/01 18:29:45","新北市淡水區中正東路35巷6號","121.446348333333","25.16845","6501000","淡水區"
"251001","011-UM","2018/02/01 18:29:54","新北市淡水區自強路122巷1號","121.464463333333","25.1331216666667","6501000","淡水區"
"251013","179-VK","2018/02/01 18:29:48","新北市淡水區椿子林19-1號","121.480513333333","25.2039766666667","6501000","淡水區"
"251014","180-VK","2018/02/01 18:29:53","新北市淡水區番社前25-1號","121.494715","25.2145616666667","6501000","淡水區"
"251008","181-VK","2018/02/01 18:29:51","新北市淡水區水源街二段246號","121.46251","25.17608","6501000","淡水區"
"251015","182-VK","2018/02/01 18:29:50","新北市淡水區興福寮88巷216號","121.485975","25.1665583333333","6501000","淡水區"
"251010","413-VK","2018/02/01 18:29:48","新北市淡水區沙崙路181巷1號","121.424078333333","25.1842283333333","6501000","淡水區"
"251012","441-VK","2018/02/01 18:29:38","新北市淡水區北新路一段129-1號","121.457305","25.18203","6501000","淡水區"
"251016","442-VK","2018/02/01 18:29:48","新北市淡水區下圭柔山105-2號","121.44491","25.2094766666667","6501000","淡水區"
"251006","561-UM","2018/02/01 18:29:37","新北市淡水區新民街30號","121.43966","25.1758566666667","6501000","淡水區"
"251011","650-BX","2018/02/01 18:29:43","新北市淡水區中正東路21號","121.448113333333","25.1663716666667","6501000","淡水區"
"251002","672-BX","2018/02/01 18:29:50","新北市淡水區中正東路一段21巷12號","121.45239","25.1641716666667","6501000","淡水區"
"251003","766-UM","2018/02/01 18:29:47","新北市淡水區北新路169巷38號","121.449478333333","25.18047","6501000","淡水區"
"207003","550-UM","2018/02/01 18:29:54","新北市萬里區野柳里港東路162-2號","121.689916666667","25.2039366666667","6502800","萬里區"
"207004","225-TW","2018/02/01 18:29:41","新北市萬里區萬里里瑪鋉路272-1號","121.688861666667","25.1808516666667","6502800","萬里區"
"252002","178-VK","2018/02/01 18:29:47","新北市三芝區中山路二段33號","121.502793333333","25.2552066666667","6502100","三芝區"
"252003","249-BX","2018/02/01 18:29:49","新北市三芝區後厝里北勢子20-4號","121.473181666667","25.25369","6502100","三芝區"
"252001","292-VK","2018/02/01 18:29:52","新北市三芝區中興街二段2號","121.498343333333","25.2566916666667","6502100","三芝區"
"237004","078-UY","2018/02/01 18:29:43","新北市三峽區五寮89-10號","121.359341666667","24.8569266666667","6500900","三峽區"
"237007","153-BY","2018/02/01 18:29:53","新北市三峽區中正路三段70巷14號","121.355835","24.90446","6500900","三峽區"
"237009","210-TH","2018/02/01 18:29:41","新北市三峽區民權街134號","121.368628333333","24.9319033333333","6500900","三峽區"
"237013","252-BX","2018/02/01 18:29:42","新北市三峽區永安街9巷34號","121.376618333333","24.9300516666667","6500900","三峽區"
"237012","275-BY","2018/02/01 18:29:40","新北市三峽區三樹路112號","121.37832","24.9392666666667","6500900","三峽區"
"237008","302-VK","2018/02/01 18:29:51","新北市三峽區白雞68-133號","121.390761666667","24.9083466666667","6500900","三峽區"
"237014","433-BY","2018/02/01 18:29:35","新北市三峽區民生街119-3號","121.373648333333","24.9353016666667","6500900","三峽區"
"237006","5529-G3","2018/02/01 18:29:45","新北市三峽區溪東路240號","121.40836","24.9316733333333","6500900","三峽區"
"237016","649-BX","2018/02/01 18:26:55","新北市三峽區竹崙路115號","121.433903333333","24.9101183333333","6500900","三峽區"
"237010","706-TV","2018/02/01 18:29:42","新北市三峽區中山路117號","121.365573333333","24.9358833333333","6500900","三峽區"
"237005","AKY-6261","2018/02/01 18:29:52","新北市三峽區民權街147號","121.368775","24.931665","6500900","三峽區"
"236071","105-UM","2018/02/01 18:29:46","新北市土城區永豐路255巷21弄1號","121.47503","24.97396","6501300","土城區"
"236042","107-UM","2018/02/01 18:29:45","新北市土城區裕民路67巷14號","121.449833333333","24.98798","6501300","土城區"
"236078","166-UM","2018/02/01 18:29:44","新北市土城區大暖路53號","121.422465","24.958675","6501300","土城區"
"236030","253-BX","2018/02/01 18:29:35","新北市土城區水源街81巷6號","121.439448333333","24.9762866666667","6501300","土城區"
"236026","269-VK","2018/02/01 18:29:53","新北市土城區南天母路91巷2號","121.447378333333","24.9562833333333","6501300","土城區"
"236014","270-VK","2018/02/01 18:29:46","新北市土城區青雲路39巷7號","121.460316666667","24.9874233333333","6501300","土城區"
"236037","271-VK","2018/02/01 18:29:40","新北市土城區青雲路449-1號","121.458721666667","24.9747116666667","6501300","土城區"
"236021","401-BY","2018/02/01 18:29:39","新北市土城區明德路一段93巷6號","121.466163333333","24.9832233333333","6501300","土城區"
"236058","912-UM","2018/02/01 18:29:37","新北市土城區中央路四段466號","121.410041666667","24.95045","6501300","土城區"
"236051","913-UM","2018/02/01 18:29:36","新北市土城區青雲路455號","121.458628333333","24.9744966666667","6501300","土城區"
"236062","915-UM","2018/02/01 18:29:54","新北市土城區延壽路77巷6-3號","121.46852","24.9926233333333","6501300","土城區"
"236053","AAC-216","2018/02/01 18:29:40","新北市土城區中華路二段52號","121.439216666667","24.977555","6501300","土城區"
"242031","AAC-296","2018/02/01 18:29:55","新北市新莊區新泰路277巷57弄2號","121.443415","25.0398933333333","6500500","新莊區"
"242029","986-R7","2018/02/01 18:29:33","新北市泰山區泰林路一段2-1號","121.442038333333","25.0480583333333","6500500","新莊區"
"242053","440-UM","2018/02/01 18:29:38","新北市新莊區樹新路120巷49弄1號","121.430266666667","24.9957966666667","6500500","新莊區"
"242042","400-BY","2018/02/01 18:29:54","新北市新莊區天祥街79號","121.415626666667","25.0293416666667","6500500","新莊區"
"242061","362-BY","2018/02/01 18:29:34","新北市新莊區後港一路40號","121.425785","25.026205","6500500","新莊區"
"242058","353-BY","2018/02/01 18:29:55","新北市新莊區中正路891-44號","121.413913333333","25.0228733333333","6500500","新莊區"
"242007","132-UY","2018/02/01 18:29:46","新北市新莊區中華路二段40號","121.454066666667","25.0455433333333","6500500","新莊區"
"242046","172-VK","2018/02/01 18:29:46","新北市新莊區中正路803巷19號","121.42186","25.0279566666667","6500500","新莊區"
"242056","349-TH","2018/02/01 18:29:54","新北市新莊區中環路一段36號","121.442613333333","25.0274483333333","6500500","新莊區"
"242011","351-TH","2018/02/01 18:29:42","新北市新莊區中榮街132號","121.445978333333","25.0527983333333","6500500","新莊區"
"238023","601-UM","2018/02/01 18:29:48","新北市樹林區三福街114號","121.406433333333","25.016305","6500700","樹林區"
"238019","599-UM","2018/02/01 18:29:48","新北市樹林區中華路190-16號","121.411753333333","24.9805766666667","6500700","樹林區"
"238018","571-TV","2018/02/01 18:29:51","新北市樹林區保安街一段20巷23號","121.428033333333","24.9943016666667","6500700","樹林區"
"238024","5061-A6","2018/02/01 18:29:43","新北市樹林區中山路二段54號","121.416458333333","24.98453","6500700","樹林區"
"238025","303-VK","2018/02/01 18:29:40","新北市樹林區保安二街61號","121.42429","24.994565","6500700","樹林區"
"238017","283-BY","2018/02/01 18:29:46","新北市樹林區保安街二段337巷1號","121.412103333333","25.0079016666667","6500700","樹林區"
"238020","268-VK","2018/02/01 18:29:45","新北市樹林區三俊街65巷24號","121.413316666667","25.01723","6500700","樹林區"
"238026","172-UY","2018/02/01 18:29:45","新北市樹林區八德街634號","121.396791666667","24.969475","6500700","樹林區"
"238016","169-UY","2018/02/01 18:29:44","新北市樹林區復興路335巷17號","121.418933333333","24.987475","6500700","樹林區"
"239007","AAC-297","2018/02/01 18:29:47","新北市鶯歌區尖山埔路3號","121.349436666667","24.95096","6500800","鶯歌區"
"239006","891-R6","2018/02/01 18:29:45","新北市鶯歌區鶯桃路182巷96弄11號","121.340006666667","24.9582033333333","6500800","鶯歌區"
"239008","527-UM","2018/02/01 18:29:44","新北市鶯歌區國際一路179號","121.336215","24.9765083333333","6500800","鶯歌區"
"239005","526-UM","2018/02/01 18:29:52","新北市鶯歌區鶯桃路668巷15號","121.32887","24.9701366666667","6500800","鶯歌區"
"239001","417-VK","2018/02/01 18:29:49","新北市鶯歌區國中街197號","121.338286666667","24.93908","6500800","鶯歌區"
"239003","360-BY","2018/02/01 18:29:52","新北市鶯歌區福安街58號","121.335566666667","24.9651983333333","6500800","鶯歌區"
"239002","359-BY","2018/02/01 18:29:40","新北市鶯歌區光明街35號","121.348206666667","24.9558733333333","6500800","鶯歌區"
"239004","193-VK","2018/02/01 18:29:47","新北市鶯歌區尖山路173巷31號","121.345353333333","24.94693","6500800","鶯歌區"
"221036","130-UY","2018/02/01 18:29:57","新北市汐止區長興街一段24號","121.669866666667","25.0789816666667","6501100","汐止區"
"221010","269-BY","2018/02/01 18:29:53","新北市汐止區汐萬路二段308號","121.643513333333","25.0907933333333","6501100","汐止區"
"221012","278-VK","2018/02/01 18:29:37","新北市汐止區保長路37巷6號","121.67304","25.0793233333333","6501100","汐止區"
"221023","279-VK","2018/02/01 18:29:49","新北市汐止區康寧街495-2號","121.632641666667","25.06851","6501100","汐止區"
"221032","280-BY","2018/02/01 18:29:37","新北市汐止區民權街二段102號","121.618673333333","25.046925","6501100","汐止區"
"221027","281-BY","2018/02/01 18:29:56","新北市汐止區和平街46巷10號","121.662658333333","25.0713883333333","6501100","汐止區"
"221002","297-VK","2018/02/01 18:29:45","新北市汐止區福德一路147號","121.63666","25.0667366666667","6501100","汐止區"
"221029","298-VK","2018/02/01 18:29:49","新北市汐止區樟樹一路272-6號","121.642715","25.0688166666667","6501100","汐止區"
"221021","299-VK","2018/02/01 18:29:52","新北市汐止區復興路42號","121.656555","25.063035","6501100","汐止區"
"221031","353-TW","2018/02/01 18:29:39","新北市汐止區大同路一段403巷1號","121.641421666667","25.0602766666667","6501100","汐止區"
"221015","567-BX","2018/02/01 18:29:45","新北市汐止區鄉長路二段23巷20號","121.667763333333","25.0831433333333","6501100","汐止區"
"221035","622-UM","2018/02/01 18:29:46","新北市汐止區大同路二段169巷40號","121.650598333333","25.0651333333333","6501100","汐止區"
"221025","623-UM","2018/02/01 18:29:39","新北市汐止區仁愛路114號","121.662698333333","25.0635416666667","6501100","汐止區"
"221038","646-BX","2018/02/01 18:29:33","新北市汐止區忠孝東路256號","121.66309","25.067485","6501100","汐止區"
"221033","647-BX","2018/02/01 18:29:34","新北市汐止區宜興街130號","121.623311666667","25.0434183333333","6501100","汐止區"
"221018","753-BX","2018/02/01 18:29:41","新北市汐止區茄苳路212號","121.670651666667","25.0688183333333","6501100","汐止區"
"220079","145-BY","2018/02/01 18:29:40","新北市板橋區華東街1-10號","121.448285","24.9950566666667","6500100","板橋區"
"220082","610-BX","2018/02/01 18:29:34","新北市板橋區華東街1-10號","121.448281666667","24.9949116666667","6500100","板橋區"
"220071","283-VK","2018/02/01 18:29:53","新北市板橋區華東街1-9號","121.448086666667","24.9948916666667","6500100","板橋區"
"220053","285-VK","2018/02/01 18:29:57","新北市板橋區民生路二段120號","121.470303333333","25.0197883333333","6500100","板橋區"
"220083","286-VK","2018/02/01 18:29:46","新北市板橋區華東街1-10號","121.448406666667","24.99502","6500100","板橋區"
"220084","296-UM","2018/02/01 18:29:45","新北市板橋區華東街1-9號","121.448145","24.994945","6500100","板橋區"
"242048","281-VK","2018/02/01 18:29:37","新北市樹林區樹新路96號","121.429821666667","24.997565","6500500","新莊區"
"220064","486-VK","2018/02/01 18:29:43","新北市板橋區南雅南路二段120-11號","121.452203333333","24.99919","6500100","板橋區"
"220035","560-BX","2018/02/01 18:29:46","新北市板橋區南雅南路二段1-1號","121.454676666667","25.0037166666667","6500100","板橋區"
"220057","686-BX","2018/02/01 18:29:38","新北市板橋區華東街1-9號","121.448241666667","24.99489","6500100","板橋區"
"220054","741-BX","2018/02/01 18:29:41","新北市板橋區華東街1-9號","121.448071666667","24.99491","6500100","板橋區"
"220073","985-R7","2018/02/01 18:29:45","新北市板橋區華東街1-10號","121.448335","24.9949766666667","6500100","板橋區"
