"lineid","car","time","location","longitude","latitude","cityid","cityname"
"234046","148-BY","2018/02/01 18:59:27","新北市永和區得和路373巷16弄1號","121.525205","25.0002366666667","6500400","永和區"
"234067","149-BY","2018/02/01 18:59:24","新北市永和區中和路625號","121.512926666667","25.0048983333333","6500400","永和區"
"234007","207-UY","2018/02/01 18:59:19","新北市永和區中山路一段68號","121.512611666667","25.0107916666667","6500400","永和區"
"234081","298-R6","2018/02/01 18:59:24","新北市永和區永亨路67-1號","121.5212","25.0060466666667","6500400","永和區"
"234038","336-UY","2018/02/01 18:59:30","新北市永和區成功路二段199-2號","121.526553333333","24.9961033333333","6500400","永和區"
"234064","337-UY","2018/02/01 18:59:29","新北市永和區秀朗路一段205號","121.51907","25.0033166666667","6500400","永和區"
"234086","338-UY","2018/02/01 18:59:25","新北市永和區永寧街121號","121.518061666667","25.0056733333333","6500400","永和區"
"234070","552-UM","2018/02/01 18:59:27","新北市永和區中興街68巷5弄1號","121.517583333333","25.0115","6500400","永和區"
"234017","745-BX","2018/02/01 18:59:33","新北市永和區永和路二段314號","121.516185","25.016165","6500400","永和區"
"234030","746-BX","2018/02/01 18:59:36","新北市永和區厚德街5號","121.52564","24.9980116666667","6500400","永和區"
"234054","KEA-2590","2018/02/01 18:59:29","新北市永和區竹林路66巷2號","121.51824","25.0133716666667","6500400","永和區"
"234013","KEA-2591","2018/02/01 18:59:21","新北市永和區信義路17巷9弄5號","121.513955","25.011515","6500400","永和區"
"234061","AAD-866","2018/02/01 18:59:37","新北市永和區中正路509巷4號","121.516543333333","25.0070416666667","6500400","永和區"
"234042","862-TW","2018/02/01 18:59:23","新北市永和區永貞路271號","121.511715","25.0049216666667","6500400","永和區"
"234050","863-TW","2018/02/01 18:59:30","新北市永和區文化路190號","121.511033333333","25.0161416666667","6500400","永和區"
"234026","9371-KE","2018/02/01 18:59:31","新北市永和區安樂路453號","121.514261666667","25.005045","6500400","永和區"
"234011","9373-KE","2018/02/01 18:59:21","新北市永和區仁愛路141巷3弄1號","121.511576666667","25.0124933333333","6500400","永和區"
"249005","172-UM","2018/02/01 18:59:37","新北市八里區長道坑2號","121.393565","25.1246733333333","6502300","八里區"
"249001","173-UM","2018/02/01 18:59:33","新北市八里區龍米路二段192號","121.433838333333","25.1585116666667","6502300","八里區"
"248016","026-BX","2018/02/01 18:59:30","新北市五股區成泰路三段543巷52-1號","121.449776666667","25.1030216666667","6501500","五股區"
"248006","077-UY","2018/02/01 18:59:16","新北市五股區中興路一段52號","121.468031666667","25.0726833333333","6501500","五股區"
"248008","095-VK","2018/02/01 18:59:34","新北市五股區中興路一段118巷6弄4號","121.466305","25.0741433333333","6501500","五股區"
"248020","225-UY","2018/02/01 18:56:09","新北市五股區凌雲路三段57號","121.425286666667","25.1250116666667","6501500","五股區"
"248012","247-BX","2018/02/01 18:59:25","新北市五股區中興路四段48巷19號","121.438561666667","25.08356","6501500","五股區"
"248010","272-BY","2018/02/01 18:59:33","新北市五股區水碓一路23號","121.430668333333","25.0712983333333","6501500","五股區"
"248004","677-BX","2018/02/01 18:59:35","新北市五股區民義路二段43號","121.410468333333","25.1043833333333","6501500","五股區"
"248002","678-BX","2018/02/01 18:59:19","新北市五股區凌雲路一段111號","121.45006","25.1017816666667","6501500","五股區"
"234023","9380-KE","2018/02/01 18:59:27","新北市永和區竹林路91巷60弄42號","121.522473333333","25.0123816666667","6500400","永和區"
"234077","969-R7","2018/02/01 18:59:25","新北市永和區智光街35號","121.517965","24.998745","6500400","永和區"
"234074","AAC-211","2018/02/01 18:59:31","新北市永和區環河東路二段98號","121.524108333333","25.0103416666667","6500400","永和區"
"234003","AAC-295","2018/02/01 18:59:18","新北市永和區和平街54巷2號","121.512718333333","25.0100083333333","6500400","永和區"
"232011","375-UM","2018/02/01 18:59:32","新北市坪林區坪林街29號","121.711873333333","24.9367883333333","6502000","坪林區"
"244013","069-UM","2018/02/01 18:59:20","新北市林口區麗園路2巷31號","121.375088333333","25.070915","6501700","林口區"
"244007","080-UY","2018/02/01 18:59:32","新北市林口區太平里4鄰20號","121.377616666667","25.1161183333333","6501700","林口區"
"244019","402-UM","2018/02/01 18:59:21","新北市林口區麗園二街60巷78號","121.381303333333","25.0674016666667","6501700","林口區"
"244023","483-VK","2018/02/01 18:59:34","新北市林口區民權路17號","121.371111666667","25.0800683333333","6501700","林口區"
"244017","485-VK","2018/02/01 18:59:17","新北市林口區公園路133-3號","121.369455","25.07065","6501700","林口區"
"244009","656-BX","2018/02/01 18:59:34","新北市林口區竹林路358巷1號","121.391691666667","25.0843083333333","6501700","林口區"
"244011","701-TV","2018/02/01 18:59:32","新北市林口區仁愛路一段356號","121.390291666667","25.076585","6501700","林口區"
"244025","837-TS","2018/02/01 18:59:26","新北市林口區文化三路一段447巷41號","121.367338333333","25.07567","6501700","林口區"
"243012","AAD-798","2018/02/01 18:59:35","新北市泰山區仁德路110號","121.432765","25.0568416666667","6501600","泰山區"
"243011","297-R6","2018/02/01 18:59:34","新北市泰山區明志路二段246-1號","121.427043333333","25.048125","6501600","泰山區"
"243015","380-SR","2018/02/01 18:59:36","新北市泰山區明志路一段203號","121.432766666667","25.0613566666667","6501600","泰山區"
"243014","421-VK","2018/02/01 18:59:29","新北市泰山區黎明路3號","121.420981666667","25.0632866666667","6501600","泰山區"
"243010","KEA-2215","2018/02/01 18:59:24","新北市泰山區辭修路30號","121.428998333333","25.0582833333333","6501600","泰山區"
"243009","KEA-2216","2018/02/01 18:59:35","新北市泰山區泰林路二段236號","121.432348333333","25.0621183333333","6501600","泰山區"
"243013","646-TV","2018/02/01 18:59:31","新北市泰山區明志路三段351巷22號","121.422666666667","25.0348366666667","6501600","泰山區"
"243016","680-BX","2018/02/01 18:59:33","新北市泰山區明志路二段134號","121.42749","25.0511433333333","6501600","泰山區"
"222003","436-BY","2018/02/01 18:59:30","新北市深坑區深南路51-1號","121.62147","25.0101683333333","6501800","深坑區"
"222002","659-BX","2018/02/01 18:59:33","新北市深坑區文山路一段33號","121.629555","25.00401","6501800","深坑區"
"231041","002-UM","2018/02/01 18:59:19","新北市新店區環河路74號","121.537055","24.9631633333333","6500600","新店區"
"231058","0293-UT","2018/02/01 18:59:29","新北市新店區中興路一段289號","121.545473333333","24.9687383333333","6500600","新店區"
"231059","046-UY","2018/02/01 18:59:25","新北市新店區安康路一段266巷4號","121.51989","24.9640183333333","6500600","新店區"
"231061","047-UY","2018/02/01 18:59:31","新北市新店區安康路一段351-1號","121.51949","24.96387","6500600","新店區"
"231060","106-UY","2018/02/01 18:59:24","新北市新店區安豐路30-1號","121.50079","24.956725","6500600","新店區"
"231051","107-UY","2018/02/01 18:59:26","新北市新店區自由街2-1號","121.535498333333","24.975465","6500600","新店區"
"231047","108-UY","2018/02/01 18:59:16","新北市新店區德正街27巷29弄8號","121.545795","24.97171","6500600","新店區"
"231049","110-UY","2018/02/01 18:59:18","新北市新店區中正路454-5號","121.534451666667","24.9790483333333","6500600","新店區"
"231052","187-VK","2018/02/01 18:59:29","新北市新店區櫻花街118號","121.547378333333","24.9230566666667","6500600","新店區"
"231064","188-VK","2018/02/01 18:59:21","新北市新店區安康路一段266巷4號","121.51983","24.9640666666667","6500600","新店區"
"231050","KEA-2219","2018/02/01 18:59:23","新北市新店區北宜路二段30巷5弄2號","121.54792","24.9507466666667","6500600","新店區"
"231046","278-BY","2018/02/01 18:59:17","新北市新店區直潭五街30號","121.53416","24.9413733333333","6500600","新店區"
"231054","AAD-862","2018/02/01 18:59:38","新北市新店區新店路27-1號","121.540008333333","24.952765","6500600","新店區"
"231056","3713-VJ","2018/02/01 18:59:20","新北市新店區二十張路33巷22號","121.539178333333","24.9807283333333","6500600","新店區"
"231055","4716-K9","2018/02/01 18:59:33","新北市新店區新生街10巷9號","121.540518333333","24.96641","6500600","新店區"
"231067","4772-VM","2018/02/01 18:59:30","新北市新店區安康路一段263巷34號","121.523926666667","24.9619033333333","6500600","新店區"
"231065","512-UM","2018/02/01 18:59:32","新北市新店區安康路二段393號","121.494303333333","24.95392","6500600","新店區"
"231042","616-UM","2018/02/01 18:59:18","新北市新店區五峰路64號","121.545953333333","24.96825","6500600","新店區"
"231040","619-UM","2018/02/01 18:59:22","新北市新店區三民路185號","121.535345","24.975365","6500600","新店區"
"231063","645-TV","2018/02/01 18:59:29","新北市新店區車子路109號","121.505218333333","24.952115","6500600","新店區"
"231062","720-UM","2018/02/01 18:59:18","新北市新店區吉安街43號","121.515331666667","24.96595","6500600","新店區"
"231044","897-TW","2018/02/01 18:59:30","新北市新店區寶中路72號","121.54796","24.9806166666667","6500600","新店區"
"231045","898-TW","2018/02/01 18:59:24","新北市新店區光明街27號","121.538441666667","24.9596133333333","6500600","新店區"
"231043","899-TW","2018/02/01 18:59:25","新北市新店區北新路二段3號","121.542621666667","24.9713016666667","6500600","新店區"
"231066","AKT-0513","2018/02/01 18:59:32","新北市新店區安祥路35-1號","121.491826666667","24.9554533333333","6500600","新店區"
"241018","268-UM","2018/02/01 18:59:36","新北市三重區大智街65號","121.492473333333","25.06807","6500200","三重區"
"241013","270-UM","2018/02/01 18:59:31","新北市三重區仁賢街12-1號","121.495726666667","25.074915","6500200","三重區"
"241035","743-BX","2018/02/01 18:59:21","新北市三重區重新路四段121號","121.484783333333","25.0520033333333","6500200","三重區"
"241029","942-UM","2018/02/01 18:59:23","新北市三重區重安街13巷4號","121.4904","25.05722","6500200","三重區"
"235066","003-UY","2018/02/01 18:59:18","新北市中和區廣福路56巷1弄17號","121.50284","25.001805","6500300","中和區"
"235064","005-UY","2018/02/01 18:59:25","新北市中和區泰和街27號","121.499391666667","24.9999183333333","6500300","中和區"
"235049","031-BX","2018/02/01 18:59:24","新北市中和區景新街210巷2弄6號","121.506933333333","24.9942866666667","6500300","中和區"
"235056","096-UM","2018/02/01 18:59:33","新北市中和區員山路466巷34號","121.482323333333","25.00627","6500300","中和區"
"235039","097-UM","2018/02/01 18:59:33","新北市中和區安樂路217巷56號","121.513038333333","24.9975866666667","6500300","中和區"
"235065","098-UM","2018/02/01 18:59:23","新北市中和區勝利路35巷9弄14號","121.499755","25.0072616666667","6500300","中和區"
"235040","150-BY","2018/02/01 18:59:25","新北市中和區宜安路22號","121.513111666667","24.9957833333333","6500300","中和區"
"235058","151-BY","2018/02/01 18:59:25","新北市中和區連城路569巷9弄5號","121.479513333333","24.9942166666667","6500300","中和區"
"235055","183-VK","2018/02/01 18:59:31","新北市中和區民德路21號","121.468821666667","25.0027533333333","6500300","中和區"
"235038","185-VK","2018/02/01 18:59:22","新北市中和區立人街24-5號","121.518811666667","24.9941216666667","6500300","中和區"
"235067","255-BX","2018/02/01 18:59:33","新北市中和區中山路二段449號","121.483803333333","25.0049466666667","6500300","中和區"
"235044","293-VK","2018/02/01 18:59:18","新北市中和區中興街161巷9弄1號","121.501181666667","24.9909716666667","6500300","中和區"
"235072","301-VK","2018/02/01 18:59:27","新北市中和區景平路705號","121.49654","25.00354","6500300","中和區"
"235043","352-BY","2018/02/01 18:59:32","新北市中和區成功路42號","121.526033333333","24.992925","6500300","中和區"
"235068","377-QA","2018/02/01 18:59:22","新北市中和區圓通路281巷4號","121.495515","24.9927733333333","6500300","中和區"
"235061","378-QA","2018/02/01 18:59:33","新北市中和區民享街57號","121.474266666667","25.0025516666667","6500300","中和區"
"235050","4979-A6","2018/02/01 18:59:22","新北市中和區忠孝街2-15號","121.5096","24.9828516666667","6500300","中和區"
"235069","4980-A6","2018/02/01 18:59:31","新北市中和區圓通路109巷1弄1號","121.49968","24.996465","6500300","中和區"
"235042","551-UM","2018/02/01 18:59:22","新北市中和區秀朗路三段78巷1弄7號","121.525601666667","24.9938","6500300","中和區"
"235070","558-UM","2018/02/01 18:59:18","新北市中和區員山路36巷16-2號","121.485446666667","24.9910166666667","6500300","中和區"
"235045","565-BX","2018/02/01 18:59:25","新北市中和區景新街467巷4號","121.513673333333","24.9881233333333","6500300","中和區"
"235054","640-BX","2018/02/01 18:59:36","新北市中和區民享街11號","121.474","25.0055383333333","6500300","中和區"
"235060","647-TV","2018/02/01 18:59:32","新北市中和區中山路三段214號","121.4714","25.0065516666667","6500300","中和區"
"235047","732-UM","2018/02/01 18:59:23","新北市中和區興南路二段54巷11弄5號","121.50565","24.9854816666667","6500300","中和區"
"235046","733-UM","2018/02/01 18:59:18","新北市中和區興南路一段135巷22弄6號","121.509076666667","24.98687","6500300","中和區"
"235062","800-TS","2018/02/01 18:59:18","新北市中和區中山路二段406號","121.490206666667","25.003845","6500300","中和區"
"235041","802-TS","2018/02/01 18:59:33","新北市中和區宜安路62號","121.511595","24.9970616666667","6500300","中和區"
"235052","805-TS","2018/02/01 18:59:32","新北市中和區興南路二段178號","121.503566666667","24.9824733333333","6500300","中和區"
"235048","896-TW","2018/02/01 18:59:30","新北市中和區華新街111號","121.508775","24.9817766666667","6500300","中和區"
"235053","900-TW","2018/02/01 18:59:18","新北市板橋區和平路174巷33號","121.465093333333","24.9943966666667","6500300","中和區"
"235063","911-UM","2018/02/01 18:59:30","新北市中和區錦和路174號","121.489795","24.9955783333333","6500300","中和區"
"235051","157-BY","2018/02/01 18:59:33","新北市中和區忠孝街13號","121.510026666667","24.982825","6500300","中和區"
"235037","AAC-213","2018/02/01 18:59:22","新北市中和區自立路99巷10號","121.522505","24.9947916666667","6500300","中和區"
"235059","AAC-215","2018/02/01 18:59:22","新北市中和區圓通路367巷40號","121.492045","24.9888","6500300","中和區"
"220068","013-TV","2018/02/01 18:59:22","新北市板橋區三民路一段31巷63號","121.481088333333","25.0230483333333","6500100","板橋區"
"220065","072-UY","2018/02/01 18:59:29","新北市板橋區民族路287巷8號","121.471206666667","25.0070966666667","6500100","板橋區"
"220086","073-UY","2018/02/01 18:59:32","新北市板橋區中正路101號","121.456498333333","25.0146983333333","6500100","板橋區"
"220106","075-UY","2018/02/01 18:59:34","新北市板橋區文化路二段124巷26號","121.471173333333","25.0256883333333","6500100","板橋區"
"220069","AAD-861","2018/02/01 18:59:21","新北市板橋區華興街76號","121.45707","25.00513","6500100","板橋區"
"220098","120-SR","2018/02/01 18:59:17","新北市板橋區民有街16號","121.466321666667","25.0249133333333","6500100","板橋區"
"226004","205-ST","2018/02/01 18:59:20","新北市平溪區靜安路二段482號","121.743048333333","25.0258366666667","6502400","平溪區"
"235057","251-BX","2018/02/01 18:59:25","新北市中和區民利街14巷5弄20號","121.479795","24.9993266666667","6500300","中和區"
"228003","097-TW","2018/02/01 18:59:25","新北市貢寮區和美里龍洞街47號","121.911801666667","25.1132216666667","6502600","貢寮區"
"228001","212-TW","2018/02/01 18:59:22","新北市貢寮區仁理村保健街71號","121.92372","25.0516366666667","6502600","貢寮區"
"228002","663-BX","2018/02/01 18:59:34","新北市貢寮區福隆里東興街106巷21弄2號","121.945913333333","25.0176883333333","6502600","貢寮區"
"224006","676-BX","2018/02/01 18:59:24","新北市瑞芳區民權街6巷27號","121.806755","25.1067766666667","6501200","瑞芳區"
"224009","285-BY","2018/02/01 18:59:23","新北市瑞芳區祈堂路2號","121.859805","25.11167","6501200","瑞芳區"
"224008","275-VK","2018/02/01 18:59:33","新北市瑞芳區逢甲路402號","121.797591666667","25.1133016666667","6501200","瑞芳區"
"224007","273-VK","2018/02/01 18:59:15","新北市瑞芳區大埔路慶安新村8號","121.76202","25.100285","6501200","瑞芳區"
"224005","271-BY","2018/02/01 18:59:34","新北市瑞芳區濱二路71-1號","121.829093333333","25.1204333333333","6501200","瑞芳區"
"227004","642-TC","2018/02/01 18:59:25","新北市雙溪區平林里康福家園10號","121.858773333333","25.0373533333333","6502500","雙溪區"
"227010","400-TW","2018/02/01 18:59:18","新北市雙溪區牡丹里中正路58巷33號","121.866418333333","25.0417183333333","6502500","雙溪區"
"253005","032-BX","2018/02/01 18:59:24","新北市石門區中央路37-2號","121.568551666667","25.29474","6502200","石門區"
"253006","295-VK","2018/02/01 18:59:28","新北市石門區下員坑42-1號","121.518051666667","25.2784783333333","6502200","石門區"
"222001","KEA-2212","2018/02/01 18:59:22","新北市深坑區北深路一段84號","121.636255","25.0108166666667","6501800","深坑區"
"208002","742-BX","2018/02/01 18:59:22","新北市金山區信義路74號","121.635073333333","25.2193733333333","6502700","金山區"
"208003","665-BX","2018/02/01 18:59:28","新北市金山區中正路39號","121.634978333333","25.2220616666667","6502700","金山區"
"208001","761-BX","2018/02/01 18:59:36","新北市金山區中山路89號","121.640173333333","25.2187816666667","6502700","金山區"
"251009","008-UM","2018/02/01 18:59:30","新北市淡水區重建街77號","121.43981","25.1721166666667","6501000","淡水區"
"251001","011-UM","2018/02/01 18:59:34","新北市淡水區自強路58號","121.463128333333","25.127515","6501000","淡水區"
"251013","179-VK","2018/02/01 18:59:27","新北市淡水區安子內5-1號","121.484536666667","25.21605","6501000","淡水區"
"251014","180-VK","2018/02/01 18:59:33","新北市淡水區小中寮32-1號","121.491601666667","25.2266866666667","6501000","淡水區"
"251015","182-VK","2018/02/01 18:59:30","新北市淡水區糞箕湖60號","121.485145","25.1723183333333","6501000","淡水區"
"251010","413-VK","2018/02/01 18:59:28","新北市淡水區沙崙路97號","121.422205","25.18238","6501000","淡水區"
"251016","442-VK","2018/02/01 18:59:28","新北市淡水區淡金路三段28號","121.447628333333","25.1988733333333","6501000","淡水區"
"251011","650-BX","2018/02/01 18:59:23","新北市淡水區中正東路二段153號","121.45962","25.1465183333333","6501000","淡水區"
"251002","672-BX","2018/02/01 18:59:30","新北市淡水區學府路4號","121.447456666667","25.167775","6501000","淡水區"
"251003","766-UM","2018/02/01 18:59:27","新北市淡水區中山北路一段149巷24號","121.442918333333","25.17804","6501000","淡水區"
"207003","550-UM","2018/02/01 18:59:34","新北市萬里區大鵬里頂社29號","121.656565","25.210785","6502800","萬里區"
"207004","225-TW","2018/02/01 18:59:20","新北市萬里區萬里里獅頭路23號","121.693183333333","25.1783283333333","6502800","萬里區"
"252002","178-VK","2018/02/01 18:59:27","新北市三芝區中正路一段67-1號","121.503965","25.2574283333333","6502100","三芝區"
"252003","249-BX","2018/02/01 18:59:29","新北市三芝區後厝里北勢子22-16號","121.472908333333","25.25319","6502100","三芝區"
"252001","292-VK","2018/02/01 18:59:32","新北市三芝區中興街二段260號","121.501736666667","25.25303","6502100","三芝區"
"237004","078-UY","2018/02/01 18:59:23","新北市三峽區有木183-2號","121.446311666667","24.8370616666667","6500900","三峽區"
"237007","153-BY","2018/02/01 18:59:33","新北市三峽區大埔路23號","121.366006666667","24.909595","6500900","三峽區"
"237013","252-BX","2018/02/01 18:59:22","新北市三峽區光明路69巷25號","121.37672","24.9291833333333","6500900","三峽區"
"237012","275-BY","2018/02/01 18:59:19","新北市三峽區三樹路212-1號","121.379133333333","24.9420333333333","6500900","三峽區"
"237008","302-VK","2018/02/01 18:59:31","新北市三峽區正義街2號","121.369953333333","24.9201066666667","6500900","三峽區"
"237014","433-BY","2018/02/01 18:59:27","新北市三峽區隆恩街189號","121.361175","24.94245","6500900","三峽區"
"237006","5529-G3","2018/02/01 18:59:25","新北市三峽區溪東路233巷4弄15號","121.407166666667","24.9337866666667","6500900","三峽區"
"237016","649-BX","2018/02/01 18:30:35","新北市三峽區竹崙路120號","121.433893333333","24.910185","6500900","三峽區"
"237010","706-TV","2018/02/01 18:59:22","新北市三峽區國光街350巷1號","121.371536666667","24.9398333333333","6500900","三峽區"
"237005","AKY-6261","2018/02/01 18:59:32","新北市三峽區中山路321-1號","121.360825","24.9378333333333","6500900","三峽區"
"236071","105-UM","2018/02/01 18:59:24","新北市土城區清水路87號","121.456305","24.9817416666667","6501300","土城區"
"236042","107-UM","2018/02/01 18:59:25","新北市土城區學府路一段219巷9號","121.451976666667","24.9840083333333","6501300","土城區"
"236078","166-UM","2018/02/01 18:59:24","新北市土城區龍泉路10-1號","121.409536666667","24.9492683333333","6501300","土城區"
"236030","253-BX","2018/02/01 18:59:35","新北市土城區慶利街18號","121.439563333333","24.9736983333333","6501300","土城區"
"236026","269-VK","2018/02/01 18:59:33","新北市土城區中正路56巷12號","121.443993333333","24.97482","6501300","土城區"
"236014","270-VK","2018/02/01 18:59:37","新北市土城區立德路91號","121.462931666667","24.9878283333333","6501300","土城區"
"236037","271-VK","2018/02/01 18:59:20","新北市土城區明德路一段240巷26弄14號","121.460716666667","24.9779983333333","6501300","土城區"
"236021","401-BY","2018/02/01 18:59:31","新北市土城區明峰街55號","121.467576666667","24.9867416666667","6501300","土城區"
"236058","912-UM","2018/02/01 18:59:30","新北市土城區金城路二段12號","121.449228333333","24.9772116666667","6501300","土城區"
"236051","913-UM","2018/02/01 18:59:36","新北市土城區明德路一段325號","121.458676666667","24.977105","6501300","土城區"
"236062","915-UM","2018/02/01 18:59:38","新北市土城區延和路41巷6弄16號","121.466625","24.9902866666667","6501300","土城區"
"236053","AAC-216","2018/02/01 18:59:21","新北市土城區學成路164號","121.448005","24.9891366666667","6501300","土城區"
"238023","601-UM","2018/02/01 18:59:28","新北市樹林區工興街35巷1號","121.401315","25.0132033333333","6500700","樹林區"
"238019","599-UM","2018/02/01 18:59:28","新北市樹林區鎮前街425巷7號","121.413915","24.9825316666667","6500700","樹林區"
"238018","571-TV","2018/02/01 18:59:31","新北市樹林區八德街37-1號","121.418723333333","24.9833016666667","6500700","樹林區"
"238021","KEA-2217","2018/02/01 18:59:25","新北市樹林區西圳街二段79號","121.386281666667","24.9590433333333","6500700","樹林區"
"238022","KEA-2213","2018/02/01 18:59:32","新北市樹林區東興街14-2號","121.410048333333","24.9784733333333","6500700","樹林區"
"238025","303-VK","2018/02/01 18:59:20","新北市樹林區中山路三段24號","121.395468333333","24.97298","6500700","樹林區"
"238017","283-BY","2018/02/01 18:59:26","新北市樹林區中山路三段210-2號","121.380865","24.966925","6500700","樹林區"
"238020","268-VK","2018/02/01 18:59:25","新北市樹林區俊英街83巷1號","121.42584","25.0079516666667","6500700","樹林區"
"238026","172-UY","2018/02/01 18:59:25","新北市樹林區中和街11號","121.391898333333","24.97287","6500700","樹林區"
"238016","169-UY","2018/02/01 18:59:24","新北市樹林區文化街25巷28號","121.417958333333","24.9865983333333","6500700","樹林區"
"239007","AAC-297","2018/02/01 18:59:27","新北市鶯歌區中正一路建德巷38號","121.364466666667","24.95783","6500800","鶯歌區"
"239006","891-R6","2018/02/01 18:59:25","新北市鶯歌區鶯桃路296巷70號","121.336621666667","24.9616233333333","6500800","鶯歌區"
"239008","527-UM","2018/02/01 18:59:24","新北市鶯歌區晨曦街1號","121.336471666667","24.9760733333333","6500800","鶯歌區"
"239005","526-UM","2018/02/01 18:59:31","新北市鶯歌區鳳吉一街68號","121.32662","24.974125","6500800","鶯歌區"
"239001","417-VK","2018/02/01 18:59:29","新北市鶯歌區永明街60巷50號","121.340591666667","24.9553916666667","6500800","鶯歌區"
"239003","360-BY","2018/02/01 18:59:32","新北市鶯歌區鶯桃路658巷47-2號","121.330431666667","24.96992","6500800","鶯歌區"
"239002","359-BY","2018/02/01 18:59:19","新北市鶯歌區中正一路305號","121.356626666667","24.957035","6500800","鶯歌區"
"239004","193-VK","2018/02/01 18:59:27","新北市鶯歌區中正三路247巷67弄8號","121.33419","24.9363816666667","6500800","鶯歌區"
"221036","130-UY","2018/02/01 18:59:17","新北市汐止區南昌街22-1號","121.66323","25.0682783333333","6501100","汐止區"
"221010","269-BY","2018/02/01 18:59:33","新北市汐止區康寧街901號","121.651516666667","25.0749183333333","6501100","汐止區"
"221012","278-VK","2018/02/01 18:59:17","新北市汐止區康寧街901號","121.650788333333","25.07522","6501100","汐止區"
"221023","279-VK","2018/02/01 18:59:29","新北市汐止區康寧街901號","121.650945","25.075215","6501100","汐止區"
"221032","280-BY","2018/02/01 18:59:17","新北市汐止區橫科路407巷81弄5號","121.628576666667","25.0481433333333","6501100","汐止區"
"221027","281-BY","2018/02/01 18:59:35","新北市汐止區康寧街901號","121.651416666667","25.075025","6501100","汐止區"
"221002","297-VK","2018/02/01 18:59:23","新北市汐止區大同路一段2號","121.621036666667","25.0550283333333","6501100","汐止區"
"221029","298-VK","2018/02/01 18:59:29","新北市汐止區樟樹一路256號","121.642355","25.0673416666667","6501100","汐止區"
"221031","353-TW","2018/02/01 18:59:37","新北市汐止區福德二路156巷4號","121.630108333333","25.0652766666667","6501100","汐止區"
"221015","567-BX","2018/02/01 18:59:25","新北市汐止區鄉長路一段55巷22號","121.664765","25.0763433333333","6501100","汐止區"
"221035","622-UM","2018/02/01 18:59:26","新北市汐止區中正路297號","121.656288333333","25.06799","6501100","汐止區"
"221025","623-UM","2018/02/01 18:59:18","新北市汐止區水源路一段2號","121.657058333333","25.0670416666667","6501100","汐止區"
"221038","646-BX","2018/02/01 18:59:33","新北市汐止區汐萬路一段312號","121.650603333333","25.0752366666667","6501100","汐止區"
"221033","647-BX","2018/02/01 18:59:34","新北市汐止區南勢街1巷1號","121.626998333333","25.0373833333333","6501100","汐止區"
"220079","145-BY","2018/02/01 18:59:21","新北市板橋區民權路202巷9弄15-1號","121.45991","25.0154666666667","6500100","板橋區"
"220080","200-UY","2018/02/01 18:59:32","新北市板橋區大觀路二段265巷1弄18號","121.443658333333","24.9983783333333","6500100","板橋區"
"220082","610-BX","2018/02/01 18:59:34","新北市板橋區溪崑二街89號","121.427211666667","24.9894583333333","6500100","板橋區"
"220103","257-TC","2018/02/01 18:59:38","新北市板橋區民生路二段121號","121.470793333333","25.018365","6500100","板橋區"
"220056","276-BY","2018/02/01 18:59:23","新北市板橋區信義路161號","121.458603333333","24.992375","6500100","板橋區"
"220072","277-BY","2018/02/01 18:59:34","新北市板橋區篤行路一段29號","121.432018333333","24.9945483333333","6500100","板橋區"
"220101","280-UM","2018/02/01 18:59:25","新北市板橋區文化路二段182巷5弄1號","121.471628333333","25.0269866666667","6500100","板橋區"
"220071","283-VK","2018/02/01 18:59:33","新北市板橋區重慶路245巷15號","121.463896666667","25.0007233333333","6500100","板橋區"
"220094","285-UM","2018/02/01 18:59:24","新北市板橋區莒光路1-1號","121.469561666667","25.0249666666667","6500100","板橋區"
"220053","285-VK","2018/02/01 18:59:17","新北市板橋區中山路二段89巷34號","121.47382","25.0168516666667","6500100","板橋區"
"220083","286-VK","2018/02/01 18:59:26","新北市板橋區大觀路一段38巷156弄70號","121.442915","25.006565","6500100","板橋區"
"220081","287-VK","2018/02/01 18:59:04","新北市板橋區光華街15巷39號","121.452848333333","25.0114983333333","6500100","板橋區"
"220090","288-VK","2018/02/01 18:59:22","新北市板橋區四維路141號","121.464955","25.02555","6500100","板橋區"
"220061","293-UM","2018/02/01 18:59:28","新北市板橋區富山街100號","121.476358333333","25.0219366666667","6500100","板橋區"
"220062","295-UM","2018/02/01 18:59:33","新北市板橋區三民路二段正隆巷12弄2號","121.477903333333","25.012695","6500100","板橋區"
"220084","296-UM","2018/02/01 18:59:25","新北市板橋區龍興街61巷1號","121.442961666667","25.0012783333333","6500100","板橋區"
"242048","281-VK","2018/02/01 18:59:17","新北市樹林區太平路277號","121.418838333333","24.9727083333333","6500500","新莊區"
"220075","303-R5","2018/02/01 18:59:20","新北市板橋區後菜園街32巷9號","121.4564","25.01042","6500100","板橋區"
"220092","305-R5","2018/02/01 18:57:21","新北市板橋區民生路二段56-6號","121.470878333333","25.0188","6500100","板橋區"
"220064","486-VK","2018/02/01 18:59:26","新北市板橋區漢生東路125號","121.467543333333","25.0144183333333","6500100","板橋區"
"220089","487-VK","2018/02/01 18:59:18","新北市板橋區文化路二段394號","121.473595","25.03115","6500100","板橋區"
"220088","491-VK","2018/02/01 18:59:36","新北市板橋區民生路二段232-13號","121.468713333333","25.0224383333333","6500100","板橋區"
"220035","560-BX","2018/02/01 18:59:29","新北市板橋區中正路323號","121.454873333333","25.0200666666667","6500100","板橋區"
"220055","568-UM","2018/02/01 18:59:37","新北市板橋區區運路69號","121.467028333333","25.0110016666667","6500100","板橋區"
"220091","637-BX","2018/02/01 18:59:30","新北市板橋區雙十路二段47巷8弄4號","121.474438333333","25.0254866666667","6500100","板橋區"
"220057","686-BX","2018/02/01 18:59:28","新北市板橋區重慶路60巷4號","121.461233333333","25.0075416666667","6500100","板橋區"
"220077","687-BX","2018/02/01 18:59:23","新北市板橋區大觀路二段142-1號","121.44265","24.9991066666667","6500100","板橋區"
"220093","689-BX","2018/02/01 18:59:20","新北市板橋區民生路二段210-1號","121.469355","25.0213683333333","6500100","板橋區"
"220054","741-BX","2018/02/01 18:59:21","新北市板橋區後埔街32號","121.460475","25.00615","6500100","板橋區"
"220067","829-TW","2018/02/01 18:59:34","新北市板橋區三民路二段正隆巷12弄15-1號","121.477648333333","25.0134983333333","6500100","板橋區"
"220096","830-TW","2018/02/01 18:59:36","新北市板橋區莒光路108號","121.47222","25.023915","6500100","板橋區"
"220063","833-TW","2018/02/01 18:59:31","新北市板橋區中山路二段114號","121.476026666667","25.016605","6500100","板橋區"
"220074","895-R6","2018/02/01 18:59:23","新北市板橋區林園街2號","121.454305","25.0092366666667","6500100","板橋區"
"220073","985-R7","2018/02/01 18:59:25","新北市板橋區西門街2號","121.455861666667","25.0115266666667","6500100","板橋區"
"220097","AAC-210","2018/02/01 18:59:17","新北市板橋區四維路133號","121.465073333333","25.0252266666667","6500100","板橋區"
"220070","AAC-253","2018/02/01 18:59:25","新北市板橋區四川路一段318號","121.458406666667","25.00015","6500100","板橋區"
