"lineid","car","time","location","longitude","latitude","cityid","cityname"
"234046","148-BY","2018/02/01 19:39:20","新北市永和區永元路107號","121.522576666667","25.00243","6500400","永和區"
"234067","149-BY","2018/02/01 19:39:24","新北市永和區中山路一段201號","121.509008333333","25.0086583333333","6500400","永和區"
"234007","207-UY","2018/02/01 19:39:20","新北市中和區中和路362號","121.510338333333","25.0017266666667","6500400","永和區"
"234081","298-R6","2018/02/01 19:39:23","新北市永和區林森路20巷7號","121.525808333333","25.0057566666667","6500400","永和區"
"234038","336-UY","2018/02/01 19:39:19","新北市永和區民樂街20號","121.527426666667","25.0019666666667","6500400","永和區"
"234064","337-UY","2018/02/01 19:39:20","新北市永和區秀朗路一段192巷6弄12號","121.519026666667","25.0023616666667","6500400","永和區"
"234086","338-UY","2018/02/01 19:39:25","新北市永和區永亨路127號","121.52461","25.0040666666667","6500400","永和區"
"234070","552-UM","2018/02/01 19:39:07","新北市永和區永和路二段216號","121.515768333333","25.0140166666667","6500400","永和區"
"234017","745-BX","2018/02/01 19:39:13","新北市永和區永和路二段425巷70號","121.513561666667","25.017135","6500400","永和區"
"234030","746-BX","2018/02/01 19:39:10","新北市永和區民生路37巷9號","121.523775","24.99807","6500400","永和區"
"234054","KEA-2590","2018/02/01 19:39:09","新北市永和區竹林路54號","121.517838333333","25.014085","6500400","永和區"
"234013","KEA-2591","2018/02/01 19:39:20","新北市永和區仁愛路215號","121.50962","25.0122666666667","6500400","永和區"
"234061","AAD-866","2018/02/01 19:39:16","新北市永和區中正路397號","121.517125","25.0041516666667","6500400","永和區"
"234042","862-TW","2018/02/01 19:39:23","新北市永和區永貞路304號","121.511988333333","25.0047366666667","6500400","永和區"
"234050","863-TW","2018/02/01 19:39:10","新北市永和區保福路二段162巷2號","121.50897","25.0152233333333","6500400","永和區"
"234026","9371-KE","2018/02/01 19:39:24","新北市永和區中和路501巷10號","121.510518333333","25.0026816666667","6500400","永和區"
"249004","303-UY","2018/02/01 19:39:21","新北市八里區忠孝路423號","121.414628333333","25.1613716666667","6502300","八里區"
"249002","305-UY","2018/02/01 19:39:19","新北市八里區頂寮二街33-1號","121.450296666667","25.1252366666667","6502300","八里區"
"249003","593-UM","2018/02/01 19:39:20","新北市八里區中華路二段536-1號","121.399221666667","25.1452933333333","6502300","八里區"
"248014","025-BX","2018/02/01 19:39:14","新北市五股區五福路23巷8號","121.433458333333","25.08886","6501500","五股區"
"248016","026-BX","2018/02/01 19:39:22","新北市五股區凌雲路一段30號","121.452088333333","25.1006466666667","6501500","五股區"
"248008","095-VK","2018/02/01 19:39:15","新北市五股區四維路118巷9號","121.468815","25.0743416666667","6501500","五股區"
"248012","247-BX","2018/02/01 19:39:25","新北市五股區民義路一段48號","121.437055","25.08474","6501500","五股區"
"248010","272-BY","2018/02/01 19:39:15","新北市五股區自強路90巷72號","121.43084","25.071205","6501500","五股區"
"248004","677-BX","2018/02/01 19:39:15","新北市五股區工商路122號","121.436646666667","25.0857283333333","6501500","五股區"
"248002","678-BX","2018/02/01 19:39:19","新北市五股區成泰路三段577巷56號","121.450666666667","25.1032566666667","6501500","五股區"
"234023","9380-KE","2018/02/01 19:39:07","新北市永和區環河東路二段36號","121.522941666667","25.012465","6500400","永和區"
"234077","969-R7","2018/02/01 19:39:25","新北市永和區民權路45號","121.519941666667","24.9972616666667","6500400","永和區"
"234074","AAC-211","2018/02/01 19:39:23","新北市永和區竹林路225巷9號","121.521415","25.0087083333333","6500400","永和區"
"234003","AAC-295","2018/02/01 19:39:17","新北市永和區自由街77巷3號","121.51348","25.005015","6500400","永和區"
"244011","701-TV","2018/02/01 19:36:11","新北市林口區寶斗厝坑67-5號","121.338251666667","25.1117516666667","6501700","林口區"
"243012","AAD-798","2018/02/01 19:39:14","新北市泰山區中港西路388號","121.434891666667","25.0547183333333","6501600","泰山區"
"243011","297-R6","2018/02/01 19:39:23","新北市泰山區貴子路67巷7號","121.43054","25.040065","6501600","泰山區"
"243015","380-SR","2018/02/01 19:39:15","新北市泰山區民權街11號","121.42821","25.0509083333333","6501600","泰山區"
"243014","421-VK","2018/02/01 19:39:29","新北市泰山區泰林路二段33-8號","121.435155","25.0564566666667","6501600","泰山區"
"243010","KEA-2215","2018/02/01 19:39:24","新北市泰山區仁義路220巷53號","121.432221666667","25.0526466666667","6501600","泰山區"
"243009","KEA-2216","2018/02/01 19:39:19","新北市泰山區美寧街76號","121.431428333333","25.0647483333333","6501600","泰山區"
"243013","646-TV","2018/02/01 19:39:11","新北市泰山區明志路三段6巷16號","121.423888333333","25.04367","6501600","泰山區"
"243016","680-BX","2018/02/01 19:39:13","新北市泰山區新北大道七段28號","121.420025","25.0322416666667","6501600","泰山區"
"222003","436-BY","2018/02/01 19:31:54","新北市深坑區深南路51-1號","121.621145","25.010015","6501800","深坑區"
"222002","659-BX","2018/02/01 19:39:14","新北市深坑區北深路一段177號","121.632545","25.01089","6501800","深坑區"
"231041","002-UM","2018/02/01 19:39:19","新北市新店區中正路485號","121.533965","24.9820683333333","6500600","新店區"
"231058","0293-UT","2018/02/01 19:39:09","新北市新店區中正路102巷9弄1號","121.543383333333","24.9711666666667","6500600","新店區"
"231059","046-UY","2018/02/01 19:39:24","新北市新店區安和路三段33-1號","121.516908333333","24.980205","6500600","新店區"
"231061","047-UY","2018/02/01 19:39:24","新北市新店區安民街150號","121.516766666667","24.9698183333333","6500600","新店區"
"231060","106-UY","2018/02/01 19:39:24","新北市新店區安康路二段147號","121.51136","24.9598983333333","6500600","新店區"
"231051","107-UY","2018/02/01 19:39:26","新北市新店區中央四街56號","121.527515","24.9751333333333","6500600","新店區"
"231047","108-UY","2018/02/01 19:39:15","新北市新店區五峰路63巷8弄2號","121.54671","24.9685633333333","6500600","新店區"
"231049","110-UY","2018/02/01 19:39:18","新北市新店區大豐路42號","121.540178333333","24.9798683333333","6500600","新店區"
"231052","187-VK","2018/02/01 19:39:09","新北市新店區新烏路二段495號","121.552493333333","24.9084683333333","6500600","新店區"
"231064","188-VK","2018/02/01 19:39:21","新北市新店區安和路一段53號","121.517546666667","24.9660583333333","6500600","新店區"
"231050","KEA-2219","2018/02/01 19:39:23","新北市新店區郵政路4巷57號","121.555755","24.9518433333333","6500600","新店區"
"231057","256-BX","2018/02/01 19:39:18","新北市新店區橘園一路11號","121.54797","24.9340266666667","6500600","新店區"
"231046","278-BY","2018/02/01 19:39:18","新北市新店區中正路329巷7弄2號","121.535188333333","24.9740816666667","6500600","新店區"
"231054","AAD-862","2018/02/01 19:39:19","新北市新店區文中路45號","121.539586666667","24.956795","6500600","新店區"
"231067","4772-VM","2018/02/01 19:39:10","新北市新店區秀山路55-1號","121.530776666667","24.9602466666667","6500600","新店區"
"231065","512-UM","2018/02/01 19:39:13","新北市新店區安祥路109巷2號","121.475351666667","24.9584566666667","6500600","新店區"
"231042","616-UM","2018/02/01 19:39:18","新北市新店區中興路一段256號","121.544651666667","24.9669533333333","6500600","新店區"
"231040","619-UM","2018/02/01 19:39:21","新北市新店區北新路一段96巷23號","121.542865","24.96873","6500600","新店區"
"231063","645-TV","2018/02/01 19:39:09","新北市新店區達觀路41號","121.502776666667","24.9382383333333","6500600","新店區"
"231062","720-UM","2018/02/01 19:39:18","新北市新店區碧潭路52號","121.534393333333","24.95669","6500600","新店區"
"231044","897-TW","2018/02/01 19:39:09","新北市新店區北新路三段63號","121.541663333333","24.98098","6500600","新店區"
"231045","898-TW","2018/02/01 19:39:23","新北市新店區北宜路二段419號","121.560286666667","24.9545316666667","6500600","新店區"
"231043","899-TW","2018/02/01 19:39:25","新北市新店區北新路二段6號","121.542958333333","24.9709683333333","6500600","新店區"
"241011","013-R5","2018/02/01 19:39:28","新北市三重區秀江街119-1號","121.499596666667","25.072155","6500200","三重區"
"241028","022-UY","2018/02/01 19:39:20","新北市三重區中正南路180號","121.494073333333","25.0566066666667","6500200","三重區"
"241008","059-VK","2018/02/01 19:39:22","新北市三重區永福街135巷15號","121.478186666667","25.07698","6500200","三重區"
"241009","060-VK","2018/02/01 19:39:12","新北市三重區三和路四段406巷13號","121.48062","25.07964","6500200","三重區"
"241031","061-VK","2018/02/01 19:39:20","新北市三重區重新路四段246-2號","121.485996666667","25.0535483333333","6500200","三重區"
"241015","062-VK","2018/02/01 19:39:15","新北市三重區福德北路24號","121.502205","25.064755","6500200","三重區"
"241017","063-VK","2018/02/01 19:39:18","新北市三重區重陽路三段5巷30號","121.491285","25.0654083333333","6500200","三重區"
"241026","066-VK","2018/02/01 19:39:11","新北市三重區光興街43號","121.499435","25.0602233333333","6500200","三重區"
"241022","267-UM","2018/02/01 19:39:28","新北市三重區中正北路166號","121.484353333333","25.0661416666667","6500200","三重區"
"241018","268-UM","2018/02/01 19:39:16","新北市三重區大智街65號","121.492486666667","25.06813","6500200","三重區"
"241032","269-UM","2018/02/01 19:39:24","新北市三重區三陽路133號","121.483138333333","25.0588783333333","6500200","三重區"
"241025","271-UM","2018/02/01 19:39:20","新北市三重區頂崁街191號","121.477523333333","25.0664783333333","6500200","三重區"
"241007","398-BY","2018/02/01 19:39:14","新北市三重區溪尾街126巷72號","121.487991666667","25.07879","6500200","三重區"
"241020","413-TH","2018/02/01 19:39:23","新北市三重區三和路四段20巷97號","121.488313333333","25.0732033333333","6500200","三重區"
"241019","478-VK","2018/02/01 19:39:08","新北市三重區六張街194巷1弄2號","121.488558333333","25.0680316666667","6500200","三重區"
"241030","480-VK","2018/02/01 19:39:20","新北市三重區新興路28巷8號","121.491875","25.0529616666667","6500200","三重區"
"241014","543-UM","2018/02/01 19:39:12","新北市三重區河邊北街82號","121.504298333333","25.0689983333333","6500200","三重區"
"241023","545-UM","2018/02/01 19:39:07","新北市三重區忠孝路三段99巷11號","121.479631666667","25.0643333333333","6500200","三重區"
"241001","547-UM","2018/02/01 19:39:08","新北市三重區仁愛街317號","121.492576666667","25.0793383333333","6500200","三重區"
"241006","AAD-863","2018/02/01 19:39:11","新北市三重區聯華街114號","121.485168333333","25.0750833333333","6500200","三重區"
"241035","743-BX","2018/02/01 19:39:21","新北市三重區長元西街58號","121.497563333333","25.0655866666667","6500200","三重區"
"241012","941-UM","2018/02/01 19:39:21","新北市三重區河邊北街256巷31號","121.500603333333","25.0759516666667","6500200","三重區"
"241029","942-UM","2018/02/01 19:39:23","新北市三重區重安街102號","121.492996666667","25.0559033333333","6500200","三重區"
"235066","003-UY","2018/02/01 19:39:18","新北市中和區中和路196巷11號","121.505118333333","24.9990383333333","6500300","中和區"
"235064","005-UY","2018/02/01 19:39:24","新北市中和區南山路123號","121.50225","24.9971533333333","6500300","中和區"
"235049","031-BX","2018/02/01 19:39:24","新北市中和區安平路14號","121.509246666667","24.9940983333333","6500300","中和區"
"235056","096-UM","2018/02/01 19:39:13","新北市中和區員山路581巷2弄24號","121.477525","25.0099233333333","6500300","中和區"
"235039","097-UM","2018/02/01 19:39:13","新北市中和區秀峰街103巷4弄11號","121.519856666667","24.9901","6500300","中和區"
"235065","098-UM","2018/02/01 19:39:23","新北市中和區永和路9巷1號","121.499193333333","25.0039833333333","6500300","中和區"
"235040","150-BY","2018/02/01 19:39:16","新北市中和區宜安路100號","121.510565","24.9978466666667","6500300","中和區"
"235058","151-BY","2018/02/01 19:39:25","新北市中和區連城路525-1號","121.481516666667","24.9951016666667","6500300","中和區"
"235055","183-VK","2018/02/01 19:39:11","新北市中和區中山路三段209號","121.471888333333","25.0063833333333","6500300","中和區"
"235038","185-VK","2018/02/01 19:39:22","新北市中和區自立路29巷14弄18號","121.522975","24.99538","6500300","中和區"
"235067","255-BX","2018/02/01 19:39:13","新北市中和區民樂路81號","121.484626666667","25.001355","6500300","中和區"
"235044","293-VK","2018/02/01 19:39:18","新北市中和區捷運路65號","121.50888","24.9899083333333","6500300","中和區"
"235072","301-VK","2018/02/01 19:39:07","新北市中和區中正路432巷34號","121.49085","24.995835","6500300","中和區"
"235043","352-BY","2018/02/01 19:39:27","新北市中和區興南路一段61-1號","121.510445","24.9896066666667","6500300","中和區"
"235068","377-QA","2018/02/01 19:39:22","新北市中和區景平路493巷8號","121.499316666667","24.99714","6500300","中和區"
"235061","378-QA","2018/02/01 19:39:13","新北市中和區民安街2巷23號","121.480231666667","25.0015216666667","6500300","中和區"
"235071","269-TV","2018/02/01 19:39:22","新北市中和區中正路839巷29號","121.483586666667","25.0023133333333","6500300","中和區"
"235050","4979-A6","2018/02/01 19:39:21","新北市中和區員山路36巷16-3號","121.484776666667","24.9908866666667","6500300","中和區"
"235042","551-UM","2018/02/01 19:39:22","新北市中和區中和路262巷35號","121.509766666667","24.9994466666667","6500300","中和區"
"235070","558-UM","2018/02/01 19:39:17","新北市中和區員山路36巷16-2號","121.485446666667","24.9910166666667","6500300","中和區"
"235045","565-BX","2018/02/01 19:39:25","新北市中和區景新街498號","121.513711666667","24.98698","6500300","中和區"
"235054","640-BX","2018/02/01 19:39:16","新北市中和區國光街102巷11弄1號","121.470615","25.0006483333333","6500300","中和區"
"235060","647-TV","2018/02/01 19:39:12","新北市中和區新生街114巷24號","121.482448333333","25.00245","6500300","中和區"
"235047","732-UM","2018/02/01 19:39:23","新北市中和區南山路263巷10號","121.50443","24.9926816666667","6500300","中和區"
"235046","733-UM","2018/02/01 19:39:18","新北市中和區忠孝街128號","121.51202","24.9864783333333","6500300","中和區"
"235041","802-TS","2018/02/01 19:39:15","新北市中和區永貞路251號","121.512828333333","25.004025","6500300","中和區"
"235052","805-TS","2018/02/01 19:39:12","新北市中和區華新街206巷16號","121.50629","24.9825633333333","6500300","中和區"
"235048","896-TW","2018/02/01 19:39:10","新北市中和區忠孝街1巷2-1號","121.509158333333","24.9830316666667","6500300","中和區"
"235053","900-TW","2018/02/01 19:39:18","新北市中和區國光街184-1號","121.466773333333","25.002045","6500300","中和區"
"235063","911-UM","2018/02/01 19:39:10","新北市中和區連勝街119號","121.495001666667","24.9954766666667","6500300","中和區"
"235051","157-BY","2018/02/01 19:39:04","新北市中和區南華路2號","121.502151666667","24.9954133333333","6500300","中和區"
"235037","AAC-213","2018/02/01 19:39:22","新北市中和區秀朗路三段10巷29弄11號","121.525071666667","24.9959733333333","6500300","中和區"
"235059","AAC-215","2018/02/01 19:39:22","新北市中和區錦和路203巷1號","121.49108","24.9903866666667","6500300","中和區"
"220068","013-TV","2018/02/01 19:39:22","新北市板橋區中山路二段593號","121.48482","25.02221","6500100","板橋區"
"220065","072-UY","2018/02/01 19:39:25","新北市板橋區國泰街38巷2弄9號","121.468293333333","25.006675","6500100","板橋區"
"220086","073-UY","2018/02/01 19:39:23","新北市板橋區中正路216巷55號","121.457476666667","25.0190266666667","6500100","板橋區"
"220106","075-UY","2018/02/01 19:39:14","新北市板橋區文化路二段344號","121.472905","25.030505","6500100","板橋區"
"220069","AAD-861","2018/02/01 19:39:21","新北市板橋區縣民大道一段64巷22號","121.455526666667","25.0036716666667","6500100","板橋區"
"220098","120-SR","2018/02/01 19:39:17","新北市板橋區四維路269巷27號","121.462143333333","25.0278083333333","6500100","板橋區"
"247008","341-TH","2018/02/01 19:39:10","新北市蘆洲區三民路2號","121.476081666667","25.08174","6501400","蘆洲區"
"247004","336-TH","2018/02/01 19:39:25","新北市蘆洲區長安街98巷22號","121.46311","25.0818166666667","6501400","蘆洲區"
"226004","205-ST","2018/02/01 19:39:20","新北市平溪區靜安路三段386號","121.781061666667","25.0477283333333","6502400","平溪區"
"235057","251-BX","2018/02/01 19:39:25","新北市中和區員山路262號","121.48139","25.00173","6500300","中和區"
"228003","097-TW","2018/02/01 19:39:05","新北市貢寮區真理里美艷山街15-3號","121.92372","25.0680266666667","6502600","貢寮區"
"228001","212-TW","2018/02/01 19:39:22","新北市貢寮區真理里延平街49號","121.924576666667","25.0556383333333","6502600","貢寮區"
"224010","AGQ-8101","2018/02/01 19:39:24","新北市瑞芳區基山街243號","121.841518333333","25.1069983333333","6501200","瑞芳區"
"224002","639-TC","2018/02/01 19:39:12","新北市瑞芳區三爪子坑路13巷207號","121.815713333333","25.1061433333333","6501200","瑞芳區"
"227004","642-TC","2018/02/01 19:39:05","新北市雙溪區雙溪里太平路61號","121.864926666667","25.0358033333333","6502500","雙溪區"
"227010","400-TW","2018/02/01 19:39:19","新北市雙溪區新基里新基北街22號","121.867188333333","25.03892","6502500","雙溪區"
"222001","KEA-2212","2018/02/01 19:39:22","新北市深坑區北深路二段204號","121.612951666667","25.0015433333333","6501800","深坑區"
"208002","742-BX","2018/02/01 19:39:21","新北市金山區中山路313巷13號","121.635303333333","25.2232316666667","6502700","金山區"
"208003","665-BX","2018/02/01 19:39:08","新北市金山區仁愛路1巷1號","121.638586666667","25.2200016666667","6502700","金山區"
"208001","761-BX","2018/02/01 19:39:27","新北市金山區六股里下六股65號","121.614481666667","25.22343","6502700","金山區"
"251009","008-UM","2018/02/01 19:39:10","新北市淡水區中山北路一段198巷9號","121.445241666667","25.1793283333333","6501000","淡水區"
"251004","009-UM","2018/02/01 19:39:14","新北市淡水區中正東路二段88巷41號","121.459575","25.1427933333333","6501000","淡水區"
"251005","010-UM","2018/02/01 19:39:05","新北市淡水區原德路126號","121.444005","25.1745716666667","6501000","淡水區"
"251001","011-UM","2018/02/01 19:39:14","新北市淡水區民權路51號","121.459683333333","25.139055","6501000","淡水區"
"251013","179-VK","2018/02/01 19:39:07","新北市淡水區店子後9號","121.459901666667","25.218845","6501000","淡水區"
"251014","180-VK","2018/02/01 19:39:24","新北市淡水區桂竹圍4-2號","121.474383333333","25.2316833333333","6501000","淡水區"
"251008","181-VK","2018/02/01 19:39:11","新北市淡水區中正路32巷1號","121.43107","25.1755333333333","6501000","淡水區"
"251015","182-VK","2018/02/01 19:39:10","新北市淡水區大埤頭1號","121.492781666667","25.1945866666667","6501000","淡水區"
"251010","413-VK","2018/02/01 19:39:08","新北市淡水區崁頂三路135號","121.43144","25.2009733333333","6501000","淡水區"
"251012","441-VK","2018/02/01 19:39:18","新北市淡水區中山北路三段164號","121.445716666667","25.196565","6501000","淡水區"
"251016","442-VK","2018/02/01 19:39:08","新北市淡水區下圭柔山119-51號","121.450763333333","25.20841","6501000","淡水區"
"251006","561-UM","2018/02/01 19:39:17","新北市淡水區中山北路一段207巷72號","121.441515","25.1792966666667","6501000","淡水區"
"251007","577-R6","2018/02/01 19:39:19","新北市淡水區中正東路一段111巷19號","121.45511","25.1612166666667","6501000","淡水區"
"251011","650-BX","2018/02/01 19:39:11","新北市淡水區八勢一街22號","121.460751666667","25.1560316666667","6501000","淡水區"
"251003","766-UM","2018/02/01 19:39:07","新北市淡水區中山北路三段53號","121.444378333333","25.1914683333333","6501000","淡水區"
"207003","550-UM","2018/02/01 19:39:14","新北市萬里區大鵬里萬里加投301-6號","121.647116666667","25.2199016666667","6502800","萬里區"
"207004","225-TW","2018/02/01 19:39:20","新北市萬里區萬里里瑪鋉路21號","121.687331666667","25.17532","6502800","萬里區"
"252001","292-VK","2018/02/01 19:39:12","新北市三芝區公正街9號","121.499691666667","25.2575416666667","6502100","三芝區"
"252002","AAC-283","2018/02/01 19:39:23","新北市三芝區中正路一段18巷34-1號","121.50383","25.25924","6502100","三芝區"
"237004","078-UY","2018/02/01 19:39:23","新北市三峽區金敏189號","121.394958333333","24.8740166666667","6500900","三峽區"
"237007","153-BY","2018/02/01 19:39:12","新北市三峽區二鬮路136巷119號","121.355955","24.9103983333333","6500900","三峽區"
"237009","210-TH","2018/02/01 19:39:21","新北市三峽區民權街134號","121.368666666667","24.931845","6500900","三峽區"
"237013","252-BX","2018/02/01 19:39:22","新北市三峽區介壽路二段6巷2-1號","121.389493333333","24.9345783333333","6500900","三峽區"
"237012","275-BY","2018/02/01 19:39:19","新北市三峽區民生街3號","121.374536666667","24.9354416666667","6500900","三峽區"
"237008","302-VK","2018/02/01 19:39:11","新北市三峽區永安街95巷8號","121.374723333333","24.9286216666667","6500900","三峽區"
"237014","433-BY","2018/02/01 19:39:27","新北市三峽區嘉添1-3號","121.367841666667","24.9117833333333","6500900","三峽區"
"237006","5529-G3","2018/02/01 19:39:25","新北市三峽區中正路一段336巷15弄2號","121.369948333333","24.92497","6500900","三峽區"
"237010","706-TV","2018/02/01 19:39:22","新北市三峽區復興路40號","121.373708333333","24.936825","6500900","三峽區"
"237005","AKY-6261","2018/02/01 19:39:12","新北市三峽區中山路231巷1弄6號","121.36311","24.9366533333333","6500900","三峽區"
"236071","105-UM","2018/02/01 19:39:24","新北市土城區裕民路223號","121.454041666667","24.98356","6501300","土城區"
"236042","107-UM","2018/02/01 19:39:25","新北市土城區學士路14號","121.453525","24.98288","6501300","土城區"
"236078","166-UM","2018/02/01 19:39:24","新北市土城區中州路9號","121.41423","24.95769","6501300","土城區"
"236030","253-BX","2018/02/01 19:39:15","新北市土城區福祥街63號","121.441001666667","24.98042","6501300","土城區"
"236026","269-VK","2018/02/01 19:39:13","新北市土城區中央路二段61巷22號","121.44323","24.9788233333333","6501300","土城區"
"236037","271-VK","2018/02/01 19:39:21","新北市土城區青雲路230號","121.458833333333","24.9808383333333","6501300","土城區"
"236021","401-BY","2018/02/01 19:39:19","新北市土城區峰廷街3號","121.469078333333","24.9873","6501300","土城區"
"236051","913-UM","2018/02/01 19:39:24","新北市土城區永豐路6號","121.465431666667","24.9848083333333","6501300","土城區"
"236062","915-UM","2018/02/01 19:39:18","新北市土城區延平街50號","121.468053333333","24.992245","6501300","土城區"
"236053","AAC-216","2018/02/01 19:39:20","新北市土城區學府路一段146號","121.454918333333","24.9870716666667","6501300","土城區"
"242031","AAC-296","2018/02/01 19:39:10","新北市新莊區新泰路225巷22弄19號","121.444156666667","25.0391666666667","6500500","新莊區"
"242027","612-BX","2018/02/01 19:39:06","新北市新莊區新泰路357巷3弄57號","121.441886666667","25.039155","6500500","新莊區"
"242044","442-UM","2018/02/01 19:39:22","新北市新莊區新北大道七段387號","121.412713333333","25.0261916666667","6500500","新莊區"
"242004","413-TV","2018/02/01 19:39:17","新北市新莊區化成路29巷70號","121.462545","25.0441","6500500","新莊區"
"242061","362-BY","2018/02/01 19:39:25","新北市新莊區三和路12-21號","121.442175","25.0387266666667","6500500","新莊區"
"242036","133-UY","2018/02/01 19:39:12","新北市新莊區民安路207巷8號","121.426598333333","25.022685","6500500","新莊區"
"242009","173-VK","2018/02/01 19:39:00","新北市新莊區三和路12-21號","121.44207","25.038645","6500500","新莊區"
"242013","346-TH","2018/02/01 19:39:16","新北市新莊區中誠街129號","121.4492","25.0475283333333","6500500","新莊區"
"242019","348-TH","2018/02/01 19:38:53","新北市新莊區新泰路255巷83號","121.44209","25.0390516666667","6500500","新莊區"
"242011","351-TH","2018/02/01 19:39:22","新北市新莊區榮華路二段99號","121.447275","25.0556183333333","6500500","新莊區"
"238015","755-BX","2018/02/01 19:39:22","新北市樹林區日新街95號","121.42156","24.9900916666667","6500700","樹林區"
"238023","601-UM","2018/02/01 19:39:08","新北市樹林區三福街46號","121.40756","25.01639","6500700","樹林區"
"238019","599-UM","2018/02/01 19:39:08","新北市樹林區東榮街91巷1弄7號","121.416376666667","24.9826766666667","6500700","樹林區"
"238018","571-TV","2018/02/01 19:39:11","新北市樹林區中山路三段214號","121.380008333333","24.9679333333333","6500700","樹林區"
"238021","KEA-2217","2018/02/01 19:39:25","新北市樹林區學府路210號","121.377656666667","24.9500783333333","6500700","樹林區"
"238022","KEA-2213","2018/02/01 19:39:12","新北市樹林區名園街74號","121.41996","24.9779333333333","6500700","樹林區"
"238025","303-VK","2018/02/01 19:39:20","新北市樹林區後站街3巷6號","121.423591666667","24.9909633333333","6500700","樹林區"
"238017","283-BY","2018/02/01 19:39:26","新北市樹林區光興街24號","121.412298333333","25.0030616666667","6500700","樹林區"
"238014","282-BY","2018/02/01 19:39:13","新北市樹林區千歲街30巷26弄1號","121.42646","24.9960866666667","6500700","樹林區"
"238020","268-VK","2018/02/01 19:39:25","新北市樹林區俊英街31-3號","121.428283333333","25.003535","6500700","樹林區"
"238026","172-UY","2018/02/01 19:39:25","新北市樹林區佳園路三段51號","121.387753333333","24.9534683333333","6500700","樹林區"
"239007","AAC-297","2018/02/01 19:39:07","新北市鶯歌區大湖路余厝巷1-5號","121.342521666667","24.96131","6500800","鶯歌區"
"239006","891-R6","2018/02/01 19:39:25","新北市鶯歌區永昌街15號","121.342988333333","24.9497866666667","6500800","鶯歌區"
"239005","526-UM","2018/02/01 19:39:11","新北市鶯歌區中湖街303巷1號","121.347768333333","24.9774816666667","6500800","鶯歌區"
"239003","360-BY","2018/02/01 19:34:52","新北市鶯歌區國華路56號","121.342266666667","24.9549516666667","6500800","鶯歌區"
"239004","193-VK","2018/02/01 19:39:07","新北市鶯歌區二甲路26-2號","121.338958333333","24.9359516666667","6500800","鶯歌區"
"221036","130-UY","2018/02/01 19:39:17","新北市汐止區汐萬路一段256巷1號","121.65177","25.0749166666667","6501100","汐止區"
"221010","269-BY","2018/02/01 19:39:13","新北市汐止區汐萬路二段1號","121.649231666667","25.0796533333333","6501100","汐止區"
"221012","278-VK","2018/02/01 19:39:17","新北市汐止區汐平路一段5號","121.68076","25.0711566666667","6501100","汐止區"
"221023","279-VK","2018/02/01 19:39:22","新北市汐止區中興路272號","121.628805","25.0689916666667","6501100","汐止區"
"221032","280-BY","2018/02/01 19:39:17","新北市汐止區大同路二段132號","121.651623333333","25.0638016666667","6501100","汐止區"
"221027","281-BY","2018/02/01 19:39:17","新北市汐止區忠孝東路9號","121.658303333333","25.0659583333333","6501100","汐止區"
"221002","297-VK","2018/02/01 19:39:23","新北市汐止區大同路一段219巷26號","121.633233333333","25.058465","6501100","汐止區"
"221029","298-VK","2018/02/01 19:39:09","新北市汐止區康寧街901號","121.651483333333","25.074945","6501100","汐止區"
"221021","299-VK","2018/02/01 19:39:11","新北市汐止區大同路二段175號","121.651608333333","25.0642766666667","6501100","汐止區"
"221031","353-TW","2018/02/01 19:39:18","新北市汐止區康寧街901號","121.650888333333","25.0752266666667","6501100","汐止區"
"221015","567-BX","2018/02/01 19:39:05","新北市汐止區康寧街901號","121.65162","25.0749016666667","6501100","汐止區"
"221025","623-UM","2018/02/01 19:39:18","新北市汐止區福安街20巷7號","121.662443333333","25.0648966666667","6501100","汐止區"
"221038","646-BX","2018/02/01 19:39:13","新北市汐止區忠孝東路225號","121.662283333333","25.0668666666667","6501100","汐止區"
"221033","647-BX","2018/02/01 19:39:14","台北市南港區舊莊街二段10巷1號","121.626441666667","25.0376","6501100","汐止區"
"221018","753-BX","2018/02/01 19:39:21","新北市汐止區汐萬路一段312號","121.650551666667","25.0753766666667","6501100","汐止區"
"220079","145-BY","2018/02/01 19:39:20","新北市板橋區復興街60號","121.458891666667","25.0175233333333","6500100","板橋區"
"220080","200-UY","2018/02/01 19:39:12","新北市板橋區大觀路二段37巷224號","121.449901666667","25.0008983333333","6500100","板橋區"
"220082","610-BX","2018/02/01 19:39:21","新北市板橋區大觀路三段263號","121.429163333333","24.9923016666667","6500100","板橋區"
"220103","257-TC","2018/02/01 19:39:22","新北市板橋區民生路二段233號","121.468256666667","25.0213666666667","6500100","板橋區"
"220056","276-BY","2018/02/01 19:39:23","新北市板橋區四川路二段47巷4弄2號","121.454171666667","24.9947083333333","6500100","板橋區"
"220072","277-BY","2018/02/01 19:39:14","新北市板橋區金門街253巷17弄9號","121.433495","24.98907","6500100","板橋區"
"220101","280-UM","2018/02/01 19:39:25","新北市板橋區縣民大道三段37號","121.47398","25.0209216666667","6500100","板橋區"
"220071","283-VK","2018/02/01 19:39:13","新北市板橋區四川路一段283巷23號","121.459491666667","25.0005466666667","6500100","板橋區"
"220094","285-UM","2018/02/01 19:39:24","新北市板橋區銘傳街110號","121.470088333333","25.03184","6500100","板橋區"
"220053","285-VK","2018/02/01 19:39:17","新北市板橋區中山路二段253號","121.477373333333","25.0174416666667","6500100","板橋區"
"220083","286-VK","2018/02/01 19:39:26","新北市板橋區龍興街71巷24號","121.442748333333","25.00233","6500100","板橋區"
"220081","287-VK","2018/02/01 19:39:27","新北市板橋區大觀路一段75巷29號","121.448543333333","25.00427","6500100","板橋區"
"220090","288-VK","2018/02/01 19:39:22","新北市板橋區長江路一段48巷12號","121.45949","25.0279683333333","6500100","板橋區"
"220061","293-UM","2018/02/01 19:39:21","新北市板橋區中山路一段265巷16號","121.468623333333","25.01464","6500100","板橋區"
"220062","295-UM","2018/02/01 19:39:24","新北市板橋區三民路二段81巷5號","121.479771666667","25.0169233333333","6500100","板橋區"
"220084","296-UM","2018/02/01 19:39:25","新北市板橋區滿平二街47號","121.42495","24.988095","6500100","板橋區"
"220092","299-UM","2018/02/01 19:39:07","新北市板橋區光武街4巷4號","121.468385","25.02561","6500100","板橋區"
"242048","281-VK","2018/02/01 19:39:17","新北市新莊區後港一路3號","121.424151666667","25.0262283333333","6500500","新莊區"
"220075","303-R5","2018/02/01 19:39:20","新北市板橋區中正路253巷72號","121.452666666667","25.0172633333333","6500100","板橋區"
"220064","486-VK","2018/02/01 19:39:23","新北市板橋區重慶路11號","121.460775","25.0080483333333","6500100","板橋區"
"220089","487-VK","2018/02/01 19:39:18","新北市板橋區雨農路30號","121.461443333333","25.0243816666667","6500100","板橋區"
"220088","491-VK","2018/02/01 19:39:24","新北市板橋區文化路二段520號","121.475866666667","25.0337716666667","6500100","板橋區"
"220035","560-BX","2018/02/01 19:39:26","新北市板橋區金華街85巷14號","121.458585","25.0213483333333","6500100","板橋區"
"220055","568-UM","2018/02/01 19:39:17","新北市板橋區國慶路149巷13弄2號","121.460908333333","24.997145","6500100","板橋區"
"220091","637-BX","2018/02/01 19:39:12","新北市板橋區懷德街139巷1號","121.479388333333","25.0305516666667","6500100","板橋區"
"220057","686-BX","2018/02/01 19:39:18","新北市板橋區和平路15-1號","121.459553333333","24.9946166666667","6500100","板橋區"
"220077","687-BX","2018/02/01 19:39:23","新北市板橋區僑中二街52號","121.446653333333","25.0100133333333","6500100","板橋區"
"220093","689-BX","2018/02/01 19:39:20","新北市板橋區新海路454號","121.45778","25.028065","6500100","板橋區"
"220054","741-BX","2018/02/01 19:39:21","新北市板橋區忠孝路192號","121.465083333333","25.0026316666667","6500100","板橋區"
"220067","829-TW","2018/02/01 19:39:25","新北市板橋區長安街138巷26號","121.472978333333","25.0089016666667","6500100","板橋區"
"220096","830-TW","2018/02/01 19:39:22","新北市板橋區民生路二段234巷24弄6號","121.47017","25.0223466666667","6500100","板橋區"
"220063","833-TW","2018/02/01 19:39:12","新北市板橋區中山路二段553巷4弄16號","121.48383","25.0227433333333","6500100","板橋區"
"220074","895-R6","2018/02/01 19:39:23","新北市板橋區府中路32號","121.458163333333","25.0097666666667","6500100","板橋區"
"220073","985-R7","2018/02/01 19:39:25","新北市板橋區中正路302號","121.454906666667","25.020745","6500100","板橋區"
"220097","AAC-210","2018/02/01 19:39:17","新北市板橋區幸福路32巷4弄16號","121.461416666667","25.021535","6500100","板橋區"
"220070","AAC-253","2018/02/01 19:39:25","新北市板橋區民族路288號","121.470251666667","25.00682","6500100","板橋區"
