"lineid","car","time","location","longitude","latitude","cityid","cityname"
"234046","148-BY","2018/02/01 19:59:07","新北市永和區成功路一段77號","121.526903333333","25.0032383333333","6500400","永和區"
"234067","149-BY","2018/02/01 19:59:04","新北市永和區中山路一段281巷2弄2號","121.50712","25.0067883333333","6500400","永和區"
"234007","207-UY","2018/02/01 19:59:20","新北市永和區保生路22巷17號","121.507121666667","25.0081316666667","6500400","永和區"
"234081","298-R6","2018/02/01 19:59:04","新北市永和區永亨路106號","121.523541666667","25.00459","6500400","永和區"
"234038","336-UY","2018/02/01 19:59:16","新北市永和區成功路二段177-1號","121.526618333333","24.9967483333333","6500400","永和區"
"234064","337-UY","2018/02/01 19:59:21","新北市永和區中正路368巷1弄49號","121.519263333333","25.0011233333333","6500400","永和區"
"234086","338-UY","2018/02/01 19:59:25","新北市永和區福和路152號","121.52175","25.0078366666667","6500400","永和區"
"234070","552-UM","2018/02/01 19:59:07","新北市永和區國光路14號","121.519058333333","25.0084183333333","6500400","永和區"
"234017","745-BX","2018/02/01 19:59:13","新北市永和區文化路75號","121.513808333333","25.0151633333333","6500400","永和區"
"234030","746-BX","2018/02/01 19:59:10","新北市永和區民生路22巷19號","121.521566666667","24.9969533333333","6500400","永和區"
"234054","KEA-2590","2018/02/01 19:59:20","新北市永和區竹林路39巷46號","121.520266666667","25.0152066666667","6500400","永和區"
"234013","KEA-2591","2018/02/01 19:59:21","新北市永和區仁愛路295號","121.505168333333","25.00925","6500400","永和區"
"234061","AAD-866","2018/02/01 19:59:16","新北市永和區中正路283巷17號","121.516803333333","25.000335","6500400","永和區"
"234042","862-TW","2018/02/01 19:59:18","新北市永和區中和路305巷2弄29號","121.507446666667","25.0000683333333","6500400","永和區"
"234050","863-TW","2018/02/01 19:59:10","新北市永和區保安路101號","121.508146666667","25.0142666666667","6500400","永和區"
"234026","9371-KE","2018/02/01 19:59:04","新北市永和區水源街27巷11號","121.511421666667","25.0039316666667","6500400","永和區"
"234011","9373-KE","2018/02/01 19:59:21","新北市永和區仁愛路352巷112弄6號","121.500891666667","25.008415","6500400","永和區"
"249005","172-UM","2018/02/01 19:59:17","新北市八里區楓林路4號","121.381988333333","25.13015","6502300","八里區"
"249001","173-UM","2018/02/01 19:59:16","新北市八里區中華路二段249-1號","121.40388","25.14824","6502300","八里區"
"249004","303-UY","2018/02/01 19:59:21","新北市八里區中華路一段333-1號","121.413151666667","25.1540233333333","6502300","八里區"
"249002","305-UY","2018/02/01 19:59:19","新北市八里區頂寮一街43號","121.450468333333","25.123975","6502300","八里區"
"249003","593-UM","2018/02/01 19:59:20","新北市八里區中華路二段560巷3號","121.398548333333","25.14517","6502300","八里區"
"248014","025-BX","2018/02/01 19:59:15","新北市五股區五福路14巷8號","121.434798333333","25.0887433333333","6501500","五股區"
"248016","026-BX","2018/02/01 19:59:14","新北市五股區成泰路三段577巷80弄7號","121.449513333333","25.104285","6501500","五股區"
"248008","095-VK","2018/02/01 19:59:15","新北市五股區四維路30巷17號","121.46791","25.071525","6501500","五股區"
"248012","247-BX","2018/02/01 19:59:20","新北市五股區民義路一段65號","121.43584","25.0850066666667","6501500","五股區"
"248010","272-BY","2018/02/01 19:59:15","新北市五股區登林路貿商巷1弄8號","121.429133333333","25.0700183333333","6501500","五股區"
"248004","677-BX","2018/02/01 19:59:18","新北市五股區成泰路一段10號","121.434555","25.0673233333333","6501500","五股區"
"248002","678-BX","2018/02/01 19:59:19","新北市五股區成泰路三段472號","121.451758333333","25.10122","6501500","五股區"
"234077","969-R7","2018/02/01 19:59:05","新北市永和區民有街26號","121.516758333333","24.9963916666667","6500400","永和區"
"234074","AAC-211","2018/02/01 19:59:11","新北市永和區豫溪街162巷2號","121.523693333333","25.0096033333333","6500400","永和區"
"234003","AAC-295","2018/02/01 19:59:18","新北市永和區中正路605號","121.51642","25.0097216666667","6500400","永和區"
"243012","AAD-798","2018/02/01 19:59:14","新北市泰山區全興路87號","121.433303333333","25.057625","6501600","泰山區"
"243011","297-R6","2018/02/01 19:59:13","新北市泰山區明志路三段196巷37號","121.42191","25.0397433333333","6501600","泰山區"
"243015","380-SR","2018/02/01 19:59:15","新北市泰山區明志路二段214巷11號","121.426681666667","25.04875","6501600","泰山區"
"243014","421-VK","2018/02/01 19:59:09","新北市泰山區泰林路二段118號","121.434571666667","25.0592633333333","6501600","泰山區"
"243010","KEA-2215","2018/02/01 19:59:22","新北市泰山區中華街10巷2號","121.42816","25.052385","6501600","泰山區"
"243009","KEA-2216","2018/02/01 19:59:19","新北市泰山區泰林路二段164巷32號","121.434411666667","25.0611666666667","6501600","泰山區"
"243013","646-TV","2018/02/01 19:59:11","新北市泰山區明志路三段6巷16號","121.423878333333","25.04368","6501600","泰山區"
"243016","680-BX","2018/02/01 19:57:33","新北市泰山區貴鳳街3號","121.421733333333","25.0315916666667","6501600","泰山區"
"222003","436-BY","2018/02/01 19:59:25","新北市深坑區埔新街14號","121.620726666667","25.0039733333333","6501800","深坑區"
"222002","659-BX","2018/02/01 19:59:14","新北市深坑區北深路二段81巷8弄1號","121.618361666667","25.0030383333333","6501800","深坑區"
"231041","002-UM","2018/02/01 19:59:19","新北市新店區中正路352號","121.535908333333","24.97552","6500600","新店區"
"231059","046-UY","2018/02/01 19:59:05","新北市新店區安康路二段147號","121.511306666667","24.9599433333333","6500600","新店區"
"231061","047-UY","2018/02/01 19:59:16","新北市新店區安興路94號","121.515123333333","24.97628","6500600","新店區"
"231060","106-UY","2018/02/01 19:59:24","新北市新店區安康路二段408號","121.496706666667","24.95523","6500600","新店區"
"231051","107-UY","2018/02/01 19:59:06","新北市新店區中央二街17號","121.528798333333","24.9733983333333","6500600","新店區"
"231047","108-UY","2018/02/01 19:59:15","新北市新店區寶橋路138號","121.547765","24.9762183333333","6500600","新店區"
"231049","110-UY","2018/02/01 19:59:18","新北市新店區明德路42號","121.54141","24.9780966666667","6500600","新店區"
"231052","187-VK","2018/02/01 19:59:09","新北市新店區新烏路三段寶島巷4號","121.551501666667","24.8994716666667","6500600","新店區"
"231064","188-VK","2018/02/01 19:59:21","新北市新店區碧安街15巷4號","121.517311666667","24.9691116666667","6500600","新店區"
"231050","KEA-2219","2018/02/01 19:59:04","新北市新店區北新路一段14號","121.540783333333","24.96559","6500600","新店區"
"231057","256-BX","2018/02/01 19:59:18","新北市新店區花園二路一段11號","121.555531666667","24.9324666666667","6500600","新店區"
"231054","AAD-862","2018/02/01 19:59:23","新北市新店區光明街134號","121.539391666667","24.9611816666667","6500600","新店區"
"231056","3713-VJ","2018/02/01 19:59:20","新北市新店區民權路42巷22號","121.539763333333","24.9837216666667","6500600","新店區"
"231055","4716-K9","2018/02/01 19:59:13","新北市新店區力行路54號","121.53871","24.9655916666667","6500600","新店區"
"231067","4772-VM","2018/02/01 19:59:10","新北市新店區秀山路11巷10號","121.531786666667","24.9594083333333","6500600","新店區"
"231065","512-UM","2018/02/01 19:59:12","新北市新店區安祥路109巷61號","121.477186666667","24.9599483333333","6500600","新店區"
"231042","616-UM","2018/02/01 19:59:18","新北市新店區中興路二段89號","121.546981666667","24.9714366666667","6500600","新店區"
"231040","619-UM","2018/02/01 19:59:22","新北市新店區中正路56號","121.54447","24.9700833333333","6500600","新店區"
"231063","645-TV","2018/02/01 19:59:18","新北市新店區黎明路11號","121.50206","24.9500283333333","6500600","新店區"
"231068","718-UY","2018/02/01 19:59:16","新北市新店區安華路28-1號","121.519241666667","24.9611716666667","6500600","新店區"
"231062","720-UM","2018/02/01 19:59:18","新北市新店區華城路10巷1-3號","121.528818333333","24.9578016666667","6500600","新店區"
"231044","897-TW","2018/02/01 19:59:09","新北市新店區復興路44-1號","121.538608333333","24.98669","6500600","新店區"
"231045","898-TW","2018/02/01 19:59:04","新北市新店區北宜路二段108-2號","121.5559","24.9536516666667","6500600","新店區"
"231043","899-TW","2018/02/01 19:59:05","新北市新店區中正路282-1號","121.538333333333","24.9740566666667","6500600","新店區"
"231066","AKT-0513","2018/02/01 19:59:12","新北市新店區柴埕路60巷2-1號","121.509473333333","24.9645383333333","6500600","新店區"
"241011","013-R5","2018/02/01 19:59:08","新北市三重區介壽路113號","121.499921666667","25.0705","6500200","三重區"
"241028","022-UY","2018/02/01 19:59:20","新北市三重區中正南路42號","121.493826666667","25.0600416666667","6500200","三重區"
"241008","059-VK","2018/02/01 19:59:22","新北市三重區永福街179巷3號","121.478661666667","25.07506","6500200","三重區"
"241009","060-VK","2018/02/01 19:59:12","新北市三重區三和路四段390巷29號","121.480591666667","25.0787716666667","6500200","三重區"
"241031","061-VK","2018/02/01 19:59:20","新北市三重區重新路四段144巷34號","121.48722","25.0550433333333","6500200","三重區"
"241015","062-VK","2018/02/01 19:59:11","新北市三重區三和路二段27號","121.501048333333","25.0670083333333","6500200","三重區"
"241017","063-VK","2018/02/01 19:59:18","新北市三重區自強路一段219號","121.491251666667","25.0685833333333","6500200","三重區"
"241024","065-VK","2018/02/01 19:59:23","新北市三重區力行路一段186號","121.481948333333","25.071755","6500200","三重區"
"241026","066-VK","2018/02/01 19:59:19","新北市三重區中央南路5號","121.501266666667","25.0629033333333","6500200","三重區"
"241005","262-UM","2018/02/01 19:59:08","新北市三重區溪尾街325巷1號","121.488243333333","25.08439","6500200","三重區"
"241016","266-UM","2018/02/01 19:59:07","新北市三重區正義北路36巷23號","121.496513333333","25.063395","6500200","三重區"
"241022","267-UM","2018/02/01 19:59:14","新北市三重區新北大道一段7號","121.489846666667","25.06151","6500200","三重區"
"241018","268-UM","2018/02/01 19:59:16","新北市三重區自強路一段169號","121.493195","25.06749","6500200","三重區"
"241032","269-UM","2018/02/01 19:59:03","新北市三重區重陽路一段44巷91號","121.483776666667","25.0577283333333","6500200","三重區"
"241025","271-UM","2018/02/01 19:59:20","新北市三重區頂崁街210巷9號","121.476565","25.067745","6500200","三重區"
"241007","398-BY","2018/02/01 19:59:14","新北市三重區三和路四段163巷79號","121.486068333333","25.0791933333333","6500200","三重區"
"241020","413-TH","2018/02/01 19:59:23","新北市三重區忠孝路一段101號","121.489436666667","25.0721366666667","6500200","三重區"
"241004","475-VK","2018/02/01 19:59:10","新北市三重區五華街86號","121.493125","25.0822466666667","6500200","三重區"
"241019","478-VK","2018/02/01 19:59:07","新北市三重區重陽路四段40號","121.491495","25.0698916666667","6500200","三重區"
"241030","480-VK","2018/02/01 19:59:20","新北市三重區重新路四段254號","121.485633333333","25.0531033333333","6500200","三重區"
"241014","543-UM","2018/02/01 19:59:12","新北市三重區三和路二段156號","121.499438333333","25.0684666666667","6500200","三重區"
"241023","545-UM","2018/02/01 19:59:07","新北市三重區大有街1-1號","121.477596666667","25.0656666666667","6500200","三重區"
"241001","547-UM","2018/02/01 19:59:08","新北市三重區仁愛街283巷43號","121.494606666667","25.0799666666667","6500200","三重區"
"241006","AAD-863","2018/02/01 19:59:11","新北市三重區力行路二段37號","121.481925","25.0736733333333","6500200","三重區"
"241035","743-BX","2018/02/01 19:59:20","新北市三重區大榮街11號","121.498211666667","25.0633733333333","6500200","三重區"
"241003","887-TS","2018/02/01 19:59:07","新北市三重區仁愛街445巷43號","121.491075","25.0830166666667","6500200","三重區"
"241012","941-UM","2018/02/01 19:59:21","新北市三重區仁厚街72號","121.500645","25.0767216666667","6500200","三重區"
"241029","942-UM","2018/02/01 19:59:23","新北市三重區重安街1號","121.490046666667","25.0582983333333","6500200","三重區"
"235066","003-UY","2018/02/01 19:59:18","新北市中和區光華街10號","121.504273333333","25.0043216666667","6500300","中和區"
"235049","031-BX","2018/02/01 19:59:24","新北市中和區景平路385巷60號","121.501031666667","24.9943766666667","6500300","中和區"
"235056","096-UM","2018/02/01 19:59:13","新北市中和區中山路三段170巷8弄11號","121.472865","25.00762","6500300","中和區"
"235039","097-UM","2018/02/01 19:59:13","新北市中和區大勇街27巷22號","121.516341666667","24.9938666666667","6500300","中和區"
"235065","098-UM","2018/02/01 19:59:23","新北市中和區永和路39巷4號","121.497818333333","25.0049533333333","6500300","中和區"
"235040","150-BY","2018/02/01 19:59:16","新北市中和區保健路21-1號","121.508168333333","24.99815","6500300","中和區"
"235058","151-BY","2018/02/01 19:59:05","新北市中和區員山路237號","121.481228333333","24.998305","6500300","中和區"
"235055","183-VK","2018/02/01 19:59:11","新北市中和區民生街35巷2弄2號","121.470326666667","25.0050816666667","6500300","中和區"
"235038","185-VK","2018/02/01 19:59:22","新北市中和區自強路2號","121.520396666667","24.9961516666667","6500300","中和區"
"235067","255-BX","2018/02/01 19:59:13","新北市中和區新生街237號","121.48388","24.9989766666667","6500300","中和區"
"235044","293-VK","2018/02/01 19:59:18","新北市中和區南山路237號","121.503606666667","24.993045","6500300","中和區"
"235043","352-BY","2018/02/01 19:59:10","新北市中和區興南路二段159巷7號","121.505255","24.9831366666667","6500300","中和區"
"235068","377-QA","2018/02/01 19:59:06","新北市中和區福美路301巷2號","121.497196666667","25.0047133333333","6500300","中和區"
"235050","4979-A6","2018/02/01 19:59:01","新北市中和區景新街262號","121.510686666667","24.9927016666667","6500300","中和區"
"235069","4980-A6","2018/02/01 19:59:11","新北市中和區南山路37巷3弄9號","121.502603333333","24.9988083333333","6500300","中和區"
"235070","558-UM","2018/02/01 19:59:17","新北市中和區員山路36巷16-2號","121.485446666667","24.9910166666667","6500300","中和區"
"235054","640-BX","2018/02/01 19:59:16","新北市中和區民享街86巷31號","121.472721666667","25.00035","6500300","中和區"
"235060","647-TV","2018/02/01 19:59:12","新北市中和區新生街30巷1號","121.48303","25.0037933333333","6500300","中和區"
"235047","732-UM","2018/02/01 19:52:23","新北市中和區和平街64號","121.508241666667","24.9909333333333","6500300","中和區"
"235046","733-UM","2018/02/01 19:59:18","新北市中和區興南路一段93巷77號","121.510598333333","24.9865683333333","6500300","中和區"
"235041","802-TS","2018/02/01 19:59:15","新北市中和區中安街166號","121.510813333333","25.0000816666667","6500300","中和區"
"235052","805-TS","2018/02/01 19:59:12","新北市中和區華新街192巷22弄9號","121.50667","24.9832433333333","6500300","中和區"
"235048","896-TW","2018/02/01 19:59:10","新北市中和區景新街416號","121.512893333333","24.98906","6500300","中和區"
"235053","900-TW","2018/02/01 19:59:18","新北市中和區華安街99號","121.468175","24.99633","6500300","中和區"
"235063","911-UM","2018/02/01 19:59:10","新北市中和區連城路263巷6弄2號","121.492151666667","24.9958083333333","6500300","中和區"
"235051","157-BY","2018/02/01 19:59:04","新北市中和區中興街180巷33號","121.49823","24.9891433333333","6500300","中和區"
"235037","AAC-213","2018/02/01 19:59:03","新北市中和區大智街55巷30弄58-1號","121.52228","24.9933966666667","6500300","中和區"
"235059","AAC-215","2018/02/01 19:59:02","新北市中和區圓通路305巷5弄19號","121.49422","24.9903233333333","6500300","中和區"
"220068","013-TV","2018/02/01 19:59:10","新北市板橋區光復街186號","121.485446666667","25.0199083333333","6500100","板橋區"
"220065","072-UY","2018/02/01 19:59:09","新北市板橋區長安街23號","121.466703333333","25.0087633333333","6500100","板橋區"
"220106","075-UY","2018/02/01 19:59:14","新北市板橋區民治街96巷27號","121.478326666667","25.032335","6500100","板橋區"
"220069","AAD-861","2018/02/01 19:59:21","新北市板橋區大明街17號","121.458836666667","25.002485","6500100","板橋區"
"220098","120-SR","2018/02/01 19:59:20","新北市板橋區新海路72巷44號","121.46227","25.0230533333333","6500100","板橋區"
"247020","500-BY","2018/02/01 19:59:15","新北市蘆洲區民義街66號","121.472955","25.08969","6501400","蘆洲區"
"247008","341-TH","2018/02/01 19:59:10","新北市蘆洲區中山一路95巷20弄1號","121.477381666667","25.08058","6501400","蘆洲區"
"247010","339-TH","2018/02/01 19:59:15","新北市三重區集賢路188號","121.48402","25.0879733333333","6501400","蘆洲區"
"247002","337-TH","2018/02/01 19:59:07","新北市蘆洲區長安街274巷16號","121.458175","25.0870283333333","6501400","蘆洲區"
"247004","336-TH","2018/02/01 19:59:05","新北市蘆洲區中原路91號","121.457793333333","25.0816133333333","6501400","蘆洲區"
"247016","057-VK","2018/02/01 19:59:15","新北市蘆洲區中正路79-3號","121.470246666667","25.0833733333333","6501400","蘆洲區"
"247006","056-VK","2018/02/01 19:59:25","新北市蘆洲區和平路121巷14弄27號","121.465865","25.079995","6501400","蘆洲區"
"247024","002-UY","2018/02/01 19:59:09","新北市蘆洲區光榮路120巷31號","121.465766666667","25.0881233333333","6501400","蘆洲區"
"226004","205-ST","2018/02/01 19:59:20","新北市平溪區十分里十分街304號","121.775991666667","25.044075","6502400","平溪區"
"235057","251-BX","2018/02/01 19:59:05","新北市中和區民樂路81號","121.484665","25.00139","6500300","中和區"
"228003","097-TW","2018/02/01 19:59:25","新北市貢寮區仁理村仁和路228號","121.924045","25.0536166666667","6502600","貢寮區"
"224010","AGQ-8101","2018/02/01 19:55:24","新北市瑞芳區烏勢巷145號","121.84756","25.1087816666667","6501200","瑞芳區"
"224002","639-TC","2018/02/01 19:59:11","新北市瑞芳區三爪子坑路61號","121.812708333333","25.1073883333333","6501200","瑞芳區"
"227004","642-TC","2018/02/01 19:59:05","新北市雙溪區雙溪里長安街16號","121.864965","25.0347166666667","6502500","雙溪區"
"227010","400-TW","2018/02/01 19:59:18","新北市雙溪區新基里新基南街25號","121.866236666667","25.0381683333333","6502500","雙溪區"
"222001","KEA-2212","2018/02/01 19:59:22","新北市深坑區北深路三段172號","121.602198333333","25.0034716666667","6501800","深坑區"
"208002","742-BX","2018/02/01 19:59:21","新北市金山區環金路89號","121.636833333333","25.21725","6502700","金山區"
"208003","665-BX","2018/02/01 19:59:08","新北市金山區香園15號","121.634295","25.2528066666667","6502700","金山區"
"208001","761-BX","2018/02/01 19:59:11","新北市金山區南勢湖1-3號","121.62285","25.2194983333333","6502700","金山區"
"251009","008-UM","2018/02/01 19:59:10","新北市淡水區英專路28巷3號","121.445886666667","25.1699466666667","6501000","淡水區"
"251004","009-UM","2018/02/01 19:46:13","新北市淡水區民權路177巷57號","121.460626666667","25.1337983333333","6501000","淡水區"
"251005","010-UM","2018/02/01 19:59:05","新北市淡水區學府路136巷15號","121.45117","25.1728616666667","6501000","淡水區"
"251001","011-UM","2018/02/01 19:59:14","新北市淡水區北新路一段2-15號","121.453625","25.18031","6501000","淡水區"
"251013","179-VK","2018/02/01 19:59:08","新北市淡水區奎柔山路63號","121.451691666667","25.20622","6501000","淡水區"
"251014","180-VK","2018/02/01 19:59:13","新北市淡水區石頭厝12-3號","121.46196","25.23649","6501000","淡水區"
"251008","181-VK","2018/02/01 19:59:21","新北市淡水區中正路一段132巷7弄6號","121.422503333333","25.1799533333333","6501000","淡水區"
"251015","182-VK","2018/02/01 19:59:10","新北市淡水區埤島80-7號","121.449015","25.18908","6501000","淡水區"
"251010","413-VK","2018/02/01 19:59:08","新北市淡水區崁頂92號","121.429743333333","25.203265","6501000","淡水區"
"251012","441-VK","2018/02/01 19:59:18","新北市淡水區下圭柔山100-2號","121.441281666667","25.2114066666667","6501000","淡水區"
"251016","442-VK","2018/02/01 19:59:08","新北市淡水區淡金路四段608號","121.451586666667","25.2290583333333","6501000","淡水區"
"251006","561-UM","2018/02/01 19:59:19","新北市淡水區水碓街55號","121.444215","25.1774516666667","6501000","淡水區"
"251011","650-BX","2018/02/01 19:59:11","新北市淡水區崁頂55-3號","121.44221","25.1966666666667","6501000","淡水區"
"251002","672-BX","2018/02/01 19:59:10","新北市淡水區中正路二段12號","121.420533333333","25.1807633333333","6501000","淡水區"
"207003","550-UM","2018/02/01 19:59:14","新北市萬里區大鵬里萬里加投40-1號","121.638945","25.2079733333333","6502800","萬里區"
"207004","225-TW","2018/02/01 19:59:20","新北市萬里區北基里忠二街35號","121.685625","25.1757616666667","6502800","萬里區"
"252001","292-VK","2018/02/01 19:59:12","新北市三芝區公正街9號","121.49972","25.25752","6502100","三芝區"
"252002","AAC-283","2018/02/01 19:59:03","新北市三芝區三民街39巷14號","121.50529","25.2576983333333","6502100","三芝區"
"237004","078-UY","2018/02/01 19:59:02","新北市三峽區添福9號","121.371221666667","24.9077866666667","6500900","三峽區"
"237007","153-BY","2018/02/01 19:59:20","新北市三峽區麻園40號","121.3638","24.920895","6500900","三峽區"
"237009","210-TH","2018/02/01 19:59:21","新北市三峽區中園街59號","121.368236666667","24.9258533333333","6500900","三峽區"
"237013","252-BX","2018/02/01 19:59:22","新北市三峽區介壽路二段165號","121.394066666667","24.9359866666667","6500900","三峽區"
"237012","275-BY","2018/02/01 19:59:19","新北市三峽區中華路3巷2號","121.374715","24.9322583333333","6500900","三峽區"
"237008","302-VK","2018/02/01 19:59:11","新北市三峽區大同路209號","121.370671666667","24.9270683333333","6500900","三峽區"
"237014","433-BY","2018/02/01 19:59:06","新北市三峽區添福11-16號","121.372661666667","24.9069866666667","6500900","三峽區"
"237006","5529-G3","2018/02/01 19:59:05","新北市三峽區正義街16號","121.369675","24.91953","6500900","三峽區"
"237005","AKY-6261","2018/02/01 19:59:12","新北市三峽區長泰街104號","121.375826666667","24.9332333333333","6500900","三峽區"
"236071","105-UM","2018/02/01 19:59:04","新北市土城區忠義路75號","121.44231","24.9657233333333","6501300","土城區"
"236042","107-UM","2018/02/01 19:59:20","新北市土城區裕民路185巷14號","121.454036666667","24.984825","6501300","土城區"
"236078","166-UM","2018/02/01 19:59:04","新北市土城區福安街88號","121.417941666667","24.96418","6501300","土城區"
"236030","253-BX","2018/02/01 19:59:15","新北市土城區中央路一段248-3號","121.444351666667","24.9846616666667","6501300","土城區"
"236026","269-VK","2018/02/01 19:59:13","新北市土城區中央路二段89號","121.44249","24.9781166666667","6501300","土城區"
"236014","270-VK","2018/02/01 19:59:06","新北市土城區廣福街123號","121.456205","24.9929283333333","6501300","土城區"
"236037","271-VK","2018/02/01 19:59:20","新北市土城區國際路67號","121.466745","24.9764016666667","6501300","土城區"
"236021","401-BY","2018/02/01 19:59:19","新北市土城區延吉街137巷2弄2號","121.470693333333","24.9860866666667","6501300","土城區"
"236058","912-UM","2018/02/01 19:59:17","新北市土城區中央路一段237號","121.445466666667","24.9861366666667","6501300","土城區"
"236051","913-UM","2018/02/01 19:59:16","新北市土城區金城路三段192號","121.468348333333","24.9880116666667","6501300","土城區"
"236062","915-UM","2018/02/01 19:59:17","新北市土城區延和路86號","121.46641","24.9893916666667","6501300","土城區"
"236053","AAC-216","2018/02/01 19:59:20","新北市土城區延和路19號","121.464215","24.9882666666667","6501300","土城區"
"242031","AAC-296","2018/02/01 19:59:10","新北市新莊區忠孝街26號","121.443915","25.035465","6500500","新莊區"
"242029","986-R7","2018/02/01 19:59:08","新北市新莊區中榮街99號","121.444973333333","25.0527","6500500","新莊區"
"242025","615-BX","2018/02/01 19:59:04","新北市新莊區五工二路86巷23號","121.460291666667","25.06709","6500500","新莊區"
"242023","613-BX","2018/02/01 19:59:12","新北市新莊區化成路374號","121.465868333333","25.04979","6500500","新莊區"
"242027","612-BX","2018/02/01 19:59:23","新北市新莊區幸福路898號","121.443283333333","25.0493283333333","6500500","新莊區"
"242039","566-BX","2018/02/01 19:59:25","新北市新莊區民安路299巷25弄6號","121.429003333333","25.0233033333333","6500500","新莊區"
"242044","442-UM","2018/02/01 19:59:22","新北市新莊區中正路756號","121.412458333333","25.022255","6500500","新莊區"
"242053","440-UM","2018/02/01 19:59:24","新北市新莊區西盛街422號","121.427146666667","25.0120816666667","6500500","新莊區"
"242034","415-TV","2018/02/01 19:59:23","新北市新莊區建中街106號","121.44629","25.0365983333333","6500500","新莊區"
"242004","413-TV","2018/02/01 19:59:15","新北市新莊區化成路205-46號","121.465683333333","25.0511633333333","6500500","新莊區"
"242042","400-BY","2018/02/01 19:59:14","新北市新莊區青山路一段181-1號","121.399683333333","25.030705","6500500","新莊區"
"242061","362-BY","2018/02/01 19:59:04","新北市新莊區瓊林路72-1號","121.445075","25.0286566666667","6500500","新莊區"
"242058","353-BY","2018/02/01 19:59:16","新北市新莊區八德街135號","121.423861666667","25.0202166666667","6500500","新莊區"
"242007","132-UY","2018/02/01 19:59:06","新北市新莊區思源路593巷16號","121.458686666667","25.0597233333333","6500500","新莊區"
"242036","133-UY","2018/02/01 19:59:14","新北市新莊區建安街41巷18號","121.429193333333","25.0250066666667","6500500","新莊區"
"242021","135-UY","2018/02/01 19:59:05","新北市新莊區建中街48巷10弄12號","121.448598333333","25.0385133333333","6500500","新莊區"
"242046","172-VK","2018/02/01 19:59:05","新北市新莊區裕民街19巷4號","121.419665","25.0252133333333","6500500","新莊區"
"242009","173-VK","2018/02/01 19:59:20","新北市新莊區幸福路785號","121.446656666667","25.048975","6500500","新莊區"
"242015","175-VK","2018/02/01 19:59:11","新北市新莊區中平路6巷33號","121.44598","25.0427716666667","6500500","新莊區"
"242002","176-VK","2018/02/01 19:59:17","新北市新莊區新泰路111號","121.448851666667","25.0351233333333","6500500","新莊區"
"242013","346-TH","2018/02/01 19:59:08","新北市新莊區幸福路670巷2弄1號","121.450988333333","25.0494583333333","6500500","新莊區"
"242051","347-TH","2018/02/01 19:59:18","新北市新莊區西盛街131號","121.428338333333","25.0186033333333","6500500","新莊區"
"242019","348-TH","2018/02/01 19:59:13","新北市新莊區長青街35巷14號","121.456585","25.04179","6500500","新莊區"
"242056","349-TH","2018/02/01 19:59:13","新北市新莊區新豐街20巷28號","121.447553333333","25.0345033333333","6500500","新莊區"
"242017","350-TH","2018/02/01 19:59:08","新北市新莊區中安街35號","121.452548333333","25.045905","6500500","新莊區"
"242011","351-TH","2018/02/01 19:59:22","新北市新莊區中港路531巷118號","121.449868333333","25.05167","6500500","新莊區"
"238015","755-BX","2018/02/01 19:59:22","新北市樹林區中山路三段166號","121.389128333333","24.9702316666667","6500700","樹林區"
"238023","601-UM","2018/02/01 19:59:08","新北市樹林區中正路193號","121.423428333333","25.0031733333333","6500700","樹林區"
"238021","KEA-2217","2018/02/01 19:59:05","新北市樹林區佳園路三段145巷30號","121.388286666667","24.9490933333333","6500700","樹林區"
"238017","283-BY","2018/02/01 19:59:06","新北市樹林區保安街二段45巷36號","121.414493333333","25.000125","6500700","樹林區"
"239007","AAC-297","2018/02/01 19:59:07","新北市鶯歌區大湖路326巷33號","121.346368333333","24.9700216666667","6500800","鶯歌區"
"239006","891-R6","2018/02/01 19:59:05","新北市鶯歌區文化路71號","121.35792","24.956035","6500800","鶯歌區"
"239003","360-BY","2018/02/01 19:34:52","新北市鶯歌區國華路56號","121.342266666667","24.9549516666667","6500800","鶯歌區"
"221036","130-UY","2018/02/01 19:59:17","新北市汐止區忠孝東路258巷16弄2號","121.663693333333","25.06721","6501100","汐止區"
"221010","269-BY","2018/02/01 19:59:13","新北市汐止區連峰街225巷23號","121.644078333333","25.0809783333333","6501100","汐止區"
"221012","278-VK","2018/02/01 19:59:17","新北市汐止區大同路三段355號","121.675391666667","25.07303","6501100","汐止區"
"221023","279-VK","2018/02/01 19:59:16","新北市汐止區明峰街200-1號","121.627748333333","25.06933","6501100","汐止區"
"221032","280-BY","2018/02/01 19:59:23","新北市汐止區橫科路18巷33弄1號","121.617471666667","25.0497733333333","6501100","汐止區"
"221027","281-BY","2018/02/01 19:59:16","新北市汐止區中正路39號","121.662098333333","25.0702","6501100","汐止區"
"221029","298-VK","2018/02/01 19:59:09","新北市汐止區樟樹一路137巷24號","121.641068333333","25.065975","6501100","汐止區"
"221021","299-VK","2018/02/01 19:59:11","新北市汐止區青山路2號","121.6557","25.0627116666667","6501100","汐止區"
"221031","353-TW","2018/02/01 19:59:18","新北市汐止區福德一路183號","121.635848333333","25.0657666666667","6501100","汐止區"
"221015","567-BX","2018/02/01 19:59:25","新北市汐止區橋東街9號","121.66663","25.0759133333333","6501100","汐止區"
"221035","622-UM","2018/02/01 19:59:23","新北市汐止區長江街39巷9號","121.655458333333","25.071805","6501100","汐止區"
"221025","623-UM","2018/02/01 19:59:18","新北市汐止區秀峰路109巷26弄6號","121.660956666667","25.0635","6501100","汐止區"
"221038","646-BX","2018/02/01 19:59:13","新北市汐止區忠孝東路481號","121.66604","25.0733283333333","6501100","汐止區"
"221033","647-BX","2018/02/01 19:59:14","新北市汐止區東勢街201巷104號","121.633505","25.0429016666667","6501100","汐止區"
"221018","753-BX","2018/02/01 19:59:21","新北市汐止區茄苳路157號","121.66966","25.0695383333333","6501100","汐止區"
"220079","145-BY","2018/02/01 19:59:20","新北市板橋區南雅西路二段204號","121.451833333333","25.0149","6500100","板橋區"
"220080","200-UY","2018/02/01 19:59:23","新北市板橋區大觀路二段169巷23號","121.446511666667","24.9997966666667","6500100","板橋區"
"220082","610-BX","2018/02/01 19:59:16","新北市板橋區篤行路二段128-3號","121.431101666667","24.9906133333333","6500100","板橋區"
"220103","257-TC","2018/02/01 19:59:17","新北市板橋區自由路18-3號","121.465596666667","25.0224933333333","6500100","板橋區"
"220072","277-BY","2018/02/01 19:59:14","新北市板橋區金門街127巷18號","121.433753333333","24.9910383333333","6500100","板橋區"
"220101","280-UM","2018/02/01 19:59:05","新北市板橋區縣民大道三段97巷4號","121.475976666667","25.0222683333333","6500100","板橋區"
"220071","283-VK","2018/02/01 19:59:13","新北市板橋區五權街32巷3號","121.464806666667","24.9930783333333","6500100","板橋區"
"220094","285-UM","2018/02/01 19:59:18","新北市板橋區陽明街239號","121.462921666667","25.0244533333333","6500100","板橋區"
"220053","285-VK","2018/02/01 19:59:17","新北市板橋區中山路二段92號","121.475398333333","25.0162233333333","6500100","板橋區"
"220083","286-VK","2018/02/01 19:59:21","新北市板橋區僑中二街10巷20號","121.446208333333","25.0110633333333","6500100","板橋區"
"220081","287-VK","2018/02/01 19:59:23","新北市板橋區大觀路一段28巷101號","121.44999","25.0120016666667","6500100","板橋區"
"220090","288-VK","2018/02/01 19:59:22","新北市板橋區幸福路32巷4弄7號","121.461078333333","25.021505","6500100","板橋區"
"220061","293-UM","2018/02/01 19:59:18","新北市板橋區觀光街21號","121.47134","25.016185","6500100","板橋區"
"220062","295-UM","2018/02/01 19:59:13","新北市板橋區光復街172巷31弄5-2號","121.486215","25.0189316666667","6500100","板橋區"
"220084","296-UM","2018/02/01 19:59:05","新北市板橋區滿平街2巷10號","121.425326666667","24.9894783333333","6500100","板橋區"
"220092","299-UM","2018/02/01 19:59:07","新北市板橋區四維路259巷19號","121.462453333333","25.027605","6500100","板橋區"
"242048","281-VK","2018/02/01 19:59:17","新北市新莊區民安路207巷5號","121.42672","25.0229383333333","6500500","新莊區"
"220075","303-R5","2018/02/01 19:59:20","新北市板橋區金華街10巷48弄22號","121.457751666667","25.019935","6500100","板橋區"
"220064","486-VK","2018/02/01 19:59:03","新北市板橋區實踐路108號","121.46405","25.0045933333333","6500100","板橋區"
"220089","487-VK","2018/02/01 19:59:18","新北市板橋區龍泉街55巷26號","121.457618333333","25.0251016666667","6500100","板橋區"
"220088","491-VK","2018/02/01 19:59:24","新北市板橋區懷德街181巷3號","121.479386666667","25.0301133333333","6500100","板橋區"
"220035","560-BX","2018/02/01 19:59:06","新北市板橋區新生街53巷20號","121.457716666667","25.0217466666667","6500100","板橋區"
"220055","568-UM","2018/02/01 19:59:17","新北市板橋區仁愛路62巷15弄1號","121.459976666667","24.9985416666667","6500100","板橋區"
"220091","637-BX","2018/02/01 19:59:10","新北市板橋區民治街119巷5號","121.478488333333","25.0307016666667","6500100","板橋區"
"220057","686-BX","2018/02/01 19:59:18","新北市板橋區四川路二段2號","121.456633333333","24.996625","6500100","板橋區"
"220077","687-BX","2018/02/01 19:59:23","新北市板橋區僑中一街124巷22號","121.44628","25.014325","6500100","板橋區"
"220093","689-BX","2018/02/01 19:59:20","新北市板橋區文化路二段503號","121.476211666667","25.03441","6500100","板橋區"
"220054","741-BX","2018/02/01 19:59:21","新北市板橋區忠孝路忠義巷20弄1號","121.466685","25.0038616666667","6500100","板橋區"
"220067","829-TW","2018/02/01 19:59:14","新北市板橋區漢生東路193巷91號","121.473098333333","25.0120033333333","6500100","板橋區"
"220096","830-TW","2018/02/01 19:59:22","新北市板橋區莒光路16巷7號","121.469751666667","25.0242766666667","6500100","板橋區"
"220063","833-TW","2018/02/01 19:59:11","新北市板橋區中山路二段88號","121.47516","25.0163216666667","6500100","板橋區"
"220074","895-R6","2018/02/01 19:59:03","新北市板橋區文化路一段46巷19號","121.460245","25.0115666666667","6500100","板橋區"
"220073","985-R7","2018/02/01 19:59:05","新北市板橋區大仁街35號","121.455253333333","25.0167383333333","6500100","板橋區"
"220097","AAC-210","2018/02/01 19:59:17","新北市板橋區光正街45巷17號","121.46178","25.01651","6500100","板橋區"
"220070","AAC-253","2018/02/01 19:59:21","新北市板橋區成都街43號","121.461245","25.0050166666667","6500100","板橋區"
