"lineid","car","time","location","longitude","latitude","cityid","cityname"
"234038","336-UY","2018/02/01 20:39:30","新北市永和區環河東路4段84-1號","121.528865","24.9980833333333","6500400","永和區"
"234064","337-UY","2018/02/01 20:39:40","新北市永和區永和路二段166號","121.515373333333","25.012885","6500400","永和區"
"234030","746-BX","2018/02/01 20:39:30","新北市中和區中正路755-1號","121.485046666667","25.0000566666667","6500400","永和區"
"234061","AAD-866","2018/02/01 20:39:36","新北市永和區秀朗路一段175號","121.517066666667","25.0036733333333","6500400","永和區"
"234050","863-TW","2018/02/01 20:39:30","新北市永和區新生路138巷1弄6號","121.506466666667","25.0143666666667","6500400","永和區"
"249001","173-UM","2018/02/01 20:39:36","新北市八里區中山路三段331號","121.377515","25.1388433333333","6502300","八里區"
"249004","303-UY","2018/02/01 20:39:41","新北市八里區中山路一段306號","121.413323333333","25.1593533333333","6502300","八里區"
"249002","305-UY","2018/02/01 20:39:39","新北市八里區龍米路三段58號","121.424451666667","25.15918","6502300","八里區"
"234023","9380-KE","2018/02/01 20:39:47","新北市永和區竹林路23號","121.517293333333","25.0145866666667","6500400","永和區"
"234074","AAC-211","2018/02/01 20:39:31","新北市永和區竹林路119巷18弄1號","121.521088333333","25.0114366666667","6500400","永和區"
"243011","297-R6","2018/02/01 20:39:33","新北市泰山區明志路三段42巷18號","121.424116666667","25.0423816666667","6501600","泰山區"
"243014","421-VK","2018/02/01 20:36:29","新北市泰山區泰林路三段641號","121.405515","25.0702933333333","6501600","泰山區"
"243010","KEA-2215","2018/02/01 20:39:45","新北市泰山區犁頭窠6號","121.421743333333","25.0590516666667","6501600","泰山區"
"222003","436-BY","2018/02/01 20:39:45","新北市深坑區阿柔洋17-1號","121.612835","24.999265","6501800","深坑區"
"222002","659-BX","2018/02/01 20:39:33","新北市深坑區萬福路45號","121.59945","25.0068466666667","6501800","深坑區"
"231041","002-UM","2018/02/01 20:39:39","新北市新店區中正路543-4號","121.533663333333","24.98753","6500600","新店區"
"231058","0293-UT","2018/02/01 20:39:29","新北市新店區平等街25號","121.536675","24.9736816666667","6500600","新店區"
"231059","046-UY","2018/02/01 20:39:45","新北市新店區僑愛三路4號","121.499643333333","24.9446366666667","6500600","新店區"
"231061","047-UY","2018/02/01 20:39:31","新北市新店區新和街54號","121.519701666667","24.9853033333333","6500600","新店區"
"231060","106-UY","2018/02/01 20:39:43","新北市新店區安康路三段571巷5-1號","121.475026666667","24.9429","6500600","新店區"
"231051","107-UY","2018/02/01 20:39:46","新北市新店區中央八街76號","121.527578333333","24.977005","6500600","新店區"
"231047","108-UY","2018/02/01 20:39:35","新北市新店區寶慶街34號","121.543113333333","24.9867133333333","6500600","新店區"
"231049","110-UY","2018/02/01 20:39:38","新北市新店區永業路81巷11弄8號","121.531571666667","24.9505683333333","6500600","新店區"
"231052","187-VK","2018/02/01 20:39:29","新北市新店區廣興路5巷5號","121.545735","24.9119433333333","6500600","新店區"
"231064","188-VK","2018/02/01 20:39:41","新北市新店區安和路三段171號","121.51597","24.9860833333333","6500600","新店區"
"231050","KEA-2219","2018/02/01 20:39:44","新北市新店區中正路265巷4號","121.537858333333","24.9737616666667","6500600","新店區"
"231057","256-BX","2018/02/01 20:39:38","新北市新店區花園十路一段7號","121.55428","24.9338916666667","6500600","新店區"
"231054","AAD-862","2018/02/01 20:39:39","新北市新店區行政街22號","121.543068333333","24.9656716666667","6500600","新店區"
"231056","3713-VJ","2018/02/01 20:39:40","新北市新店區民生路75巷225-1號","121.533135","24.9812683333333","6500600","新店區"
"231065","512-UM","2018/02/01 20:39:46","新北市新店區安祥路102巷121弄6號","121.486125","24.9645666666667","6500600","新店區"
"231042","616-UM","2018/02/01 20:39:38","新北市新店區寶高路120巷1-1號","121.554563333333","24.9759766666667","6500600","新店區"
"231040","619-UM","2018/02/01 20:39:41","新北市新店區中正路263巷8號","121.53832","24.973255","6500600","新店區"
"231063","645-TV","2018/02/01 20:39:29","新北市新店區玫瑰路4-1號","121.49356","24.9514","6500600","新店區"
"231068","718-UY","2018/02/01 20:39:35","新北市新店區寶慶街35巷3弄3號","121.543265","24.9860816666667","6500600","新店區"
"231062","720-UM","2018/02/01 20:39:39","新北市新店區安康路三段148號","121.490266666667","24.95177","6500600","新店區"
"231044","897-TW","2018/02/01 20:39:28","新北市新店區民權路90巷36號","121.537043333333","24.9842533333333","6500600","新店區"
"231045","898-TW","2018/02/01 20:39:44","新北市新店區長春路57號","121.550585","24.9577183333333","6500600","新店區"
"231043","899-TW","2018/02/01 20:39:44","新北市新店區建國路35巷1號","121.5404","24.97446","6500600","新店區"
"231066","AKT-0513","2018/02/01 20:39:32","新北市新店區安興路112號","121.514646666667","24.9776016666667","6500600","新店區"
"241011","013-R5","2018/02/01 20:39:48","新北市三重區龍門路62號","121.496718333333","25.07255","6500200","三重區"
"241028","022-UY","2018/02/01 20:39:41","新北市三重區光興街91號","121.497416666667","25.0599483333333","6500200","三重區"
"241008","059-VK","2018/02/01 20:39:42","新北市三重區下竹圍街42號","121.481015","25.0748916666667","6500200","三重區"
"241009","060-VK","2018/02/01 20:39:32","新北市三重區碧華街57號","121.484743333333","25.0812716666667","6500200","三重區"
"241031","061-VK","2018/02/01 20:39:40","新北市三重區重陽路一段113巷1弄49號","121.488115","25.0585883333333","6500200","三重區"
"241015","062-VK","2018/02/01 20:39:31","新北市三重區文化北路200弄1號","121.497988333333","25.0681066666667","6500200","三重區"
"241017","063-VK","2018/02/01 20:39:38","新北市三重區大同北路218號","121.490808333333","25.0672366666667","6500200","三重區"
"241024","065-VK","2018/02/01 20:39:46","新北市三重區三民街225號","121.480445","25.0670433333333","6500200","三重區"
"241026","066-VK","2018/02/01 20:39:31","新北市三重區文化南路3號","121.500031666667","25.0623833333333","6500200","三重區"
"241002","090-VK","2018/02/01 20:39:45","新北市三重區仁義街167巷32弄1號","121.49824","25.0822166666667","6500200","三重區"
"241005","262-UM","2018/02/01 20:39:28","新北市三重區碧華街392號","121.491561666667","25.0846983333333","6500200","三重區"
"241016","266-UM","2018/02/01 20:39:47","新北市三重區長壽西街142-1號","121.494793333333","25.0668366666667","6500200","三重區"
"241022","267-UM","2018/02/01 20:39:34","新北市三重區新北大道一段46巷16號","121.488091666667","25.0619933333333","6500200","三重區"
"241018","268-UM","2018/02/01 20:39:35","新北市三重區正義北路216巷7號","121.49586","25.0674933333333","6500200","三重區"
"241032","269-UM","2018/02/01 20:39:43","新北市三重區重陽路一段120巷48號","121.485036666667","25.060165","6500200","三重區"
"241013","270-UM","2018/02/01 20:39:51","新北市三重區三和路三段139巷19號","121.49342","25.0738133333333","6500200","三重區"
"241025","271-UM","2018/02/01 20:39:39","新北市三重區頂崁街210巷29號","121.475673333333","25.0682","6500200","三重區"
"241007","398-BY","2018/02/01 20:39:34","新北市三重區三和路四段101巷10號","121.487901666667","25.0768733333333","6500200","三重區"
"241020","413-TH","2018/02/01 20:39:43","新北市三重區忠孝路一段101號","121.489381666667","25.0721616666667","6500200","三重區"
"241004","475-VK","2018/02/01 20:39:29","新北市三重區仁愛街467號","121.489325","25.0820266666667","6500200","三重區"
"241019","478-VK","2018/02/01 20:39:27","新北市三重區重陽路四段126巷7號","121.4922","25.07116","6500200","三重區"
"241030","480-VK","2018/02/01 20:39:40","新北市三重區成功路73巷11號","121.489518333333","25.051885","6500200","三重區"
"241014","543-UM","2018/02/01 20:39:32","新北市三重區長壽街120巷8弄97-1號","121.499951666667","25.0686266666667","6500200","三重區"
"241023","545-UM","2018/02/01 20:39:47","新北市三重區自由街35巷2號","121.478996666667","25.066935","6500200","三重區"
"241001","547-UM","2018/02/01 20:39:28","新北市三重區三和路四段160巷75號","121.485805","25.0749333333333","6500200","三重區"
"241035","743-BX","2018/02/01 20:39:41","新北市三重區正義北路154號","121.49669","25.0662033333333","6500200","三重區"
"241003","887-TS","2018/02/01 20:39:47","新北市三重區五華街141巷58號","121.493526666667","25.08679","6500200","三重區"
"241012","941-UM","2018/02/01 20:39:41","新北市三重區秀江街26號","121.502476666667","25.0730083333333","6500200","三重區"
"241029","942-UM","2018/02/01 20:39:43","新北市三重區集美街126巷27號","121.4901","25.05379","6500200","三重區"
"241033","AAC-255","2018/02/01 20:39:44","新北市三重區光復路二段87巷37號","121.474436666667","25.0579383333333","6500200","三重區"
"235039","097-UM","2018/02/01 20:39:33","新北市中和區景平路278巷16弄2號","121.51393","24.993305","6500300","中和區"
"235069","4980-A6","2018/02/01 20:39:31","新北市中和區新生街277號","121.483826666667","24.9978883333333","6500300","中和區"
"235070","558-UM","2018/02/01 20:39:37","新北市中和區員山路36巷16-2號","121.485446666667","24.9910166666667","6500300","中和區"
"235059","AAC-215","2018/02/01 20:39:42","新北市中和區員山路72號","121.480841666667","24.993745","6500300","中和區"
"247022","893-R6","2018/02/01 20:39:30","新北市蘆洲區中正路243巷7弄9號","121.467448333333","25.0859766666667","6501400","蘆洲區"
"247012","546-UM","2018/02/01 20:39:48","新北市蘆洲區民族路236巷54號","121.481673333333","25.088985","6501400","蘆洲區"
"247020","500-BY","2018/02/01 20:39:35","新北市蘆洲區民族路424號","121.473871666667","25.0917766666667","6501400","蘆洲區"
"247008","341-TH","2018/02/01 20:39:30","新北市蘆洲區重陽街32號","121.480975","25.0822266666667","6501400","蘆洲區"
"247010","339-TH","2018/02/01 20:39:35","新北市蘆洲區集賢路401號","121.480193333333","25.0817916666667","6501400","蘆洲區"
"247002","337-TH","2018/02/01 20:39:47","新北市蘆洲區長安街375巷11號","121.45657","25.0878483333333","6501400","蘆洲區"
"247004","336-TH","2018/02/01 20:39:45","新北市蘆洲區長安街301號","121.45799","25.0849266666667","6501400","蘆洲區"
"247016","057-VK","2018/02/01 20:39:35","新北市蘆洲區中山二路187號","121.471083333333","25.0806816666667","6501400","蘆洲區"
"247006","056-VK","2018/02/01 20:39:45","新北市蘆洲區和平路134號","121.467198333333","25.0805083333333","6501400","蘆洲區"
"247014","007-UY","2018/02/01 20:39:46","新北市蘆洲區成功路97號","121.47293","25.0814016666667","6501400","蘆洲區"
"247024","002-UY","2018/02/01 20:39:28","新北市蘆洲區光復路52號","121.46384","25.0851","6501400","蘆洲區"
"222001","KEA-2212","2018/02/01 20:39:42","新北市深坑區北深路三段232號","121.600753333333","25.004125","6501800","深坑區"
"251001","011-UM","2018/02/01 20:39:34","新北市淡水區淡金路65號","121.456093333333","25.16148","6501000","淡水區"
"251013","179-VK","2018/02/01 20:39:47","新北市淡水區下圭柔山28巷17號","121.457848333333","25.2038933333333","6501000","淡水區"
"251014","180-VK","2018/02/01 20:39:33","新北市淡水區桂竹圍10-1號","121.470705","25.2314933333333","6501000","淡水區"
"251015","182-VK","2018/02/01 20:39:30","新北市淡水區興仁路162號","121.451583333333","25.2207516666667","6501000","淡水區"
"251010","413-VK","2018/02/01 20:39:28","新北市淡水區沙崙路181巷15號","121.423958333333","25.1843333333333","6501000","淡水區"
"251012","441-VK","2018/02/01 20:39:38","新北市淡水區興仁路108號","121.451721666667","25.218185","6501000","淡水區"
"251016","442-VK","2018/02/01 20:39:28","新北市淡水區後洲子8-2號","121.449548333333","25.2240416666667","6501000","淡水區"
"251006","561-UM","2018/02/01 20:39:37","新北市淡水區商工路198巷1號","121.450996666667","25.1877916666667","6501000","淡水區"
"251011","650-BX","2018/02/01 20:39:31","新北市淡水區新市一路一段306號","121.436315","25.186115","6501000","淡水區"
"251002","672-BX","2018/02/01 20:39:30","新北市淡水區中正路38-1號","121.443745","25.1692366666667","6501000","淡水區"
"251003","766-UM","2018/02/01 20:39:47","新北市淡水區新民街120巷17號","121.438243333333","25.1780116666667","6501000","淡水區"
"252001","292-VK","2018/02/01 20:39:32","新北市三芝區長安街55號","121.501116666667","25.2565233333333","6502100","三芝區"
"252002","AAC-283","2018/02/01 20:39:43","新北市三芝區淡金路二段47-2號","121.503673333333","25.260515","6502100","三芝區"
"242031","AAC-296","2018/02/01 20:39:40","新北市新莊區三和路60-3號","121.436983333333","25.038675","6500500","新莊區"
"242029","986-R7","2018/02/01 20:39:45","新北市新莊區昌隆街12號","121.453518333333","25.0508133333333","6500500","新莊區"
"242025","615-BX","2018/02/01 20:39:44","新北市新莊區化成路583號","121.46366","25.06644","6500500","新莊區"
"242023","613-BX","2018/02/01 20:39:32","新北市新莊區化成路552號","121.466445","25.0538816666667","6500500","新莊區"
"242027","612-BX","2018/02/01 20:39:38","新北市新莊區思源路155號","121.459938333333","25.0444516666667","6500500","新莊區"
"242039","566-BX","2018/02/01 20:39:45","新北市新莊區民安路316號","121.428515","25.0219766666667","6500500","新莊區"
"242044","442-UM","2018/02/01 20:39:42","新北市新莊區龍安路90號","121.417643333333","25.0207816666667","6500500","新莊區"
"242053","440-UM","2018/02/01 20:39:44","新北市新莊區西盛街323巷7號","121.428556666667","25.0147666666667","6500500","新莊區"
"242034","415-TV","2018/02/01 20:39:43","新北市新莊區華興街7號","121.445903333333","25.0352783333333","6500500","新莊區"
"242042","400-BY","2018/02/01 20:39:34","新北市新莊區天祥街42號","121.417051666667","25.0287033333333","6500500","新莊區"
"242061","362-BY","2018/02/01 20:39:45","新北市新莊區新樹路270號","121.432576666667","25.0131316666667","6500500","新莊區"
"242058","353-BY","2018/02/01 20:39:36","新北市新莊區民安路138號","121.42421","25.0253366666667","6500500","新莊區"
"242007","132-UY","2018/02/01 20:39:46","新北市新莊區思源路287巷2弄13號","121.459301666667","25.04881","6500500","新莊區"
"242036","133-UY","2018/02/01 20:39:32","新北市新莊區後港一路94巷2號","121.42769","25.0264666666667","6500500","新莊區"
"242021","135-UY","2018/02/01 20:39:45","新北市新莊區中華路一段73號","121.452245","25.040105","6500500","新莊區"
"242046","172-VK","2018/02/01 20:39:46","新北市新莊區裕民街18巷8號","121.418846666667","25.025755","6500500","新莊區"
"242009","173-VK","2018/02/01 20:39:42","新北市新莊區昌盛街107-1號","121.456651666667","25.0501666666667","6500500","新莊區"
"242015","175-VK","2018/02/01 20:39:31","新北市新莊區中和街44號","121.448213333333","25.0442366666667","6500500","新莊區"
"242002","176-VK","2018/02/01 20:39:37","新北市新莊區明中街43巷29號","121.456973333333","25.0384716666667","6500500","新莊區"
"242013","346-TH","2018/02/01 20:39:48","新北市新莊區中和街191巷35號","121.447683333333","25.0512383333333","6500500","新莊區"
"242051","347-TH","2018/02/01 20:39:38","新北市新莊區西盛街280巷1號","121.427863333333","25.0151716666667","6500500","新莊區"
"242019","348-TH","2018/02/01 20:39:33","新北市新莊區中港路56號","121.455526666667","25.0386116666667","6500500","新莊區"
"242056","349-TH","2018/02/01 20:39:33","新北市新莊區新莊路751巷50號","121.442735","25.0315116666667","6500500","新莊區"
"242017","350-TH","2018/02/01 20:39:48","新北市新莊區中港三街131號","121.448345","25.04601","6500500","新莊區"
"242011","351-TH","2018/02/01 20:39:42","新北市新莊區中榮街122巷3號","121.446528333333","25.0531516666667","6500500","新莊區"
"239006","891-R6","2018/02/01 20:39:45","新北市鶯歌區二甲路12-2號","121.345875","24.93486","6500800","鶯歌區"
"221036","130-UY","2018/02/01 20:39:36","新北市汐止區新昌路80號","121.663766666667","25.0688916666667","6501100","汐止區"
"221023","279-VK","2018/02/01 20:39:28","新北市汐止區民族二街30巷1號","121.634941666667","25.07182","6501100","汐止區"
"221032","280-BY","2018/02/01 20:39:37","新北市汐止區橫科路221巷19-1號","121.621528333333","25.049515","6501100","汐止區"
"221027","281-BY","2018/02/01 20:39:36","新北市汐止區大同路二段488號","121.660446666667","25.0680283333333","6501100","汐止區"
"221002","297-VK","2018/02/01 20:39:43","新北市汐止區福德二路134號","121.630925","25.06525","6501100","汐止區"
"221029","298-VK","2018/02/01 20:39:49","新北市汐止區大同路一段421號","121.64263","25.0612233333333","6501100","汐止區"
"221021","299-VK","2018/02/01 20:39:31","新北市汐止區水源路一段280號","121.654073333333","25.0583133333333","6501100","汐止區"
"221031","353-TW","2018/02/01 20:39:38","新北市汐止區中興路27巷21號","121.634076666667","25.060845","6501100","汐止區"
"221015","567-BX","2018/02/01 20:39:45","新北市汐止區建成路38號","121.664061666667","25.0727933333333","6501100","汐止區"
"221035","622-UM","2018/02/01 20:39:43","新北市汐止區長江街101-5號","121.65875","25.0732","6501100","汐止區"
"221025","623-UM","2018/02/01 20:39:38","新北市汐止區水源路二段283巷1號","121.659156666667","25.0498583333333","6501100","汐止區"
"221038","646-BX","2018/02/01 20:39:33","新北市汐止區汐萬路一段204號","121.652118333333","25.0721583333333","6501100","汐止區"
"221033","647-BX","2018/02/01 20:39:34","新北市汐止區合順街18巷8弄5號","121.620281666667","25.04191","6501100","汐止區"
"221018","753-BX","2018/02/01 20:39:41","新北市汐止區茄苳路70號","121.666678333333","25.0706616666667","6501100","汐止區"
"220103","257-TC","2018/02/01 20:39:37","新北市板橋區漢生東路73巷28號","121.467246666667","25.0170083333333","6500100","板橋區"
"220083","286-VK","2018/02/01 20:39:45","新北市板橋區僑中二街108巷15號","121.445056666667","25.007285","6500100","板橋區"
"242048","281-VK","2018/02/01 20:39:37","新北市新莊區富國路84號","121.420193333333","25.0255383333333","6500500","新莊區"
"220092","305-R5","2018/02/01 20:17:20","新北市板橋區民生路二段56-6號","121.471175","25.018675","6500100","板橋區"
"220089","487-VK","2018/02/01 20:39:38","新北市板橋區長江路一段156巷9弄19號","121.462093333333","25.0303816666667","6500100","板橋區"
"220093","689-BX","2018/02/01 20:39:40","新北市八里區中山路三段380號","121.369433333333","25.136525","6500100","板橋區"
"220070","AAC-253","2018/02/01 20:39:44","新北市五股區新城三路45號","121.44853","25.0928133333333","6500100","板橋區"
