"lineid","car","time","location","longitude","latitude","cityid","cityname"
"241011","013-R5","2018/02/01 22:09:30","新北市三重區龍濱路191號","121.502001666667","25.0710733333333","6500200","三重區"
"247008","341-TH","2018/02/01 22:07:50","新北市八里區荖阡坑路34號","121.401823333333","25.129215","6501400","蘆洲區"
"251004","009-UM","2018/02/01 22:09:26","新北市淡水區民族路33號","121.46229","25.1358266666667","6501000","淡水區"
"251008","181-VK","2018/02/01 22:09:31","新北市淡水區學府路104號","121.449846666667","25.1717683333333","6501000","淡水區"
"251010","413-VK","2018/02/01 22:09:28","新北市淡水區沙崙路200號","121.424676666667","25.1839583333333","6501000","淡水區"
"251007","577-R6","2018/02/01 22:09:30","新北市淡水區北新路180號","121.449438333333","25.1787416666667","6501000","淡水區"
"251011","650-BX","2018/02/01 22:09:31","新北市淡水區水碓街7號","121.443198333333","25.1771666666667","6501000","淡水區"
