"lineid","car","time","location","longitude","latitude","cityid","cityname"
"247003","336-TH","2018/02/01 22:16:17","新北市五股區中興路三段163號","121.449318333333","25.0809583333333","6501400","蘆洲區"
"251004","009-UM","2018/02/01 22:29:46","新北市淡水區民族路33號","121.462296666667","25.135825","6501000","淡水區"
"251008","181-VK","2018/02/01 22:29:31","新北市淡水區學府路104號","121.449816666667","25.1717733333333","6501000","淡水區"
"251010","413-VK","2018/02/01 22:29:48","新北市淡水區沙崙路187號","121.424636666667","25.1839983333333","6501000","淡水區"
"251011","650-BX","2018/02/01 22:29:31","新北市淡水區水碓街7號","121.443201666667","25.177155","6501000","淡水區"
