"lineid","car","time","location","longitude","latitude","cityid","cityname"
"248005","653-BX","2018/02/02 07:09:11","新北市五股區新五路二段89號","121.436771666667","25.0745516666667","6501500","五股區"
"232003","290-BY","2018/02/02 07:09:19","新北市坪林區大粗坑29-2號","121.70745","24.9672133333333","6502000","坪林區"
"232015","291-BY","2018/02/02 07:09:17","新北市坪林區北宜路七段172號","121.68456","24.9361883333333","6502000","坪林區"
"232019","705-BZ","2018/02/02 07:09:21","新北市坪林區九芎坑3-2號","121.729258333333","24.962715","6502000","坪林區"
"232008","758-BX","2018/02/02 07:09:26","新北市坪林區鶯子瀨3-7號","121.705985","24.9141933333333","6502000","坪林區"
"244004","248-BX","2018/02/02 07:09:27","新北市林口區頭湖83-18號","121.369631666667","25.0829283333333","6501700","林口區"
"222005","289-BY","2018/02/02 07:03:05","新北市深坑區萬福路36-1號","121.605356666667","25.0122683333333","6501800","深坑區"
"226005","5620-A6","2018/02/02 07:09:11","新北市平溪區菁桐里菁桐街83號","121.72558","25.023845","6502400","平溪區"
"226001","7418-A5","2018/02/02 07:09:16","新北市平溪區石底里石筍尖1號","121.736078333333","25.0256133333333","6502400","平溪區"
"226003","AGD-0702","2018/02/02 07:09:21","新北市平溪區菁桐里菁桐街50-1號","121.72334","25.0237933333333","6502400","平溪區"
"223006","022-BY","2018/02/02 07:09:15","新北市石碇區碇坪路一段172號","121.666593333333","24.9857333333333","6501900","石碇區"
"223001","205-TH","2018/02/02 07:09:27","新北市石碇區溪邊寮2-2號","121.657761666667","24.97709","6501900","石碇區"
"223008","406-TH","2018/02/02 07:09:24","新北市石碇區番子坑36號","121.67794","25.0101083333333","6501900","石碇區"
"223001","437-BY","2018/02/02 07:09:11","新北市石碇區溪邊寮2-2號","121.657693333333","24.9769416666667","6501900","石碇區"
"223007","592-UM","2018/02/02 07:09:11","新北市石碇區靜安路一段252號","121.677296666667","25.0107","6501900","石碇區"
"223004","660-BX","2018/02/02 07:09:16","新北市石碇區碇坪路一段2號","121.651603333333","25.0062033333333","6501900","石碇區"
"227005","282-VK","2018/02/02 07:09:22","新北市雙溪區新基里自強路5號","121.8663","25.0390866666667","6502500","雙溪區"
"236010","165-UM","2018/02/02 07:09:21","新北市土城區中華路二段257號","121.437626666667","24.9712333333333","6501300","土城區"
"236004","339-SR","2018/02/02 07:09:12","新北市土城區永平街51號","121.427803333333","24.9591933333333","6501300","土城區"
"220029","461-BY","2018/02/02 07:07:36","新北市板橋區國光路49巷2號","121.458053333333","25.01813","6500100","板橋區"
