"lineid","car","time","location","longitude","latitude","cityid","cityname"
"231007","189-VK","2018/11/16 11:09:28","新北市新店區華潭街26巷1弄1號","121.529368333333","24.95346","6500600","新店區"
"231009","192-VK","2018/11/16 11:09:29","新北市新店區頂石厝路72號","121.53536","24.9184433333333","6500600","新店區"
"235029","098-UM","2018/11/16 11:09:34","新北市中和區員山路36巷16-3號","121.485045","24.9911833333333","6500300","中和區"
"224007","275-VK","2018/11/16 10:48:32","新北市瑞芳區大寮路356-1號","121.784591666667","25.1032783333333","6501200","瑞芳區"
"227005","282-VK","2018/11/16 11:09:39","新北市雙溪區魚行里丁子蘭坑31-6號","121.847565","25.00462","6502500","雙溪區"
