"lineid","car","time","location","longitude","latitude","cityid","cityname"
"234044","148-BY","2018/11/16 14:18:13","新北市永和區永利路135號","121.524061666667","25.0033083333333","6500400","永和區"
"234005","207-UY","2018/11/16 14:17:55","新北市永和區中正路660-1號","121.516808333333","25.008735","6500400","永和區"
"234078","298-R6","2018/11/16 14:18:05","新北市永和區福和路19巷1弄1號","121.524225","25.0078533333333","6500400","永和區"
"234036","336-UY","2018/11/16 14:18:12","新北市永和區成功路一段50號","121.52692","25.004155","6500400","永和區"
"234062","337-UY","2018/11/16 14:18:12","新北市永和區得和路211號","121.519196666667","25.000185","6500400","永和區"
"234084","338-UY","2018/11/16 14:18:09","新北市永和區永和路二段207號","121.515518333333","25.0137116666667","6500400","永和區"
"234068","552-UM","2018/11/16 14:17:58","新北市永和區永利路21號","121.518003333333","25.00631","6500400","永和區"
"234015","745-BX","2018/11/16 14:18:07","新北市永和區文化路139號","121.511025","25.015885","6500400","永和區"
"234028","746-BX","2018/11/16 14:17:54","新北市永和區民權路49巷1號","121.520225","24.9972883333333","6500400","永和區"
"234052","KEA-2590","2018/11/16 14:18:05","新北市永和區永和路二段302號","121.516413333333","25.0158783333333","6500400","永和區"
"234012","KEA-2591","2018/11/16 14:18:09","新北市永和區保生路55號","121.504698333333","25.01067","6500400","永和區"
"234060","AAD-866","2018/11/16 14:18:05","新北市永和區安樂路194巷39弄8號","121.516301666667","25.0014716666667","6500400","永和區"
"234040","862-TW","2018/11/16 14:18:08","新北市中和區中安街166號","121.510838333333","25.0001083333333","6500400","永和區"
"234048","863-TW","2018/11/16 14:18:09","新北市永和區新生路25巷1弄1號","121.509323333333","25.0166083333333","6500400","永和區"
"234025","9371-KE","2018/11/16 14:18:03","新北市永和區安樂路144巷29號","121.515093333333","24.9997733333333","6500400","永和區"
"248019","225-UY","2018/11/16 13:58:41","新北市五股區凌雲路三段57號","121.425356666667","25.1250133333333","6501500","五股區"
"234076","969-R7","2018/11/16 14:18:02","新北市永和區民族街81巷58號","121.520008333333","24.9964733333333","6500400","永和區"
"234072","AAC-211","2018/11/16 14:17:55","新北市永和區竹林路119巷30弄6號","121.522403333333","25.0116116666667","6500400","永和區"
"234066","AAC-212","2018/11/16 14:18:05","新北市永和區保平路292巷46弄2號","121.507501666667","25.005355","6500400","永和區"
"234001","AAC-295","2018/11/16 14:18:04","新北市永和區中正路664號","121.516795","25.00883","6500400","永和區"
"244004","248-BX","2018/11/16 14:18:04","新北市林口區竹林路269號","121.389486666667","25.0810533333333","6501700","林口區"
"231002","002-UM","2018/11/16 14:17:53","新北市新店區中央六街1號","121.530598333333","24.9743766666667","6500600","新店區"
"231027","0293-UT","2018/11/16 14:18:09","新北市新店區光明街286巷15號","121.540895","24.96363","6500600","新店區"
"231028","046-UY","2018/11/16 14:17:56","新北市新店區安和路二段232號","121.516656666667","24.9774366666667","6500600","新店區"
"231001","047-UY","2018/11/16 14:18:08","新北市新店區中正路75巷71號","121.543246666667","24.9688533333333","6500600","新店區"
"231005","106-UY","2018/11/16 14:18:08","新北市新店區中興路三段195號","121.543926666667","24.981435","6500600","新店區"
"231022","108-UY","2018/11/16 14:17:58","新北市新店區新烏路二段198巷2弄2號","121.547701666667","24.917055","6500600","新店區"
"231032","110-UY","2018/11/16 14:18:08","新北市新店區碧潭路77巷1號","121.534756666667","24.957285","6500600","新店區"
"231012","187-VK","2018/11/16 14:18:09","新北市新店區五峰路61巷7號","121.54893","24.9695433333333","6500600","新店區"
"231023","KEA-2219","2018/11/16 14:18:00","新北市新店區光明街94號","121.538928333333","24.9604166666667","6500600","新店區"
"231003","268-BY","2018/11/16 14:18:17","新北市新店區中興路一段183號","121.543086666667","24.9648","6500600","新店區"
"231018","278-BY","2018/11/16 14:18:15","新北市新店區中央四街9號","121.52963","24.9738966666667","6500600","新店區"
"231016","AAD-862","2018/11/16 14:18:11","新北市新店區北宜路三段83-1號","121.577125","24.95181","6500600","新店區"
"231038","3712-VJ","2018/11/16 14:18:12","新北市新店區溪洲路65號","121.533291666667","24.9610033333333","6500600","新店區"
"231037","4716-K9","2018/11/16 14:18:01","新北市新店區安康路二段341巷4號","121.496775","24.9550233333333","6500600","新店區"
"231025","4715-K9","2018/11/16 14:17:58","新北市新店區民族路161號","121.537661666667","24.9767016666667","6500600","新店區"
"231036","512-UM","2018/11/16 14:18:05","新北市新店區安祥路109巷90弄64號","121.47626","24.9587616666667","6500600","新店區"
"231013","513-UM","2018/11/16 14:18:06","新北市新店區大豐路70號","121.539038333333","24.9794533333333","6500600","新店區"
"231034","616-UM","2018/11/16 14:18:08","新北市新店區車子路11號","121.503091666667","24.9520883333333","6500600","新店區"
"231030","618-UM","2018/11/16 14:18:02","新北市新店區安民街65巷21-2號","121.515176666667","24.9674316666667","6500600","新店區"
"231035","719-UM","2018/11/16 14:18:09","新北市新店區安民街156巷33號","121.517983333333","24.9700616666667","6500600","新店區"
"231029","897-TW","2018/11/16 14:18:03","新北市新店區安康路二段161號","121.510165","24.9593083333333","6500600","新店區"
"231006","898-TW","2018/11/16 14:17:58","新北市新店區北宜路二段599號","121.568256666667","24.9553616666667","6500600","新店區"
"231004","899-TW","2018/11/16 14:18:15","新北市新店區中正路205號","121.54023","24.972625","6500600","新店區"
"231024","AKT-0513","2018/11/16 14:18:06","新北市新店區安民街121巷19號","121.515161666667","24.96857","6500600","新店區"
"235030","003-UY","2018/11/16 14:18:13","新北市中和區中和路106號","121.502883333333","24.9997566666667","6500300","中和區"
"235028","005-UY","2018/11/16 14:18:06","新北市中和區中和路139號","121.501956666667","24.9997616666667","6500300","中和區"
"235027","006-UY","2018/11/16 14:18:16","新北市中和區連城路219巷6號","121.494563333333","24.9972383333333","6500300","中和區"
"235020","096-UM","2018/11/16 14:18:10","新北市中和區員山路527號","121.479696666667","25.0069016666667","6500300","中和區"
"235003","097-UM","2018/11/16 14:18:14","新北市中和區秀峰街101號","121.520741666667","24.990285","6500300","中和區"
"235029","098-UM","2018/11/16 14:17:55","新北市中和區中山路二段2巷45弄7號","121.502198333333","25.006465","6500300","中和區"
"235022","151-BY","2018/11/16 14:18:08","新北市中和區連城路346-1號","121.482475","24.9956266666667","6500300","中和區"
"235019","183-VK","2018/11/16 14:18:09","新北市中和區中山路三段181巷10號","121.472893333333","25.0057433333333","6500300","中和區"
"235002","185-VK","2018/11/16 14:17:58","新北市中和區大仁街108號","121.520616666667","24.9928883333333","6500300","中和區"
"235013","186-VK","2018/11/16 14:17:59","新北市中和區景新街228-6號","121.508145","24.9941666666667","6500300","中和區"
"235031","255-BX","2018/11/16 14:18:00","新北市中和區新生街150號","121.483588333333","25.0006583333333","6500300","中和區"
"235008","293-VK","2018/11/16 14:18:07","新北市中和區中興街266巷1號","121.498455","24.987585","6500300","中和區"
"235036","301-VK","2018/11/16 14:17:59","新北市中和區莊敬路33巷20號","121.500091666667","25.005395","6500300","中和區"
"235007","352-BY","2018/11/16 14:17:56","新北市中和區景平路157號","121.512866666667","24.99229","6500300","中和區"
"235006","KEA-2878","2018/11/16 14:17:57","新北市中和區安樂路143巷2弄5號","121.514035","24.997755","6500300","中和區"
"247011","KEA-2869","2018/11/16 14:18:05","新北市蘆洲區民權路40號","121.476136666667","25.08649","6501400","蘆洲區"
"235014","4979-A6","2018/11/16 14:18:04","新北市中和區景安路208巷15號","121.503251666667","24.991345","6500300","中和區"
"235033","4980-A6","2018/11/16 14:18:12","新北市中和區福美路269號","121.498116666667","25.004985","6500300","中和區"
"235034","558-UM","2018/11/16 14:18:04","新北市中和區中山路二段226號","121.49915","25.00277","6500300","中和區"
"235009","565-BX","2018/11/16 14:18:13","新北市中和區景新街383巷49號","121.513485","24.99066","6500300","中和區"
"235018","640-BX","2018/11/16 14:18:06","新北市中和區國光街112巷11弄2號","121.469626666667","25.001715","6500300","中和區"
"235024","647-TV","2018/11/16 14:18:06","新北市中和區新生街114巷37弄2號","121.482265","25.002165","6500300","中和區"
"235011","732-UM","2018/11/16 14:18:07","新北市中和區景平路241巷64弄8號","121.50767","24.9926466666667","6500300","中和區"
"235010","733-UM","2018/11/16 14:18:05","新北市中和區華新街98號","121.508573333333","24.9829366666667","6500300","中和區"
"235035","783-BX","2018/11/16 14:18:07","新北市中和區連城路358號","121.482043333333","24.9954366666667","6500300","中和區"
"235026","800-TS","2018/11/16 14:18:04","新北市中和區中山路二段392號","121.490301666667","25.00354","6500300","中和區"
"235021","801-TS","2018/11/16 14:18:17","新北市中和區員山路423巷18號","121.480226666667","25.0027166666667","6500300","中和區"
"235016","805-TS","2018/11/16 14:18:01","新北市中和區興南路二段116號","121.504778333333","24.9838633333333","6500300","中和區"
"235012","896-TW","2018/11/16 14:18:07","新北市中和區華新街109巷1-3號","121.509056666667","24.9822916666667","6500300","中和區"
"235017","900-TW","2018/11/16 14:18:09","新北市中和區民德路212號","121.468265","24.9981833333333","6500300","中和區"
"235015","157-BY","2018/11/16 14:17:56","新北市中和區景平路239巷59弄19號","121.508895","24.9916716666667","6500300","中和區"
"235001","AAC-213","2018/11/16 14:17:57","新北市中和區秀朗路三段10巷37弄15號","121.524041666667","24.99553","6500300","中和區"
"235023","AAC-215","2018/11/16 14:18:12","新北市中和區圓通路252巷5弄38號","121.492228333333","24.9915683333333","6500300","中和區"
"220016","013-TV","2018/11/16 14:18:00","新北市板橋區林森街1巷33-3號","121.482836666667","25.0244216666667","6500100","板橋區"
"220013","072-UY","2018/11/16 14:18:05","新北市板橋區國泰街76巷24號","121.467255","25.0070066666667","6500100","板橋區"
"220034","073-UY","2018/11/16 14:17:58","新北市板橋區中正路273號","121.455626666667","25.01888","6500100","板橋區"
"220105","075-UY","2018/11/16 14:18:10","新北市板橋區長江路二段313號","121.471071666667","25.0333616666667","6500100","板橋區"
"220017","AAD-861","2018/11/16 14:18:07","新北市板橋區華興街29號","121.458438333333","25.0044666666667","6500100","板橋區"
"247001","893-R6","2018/11/16 14:18:16","新北市蘆洲區永樂街83號","121.45577","25.088695","6501400","蘆洲區"
"247015","546-UM","2018/11/16 14:18:09","新北市蘆洲區中正路185巷23弄26號","121.467536666667","25.083925","6501400","蘆洲區"
"247023","500-BY","2018/11/16 14:18:08","新北市蘆洲區長榮路675號","121.460348333333","25.09185","6501400","蘆洲區"
"247013","339-TH","2018/11/16 14:18:09","新北市蘆洲區成功路97號","121.472968333333","25.0813966666667","6501400","蘆洲區"
"247005","337-TH","2018/11/16 14:17:57","新北市蘆洲區長安街22巷41-3號","121.465141666667","25.0804433333333","6501400","蘆洲區"
"247019","057-VK","2018/11/16 14:18:04","新北市蘆洲區民族路426巷8號","121.473793333333","25.0921083333333","6501400","蘆洲區"
"247009","056-VK","2018/11/16 14:18:00","新北市蘆洲區鷺江街38號","121.47746","25.08303","6501400","蘆洲區"
"247007","053-VK","2018/11/16 14:17:57","新北市蘆洲區信義路32號","121.474536666667","25.079265","6501400","蘆洲區"
"247017","007-UY","2018/11/16 14:18:15","新北市蘆洲區民權路148號","121.472633333333","25.0893466666667","6501400","蘆洲區"
"247003","002-UY","2018/11/16 14:18:14","新北市蘆洲區中原路12巷24號","121.460835","25.0839883333333","6501400","蘆洲區"
"247021","001-UY","2018/11/16 14:18:09","新北市蘆洲區中正路434巷8-2號","121.463515","25.0947983333333","6501400","蘆洲區"
"235005","251-BX","2018/11/16 14:18:13","新北市中和區安平路101號","121.511468333333","24.99729","6500300","中和區"
"207002","749-BX","2018/11/16 14:18:13","新北市萬里區溪底里溪底路21號","121.611971666667","25.1483666666667","6502800","萬里區"
"207001","662-BX","2018/11/16 14:17:58","新北市萬里區磺潭里清水18號","121.637883333333","25.19764","6502800","萬里區"
"236067","105-UM","2018/11/16 14:18:13","新北市土城區明德路一段191號","121.463873333333","24.9790116666667","6501300","土城區"
"236040","KED-0685","2018/11/16 14:18:10","新北市土城區裕生路21巷1弄2號","121.448768333333","24.9871283333333","6501300","土城區"
"236077","166-UM","2018/11/16 14:18:05","新北市土城區中央路四段2-3號","121.426125","24.9632716666667","6501300","土城區"
"236029","253-BX","2018/11/16 14:18:14","新北市土城區順風路28號","121.440308333333","24.97697","6501300","土城區"
"236024","269-VK","2018/11/16 14:18:01","新北市土城區承天路18號","121.43951","24.963445","6501300","土城區"
"236013","270-VK","2018/11/16 14:17:56","新北市土城區青雲路39巷7號","121.460366666667","24.9875833333333","6501300","土城區"
"236032","271-VK","2018/11/16 14:18:08","新北市土城區青雲路483巷1號","121.459301666667","24.9738016666667","6501300","土城區"
"236016","401-BY","2018/11/16 14:18:16","新北市土城區金城路二段266號","121.458108333333","24.9840166666667","6501300","土城區"
"236057","752-BX","2018/11/16 14:18:05","新北市土城區中央路四段450號","121.410533333333","24.9512666666667","6501300","土城區"
"236045","913-UM","2018/11/16 14:17:59","新北市土城區明德路一段365-1號","121.45356","24.9790283333333","6501300","土城區"
"236060","915-UM","2018/11/16 14:18:11","新北市土城區延壽路44巷15號","121.47152","24.9930616666667","6501300","土城區"
"236054","AAC-216","2018/11/16 14:17:54","新北市土城區中華路二段90號","121.438291666667","24.9749066666667","6501300","土城區"
"221010","269-BY","2018/11/16 14:17:58","新北市汐止區長青路210巷188號","121.616266666667","25.1132866666667","6501100","汐止區"
"221012","278-VK","2018/11/16 14:18:10","新北市新店區薏仁坑路6-3號","121.499525","24.9587733333333","6501100","汐止區"
"221033","647-BX","2018/11/16 14:18:04","新北市汐止區民權街二段111號","121.618738333333","25.0469433333333","6501100","汐止區"
"221002","707-TV","2018/11/16 14:18:05","新北市新店區安一路一段1-1號","121.51957","24.96138","6501100","汐止區"
"220027","145-BY","2018/11/16 14:18:10","新北市板橋區民權路202巷26號","121.460688333333","25.017245","6500100","板橋區"
"220028","200-UY","2018/11/16 14:18:14","新北市板橋區大觀路二段3巷25號","121.448186666667","25.0036666666667","6500100","板橋區"
"220004","276-BY","2018/11/16 14:18:00","新北市板橋區干城路2-1號","121.459378333333","24.9942733333333","6500100","板橋區"
"220020","277-BY","2018/11/16 14:18:04","新北市板橋區篤行路二段151巷8號","121.430221666667","24.9876","6500100","板橋區"
"220050","280-UM","2018/11/16 14:18:06","新北市板橋區莊敬路6號","121.473898333333","25.0282683333333","6500100","板橋區"
"220012","282-UM","2018/11/16 14:18:11","新北市板橋區縣民大道二段3號","121.46263","25.01221","6500100","板橋區"
"220019","283-VK","2018/11/16 14:17:58","新北市板橋區忠孝路48巷9弄28號","121.462113333333","25.0001633333333","6500100","板橋區"
"220043","285-UM","2018/11/16 14:18:03","新北市板橋區吳鳳路82號","121.466891666667","25.03142","6500100","板橋區"
"220001","285-VK","2018/11/16 14:18:12","新北市板橋區富山街5號","121.478651666667","25.021625","6500100","板橋區"
"220029","287-VK","2018/11/16 14:18:11","新北市板橋區南雅西路一段110號","121.452523333333","25.005785","6500100","板橋區"
"220039","288-VK","2018/11/16 14:18:08","新北市板橋區長江路一段106巷12弄6號","121.459786666667","25.0289816666667","6500100","板橋區"
"220009","295-UM","2018/11/16 14:18:04","新北市板橋區成功路6巷53號","121.476498333333","25.0178566666667","6500100","板橋區"
"220032","296-UM","2018/11/16 14:18:14","新北市板橋區滿平街136巷10弄12號","121.427286666667","24.9873933333333","6500100","板橋區"
"220023","303-R5","2018/11/16 14:18:08","新北市板橋區南雅西路一段10巷20號","121.454531666667","25.00495","6500100","板橋區"
"220010","305-R5","2018/11/16 14:18:02","新北市板橋區三民路二段153巷30弄35號","121.481225","25.0145583333333","6500100","板橋區"
"220041","307-R5","2018/11/16 14:18:08","新北市板橋區光武街65號","121.467316666667","25.025915","6500100","板橋區"
"220047","317-R6","2018/11/16 14:18:13","新北市板橋區四維路266巷2弄25-1號","121.464088333333","25.0280883333333","6500100","板橋區"
"220038","487-VK","2018/11/16 14:17:58","新北市板橋區文化路二段4號","121.46868","25.0239183333333","6500100","板橋區"
"220104","560-BX","2018/11/16 14:18:05","新北市板橋區中正路399巷30-8號","121.45284","25.0232333333333","6500100","板橋區"
"220052","561-BX","2018/11/16 14:18:10","新北市板橋區介壽街40號","121.468391666667","25.0197566666667","6500100","板橋區"
"220031","568-UM","2018/11/16 14:18:02","新北市板橋區龍興街73巷29號","121.442643333333","25.0025866666667","6500100","板橋區"
"220011","609-BX","2018/11/16 14:17:55","新北市板橋區三民路二段228號","121.478746666667","25.01146","6500100","板橋區"
"220040","637-BX","2018/11/16 14:18:09","新北市板橋區文聖街211號","121.48012","25.0260666666667","6500100","板橋區"
"220005","686-BX","2018/11/16 14:18:03","新北市板橋區國慶路184號","121.462923333333","24.9963333333333","6500100","板橋區"
"220025","687-BX","2018/11/16 14:18:07","新北市板橋區大觀路一段26號","121.45006","25.0085533333333","6500100","板橋區"
"220042","689-BX","2018/11/16 14:18:08","新北市板橋區新海路54號","121.46207","25.0214016666667","6500100","板橋區"
"220002","741-BX","2018/11/16 14:17:59","新北市板橋區光明街59號","121.461755","25.002785","6500100","板橋區"
"220018","806-UM","2018/11/16 14:17:58","新北市板橋區忠孝路20號","121.459951666667","25.0017483333333","6500100","板橋區"
"220003","827-TW","2018/11/16 14:17:58","新北市板橋區民族路53號","121.463775","25.009365","6500100","板橋區"
"220014","829-TW","2018/11/16 14:18:13","新北市板橋區長安街263號","121.473815","25.011435","6500100","板橋區"
"220051","830-TW","2018/11/16 14:18:13","新北市板橋區文聖街207號","121.479681666667","25.0264","6500100","板橋區"
"220045","831-TW","2018/11/16 14:18:14","新北市板橋區大同街26巷35號","121.478528333333","25.02629","6500100","板橋區"
"220037","833-TW","2018/11/16 14:17:58","新北市板橋區文化路二段182巷3弄66號","121.472631666667","25.028695","6500100","板橋區"
"220022","895-R6","2018/11/16 14:18:14","新北市板橋區後菜園街1號","121.457895","25.0102816666667","6500100","板橋區"
"220021","985-R7","2018/11/16 14:18:01","新北市板橋區中正路366號","121.454343333333","25.0240733333333","6500100","板橋區"
"220046","AAC-210","2018/11/16 14:18:11","新北市板橋區幸福路60巷61號","121.460206666667","25.0216416666667","6500100","板橋區"
"220030","AAC-253","2018/11/16 14:18:10","新北市板橋區篤行路三段玉平巷76弄7號","121.427375","24.9857366666667","6500100","板橋區"
"235032","KEA-2873","2018/11/16 14:18:07","新北市中和區枋寮街3號","121.502171666667","25.0000683333333","6500300","中和區"
"235025","KEA-2875","2018/11/16 14:18:04","新北市中和區員山路261號","121.481313333333","24.9990766666667","6500300","中和區"
