"lineid","car","time","location","longitude","latitude","cityid","cityname"
"234005","207-UY","2018/11/16 15:07:55","新北市永和區福和路1號","121.526141666667","25.009645","6500400","永和區"
"234025","9371-KE","2018/11/16 15:08:03","新北市永和區保生路55-1號","121.504521666667","25.0109183333333","6500400","永和區"
"244004","248-BX","2018/11/16 15:08:04","新北市林口區竹林路266號","121.389675","25.0807666666667","6501700","林口區"
"231002","002-UM","2018/11/16 15:08:13","新北市新店區中正路527號","121.5335","24.9855883333333","6500600","新店區"
"231028","046-UY","2018/11/16 15:07:56","新北市新店區僑仁路2號","121.499568333333","24.9516416666667","6500600","新店區"
"231001","047-UY","2018/11/16 15:08:08","新北市新店區中正路255號","121.538898333333","24.9735133333333","6500600","新店區"
"231005","106-UY","2018/11/16 15:08:08","新北市新店區北新路三段147-2號","121.541225","24.9835233333333","6500600","新店區"
"231022","108-UY","2018/11/16 15:07:58","新北市新店區永福路54號","121.558113333333","24.928705","6500600","新店區"
"231032","110-UY","2018/11/16 15:08:08","新北市新店區安泰路60巷134弄104號","121.483643333333","24.9434433333333","6500600","新店區"
"231012","187-VK","2018/11/16 15:08:03","新北市新店區寶元路一段65號","121.54226","24.9858083333333","6500600","新店區"
"231023","KEA-2219","2018/11/16 15:08:00","新北市新店區檳榔路105號","121.544656666667","24.9617083333333","6500600","新店區"
"231026","256-BX","2018/11/16 15:08:07","新北市新店區建興街9巷1號","121.539965","24.976355","6500600","新店區"
"231003","268-BY","2018/11/16 15:08:06","新北市新店區中興路二段228號","121.547823333333","24.9751116666667","6500600","新店區"
"231018","278-BY","2018/11/16 15:08:15","新北市新店區溪園路459號","121.525143333333","24.977325","6500600","新店區"
"231016","AAD-862","2018/11/16 15:08:11","新北市新店區明山路5號","121.563225","24.9552683333333","6500600","新店區"
"231038","3712-VJ","2018/11/16 15:07:59","新北市新店區安華路28-1號","121.519618333333","24.9609316666667","6500600","新店區"
"231025","4715-K9","2018/11/16 15:07:58","新北市新店區中正路468-2號","121.533891666667","24.9799033333333","6500600","新店區"
"231036","512-UM","2018/11/16 15:08:05","新北市新店區安祥路102巷58號","121.485296666667","24.9643666666667","6500600","新店區"
"231034","616-UM","2018/11/16 15:08:08","新北市新店區玫瑰路4-1號","121.493581666667","24.9514366666667","6500600","新店區"
"231030","618-UM","2018/11/16 15:08:02","新北市新店區安民街341-1號","121.516676666667","24.9749316666667","6500600","新店區"
"231039","718-UY","2018/11/16 15:08:06","新北市新店區北新路三段102號","121.541986666667","24.9812116666667","6500600","新店區"
"231035","719-UM","2018/11/16 15:07:55","新北市新店區永安街56巷6號","121.518623333333","24.9863716666667","6500600","新店區"
"231029","897-TW","2018/11/16 15:08:03","新北市新店區安康路三段740號","121.473795","24.94199","6500600","新店區"
"231006","898-TW","2018/11/16 15:08:18","新北市新店區新坡一街18巷5弄23號","121.550736666667","24.9618683333333","6500600","新店區"
"231004","899-TW","2018/11/16 15:08:07","新北市新店區建國路12號","121.540006666667","24.9736333333333","6500600","新店區"
"231024","AKT-0513","2018/11/16 15:08:06","新北市新店區北新路一段303號","121.541328333333","24.9674633333333","6500600","新店區"
"235030","003-UY","2018/11/16 15:08:13","新北市中和區水源路102號","121.506","25.0035116666667","6500300","中和區"
"235004","150-BY","2018/11/16 15:08:14","新北市中和區保健路26巷21號","121.508635","24.99711","6500300","中和區"
"235036","301-VK","2018/11/16 15:07:59","新北市中和區板南路399巷2號","121.493563333333","24.9988783333333","6500300","中和區"
"235007","352-BY","2018/11/16 15:07:56","新北市中和區興南路二段159巷10號","121.505021666667","24.9831516666667","6500300","中和區"
"247011","KEA-2869","2018/11/16 15:08:05","新北市八里區商港路105巷15-1號","121.393208333333","25.1494666666667","6501400","蘆洲區"
"235014","4979-A6","2018/11/16 15:08:18","新北市中和區景新街323-3號","121.511353333333","24.9920983333333","6500300","中和區"
"235033","4980-A6","2018/11/16 15:08:12","新北市中和區景新街50巷8號","121.503421666667","24.998685","6500300","中和區"
"235034","558-UM","2018/11/16 15:08:04","新北市中和區中正路366號","121.493476666667","24.99416","6500300","中和區"
"235035","783-BX","2018/11/16 15:08:07","新北市中和區中板路47巷27號","121.482141666667","25.01078","6500300","中和區"
"235012","896-TW","2018/11/16 15:08:06","新北市中和區興南路二段10-3號","121.507803333333","24.9860683333333","6500300","中和區"
"235001","AAC-213","2018/11/16 15:08:17","新北市中和區立人街63號","121.520166666667","24.9942933333333","6500300","中和區"
"235023","AAC-215","2018/11/16 15:08:11","新北市中和區圓通路365號","121.491313333333","24.9895383333333","6500300","中和區"
"220016","013-TV","2018/11/16 15:07:59","新北市板橋區光復街215號","121.484735","25.021335","6500100","板橋區"
"220017","AAD-861","2018/11/16 15:08:07","新北市板橋區華東街262號","121.452606666667","25.000715","6500100","板橋區"
"207002","749-BX","2018/11/16 15:07:53","新北市萬里區崁腳里崁腳路23-3號","121.65311","25.1624183333333","6502800","萬里區"
"207001","662-BX","2018/11/16 15:07:58","新北市萬里區雙興里麗水路3-2號","121.653416666667","25.181745","6502800","萬里區"
"236067","105-UM","2018/11/16 15:08:13","新北市土城區學成路76巷1號","121.45122","24.98833","6501300","土城區"
"236040","KED-0685","2018/11/16 15:07:55","新北市土城區清水路85巷3弄1號","121.456146666667","24.9820833333333","6501300","土城區"
"236077","166-UM","2018/11/16 15:08:06","新北市土城區溪頭路131號","121.409711666667","24.9513283333333","6501300","土城區"
"236029","253-BX","2018/11/16 15:08:14","新北市土城區中央路二段80巷11弄2號","121.441308333333","24.9793316666667","6501300","土城區"
"236024","269-VK","2018/11/16 15:08:01","新北市土城區中央路二段236號","121.441961666667","24.9750516666667","6501300","土城區"
"236013","270-VK","2018/11/16 15:08:16","新北市土城區學府路一段37巷31號","121.45753","24.9875766666667","6501300","土城區"
"236032","271-VK","2018/11/16 15:08:08","新北市土城區國際路158巷54號","121.46793","24.9748516666667","6501300","土城區"
"236016","401-BY","2018/11/16 15:08:16","新北市土城區延峰街18號","121.468763333333","24.98622","6501300","土城區"
"236057","752-BX","2018/11/16 15:07:45","新北市土城區金城路一段141號","121.445353333333","24.9743016666667","6501300","土城區"
"236045","913-UM","2018/11/16 15:07:59","新北市土城區清水路165號","121.458883333333","24.981575","6501300","土城區"
"236060","915-UM","2018/11/16 15:08:11","新北市土城區延平街33巷12號","121.467411666667","24.99164","6501300","土城區"
"236054","AAC-216","2018/11/16 15:08:13","新北市土城區學府路一段276號","121.450208333333","24.98333","6501300","土城區"
"238018","571-TV","2018/11/16 14:56:03","新北市樹林區育德街78-1號","121.388075","24.968125","6500700","樹林區"
"221010","269-BY","2018/11/16 15:07:58","新北市汐止區汐萬路一段256巷3號","121.652053333333","25.07473","6501100","汐止區"
"221033","647-BX","2018/11/16 15:08:15","新北市汐止區汐萬路一段115巷1號","121.654521666667","25.0706316666667","6501100","汐止區"
"220020","277-BY","2018/11/16 15:07:59","新北市板橋區大觀路二段153巷46弄11號","121.448806666667","24.9985233333333","6500100","板橋區"
"220050","280-UM","2018/11/16 15:08:06","新北市板橋區雙十路二段47巷4弄24號","121.474935","25.02653","6500100","板橋區"
"220012","282-UM","2018/11/16 15:08:11","新北市板橋區長安街331巷57號","121.472891666667","25.01318","6500100","板橋區"
"220019","283-VK","2018/11/16 15:08:18","新北市板橋區華東街1-10號","121.44867","24.99506","6500100","板橋區"
"220043","285-UM","2018/11/16 15:08:03","新北市板橋區陽明街18號","121.466498333333","25.021725","6500100","板橋區"
"220029","287-VK","2018/11/16 15:08:11","新北市板橋區僑中二街52號","121.446656666667","25.0099966666667","6500100","板橋區"
"220009","295-UM","2018/11/16 15:08:10","新北市板橋區四川路一段268號","121.458746666667","25.00115","6500100","板橋區"
"220041","307-R5","2018/11/16 15:08:08","新北市板橋區文化路一段139號","121.461895","25.0156416666667","6500100","板橋區"
"220038","487-VK","2018/11/16 15:07:57","新北市板橋區互助街47號","121.461066666667","25.0265116666667","6500100","板橋區"
"220052","561-BX","2018/11/16 15:08:00","新北市板橋區英士路58巷26號","121.460731666667","25.0255916666667","6500100","板橋區"
"220031","568-UM","2018/11/16 15:08:01","新北市板橋區僑中二街102巷25-4號","121.445125","25.008385","6500100","板橋區"
"220011","609-BX","2018/11/16 15:08:03","新北市板橋區中山路二段88號","121.475215","25.016365","6500100","板橋區"
"220040","637-BX","2018/11/16 15:08:09","新北市板橋區文聖街151號","121.478546666667","25.0280233333333","6500100","板橋區"
"220025","687-BX","2018/11/16 15:08:02","新北市板橋區華東街1-10號","121.44834","24.9949616666667","6500100","板橋區"
"220042","689-BX","2018/11/16 15:08:07","新北市板橋區民生路三段319號","121.462715","25.0308916666667","6500100","板橋區"
"220018","806-UM","2018/11/16 15:08:18","新北市板橋區四川路二段245巷71號","121.45277","24.99198","6500100","板橋區"
"220003","827-TW","2018/11/16 15:07:57","新北市板橋區國慶路149巷38弄6號","121.46142","24.9981266666667","6500100","板橋區"
"220014","829-TW","2018/11/16 15:08:13","新北市板橋區中山路一段216巷6號","121.47092","25.012815","6500100","板橋區"
"220051","830-TW","2018/11/16 15:08:14","新北市板橋區民治街136號","121.477593333333","25.0309083333333","6500100","板橋區"
"220037","833-TW","2018/11/16 15:08:14","新北市板橋區懷德街105號","121.478436666667","25.0315266666667","6500100","板橋區"
"220046","AAC-210","2018/11/16 15:08:11","新北市板橋區復興街135號","121.461098333333","25.0180033333333","6500100","板橋區"
"220030","AAC-253","2018/11/16 15:08:14","新北市板橋區篤行路一段48號","121.43184","24.99356","6500100","板橋區"
