"lineid","car","time","location","longitude","latitude","cityid","cityname"
"249005","172-UM","2018/11/16 16:39:47","新北市八里區忠孝路351-1號","121.416875","25.1612233333333","6502300","八里區"
"249003","593-UM","2018/11/16 16:39:32","新北市八里區仁愛路10號","121.413278333333","25.1623433333333","6502300","八里區"
"231046","107-UY","2018/11/16 16:39:31","新北市新店區灣潭路15-2號","121.542326666667","24.9426433333333","6500600","新店區"
"241011","013-R5","2018/11/16 16:39:40","新北市三重區仁愛街53巷52號","121.497545","25.0721883333333","6500200","三重區"
"241028","022-UY","2018/11/16 16:39:39","新北市三重區重新路三段82號","121.493221666667","25.0608616666667","6500200","三重區"
"241008","059-VK","2018/11/16 16:39:29","新北市三重區永安北路一段27巷28號","121.477336666667","25.0756","6500200","三重區"
"241022","060-VK","2018/11/16 16:39:45","新北市三重區貴陽街25號","121.484301666667","25.061995","6500200","三重區"
"241031","061-VK","2018/11/16 16:39:44","新北市三重區重新路四段39號","121.488025","25.0579383333333","6500200","三重區"
"241015","062-VK","2018/11/16 16:39:50","新北市三重區文化北路41-2號","121.498913333333","25.0652866666667","6500200","三重區"
"241017","063-VK","2018/11/16 16:39:33","新北市三重區中正北路25巷9-1號","121.492763333333","25.0622916666667","6500200","三重區"
"241024","065-VK","2018/11/16 16:39:37","新北市三重區中正北路315巷6弄64號","121.476213333333","25.072565","6500200","三重區"
"241026","066-VK","2018/11/16 16:39:37","新北市三重區中央南路17號","121.501253333333","25.06257","6500200","三重區"
"241002","090-VK","2018/11/16 16:39:29","新北市三重區仁義街241巷18號","121.496741666667","25.082995","6500200","三重區"
"241003","091-VK","2018/11/16 16:39:35","新北市三重區五華街87巷38號","121.493113333333","25.0841366666667","6500200","三重區"
"241005","262-UM","2018/11/16 16:39:36","新北市三重區仁華街118巷51號","121.485851666667","25.0840766666667","6500200","三重區"
"241016","266-UM","2018/11/16 16:39:40","新北市三重區大智街17號","121.494521666667","25.0653116666667","6500200","三重區"
"241009","267-UM","2018/11/16 16:39:31","新北市三重區三和路四段203巷88號","121.484135","25.080075","6500200","三重區"
"241018","268-UM","2018/11/16 16:39:32","新北市三重區正義北路338巷50號","121.49312","25.0703033333333","6500200","三重區"
"241032","269-UM","2018/11/16 16:39:43","新北市三重區新北大道一段160號","121.483911666667","25.0613716666667","6500200","三重區"
"241013","270-UM","2018/11/16 16:39:42","新北市三重區三和路三段101巷130號","121.498243333333","25.0735966666667","6500200","三重區"
"241025","271-UM","2018/11/16 16:39:39","新北市三重區中正北路303號","121.47435","25.0713766666667","6500200","三重區"
"241007","398-BY","2018/11/16 16:39:46","新北市三重區三和路四段163巷83號","121.486178333333","25.0792916666667","6500200","三重區"
"241004","475-VK","2018/11/16 16:39:33","新北市三重區五福街18號","121.49271","25.0814566666667","6500200","三重區"
"241020","478-VK","2018/11/16 16:39:43","新北市三重區忠孝路二段34號","121.485791666667","25.0710683333333","6500200","三重區"
"241014","543-UM","2018/11/16 16:39:47","新北市三重區龍濱路32號","121.502875","25.0680966666667","6500200","三重區"
"241023","545-UM","2018/11/16 16:39:31","新北市三重區忠孝路三段50巷47號","121.482996666667","25.0644616666667","6500200","三重區"
"241001","547-UM","2018/11/16 16:39:29","新北市三重區仁政街84號","121.492505","25.0776783333333","6500200","三重區"
"241019","KEA-2593","2018/11/16 16:39:29","新北市三重區力行路一段67號","121.48725","25.06747","6500200","三重區"
"241006","AAD-863","2018/11/16 16:39:39","新北市三重區車路頭街136巷1號","121.483395","25.0754316666667","6500200","三重區"
"241030","743-BX","2018/11/16 16:31:52","新北市三重區環河南路261號","121.490366666667","25.0498133333333","6500200","三重區"
"241012","941-UM","2018/11/16 16:39:31","新北市三重區三和路三段101巷152號","121.498956666667","25.0738266666667","6500200","三重區"
"241029","942-UM","2018/11/16 16:39:35","新北市三重區集美街112巷31號","121.490283333333","25.0544266666667","6500200","三重區"
"241033","AAC-255","2018/11/16 16:39:49","新北市三重區五谷王北街50巷117號","121.473615","25.0510733333333","6500200","三重區"
"235054","640-BX","2018/11/16 16:39:46","新北市中和區員山路36巷16-3號","121.484945","24.99177","6500300","中和區"
"247016","546-UM","2018/11/16 16:39:29","新北市五股區凌雲路一段25號","121.452318333333","25.10005","6501400","蘆洲區"
"247010","056-VK","2018/11/16 16:39:27","新北市五股區中興路三段2巷10號","121.44918","25.0808283333333","6501400","蘆洲區"
"247008","053-VK","2018/11/16 16:39:43","新北市五股區中興路三段5號","121.449128333333","25.07981","6501400","蘆洲區"
"224008","285-BY","2018/11/16 16:39:47","新北市瑞芳區大寮路356-1號","121.784926666667","25.10331","6501200","瑞芳區"
"224007","275-VK","2018/11/16 16:39:33","新北市瑞芳區瑞竹路151號","121.760583333333","25.10416","6501200","瑞芳區"
"224009","273-VK","2018/11/16 16:39:37","新北市瑞芳區大寮路356-1號","121.784993333333","25.1032933333333","6501200","瑞芳區"
"224005","271-BY","2018/11/16 16:39:36","新北市瑞芳區籠山路10號","121.833","25.1262133333333","6501200","瑞芳區"
"227011","642-TC","2018/11/16 16:39:30","新北市雙溪區牡丹里中正路72號","121.864093333333","25.04455","6502500","雙溪區"
"227003","400-TW","2018/11/16 16:39:31","新北市雙溪區外柑里外柑腳58號","121.807928333333","25.01787","6502500","雙溪區"
"251008","180-VK","2018/11/16 16:39:36","台北市北投區中央北路四段30巷160號","121.474246666667","25.1406066666667","6501000","淡水區"
"251012","441-VK","2018/11/16 16:39:48","新北市淡水區中正路二段31號","121.419605","25.1814816666667","6501000","淡水區"
"252002","178-VK","2018/11/16 16:39:49","新北市三芝區晴光街1號","121.51046","25.2578416666667","6502100","三芝區"
"239007","AAC-297","2018/11/16 16:39:33","新北市鶯歌區二甲路13-16號","121.344978333333","24.9350916666667","6500800","鶯歌區"
