"lineid","car","time","location","longitude","latitude","cityid","cityname"
"249005","172-UM","2018/11/16 17:19:47","新北市五股區民義路二段129號","121.415423333333","25.1235716666667","6502300","八里區"
"249001","173-UM","2018/11/16 17:19:48","新北市八里區中華路二段165巷3號","121.407656666667","25.1508816666667","6502300","八里區"
"249004","303-UY","2018/11/16 17:19:39","新北市八里區賢三街18號","121.418743333333","25.1589166666667","6502300","八里區"
"249002","305-UY","2018/11/16 17:19:38","新北市八里區龍米路二段117巷30弄2號","121.44459","25.1426433333333","6502300","八里區"
"249003","593-UM","2018/11/16 17:19:32","新北市八里區中山路二段349號","121.399215","25.1472","6502300","八里區"
"234067","AAC-212","2018/11/16 17:19:35","新北市永和區福和路1號","121.52636","25.009665","6500400","永和區"
"244023","069-UM","2018/11/16 17:19:32","新北市林口區隆林街63號","121.387183333333","25.07545","6501700","林口區"
"244007","080-UY","2018/11/16 17:19:43","新北市林口區湖子18-3號","121.385425","25.0919633333333","6501700","林口區"
"244019","403-UM","2018/11/16 17:19:29","新北市林口區公園路225-3號","121.374446666667","25.0749216666667","6501700","林口區"
"244013","KEA-2802","2018/11/16 17:19:28","新北市林口區粉寮69號","121.404835","25.090835","6501700","林口區"
"244017","485-VK","2018/11/16 17:19:37","新北市林口區中山路37號","121.39493","25.0784483333333","6501700","林口區"
"244009","656-BX","2018/11/16 17:19:42","新北市林口區中湖40-3號","121.383195","25.0911516666667","6501700","林口區"
"244011","701-TV","2018/11/16 17:19:43","新北市林口區粉寮路一段105號","121.39788","25.0802916666667","6501700","林口區"
"244025","837-TS","2018/11/16 17:19:37","新北市林口區文化三路二段1-1號","121.372861666667","25.0783716666667","6501700","林口區"
"244021","838-TS","2018/11/16 17:19:28","新北市林口區粉寮路二段46-1號","121.403646666667","25.0871833333333","6501700","林口區"
"231046","107-UY","2018/11/16 17:19:31","新北市新店區直潭路92-1號","121.530898333333","24.937545","6500600","新店區"
"241011","013-R5","2018/11/16 17:19:40","新北市三重區河邊北街110巷54號","121.502508333333","25.0705033333333","6500200","三重區"
"241028","022-UY","2018/11/16 17:19:39","新北市三重區中正南路81號","121.494203333333","25.058515","6500200","三重區"
"241008","059-VK","2018/11/16 17:19:29","新北市三重區永福街72巷37號","121.480303333333","25.0762783333333","6500200","三重區"
"241022","060-VK","2018/11/16 17:19:45","新北市三重區重陽路二段34巷25號","121.486266666667","25.0634816666667","6500200","三重區"
"241015","062-VK","2018/11/16 17:19:49","新北市三重區長元街82-1號","121.501841666667","25.0662916666667","6500200","三重區"
"241017","063-VK","2018/11/16 17:19:33","新北市三重區大同北路44巷5號","121.49483","25.063","6500200","三重區"
"241024","065-VK","2018/11/16 17:19:37","新北市三重區中正北路193巷13號","121.476928333333","25.0701983333333","6500200","三重區"
"241026","066-VK","2018/11/16 17:19:37","新北市三重區正義南路67號","121.498345","25.0601033333333","6500200","三重區"
"241002","090-VK","2018/11/16 17:19:29","新北市三重區仁義街381號","121.49466","25.0852516666667","6500200","三重區"
"241003","091-VK","2018/11/16 17:19:35","新北市三重區富福街24號","121.490506666667","25.0835283333333","6500200","三重區"
"241005","262-UM","2018/11/16 17:19:36","新北市三重區永安北路二段25巷5號","121.482348333333","25.0817533333333","6500200","三重區"
"241016","266-UM","2018/11/16 17:19:40","新北市三重區大同北路91號","121.494613333333","25.0636416666667","6500200","三重區"
"241009","267-UM","2018/11/16 17:19:31","新北市三重區慈愛街48號","121.485793333333","25.079045","6500200","三重區"
"241018","268-UM","2018/11/16 17:19:32","新北市三重區安慶街201號","121.492923333333","25.068365","6500200","三重區"
"241032","269-UM","2018/11/16 17:19:40","新北市三重區中華路2巷15號","121.482661666667","25.0604516666667","6500200","三重區"
"241013","270-UM","2018/11/16 17:19:42","新北市三重區仁愛街96號","121.495471666667","25.07394","6500200","三重區"
"241025","271-UM","2018/11/16 17:19:39","新北市三重區中正北路413號","121.470806666667","25.0720766666667","6500200","三重區"
"241007","398-BY","2018/11/16 17:19:45","新北市三重區慈愛街7號","121.484945","25.0785666666667","6500200","三重區"
"241020","478-VK","2018/11/16 17:19:43","新北市三重區後竹圍街104號","121.489158333333","25.0725816666667","6500200","三重區"
"241014","543-UM","2018/11/16 17:19:47","新北市三重區三和路二段83號","121.50009","25.0684183333333","6500200","三重區"
"241023","545-UM","2018/11/16 17:19:51","新北市三重區三民街150號","121.48249","25.0654416666667","6500200","三重區"
"241019","KEA-2593","2018/11/16 17:19:49","新北市三重區自強路二段50巷1號","121.48863","25.0695833333333","6500200","三重區"
"241030","743-BX","2018/11/16 17:19:32","新北市三重區成功路73巷35號","121.490045","25.0528416666667","6500200","三重區"
"241012","941-UM","2018/11/16 17:19:31","新北市三重區仁昌街74號","121.498756666667","25.0747466666667","6500200","三重區"
"241029","942-UM","2018/11/16 17:19:35","新北市三重區重安街14號","121.490218333333","25.058175","6500200","三重區"
"241033","AAC-255","2018/11/16 17:19:49","新北市三重區中興北街207號","121.469008333333","25.0577866666667","6500200","三重區"
"235065","098-UM","2018/11/16 17:19:34","新北市中和區員山路36巷16-3號","121.485133333333","24.9911516666667","6500300","中和區"
"247012","KEA-2869","2018/11/16 17:19:36","新北市蘆洲區信義路319巷8號","121.477868333333","25.086245","6501400","蘆洲區"
"235054","640-BX","2018/11/16 16:58:06","新北市中和區員山路36巷16-3號","121.484846666667","24.99189","6500300","中和區"
"247002","893-R6","2018/11/16 17:19:44","新北市蘆洲區永樂街38巷37號","121.458135","25.0895016666667","6501400","蘆洲區"
"247016","546-UM","2018/11/16 17:19:49","新北市蘆洲區和平路188巷26號","121.467105","25.0819533333333","6501400","蘆洲區"
"247024","500-BY","2018/11/16 17:19:34","新北市蘆洲區長榮路378號","121.459696666667","25.0873016666667","6501400","蘆洲區"
"247014","339-TH","2018/11/16 17:19:43","新北市蘆洲區中正路83號","121.470113333333","25.0836216666667","6501400","蘆洲區"
"247006","337-TH","2018/11/16 17:19:38","新北市蘆洲區長安街73巷31號","121.461921666667","25.0790683333333","6501400","蘆洲區"
"247020","057-VK","2018/11/16 17:19:41","新北市蘆洲區仁愛街35巷12號","121.471528333333","25.0926383333333","6501400","蘆洲區"
"247010","056-VK","2018/11/16 17:19:47","新北市蘆洲區中山一路122巷41號","121.476515","25.0825","6501400","蘆洲區"
"247008","053-VK","2018/11/16 17:19:43","新北市蘆洲區信義路30巷154號","121.475433333333","25.0762783333333","6501400","蘆洲區"
"247018","007-UY","2018/11/16 17:19:35","新北市蘆洲區民權路82巷5弄12號","121.47475","25.08846","6501400","蘆洲區"
"247004","002-UY","2018/11/16 17:19:45","新北市蘆洲區永安南路二段286號","121.457623333333","25.0813516666667","6501400","蘆洲區"
"247022","001-UY","2018/11/16 17:19:31","新北市蘆洲區三民路128巷94號","121.46962","25.0902416666667","6501400","蘆洲區"
"228002","663-BX","2018/11/16 17:19:31","新北市貢寮區雙玉里下雙溪街24號","121.921341666667","25.00988","6502600","貢寮區"
"228001","670-TC","2018/11/16 17:19:31","新北市貢寮區仁理村尖山腳街18-3號","121.925491666667","25.0482833333333","6502600","貢寮區"
"228003","828-UM","2018/11/16 17:19:35","新北市貢寮區福隆里興隆街24-1號","121.944413333333","25.0166433333333","6502600","貢寮區"
"224006","676-BX","2018/11/16 17:19:39","新北市瑞芳區傑魚坑路314號","121.786773333333","25.1053316666667","6501200","瑞芳區"
"224008","285-BY","2018/11/16 17:19:46","新北市瑞芳區侯硐路53號","121.830356666667","25.0890366666667","6501200","瑞芳區"
"224009","273-VK","2018/11/16 17:19:37","新北市瑞芳區輕便路128號","121.84439","25.111955","6501200","瑞芳區"
"224005","271-BY","2018/11/16 17:19:36","新北市瑞芳區鼻頭路247號","121.91269","25.1240216666667","6501200","瑞芳區"
"227011","642-TC","2018/11/16 17:19:50","新北市雙溪區三貂里政光路3-1號","121.8512","25.063245","6502500","雙溪區"
"227003","400-TW","2018/11/16 17:19:31","新北市雙溪區上林里內平林66-1號","121.83133","25.0291466666667","6502500","雙溪區"
"251005","010-UM","2018/11/16 17:19:47","新北市淡水區鄧公路19-1號","121.450613333333","25.1700716666667","6501000","淡水區"
"251001","011-UM","2018/11/16 17:19:41","新北市淡水區中正東路二段81號","121.45927","25.1535216666667","6501000","淡水區"
"251002","012-UM","2018/11/16 17:19:32","新北市淡水區中正路二段31號","121.419433333333","25.1815883333333","6501000","淡水區"
"251008","180-VK","2018/11/16 17:19:37","新北市淡水區大同路251號","121.466318333333","25.1422483333333","6501000","淡水區"
"251010","413-VK","2018/11/16 17:19:43","新北市淡水區新民街一段119號","121.428111666667","25.1880033333333","6501000","淡水區"
"251012","441-VK","2018/11/16 17:19:48","新北市淡水區北新路40號","121.445438333333","25.1778833333333","6501000","淡水區"
"251007","442-VK","2018/11/16 17:19:32","新北市淡水區民生路60號","121.462105","25.137965","6501000","淡水區"
"251004","443-VK","2018/11/16 17:12:55","新北市淡水區中正東路二段88巷15號","121.45905","25.1504766666667","6501000","淡水區"
"251006","561-UM","2018/11/16 17:19:40","新北市淡水區中山路189號","121.441216666667","25.1744983333333","6501000","淡水區"
"251009","575-R6","2018/11/16 17:19:40","新北市淡水區建設街1號","121.439008333333","25.1719683333333","6501000","淡水區"
"251011","650-BX","2018/11/16 17:19:48","新北市淡水區坪頂路128號","121.465363333333","25.16132","6501000","淡水區"
"251003","673-BX","2018/11/16 17:19:47","新北市淡水區中正路二段31號","121.419153333333","25.18191","6501000","淡水區"
"207003","550-UM","2018/11/16 17:19:44","新北市萬里區萬里里獅頭路23號","121.693276666667","25.1782416666667","6502800","萬里區"
"252002","178-VK","2018/11/16 17:19:49","新北市三芝區忠孝街1-14號","121.505481666667","25.253925","6502100","三芝區"
"252001","292-VK","2018/11/16 17:19:45","新北市三芝區淡金路一段3號","121.498083333333","25.2596716666667","6502100","三芝區"
"242037","AAC-296","2018/11/16 17:19:38","新北市新莊區中正路481號","121.441278333333","25.03376","6500500","新莊區"
"242058","986-R7","2018/11/16 17:19:47","新北市新莊區中正路400號","121.441503333333","25.0338783333333","6500500","新莊區"
"242056","751-BX","2018/11/16 17:19:47","新北市新莊區新莊路771巷10號","121.441958333333","25.0318166666667","6500500","新莊區"
"242023","705-TV","2018/11/16 17:19:35","新北市新莊區新泰路486號","121.44261","25.0457533333333","6500500","新莊區"
"242027","615-BX","2018/11/16 17:19:49","新北市新莊區中港一街161號","121.447378333333","25.045025","6500500","新莊區"
"242025","613-BX","2018/11/16 17:19:44","新北市新莊區中平路82巷36-2號","121.446375","25.0449783333333","6500500","新莊區"
"242029","612-BX","2018/11/16 17:19:31","新北市新莊區幸福路765號","121.447098333333","25.0490116666667","6500500","新莊區"
"242044","566-BX","2018/11/16 17:19:40","新北市新莊區中正路481號","121.441236666667","25.033805","6500500","新莊區"
"242048","497-BY","2018/11/16 17:19:44","新北市新莊區富國路87號","121.420373333333","25.0259466666667","6500500","新莊區"
"242041","442-UM","2018/11/16 17:19:32","新北市新莊區新樹路113巷33號","121.439518333333","25.0264066666667","6500500","新莊區"
"242054","441-UM","2018/11/16 17:19:35","新北市新莊區新樹路52號","121.437293333333","25.02671","6500500","新莊區"
"242039","415-TV","2018/11/16 17:19:42","新北市新莊區民安路301號","121.429538333333","25.0225533333333","6500500","新莊區"
"242009","413-TV","2018/11/16 17:19:39","新北市新莊區新泰路421-6號","121.442683333333","25.045255","6500500","新莊區"
"242060","353-BY","2018/11/16 17:19:46","新北市新莊區中正路471號","121.441965","25.03361","6500500","新莊區"
"242011","132-UY","2018/11/16 17:19:37","新北市新莊區新泰路500號","121.442445","25.046","6500500","新莊區"
"242034","135-UY","2018/11/16 17:19:36","新北市新莊區中正路471號","121.442046666667","25.0335383333333","6500500","新莊區"
"242050","172-VK","2018/11/16 17:19:37","新北市新莊區瓊林南路75-2號","121.435048333333","25.01427","6500500","新莊區"
"242013","173-VK","2018/11/16 17:19:48","新北市新莊區三和路12-21號","121.441931666667","25.0387116666667","6500500","新莊區"
"242019","175-VK","2018/11/16 17:19:43","新北市新莊區中港路307號","121.452735","25.0446333333333","6500500","新莊區"
"242007","176-VK","2018/11/16 17:19:38","新北市新莊區中平路82巷36號","121.446248333333","25.0449116666667","6500500","新莊區"
"242017","346-TH","2018/11/16 17:19:34","新北市新莊區新泰路500號","121.442431666667","25.04595","6500500","新莊區"
"242032","348-TH","2018/11/16 17:19:41","新北市新莊區新泰路464號","121.443208333333","25.0449016666667","6500500","新莊區"
"242005","349-TH","2018/11/16 17:19:30","新北市新莊區復興路一段16號","121.445903333333","25.041555","6500500","新莊區"
"242021","350-TH","2018/11/16 17:19:43","新北市新莊區中港路313號","121.452718333333","25.0447666666667","6500500","新莊區"
"242015","351-TH","2018/11/16 17:19:46","新北市新莊區中環路二段392-1號","121.442401666667","25.0456833333333","6500500","新莊區"
"238015","755-BX","2018/11/16 17:19:36","新北市樹林區大安路267號","121.419041666667","24.9936566666667","6500700","樹林區"
"238023","601-UM","2018/11/16 17:19:48","新北市樹林區中正路433-2號","121.414998333333","25.00845","6500700","樹林區"
"238019","599-UM","2018/11/16 17:19:45","新北市樹林區太平路273巷23號","121.421173333333","24.9763333333333","6500700","樹林區"
"238018","571-TV","2018/11/16 17:19:38","新北市樹林區鎮前街269巷17號","121.420065","24.985285","6500700","樹林區"
"238024","5061-A6","2018/11/16 17:19:44","新北市樹林區樹新路81號","121.427646666667","24.995325","6500700","樹林區"
"238022","KEA-2213","2018/11/16 17:19:50","新北市樹林區仁愛街73巷3號","121.423461666667","24.9827816666667","6500700","樹林區"
"238021","KEA-2539","2018/11/16 17:19:41","新北市樹林區西圳街一段108號","121.399881666667","24.96391","6500700","樹林區"
"238025","303-VK","2018/11/16 17:19:47","新北市樹林區保安二街69號","121.42462","24.9949833333333","6500700","樹林區"
"238017","283-BY","2018/11/16 17:19:33","新北市樹林區光武街7-3號","121.415728333333","25.005335","6500700","樹林區"
"238014","282-BY","2018/11/16 17:19:42","新北市樹林區長壽街70巷31弄21號","121.42163","24.995085","6500700","樹林區"
"238026","172-UY","2018/11/16 17:19:44","新北市樹林區東大街144號","121.410013333333","24.975875","6500700","樹林區"
"238016","169-UY","2018/11/16 17:19:49","新北市樹林區中山路二段34號","121.417361666667","24.9849233333333","6500700","樹林區"
"239007","AAC-297","2018/11/16 17:19:33","新北市鶯歌區光復街5號","121.351711666667","24.9548683333333","6500800","鶯歌區"
"239006","891-R6","2018/11/16 17:19:34","新北市鶯歌區福昌街28號","121.332815","24.9609983333333","6500800","鶯歌區"
"239008","527-UM","2018/11/16 17:19:37","新北市鶯歌區鶯桃路182巷96弄17號","121.340658333333","24.9578966666667","6500800","鶯歌區"
"239005","526-UM","2018/11/16 17:19:36","新北市鶯歌區鶯桃路561號","121.330106666667","24.9682766666667","6500800","鶯歌區"
"239001","417-VK","2018/11/16 17:19:34","新北市鶯歌區尖山路246號","121.34252","24.9464266666667","6500800","鶯歌區"
"239003","360-BY","2018/11/16 17:19:32","新北市鶯歌區德昌二街55號","121.33336","24.9584316666667","6500800","鶯歌區"
"239002","359-BY","2018/11/16 17:19:38","新北市鶯歌區國慶街98號","121.350081666667","24.9544733333333","6500800","鶯歌區"
"239004","193-VK","2018/11/16 17:19:27","新北市鶯歌區文化路256巷15弄16號","121.352138333333","24.9472433333333","6500800","鶯歌區"
"242002","281-VK","2018/11/16 17:19:42","新北市新莊區瓊林路46-9號","121.447158333333","25.0290816666667","6500500","新莊區"
"242046","280-VK","2018/11/16 17:19:44","新北市新莊區中正路473-1號","121.441953333333","25.03321","6500500","新莊區"
