"lineid","car","time","location","longitude","latitude","cityid","cityname"
"234026","9371-KE","2018/11/16 17:39:14","新北市永和區中正路700號","121.516356666667","25.009925","6500400","永和區"
"249005","172-UM","2018/11/16 17:39:07","新北市八里區荖阡坑路34-1號","121.402726666667","25.1297166666667","6502300","八里區"
"249001","173-UM","2018/11/16 17:39:08","新北市八里區龍米路二段150號","121.435696666667","25.1568016666667","6502300","八里區"
"249004","303-UY","2018/11/16 17:39:19","新北市八里區大崁一街2號","121.420561666667","25.1578083333333","6502300","八里區"
"249002","305-UY","2018/11/16 17:38:58","新北市八里區頂寮二街121巷22號","121.446516666667","25.12808","6502300","八里區"
"249003","593-UM","2018/11/16 17:39:12","新北市八里區中山路二段123號","121.405333333333","25.1519133333333","6502300","八里區"
"234067","AAC-212","2018/11/16 17:39:14","新北市永和區福和路1號","121.526285","25.00966","6500400","永和區"
"232011","375-UM","2018/11/16 17:39:18","新北市坪林區北宜路八段103號","121.706095","24.934825","6502000","坪林區"
"244023","069-UM","2018/11/16 17:39:12","新北市林口區東明一街142巷8號","121.389893333333","25.0710383333333","6501700","林口區"
"244007","080-UY","2018/11/16 17:39:03","新北市林口區林口路194號","121.38729","25.0830733333333","6501700","林口區"
"244019","403-UM","2018/11/16 17:39:09","新北市林口區忠孝路531巷21號","121.372301666667","25.069555","6501700","林口區"
"244013","KEA-2802","2018/11/16 17:39:08","新北市林口區中山路303號","121.383828333333","25.080415","6501700","林口區"
"244017","485-VK","2018/11/16 17:39:17","新北市林口區忠孝路371-1號","121.36902","25.071825","6501700","林口區"
"244009","656-BX","2018/11/16 17:39:02","新北市林口區中北三街61號","121.384803333333","25.0855216666667","6501700","林口區"
"244011","701-TV","2018/11/16 17:39:03","新北市林口區佳林路146號","121.384211666667","25.0771433333333","6501700","林口區"
"244025","837-TS","2018/11/16 17:39:18","新北市林口區文化三路一段377-1號","121.365046666667","25.0735816666667","6501700","林口區"
"244021","838-TS","2018/11/16 17:39:08","新北市林口區仁愛路一段167巷118號","121.397661666667","25.07331","6501700","林口區"
"222002","659-BX","2018/11/16 17:39:16","新北市深坑區深南路1號","121.622103333333","25.0049633333333","6501800","深坑區"
"231046","107-UY","2018/11/16 17:39:12","新北市新店區直潭路92號","121.530895","24.937615","6500600","新店區"
"241024","065-VK","2018/11/16 17:39:17","新北市三重區國道路一段58巷20號","121.481295","25.0720216666667","6500200","三重區"
"241005","262-UM","2018/11/16 17:39:16","新北市三重區碧華街1號","121.483501666667","25.0810583333333","6500200","三重區"
"241016","266-UM","2018/11/16 17:39:00","新北市三重區正義北路15號","121.49776","25.0629833333333","6500200","三重區"
"241007","398-BY","2018/11/16 17:39:05","新北市三重區自強路四段10號","121.488391666667","25.0761866666667","6500200","三重區"
"241014","543-UM","2018/11/16 17:39:07","新北市三重區長元街98巷21弄46號","121.503735","25.0679783333333","6500200","三重區"
"241012","941-UM","2018/11/16 17:39:11","新北市三重區龍濱路285號","121.50099","25.073405","6500200","三重區"
"241033","AAC-255","2018/11/16 17:39:09","新北市三重區興德路121號","121.470941666667","25.0529383333333","6500200","三重區"
"235065","098-UM","2018/11/16 17:39:15","新北市中和區員山路36巷16-3號","121.485035","24.99118","6500300","中和區"
"247012","KEA-2869","2018/11/16 17:39:16","新北市蘆洲區民權路33號","121.475973333333","25.086475","6501400","蘆洲區"
"235054","640-BX","2018/11/16 17:39:03","新北市中和區員山路36巷16-3號","121.48498","24.9917783333333","6500300","中和區"
"247002","893-R6","2018/11/16 17:39:04","新北市蘆洲區環堤大道214號","121.45768","25.0918483333333","6501400","蘆洲區"
"247016","546-UM","2018/11/16 17:39:09","新北市蘆洲區光華路110巷4號","121.467156666667","25.0829183333333","6501400","蘆洲區"
"247024","500-BY","2018/11/16 17:39:14","新北市蘆洲區長樂路125-1號","121.462233333333","25.0878983333333","6501400","蘆洲區"
"247014","339-TH","2018/11/16 17:39:03","新北市蘆洲區中正路20號","121.471385","25.082145","6501400","蘆洲區"
"247006","337-TH","2018/11/16 17:39:18","新北市蘆洲區長安街68巷10號","121.463118333333","25.0803916666667","6501400","蘆洲區"
"247020","057-VK","2018/11/16 17:39:00","新北市蘆洲區民族路341號","121.472718333333","25.0919433333333","6501400","蘆洲區"
"247010","056-VK","2018/11/16 17:39:07","新北市蘆洲區中山一路124-2號","121.477013333333","25.0815066666667","6501400","蘆洲區"
"247008","053-VK","2018/11/16 17:39:08","新北市蘆洲區民生街76號","121.472818333333","25.0790516666667","6501400","蘆洲區"
"247018","007-UY","2018/11/16 17:39:19","新北市蘆洲區民權路63號","121.473688333333","25.0881083333333","6501400","蘆洲區"
"247004","002-UY","2018/11/16 17:39:06","新北市蘆洲區長安街249巷11號","121.458531666667","25.0829733333333","6501400","蘆洲區"
"247022","001-UY","2018/11/16 17:39:10","新北市蘆洲區中正路198-1號","121.466891666667","25.0883833333333","6501400","蘆洲區"
"228002","663-BX","2018/11/16 17:39:11","新北市貢寮區福隆里龜壽谷街26號","121.95273","25.0081633333333","6502600","貢寮區"
"228001","670-TC","2018/11/16 17:39:11","新北市貢寮區真理里新港街26巷28-6號","121.927731666667","25.05542","6502600","貢寮區"
"228003","828-UM","2018/11/16 17:39:15","新北市貢寮區仁理村仁和路23號","121.923853333333","25.05362","6502600","貢寮區"
"224010","AGQ-8101","2018/11/16 17:39:10","新北市瑞芳區岳王路75號","121.807135","25.1117133333333","6501200","瑞芳區"
"224006","676-BX","2018/11/16 17:39:04","新北市瑞芳區傑魚坑路52號","121.79368","25.11055","6501200","瑞芳區"
"224008","285-BY","2018/11/16 17:39:13","新北市瑞芳區明燈路一段15號","121.824401666667","25.1075266666667","6501200","瑞芳區"
"224009","273-VK","2018/11/16 17:39:17","新北市瑞芳區石碑巷41號","121.841626666667","25.1083633333333","6501200","瑞芳區"
"224005","271-BY","2018/11/16 17:39:16","新北市瑞芳區海濱路8-6號","121.831585","25.12616","6501200","瑞芳區"
"227011","642-TC","2018/11/16 17:39:10","新北市雙溪區三貂里定福路1-2號","121.850756666667","25.0634816666667","6502500","雙溪區"
"251005","010-UM","2018/11/16 17:39:07","新北市淡水區鄧公路33巷7號","121.451725","25.17099","6501000","淡水區"
"251001","011-UM","2018/11/16 17:39:21","新北市淡水區民權路92巷35-1號","121.462081666667","25.126705","6501000","淡水區"
"251002","012-UM","2018/11/16 17:39:12","新北市淡水區清水街250號","121.440333333333","25.1722283333333","6501000","淡水區"
"251008","180-VK","2018/11/16 17:39:17","新北市淡水區八勢路30巷19號","121.462885","25.153655","6501000","淡水區"
"251010","413-VK","2018/11/16 17:39:03","新北市淡水區淡海路280巷97號","121.419616666667","25.1886333333333","6501000","淡水區"
"251012","441-VK","2018/11/16 17:39:08","新北市淡水區北新路200巷8號","121.451706666667","25.1796566666667","6501000","淡水區"
"251007","442-VK","2018/11/16 17:39:12","新北市淡水區民生路124巷26號","121.46411","25.1376566666667","6501000","淡水區"
"251004","443-VK","2018/11/16 17:38:59","新北市淡水區中正東路二段88巷37-28號","121.4593","25.14336","6501000","淡水區"
"251006","561-UM","2018/11/16 17:39:00","新北市淡水區大信街24巷2號","121.44192","25.17669","6501000","淡水區"
"251009","575-R6","2018/11/16 17:39:00","新北市淡水區中正路32號","121.44386","25.16919","6501000","淡水區"
"251011","650-BX","2018/11/16 17:39:08","新北市淡水區小坪頂20-1號","121.484566666667","25.1575616666667","6501000","淡水區"
"251003","673-BX","2018/11/16 17:39:07","新北市淡水區中山北路一段76號","121.442163333333","25.1759516666667","6501000","淡水區"
"207003","550-UM","2018/11/16 17:39:16","新北市萬里區龜吼里漁澳路6號","121.68626","25.1945383333333","6502800","萬里區"
"207004","225-TW","2018/11/16 17:39:01","新北市萬里區中幅里中福路26號","121.6817","25.1657116666667","6502800","萬里區"
"252002","178-VK","2018/11/16 17:39:09","新北市三芝區中正路二段11號","121.504508333333","25.2554383333333","6502100","三芝區"
"252001","292-VK","2018/11/16 17:39:05","新北市三芝區淡金路一段87號","121.502148333333","25.2590216666667","6502100","三芝區"
"237012","275-BY","2018/11/16 17:39:08","新北市三峽區中山路459巷163-1號","121.349296666667","24.93344","6500900","三峽區"
"237014","433-BY","2018/11/16 17:39:06","新北市三峽區中山路459巷163-3號","121.34868","24.9330466666667","6500900","三峽區"
"237015","649-BX","2018/11/16 17:39:15","新北市三峽區正義街57號","121.369216666667","24.918685","6500900","三峽區"
"237010","706-TV","2018/11/16 17:39:10","新北市三峽區中山路130號","121.365395","24.93603","6500900","三峽區"
"236079","166-UM","2018/11/16 17:39:04","新北市土城區中華路二段26號","121.439251666667","24.9784333333333","6501300","土城區"
"236030","253-BX","2018/11/16 17:39:07","新北市土城區城林路6巷80號","121.438696666667","24.9796566666667","6501300","土城區"
"236014","270-VK","2018/11/16 17:39:14","新北市土城區城林路6巷80號","121.438601666667","24.9795683333333","6501300","土城區"
"242037","AAC-296","2018/11/16 17:38:58","新北市新莊區後港一路138號","121.42974","25.0273033333333","6500500","新莊區"
"242058","986-R7","2018/11/16 17:39:07","新北市新莊區中正路671號","121.426591666667","25.0301016666667","6500500","新莊區"
"242056","751-BX","2018/11/16 17:39:07","新北市新莊區新莊路543巷9弄28號","121.448295","25.0318733333333","6500500","新莊區"
"242023","705-TV","2018/11/16 17:39:14","新北市新莊區中港路132巷22號","121.456296666667","25.0406166666667","6500500","新莊區"
"242027","615-BX","2018/11/16 17:39:10","新北市新莊區福壽街105號","121.457973333333","25.0507133333333","6500500","新莊區"
"242025","613-BX","2018/11/16 17:39:18","新北市新莊區思源路98號","121.460116666667","25.046055","6500500","新莊區"
"242029","612-BX","2018/11/16 17:39:11","新北市新莊區復興路一段145號","121.450286666667","25.043255","6500500","新莊區"
"242044","566-BX","2018/11/16 17:39:20","新北市新莊區富國路12號","121.418265","25.0263466666667","6500500","新莊區"
"242048","497-BY","2018/11/16 17:39:10","新北市新莊區萬安街115號","121.420766666667","25.0226366666667","6500500","新莊區"
"242041","442-UM","2018/11/16 17:39:12","新北市新莊區中正路514巷19號","121.433006666667","25.0330316666667","6500500","新莊區"
"242054","441-UM","2018/11/16 17:39:15","新北市新莊區新樹路701號","121.432318333333","25.002195","6500500","新莊區"
"242039","415-TV","2018/11/16 17:39:02","新北市新莊區民安路322號","121.428991666667","25.0219733333333","6500500","新莊區"
"242009","413-TV","2018/11/16 17:38:59","新北市新莊區昌明街14巷5弄2號","121.457353333333","25.0532166666667","6500500","新莊區"
"242060","353-BY","2018/11/16 17:39:06","新北市新莊區瓊林南路118-21號","121.433826666667","25.0109466666667","6500500","新莊區"
"242011","132-UY","2018/11/16 17:39:17","新北市新莊區中港路576號","121.451503333333","25.0533833333333","6500500","新莊區"
"242034","135-UY","2018/11/16 17:39:16","新北市新莊區新莊路546號","121.445213333333","25.0329283333333","6500500","新莊區"
"242050","172-VK","2018/11/16 17:39:17","新北市新莊區西盛街199-1號","121.428178333333","25.01703","6500500","新莊區"
"242013","173-VK","2018/11/16 17:39:08","新北市新莊區中誠街98號","121.449908333333","25.0477816666667","6500500","新莊區"
"242019","175-VK","2018/11/16 17:39:03","新北市新莊區中港路176號","121.454931666667","25.04189","6500500","新莊區"
"242007","176-VK","2018/11/16 17:39:17","新北市新莊區福樂街118巷5號","121.457255","25.0480333333333","6500500","新莊區"
"242017","346-TH","2018/11/16 17:39:15","新北市新莊區復興路一段149巷21弄1號","121.450231666667","25.04409","6500500","新莊區"
"242032","348-TH","2018/11/16 17:39:01","新北市新莊區新泰路338號","121.444848333333","25.0421283333333","6500500","新莊區"
"242005","349-TH","2018/11/16 17:39:10","新北市新莊區自立街200號","121.4567","25.045465","6500500","新莊區"
"242021","350-TH","2018/11/16 17:39:16","新北市新莊區中華路一段164號","121.452631666667","25.0416566666667","6500500","新莊區"
"242015","351-TH","2018/11/16 17:39:06","新北市新莊區新泰路300號","121.445445","25.0410016666667","6500500","新莊區"
"238015","755-BX","2018/11/16 17:39:16","新北市樹林區樹德街99號","121.420071666667","24.9923433333333","6500700","樹林區"
"238023","601-UM","2018/11/16 17:39:12","新北市樹林區三福街62號","121.40509","25.0162733333333","6500700","樹林區"
"238019","599-UM","2018/11/16 17:39:05","新北市樹林區太平路99號","121.419041666667","24.9812483333333","6500700","樹林區"
"238018","571-TV","2018/11/16 17:38:58","新北市樹林區鎮前街58號","121.425853333333","24.9926333333333","6500700","樹林區"
"238022","KEA-2213","2018/11/16 17:39:09","新北市樹林區中華路185-1號","121.420438333333","24.9816716666667","6500700","樹林區"
"238021","KEA-2539","2018/11/16 17:39:01","新北市樹林區柑園街一段271號","121.3942","24.9564283333333","6500700","樹林區"
"238025","303-VK","2018/11/16 17:39:16","新北市樹林區保安街三段71-3號","121.41264","25.0122","6500700","樹林區"
"238017","283-BY","2018/11/16 17:39:13","新北市樹林區中正路641號","121.413063333333","25.012075","6500700","樹林區"
"238014","282-BY","2018/11/16 17:39:03","新北市樹林區保安街一段313巷2號","121.41756","24.9977066666667","6500700","樹林區"
"238026","172-UY","2018/11/16 17:39:04","新北市樹林區新興街1巷2號","121.400223333333","24.974215","6500700","樹林區"
"238016","169-UY","2018/11/16 17:39:09","新北市樹林區育英街119-1號","121.41996","24.98929","6500700","樹林區"
"239007","AAC-297","2018/11/16 17:39:19","新北市鶯歌區鶯桃路182巷18號","121.337283333333","24.9559233333333","6500800","鶯歌區"
"239006","891-R6","2018/11/16 17:38:54","新北市鶯歌區永和街115巷1號","121.33356","24.968845","6500800","鶯歌區"
"239008","527-UM","2018/11/16 17:39:17","桃園市龜山區宏德司法新村4號","121.331103333333","24.9793283333333","6500800","鶯歌區"
"239005","526-UM","2018/11/16 17:39:16","新北市鶯歌區福隆二街14號","121.325323333333","24.9719616666667","6500800","鶯歌區"
"239001","417-VK","2018/11/16 17:39:14","新北市鶯歌區中正三路220號","121.331741666667","24.9376366666667","6500800","鶯歌區"
"239003","360-BY","2018/11/16 17:39:12","新北市鶯歌區鶯桃路188-2號","121.338223333333","24.9583933333333","6500800","鶯歌區"
"239002","359-BY","2018/11/16 17:39:18","新北市鶯歌區育德街51號","121.343751666667","24.9550933333333","6500800","鶯歌區"
"239004","193-VK","2018/11/16 17:39:07","新北市鶯歌區文化路511號","121.35286","24.9485033333333","6500800","鶯歌區"
"221008","489-VK","2018/11/16 17:39:16","新北市汐止區康寧街901號","121.651355","25.075095","6501100","汐止區"
"221010","269-BY","2018/11/16 17:39:14","新北市汐止區汐萬路一段418巷11號","121.649898333333","25.078875","6501100","汐止區"
"221032","280-BY","2018/11/16 17:39:12","新北市汐止區汐萬路一段256巷1號","121.651876666667","25.0747966666667","6501100","汐止區"
"221021","299-VK","2018/11/16 17:39:05","新北市汐止區汐萬路一段312號","121.650508333333","25.07541","6501100","汐止區"
"221031","353-TW","2018/11/16 17:39:00","新北市汐止區汐萬路一段256巷1號","121.65177","25.0748283333333","6501100","汐止區"
"221035","622-UM","2018/11/16 17:39:05","新北市汐止區汐萬路一段256巷1號","121.651915","25.07484","6501100","汐止區"
"221018","753-BX","2018/11/16 17:39:16","新北市汐止區汐萬路一段191號","121.652421666667","25.0717366666667","6501100","汐止區"
"242002","281-VK","2018/11/16 17:39:02","新北市新莊區新莊路266號","121.45182","25.033945","6500500","新莊區"
"242046","280-VK","2018/11/16 17:39:04","新北市新莊區中正路575號","121.43464","25.0323316666667","6500500","新莊區"
