"lineid","car","time","location","longitude","latitude","cityid","cityname"
"234026","9371-KE","2018/11/16 17:49:14","新北市永和區永平路168號","121.510746666667","25.00892","6500400","永和區"
"249005","172-UM","2018/11/16 17:49:07","新北市八里區荖阡坑路34-2號","121.402538333333","25.13064","6502300","八里區"
"249001","173-UM","2018/11/16 17:49:08","新北市八里區龍米路二段131號","121.445323333333","25.1474533333333","6502300","八里區"
"249004","303-UY","2018/11/16 17:49:19","新北市八里區中華路12-1號","121.416303333333","25.1541966666667","6502300","八里區"
"249002","305-UY","2018/11/16 17:49:18","新北市八里區龍形三街9巷2號","121.450613333333","25.131805","6502300","八里區"
"249003","593-UM","2018/11/16 17:49:12","新北市八里區中山路二段76號","121.408566666667","25.1559733333333","6502300","八里區"
"248008","095-VK","2018/11/16 17:49:16","新北市五股區中興路二段83巷26-6號","121.460126666667","25.07517","6501500","五股區"
"248004","677-BX","2018/11/16 17:49:20","新北市五股區中興路二段37巷28號","121.460123333333","25.0749816666667","6501500","五股區"
"234067","AAC-212","2018/11/16 17:42:42","新北市永和區福和路1號","121.526268333333","25.0096583333333","6500400","永和區"
"232011","375-UM","2018/11/16 17:49:18","新北市坪林區北宜路八段208號","121.708493333333","24.9347583333333","6502000","坪林區"
"244023","069-UM","2018/11/16 17:49:12","新北市林口區東湖路2號","121.389271666667","25.074125","6501700","林口區"
"244007","080-UY","2018/11/16 17:49:03","新北市林口區竹林路77號","121.388276666667","25.0792366666667","6501700","林口區"
"244019","403-UM","2018/11/16 17:49:09","新北市林口區忠孝路542巷10弄1號","121.372626666667","25.0669433333333","6501700","林口區"
"244013","KEA-2802","2018/11/16 17:49:08","新北市林口區中正路446號","121.383783333333","25.0777633333333","6501700","林口區"
"244017","485-VK","2018/11/16 17:49:17","新北市林口區文化二路一段260巷1-1號","121.371283333333","25.0733266666667","6501700","林口區"
"244009","656-BX","2018/11/16 17:49:02","新北市林口區竹林路582巷11號","121.38603","25.0832866666667","6501700","林口區"
"244011","701-TV","2018/11/16 17:49:03","新北市林口區竹林路35號","121.386841666667","25.0776966666667","6501700","林口區"
"244025","837-TS","2018/11/16 17:49:17","新北市林口區忠孝三路42號","121.360088333333","25.0699633333333","6501700","林口區"
"244021","838-TS","2018/11/16 17:49:08","新北市林口區新寮32號","121.400245","25.0659766666667","6501700","林口區"
"222003","436-BY","2018/11/16 17:49:13","新北市深坑區阿柔洋60-1號","121.608605","24.99851","6501800","深坑區"
"222002","659-BX","2018/11/16 17:49:16","新北市深坑區平埔街22巷8號","121.614935","25.0008866666667","6501800","深坑區"
"231046","107-UY","2018/11/16 17:49:12","新北市新店區康雅崙路70號","121.533546666667","24.9268266666667","6500600","新店區"
"231058","3713-VJ","2018/11/16 17:49:07","新北市新店區安華路28-1號","121.519268333333","24.9607383333333","6500600","新店區"
"241024","065-VK","2018/11/16 17:49:17","新北市三重區車路頭街53號","121.484033333333","25.07229","6500200","三重區"
"241005","262-UM","2018/11/16 17:49:16","新北市三重區仁愛街519號","121.487385","25.0822","6500200","三重區"
"241016","266-UM","2018/11/16 17:49:00","新北市三重區新北大道一段1號","121.491465","25.061375","6500200","三重區"
"241033","AAC-255","2018/11/16 17:49:09","新北市三重區光復路一段1號","121.472105","25.0468916666667","6500200","三重區"
"235063","006-UY","2018/11/16 17:49:08","新北市中和區員山路36巷16-3號","121.484861666667","24.9912066666667","6500300","中和區"
"235065","098-UM","2018/11/16 17:49:15","新北市中和區連城路469巷14號","121.483553333333","24.9953183333333","6500300","中和區"
"235058","151-BY","2018/11/16 17:49:18","新北市中和區員山路36巷16-2號","121.485181666667","24.991575","6500300","中和區"
"247012","KEA-2869","2018/11/16 17:49:16","新北市蘆洲區復興路126號","121.476516666667","25.0874233333333","6501400","蘆洲區"
"235054","640-BX","2018/11/16 17:49:03","新北市中和區員山路36巷16-3號","121.485","24.9918133333333","6500300","中和區"
"247002","893-R6","2018/11/16 17:49:10","新北市蘆洲區永平街32巷33弄24號","121.458495","25.092545","6501400","蘆洲區"
"247016","546-UM","2018/11/16 17:49:09","新北市蘆洲區中正路185巷68弄31號","121.466085","25.0855666666667","6501400","蘆洲區"
"247024","500-BY","2018/11/16 17:49:14","新北市蘆洲區長樂路231號","121.461791666667","25.089845","6501400","蘆洲區"
"247014","339-TH","2018/11/16 17:49:03","新北市蘆洲區保和街71號","121.469435","25.0860466666667","6501400","蘆洲區"
"247006","337-TH","2018/11/16 17:49:17","新北市蘆洲區九芎街90巷1弄2號","121.465575","25.08027","6501400","蘆洲區"
"247020","057-VK","2018/11/16 17:49:00","新北市蘆洲區民義街71巷31號","121.472063333333","25.0911183333333","6501400","蘆洲區"
"247010","056-VK","2018/11/16 17:49:07","新北市蘆洲區信義路259巷17號","121.478195","25.0844716666667","6501400","蘆洲區"
"247008","053-VK","2018/11/16 17:49:03","新北市蘆洲區中山一路243號","121.473288333333","25.0805633333333","6501400","蘆洲區"
"247018","007-UY","2018/11/16 17:49:15","新北市蘆洲區復興路227巷2弄8號","121.480345","25.090185","6501400","蘆洲區"
"247022","001-UY","2018/11/16 17:49:10","新北市蘆洲區中正路516巷12號","121.462618333333","25.0981333333333","6501400","蘆洲區"
"226004","205-ST","2018/11/16 17:49:14","新北市平溪區石底里公園街18-3號","121.733373333333","25.0256983333333","6502400","平溪區"
"228002","663-BX","2018/11/16 17:49:11","新北市貢寮區福隆里外隆林街16-4號","121.958046666667","25.0050066666667","6502600","貢寮區"
"228001","670-TC","2018/11/16 17:49:11","新北市貢寮區仁理村仁愛路95-1號","121.927658333333","25.0554266666667","6502600","貢寮區"
"228003","828-UM","2018/11/16 17:49:15","新北市貢寮區真理里美艷山街3-1號","121.926085","25.0595216666667","6502600","貢寮區"
"224006","676-BX","2018/11/16 17:48:59","新北市瑞芳區傑魚坑路183號","121.78843","25.10828","6501200","瑞芳區"
"224008","285-BY","2018/11/16 17:49:13","新北市瑞芳區明燈路一段183號","121.819101666667","25.1078266666667","6501200","瑞芳區"
"224009","273-VK","2018/11/16 17:48:57","新北市瑞芳區汽車路123號","121.839361666667","25.1103233333333","6501200","瑞芳區"
"224005","271-BY","2018/11/16 17:49:16","新北市瑞芳區瑞濱路20-1號","121.825871666667","25.1212","6501200","瑞芳區"
"227011","642-TC","2018/11/16 17:49:10","新北市雙溪區三貂里定福路1-2號","121.85073","25.063465","6502500","雙溪區"
"253006","032-BX","2018/11/16 17:49:09","新北市石門區中山路62-7號","121.56742","25.2902233333333","6502200","石門區"
"208002","KEA-2872","2018/11/16 17:49:14","新北市金山區磺清路135號","121.639373333333","25.2276716666667","6502700","金山區"
"208001","761-BX","2018/11/16 17:49:09","新北市金山區磺清路135號","121.639313333333","25.2276883333333","6502700","金山區"
"251005","010-UM","2018/11/16 17:49:07","新北市淡水區學府路102巷12號","121.450746666667","25.1717766666667","6501000","淡水區"
"251001","011-UM","2018/11/16 17:49:01","新北市淡水區民權路92巷35-1號","121.462101666667","25.1266983333333","6501000","淡水區"
"251002","012-UM","2018/11/16 17:49:12","新北市淡水區中山路31號","121.443903333333","25.1703633333333","6501000","淡水區"
"251008","180-VK","2018/11/16 17:49:17","新北市淡水區八勢路一段155號","121.467896666667","25.1564116666667","6501000","淡水區"
"251010","413-VK","2018/11/16 17:49:03","新北市淡水區淡海路280巷33弄34-2號","121.418741666667","25.1886233333333","6501000","淡水區"
"251012","441-VK","2018/11/16 17:49:08","新北市淡水區北新路一段3-1號","121.475405","25.1850533333333","6501000","淡水區"
"251007","442-VK","2018/11/16 17:49:12","新北市淡水區民生路16巷1號","121.460966666667","25.1375983333333","6501000","淡水區"
"251004","443-VK","2018/11/16 17:49:19","新北市淡水區民權一街17巷16號","121.45942","25.13661","6501000","淡水區"
"251006","561-UM","2018/11/16 17:49:00","新北市淡水區大信街1號","121.441443333333","25.1762216666667","6501000","淡水區"
"251009","575-R6","2018/11/16 17:49:06","新北市淡水區長興街55號","121.44422","25.1719366666667","6501000","淡水區"
"251011","650-BX","2018/11/16 17:46:56","新北市淡水區吳(仔)厝9-1號","121.479816666667","25.146655","6501000","淡水區"
"251003","673-BX","2018/11/16 17:49:07","新北市淡水區大忠街5巷1號","121.443081666667","25.1763533333333","6501000","淡水區"
"207003","550-UM","2018/11/16 17:49:04","新北市萬里區野柳里東澳路66號","121.6927","25.200925","6502800","萬里區"
"207004","225-TW","2018/11/16 17:49:21","新北市萬里區萬里里瑪鋉頂街61號","121.68837","25.1804766666667","6502800","萬里區"
"252002","178-VK","2018/11/16 17:49:09","新北市三芝區中山路一段88巷15號","121.502793333333","25.2567216666667","6502100","三芝區"
"252001","292-VK","2018/11/16 17:49:05","新北市三芝區中興街一段37號","121.49764","25.2578333333333","6502100","三芝區"
"237004","KEA-2597","2018/11/16 17:49:04","新北市三峽區中山路110號","121.365846666667","24.9357916666667","6500900","三峽區"
"237009","210-TH","2018/11/16 17:49:14","新北市三峽區大勇路3巷32號","121.367593333333","24.9367933333333","6500900","三峽區"
"237013","252-BX","2018/11/16 17:49:07","新北市三峽區愛國路33-9號","121.374571666667","24.932975","6500900","三峽區"
"237012","275-BY","2018/11/16 17:49:08","新北市三峽區文化路33號","121.372848333333","24.9361333333333","6500900","三峽區"
"237014","433-BY","2018/11/16 17:49:06","新北市三峽區和平街36巷13號","121.371166666667","24.9370283333333","6500900","三峽區"
"237006","5529-G3","2018/11/16 17:49:13","新北市三峽區介壽路二段42號","121.391321666667","24.935095","6500900","三峽區"
"237011","KEA-2596","2018/11/16 17:49:14","新北市三峽區文化路266-13號","121.366075","24.9356383333333","6500900","三峽區"
"237015","649-BX","2018/11/16 17:49:15","新北市三峽區白雞149-2號","121.400105","24.9055116666667","6500900","三峽區"
"237010","706-TV","2018/11/16 17:49:06","新北市三峽區文化路248號","121.367325","24.9358433333333","6500900","三峽區"
"237005","AKY-6261","2018/11/16 17:49:08","新北市三峽區中山路459巷90-1號","121.355085","24.9362033333333","6500900","三峽區"
"236069","105-UM","2018/11/16 17:49:12","新北市土城區城林路6巷80號","121.438508333333","24.979725","6501300","土城區"
"236042","KED-0685","2018/11/16 17:49:08","新北市土城區城林路6巷80號","121.438545","24.979735","6501300","土城區"
"236079","166-UM","2018/11/16 17:49:04","新北市土城區永寧路41號","121.43001","24.961905","6501300","土城區"
"236030","253-BX","2018/11/16 17:49:07","新北市土城區城林路6巷80號","121.438696666667","24.9796566666667","6501300","土城區"
"236026","269-VK","2018/11/16 17:49:16","新北市土城區城林路6巷80號","121.438423333333","24.9796233333333","6501300","土城區"
"236014","270-VK","2018/11/16 17:49:14","新北市土城區城林路6巷80號","121.438536666667","24.9796033333333","6501300","土城區"
"236039","271-VK","2018/11/16 17:49:15","新北市土城區城林路6巷80號","121.438491666667","24.97963","6501300","土城區"
"236020","401-BY","2018/11/16 17:49:16","新北市土城區城林路6巷80號","121.438781666667","24.979685","6501300","土城區"
"236059","752-BX","2018/11/16 17:49:16","新北市土城區中華路二段2號","121.439315","24.9796266666667","6501300","土城區"
"236048","913-UM","2018/11/16 17:49:09","新北市土城區城林路6巷80號","121.43863","24.979745","6501300","土城區"
"236063","915-UM","2018/11/16 17:49:11","新北市土城區城林路6巷80號","121.438521666667","24.979635","6501300","土城區"
"236055","AAC-216","2018/11/16 17:49:07","新北市土城區城林路6巷80號","121.438666666667","24.9796416666667","6501300","土城區"
"242037","AAC-296","2018/11/16 17:49:18","新北市新莊區後港一路74號","121.426926666667","25.0265433333333","6500500","新莊區"
"242058","986-R7","2018/11/16 17:49:07","新北市新莊區中正路700-22號","121.417905","25.026985","6500500","新莊區"
"242056","751-BX","2018/11/16 17:49:07","新北市新莊區瓊林路40巷34號","121.446575","25.0302266666667","6500500","新莊區"
"242023","705-TV","2018/11/16 17:49:14","新北市新莊區福樂街60號","121.457746666667","25.0461733333333","6500500","新莊區"
"242027","615-BX","2018/11/16 17:49:09","新北市新莊區福壽街173號","121.45803","25.05387","6500500","新莊區"
"242025","613-BX","2018/11/16 17:49:04","新北市三重區新北大道二段87號","121.46784","25.06143","6500500","新莊區"
"242029","612-BX","2018/11/16 17:49:11","新北市新莊區復興路一段4號","121.445596666667","25.041385","6500500","新莊區"
"242044","566-BX","2018/11/16 17:49:00","新北市新莊區中正路829巷22弄47號","121.420465","25.02654","6500500","新莊區"
"242048","497-BY","2018/11/16 17:49:04","新北市新莊區萬安街146巷1號","121.419791666667","25.0212133333333","6500500","新莊區"
"242041","442-UM","2018/11/16 17:49:12","新北市泰山區貴陽街29號","121.422291666667","25.0329483333333","6500500","新莊區"
"242054","441-UM","2018/11/16 17:49:17","新北市新莊區民安西路470-1號","121.431751666667","25.0078066666667","6500500","新莊區"
"242039","415-TV","2018/11/16 17:49:02","新北市新莊區民安路176號","121.42517","25.0239116666667","6500500","新莊區"
"242009","413-TV","2018/11/16 17:49:15","新北市新莊區昌明街48號","121.45604","25.0523","6500500","新莊區"
"242060","353-BY","2018/11/16 17:49:06","新北市新莊區新樹路595號","121.432978333333","25.0064316666667","6500500","新莊區"
"242011","132-UY","2018/11/16 17:49:17","新北市新莊區中港路721號","121.450421666667","25.05769","6500500","新莊區"
"242034","135-UY","2018/11/16 17:49:16","新北市新莊區新樹路6號","121.44055","25.0327566666667","6500500","新莊區"
"242050","172-VK","2018/11/16 17:49:17","新北市新莊區西盛街232巷20號","121.427273333333","25.0164483333333","6500500","新莊區"
"242013","173-VK","2018/11/16 17:49:08","新北市新莊區中誠街168號","121.448071666667","25.0476","6500500","新莊區"
"242019","175-VK","2018/11/16 17:49:18","新北市新莊區民樂街36號","121.457795","25.0410916666667","6500500","新莊區"
"242007","176-VK","2018/11/16 17:49:17","新北市新莊區福樂街156巷12弄3號","121.456358333333","25.04885","6500500","新莊區"
"242017","346-TH","2018/11/16 17:49:14","新北市新莊區中港路337號","121.452225","25.0454033333333","6500500","新莊區"
"242032","348-TH","2018/11/16 17:49:01","新北市新莊區新泰路357巷1弄41號","121.442701666667","25.03993","6500500","新莊區"
"242005","349-TH","2018/11/16 17:49:10","新北市新莊區福樂街40號","121.457763333333","25.0456766666667","6500500","新莊區"
"242021","350-TH","2018/11/16 17:49:03","新北市新莊區永寧街35巷1號","121.452861666667","25.0392033333333","6500500","新莊區"
"242015","351-TH","2018/11/16 17:49:17","新北市新莊區新泰路466號","121.443208333333","25.044945","6500500","新莊區"
"238015","755-BX","2018/11/16 17:49:16","新北市樹林區復興路141號","121.42126","24.99263","6500700","樹林區"
"238023","601-UM","2018/11/16 17:49:08","新北市樹林區龍興街32巷11號","121.402523333333","25.0156833333333","6500700","樹林區"
"238019","599-UM","2018/11/16 17:49:05","新北市樹林區太順街5巷1號","121.42017","24.980015","6500700","樹林區"
"238018","571-TV","2018/11/16 17:48:58","新北市樹林區博愛街139號","121.425785","24.9904766666667","6500700","樹林區"
"238022","KEA-2213","2018/11/16 17:49:09","新北市樹林區太順街62巷3弄22號","121.416821666667","24.9794416666667","6500700","樹林區"
"238021","KEA-2539","2018/11/16 17:49:01","新北市樹林區柑園街一段21巷1號","121.404816666667","24.9606066666667","6500700","樹林區"
"238025","303-VK","2018/11/16 17:49:16","新北市樹林區俊興街209-4號","121.417445","25.0141583333333","6500700","樹林區"
"238017","283-BY","2018/11/16 17:49:13","新北市樹林區俊德街51號","121.415431666667","25.0132616666667","6500700","樹林區"
"238014","282-BY","2018/11/16 17:49:02","新北市樹林區大安路145巷1號","121.42228","24.9966916666667","6500700","樹林區"
"238026","172-UY","2018/11/16 17:49:04","新北市樹林區新興街19巷34弄8號","121.402095","24.9732266666667","6500700","樹林區"
"238016","169-UY","2018/11/16 17:47:49","新北市樹林區復興路286號","121.41762","24.9877783333333","6500700","樹林區"
"239007","AAC-297","2018/11/16 17:49:13","新北市鶯歌區鶯桃路94巷17號","121.340241666667","24.954105","6500800","鶯歌區"
"239006","891-R6","2018/11/16 17:49:14","新北市鶯歌區鶯桃路413巷76號","121.32973","24.963125","6500800","鶯歌區"
"239008","527-UM","2018/11/16 17:49:17","新北市鶯歌區大湖路642號","121.33409","24.9757033333333","6500800","鶯歌區"
"239005","526-UM","2018/11/16 17:49:16","新北市鶯歌區鳳吉五街17號","121.326931666667","24.9724333333333","6500800","鶯歌區"
"239001","417-VK","2018/11/16 17:49:14","新北市鶯歌區中正三路458-1號","121.3217","24.9345016666667","6500800","鶯歌區"
"239003","360-BY","2018/11/16 17:49:12","新北市鶯歌區鶯桃路294-1號","121.334836666667","24.9603233333333","6500800","鶯歌區"
"239002","359-BY","2018/11/16 17:49:18","新北市鶯歌區光明街126號","121.3456","24.9558533333333","6500800","鶯歌區"
"239004","193-VK","2018/11/16 17:49:07","新北市鶯歌區中正二路91號","121.348745","24.9496166666667","6500800","鶯歌區"
"221008","489-VK","2018/11/16 17:49:16","新北市汐止區康寧街901號","121.651398333333","25.075115","6501100","汐止區"
"221036","130-UY","2018/11/16 17:49:09","新北市汐止區汐萬路一段257號","121.650851666667","25.07396","6501100","汐止區"
"221015","131-UY","2018/11/16 17:49:09","新北市汐止區汐萬路一段244-1號","121.65139","25.0732516666667","6501100","汐止區"
"221010","269-BY","2018/11/16 17:49:14","新北市汐止區汐萬路二段130號","121.64827","25.08539","6501100","汐止區"
"221012","278-VK","2018/11/16 17:49:18","新北市汐止區汐萬路一段137號","121.653638333333","25.071165","6501100","汐止區"
"221032","280-BY","2018/11/16 17:49:12","新北市汐止區大同路一段219巷26號","121.6331","25.05888","6501100","汐止區"
"221027","281-BY","2018/11/16 17:49:07","新北市汐止區汐萬路一段273號","121.65053","25.074435","6501100","汐止區"
"221029","298-VK","2018/11/16 17:49:05","新北市汐止區康寧街901號","121.651608333333","25.0748966666667","6501100","汐止區"
"221021","299-VK","2018/11/16 17:49:05","新北市汐止區汐萬路一段37號","121.65557","25.0682516666667","6501100","汐止區"
"221031","353-TW","2018/11/16 17:49:20","新北市汐止區中興路96巷16號","121.635655","25.0624666666667","6501100","汐止區"
"221035","622-UM","2018/11/16 17:49:05","新北市汐止區汐萬路一段244-1號","121.651466666667","25.0731416666667","6501100","汐止區"
"221025","623-UM","2018/11/16 17:49:12","新北市汐止區大同路二段187巷47號","121.652","25.0660233333333","6501100","汐止區"
"221038","646-BX","2018/11/16 17:49:20","新北市汐止區汐萬路一段261號","121.650813333333","25.0740816666667","6501100","汐止區"
"221033","647-BX","2018/11/16 17:49:15","新北市汐止區林森街132巷6弄6號","121.624311666667","25.0407933333333","6501100","汐止區"
"221018","753-BX","2018/11/16 17:49:16","新北市汐止區水碓街2號","121.663706666667","25.0699633333333","6501100","汐止區"
"242002","281-VK","2018/11/16 17:49:02","新北市新莊區景德路103號","121.451766666667","25.0346833333333","6500500","新莊區"
"242046","280-VK","2018/11/16 17:49:16","新北市新莊區福營路97巷15號","121.434895","25.031775","6500500","新莊區"
"235061","KEA-2875","2018/11/16 17:48:54","新北市中和區員山路36巷16-3號","121.484516666667","24.9912183333333","6500300","中和區"
