"lineid","car","time","location","longitude","latitude","cityid","cityname"
"234026","9371-KE","2018/11/16 17:59:14","新北市永和區永和路一段45-1號","121.512818333333","25.0062633333333","6500400","永和區"
"249005","172-UM","2018/11/16 17:59:07","新北市八里區荖阡坑路18號","121.39788","25.1382616666667","6502300","八里區"
"249001","173-UM","2018/11/16 17:59:08","新北市八里區龍米路二段36號","121.448578333333","25.140125","6502300","八里區"
"249004","303-UY","2018/11/16 17:59:19","新北市八里區龍米路二段159巷2-10號","121.438908333333","25.1530633333333","6502300","八里區"
"249002","305-UY","2018/11/16 17:58:58","新北市八里區龍形五街7號","121.450605","25.1335533333333","6502300","八里區"
"249003","593-UM","2018/11/16 17:59:12","新北市八里區中華路二段165巷2-3號","121.40725","25.1509116666667","6502300","八里區"
"248006","077-UY","2018/11/16 17:59:06","新北市五股區中興路二段103巷16號","121.458776666667","25.0760933333333","6501500","五股區"
"248008","095-VK","2018/11/16 17:59:16","新北市五股區更洲路18號","121.458233333333","25.0788633333333","6501500","五股區"
"248018","225-UY","2018/11/16 17:59:01","新北市五股區中興路二段83巷26-3號","121.460076666667","25.0753183333333","6501500","五股區"
"248004","677-BX","2018/11/16 17:59:00","新北市五股區中興路二段83巷26-6號","121.459693333333","25.075415","6501500","五股區"
"234067","AAC-212","2018/11/16 17:42:42","新北市永和區福和路1號","121.526268333333","25.0096583333333","6500400","永和區"
"232011","375-UM","2018/11/16 17:59:18","新北市坪林區水柳腳39號","121.70955","24.9352433333333","6502000","坪林區"
"244023","069-UM","2018/11/16 17:59:12","新北市林口區東湖路41巷18號","121.386261666667","25.07324","6501700","林口區"
"244007","080-UY","2018/11/16 17:59:03","新北市林口區竹林路548號","121.387578333333","25.084495","6501700","林口區"
"244019","403-UM","2018/11/16 17:59:09","新北市林口區文化一路一段124號","121.374856666667","25.072205","6501700","林口區"
"244013","KEA-2802","2018/11/16 17:59:08","新北市林口區中山路130號","121.39239","25.07853","6501700","林口區"
"244017","485-VK","2018/11/16 17:59:17","新北市林口區忠孝路372號","121.369241666667","25.0713866666667","6501700","林口區"
"244009","656-BX","2018/11/16 17:59:05","新北市林口區竹林路606巷11號","121.385816666667","25.0827433333333","6501700","林口區"
"244011","701-TV","2018/11/16 17:59:03","新北市林口區中正路136號","121.39294","25.077295","6501700","林口區"
"244025","837-TS","2018/11/16 17:59:17","新北市林口區三民路69-1號","121.358558333333","25.0671233333333","6501700","林口區"
"244021","838-TS","2018/11/16 17:59:08","新北市林口區仁愛路一段18號","121.397656666667","25.0753016666667","6501700","林口區"
"222003","436-BY","2018/11/16 17:59:13","新北市深坑區炮子崙23號","121.607228333333","24.9908783333333","6501800","深坑區"
"222002","659-BX","2018/11/16 17:59:16","新北市深坑區文化街98號","121.617018333333","25.0018983333333","6501800","深坑區"
"231046","107-UY","2018/11/16 17:59:12","新北市新店區下石厝路31號","121.532786666667","24.9329316666667","6500600","新店區"
"231058","3713-VJ","2018/11/16 17:59:07","新北市新店區安華路28-1號","121.519276666667","24.9607083333333","6500600","新店區"
"231055","AKT-0513","2018/11/16 17:59:02","新北市新店區安華路1-1號","121.519431666667","24.960445","6500600","新店區"
"241024","065-VK","2018/11/16 17:59:17","新北市三重區車路頭街68號","121.48433","25.072875","6500200","三重區"
"241016","266-UM","2018/11/16 17:59:20","新北市三重區重新路三段94號","121.49262","25.060975","6500200","三重區"
"241033","AAC-255","2018/11/16 17:59:09","新北市三重區重新路五段580號","121.469588333333","25.045525","6500200","三重區"
"235064","005-UY","2018/11/16 17:59:15","新北市中和區員山路36巷16-3號","121.485025","24.9911183333333","6500300","中和區"
"235063","006-UY","2018/11/16 17:59:08","新北市中和區員山路36巷16-3號","121.484945","24.9913166666667","6500300","中和區"
"235065","098-UM","2018/11/16 17:59:15","新北市中和區橋和路274-1號","121.495883333333","25.0067066666667","6500300","中和區"
"235058","151-BY","2018/11/16 17:59:18","新北市中和區錦和路350-1號","121.49047","24.9935416666667","6500300","中和區"
"235038","185-VK","2018/11/16 17:59:20","新北市中和區中正路305號","121.492431666667","24.9939583333333","6500300","中和區"
"247012","KEA-2869","2018/11/16 17:59:19","新北市蘆洲區民族路252號","121.479035","25.0886583333333","6501400","蘆洲區"
"235070","558-UM","2018/11/16 17:58:58","新北市中和區員山路36巷16-2號","121.485111666667","24.99173","6500300","中和區"
"235054","640-BX","2018/11/16 17:59:03","新北市中和區員山路36巷16-2號","121.485025","24.99181","6500300","中和區"
"235071","783-BX","2018/11/16 17:59:11","新北市中和區員山路36巷16-3號","121.485201666667","24.9911916666667","6500300","中和區"
"235051","157-BY","2018/11/16 17:59:14","新北市中和區員山路36巷13號","121.484133333333","24.9910033333333","6500300","中和區"
"235037","AAC-213","2018/11/16 17:59:07","新北市中和區錦和路350-1號","121.4903","24.9935716666667","6500300","中和區"
"247002","893-R6","2018/11/16 17:59:04","新北市蘆洲區永平街32巷57弄6號","121.45963","25.092975","6501400","蘆洲區"
"247016","546-UM","2018/11/16 17:59:09","新北市蘆洲區中正路263巷2號","121.46735","25.0874816666667","6501400","蘆洲區"
"247006","337-TH","2018/11/16 17:59:18","新北市蘆洲區中華街7號","121.463836666667","25.08172","6501400","蘆洲區"
"247010","056-VK","2018/11/16 17:59:07","新北市蘆洲區三民路11號","121.47585","25.0821083333333","6501400","蘆洲區"
"247008","053-VK","2018/11/16 17:59:03","新北市蘆洲區中山一路298號","121.47047","25.0780716666667","6501400","蘆洲區"
"247018","007-UY","2018/11/16 17:59:15","新北市蘆洲區復興路197號","121.479366666667","25.0894766666667","6501400","蘆洲區"
"226004","205-ST","2018/11/16 17:59:14","新北市平溪區石底里公園街18-3號","121.733385","25.0257016666667","6502400","平溪區"
"228002","663-BX","2018/11/16 17:59:11","新北市貢寮區福連里香蘭街2-1號","121.967775","25.0233016666667","6502600","貢寮區"
"228001","670-TC","2018/11/16 17:59:11","新北市貢寮區仁理村仁愛路106巷36號","121.928853333333","25.0533933333333","6502600","貢寮區"
"228003","828-UM","2018/11/16 17:59:15","新北市貢寮區真理里美艷山街6-2號","121.928838333333","25.0607416666667","6502600","貢寮區"
"224006","676-BX","2018/11/16 17:58:59","新北市瑞芳區大寮路356-1號","121.784866666667","25.1032933333333","6501200","瑞芳區"
"224002","639-TC","2018/11/16 17:59:16","新北市瑞芳區三爪子坑路64-36號","121.80927","25.1059133333333","6501200","瑞芳區"
"224008","285-BY","2018/11/16 17:59:13","新北市瑞芳區三爪子坑路335號","121.819331666667","25.105545","6501200","瑞芳區"
"224009","273-VK","2018/11/16 17:59:17","新北市瑞芳區汽車路13號","121.845646666667","25.110695","6501200","瑞芳區"
"224005","271-BY","2018/11/16 17:59:16","新北市瑞芳區深澳路197-2號","121.819453333333","25.133825","6501200","瑞芳區"
"227011","642-TC","2018/11/16 17:59:10","新北市雙溪區三貂里定福路1-2號","121.850703333333","25.0634566666667","6502500","雙溪區"
"253006","032-BX","2018/11/16 17:59:09","新北市石門區大丘田45-2號","121.549748333333","25.2748566666667","6502200","石門區"
"208002","KEA-2872","2018/11/16 17:59:15","新北市金山區三界壇路91-1號","121.624841666667","25.2286333333333","6502700","金山區"
"208003","665-BX","2018/11/16 17:59:06","新北市金山區磺港里磺港路202-1號","121.645145","25.227495","6502700","金山區"
"208001","761-BX","2018/11/16 17:59:09","新北市金山區磺港里磺港路169號","121.642635","25.224545","6502700","金山區"
"251005","010-UM","2018/11/16 17:59:07","新北市淡水區英專路118號","121.445875","25.1723483333333","6501000","淡水區"
"251001","011-UM","2018/11/16 17:59:21","新北市淡水區自立路72號","121.46511","25.1265466666667","6501000","淡水區"
"251002","012-UM","2018/11/16 17:59:12","新北市淡水區中正東路6號","121.447121666667","25.16712","6501000","淡水區"
"251008","180-VK","2018/11/16 17:59:17","新北市淡水區八勢一街43號","121.462143333333","25.1562516666667","6501000","淡水區"
"251010","413-VK","2018/11/16 17:59:03","新北市淡水區中正路一段132巷20號","121.422853333333","25.1798433333333","6501000","淡水區"
"251012","441-VK","2018/11/16 17:59:08","新北市淡水區北新路三段38巷7號","121.484526666667","25.1869966666667","6501000","淡水區"
"251007","442-VK","2018/11/16 17:59:12","新北市淡水區中正東路二段153號","121.460033333333","25.146545","6501000","淡水區"
"251004","443-VK","2018/11/16 17:59:19","新北市淡水區民權路82號","121.459115","25.133645","6501000","淡水區"
"251006","561-UM","2018/11/16 17:59:00","新北市淡水區新生街15號","121.43888","25.1731916666667","6501000","淡水區"
"251009","575-R6","2018/11/16 17:59:00","新北市淡水區大仁街8號","121.442366666667","25.174645","6501000","淡水區"
"251011","650-BX","2018/11/16 17:59:18","新北市淡水區三空泉6-3號","121.476961666667","25.1623516666667","6501000","淡水區"
"251003","673-BX","2018/11/16 17:59:07","新北市淡水區大忠街90號","121.444811666667","25.1763533333333","6501000","淡水區"
"207003","550-UM","2018/11/16 17:59:04","新北市萬里區港東路野柳風景區攤販66號","121.691316666667","25.205855","6502800","萬里區"
"207004","225-TW","2018/11/16 17:59:01","新北市萬里區中幅里中福路48號","121.683443333333","25.174185","6502800","萬里區"
"252002","178-VK","2018/11/16 17:59:09","新北市三芝區中山路二段41號","121.502966666667","25.25509","6502100","三芝區"
"252001","292-VK","2018/11/16 17:59:05","新北市三芝區中興街二段2號","121.498381666667","25.25663","6502100","三芝區"
"237004","KEA-2597","2018/11/16 17:59:04","新北市三峽區中園街237-1號","121.366808333333","24.9194433333333","6500900","三峽區"
"237007","153-BY","2018/11/16 17:59:14","新北市三峽區中園街154號","121.366908333333","24.9199566666667","6500900","三峽區"
"237009","210-TH","2018/11/16 17:59:14","新北市三峽區中山路106巷25號","121.366036666667","24.9364633333333","6500900","三峽區"
"237013","252-BX","2018/11/16 17:59:07","新北市三峽區長泰街78巷16號","121.376788333333","24.9336233333333","6500900","三峽區"
"237012","275-BY","2018/11/16 17:59:08","新北市三峽區民生街17號","121.37628","24.9365866666667","6500900","三峽區"
"237008","302-VK","2018/11/16 17:59:19","新北市三峽區正義街158-3號","121.368245","24.9156983333333","6500900","三峽區"
"237014","433-BY","2018/11/16 17:59:06","新北市三峽區和平街34號","121.370246666667","24.9372116666667","6500900","三峽區"
"237006","5529-G3","2018/11/16 17:59:13","新北市三峽區介壽路二段138巷1弄27-1號","121.397301666667","24.9331033333333","6500900","三峽區"
"237011","KEA-2596","2018/11/16 17:59:13","新北市三峽區光明路80號","121.375365","24.9287783333333","6500900","三峽區"
"237015","649-BX","2018/11/16 17:59:16","新北市三峽區紫微路79-1號","121.41015","24.9126166666667","6500900","三峽區"
"237010","706-TV","2018/11/16 17:59:06","新北市三峽區民權街171號","121.367973333333","24.93016","6500900","三峽區"
"237005","AKY-6261","2018/11/16 17:59:08","新北市三峽區復興路239-1號","121.368171666667","24.9385816666667","6500900","三峽區"
"236069","105-UM","2018/11/16 17:59:12","新北市土城區城林路6巷80號","121.43845","24.9797366666667","6501300","土城區"
"236042","KED-0685","2018/11/16 17:59:08","新北市土城區城林路6巷80號","121.43853","24.9797233333333","6501300","土城區"
"236079","166-UM","2018/11/16 17:59:04","新北市土城區永寧路32巷42弄7號","121.428053333333","24.9612616666667","6501300","土城區"
"236030","253-BX","2018/11/16 17:59:07","新北市土城區城林路6巷80號","121.438661666667","24.9796316666667","6501300","土城區"
"236026","269-VK","2018/11/16 17:59:16","新北市土城區承天路47號","121.438903333333","24.9639233333333","6501300","土城區"
"236014","270-VK","2018/11/16 17:59:14","新北市土城區城林路6巷80號","121.43853","24.9796166666667","6501300","土城區"
"236039","271-VK","2018/11/16 17:59:15","新北市土城區城林路6巷80號","121.43853","24.979625","6501300","土城區"
"236020","401-BY","2018/11/16 17:59:16","新北市土城區城林路6巷80號","121.438656666667","24.9797183333333","6501300","土城區"
"236059","752-BX","2018/11/16 17:59:16","新北市土城區中央路三段232號","121.428695","24.9644066666667","6501300","土城區"
"236048","913-UM","2018/11/16 17:59:08","新北市土城區城林路6巷80號","121.438631666667","24.979745","6501300","土城區"
"236063","915-UM","2018/11/16 17:59:11","新北市土城區城林路6巷80號","121.438511666667","24.979655","6501300","土城區"
"236055","AAC-216","2018/11/16 17:59:19","新北市土城區城林路6巷80號","121.438665","24.9796666666667","6501300","土城區"
"242037","AAC-296","2018/11/16 17:59:18","新北市新莊區建福路7號","121.426053333333","25.0294966666667","6500500","新莊區"
"242058","986-R7","2018/11/16 17:59:07","新北市新莊區中山路三段627號","121.413883333333","25.0237233333333","6500500","新莊區"
"242056","751-BX","2018/11/16 17:59:07","新北市新莊區豐年街124巷14號","121.445721666667","25.0298333333333","6500500","新莊區"
"242023","705-TV","2018/11/16 17:59:14","新北市新莊區福壽街51號","121.458255","25.0489066666667","6500500","新莊區"
"242027","615-BX","2018/11/16 17:59:09","新北市新莊區思源路375號","121.45983","25.0511033333333","6500500","新莊區"
"242025","613-BX","2018/11/16 17:59:04","新北市新莊區五工路58號","121.458796666667","25.0628283333333","6500500","新莊區"
"242029","612-BX","2018/11/16 17:59:11","新北市新莊區中平路110巷11號","121.445588333333","25.04607","6500500","新莊區"
"242044","566-BX","2018/11/16 17:59:20","新北市新莊區雙鳳路80號","121.415013333333","25.02767","6500500","新莊區"
"242048","497-BY","2018/11/16 17:59:04","新北市新莊區萬安街67巷7號","121.421748333333","25.0239333333333","6500500","新莊區"
"242041","442-UM","2018/11/16 17:59:12","新北市泰山區明志路三段524號","121.420673333333","25.030445","6500500","新莊區"
"242054","441-UM","2018/11/16 17:59:15","新北市新莊區光華街35號","121.42876","25.0112","6500500","新莊區"
"242039","415-TV","2018/11/16 17:59:02","新北市新莊區民安西路24巷4號","121.426443333333","25.0212283333333","6500500","新莊區"
"242009","413-TV","2018/11/16 17:59:19","新北市新莊區中華路二段250號","121.4527","25.05293","6500500","新莊區"
"242060","353-BY","2018/11/16 17:59:06","新北市新莊區新樹路399號","121.432835","25.0161633333333","6500500","新莊區"
"242011","132-UY","2018/11/16 17:59:17","新北市新莊區中港路中慶巷27弄4號","121.449908333333","25.0536216666667","6500500","新莊區"
"242034","135-UY","2018/11/16 17:58:56","新北市新莊區福海街12號","121.445341666667","25.03366","6500500","新莊區"
"242050","172-VK","2018/11/16 17:59:17","新北市新莊區西盛街153巷4號","121.428553333333","25.0178333333333","6500500","新莊區"
"242013","173-VK","2018/11/16 17:59:08","新北市新莊區中和街125巷12號","121.447025","25.0486383333333","6500500","新莊區"
"242019","175-VK","2018/11/16 17:59:15","新北市新莊區明中街51巷3號","121.456711666667","25.03965","6500500","新莊區"
"242007","176-VK","2018/11/16 17:59:17","新北市新莊區自重街2號","121.45337","25.0474633333333","6500500","新莊區"
"242017","346-TH","2018/11/16 17:59:14","新北市新莊區中和街60巷1號","121.44805","25.04477","6500500","新莊區"
"242032","348-TH","2018/11/16 17:59:02","新北市新莊區新泰路289巷47號","121.443518333333","25.0403766666667","6500500","新莊區"
"242005","349-TH","2018/11/16 17:59:12","新北市新莊區福樂街71巷27-1號","121.456963333333","25.04705","6500500","新莊區"
"242021","350-TH","2018/11/16 17:59:16","新北市新莊區建興街32號","121.450051666667","25.0371683333333","6500500","新莊區"
"242015","351-TH","2018/11/16 17:59:06","新北市新莊區中平路121號","121.444663333333","25.0467083333333","6500500","新莊區"
"238015","755-BX","2018/11/16 17:59:16","新北市樹林區大安路323巷3號","121.417836666667","24.991575","6500700","樹林區"
"238023","601-UM","2018/11/16 17:59:14","新北市樹林區龍興街44號","121.402876666667","25.0155233333333","6500700","樹林區"
"238019","599-UM","2018/11/16 17:59:05","新北市樹林區太平路194號","121.418623333333","24.9756316666667","6500700","樹林區"
"238018","571-TV","2018/11/16 17:59:03","新北市樹林區樹新路106巷1號","121.430081666667","24.99769","6500700","樹林區"
"238022","KEA-2213","2018/11/16 17:59:09","新北市樹林區太元街37號","121.418556666667","24.9795216666667","6500700","樹林區"
"238021","KEA-2539","2018/11/16 17:59:01","新北市樹林區柑園街一段57號","121.402723333333","24.96038","6500700","樹林區"
"238025","303-VK","2018/11/16 17:59:16","新北市樹林區三俊街6號","121.410903333333","25.015395","6500700","樹林區"
"238017","283-BY","2018/11/16 17:59:13","新北市樹林區三俊街2號","121.410708333333","25.0150666666667","6500700","樹林區"
"238014","282-BY","2018/11/16 17:59:02","新北市樹林區中正路45巷10號","121.426535","24.9992633333333","6500700","樹林區"
"238026","172-UY","2018/11/16 17:59:04","新北市樹林區中洲街51巷4號","121.396715","24.9709916666667","6500700","樹林區"
"238016","169-UY","2018/11/16 17:59:09","新北市樹林區啟智街137巷4號","121.417328333333","24.9881566666667","6500700","樹林區"
"239007","AAC-297","2018/11/16 17:59:13","新北市鶯歌區鶯桃路7號","121.344016666667","24.9503166666667","6500800","鶯歌區"
"239006","891-R6","2018/11/16 17:59:14","新北市鶯歌區鶯桃路457號","121.332031666667","24.9656266666667","6500800","鶯歌區"
"239008","527-UM","2018/11/16 17:59:17","新北市鶯歌區欣欣街5號","121.336421666667","24.978155","6500800","鶯歌區"
"239005","526-UM","2018/11/16 17:59:16","新北市鶯歌區鶯桃路668巷73號","121.329896666667","24.97178","6500800","鶯歌區"
"239001","417-VK","2018/11/16 17:59:14","新北市鶯歌區中正三路99號","121.33831","24.94098","6500800","鶯歌區"
"239003","360-BY","2018/11/16 17:59:12","新北市鶯歌區永吉街15號","121.336095","24.9578616666667","6500800","鶯歌區"
"239002","359-BY","2018/11/16 17:59:18","新北市鶯歌區光明街100號","121.345968333333","24.9559416666667","6500800","鶯歌區"
"239004","193-VK","2018/11/16 17:59:07","新北市鶯歌區尖山路166巷36-1號","121.344925","24.94907","6500800","鶯歌區"
"221008","489-VK","2018/11/16 17:59:16","新北市汐止區明峰街32號","121.633921666667","25.0713866666667","6501100","汐止區"
"221036","130-UY","2018/11/16 17:59:09","新北市汐止區大同路二段508號","121.660688333333","25.0681866666667","6501100","汐止區"
"221015","131-UY","2018/11/16 17:59:09","新北市汐止區長江街256巷1號","121.665121666667","25.0802583333333","6501100","汐止區"
"221010","269-BY","2018/11/16 17:59:14","新北市汐止區汐萬路二段245巷37號","121.64386","25.087685","6501100","汐止區"
"221012","278-VK","2018/11/16 17:59:18","新北市汐止區長興街二段10號","121.672536666667","25.0809866666667","6501100","汐止區"
"221023","279-VK","2018/11/16 17:58:42","新北市汐止區明峰街147號","121.629495","25.0705716666667","6501100","汐止區"
"221032","280-BY","2018/11/16 17:59:12","新北市汐止區橫科路73巷8號","121.619578333333","25.0509116666667","6501100","汐止區"
"221027","281-BY","2018/11/16 17:59:07","新北市汐止區大同路二段374號","121.657791666667","25.0671883333333","6501100","汐止區"
"221029","298-VK","2018/11/16 17:59:05","新北市汐止區樟樹二路334號","121.641513333333","25.07043","6501100","汐止區"
"221021","299-VK","2018/11/16 17:59:05","新北市汐止區新興路14號","121.656408333333","25.064755","6501100","汐止區"
"221031","353-TW","2018/11/16 17:59:00","新北市汐止區中興路181巷24弄14號","121.629038333333","25.066695","6501100","汐止區"
"221035","622-UM","2018/11/16 17:59:05","新北市汐止區汐萬路一段115巷32號","121.653575","25.0703833333333","6501100","汐止區"
"221025","623-UM","2018/11/16 17:59:12","新北市汐止區仁愛路47號","121.659665","25.0632216666667","6501100","汐止區"
"221038","646-BX","2018/11/16 17:59:00","新北市汐止區連興街73號","121.653856666667","25.0627366666667","6501100","汐止區"
"221033","647-BX","2018/11/16 17:59:15","新北市汐止區合順街1巷3號","121.619413333333","25.04304","6501100","汐止區"
"221002","707-TV","2018/11/16 17:59:09","新北市汐止區工建路207號","121.635818333333","25.0617466666667","6501100","汐止區"
"221018","753-BX","2018/11/16 17:59:16","新北市汐止區招商街1號","121.666305","25.069285","6501100","汐止區"
"242002","281-VK","2018/11/16 17:59:15","新北市新莊區中正路147號","121.458081666667","25.0373683333333","6500500","新莊區"
"242046","280-VK","2018/11/16 17:59:04","新北市新莊區福營路184號","121.431293333333","25.0308016666667","6500500","新莊區"
"235061","KEA-2875","2018/11/16 17:58:54","新北市中和區連城路469巷70弄24號","121.482576666667","24.9936233333333","6500300","中和區"
