"lineid","car","time","location","longitude","latitude","cityid","cityname"
"234046","148-BY","2018/11/16 18:58:05","新北市永和區得和路373巷16弄3號","121.525228333333","25.0002383333333","6500400","永和區"
"234007","207-UY","2018/11/16 18:58:19","新北市永和區永和路二段28號","121.514771666667","25.01044","6500400","永和區"
"234081","298-R6","2018/11/16 18:58:09","新北市永和區永貞路39巷13號","121.52245","25.006395","6500400","永和區"
"234038","336-UY","2018/11/16 18:58:17","新北市永和區成功路二段207號","121.526548333333","24.99591","6500400","永和區"
"234064","337-UY","2018/11/16 18:58:10","新北市永和區秀朗路一段185號","121.517413333333","25.0037233333333","6500400","永和區"
"234086","338-UY","2018/11/16 18:58:11","新北市永和區中正路261號","121.517585","25.00068","6500400","永和區"
"234070","552-UM","2018/11/16 18:58:03","新北市永和區中興街84巷8號","121.518515","25.0116016666667","6500400","永和區"
"234030","746-BX","2018/11/16 18:58:18","新北市永和區秀朗路二段278號","121.526036666667","24.997865","6500400","永和區"
"234054","KEA-2590","2018/11/16 18:58:07","新北市永和區竹林路66巷2號","121.518198333333","25.01338","6500400","永和區"
"234013","KEA-2591","2018/11/16 18:58:09","新北市永和區信義路17巷9弄2號","121.51365","25.01145","6500400","永和區"
"234061","AAD-866","2018/11/16 18:58:12","新北市永和區福和路307號","121.516273333333","25.0070816666667","6500400","永和區"
"234042","862-TW","2018/11/16 18:58:14","新北市永和區永貞路308號","121.511798333333","25.004865","6500400","永和區"
"234050","863-TW","2018/11/16 18:58:04","新北市永和區文化路194號","121.510708333333","25.016235","6500400","永和區"
"234026","9371-KE","2018/11/16 18:58:14","新北市永和區自由街58號","121.51377","25.0058766666667","6500400","永和區"
"234011","9373-KE","2018/11/16 18:58:12","新北市永和區信義路79號","121.512458333333","25.0133633333333","6500400","永和區"
"249005","172-UM","2018/11/16 18:58:08","新北市八里區長道坑6號","121.397678333333","25.1234983333333","6502300","八里區"
"249001","173-UM","2018/11/16 18:58:16","新北市八里區龍米路二段222號","121.432938333333","25.158425","6502300","八里區"
"248016","026-BX","2018/11/16 18:58:04","新北市五股區成泰路三段543巷16號","121.450963333333","25.1022483333333","6501500","五股區"
"248006","077-UY","2018/11/16 18:58:06","新北市五股區四維路90號","121.467416666667","25.0730166666667","6501500","五股區"
"248008","095-VK","2018/11/16 18:58:16","新北市五股區中興路一段123號","121.465808333333","25.0733233333333","6501500","五股區"
"248018","225-UY","2018/11/16 18:58:01","新北市五股區民義路二段22巷27號","121.423828333333","25.097915","6501500","五股區"
"248012","247-BX","2018/11/16 18:58:22","新北市五股區工商路52號","121.439123333333","25.0841216666667","6501500","五股區"
"248010","272-BY","2018/11/16 18:58:14","新北市五股區水碓九路16號","121.42797","25.0715133333333","6501500","五股區"
"248004","677-BX","2018/11/16 18:58:20","新北市五股區民義路二段73號","121.409001666667","25.105585","6501500","五股區"
"248002","678-BX","2018/11/16 18:58:21","新北市五股區凌雲路一段126號","121.449795","25.102015","6501500","五股區"
"234023","9380-KE","2018/11/16 18:58:19","新北市永和區竹林路75巷33弄3號","121.520521666667","25.0142583333333","6500400","永和區"
"234077","969-R7","2018/11/16 18:58:13","新北市永和區智光街35號","121.517911666667","24.9988516666667","6500400","永和區"
"234067","AAC-212","2018/11/16 18:58:13","新北市永和區中和路625號","121.513","25.0049533333333","6500400","永和區"
"234003","AAC-295","2018/11/16 18:58:19","新北市永和區和平街15號","121.513766666667","25.0098766666667","6500400","永和區"
"244023","069-UM","2018/11/16 18:58:12","新北市林口區民權路106號","121.37346","25.0829983333333","6501700","林口區"
"244019","403-UM","2018/11/16 18:58:09","新北市林口區麗園二街3巷5-2號","121.377463333333","25.0698966666667","6501700","林口區"
"244013","KEA-2802","2018/11/16 18:58:08","新北市林口區麗園一街11巷7號","121.378143333333","25.070435","6501700","林口區"
"244017","485-VK","2018/11/16 18:58:17","新北市林口區文化二路一段20巷13號","121.36529","25.0671966666667","6501700","林口區"
"244011","701-TV","2018/11/16 18:58:03","新北市林口區仁愛路一段285巷66號","121.395416666667","25.074195","6501700","林口區"
"244025","837-TS","2018/11/16 18:58:17","新北市林口區文化北路一段370號","121.36204","25.0748533333333","6501700","林口區"
"243010","267-VK","2018/11/16 18:58:06","新北市泰山區辭修路24號","121.42903","25.0581383333333","6501600","泰山區"
"243013","AAD-798","2018/11/16 18:58:07","新北市泰山區明志路三段206巷10號","121.423258333333","25.0380166666667","6501600","泰山區"
"243009","297-R6","2018/11/16 18:58:01","新北市泰山區泰林路二段353號","121.42839","25.06365","6501600","泰山區"
"243016","KEA-2801","2018/11/16 18:58:11","新北市泰山區明志路二段152-1號","121.427548333333","25.0507166666667","6501600","泰山區"
"243015","421-VK","2018/11/16 18:58:04","新北市泰山區美寧街3號","121.430058333333","25.06332","6501600","泰山區"
"243011","KEA-2215","2018/11/16 18:58:05","新北市泰山區明志路二段239號","121.427165","25.048165","6501600","泰山區"
"243012","646-TV","2018/11/16 18:58:18","新北市泰山區福興三街181號","121.432881666667","25.0570266666667","6501600","泰山區"
"243014","680-BX","2018/11/16 18:58:15","新北市泰山區黎明路2-5號","121.420876666667","25.06263","6501600","泰山區"
"222003","436-BY","2018/11/16 18:58:13","新北市深坑區深南路51-1號","121.621403333333","25.0101716666667","6501800","深坑區"
"222002","659-BX","2018/11/16 18:58:16","新北市深坑區文山路一段33號","121.629746666667","25.0035266666667","6501800","深坑區"
"231041","002-UM","2018/11/16 18:58:17","新北市新店區環河路62號","121.53707","24.9626383333333","6500600","新店區"
"231059","046-UY","2018/11/16 18:58:18","新北市新店區安華路28-1號","121.519718333333","24.961015","6500600","新店區"
"231040","047-UY","2018/11/16 18:58:07","新北市新店區中央路45號","121.532876666667","24.97756","6500600","新店區"
"231044","106-UY","2018/11/16 18:58:06","新北市新店區寶中路72號","121.547928333333","24.9805916666667","6500600","新店區"
"231046","107-UY","2018/11/16 18:58:12","新北市新店區直潭四街30號","121.533866666667","24.9416033333333","6500600","新店區"
"231053","108-UY","2018/11/16 18:58:11","新北市新店區櫻花街15號","121.547043333333","24.9266483333333","6500600","新店區"
"231062","110-UY","2018/11/16 18:58:14","新北市新店區安豐路22巷7號","121.501133333333","24.9543283333333","6500600","新店區"
"231048","187-VK","2018/11/16 18:58:14","新北市新店區德正街42號","121.544315","24.9714983333333","6500600","新店區"
"231054","KEA-2219","2018/11/16 18:58:11","新北市新店區新店路13號","121.54036","24.9528533333333","6500600","新店區"
"231042","268-BY","2018/11/16 18:58:02","新北市新店區北新路一段128-1號","121.54277","24.9697266666667","6500600","新店區"
"231051","278-BY","2018/11/16 18:58:19","新北市新店區百忍街17巷1號","121.534445","24.9756","6500600","新店區"
"231050","AAD-862","2018/11/16 18:58:12","新北市新店區北宜路二段56巷1弄2號","121.549271666667","24.9509816666667","6500600","新店區"
"231058","3713-VJ","2018/11/16 18:58:07","新北市新店區檳榔路29巷4號","121.542018333333","24.9636133333333","6500600","新店區"
"231066","4716-K9","2018/11/16 18:58:15","新北市新店區安豐路22巷7號","121.501663333333","24.95441","6500600","新店區"
"231056","4715-K9","2018/11/16 18:58:08","新北市新店區民權路107-2號","121.53646","24.982075","6500600","新店區"
"231067","4772-VM","2018/11/16 18:58:14","新北市新店區安康路一段226號","121.523511666667","24.9635983333333","6500600","新店區"
"231065","512-UM","2018/11/16 18:58:21","新北市新店區安祥路190巷10號","121.479376666667","24.9570316666667","6500600","新店區"
"231049","513-UM","2018/11/16 18:58:19","新北市新店區中正路454-5號","121.534455","24.9790166666667","6500600","新店區"
"231063","616-UM","2018/11/16 18:58:12","新北市新店區安華路28-1號","121.519618333333","24.9607533333333","6500600","新店區"
"231060","897-TW","2018/11/16 18:58:10","新北市新店區安華路28-1號","121.519861666667","24.9608833333333","6500600","新店區"
"231045","898-TW","2018/11/16 18:58:18","新北市新店區光明街51號","121.538543333333","24.9601983333333","6500600","新店區"
"231043","899-TW","2018/11/16 18:58:23","新北市新店區北新路二段1號","121.542706666667","24.9712083333333","6500600","新店區"
"231055","AKT-0513","2018/11/16 18:58:22","新北市新店區新生街13巷42-1號","121.538888333333","24.966515","6500600","新店區"
"235066","003-UY","2018/11/16 18:58:18","新北市中和區中山路二段131巷11號","121.502753333333","25.00247","6500300","中和區"
"235064","005-UY","2018/11/16 18:58:15","新北市中和區泰和街30巷27號","121.498841666667","25.0013533333333","6500300","中和區"
"235063","006-UY","2018/11/16 18:58:08","新北市中和區中正路566號","121.486628333333","24.9945933333333","6500300","中和區"
"235056","096-UM","2018/11/16 18:58:12","新北市中和區員山路466巷18號","121.481031666667","25.0065183333333","6500300","中和區"
"235039","097-UM","2018/11/16 18:58:15","新北市永和區民有街69號","121.517931666667","24.9957133333333","6500300","中和區"
"235065","098-UM","2018/11/16 18:58:15","新北市中和區勝利路35巷22號","121.499063333333","25.0070733333333","6500300","中和區"
"235040","150-BY","2018/11/16 18:58:06","新北市中和區保健路106巷8號","121.51186","24.995245","6500300","中和區"
"235058","151-BY","2018/11/16 18:58:19","新北市中和區員山路75號","121.48072","24.9941816666667","6500300","中和區"
"235055","183-VK","2018/11/16 18:58:17","新北市中和區民德路27號","121.468891666667","25.0026366666667","6500300","中和區"
"235038","185-VK","2018/11/16 18:58:20","新北市中和區立人街24-5號","121.518896666667","24.9941133333333","6500300","中和區"
"235049","186-VK","2018/11/16 18:58:01","新北市中和區景安路167巷22號","121.506311666667","24.9947433333333","6500300","中和區"
"235067","255-BX","2018/11/16 18:58:12","新北市中和區新生街164號","121.48354","25.0002233333333","6500300","中和區"
"235044","293-VK","2018/11/16 18:58:01","新北市中和區復興路280巷33弄14號","121.501421666667","24.9913666666667","6500300","中和區"
"235072","301-VK","2018/11/16 18:58:12","新北市中和區中山路二段211-2號","121.498786666667","25.0025516666667","6500300","中和區"
"235043","352-BY","2018/11/16 18:58:16","新北市中和區成功路70號","121.526003333333","24.9918783333333","6500300","中和區"
"235042","KEA-2878","2018/11/16 18:58:20","新北市中和區秀朗路三段128巷29號","121.524695","24.9942933333333","6500300","中和區"
"235050","4979-A6","2018/11/16 18:58:18","新北市中和區忠孝街58巷5號","121.512013333333","24.9833583333333","6500300","中和區"
"235070","558-UM","2018/11/16 18:58:18","新北市中和區中和路212號","121.506003333333","24.9994766666667","6500300","中和區"
"235045","565-BX","2018/11/16 18:58:06","新北市中和區景新街467巷20弄84號","121.514493333333","24.9875233333333","6500300","中和區"
"235054","640-BX","2018/11/16 18:58:03","新北市中和區民享街55號","121.474103333333","25.0025516666667","6500300","中和區"
"235060","647-TV","2018/11/16 18:58:12","新北市中和區民治街17巷2號","121.475236666667","25.0029166666667","6500300","中和區"
"235047","732-UM","2018/11/16 18:58:02","新北市中和區興南路二段74巷3號","121.505283333333","24.9851516666667","6500300","中和區"
"235046","733-UM","2018/11/16 18:58:07","新北市中和區興南路一段156號","121.50828","24.9867233333333","6500300","中和區"
"235071","783-BX","2018/11/16 18:58:11","新北市中和區員山路36巷16-3號","121.485191666667","24.991175","6500300","中和區"
"235062","800-TS","2018/11/16 18:58:15","新北市中和區中山路二段330號","121.494913333333","25.00235","6500300","中和區"
"235057","801-TS","2018/11/16 18:58:05","新北市中和區民利街40巷3弄11號","121.478823333333","24.99913","6500300","中和區"
"235052","805-TS","2018/11/16 18:58:15","新北市中和區興南路二段347號","121.500113333333","24.9800783333333","6500300","中和區"
"235048","896-TW","2018/11/16 18:58:21","新北市中和區華新街111號","121.508771666667","24.981695","6500300","中和區"
"235053","900-TW","2018/11/16 18:58:18","新北市中和區壽德街22-1號","121.466321666667","24.9947333333333","6500300","中和區"
"235051","157-BY","2018/11/16 18:58:14","新北市中和區忠孝街19巷22號","121.510065","24.983435","6500300","中和區"
"235037","AAC-213","2018/11/16 18:58:07","新北市中和區自立路99巷13號","121.522753333333","24.9947666666667","6500300","中和區"
"235059","AAC-215","2018/11/16 18:58:16","新北市中和區圓通路367巷14號","121.491638333333","24.988975","6500300","中和區"
"220068","013-TV","2018/11/16 18:58:17","新北市板橋區三民路一段31巷42號","121.481113333333","25.0229233333333","6500100","板橋區"
"220065","072-UY","2018/11/16 18:58:19","新北市板橋區漢生東路340巷3號","121.471673333333","25.0073933333333","6500100","板橋區"
"220086","073-UY","2018/11/16 18:58:17","新北市板橋區中正路250巷30號","121.456655","25.019445","6500100","板橋區"
"220106","075-UY","2018/11/16 18:58:16","新北市板橋區文化路二段124巷4號","121.470385","25.0260333333333","6500100","板橋區"
"220069","AAD-861","2018/11/16 18:58:19","新北市板橋區縣民大道一段114號","121.457226666667","25.00591","6500100","板橋區"
"226004","205-ST","2018/11/16 18:58:13","新北市平溪區平溪里平溪街43-1號","121.738406666667","25.0264933333333","6502400","平溪區"
"235041","251-BX","2018/11/16 18:58:05","新北市中和區宜安路85號","121.510821666667","24.9975883333333","6500300","中和區"
"228002","663-BX","2018/11/16 18:58:11","新北市貢寮區福隆里東興街102號","121.946153333333","25.0169066666667","6502600","貢寮區"
"228001","670-TC","2018/11/16 18:58:11","新北市貢寮區仁理村研海街12-1號","121.923753333333","25.05171","6502600","貢寮區"
"228003","828-UM","2018/11/16 18:58:15","新北市貢寮區和美里龍洞街60號","121.914281666667","25.116295","6502600","貢寮區"
"224010","AGQ-8101","2018/11/16 18:58:10","新北市瑞芳區基山街29號","121.845411666667","25.109245","6501200","瑞芳區"
"224006","676-BX","2018/11/16 18:58:19","新北市瑞芳區中正路2號","121.808995","25.1070466666667","6501200","瑞芳區"
"224008","285-BY","2018/11/16 18:58:13","新北市瑞芳區逢甲路274-1號","121.804591666667","25.1110016666667","6501200","瑞芳區"
"224007","275-VK","2018/11/16 18:58:13","新北市瑞芳區大埔路慶安新村10號","121.762168333333","25.1005083333333","6501200","瑞芳區"
"224009","273-VK","2018/11/16 18:58:17","新北市瑞芳區祈堂路105號","121.85905","25.1094133333333","6501200","瑞芳區"
"224005","271-BY","2018/11/16 18:58:16","新北市瑞芳區豎崎路32-5號","121.824615","25.1209533333333","6501200","瑞芳區"
"227011","642-TC","2018/11/16 18:58:10","新北市雙溪區牡丹里中正路58巷23號","121.866446666667","25.0415816666667","6502500","雙溪區"
"227003","400-TW","2018/11/16 18:58:04","新北市雙溪區平林里康福家園17號","121.858848333333","25.0373316666667","6502500","雙溪區"
"253006","032-BX","2018/11/16 18:58:09","新北市石門區下員坑42-1號","121.518023333333","25.2776283333333","6502200","石門區"
"253005","295-VK","2018/11/16 18:58:15","新北市石門區中央路30號","121.567953333333","25.292215","6502200","石門區"
"222001","KEA-2212","2018/11/16 18:58:18","新北市深坑區北深路一段300號","121.624828333333","25.0061616666667","6501800","深坑區"
"208002","KEA-2872","2018/11/16 18:58:14","新北市金山區仁愛路37-23號","121.635523333333","25.220505","6502700","金山區"
"208003","665-BX","2018/11/16 18:58:16","新北市金山區中正路57號","121.63426","25.2218766666667","6502700","金山區"
"208001","761-BX","2018/11/16 18:58:09","新北市金山區中山路79號","121.64036","25.2187333333333","6502700","金山區"
"251001","011-UM","2018/11/16 18:58:01","新北市淡水區自強路60號","121.463105","25.1276433333333","6501000","淡水區"
"251002","012-UM","2018/11/16 18:58:12","新北市淡水區學府路8號","121.447585","25.1677816666667","6501000","淡水區"
"251010","413-VK","2018/11/16 18:58:03","新北市淡水區沙崙路25巷18號","121.421073333333","25.1820783333333","6501000","淡水區"
"251007","442-VK","2018/11/16 18:58:12","新北市淡水區民生路113巷1弄45號","121.462786666667","25.1386166666667","6501000","淡水區"
"251004","443-VK","2018/11/16 18:44:59","新北市淡水區中正東路二段143巷2弄1號","121.460528333333","25.1472583333333","6501000","淡水區"
"251009","575-R6","2018/11/16 18:58:19","新北市淡水區重建街74號","121.439915","25.1720966666667","6501000","淡水區"
"251003","673-BX","2018/11/16 18:58:07","新北市淡水區中山北路一段149巷31號","121.443023333333","25.17795","6501000","淡水區"
"207003","550-UM","2018/11/16 18:58:04","新北市萬里區大鵬里頂社29號","121.656578333333","25.21076","6502800","萬里區"
"207004","225-TW","2018/11/16 18:58:21","新北市萬里區萬里里獅頭路23號","121.6933","25.1782433333333","6502800","萬里區"
"252002","178-VK","2018/11/16 18:58:09","新北市三芝區中正路一段67號","121.504083333333","25.2572283333333","6502100","三芝區"
"252003","249-BX","2018/11/16 18:58:03","新北市三芝區後厝里北勢子45-33號","121.470363333333","25.2511933333333","6502100","三芝區"
"252001","292-VK","2018/11/16 18:58:05","新北市三芝區中興街二段260號","121.501715","25.2530483333333","6502100","三芝區"
"237004","KEA-2597","2018/11/16 18:58:04","新北市三峽區有木205-1號","121.439068333333","24.8514516666667","6500900","三峽區"
"237007","153-BY","2018/11/16 18:58:14","新北市三峽區中正路二段83巷11號","121.367173333333","24.91785","6500900","三峽區"
"237013","252-BX","2018/11/16 18:58:07","新北市三峽區大同路48巷17弄8-1號","121.37678","24.9291033333333","6500900","三峽區"
"237012","275-BY","2018/11/16 18:58:08","新北市三峽區三樹路222巷236弄8-1號","121.391051666667","24.9426583333333","6500900","三峽區"
"237008","302-VK","2018/11/16 18:58:19","新北市三峽區中正路一段191巷4號","121.372918333333","24.9276683333333","6500900","三峽區"
"237014","433-BY","2018/11/16 18:58:06","新北市三峽區隆恩街236號","121.357766666667","24.94113","6500900","三峽區"
"237006","5529-G3","2018/11/16 18:58:13","新北市三峽區溪東路69號","121.400811666667","24.93516","6500900","三峽區"
"237011","KEA-2596","2018/11/16 18:58:13","新北市三峽區介壽路三段245號","121.40797","24.9494816666667","6500900","三峽區"
"237015","649-BX","2018/11/16 18:58:15","新北市三峽區建安77-1號","121.45082","24.924685","6500900","三峽區"
"237010","706-TV","2018/11/16 18:58:06","新北市三峽區國光街73號","121.374098333333","24.93839","6500900","三峽區"
"237005","AKY-6261","2018/11/16 18:58:08","新北市三峽區中山路459巷163-3號","121.348681666667","24.93291","6500900","三峽區"
"236069","105-UM","2018/11/16 18:58:12","新北市土城區裕民路282號","121.455526666667","24.9819866666667","6501300","土城區"
"236042","KED-0685","2018/11/16 18:58:07","新北市土城區學府路一段229巷8號","121.451516666667","24.9838","6501300","土城區"
"236079","166-UM","2018/11/16 18:58:04","新北市土城區龍泉路10-1號","121.409551666667","24.9492566666667","6501300","土城區"
"236030","253-BX","2018/11/16 18:58:07","新北市土城區中央路二段237號","121.44024","24.9720716666667","6501300","土城區"
"236026","269-VK","2018/11/16 18:58:16","新北市土城區光明街26-1號","121.442063333333","24.9738616666667","6501300","土城區"
"236014","270-VK","2018/11/16 18:58:14","新北市土城區永豐路98巷32號","121.463155","24.98672","6501300","土城區"
"236039","271-VK","2018/11/16 18:58:15","新北市土城區仁愛路20-1號","121.460923333333","24.9801383333333","6501300","土城區"
"236020","401-BY","2018/11/16 18:58:16","新北市土城區金城路三段156號","121.467365","24.9870716666667","6501300","土城區"
"236059","752-BX","2018/11/16 18:58:16","新北市土城區金城路二段204號","121.455036666667","24.9818433333333","6501300","土城區"
"236048","913-UM","2018/11/16 18:58:08","新北市土城區明德路一段365-1號","121.45363","24.9790966666667","6501300","土城區"
"236063","915-UM","2018/11/16 18:58:11","新北市土城區金城路三段93巷25號","121.466715","24.98856","6501300","土城區"
"236055","AAC-216","2018/11/16 18:58:19","新北市土城區學成路165號","121.448123333333","24.989085","6501300","土城區"
"238023","601-UM","2018/11/16 18:58:19","新北市樹林區大慶街130號","121.396195","25.0135083333333","6500700","樹林區"
"238019","599-UM","2018/11/16 18:58:03","新北市樹林區東榮街147巷27弄1號","121.414668333333","24.9806633333333","6500700","樹林區"
"238021","KEA-2539","2018/11/16 18:58:12","新北市樹林區柑園街二段276巷40號","121.37151","24.953765","6500700","樹林區"
"238025","303-VK","2018/11/16 18:58:16","新北市樹林區中山路三段72號","121.393663333333","24.9723566666667","6500700","樹林區"
"238017","283-BY","2018/11/16 18:58:13","新北市樹林區光興街83-3號","121.409876666667","25.0026533333333","6500700","樹林區"
"238014","282-BY","2018/11/16 18:58:02","新北市樹林區千歲街61巷10號","121.42592","24.9983466666667","6500700","樹林區"
"238026","172-UY","2018/11/16 18:58:04","新北市樹林區中和街20號","121.39072","24.97345","6500700","樹林區"
"238016","169-UY","2018/11/16 18:58:09","新北市樹林區文化街23號","121.419216666667","24.9876016666667","6500700","樹林區"
"239007","AAC-297","2018/11/16 18:58:22","新北市鶯歌區中正一路211巷1弄2號","121.35366","24.9573883333333","6500800","鶯歌區"
"239006","891-R6","2018/11/16 18:58:14","新北市鶯歌區鶯桃路296巷94弄28號","121.337603333333","24.9615766666667","6500800","鶯歌區"
"239008","527-UM","2018/11/16 18:58:17","新北市鶯歌區國際二路20巷50號","121.338095","24.9760083333333","6500800","鶯歌區"
"239005","526-UM","2018/11/16 18:58:16","新北市鶯歌區東湖路14號","121.352443333333","24.9713883333333","6500800","鶯歌區"
"239001","417-VK","2018/11/16 18:58:14","新北市鶯歌區永安街40號","121.337871666667","24.956135","6500800","鶯歌區"
"239003","360-BY","2018/11/16 18:58:12","新北市鶯歌區鶯桃路383號","121.333546666667","24.9635916666667","6500800","鶯歌區"
"239002","359-BY","2018/11/16 18:58:18","新北市鶯歌區湖山路56巷1號","121.339553333333","24.9757416666667","6500800","鶯歌區"
"239004","193-VK","2018/11/16 18:58:07","新北市鶯歌區國中街148號","121.338871666667","24.9398216666667","6500800","鶯歌區"
"221008","489-VK","2018/11/16 18:28:00","新北市汐止區康寧街901號","121.651401666667","25.07505","6501100","汐止區"
"221036","130-UY","2018/11/16 18:58:09","新北市汐止區汐萬路一段115巷50號","121.652961666667","25.0703233333333","6501100","汐止區"
"221015","131-UY","2018/11/16 18:58:09","新北市汐止區鄉長路一段55巷22號","121.664741666667","25.076355","6501100","汐止區"
"221010","269-BY","2018/11/16 18:58:14","新北市汐止區康寧街901號","121.651478333333","25.0750383333333","6501100","汐止區"
"221012","278-VK","2018/11/16 18:49:33","新北市汐止區康寧街901號","121.650851666667","25.0752516666667","6501100","汐止區"
"221023","279-VK","2018/11/16 18:57:02","新北市汐止區康寧街901號","121.651736666667","25.07492","6501100","汐止區"
"221032","280-BY","2018/11/16 18:58:11","新北市汐止區橫科路407巷30弄28-5號","121.627591666667","25.04878","6501100","汐止區"
"221027","281-BY","2018/11/16 18:58:07","新北市汐止區康寧街901號","121.651476666667","25.074985","6501100","汐止區"
"221029","298-VK","2018/11/16 18:58:05","新北市汐止區樟樹一路230號","121.642281666667","25.0666666666667","6501100","汐止區"
"221021","299-VK","2018/11/16 18:58:04","新北市汐止區康寧街901號","121.651603333333","25.074995","6501100","汐止區"
"221031","353-TW","2018/11/16 18:58:20","新北市汐止區福德三路133號","121.633245","25.0674716666667","6501100","汐止區"
"221035","622-UM","2018/11/16 18:58:11","新北市汐止區汐萬路一段129號","121.653798333333","25.0711266666667","6501100","汐止區"
"221025","623-UM","2018/11/16 18:58:12","新北市汐止區汐萬路一段256巷3號","121.65247","25.07461","6501100","汐止區"
"221038","646-BX","2018/11/16 18:58:20","新北市汐止區汐萬路一段312號","121.650691666667","25.0752666666667","6501100","汐止區"
"221002","707-TV","2018/11/16 18:58:09","台北市南港區經貿一路57號","121.61976","25.0561616666667","6501100","汐止區"
"221018","753-BX","2018/11/16 18:58:16","新北市汐止區汐萬路一段244-1號","121.65151","25.0731866666667","6501100","汐止區"
"220079","145-BY","2018/11/16 18:58:15","新北市板橋區民權路202巷9弄8號","121.460115","25.0155","6500100","板橋區"
"220080","200-UY","2018/11/16 18:58:10","新北市板橋區大觀路二段265巷3-1號","121.442781666667","24.9965366666667","6500100","板橋區"
"220056","276-BY","2018/11/16 18:58:20","新北市板橋區信義路152號","121.458991666667","24.9917316666667","6500100","板橋區"
"220072","277-BY","2018/11/16 18:58:06","新北市板橋區大觀路三段50巷59號","121.43179","24.99606","6500100","板橋區"
"220101","280-UM","2018/11/16 18:58:11","新北市板橋區文化路二段173號","121.470733333333","25.02758","6500100","板橋區"
"220064","282-UM","2018/11/16 18:58:07","新北市板橋區漢生東路166號","121.466951666667","25.014785","6500100","板橋區"
"220071","283-VK","2018/11/16 18:58:06","新北市板橋區忠孝路130號","121.463373333333","25.0021683333333","6500100","板橋區"
"220094","285-UM","2018/11/16 18:58:17","新北市板橋區莒光路5號","121.46973","25.024925","6500100","板橋區"
"220053","285-VK","2018/11/16 18:58:18","新北市板橋區中山路二段147號","121.47551","25.0167566666667","6500100","板橋區"
"220081","287-VK","2018/11/16 18:58:06","新北市板橋區光華街19巷41號","121.452616666667","25.0117733333333","6500100","板橋區"
"220090","288-VK","2018/11/16 18:58:09","新北市板橋區民生路三段66號","121.466943333333","25.025655","6500100","板橋區"
"220061","295-UM","2018/11/16 18:58:04","新北市板橋區富山街99號","121.476336666667","25.0217866666667","6500100","板橋區"
"220084","296-UM","2018/11/16 18:58:14","新北市板橋區大觀路二段174巷118弄2號","121.442451666667","25.0012166666667","6500100","板橋區"
"220075","303-R5","2018/11/16 18:58:04","新北市板橋區府中路127號","121.456115","25.0095633333333","6500100","板橋區"
"220062","305-R5","2018/11/16 18:58:10","新北市板橋區民享街141號","121.477578333333","25.01688","6500100","板橋區"
"220092","307-R5","2018/11/16 18:58:05","新北市板橋區文化路一段88號","121.46444","25.0175183333333","6500100","板橋區"
"220098","317-R6","2018/11/16 18:58:17","新北市板橋區民有街12號","121.466491666667","25.0247833333333","6500100","板橋區"
"220089","487-VK","2018/11/16 18:58:14","新北市板橋區文化路二段164號","121.47033","25.0269766666667","6500100","板橋區"
"220035","560-BX","2018/11/16 18:58:20","新北市板橋區中正路375巷42號","121.453643333333","25.020385","6500100","板橋區"
"220103","561-BX","2018/11/16 18:58:00","新北市板橋區縣民大道二段283號","121.47026","25.0179333333333","6500100","板橋區"
"220083","568-UM","2018/11/16 18:58:01","新北市板橋區大觀路一段38巷156弄9號","121.442433333333","25.005055","6500100","板橋區"
"220063","609-BX","2018/11/16 18:58:11","新北市板橋區民生路一段78號","121.473686666667","25.0154316666667","6500100","板橋區"
"220091","637-BX","2018/11/16 18:58:15","新北市板橋區萬板路153號","121.4738","25.023435","6500100","板橋區"
"220057","686-BX","2018/11/16 18:58:22","新北市板橋區重慶路99號","121.46219","25.0055383333333","6500100","板橋區"
"220077","687-BX","2018/11/16 18:58:17","新北市板橋區大觀路二段158號","121.441465","24.99862","6500100","板橋區"
"220093","689-BX","2018/11/16 18:58:17","新北市板橋區民生路三段54號","121.46717","25.0252433333333","6500100","板橋區"
"220054","741-BX","2018/11/16 18:58:07","新北市板橋區成都街89號","121.462998333333","25.005215","6500100","板橋區"
"220070","806-UM","2018/11/16 18:58:21","新北市板橋區四川路一段351號","121.458438333333","24.999925","6500100","板橋區"
"220055","827-TW","2018/11/16 18:58:16","新北市板橋區民安街30號","121.466835","25.01116","6500100","板橋區"
"220067","829-TW","2018/11/16 18:58:10","新北市板橋區三民路二段正隆巷14號","121.477845","25.01288","6500100","板橋區"
"220102","830-TW","2018/11/16 18:58:22","新北市板橋區縣民大道三段205巷16弄11號","121.479938333333","25.0257716666667","6500100","板橋區"
"220096","831-TW","2018/11/16 18:58:14","新北市板橋區莒光路93號","121.472241666667","25.0240383333333","6500100","板橋區"
"220088","833-TW","2018/11/16 18:58:11","新北市板橋區民生路二段120號","121.470706666667","25.0195166666667","6500100","板橋區"
"220074","895-R6","2018/11/16 18:58:22","新北市板橋區文昌街1號","121.455976666667","25.0101516666667","6500100","板橋區"
"220073","985-R7","2018/11/16 18:58:08","新北市板橋區民權路248號","121.458396666667","25.0146316666667","6500100","板橋區"
"220097","AAC-210","2018/11/16 18:58:08","新北市板橋區縣民大道二段166號","121.468346666667","25.0167716666667","6500100","板橋區"
"220082","AAC-253","2018/11/16 18:58:16","新北市板橋區篤行路二段137號","121.42991","24.9883416666667","6500100","板橋區"
"235068","KEA-2873","2018/11/16 18:58:06","新北市中和區圓通路265巷28號","121.49568","24.992515","6500300","中和區"
"235061","KEA-2875","2018/11/16 18:57:54","新北市中和區民治街21巷2號","121.475341666667","25.0023883333333","6500300","中和區"
