"lineid","car","time","location","longitude","latitude","cityid","cityname"
"234046","148-BY","2018/11/16 19:48:06","新北市永和區永利路135號","121.524166666667","25.0033516666667","6500400","永和區"
"234007","207-UY","2018/11/16 19:48:19","新北市中和區南工路74號","121.50663","25.0022483333333","6500400","永和區"
"234081","298-R6","2018/11/16 19:48:05","新北市永和區永亨路106號","121.5235","25.00457","6500400","永和區"
"234038","336-UY","2018/11/16 19:48:17","新北市永和區成功路二段113號","121.526761666667","24.9987083333333","6500400","永和區"
"234064","337-UY","2018/11/16 19:48:10","新北市永和區中正路414號","121.51769","25.0020316666667","6500400","永和區"
"234086","338-UY","2018/11/16 19:48:11","新北市永和區永亨路136號","121.524796666667","25.0039683333333","6500400","永和區"
"234070","552-UM","2018/11/16 19:48:23","新北市永和區竹林路74號","121.51914","25.0128933333333","6500400","永和區"
"234017","745-BX","2018/11/16 19:48:16","新北市永和區永和路二段299號","121.516065","25.0160816666667","6500400","永和區"
"234030","746-BX","2018/11/16 19:48:17","新北市永和區民生路67巷46號","121.525163333333","24.99747","6500400","永和區"
"234054","KEA-2590","2018/11/16 19:48:07","新北市永和區竹林路72巷2號","121.519006666667","25.0130016666667","6500400","永和區"
"234013","KEA-2591","2018/11/16 19:48:10","新北市永和區永平路296號","121.507428333333","25.0121916666667","6500400","永和區"
"234061","AAD-866","2018/11/16 19:48:12","新北市永和區中正路100號","121.514266666667","24.99571","6500400","永和區"
"234042","862-TW","2018/11/16 19:48:13","新北市永和區中和路389巷8號","121.508091666667","25.00093","6500400","永和區"
"234050","863-TW","2018/11/16 19:48:03","新北市永和區保安路144號","121.508593333333","25.01489","6500400","永和區"
"234026","9371-KE","2018/11/16 19:48:14","新北市永和區雙和街25巷6號","121.50886","25.0018733333333","6500400","永和區"
"234011","9373-KE","2018/11/16 19:48:12","新北市永和區仁愛路352巷94號","121.501211666667","25.008055","6500400","永和區"
"249001","173-UM","2018/11/16 19:48:11","新北市八里區中華路二段165-1號","121.407766666667","25.151345","6502300","八里區"
"249004","303-UY","2018/11/16 19:48:05","新北市八里區文昌路130號","121.409698333333","25.1585566666667","6502300","八里區"
"249003","593-UM","2018/11/16 19:48:13","新北市八里區華峰三街35號","121.398496666667","25.1454333333333","6502300","八里區"
"248016","026-BX","2018/11/16 19:48:04","新北市五股區成泰路三段577巷82號","121.44964","25.1038016666667","6501500","五股區"
"248008","095-VK","2018/11/16 19:48:16","新北市蘆洲區中山二路300巷1號","121.468543333333","25.076755","6501500","五股區"
"248018","225-UY","2018/11/16 19:48:01","新北市五股區外寮路1-5號","121.42598","25.07686","6501500","五股區"
"248012","247-BX","2018/11/16 19:48:21","新北市五股區蓬萊路1-3號","121.43449","25.07965","6501500","五股區"
"248010","272-BY","2018/11/16 19:48:15","新北市五股區登林路76-9號","121.429945","25.0694216666667","6501500","五股區"
"248004","677-BX","2018/11/16 19:48:00","新北市五股區成泰路一段112號","121.43556","25.0728633333333","6501500","五股區"
"248002","678-BX","2018/11/16 19:48:00","新北市五股區成泰路四段6-3號","121.453015","25.106445","6501500","五股區"
"234023","9380-KE","2018/11/16 19:48:19","新北市永和區豫溪街57巷8弄6號","121.517651666667","25.0103916666667","6500400","永和區"
"234077","969-R7","2018/11/16 19:47:53","新北市永和區民權路1巷10號","121.520916666667","24.9982966666667","6500400","永和區"
"234074","AAC-211","2018/11/16 19:48:11","新北市永和區竹林路179巷26號","121.5217","25.01007","6500400","永和區"
"234067","AAC-212","2018/11/16 19:48:15","新北市永和區永貞路375號","121.508408333333","25.0083216666667","6500400","永和區"
"234003","AAC-295","2018/11/16 19:48:19","新北市永和區福和路307號","121.516281666667","25.0072933333333","6500400","永和區"
"244023","069-UM","2018/11/16 19:48:12","新北市林口區民權路159號","121.373873333333","25.084285","6501700","林口區"
"243010","267-VK","2018/11/16 19:48:06","新北市泰山區民生路33號","121.430768333333","25.052175","6501600","泰山區"
"243013","AAD-798","2018/11/16 19:38:01","新北市泰山區應化街7號","121.423863333333","25.043715","6501600","泰山區"
"243009","297-R6","2018/11/16 19:48:21","新北市泰山區美寧街60號","121.430965","25.0646433333333","6501600","泰山區"
"243016","KEA-2801","2018/11/16 19:48:20","新北市泰山區明志路三段521號","121.421131666667","25.031695","6501600","泰山區"
"243015","421-VK","2018/11/16 19:48:04","新北市泰山區明志路二段214巷11號","121.426715","25.04891","6501600","泰山區"
"243011","KEA-2215","2018/11/16 19:48:05","新北市泰山區明志路三段196巷21弄28號","121.42243","25.0385566666667","6501600","泰山區"
"243012","646-TV","2018/11/16 19:48:18","新北市泰山區全興路13號","121.43232","25.058945","6501600","泰山區"
"243014","680-BX","2018/11/16 19:48:15","新北市泰山區仁愛路159號","121.43508","25.0563966666667","6501600","泰山區"
"222003","436-BY","2018/11/16 19:38:55","新北市深坑區深南路51-1號","121.62123","25.00985","6501800","深坑區"
"222002","659-BX","2018/11/16 19:48:16","新北市深坑區北深路一段185號","121.631346666667","25.0101133333333","6501800","深坑區"
"231041","002-UM","2018/11/16 19:48:18","新北市新店區中央路200號","121.5306","24.97423","6500600","新店區"
"231059","046-UY","2018/11/16 19:48:18","新北市新店區安和路二段207號","121.51776","24.9752966666667","6500600","新店區"
"231040","047-UY","2018/11/16 19:48:07","新北市新店區中正路75巷71號","121.543086666667","24.9687533333333","6500600","新店區"
"231044","106-UY","2018/11/16 19:48:06","新北市新店區復興路121號","121.534113333333","24.9878766666667","6500600","新店區"
"231046","107-UY","2018/11/16 19:48:11","新北市新店區福園街10巷1號","121.532736666667","24.9728083333333","6500600","新店區"
"231053","108-UY","2018/11/16 19:48:11","新北市新店區新烏路三段115號","121.552173333333","24.9028633333333","6500600","新店區"
"231062","110-UY","2018/11/16 19:48:14","新北市新店區永業路81巷1弄1-1號","121.529345","24.9492033333333","6500600","新店區"
"231048","187-VK","2018/11/16 19:48:14","新北市新店區寶興路61巷2號","121.550861666667","24.972035","6500600","新店區"
"231054","KEA-2219","2018/11/16 19:48:11","新北市新店區北新路一段2-19號","121.53867","24.9600766666667","6500600","新店區"
"231057","256-BX","2018/11/16 19:48:12","新北市新店區梅崗三路1號","121.558163333333","24.9312016666667","6500600","新店區"
"231042","268-BY","2018/11/16 19:48:18","新北市新店區中興路一段260號","121.544703333333","24.9671483333333","6500600","新店區"
"231051","278-BY","2018/11/16 19:48:19","新北市新店區中央路153號","121.530015","24.973015","6500600","新店區"
"231050","AAD-862","2018/11/16 19:48:12","新北市新店區北宜路二段150-2號","121.557931666667","24.9540183333333","6500600","新店區"
"231058","3713-VJ","2018/11/16 19:48:07","新北市新店區中央路151號","121.529423333333","24.9719016666667","6500600","新店區"
"231066","4716-K9","2018/11/16 19:48:15","新北市新店區安康路三段165巷2弄1號","121.489383333333","24.9512683333333","6500600","新店區"
"231056","4715-K9","2018/11/16 19:48:08","新北市新店區民權路74號","121.53815","24.9832116666667","6500600","新店區"
"231067","4772-VM","2018/11/16 19:48:14","新北市新店區精忠路10-1號","121.53257","24.959095","6500600","新店區"
"231065","512-UM","2018/11/16 19:48:01","新北市新店區安祥路109巷151弄12號","121.478143333333","24.9588916666667","6500600","新店區"
"231049","513-UM","2018/11/16 19:48:19","新北市新店區民權路88-5號","121.536231666667","24.9835233333333","6500600","新店區"
"231063","616-UM","2018/11/16 19:48:12","新北市新店區車子路11號","121.50306","24.9520083333333","6500600","新店區"
"231061","618-UM","2018/11/16 19:48:09","新北市新店區安民街259號","121.517345","24.9726083333333","6500600","新店區"
"231068","718-UY","2018/11/16 19:48:12","新北市新店區安一路一段1-1號","121.519258333333","24.9613183333333","6500600","新店區"
"231060","897-TW","2018/11/16 19:48:10","新北市新店區安康路二段161號","121.510266666667","24.9593466666667","6500600","新店區"
"231045","898-TW","2018/11/16 19:48:18","新北市新店區北宜路二段382號","121.564481666667","24.9529216666667","6500600","新店區"
"231043","899-TW","2018/11/16 19:48:03","新北市新店區中正路263-2號","121.538395","24.9737716666667","6500600","新店區"
"231055","AKT-0513","2018/11/16 19:48:22","新北市新店區中華路83巷67號","121.538343333333","24.9672766666667","6500600","新店區"
"241011","013-R5","2018/11/16 19:48:23","新北市三重區介壽路20號","121.498538333333","25.070045","6500200","三重區"
"241028","022-UY","2018/11/16 19:48:11","新北市三重區中正南路157號","121.493821666667","25.0561166666667","6500200","三重區"
"241008","059-VK","2018/11/16 19:48:11","新北市三重區永福街96號","121.478891666667","25.0759316666667","6500200","三重區"
"241022","060-VK","2018/11/16 19:48:15","新北市三重區過圳街19號","121.488648333333","25.0605816666667","6500200","三重區"
"241031","061-VK","2018/11/16 19:48:22","新北市三重區重新路四段248號","121.486061666667","25.0533333333333","6500200","三重區"
"241015","062-VK","2018/11/16 19:48:14","新北市三重區三和路一段2號","121.50398","25.0641983333333","6500200","三重區"
"241017","063-VK","2018/11/16 19:48:12","新北市三重區大同北路186號","121.490753333333","25.06631","6500200","三重區"
"241026","066-VK","2018/11/16 19:48:02","新北市三重區文化南路42號","121.500383333333","25.06026","6500200","三重區"
"241003","091-VK","2018/11/16 19:48:17","新北市三重區五華街93巷9號","121.492151666667","25.0837816666667","6500200","三重區"
"241016","266-UM","2018/11/16 19:48:13","新北市三重區正義北路16巷30號","121.49656","25.0628583333333","6500200","三重區"
"241009","267-UM","2018/11/16 19:48:11","新北市三重區三和路四段396巷7號","121.481156666667","25.0791683333333","6500200","三重區"
"241018","268-UM","2018/11/16 19:48:12","新北市三重區雙園街57巷34弄34號","121.49367","25.06817","6500200","三重區"
"241032","269-UM","2018/11/16 19:48:04","新北市三重區重陽路一段26巷35-1號","121.485275","25.0577366666667","6500200","三重區"
"241013","270-UM","2018/11/16 19:48:14","新北市三重區仁愛街112巷16號","121.49469","25.0738733333333","6500200","三重區"
"241025","271-UM","2018/11/16 19:48:20","新北市三重區忠孝路三段56號","121.480608333333","25.06543","6500200","三重區"
"241007","398-BY","2018/11/16 19:48:08","新北市三重區三和路四段145巷5號","121.484493333333","25.07834","6500200","三重區"
"241035","KEA-2210","2018/11/16 19:48:16","新北市三重區文化北路33號","121.499423333333","25.06417","6500200","三重區"
"241004","475-VK","2018/11/16 19:48:13","新北市三重區五華街74號","121.49339","25.082025","6500200","三重區"
"241020","478-VK","2018/11/16 19:48:09","新北市三重區三和路四段2號","121.491658333333","25.0738416666667","6500200","三重區"
"241014","543-UM","2018/11/16 19:48:09","新北市三重區長元街98巷18弄31號","121.501736666667","25.06746","6500200","三重區"
"241023","545-UM","2018/11/16 19:48:18","新北市三重區頂崁街172號","121.477573333333","25.06595","6500200","三重區"
"241001","547-UM","2018/11/16 19:48:16","新北市三重區仁愛街327巷29號","121.493015","25.0799566666667","6500200","三重區"
"241019","KEA-2593","2018/11/16 19:48:07","新北市三重區自強路二段67巷17號","121.489395","25.070195","6500200","三重區"
"241006","AAD-863","2018/11/16 19:48:19","新北市三重區永福街263號","121.481583333333","25.0742416666667","6500200","三重區"
"241012","941-UM","2018/11/16 19:48:13","新北市三重區仁興街56巷36號","121.498276666667","25.075495","6500200","三重區"
"241029","942-UM","2018/11/16 19:48:22","新北市三重區光明路27號","121.49126","25.0584733333333","6500200","三重區"
"241033","AAC-255","2018/11/16 19:48:11","新北市三重區中興南街80巷3號","121.471265","25.0435","6500200","三重區"
"235066","003-UY","2018/11/16 19:48:18","新北市中和區南工路40號","121.505773333333","25.001235","6500300","中和區"
"235056","096-UM","2018/11/16 19:48:12","新北市中和區中山路三段89號","121.475458333333","25.0060233333333","6500300","中和區"
"235039","097-UM","2018/11/16 19:48:15","新北市中和區大勇街27巷10號","121.516926666667","24.993665","6500300","中和區"
"235065","098-UM","2018/11/16 19:48:14","新北市中和區福祥路90巷5號","121.499688333333","25.0058033333333","6500300","中和區"
"235058","151-BY","2018/11/16 19:48:18","新北市中和區員山路146巷8號","121.481735","24.99678","6500300","中和區"
"235055","183-VK","2018/11/16 19:48:17","新北市中和區莒光路2號","121.471826666667","25.00474","6500300","中和區"
"235038","185-VK","2018/11/16 19:48:20","新北市中和區自立路14號","121.522108333333","24.9961883333333","6500300","中和區"
"235049","186-VK","2018/11/16 19:48:21","新北市中和區中正路72號","121.500888333333","24.99373","6500300","中和區"
"235067","255-BX","2018/11/16 19:48:12","新北市中和區新生街186巷1弄2號","121.483333333333","24.9996283333333","6500300","中和區"
"235044","293-VK","2018/11/16 19:48:22","新北市中和區南山路231號","121.50369","24.993435","6500300","中和區"
"235072","301-VK","2018/11/16 19:48:12","新北市中和區中山路二段312巷45弄37號","121.493973333333","25.0049933333333","6500300","中和區"
"235043","352-BY","2018/11/16 19:48:16","新北市中和區興南路二段159巷5號","121.505531666667","24.9832033333333","6500300","中和區"
"235042","KEA-2878","2018/11/16 19:48:20","新北市中和區宜安路171號","121.508428333333","24.99911","6500300","中和區"
"235050","4979-A6","2018/11/16 19:48:18","新北市中和區景平路329巷1弄2號","121.50586","24.9929233333333","6500300","中和區"
"235002","551-UM","2018/11/16 19:48:22","新北市中和區宜安路1巷27號","121.512481666667","24.99422","6500300","中和區"
"235070","558-UM","2018/11/16 19:48:18","新北市中和區景平路624號","121.500388333333","24.9975316666667","6500300","中和區"
"235045","565-BX","2018/11/16 19:48:06","新北市中和區景平路404號","121.509011666667","24.9931466666667","6500300","中和區"
"235054","640-BX","2018/11/16 19:48:23","新北市中和區國光街1號","121.472711666667","25.0001066666667","6500300","中和區"
"235060","647-TV","2018/11/16 19:48:12","新北市中和區新生街30巷18號","121.482578333333","25.0038566666667","6500300","中和區"
"235047","732-UM","2018/11/16 19:48:22","新北市中和區和平街74號","121.507818333333","24.9911116666667","6500300","中和區"
"235046","733-UM","2018/11/16 19:48:07","新北市中和區仁愛街89號","121.511716666667","24.9870016666667","6500300","中和區"
"235057","801-TS","2018/11/16 19:48:04","新北市中和區民樂路81號","121.48461","25.00137","6500300","中和區"
"235052","805-TS","2018/11/16 19:48:15","新北市中和區興南路二段113巷2號","121.505508333333","24.9842983333333","6500300","中和區"
"235048","896-TW","2018/11/16 19:48:01","新北市中和區興南路一段156號","121.508211666667","24.9868566666667","6500300","中和區"
"235053","900-TW","2018/11/16 19:48:18","新北市中和區國光街175號","121.46794","25.001485","6500300","中和區"
"235051","157-BY","2018/11/16 19:48:14","新北市中和區中興街180巷52弄3號","121.498455","24.988275","6500300","中和區"
"235037","AAC-213","2018/11/16 19:48:07","新北市中和區秀朗路三段145號","121.524915","24.9923133333333","6500300","中和區"
"235059","AAC-215","2018/11/16 19:48:16","新北市中和區圓通路305巷25弄1號","121.49482","24.98945","6500300","中和區"
"220068","013-TV","2018/11/16 19:48:17","新北市板橋區中山路二段416巷41號","121.483148333333","25.0195316666667","6500100","板橋區"
"220065","072-UY","2018/11/16 19:48:22","新北市板橋區海山路41號","121.467248333333","25.0097883333333","6500100","板橋區"
"220086","073-UY","2018/11/16 19:48:16","新北市板橋區南雅西路二段7巷25號","121.451941666667","25.0094683333333","6500100","板橋區"
"220106","075-UY","2018/11/16 19:48:10","新北市板橋區民治街61巷27號","121.480535","25.0335683333333","6500100","板橋區"
"220069","AAD-861","2018/11/16 19:48:14","新北市板橋區大明街48號","121.45783","25.0029183333333","6500100","板橋區"
"247002","893-R6","2018/11/16 19:48:20","新北市蘆洲區永平街28號","121.458873333333","25.0908283333333","6501400","蘆洲區"
"247014","339-TH","2018/11/16 19:48:19","新北市蘆洲區中央路99號","121.47241","25.084095","6501400","蘆洲區"
"247008","053-VK","2018/11/16 19:48:21","新北市蘆洲區中山一路53號","121.478663333333","25.0809916666667","6501400","蘆洲區"
"247004","002-UY","2018/11/16 19:48:05","新北市蘆洲區中原路30號","121.460061666667","25.0827683333333","6501400","蘆洲區"
"226004","205-ST","2018/11/16 19:48:13","新北市平溪區靜安路三段392巷3號","121.784545","25.0496066666667","6502400","平溪區"
"235041","251-BX","2018/11/16 19:48:05","新北市中和區永貞路239巷17號","121.51259","25.003105","6500300","中和區"
"228001","670-TC","2018/11/16 19:48:11","新北市貢寮區真理里大澳街10巷54號","121.925783333333","25.0564166666667","6502600","貢寮區"
"228003","828-UM","2018/11/16 19:48:15","新北市貢寮區真理里美艷山街12-8號","121.928946666667","25.0629833333333","6502600","貢寮區"
"224002","639-TC","2018/11/16 19:48:15","新北市瑞芳區員山子路員山巷3-3號","121.817213333333","25.1037266666667","6501200","瑞芳區"
"227011","642-TC","2018/11/16 19:48:10","新北市雙溪區新基里中華路65號","121.865815","25.0381983333333","6502500","雙溪區"
"227003","400-TW","2018/11/16 19:48:04","新北市雙溪區雙溪里內挖路47號","121.863223333333","25.0368","6502500","雙溪區"
"222001","KEA-2212","2018/11/16 19:48:18","新北市深坑區北深路三段47號","121.607926666667","25.0012316666667","6501800","深坑區"
"208002","KEA-2872","2018/11/16 19:48:14","新北市金山區中華路366-1號","121.633263333333","25.2244866666667","6502700","金山區"
"208003","665-BX","2018/11/16 19:48:11","新北市金山區海興路38號","121.630883333333","25.23838","6502700","金山區"
"208001","761-BX","2018/11/16 19:48:09","新北市金山區重和里六股林口4-2號","121.600481666667","25.2125116666667","6502700","金山區"
"251005","010-UM","2018/11/16 19:48:06","新北市淡水區中山路95巷2號","121.442203333333","25.170605","6501000","淡水區"
"251001","011-UM","2018/11/16 19:48:21","新北市淡水區淡金路39號","121.45636","25.1608433333333","6501000","淡水區"
"251008","180-VK","2018/11/16 19:48:12","新北市淡水區中正路二段24巷2-1號","121.426745","25.17696","6501000","淡水區"
"251010","413-VK","2018/11/16 19:48:22","新北市淡水區下圭柔山91-3號","121.431023333333","25.209855","6501000","淡水區"
"251012","441-VK","2018/11/16 19:48:15","新北市淡水區淡金路三段28號","121.447805","25.1986033333333","6501000","淡水區"
"251007","442-VK","2018/11/16 19:48:12","新北市淡水區中正東路一段5巷5號","121.45073","25.16442","6501000","淡水區"
"251004","443-VK","2018/11/16 19:48:14","新北市淡水區民權路185巷17號","121.460456666667","25.1339566666667","6501000","淡水區"
"251006","561-UM","2018/11/16 19:48:20","新北市淡水區大忠街5巷3號","121.443478333333","25.176925","6501000","淡水區"
"251009","575-R6","2018/11/16 19:48:19","新北市淡水區中正路32號","121.44393","25.169185","6501000","淡水區"
"251011","650-BX","2018/11/16 19:48:05","新北市淡水區淡金路一段565號","121.453236666667","25.1806633333333","6501000","淡水區"
"251003","673-BX","2018/11/16 19:48:09","新北市淡水區中山北路三段16巷20號","121.443933333333","25.190225","6501000","淡水區"
"207003","550-UM","2018/11/16 19:48:24","新北市萬里區大鵬里萬里加投45-1號","121.641511666667","25.2108866666667","6502800","萬里區"
"207004","225-TW","2018/11/16 19:48:01","新北市萬里區萬里里瑪鋉路207號","121.690386666667","25.179405","6502800","萬里區"
"252002","178-VK","2018/11/16 19:48:09","新北市三芝區三民街33號","121.504696666667","25.2584833333333","6502100","三芝區"
"252001","292-VK","2018/11/16 19:48:05","新北市三芝區公正街9號","121.49975","25.2575233333333","6502100","三芝區"
"237004","KEA-2597","2018/11/16 19:48:04","新北市三峽區圳頭35號","121.37687","24.8873883333333","6500900","三峽區"
"237007","153-BY","2018/11/16 19:48:14","新北市三峽區二鬮路136巷71號","121.357315","24.9094466666667","6500900","三峽區"
"237013","252-BX","2018/11/16 19:48:07","新北市三峽區溪北街1號","121.395998333333","24.9363366666667","6500900","三峽區"
"237012","275-BY","2018/11/16 19:48:08","新北市三峽區愛國路34巷1號","121.374466666667","24.9327216666667","6500900","三峽區"
"237008","302-VK","2018/11/16 19:48:19","新北市三峽區中華路75巷16號","121.372491666667","24.9297416666667","6500900","三峽區"
"237014","433-BY","2018/11/16 19:48:05","新北市三峽區添福141-13號","121.374226666667","24.901035","6500900","三峽區"
"237006","5529-G3","2018/11/16 19:48:13","新北市三峽區中正路一段336巷15弄2號","121.369946666667","24.9249466666667","6500900","三峽區"
"237015","649-BX","2018/11/16 19:48:15","新北市三峽區橫溪路99巷4號","121.399348333333","24.935665","6500900","三峽區"
"237005","AKY-6261","2018/11/16 19:48:08","新北市三峽區長泰街79-2號","121.375555","24.933085","6500900","三峽區"
"236069","105-UM","2018/11/16 19:48:12","新北市土城區中央路二段312號","121.440461666667","24.9730733333333","6501300","土城區"
"236042","KED-0685","2018/11/16 19:48:17","新北市土城區裕民路254號","121.454456666667","24.9828833333333","6501300","土城區"
"236079","166-UM","2018/11/16 19:48:04","新北市土城區中州路52巷2弄1號","121.413101666667","24.958405","6501300","土城區"
"236030","253-BX","2018/11/16 19:48:07","新北市土城區中央路一段290號","121.443271666667","24.982415","6501300","土城區"
"236026","269-VK","2018/11/16 19:48:16","新北市土城區中央路二段61巷26號","121.443365","24.9787416666667","6501300","土城區"
"236039","271-VK","2018/11/16 19:48:15","新北市土城區國際路158巷59-1號","121.468055","24.9749966666667","6501300","土城區"
"236020","401-BY","2018/11/16 19:48:15","新北市土城區延吉街167號","121.469871666667","24.9859133333333","6501300","土城區"
"236059","752-BX","2018/11/16 19:48:05","新北市土城區中央路一段212號","121.445018333333","24.9855966666667","6501300","土城區"
"236048","913-UM","2018/11/16 19:48:08","新北市土城區青雲路145號","121.45884","24.9841366666667","6501300","土城區"
"236063","915-UM","2018/11/16 19:48:11","新北市土城區金城路三段163巷16號","121.468913333333","24.9891466666667","6501300","土城區"
"236055","AAC-216","2018/11/16 19:48:19","新北市土城區延和路148號","121.46781","24.9901983333333","6501300","土城區"
"242037","AAC-296","2018/11/16 19:48:12","新北市新莊區建安街64號","121.427121666667","25.0245833333333","6500500","新莊區"
"242058","986-R7","2018/11/16 19:48:12","新北市新莊區民安西路5號","121.42678","25.02187","6500500","新莊區"
"242056","751-BX","2018/11/16 19:48:09","新北市新莊區新豐街2號","121.449113333333","25.0347366666667","6500500","新莊區"
"242023","705-TV","2018/11/16 19:48:24","新北市新莊區化成路218號","121.465645","25.046635","6500500","新莊區"
"242027","615-BX","2018/11/16 19:48:17","新北市新莊區立信五街7號","121.444146666667","25.051495","6500500","新莊區"
"242029","612-BX","2018/11/16 19:48:05","新北市新莊區中平路288-17號","121.444778333333","25.0512333333333","6500500","新莊區"
"242039","415-TV","2018/11/16 19:48:01","新北市新莊區民安路309號","121.42986","25.0226116666667","6500500","新莊區"
"242034","135-UY","2018/11/16 19:48:19","新北市新莊區建中街90巷5弄19號","121.445756666667","25.03725","6500500","新莊區"
"242013","173-VK","2018/11/16 19:48:08","新北市新莊區中誠街93號","121.450091666667","25.0477","6500500","新莊區"
"242007","176-VK","2018/11/16 19:48:22","新北市新莊區新北大道三段5號","121.45844","25.060065","6500500","新莊區"
"242017","346-TH","2018/11/16 19:48:13","新北市新莊區中華路一段226號","121.452636666667","25.04304","6500500","新莊區"
"242032","348-TH","2018/11/16 19:48:08","新北市新莊區忠孝街70號","121.444015","25.036355","6500500","新莊區"
"242005","349-TH","2018/11/16 19:48:21","新北市新莊區化成路63巷24弄18號","121.462068333333","25.0460816666667","6500500","新莊區"
"242021","350-TH","2018/11/16 19:48:22","新北市新莊區中正路459號","121.442353333333","25.0335966666667","6500500","新莊區"
"242015","351-TH","2018/11/16 19:48:15","新北市新莊區中平路82巷36-2號","121.446481666667","25.04486","6500500","新莊區"
"238015","755-BX","2018/11/16 19:48:09","新北市樹林區中山路一段247號","121.420558333333","24.986695","6500700","樹林區"
"238019","599-UM","2018/11/16 19:48:22","新北市樹林區中山路三段309號","121.391206666667","24.971775","6500700","樹林區"
"238021","KEA-2539","2018/11/16 19:48:12","新北市樹林區田尾街224號","121.398228333333","24.947895","6500700","樹林區"
"238025","303-VK","2018/11/16 19:48:16","新北市樹林區中山路二段111號","121.41053","24.9810516666667","6500700","樹林區"
"238017","283-BY","2018/11/16 19:48:13","新北市樹林區保安街二段45巷29-6號","121.413823333333","25.0002016666667","6500700","樹林區"
"238014","282-BY","2018/11/16 19:48:22","新北市樹林區千歲街70巷1弄1號","121.426481666667","24.9973566666667","6500700","樹林區"
"221008","489-VK","2018/11/16 19:48:11","新北市汐止區康寧街83巷46號","121.621018333333","25.0674366666667","6501100","汐止區"
"221036","130-UY","2018/11/16 19:48:09","新北市汐止區汐萬路一段244-1號","121.651381666667","25.07343","6501100","汐止區"
"221015","131-UY","2018/11/16 19:48:09","新北市汐止區大同路二段411號","121.658486666667","25.0671366666667","6501100","汐止區"
"221010","269-BY","2018/11/16 19:48:14","新北市汐止區八連路一段72號","121.647098333333","25.0809866666667","6501100","汐止區"
"221012","278-VK","2018/11/16 19:48:09","新北市汐止區大同路三段402號","121.681891666667","25.0718233333333","6501100","汐止區"
"221023","279-VK","2018/11/16 19:47:22","新北市汐止區民族六街17號","121.630295","25.069145","6501100","汐止區"
"221027","281-BY","2018/11/16 19:48:07","新北市汐止區秀峰路17巷14號","121.660681666667","25.06717","6501100","汐止區"
"221029","298-VK","2018/11/16 19:48:05","新北市汐止區康寧街901號","121.651461666667","25.0749666666667","6501100","汐止區"
"221021","299-VK","2018/11/16 19:48:04","新北市汐止區新興路85巷1號","121.658001666667","25.0615116666667","6501100","汐止區"
"221031","353-TW","2018/11/16 19:48:20","新北市汐止區福德三路95號","121.636116666667","25.0690266666667","6501100","汐止區"
"221035","622-UM","2018/11/16 19:48:04","新北市汐止區長江街13巷4號","121.654815","25.071475","6501100","汐止區"
"221025","623-UM","2018/11/16 19:48:12","新北市汐止區秀峰路81巷21號","121.660975","25.0647316666667","6501100","汐止區"
"221038","646-BX","2018/11/16 19:48:20","新北市汐止區忠孝東路428-2號","121.665995","25.0720416666667","6501100","汐止區"
"221033","647-BX","2018/11/16 19:48:15","新北市汐止區東勢街70號","121.632973333333","25.039725","6501100","汐止區"
"221018","753-BX","2018/11/16 19:48:16","新北市汐止區汐萬路一段115巷1號","121.654433333333","25.0706033333333","6501100","汐止區"
"220079","145-BY","2018/11/16 19:48:09","新北市板橋區大仁街108-2號","121.452975","25.01591","6500100","板橋區"
"220080","200-UY","2018/11/16 19:48:21","新北市板橋區大觀路二段59巷1號","121.446878333333","25.0026016666667","6500100","板橋區"
"220056","276-BY","2018/11/16 19:48:20","新北市板橋區四川路二段99巷1號","121.452723333333","24.9945416666667","6500100","板橋區"
"220072","277-BY","2018/11/16 19:48:19","新北市板橋區金門街161號","121.432888333333","24.9903883333333","6500100","板橋區"
"220101","280-UM","2018/11/16 19:48:11","新北市板橋區莒光路196巷1號","121.47421","25.02238","6500100","板橋區"
"220064","282-UM","2018/11/16 19:48:07","新北市板橋區公園街64號","121.461921666667","25.00772","6500100","板橋區"
"220071","283-VK","2018/11/16 19:48:06","新北市板橋區五權街30巷24弄3號","121.463895","24.9933283333333","6500100","板橋區"
"220094","285-UM","2018/11/16 19:48:17","新北市板橋區長江路一段224號","121.46325","25.0309883333333","6500100","板橋區"
"220053","285-VK","2018/11/16 19:48:08","新北市板橋區中山路二段60巷11號","121.474285","25.015245","6500100","板橋區"
"220081","287-VK","2018/11/16 19:48:20","新北市板橋區大觀路一段29巷23號","121.450201666667","25.00785","6500100","板橋區"
"220090","288-VK","2018/11/16 19:48:09","新北市板橋區龍泉街54巷7弄14號","121.456541666667","25.02646","6500100","板橋區"
"220061","295-UM","2018/11/16 19:48:19","新北市板橋區漢生東路113巷22號","121.468123333333","25.015475","6500100","板橋區"
"220084","296-UM","2018/11/16 19:48:14","新北市板橋區滿平街2巷5-2號","121.425825","24.9899783333333","6500100","板橋區"
"242002","281-VK","2018/11/16 19:48:17","新北市新莊區瓊林路1號","121.450481666667","25.0321283333333","6500500","新莊區"
"220075","303-R5","2018/11/16 19:48:07","新北市板橋區金華街10巷25號","121.456758333333","25.0201483333333","6500100","板橋區"
"220062","305-R5","2018/11/16 19:48:10","新北市板橋區中山路二段416巷52-2號","121.48286","25.019295","6500100","板橋區"
"220092","307-R5","2018/11/16 19:48:04","新北市板橋區陽明街164巷24號","121.464525","25.0245833333333","6500100","板橋區"
"220098","317-R6","2018/11/16 19:48:04","新北市板橋區四維路269巷86號","121.459861666667","25.0267333333333","6500100","板橋區"
"220089","487-VK","2018/11/16 19:48:14","新北市板橋區綠堤街49號","121.455346666667","25.025845","6500100","板橋區"
"220035","560-BX","2018/11/16 19:48:12","新北市板橋區新生街29巷2弄7號","121.456916666667","25.021445","6500100","板橋區"
"220103","561-BX","2018/11/16 19:48:20","新北市板橋區陽明街27巷1號","121.465643333333","25.0218383333333","6500100","板橋區"
"220083","568-UM","2018/11/16 19:48:22","新北市板橋區龍興街65巷2號","121.443651666667","25.0013783333333","6500100","板橋區"
"220063","609-BX","2018/11/16 19:48:11","新北市板橋區中山路二段361號","121.479755","25.0190733333333","6500100","板橋區"
"220091","637-BX","2018/11/16 19:48:15","新北市板橋區文聖街149巷30號","121.479768333333","25.0287233333333","6500100","板橋區"
"220057","686-BX","2018/11/16 19:48:22","新北市板橋區信義路243號","121.460253333333","24.9910516666667","6500100","板橋區"
"220077","687-BX","2018/11/16 19:48:20","新北市板橋區僑中一街124巷19弄1號","121.446131666667","25.0139833333333","6500100","板橋區"
"220093","689-BX","2018/11/16 19:48:23","新北市板橋區長江路二段281號","121.470241666667","25.033075","6500100","板橋區"
"220054","741-BX","2018/11/16 19:48:07","新北市板橋區實踐路93巷68號","121.466566666667","25.0048683333333","6500100","板橋區"
"220070","806-UM","2018/11/16 19:48:18","新北市板橋區實踐路29號","121.463635","25.0071583333333","6500100","板橋區"
"220055","827-TW","2018/11/16 19:48:16","新北市板橋區國慶路168-3號","121.462381666667","24.9961883333333","6500100","板橋區"
"220067","829-TW","2018/11/16 19:48:10","新北市板橋區民生路一段21號","121.474915","25.0113966666667","6500100","板橋區"
"220102","830-TW","2018/11/16 19:48:02","新北市板橋區松柏街35號","121.47531","25.0302866666667","6500100","板橋區"
"220096","831-TW","2018/11/16 19:48:00","新北市板橋區莒光路39巷18號","121.471078333333","25.0252166666667","6500100","板橋區"
"220088","833-TW","2018/11/16 19:48:11","新北市板橋區仁化街164號","121.4781","25.0336016666667","6500100","板橋區"
"220074","895-R6","2018/11/16 19:48:22","新北市板橋區民權路69號","121.46153","25.0116166666667","6500100","板橋區"
"220073","985-R7","2018/11/16 19:48:08","新北市板橋區南雅西路二段214號","121.451985","25.0152316666667","6500100","板橋區"
"220097","AAC-210","2018/11/16 19:48:08","新北市板橋區文化路一段307巷3號","121.464713333333","25.0192533333333","6500100","板橋區"
"220082","AAC-253","2018/11/16 19:48:16","新北市板橋區溪崑一街92號","121.429053333333","24.989465","6500100","板橋區"
"235068","KEA-2873","2018/11/16 19:48:06","新北市中和區莊敬路16巷15弄4號","121.50031","25.0037016666667","6500300","中和區"
"235061","KEA-2875","2018/11/16 19:47:53","新北市中和區民安街2巷7號","121.480521666667","25.00132","6500300","中和區"
