"lineid","car","time","location","longitude","latitude","cityid","cityname"
"234046","148-BY","2018/11/16 19:57:45","新北市永和區成功路一段2號","121.527135","25.0055733333333","6500400","永和區"
"234007","207-UY","2018/11/16 19:57:39","新北市永和區保生路40巷16號","121.506738333333","25.0083383333333","6500400","永和區"
"234081","298-R6","2018/11/16 19:57:49","新北市永和區永利路75巷4號","121.521856666667","25.0040133333333","6500400","永和區"
"234038","336-UY","2018/11/16 19:57:36","新北市永和區成功路二段116號","121.526581666667","24.9979183333333","6500400","永和區"
"234064","337-UY","2018/11/16 19:57:50","新北市永和區中正路368巷1弄45號","121.519103333333","25.0009883333333","6500400","永和區"
"234086","338-UY","2018/11/16 19:57:31","新北市永和區中正路570號","121.517111666667","25.0063466666667","6500400","永和區"
"234070","552-UM","2018/11/16 19:57:43","新北市永和區國光路6號","121.519796666667","25.0084966666667","6500400","永和區"
"234017","745-BX","2018/11/16 19:57:36","新北市永和區文化路53號","121.514296666667","25.0150116666667","6500400","永和區"
"234030","746-BX","2018/11/16 19:57:37","新北市永和區民生路22巷23號","121.521371666667","24.9970566666667","6500400","永和區"
"234054","KEA-2590","2018/11/16 19:57:47","新北市永和區環河東路一段122號","121.520686666667","25.01547","6500400","永和區"
"234013","KEA-2591","2018/11/16 19:57:48","新北市永和區保生路55號","121.504738333333","25.01057","6500400","永和區"
"234061","AAD-866","2018/11/16 19:57:52","新北市永和區中正路283巷27號","121.516393333333","24.9999266666667","6500400","永和區"
"234042","862-TW","2018/11/16 19:57:33","新北市永和區中和路421巷16弄1號","121.508588333333","25.0010716666667","6500400","永和區"
"234050","863-TW","2018/11/16 19:57:44","新北市永和區保安路260號","121.505958333333","25.0123733333333","6500400","永和區"
"234026","9371-KE","2018/11/16 19:57:38","新北市永和區水源街27巷5號","121.511263333333","25.0041733333333","6500400","永和區"
"234011","9373-KE","2018/11/16 19:57:32","新北市永和區仁愛路352巷124號","121.500275","25.0085966666667","6500400","永和區"
"249005","172-UM","2018/11/16 19:57:47","新北市八里區楓林路3-3號","121.382351666667","25.1303716666667","6502300","八里區"
"249001","173-UM","2018/11/16 19:57:32","新北市八里區中華路二段310號","121.403891666667","25.1483783333333","6502300","八里區"
"249004","303-UY","2018/11/16 19:57:50","新北市八里區中山路一段219號","121.411338333333","25.1577766666667","6502300","八里區"
"249003","593-UM","2018/11/16 19:57:33","新北市八里區中華路二段560巷3號","121.398616666667","25.14507","6502300","八里區"
"248016","026-BX","2018/11/16 19:57:44","新北市五股區成泰路三段577巷80弄72號","121.448908333333","25.1047866666667","6501500","五股區"
"248008","095-VK","2018/11/16 19:57:36","新北市五股區四維路30巷29號","121.468586666667","25.071485","6501500","五股區"
"248018","225-UY","2018/11/16 19:57:41","新北市五股區登林路83-1號","121.425238333333","25.0705333333333","6501500","五股區"
"248012","247-BX","2018/11/16 19:57:41","新北市五股區民義路一段112-10號","121.435383333333","25.08522","6501500","五股區"
"248010","272-BY","2018/11/16 19:57:48","新北市五股區登林路36-3號","121.43315","25.068775","6501500","五股區"
"248004","677-BX","2018/11/16 19:57:40","新北市五股區成泰路一段32巷60號","121.434991666667","25.067035","6501500","五股區"
"248002","678-BX","2018/11/16 19:57:40","新北市五股區成泰路三段476號","121.451825","25.1013183333333","6501500","五股區"
"234023","9380-KE","2018/11/16 19:57:40","新北市永和區中正路702巷18號","121.516473333333","25.01057","6500400","永和區"
"234077","969-R7","2018/11/16 19:57:53","新北市永和區智光街53號","121.51717","24.99792","6500400","永和區"
"234074","AAC-211","2018/11/16 19:57:31","新北市永和區豫溪街207巷18號","121.52337","25.0101433333333","6500400","永和區"
"234067","AAC-212","2018/11/16 19:57:32","新北市永和區中山路一段238號","121.507553333333","25.0076466666667","6500400","永和區"
"234003","AAC-295","2018/11/16 19:57:38","新北市永和區永和路二段5號","121.5144","25.0101166666667","6500400","永和區"
"243010","267-VK","2018/11/16 19:57:46","新北市泰山區公園路65號","121.42605","25.0545283333333","6501600","泰山區"
"243013","AAD-798","2018/11/16 19:57:32","新北市泰山區應化街7號","121.42388","25.043705","6501600","泰山區"
"243009","297-R6","2018/11/16 19:57:41","新北市泰山區楓江路1號","121.4333","25.0627116666667","6501600","泰山區"
"243016","KEA-2801","2018/11/16 19:57:51","新北市泰山區新北大道六段293號","121.424328333333","25.03416","6501600","泰山區"
"243015","421-VK","2018/11/16 19:57:44","新北市泰山區明志路二段214巷16弄21號","121.42681","25.0498016666667","6501600","泰山區"
"243011","KEA-2215","2018/11/16 19:57:45","新北市泰山區明志路三段182巷56號","121.422781666667","25.0397766666667","6501600","泰山區"
"243012","646-TV","2018/11/16 19:57:40","新北市泰山區全興路78號","121.432941666667","25.0579833333333","6501600","泰山區"
"243014","680-BX","2018/11/16 19:57:35","新北市泰山區明志路一段184號","121.432971666667","25.0622516666667","6501600","泰山區"
"222003","436-BY","2018/11/16 19:57:51","新北市深坑區北深路二段2巷3號","121.621771666667","25.0046783333333","6501800","深坑區"
"222002","659-BX","2018/11/16 19:57:36","新北市深坑區北深路二段55巷12弄14號","121.618618333333","25.0032766666667","6501800","深坑區"
"231041","002-UM","2018/11/16 19:57:37","新北市新店區自由街2-1號","121.535658333333","24.9755416666667","6500600","新店區"
"231059","046-UY","2018/11/16 19:57:38","新北市新店區安和路一段45號","121.517361666667","24.9656816666667","6500600","新店區"
"231040","047-UY","2018/11/16 19:57:47","新北市新店區中正路98號","121.543388333333","24.9705","6500600","新店區"
"231044","106-UY","2018/11/16 19:57:46","新北市新店區復興路36號","121.539013333333","24.9867633333333","6500600","新店區"
"231046","107-UY","2018/11/16 19:57:31","新北市新店區三民路159巷19弄1號","121.532833333333","24.97418","6500600","新店區"
"231053","108-UY","2018/11/16 19:57:36","新北市新店區新烏路三段寶島巷2弄4號","121.552086666667","24.89844","6500600","新店區"
"231062","110-UY","2018/11/16 19:57:42","新北市新店區華城路36巷1-1號","121.52815","24.955465","6500600","新店區"
"231048","187-VK","2018/11/16 19:57:34","新北市新店區寶宏路3-6號","121.549288333333","24.97632","6500600","新店區"
"231054","KEA-2219","2018/11/16 19:57:51","新北市新店區光明街96巷3號","121.539373333333","24.9598683333333","6500600","新店區"
"231057","256-BX","2018/11/16 19:57:44","新北市新店區花園二路一段11號","121.555508333333","24.93251","6500600","新店區"
"231042","268-BY","2018/11/16 19:57:42","新北市新店區中興路一段280號","121.545503333333","24.9684083333333","6500600","新店區"
"231051","278-BY","2018/11/16 19:57:39","新北市新店區中央一街29號","121.527993333333","24.97338","6500600","新店區"
"231050","AAD-862","2018/11/16 19:57:31","新北市新店區北宜路一段250號","121.545365","24.9529466666667","6500600","新店區"
"231058","3713-VJ","2018/11/16 19:57:47","新北市新店區安康路二段362號","121.501905","24.9574266666667","6500600","新店區"
"231066","4716-K9","2018/11/16 19:57:36","新北市新店區安康路二段317號","121.499471666667","24.9566766666667","6500600","新店區"
"231056","4715-K9","2018/11/16 19:57:47","新北市新店區北新路二段189號","121.542553333333","24.9777816666667","6500600","新店區"
"231067","4772-VM","2018/11/16 19:57:34","新北市新店區精忠路10-1號","121.532526666667","24.9591466666667","6500600","新店區"
"231065","512-UM","2018/11/16 19:57:41","新北市新店區安祥路108巷3號","121.475136666667","24.9587116666667","6500600","新店區"
"231049","513-UM","2018/11/16 19:57:39","新北市新店區建國路222號","121.537696666667","24.9814083333333","6500600","新店區"
"231063","616-UM","2018/11/16 19:57:51","新北市新店區車子路11號","121.503085","24.9520233333333","6500600","新店區"
"231061","618-UM","2018/11/16 19:57:49","新北市新店區安民街383號","121.516168333333","24.976465","6500600","新店區"
"231068","718-UY","2018/11/16 19:57:52","新北市新店區安一路一段1-1號","121.51913","24.9609866666667","6500600","新店區"
"231060","897-TW","2018/11/16 19:57:50","新北市新店區安康路二段382號","121.500283333333","24.9569816666667","6500600","新店區"
"231045","898-TW","2018/11/16 19:57:43","新北市新店區北宜路二段361-3號","121.558548333333","24.9542","6500600","新店區"
"231043","899-TW","2018/11/16 19:57:43","新北市新店區中正路263-2號","121.538396666667","24.97372","6500600","新店區"
"231055","AKT-0513","2018/11/16 19:57:42","新北市新店區中華路83巷67號","121.538345","24.9672816666667","6500600","新店區"
"241011","013-R5","2018/11/16 19:57:43","新北市三重區三和路二段210號","121.49816","25.069395","6500200","三重區"
"241028","022-UY","2018/11/16 19:57:50","新北市三重區中正南路47號","121.49394","25.05963","6500200","三重區"
"241008","059-VK","2018/11/16 19:57:51","新北市三重區永福街179巷15號","121.478348333333","25.0749366666667","6500200","三重區"
"241022","060-VK","2018/11/16 19:57:55","新北市三重區過圳街19號","121.488671666667","25.0605633333333","6500200","三重區"
"241031","061-VK","2018/11/16 19:57:42","新北市三重區重新路四段184巷16號","121.487141666667","25.0549516666667","6500200","三重區"
"241015","062-VK","2018/11/16 19:57:34","新北市三重區三和路二段13號","121.501431666667","25.0666666666667","6500200","三重區"
"241017","063-VK","2018/11/16 19:57:52","新北市三重區重陽路三段7-1號","121.489215","25.0661916666667","6500200","三重區"
"241024","065-VK","2018/11/16 19:57:37","新北市三重區大勇街54號","121.480706666667","25.07154","6500200","三重區"
"241026","066-VK","2018/11/16 19:57:42","新北市三重區仁慈街3號","121.501583333333","25.06305","6500200","三重區"
"241002","090-VK","2018/11/16 19:57:44","新北市三重區仁義街101巷2號","121.498716666667","25.078375","6500200","三重區"
"241003","091-VK","2018/11/16 19:57:37","新北市三重區仁愛街462號","121.489961666667","25.0821833333333","6500200","三重區"
"241005","262-UM","2018/11/16 19:57:36","新北市三重區溪尾街325巷32號","121.488688333333","25.0833266666667","6500200","三重區"
"241016","266-UM","2018/11/16 19:57:33","新北市三重區正義北路50號","121.497055","25.0637083333333","6500200","三重區"
"241009","267-UM","2018/11/16 19:57:51","新北市三重區三和路四段390巷21號","121.480893333333","25.0787766666667","6500200","三重區"
"241018","268-UM","2018/11/16 19:57:32","新北市三重區正義北路244巷71號","121.49394","25.0676833333333","6500200","三重區"
"241032","269-UM","2018/11/16 19:57:44","新北市三重區捷運路53號","121.483711666667","25.05563","6500200","三重區"
"241013","270-UM","2018/11/16 19:57:33","新北市三重區三和路三段125巷42號","121.494136666667","25.0738416666667","6500200","三重區"
"241025","271-UM","2018/11/16 19:57:40","新北市三重區頂崁街210巷16號","121.476468333333","25.067755","6500200","三重區"
"241007","398-BY","2018/11/16 19:57:48","新北市三重區慈愛街50號","121.485953333333","25.0791016666667","6500200","三重區"
"241035","KEA-2210","2018/11/16 19:57:36","新北市三重區重新路二段13巷9號","121.498331666667","25.062885","6500200","三重區"
"241004","475-VK","2018/11/16 19:57:52","新北市三重區五華街74號","121.49339","25.0820266666667","6500200","三重區"
"241020","478-VK","2018/11/16 19:57:49","新北市三重區忠孝路一段101號","121.489681666667","25.0721366666667","6500200","三重區"
"241014","543-UM","2018/11/16 19:57:48","新北市三重區三和路二段107號","121.499348333333","25.0686666666667","6500200","三重區"
"241023","545-UM","2018/11/16 19:57:38","新北市三重區頂崁街172號","121.477575","25.0659566666667","6500200","三重區"
"241001","547-UM","2018/11/16 19:57:36","新北市三重區五華街6號","121.495115","25.0799616666667","6500200","三重區"
"241019","KEA-2593","2018/11/16 19:57:47","新北市三重區六張街134號","121.490516666667","25.06917","6500200","三重區"
"241006","AAD-863","2018/11/16 19:57:39","新北市三重區力行路二段71-1號","121.482248333333","25.0751983333333","6500200","三重區"
"241012","941-UM","2018/11/16 19:57:33","新北市三重區仁厚街37號","121.500086666667","25.0764466666667","6500200","三重區"
"241029","942-UM","2018/11/16 19:57:42","新北市三重區重新路三段204號","121.490146666667","25.058285","6500200","三重區"
"241033","AAC-255","2018/11/16 19:57:51","新北市三重區中興北街65號","121.469498333333","25.04753","6500200","三重區"
"235066","003-UY","2018/11/16 19:57:38","新北市中和區光華街10號","121.504286666667","25.0043333333333","6500300","中和區"
"235056","096-UM","2018/11/16 19:57:32","新北市中和區中山路三段146-1號","121.47346","25.006955","6500300","中和區"
"235039","097-UM","2018/11/16 19:57:35","新北市中和區景平路276-1號","121.514038333333","24.9925316666667","6500300","中和區"
"235065","098-UM","2018/11/16 19:57:34","新北市中和區福美路232號","121.49899","25.00533","6500300","中和區"
"235058","151-BY","2018/11/16 19:57:38","新北市中和區員山路148巷19號","121.48205","24.9971333333333","6500300","中和區"
"235055","183-VK","2018/11/16 19:57:37","新北市中和區民生街21-6號","121.470756666667","25.0056083333333","6500300","中和區"
"235049","186-VK","2018/11/16 19:57:41","新北市中和區景平路415號","121.50209","24.994945","6500300","中和區"
"235067","255-BX","2018/11/16 19:57:32","新北市中和區新生街220巷27號","121.482588333333","24.9984866666667","6500300","中和區"
"235044","293-VK","2018/11/16 19:57:41","新北市中和區板南路132號","121.502435","24.9925533333333","6500300","中和區"
"235050","4979-A6","2018/11/16 19:57:38","新北市中和區景平路241巷64弄14號","121.50749","24.9924316666667","6500300","中和區"
"235002","551-UM","2018/11/16 19:57:42","新北市中和區宜安路11巷9號","121.512876666667","24.9951983333333","6500300","中和區"
"235070","558-UM","2018/11/16 19:57:38","新北市中和區圓通路172號","121.497351666667","24.9946683333333","6500300","中和區"
"235054","640-BX","2018/11/16 19:57:43","新北市中和區莒光路3巷1號","121.471963333333","25.0060716666667","6500300","中和區"
"235046","733-UM","2018/11/16 19:57:47","新北市中和區興南路一段93巷57號","121.510245","24.987315","6500300","中和區"
"235052","805-TS","2018/11/16 19:57:35","新北市中和區華新街192巷24號","121.506371666667","24.9831833333333","6500300","中和區"
"235048","896-TW","2018/11/16 19:57:41","新北市中和區興南路一段12號","121.511433333333","24.991285","6500300","中和區"
"235053","900-TW","2018/11/16 19:57:38","新北市中和區莒光路205-1號","121.471185","24.997255","6500300","中和區"
"235051","157-BY","2018/11/16 19:57:34","新北市中和區復興路268號","121.503185","24.990375","6500300","中和區"
"235037","AAC-213","2018/11/16 19:57:47","新北市中和區自立路38-1號","121.522841666667","24.9924016666667","6500300","中和區"
"235059","AAC-215","2018/11/16 19:57:36","新北市中和區圓通路333號","121.49198","24.9904533333333","6500300","中和區"
"220068","013-TV","2018/11/16 19:57:43","新北市板橋區光復街192巷16弄6號","121.486261666667","25.019685","6500100","板橋區"
"220065","072-UY","2018/11/16 19:57:39","新北市板橋區中山路一段154巷21號","121.46535","25.0105433333333","6500100","板橋區"
"220106","075-UY","2018/11/16 19:57:48","新北市板橋區民治街42巷16號","121.478561666667","25.0333783333333","6500100","板橋區"
"220069","AAD-861","2018/11/16 19:57:49","新北市板橋區大明街18-5號","121.458763333333","25.00303","6500100","板橋區"
"247002","893-R6","2018/11/16 19:57:40","新北市蘆洲區永樂街31巷7-1號","121.458141666667","25.0872733333333","6501400","蘆洲區"
"247016","546-UM","2018/11/16 19:57:41","新北市蘆洲區中正路83號","121.470035","25.083615","6501400","蘆洲區"
"247024","500-BY","2018/11/16 19:57:35","新北市蘆洲區光榮路120巷23號","121.46574","25.088195","6501400","蘆洲區"
"247014","339-TH","2018/11/16 19:57:39","新北市蘆洲區成功路132號","121.472166666667","25.08268","6501400","蘆洲區"
"247006","337-TH","2018/11/16 19:57:34","新北市蘆洲區九芎街139巷22弄2號","121.466113333333","25.078885","6501400","蘆洲區"
"247020","057-VK","2018/11/16 19:57:33","新北市蘆洲區民義街33號","121.471966666667","25.0891116666667","6501400","蘆洲區"
"247008","053-VK","2018/11/16 19:57:41","新北市蘆洲區信義路115號","121.478455","25.0802866666667","6501400","蘆洲區"
"247004","002-UY","2018/11/16 19:57:43","新北市蘆洲區永康街77號","121.455761666667","25.0851716666667","6501400","蘆洲區"
"226004","205-ST","2018/11/16 19:57:34","新北市平溪區靜安路三段375號","121.780881666667","25.0465516666667","6502400","平溪區"
"228003","828-UM","2018/11/16 19:57:35","新北市貢寮區仁理村仁和路242號","121.924025","25.0538866666667","6502600","貢寮區"
"224010","AGQ-8101","2018/11/16 19:57:50","新北市瑞芳區基山街233號","121.841993333333","25.1069233333333","6501200","瑞芳區"
"227011","642-TC","2018/11/16 19:57:50","新北市雙溪區新基里新基南街25號","121.866263333333","25.038145","6502500","雙溪區"
"227003","400-TW","2018/11/16 19:57:44","新北市雙溪區雙溪里長安街16號","121.86499","25.0346816666667","6502500","雙溪區"
"222001","KEA-2212","2018/11/16 19:57:38","新北市深坑區北深路三段112號","121.606776666667","25.00168","6501800","深坑區"
"208002","KEA-2872","2018/11/16 19:57:34","新北市金山區中山路16號","121.641923333333","25.2171783333333","6502700","金山區"
"208003","665-BX","2018/11/16 19:57:46","新北市金山區永興里濆水路13號","121.626775","25.2684183333333","6502700","金山區"
"208001","761-BX","2018/11/16 19:57:49","新北市金山區中正路149-1號","121.631575","25.2213383333333","6502700","金山區"
"251005","010-UM","2018/11/16 19:57:46","新北市淡水區學府路136巷8號","121.45098","25.1728766666667","6501000","淡水區"
"251001","011-UM","2018/11/16 19:57:41","新北市淡水區淡金路二段365號","121.447281666667","25.1853333333333","6501000","淡水區"
"251008","180-VK","2018/11/16 19:57:52","新北市淡水區淡海路63巷22號","121.422323333333","25.18045","6501000","淡水區"
"251010","413-VK","2018/11/16 19:57:43","新北市淡水區崁頂115號","121.432671666667","25.2046583333333","6501000","淡水區"
"251012","441-VK","2018/11/16 19:57:48","新北市淡水區下圭柔山93號","121.436023333333","25.208985","6501000","淡水區"
"251007","442-VK","2018/11/16 19:57:52","新北市淡水區竿蓁二街65號","121.454976666667","25.16345","6501000","淡水區"
"251004","443-VK","2018/11/16 19:57:54","新北市淡水區民權路177巷11號","121.46077","25.13529","6501000","淡水區"
"251006","561-UM","2018/11/16 19:57:48","新北市淡水區水碓街34號","121.444205","25.1773683333333","6501000","淡水區"
"251009","575-R6","2018/11/16 19:57:39","新北市淡水區英專路21巷1號","121.445355","25.16965","6501000","淡水區"
"251011","650-BX","2018/11/16 19:57:45","新北市淡水區崁頂55-3號","121.442195","25.19666","6501000","淡水區"
"251003","673-BX","2018/11/16 19:57:47","新北市淡水區中山北路二段189巷15弄29號","121.44344","25.1841833333333","6501000","淡水區"
"207003","550-UM","2018/11/16 19:57:44","新北市萬里區磺潭里公館崙5號","121.641926666667","25.2142333333333","6502800","萬里區"
"207004","225-TW","2018/11/16 19:57:41","新北市萬里區北基里忠二街35號","121.685635","25.175765","6502800","萬里區"
"252002","178-VK","2018/11/16 19:57:49","新北市三芝區忠孝街112-5號","121.50554","25.257635","6502100","三芝區"
"252001","292-VK","2018/11/16 19:57:45","新北市三芝區公正街9號","121.499756666667","25.2575283333333","6502100","三芝區"
"237004","KEA-2597","2018/11/16 19:57:44","新北市三峽區添福2號","121.371943333333","24.9060216666667","6500900","三峽區"
"237007","153-BY","2018/11/16 19:57:54","新北市三峽區麻園46號","121.363853333333","24.921275","6500900","三峽區"
"237012","275-BY","2018/11/16 19:57:47","新北市三峽區中華路141號","121.370998333333","24.9273666666667","6500900","三峽區"
"237014","433-BY","2018/11/16 19:57:45","新北市三峽區正義街158-7號","121.368336666667","24.91602","6500900","三峽區"
"237006","5529-G3","2018/11/16 19:57:33","新北市三峽區正義街9號","121.369963333333","24.92003","6500900","三峽區"
"237015","649-BX","2018/11/16 19:57:35","新北市三峽區介壽路二段138巷1弄166-2號","121.40324","24.9276616666667","6500900","三峽區"
"237005","AKY-6261","2018/11/16 19:57:48","新北市三峽區民生街1巷3號","121.383068333333","24.9328233333333","6500900","三峽區"
"236069","105-UM","2018/11/16 19:57:52","新北市土城區忠義路95號","121.443656666667","24.9641033333333","6501300","土城區"
"236042","KED-0685","2018/11/16 19:57:32","新北市土城區學府路一段98巷21-1號","121.45535","24.98867","6501300","土城區"
"236079","166-UM","2018/11/16 19:57:43","新北市土城區福安街55巷13號","121.418958333333","24.9638783333333","6501300","土城區"
"236030","253-BX","2018/11/16 19:57:47","新北市土城區中華路一段201號","121.44304","24.9850633333333","6501300","土城區"
"236026","269-VK","2018/11/16 19:57:36","新北市土城區員林街72號","121.444486666667","24.9771","6501300","土城區"
"236014","270-VK","2018/11/16 19:57:33","新北市土城區廣福街128號","121.456333333333","24.99287","6501300","土城區"
"236039","271-VK","2018/11/16 19:57:47","新北市土城區國際路139巷40號","121.468398333333","24.9772633333333","6501300","土城區"
"236020","401-BY","2018/11/16 19:57:36","新北市土城區延吉街42號","121.471848333333","24.9871133333333","6501300","土城區"
"236059","752-BX","2018/11/16 19:57:45","新北市土城區中央路一段245號","121.445355","24.98603","6501300","土城區"
"236048","913-UM","2018/11/16 19:57:48","新北市土城區金城路三段309號","121.474471666667","24.991065","6501300","土城區"
"236063","915-UM","2018/11/16 19:57:51","新北市土城區延和路18巷18號","121.4646","24.9879466666667","6501300","土城區"
"236055","AAC-216","2018/11/16 19:57:39","新北市土城區青雲路35號","121.460186666667","24.9883833333333","6501300","土城區"
"242037","AAC-296","2018/11/16 19:57:12","新北市新莊區建安街41巷13號","121.429378333333","25.025205","6500500","新莊區"
"242058","986-R7","2018/11/16 19:57:52","新北市新莊區八德街107號","121.424173333333","25.0210633333333","6500500","新莊區"
"242056","751-BX","2018/11/16 19:57:49","新北市新莊區中正路347巷17弄2號","121.447316666667","25.0343566666667","6500500","新莊區"
"242023","705-TV","2018/11/16 19:57:44","新北市新莊區化成路424號","121.466025","25.05109","6500500","新莊區"
"242027","615-BX","2018/11/16 19:57:37","新北市新莊區幸福路896號","121.443396666667","25.0493566666667","6500500","新莊區"
"242025","613-BX","2018/11/16 19:57:46","新北市新莊區五工一路87巷12號","121.460715","25.06737","6500500","新莊區"
"242029","612-BX","2018/11/16 19:57:46","新北市新莊區中榮街152巷18號","121.446005","25.0534433333333","6500500","新莊區"
"242041","442-UM","2018/11/16 19:57:49","新北市新莊區青山路一段50號","121.409981666667","25.0278466666667","6500500","新莊區"
"242039","415-TV","2018/11/16 19:57:42","新北市新莊區民安路299巷19號","121.428868333333","25.0230833333333","6500500","新莊區"
"242060","353-BY","2018/11/16 19:57:38","新北市新莊區瓊泰路3號","121.444876666667","25.0286233333333","6500500","新莊區"
"242011","132-UY","2018/11/16 19:57:44","新北市新莊區中港路531巷68號","121.450545","25.0516133333333","6500500","新莊區"
"242034","135-UY","2018/11/16 19:57:47","新北市新莊區建中街80號","121.447301666667","25.03674","6500500","新莊區"
"242013","173-VK","2018/11/16 19:57:47","新北市新莊區中港路437號","121.452441666667","25.0480866666667","6500500","新莊區"
"242019","175-VK","2018/11/16 19:57:50","新北市新莊區長青街37巷1號","121.456383333333","25.0422183333333","6500500","新莊區"
"242007","176-VK","2018/11/16 19:57:42","新北市新莊區中原路2號","121.45851","25.0562833333333","6500500","新莊區"
"242017","346-TH","2018/11/16 19:57:41","新北市新莊區中安街27號","121.452818333333","25.04632","6500500","新莊區"
"242032","348-TH","2018/11/16 19:57:48","新北市新莊區公園一路74號","121.443123333333","25.0365033333333","6500500","新莊區"
"242005","349-TH","2018/11/16 19:57:50","新北市新莊區化成路364巷26號","121.466911666667","25.0493516666667","6500500","新莊區"
"242021","350-TH","2018/11/16 19:57:42","新北市新莊區建中街26號","121.449156666667","25.0374466666667","6500500","新莊區"
"242015","351-TH","2018/11/16 19:57:34","新北市新莊區泰順街44號","121.44705","25.0428383333333","6500500","新莊區"
"238021","KEA-2539","2018/11/16 19:57:32","新北市樹林區佳園路二段2巷3號","121.394558333333","24.9645983333333","6500700","樹林區"
"238017","283-BY","2018/11/16 19:57:53","新北市樹林區中山路二段230號","121.40919","24.980195","6500700","樹林區"
"221008","489-VK","2018/11/16 19:57:51","台北市內湖區東湖路163號","121.617616666667","25.067865","6501100","汐止區"
"221036","130-UY","2018/11/16 19:57:49","新北市汐止區新台五路二段85巷10號","121.664478333333","25.0672116666667","6501100","汐止區"
"221015","131-UY","2018/11/16 19:57:49","新北市汐止區橋東街9號","121.66662","25.076065","6501100","汐止區"
"221010","269-BY","2018/11/16 19:57:54","新北市汐止區連峰街258號","121.644886666667","25.0813383333333","6501100","汐止區"
"221012","278-VK","2018/11/16 19:57:49","新北市汐止區大同路三段279號","121.6741","25.075145","6501100","汐止區"
"221023","279-VK","2018/11/16 19:56:42","新北市汐止區明峰街190號","121.628186666667","25.0696766666667","6501100","汐止區"
"221032","280-BY","2018/11/16 19:57:51","新北市汐止區橫科路18巷15號","121.617761666667","25.0501933333333","6501100","汐止區"
"221027","281-BY","2018/11/16 19:57:47","新北市汐止區中正路77號","121.661481666667","25.069445","6501100","汐止區"
"221029","298-VK","2018/11/16 19:57:45","新北市汐止區樟樹一路137巷24號","121.641061666667","25.0659383333333","6501100","汐止區"
"221021","299-VK","2018/11/16 19:57:50","新北市汐止區新台五路一段228號","121.656136666667","25.063265","6501100","汐止區"
"221031","353-TW","2018/11/16 19:57:39","新北市汐止區福德一路175號","121.635881666667","25.066055","6501100","汐止區"
"221035","622-UM","2018/11/16 19:57:44","新北市汐止區長江街57巷6號","121.656211666667","25.0717733333333","6501100","汐止區"
"221025","623-UM","2018/11/16 19:57:32","新北市汐止區仁愛路77巷3號","121.66099","25.0633433333333","6501100","汐止區"
"221038","646-BX","2018/11/16 19:57:40","新北市汐止區忠孝東路513號","121.666801666667","25.0754683333333","6501100","汐止區"
"221033","647-BX","2018/11/16 19:57:35","新北市汐止區東勢街102號","121.63386","25.04158","6501100","汐止區"
"221018","753-BX","2018/11/16 19:57:36","新北市汐止區大同路二段613號","121.664153333333","25.070905","6501100","汐止區"
"220079","145-BY","2018/11/16 19:57:49","新北市板橋區僑中一街124巷70-5號","121.449888333333","25.016575","6500100","板橋區"
"220080","200-UY","2018/11/16 19:57:50","新北市板橋區大觀路二段153巷3號","121.445795","25.000645","6500100","板橋區"
"220072","277-BY","2018/11/16 19:57:46","新北市板橋區金門街121巷10號","121.433465","24.9916416666667","6500100","板橋區"
"220101","280-UM","2018/11/16 19:57:51","新北市板橋區縣民大道三段35號","121.473861666667","25.0208","6500100","板橋區"
"220064","282-UM","2018/11/16 19:57:53","新北市板橋區實踐路25號","121.463641666667","25.0071833333333","6500100","板橋區"
"220071","283-VK","2018/11/16 19:57:46","新北市中和區和平路200巷1-7號","121.464511666667","24.99515","6500100","板橋區"
"220094","285-UM","2018/11/16 19:57:37","新北市板橋區雨農路13號","121.462206666667","25.0247533333333","6500100","板橋區"
"220053","285-VK","2018/11/16 19:57:48","新北市板橋區永豐街22號","121.474731666667","25.0170366666667","6500100","板橋區"
"220081","287-VK","2018/11/16 19:57:40","新北市板橋區僑中一街80巷6弄1號","121.447716666667","25.0121516666667","6500100","板橋區"
"220090","288-VK","2018/11/16 19:57:49","新北市板橋區幸福路32巷2弄43號","121.46072","25.02221","6500100","板橋區"
"220061","295-UM","2018/11/16 19:57:24","新北市板橋區中山路一段283巷2弄19號","121.470641666667","25.015165","6500100","板橋區"
"220084","296-UM","2018/11/16 19:57:34","新北市板橋區溪崑二街112巷8號","121.426106666667","24.9887866666667","6500100","板橋區"
"242002","281-VK","2018/11/16 19:57:37","新北市新莊區中正路261號","121.449775","25.0354983333333","6500500","新莊區"
"220075","303-R5","2018/11/16 19:57:44","新北市板橋區金華街10巷93號","121.458591666667","25.0204716666667","6500100","板橋區"
"220062","305-R5","2018/11/16 19:57:30","新北市板橋區萬安街85巷1弄11號","121.484455","25.0249533333333","6500100","板橋區"
"220092","307-R5","2018/11/16 19:57:45","新北市板橋區四維路259巷62號","121.460621666667","25.0267866666667","6500100","板橋區"
"220098","317-R6","2018/11/16 19:57:46","新北市板橋區龍泉街55巷42號","121.458161666667","25.024395","6500100","板橋區"
"220089","487-VK","2018/11/16 19:57:34","新北市板橋區龍泉街56-1號","121.457086666667","25.0260166666667","6500100","板橋區"
"220103","561-BX","2018/11/16 19:57:41","新北市板橋區陽明街27巷2號","121.465483333333","25.0219283333333","6500100","板橋區"
"220083","568-UM","2018/11/16 19:57:42","新北市板橋區僑中二街10巷29號","121.445686666667","25.0111033333333","6500100","板橋區"
"220063","609-BX","2018/11/16 19:57:31","新北市板橋區三民路一段199號","121.479218333333","25.018945","6500100","板橋區"
"220091","637-BX","2018/11/16 19:57:35","新北市板橋區文聖街89巷26號","121.478155","25.03032","6500100","板橋區"
"220057","686-BX","2018/11/16 19:57:42","新北市板橋區四川路二段96號","121.451723333333","24.9945416666667","6500100","板橋區"
"220093","689-BX","2018/11/16 19:57:40","新北市板橋區長江路三段40-1號","121.472968333333","25.0338033333333","6500100","板橋區"
"220054","741-BX","2018/11/16 19:57:53","新北市板橋區忠孝路忠義巷9弄54號","121.465183333333","25.0047416666667","6500100","板橋區"
"220070","806-UM","2018/11/16 19:57:42","新北市板橋區成都街9號","121.46034","25.0048","6500100","板橋區"
"220055","827-TW","2018/11/16 19:57:36","新北市板橋區仁愛路62巷15弄2號","121.46003","24.9984766666667","6500100","板橋區"
"220067","829-TW","2018/11/16 19:57:50","新北市板橋區漢生東路181號","121.469751666667","25.0117633333333","6500100","板橋區"
"220102","830-TW","2018/11/16 19:57:42","新北市板橋區仁化街56號","121.475726666667","25.03154","6500100","板橋區"
"220096","831-TW","2018/11/16 19:57:40","新北市板橋區莒光路79巷12號","121.472146666667","25.0246133333333","6500100","板橋區"
"220088","833-TW","2018/11/16 19:57:36","新北市板橋區文聖街129號","121.47805","25.0286966666667","6500100","板橋區"
"220074","895-R6","2018/11/16 19:57:42","新北市板橋區文化路一段32巷23號","121.460125","25.0109366666667","6500100","板橋區"
"220073","985-R7","2018/11/16 19:57:48","新北市板橋區南雅西路二段2-1號","121.45317","25.0088583333333","6500100","板橋區"
"220097","AAC-210","2018/11/16 19:57:48","新北市板橋區光正街45巷2弄2號","121.461756666667","25.01729","6500100","板橋區"
"220082","AAC-253","2018/11/16 19:57:36","新北市板橋區金門街223號","121.432306666667","24.9896516666667","6500100","板橋區"
"235068","KEA-2873","2018/11/16 19:57:36","新北市中和區景平路736巷5弄4號","121.497605","25.00343","6500300","中和區"
"235061","KEA-2875","2018/11/16 19:57:23","新北市中和區員山路214號","121.481331666667","25.000865","6500300","中和區"
