"lineid","car","time","location","longitude","latitude","cityid","cityname"
"234046","148-BY","2018/11/16 20:07:45","新北市永和區得和路379號","121.524845","24.999405","6500400","永和區"
"234007","207-UY","2018/11/16 20:07:39","新北市永和區保順路11號","121.504513333333","25.0095933333333","6500400","永和區"
"234081","298-R6","2018/11/16 20:07:51","新北市永和區國中路42號","121.524646666667","25.0057366666667","6500400","永和區"
"234038","336-UY","2018/11/16 20:07:36","新北市永和區成功路一段47巷8號","121.527521666667","25.0039766666667","6500400","永和區"
"234064","337-UY","2018/11/16 20:07:50","新北市永和區永利路90號","121.520686666667","25.0037266666667","6500400","永和區"
"234086","338-UY","2018/11/16 20:07:38","新北市永和區福和路130號","121.521983333333","25.007945","6500400","永和區"
"234070","552-UM","2018/11/16 20:07:43","新北市永和區中正路638號","121.51695","25.0082316666667","6500400","永和區"
"234017","745-BX","2018/11/16 20:07:38","新北市永和區文化路146號","121.51261","25.0152866666667","6500400","永和區"
"234030","746-BX","2018/11/16 20:07:37","新北市永和區民權路49巷29號","121.52166","24.99752","6500400","永和區"
"234054","KEA-2590","2018/11/16 20:07:49","新北市永和區博愛街19巷1號","121.517431666667","25.0158766666667","6500400","永和區"
"234013","KEA-2591","2018/11/16 20:07:48","新北市永和區永貞路403號","121.50778","25.0090883333333","6500400","永和區"
"234061","AAD-866","2018/11/16 20:07:40","新北市永和區安樂路58巷2號","121.515163333333","24.9980083333333","6500400","永和區"
"234042","862-TW","2018/11/16 20:07:42","新北市永和區雙和街26號","121.508911666667","25.0024583333333","6500400","永和區"
"234050","863-TW","2018/11/16 20:07:50","新北市永和區環河西路二段139號","121.505928333333","25.0141916666667","6500400","永和區"
"234026","9371-KE","2018/11/16 20:07:34","新北市永和區仁愛路295號","121.504931666667","25.0093683333333","6500400","永和區"
"234011","9373-KE","2018/11/16 20:07:53","新北市永和區仁愛路352巷122弄11號","121.500581666667","25.0089716666667","6500400","永和區"
"249005","172-UM","2018/11/16 20:07:47","新北市八里區下罟子60-8號","121.38752","25.1368316666667","6502300","八里區"
"249001","173-UM","2018/11/16 20:07:31","新北市八里區中華路二段312號","121.40376","25.148375","6502300","八里區"
"249004","303-UY","2018/11/16 20:07:45","新北市八里區中山路一段179號","121.411963333333","25.1584816666667","6502300","八里區"
"249003","593-UM","2018/11/16 20:07:33","新北市八里區中山路二段540巷26號","121.397178333333","25.146885","6502300","八里區"
"248016","026-BX","2018/11/16 20:07:44","新北市五股區凌雲路一段158巷39弄12號","121.446498333333","25.1040716666667","6501500","五股區"
"248008","095-VK","2018/11/16 20:07:36","新北市五股區中興路一段1巷12弄5號","121.469298333333","25.0712083333333","6501500","五股區"
"248018","225-UY","2018/11/16 20:07:41","新北市五股區登林路118-1號","121.417461666667","25.0745816666667","6501500","五股區"
"248012","247-BX","2018/11/16 20:07:41","新北市五股區六合街103號","121.429948333333","25.0900166666667","6501500","五股區"
"248010","272-BY","2018/11/16 20:07:49","新北市五股區成泰路一段7巷48弄1號","121.432591666667","25.0676866666667","6501500","五股區"
"248004","677-BX","2018/11/16 20:07:49","新北市五股區成泰路一段205號","121.43523","25.0769533333333","6501500","五股區"
"248002","678-BX","2018/11/16 20:07:46","新北市五股區成泰路三段314號","121.449131666667","25.0959616666667","6501500","五股區"
"234023","9380-KE","2018/11/16 20:07:40","新北市永和區中正路660-1號","121.516903333333","25.0086383333333","6500400","永和區"
"234077","969-R7","2018/11/16 20:07:32","新北市永和區智光街94號","121.516131666667","24.9969683333333","6500400","永和區"
"234074","AAC-211","2018/11/16 20:07:51","新北市永和區豫溪街185號","121.522498333333","25.0103583333333","6500400","永和區"
"234067","AAC-212","2018/11/16 20:07:50","新北市永和區保平路214巷9號","121.508898333333","25.006715","6500400","永和區"
"234003","AAC-295","2018/11/16 20:07:45","新北市永和區中正路620號","121.516945","25.00788","6500400","永和區"
"243013","AAD-798","2018/11/16 20:07:52","新北市泰山區明志路三段74巷28弄2號","121.423253333333","25.042255","6501600","泰山區"
"243009","297-R6","2018/11/16 20:07:41","新北市泰山區泰林路二段142巷7弄2號","121.434738333333","25.060265","6501600","泰山區"
"243016","KEA-2801","2018/11/16 20:07:51","新北市泰山區明志路三段405號","121.421243333333","25.0340083333333","6501600","泰山區"
"243015","421-VK","2018/11/16 20:07:44","新北市泰山區明志路一段384號","121.430695","25.0575266666667","6501600","泰山區"
"243011","KEA-2215","2018/11/16 20:07:45","新北市新莊區丹鳳街34號","121.421583333333","25.029545","6501600","泰山區"
"243010","KEA-2216","2018/11/16 20:07:51","新北市泰山區明志路二段1號","121.430245","25.0538033333333","6501600","泰山區"
"243012","646-TV","2018/11/16 20:07:38","新北市泰山區楓江路46巷1號","121.435256666667","25.062235","6501600","泰山區"
"243014","680-BX","2018/11/16 20:07:35","新北市泰山區楓江路1號","121.433331666667","25.062715","6501600","泰山區"
"222003","436-BY","2018/11/16 20:07:51","新北市深坑區埔新街60號","121.620151666667","25.0024783333333","6501800","深坑區"
"222002","659-BX","2018/11/16 20:07:36","新北市深坑區北深路三段70-1號","121.607616666667","25.00147","6501800","深坑區"
"231041","002-UM","2018/11/16 20:07:37","新北市新店區中正路460號","121.534008333333","24.9793833333333","6500600","新店區"
"231059","046-UY","2018/11/16 20:07:40","新北市新店區安成街6號","121.510791666667","24.9602966666667","6500600","新店區"
"231040","047-UY","2018/11/16 20:07:47","新北市新店區中正路108號","121.543096666667","24.9707183333333","6500600","新店區"
"231044","106-UY","2018/11/16 20:07:46","新北市新店區寶元路一段15巷20號","121.541986666667","24.98694","6500600","新店區"
"231053","108-UY","2018/11/16 20:07:51","新北市新店區新烏路三段寶島巷2弄3號","121.552013333333","24.8986866666667","6500600","新店區"
"231062","110-UY","2018/11/16 20:07:33","新北市新店區安康路二段1-5號","121.517045","24.963915","6500600","新店區"
"231048","187-VK","2018/11/16 20:07:53","新北市新店區寶橋路69-1號","121.5455","24.9751283333333","6500600","新店區"
"231054","KEA-2219","2018/11/16 20:07:51","新北市新店區檳榔路9-1號","121.54108","24.96475","6500600","新店區"
"231057","256-BX","2018/11/16 20:07:44","新北市新店區花園一路一段2號","121.553141666667","24.9324583333333","6500600","新店區"
"231042","268-BY","2018/11/16 20:07:52","新北市新店區中興路二段39號","121.546251666667","24.9699516666667","6500600","新店區"
"231051","278-BY","2018/11/16 20:07:39","新北市新店區中央五街5號","121.530215","24.9742483333333","6500600","新店區"
"231050","AAD-862","2018/11/16 20:07:52","新北市新店區北新路一段90號","121.541928333333","24.96861","6500600","新店區"
"231056","4715-K9","2018/11/16 20:07:47","新北市新店區中正路275巷29號","121.536925","24.97308","6500600","新店區"
"231067","4772-VM","2018/11/16 20:07:42","新北市新店區安康路一段3-1號","121.534071666667","24.96055","6500600","新店區"
"231065","512-UM","2018/11/16 20:07:41","新北市新店區安祥路106巷206號","121.47424","24.9604916666667","6500600","新店區"
"231049","513-UM","2018/11/16 20:07:39","新北市新店區北新路二段139巷12弄2號","121.54219","24.97597","6500600","新店區"
"231063","616-UM","2018/11/16 20:07:51","新北市新店區黎明路53巷1號","121.502333333333","24.9487183333333","6500600","新店區"
"231061","618-UM","2018/11/16 20:07:49","新北市新店區安興路33-1號","121.515835","24.9704216666667","6500600","新店區"
"231068","718-UY","2018/11/16 20:07:32","新北市新店區寶橋路78巷116號","121.546583333333","24.9731366666667","6500600","新店區"
"231060","897-TW","2018/11/16 20:07:50","新北市新店區安康路三段358號","121.485918333333","24.9516766666667","6500600","新店區"
"231045","898-TW","2018/11/16 20:07:38","新北市新店區北宜路一段260號","121.545805","24.9528816666667","6500600","新店區"
"231043","899-TW","2018/11/16 20:07:43","新北市新店區民族路186號","121.53684","24.9761033333333","6500600","新店區"
"231055","AKT-0513","2018/11/16 20:07:42","新北市新店區中華路42巷10號","121.540365","24.9685483333333","6500600","新店區"
"241011","013-R5","2018/11/16 20:07:43","新北市三重區秀江街257號","121.495843333333","25.0715783333333","6500200","三重區"
"241028","022-UY","2018/11/16 20:07:31","新北市三重區中正南路130號","121.494225","25.057755","6500200","三重區"
"241008","059-VK","2018/11/16 20:07:51","新北市三重區永福街197巷37弄3號","121.478231666667","25.0743916666667","6500200","三重區"
"241022","060-VK","2018/11/16 20:07:40","新北市三重區新北大道一段42號","121.487895","25.0614716666667","6500200","三重區"
"241031","061-VK","2018/11/16 20:07:42","新北市三重區過圳街9-1號","121.488731666667","25.0600983333333","6500200","三重區"
"241015","062-VK","2018/11/16 20:07:34","新北市三重區福德北路43號","121.502336666667","25.0649366666667","6500200","三重區"
"241017","063-VK","2018/11/16 20:07:52","新北市三重區自強路一段290號","121.491488333333","25.0682933333333","6500200","三重區"
"241024","065-VK","2018/11/16 20:07:37","新北市三重區力行路一段162號","121.482283333333","25.0711566666667","6500200","三重區"
"241026","066-VK","2018/11/16 20:07:42","新北市三重區福德南路65巷1號","121.502398333333","25.06053","6500200","三重區"
"241002","090-VK","2018/11/16 20:07:44","新北市三重區五華街35巷2號","121.494608333333","25.0811416666667","6500200","三重區"
"241003","091-VK","2018/11/16 20:07:37","新北市三重區富華街18號","121.489596666667","25.08244","6500200","三重區"
"241005","262-UM","2018/11/16 20:07:16","新北市三重區五華街180巷20號","121.488358333333","25.0855966666667","6500200","三重區"
"241016","266-UM","2018/11/16 20:07:33","新北市三重區正義北路48巷74號","121.495581666667","25.0633766666667","6500200","三重區"
"241009","267-UM","2018/11/16 20:07:51","新北市三重區力行路二段206號","121.483636666667","25.0778866666667","6500200","三重區"
"241018","268-UM","2018/11/16 20:07:32","新北市三重區正義北路256巷144號","121.493116666667","25.06766","6500200","三重區"
"241032","269-UM","2018/11/16 20:07:44","新北市三重區捷運路67號","121.483373333333","25.0555116666667","6500200","三重區"
"241013","270-UM","2018/11/16 20:07:43","新北市三重區三和路三段139巷38號","121.494003333333","25.0741166666667","6500200","三重區"
"241025","271-UM","2018/11/16 20:07:40","新北市三重區中正北路193巷43號","121.475658333333","25.070975","6500200","三重區"
"241007","398-BY","2018/11/16 20:07:48","新北市三重區三和路四段111-13號","121.486858333333","25.07762","6500200","三重區"
"241035","KEA-2210","2018/11/16 20:07:36","新北市三重區正義北路21號","121.497525","25.063375","6500200","三重區"
"241004","475-VK","2018/11/16 20:07:52","新北市三重區自強路四段80號","121.490596666667","25.0789116666667","6500200","三重區"
"241020","478-VK","2018/11/16 20:07:49","新北市三重區後竹圍街2巷1弄6號","121.491575","25.0733133333333","6500200","三重區"
"241014","543-UM","2018/11/16 20:07:48","新北市三重區長樂街88號","121.501283333333","25.0694883333333","6500200","三重區"
"241023","545-UM","2018/11/16 20:07:38","新北市三重區頂崁街212號","121.477081666667","25.0676816666667","6500200","三重區"
"241001","547-UM","2018/11/16 20:07:36","新北市三重區三和路四段89巷16號","121.48972","25.07592","6500200","三重區"
"241019","KEA-2593","2018/11/16 20:07:47","新北市三重區自強路二段33巷39號","121.49059","25.06975","6500200","三重區"
"241006","AAD-863","2018/11/16 20:07:39","新北市三重區車路頭街135號","121.484188333333","25.07578","6500200","三重區"
"241012","941-UM","2018/11/16 20:07:33","新北市三重區仁愛街125巷38號","121.498013333333","25.0759883333333","6500200","三重區"
"241029","942-UM","2018/11/16 20:07:42","新北市三重區光明路23號","121.49117","25.0586","6500200","三重區"
"241033","AAC-255","2018/11/16 20:07:31","新北市三重區光復路一段61巷12號","121.47255","25.049285","6500200","三重區"
"235066","003-UY","2018/11/16 20:07:38","新北市中和區中山路二段3巷52號","121.507425","25.004835","6500300","中和區"
"235039","097-UM","2018/11/16 20:07:52","新北市中和區大勇街25巷5號","121.517001666667","24.99322","6500300","中和區"
"235065","098-UM","2018/11/16 20:07:50","新北市中和區永和路82號","121.497518333333","25.005205","6500300","中和區"
"247012","KEA-2869","2018/11/16 20:07:45","新北市蘆洲區民族路191號","121.478675","25.0888816666667","6501400","蘆洲區"
"235050","4979-A6","2018/11/16 20:07:38","新北市中和區景平路332號","121.512133333333","24.992885","6500300","中和區"
"235002","551-UM","2018/11/16 20:07:42","新北市中和區保健路50巷53號","121.50958","24.9957333333333","6500300","中和區"
"235070","558-UM","2018/11/16 20:07:38","新北市中和區中正路426號","121.491523333333","24.9942566666667","6500300","中和區"
"235054","640-BX","2018/11/16 20:07:43","新北市板橋區三民路二段220巷19號","121.47789","25.011545","6500300","中和區"
"235046","733-UM","2018/11/16 20:07:47","新北市中和區忠孝街31巷2號","121.510411666667","24.983395","6500300","中和區"
"235048","896-TW","2018/11/16 20:07:41","新北市中和區景新街377號","121.512223333333","24.9904666666667","6500300","中和區"
"235053","900-TW","2018/11/16 20:07:38","新北市中和區中正路1210號","121.47999","25.0104733333333","6500300","中和區"
"235051","157-BY","2018/11/16 20:07:34","新北市中和區復興路279-1號","121.502276666667","24.9902733333333","6500300","中和區"
"235037","AAC-213","2018/11/16 20:07:47","新北市中和區自立路141巷20號","121.523165","24.993515","6500300","中和區"
"235059","AAC-215","2018/11/16 20:07:53","新北市中和區圓通路367巷13弄29-9號","121.493266666667","24.9881233333333","6500300","中和區"
"220068","013-TV","2018/11/16 20:07:45","新北市板橋區中山路二段318巷4號","121.480113333333","25.0192116666667","6500100","板橋區"
"247002","893-R6","2018/11/16 20:07:40","新北市蘆洲區永康街2巷2號","121.459428333333","25.0861266666667","6501400","蘆洲區"
"247016","546-UM","2018/11/16 20:07:41","新北市蘆洲區光華路169號","121.464993333333","25.082","6501400","蘆洲區"
"247024","500-BY","2018/11/16 20:07:35","新北市蘆洲區光明路134號","121.464033333333","25.0884066666667","6501400","蘆洲區"
"247006","337-TH","2018/11/16 20:07:54","新北市蘆洲區九芎街2-1號","121.468811666667","25.0785","6501400","蘆洲區"
"247020","057-VK","2018/11/16 20:07:53","新北市蘆洲區民權路106巷5弄2-1號","121.474395","25.0890533333333","6501400","蘆洲區"
"247010","056-VK","2018/11/16 20:07:42","新北市蘆洲區集賢路406號","121.47985","25.0818566666667","6501400","蘆洲區"
"247008","053-VK","2018/11/16 20:07:41","新北市蘆洲區中山一路103巷25號","121.475886666667","25.0810533333333","6501400","蘆洲區"
"247018","007-UY","2018/11/16 20:07:54","新北市蘆洲區民族路314巷3弄5號","121.477146666667","25.09027","6501400","蘆洲區"
"247004","002-UY","2018/11/16 20:07:43","新北市蘆洲區永安南路二段328巷17弄16號","121.455861666667","25.0838666666667","6501400","蘆洲區"
"247022","001-UY","2018/11/16 20:07:49","新北市蘆洲區三民路193號","121.470553333333","25.0876933333333","6501400","蘆洲區"
"226004","205-ST","2018/11/16 20:07:34","新北市平溪區十分里十分街56號","121.775443333333","25.04134","6502400","平溪區"
"224010","AGQ-8101","2018/11/16 20:07:49","新北市瑞芳區輕便路131號","121.843535","25.10875","6501200","瑞芳區"
"222001","KEA-2212","2018/11/16 20:07:38","新北市深坑區北深路三段191號","121.601203333333","25.00368","6501800","深坑區"
"251005","010-UM","2018/11/16 20:07:46","新北市淡水區學府路123號","121.450485","25.1730133333333","6501000","淡水區"
"251008","180-VK","2018/11/16 20:07:32","新北市淡水區淡海路72巷30弄1號","121.424333333333","25.1826933333333","6501000","淡水區"
"251010","413-VK","2018/11/16 20:07:42","新北市淡水區後洲路一段157號","121.427796666667","25.1980616666667","6501000","淡水區"
"251012","441-VK","2018/11/16 20:07:48","新北市淡水區淡金路三段230號","121.449015","25.2052833333333","6501000","淡水區"
"251004","443-VK","2018/11/16 20:07:41","新北市淡水區民族路31巷21-1號","121.461961666667","25.1364733333333","6501000","淡水區"
"251006","561-UM","2018/11/16 20:07:40","新北市淡水區北新路141巷29號","121.448208333333","25.1796333333333","6501000","淡水區"
"251009","575-R6","2018/11/16 20:07:39","新北市淡水區清水街2號","121.445543333333","25.1704116666667","6501000","淡水區"
"251003","673-BX","2018/11/16 20:07:47","新北市淡水區中山北路二段189巷15弄29號","121.443398333333","25.18427","6501000","淡水區"
"207003","550-UM","2018/11/16 20:07:44","新北市萬里區大鵬里萬里加投68-7號","121.64263","25.2148833333333","6502800","萬里區"
"207004","225-TW","2018/11/16 20:07:41","新北市萬里區北基里孝六街25號","121.68289","25.1768066666667","6502800","萬里區"
"252002","178-VK","2018/11/16 20:07:49","新北市三芝區三民街2號","121.50406","25.2580066666667","6502100","三芝區"
"252001","292-VK","2018/11/16 20:07:45","新北市三芝區公正街9號","121.49977","25.25753","6502100","三芝區"
"237006","5529-G3","2018/11/16 20:07:53","新北市三峽區中正路二段271號","121.366023333333","24.911515","6500900","三峽區"
"237015","649-BX","2018/11/16 20:07:35","新北市三峽區介壽路二段138巷45號","121.395366666667","24.9333233333333","6500900","三峽區"
"237005","AKY-6261","2018/11/16 20:07:50","新北市三峽區三樹路88號","121.378161666667","24.9386366666667","6500900","三峽區"
"236069","105-UM","2018/11/16 20:07:52","新北市土城區中央路三段147巷2弄1號","121.43238","24.9649766666667","6501300","土城區"
"236042","KED-0685","2018/11/16 20:07:33","新北市土城區學享街54號","121.452073333333","24.9866016666667","6501300","土城區"
"236079","166-UM","2018/11/16 20:07:43","新北市土城區福安街2-1號","121.420148333333","24.9651116666667","6501300","土城區"
"236030","253-BX","2018/11/16 20:07:47","新北市土城區日新街8巷4號","121.4454","24.9873016666667","6501300","土城區"
"236026","269-VK","2018/11/16 20:07:39","新北市土城區裕生路102巷10號","121.4466","24.984645","6501300","土城區"
"236014","270-VK","2018/11/16 20:07:36","新北市土城區廣明街22號","121.455803333333","24.9923483333333","6501300","土城區"
"236039","271-VK","2018/11/16 20:07:47","新北市土城區明德路一段20巷1弄1號","121.464895","24.9848916666667","6501300","土城區"
"236020","401-BY","2018/11/16 20:07:36","新北市土城區延吉街111巷12弄8號","121.471648333333","24.985735","6501300","土城區"
"236059","752-BX","2018/11/16 20:07:45","新北市土城區中央路二段187號","121.442106666667","24.975685","6501300","土城區"
"236048","913-UM","2018/11/16 20:07:48","新北市土城區明德路一段365-1號","121.453421666667","24.9792483333333","6501300","土城區"
"236055","AAC-216","2018/11/16 20:07:47","新北市土城區中華路一段36號","121.446295","24.98916","6501300","土城區"
"242037","AAC-296","2018/11/16 20:07:49","新北市新莊區建安街9巷14號","121.429426666667","25.0266716666667","6500500","新莊區"
"242058","986-R7","2018/11/16 20:07:52","新北市新莊區龍安路280號","121.422341666667","25.0191416666667","6500500","新莊區"
"242056","751-BX","2018/11/16 20:07:49","新北市新莊區新莊路649巷13弄14號","121.445616666667","25.0318483333333","6500500","新莊區"
"242023","705-TV","2018/11/16 20:07:43","新北市新莊區化成路632號","121.46611","25.0552616666667","6500500","新莊區"
"242027","615-BX","2018/11/16 20:07:37","新北市新莊區中平路256號","121.445001666667","25.04955","6500500","新莊區"
"242025","613-BX","2018/11/16 20:07:36","新北市新莊區五權一路12巷25弄19號","121.458563333333","25.0646483333333","6500500","新莊區"
"242029","612-BX","2018/11/16 20:07:46","新北市新莊區中原路303號","121.447328333333","25.0543083333333","6500500","新莊區"
"242044","566-BX","2018/11/16 20:07:48","新北市新莊區中正路929巷7弄27號","121.411798333333","25.019755","6500500","新莊區"
"242041","442-UM","2018/11/16 20:07:49","新北市新莊區壽山路49號","121.414338333333","25.0311533333333","6500500","新莊區"
"242054","441-UM","2018/11/16 20:07:44","新北市新莊區民安西路310號","121.42646","25.011935","6500500","新莊區"
"242039","415-TV","2018/11/16 20:07:22","新北市新莊區民安西路89號","121.427026666667","25.019095","6500500","新莊區"
"242009","413-TV","2018/11/16 20:07:49","新北市新莊區昌隆街23號","121.454483333333","25.0509266666667","6500500","新莊區"
"242060","353-BY","2018/11/16 20:07:44","新北市新莊區瓊林路瓊英巷1弄1號","121.443841666667","25.0272766666667","6500500","新莊區"
"242011","132-UY","2018/11/16 20:07:44","新北市新莊區中和街204巷7號","121.448255","25.0504033333333","6500500","新莊區"
"242034","135-UY","2018/11/16 20:07:39","新北市新莊區華興街12號","121.446083333333","25.0353183333333","6500500","新莊區"
"242050","172-VK","2018/11/16 20:07:37","新北市新莊區民安西路174號","121.426001666667","25.0159416666667","6500500","新莊區"
"242013","173-VK","2018/11/16 20:07:51","新北市新莊區幸福路670巷5號","121.450858333333","25.04971","6500500","新莊區"
"242019","175-VK","2018/11/16 20:07:50","新北市新莊區博愛路2巷2號","121.456551666667","25.0428166666667","6500500","新莊區"
"242007","176-VK","2018/11/16 20:07:42","新北市新莊區福壽街164巷19號","121.459293333333","25.0528366666667","6500500","新莊區"
"242017","346-TH","2018/11/16 20:07:54","新北市新莊區中港路340號","121.452046666667","25.0460583333333","6500500","新莊區"
"242032","348-TH","2018/11/16 20:07:50","新北市新莊區中正路447號","121.443245","25.0340933333333","6500500","新莊區"
"242005","349-TH","2018/11/16 20:07:50","新北市新莊區頭興街1-8號","121.463663333333","25.053535","6500500","新莊區"
"242021","350-TH","2018/11/16 20:07:42","新北市新莊區中興街59號","121.449056666667","25.03742","6500500","新莊區"
"242015","351-TH","2018/11/16 20:07:34","新北市新莊區中平路10號","121.44472","25.0427466666667","6500500","新莊區"
"221008","489-VK","2018/11/16 20:07:51","新北市汐止區忠三街3號","121.624043333333","25.078505","6501100","汐止區"
"221036","130-UY","2018/11/16 20:07:49","新北市汐止區新台五路二段25號","121.662741666667","25.066155","6501100","汐止區"
"221015","131-UY","2018/11/16 20:07:49","新北市汐止區建成路26號","121.664533333333","25.07261","6501100","汐止區"
"221010","269-BY","2018/11/16 20:07:34","新北市汐止區八連路一段253號","121.640456666667","25.0838033333333","6501100","汐止區"
"221012","278-VK","2018/11/16 20:07:49","新北市汐止區汐平路二段43號","121.696273333333","25.0637283333333","6501100","汐止區"
"221023","279-VK","2018/11/16 20:07:02","新北市汐止區明峰街297巷1號","121.62557","25.0679166666667","6501100","汐止區"
"221032","280-BY","2018/11/16 20:07:51","新北市汐止區弘道街8巷5弄6號","121.617376666667","25.04787","6501100","汐止區"
"221027","281-BY","2018/11/16 20:07:53","新北市汐止區民生街6號","121.660168333333","25.0689466666667","6501100","汐止區"
"221029","298-VK","2018/11/16 20:07:45","新北市汐止區樟樹一路133巷11號","121.641401666667","25.0652016666667","6501100","汐止區"
"221021","299-VK","2018/11/16 20:07:45","新北市汐止區連興街146號","121.65403","25.0614216666667","6501100","汐止區"
"221031","353-TW","2018/11/16 20:07:39","新北市汐止區原興路78巷2號","121.631756666667","25.0666033333333","6501100","汐止區"
"221035","622-UM","2018/11/16 20:07:44","新北市汐止區長江街79巷14號","121.65779","25.0729183333333","6501100","汐止區"
"221025","623-UM","2018/11/16 20:07:33","新北市汐止區新台五路一段280號","121.659446666667","25.06481","6501100","汐止區"
"221038","646-BX","2018/11/16 20:07:40","新北市汐止區大同路三段66-3號","121.668116666667","25.0772233333333","6501100","汐止區"
"221033","647-BX","2018/11/16 20:07:35","新北市汐止區東勢街201巷129弄2號","121.633466666667","25.04283","6501100","汐止區"
"221002","707-TV","2018/11/16 20:07:49","新北市汐止區連峰街1巷1號","121.646385","25.0760383333333","6501100","汐止區"
"221018","753-BX","2018/11/16 20:07:36","新北市汐止區茄福街35巷33號","121.673358333333","25.0663033333333","6501100","汐止區"
"220080","200-UY","2018/11/16 20:07:50","新北市板橋區大觀路二段187巷5號","121.445181666667","24.9997133333333","6500100","板橋區"
"220072","277-BY","2018/11/16 20:07:46","新北市板橋區溪城路121-10號","121.427493333333","24.9823983333333","6500100","板橋區"
"220101","280-UM","2018/11/16 20:07:31","新北市板橋區莒光路165巷32號","121.47445","25.024645","6500100","板橋區"
"220064","282-UM","2018/11/16 20:07:47","新北市板橋區長安街331巷57號","121.472963333333","25.0132183333333","6500100","板橋區"
"220053","285-VK","2018/11/16 20:07:48","新北市板橋區懷仁街91號","121.477568333333","25.0182083333333","6500100","板橋區"
"220081","287-VK","2018/11/16 20:07:40","新北市板橋區僑中一街124巷18弄26-1號","121.44714","25.0136","6500100","板橋區"
"220061","295-UM","2018/11/16 20:07:44","新北市板橋區觀光街79巷2號","121.469348333333","25.0169","6500100","板橋區"
"242002","281-VK","2018/11/16 20:07:44","新北市新莊區中正路113號","121.46014","25.0387166666667","6500500","新莊區"
"220092","307-R5","2018/11/16 20:07:45","新北市板橋區光正街23巷46號","121.461718333333","25.0156433333333","6500100","板橋區"
"220098","317-R6","2018/11/16 20:07:46","新北市板橋區新海路72巷18號","121.462633333333","25.0221333333333","6500100","板橋區"
"220089","487-VK","2018/11/16 20:07:44","新北市板橋區互助街45號","121.46114","25.0266133333333","6500100","板橋區"
"220103","561-BX","2018/11/16 20:07:40","新北市板橋區文化路一段421巷11弄15號","121.4668","25.0225783333333","6500100","板橋區"
"220083","568-UM","2018/11/16 20:07:50","新北市板橋區僑中二街88巷11號","121.445843333333","25.00941","6500100","板橋區"
"220093","689-BX","2018/11/16 20:07:52","新北市板橋區長江路一段42號","121.458491666667","25.02907","6500100","板橋區"
"220070","806-UM","2018/11/16 20:07:38","新北市板橋區四川路二段99巷24弄43號","121.453281666667","24.993535","6500100","板橋區"
"220055","827-TW","2018/11/16 20:07:36","新北市板橋區仁愛路76巷3弄2號","121.46063","24.99905","6500100","板橋區"
"220067","829-TW","2018/11/16 20:07:50","新北市板橋區中山路一段216巷6號","121.470931666667","25.0128366666667","6500100","板橋區"
"220102","830-TW","2018/11/16 20:07:42","新北市板橋區民治街126巷5號","121.477738333333","25.0312116666667","6500100","板橋區"
"220088","833-TW","2018/11/16 20:07:51","新北市板橋區懷德街55號","121.477206666667","25.032675","6500100","板橋區"
"220074","895-R6","2018/11/16 20:07:42","新北市板橋區館前西路66號","121.457703333333","25.0070433333333","6500100","板橋區"
"220097","AAC-210","2018/11/16 20:07:28","新北市板橋區光正街9巷22弄9號","121.46217","25.0165016666667","6500100","板橋區"
"235068","KEA-2873","2018/11/16 20:07:36","新北市中和區福祥路85巷2弄5號","121.498621666667","25.0059616666667","6500300","中和區"
"235061","KEA-2875","2018/11/16 20:07:23","新北市中和區員山路150-12號","121.481333333333","24.997675","6500300","中和區"
