"lineid","car","time","location","longitude","latitude","cityid","cityname"
"231059","046-UY","2018/11/16 21:09:38","新北市新店區僑信路24號","121.499673333333","24.95226","6500600","新店區"
"231040","047-UY","2018/11/16 21:09:47","新北市新店區北新路一段351號","121.541913333333","24.9692516666667","6500600","新店區"
"231062","110-UY","2018/11/16 21:09:54","新北市新店區安康路三段49號","121.492631666667","24.95253","6500600","新店區"
"231048","187-VK","2018/11/16 21:09:53","新北市新店區文化路34號","121.543961666667","24.9800433333333","6500600","新店區"
"231054","KEA-2219","2018/11/16 21:09:51","新北市新店區大新街18號","121.54325","24.968395","6500600","新店區"
"231042","268-BY","2018/11/16 21:09:41","新北市新店區寶興路60巷3號","121.549913333333","24.9718366666667","6500600","新店區"
"231051","278-BY","2018/11/16 21:09:39","新北市新店區中正路700巷82號","121.535956666667","24.99326","6500600","新店區"
"231050","AAD-862","2018/11/16 21:09:52","新北市新店區中華路117巷3號","121.53801","24.9688066666667","6500600","新店區"
"231065","512-UM","2018/11/16 21:09:41","新北市新店區安祥路78號","121.488991666667","24.9569683333333","6500600","新店區"
"231063","616-UM","2018/11/16 21:09:51","新北市新店區玫瑰路57巷9號","121.496131666667","24.9463316666667","6500600","新店區"
"231061","618-UM","2018/11/16 21:09:49","新北市新店區永平街66號","121.516195","24.98497","6500600","新店區"
"231060","897-TW","2018/11/16 21:09:50","新北市新店區薏仁坑路自強巷6號","121.496693333333","24.958465","6500600","新店區"
"241011","013-R5","2018/11/16 21:09:43","新北市三重區龍濱路191號","121.502055","25.071065","6500200","三重區"
"241028","022-UY","2018/11/16 21:09:50","新北市三重區正義南路54號","121.498231666667","25.0606816666667","6500200","三重區"
"241008","059-VK","2018/11/16 21:09:51","新北市三重區自強路一段62號","121.497276666667","25.0666816666667","6500200","三重區"
"241022","060-VK","2018/11/16 21:09:35","新北市三重區中正北路64巷20號","121.486118333333","25.0637883333333","6500200","三重區"
"241031","061-VK","2018/11/16 21:09:42","新北市三重區重新路五段416號","121.475615","25.0475983333333","6500200","三重區"
"241015","062-VK","2018/11/16 21:09:37","新北市三重區長元街100-6號","121.503088333333","25.0667933333333","6500200","三重區"
"241017","063-VK","2018/11/16 21:09:32","新北市三重區國隆路31號","121.49235","25.06445","6500200","三重區"
"241024","065-VK","2018/11/16 21:09:37","新北市三重區大勇街82巷15弄30號","121.481275","25.0719733333333","6500200","三重區"
"241026","066-VK","2018/11/16 21:09:42","新北市三重區文化南路42號","121.50043","25.06025","6500200","三重區"
"241002","090-VK","2018/11/16 21:09:44","新北市三重區五華街11號","121.494945","25.08028","6500200","三重區"
"241003","091-VK","2018/11/16 21:09:37","新北市三重區仁義街337-1號","121.495035","25.0847383333333","6500200","三重區"
"241005","262-UM","2018/11/16 21:09:36","新北市三重區五華街180巷19號","121.488053333333","25.0859616666667","6500200","三重區"
"241016","266-UM","2018/11/16 21:09:52","新北市三重區信義西街138號","121.495558333333","25.0642066666667","6500200","三重區"
"241009","267-UM","2018/11/16 21:09:51","新北市三重區忠孝路二段124號","121.483108333333","25.0688633333333","6500200","三重區"
"241018","268-UM","2018/11/16 21:09:51","新北市三重區正義北路340號","121.494331666667","25.0707433333333","6500200","三重區"
"241032","269-UM","2018/11/16 21:09:44","新北市三重區中華路48號","121.483395","25.0615033333333","6500200","三重區"
"241013","270-UM","2018/11/16 21:09:41","新北市三重區仁愛街139號","121.49514","25.0753083333333","6500200","三重區"
"241025","271-UM","2018/11/16 21:09:40","新北市三重區中正北路208巷8號","121.482321666667","25.0669166666667","6500200","三重區"
"241007","398-BY","2018/11/16 21:09:48","新北市三重區三和路四段145巷85號","121.486425","25.0787066666667","6500200","三重區"
"241004","475-VK","2018/11/16 21:09:52","新北市三重區仁愛街420號","121.49041","25.0813816666667","6500200","三重區"
"241020","478-VK","2018/11/16 21:09:49","新北市三重區忠孝路二段52號","121.485051666667","25.0704833333333","6500200","三重區"
"241014","543-UM","2018/11/16 21:09:48","新北市三重區三和路二段37-9號","121.501328333333","25.0676866666667","6500200","三重區"
"241023","545-UM","2018/11/16 21:09:38","新北市三重區洛陽街45巷15號","121.482411666667","25.0637733333333","6500200","三重區"
"241001","547-UM","2018/11/16 21:09:36","新北市三重區福隆路50號","121.492445","25.0784716666667","6500200","三重區"
"241019","KEA-2593","2018/11/16 21:09:47","新北市三重區三張街104號","121.487865","25.0698616666667","6500200","三重區"
"241006","AAD-863","2018/11/16 21:09:39","新北市三重區中正北路2-1號","121.48911","25.0630916666667","6500200","三重區"
"241012","941-UM","2018/11/16 21:09:53","新北市三重區龍門路300號","121.502478333333","25.0744716666667","6500200","三重區"
"241029","942-UM","2018/11/16 21:09:42","新北市三重區正義南路111號","121.498201666667","25.05853","6500200","三重區"
"241033","AAC-255","2018/11/16 21:09:51","新北市三重區中興北街283號","121.469088333333","25.06204","6500200","三重區"
"247012","KEA-2869","2018/11/16 21:09:45","新北市蘆洲區三民路72號","121.475245","25.0838983333333","6501400","蘆洲區"
"235002","551-UM","2018/11/16 21:09:42","新北市中和區員山路36巷13號","121.484218333333","24.9906916666667","6500300","中和區"
"247002","893-R6","2018/11/16 21:09:40","新北市蘆洲區永樂街38巷65號","121.458518333333","25.0903116666667","6501400","蘆洲區"
"247016","546-UM","2018/11/16 21:09:41","新北市蘆洲區中正路185巷86弄2號","121.465668333333","25.084045","6501400","蘆洲區"
"247024","500-BY","2018/11/16 21:09:55","新北市蘆洲區長興路50巷1號","121.463771666667","25.083765","6501400","蘆洲區"
"247014","339-TH","2018/11/16 21:09:39","新北市蘆洲區中央路155號","121.47267","25.0846933333333","6501400","蘆洲區"
"247006","337-TH","2018/11/16 21:09:34","新北市蘆洲區九芎街86號","121.466006666667","25.07974","6501400","蘆洲區"
"247020","057-VK","2018/11/16 21:09:33","新北市蘆洲區民族路446-7號","121.472706666667","25.092265","6501400","蘆洲區"
"247010","056-VK","2018/11/16 21:09:42","新北市蘆洲區鷺江街40號","121.477313333333","25.0830966666667","6501400","蘆洲區"
"247008","053-VK","2018/11/16 21:09:40","新北市蘆洲區民生街105號","121.473551666667","25.0787483333333","6501400","蘆洲區"
"247018","007-UY","2018/11/16 21:09:34","新北市蘆洲區民族路408巷10號","121.474805","25.09187","6501400","蘆洲區"
"247004","002-UY","2018/11/16 21:09:43","新北市蘆洲區永安南路二段282號","121.457956666667","25.08105","6501400","蘆洲區"
"247022","001-UY","2018/11/16 21:09:52","新北市蘆洲區三民路237號","121.469346666667","25.08875","6501400","蘆洲區"
"251005","010-UM","2018/11/16 21:09:46","新北市淡水區博愛街45號","121.446608333333","25.1692283333333","6501000","淡水區"
"251001","011-UM","2018/11/16 21:09:41","新北市淡水區新市一路三段1號","121.444801666667","25.1830483333333","6501000","淡水區"
"251002","012-UM","2018/11/16 21:09:51","新北市淡水區水源街一段160號","121.448948333333","25.1710616666667","6501000","淡水區"
"251010","413-VK","2018/11/16 21:09:42","新北市淡水區中正路一段102號","121.424216666667","25.1777283333333","6501000","淡水區"
"251012","441-VK","2018/11/16 21:09:47","新北市淡水區淡金路五段168號","121.456923333333","25.23966","6501000","淡水區"
"251007","442-VK","2018/11/16 21:09:52","新北市淡水區水源街一段160號","121.448775","25.1712266666667","6501000","淡水區"
"251004","443-VK","2018/11/16 21:09:38","新北市淡水區民族路33號","121.46227","25.1358366666667","6501000","淡水區"
"251009","575-R6","2018/11/16 21:09:39","新北市淡水區民族路112巷57號","121.462003333333","25.134235","6501000","淡水區"
"251011","650-BX","2018/11/16 21:09:45","新北市淡水區新民街120巷45弄24號","121.437935","25.1797616666667","6501000","淡水區"
"251003","673-BX","2018/11/16 21:09:47","新北市淡水區新春街87號","121.438895","25.1826633333333","6501000","淡水區"
"242054","441-UM","2018/11/16 21:09:39","新北市八里區商港路120號","121.393103333333","25.1497466666667","6500500","新莊區"
"242005","349-TH","2018/11/16 21:09:50","新北市八里區中山路三段409號","121.368696666667","25.134585","6500500","新莊區"
"220070","806-UM","2018/11/16 21:09:38","新北市林口區太平里180號","121.368288333333","25.13442","6500100","板橋區"
