"lineid","car","time","location","longitude","latitude","cityid","cityname"
"248004","653-BX","2018/11/17 06:59:49","新北市五股區中興路二段182巷5號","121.457066666667","25.0787716666667","6501500","五股區"
"232004","290-BY","2018/11/17 06:59:34","新北市坪林區坪雙路一段88號","121.719395","24.9451883333333","6502000","坪林區"
"232016","291-BY","2018/11/17 06:59:50","新北市坪林區仁里11號","121.689568333333","24.9285383333333","6502000","坪林區"
"232009","758-BX","2018/11/17 07:00:01","新北市坪林區九芎林28-8號","121.700053333333","24.9220616666667","6502000","坪林區"
"244005","248-BX","2018/11/17 07:00:04","新北市林口區中山路569號","121.381196666667","25.08188","6501700","林口區"
"235001","611-BX","2018/11/17 06:59:52","新北市中和區圓通路367巷6號","121.491425","24.989185","6500300","中和區"
"223006","022-BY","2018/11/17 07:00:02","新北市石碇區新興坑36號","121.64789","25.019135","6501900","石碇區"
"223002","KEA-2673","2018/11/17 06:59:49","新北市石碇區四分子路小粗坑巷3號","121.650381666667","24.9561033333333","6501900","石碇區"
"223003","205-TH","2018/11/17 06:59:54","新北市石碇區石崁33-2號","121.65953","24.9924466666667","6501900","石碇區"
"223008","406-TH","2018/11/17 06:59:49","新北市石碇區雙溪83號","121.663345","25.0088883333333","6501900","石碇區"
"223004","437-BY","2018/11/17 06:59:48","新北市石碇區碇坪路一段58號","121.657003333333","24.9913033333333","6501900","石碇區"
"223001","592-UM","2018/11/17 07:00:06","新北市石碇區石崁33-2號","121.65927","24.9922733333333","6501900","石碇區"
"223007","661-BX","2018/11/17 07:00:02","新北市石碇區排寮5號","121.665851666667","25.008815","6501900","石碇區"
"223005","677-TV","2018/11/17 06:59:53","新北市石碇區碇坪路一段60號","121.657126666667","24.9914916666667","6501900","石碇區"
"227006","282-VK","2018/11/17 06:59:51","新北市雙溪區新基里自強路7號","121.866251666667","25.0390616666667","6502500","雙溪區"
"252004","249-BX","2018/11/17 06:59:52","新北市三芝區埔坪里埔頭坑41號","121.504533333333","25.2644816666667","6502100","三芝區"
"252007","AAC-283","2018/11/17 07:00:03","新北市三芝區淡金路二段76號","121.503238333333","25.2614883333333","6502100","三芝區"
