"lineid","car","time","location","longitude","latitude","cityid","cityname"
"232001","290-BY","2018/01/29 06:49:45","新北市坪林區水柳腳39號","121.709661666667","24.9351383333333","6502000","坪林區"
"232012","291-BY","2018/01/29 06:49:38","新北市坪林區北宜路八段248號","121.70928","24.935035","6502000","坪林區"
"232010","375-UM","2018/01/29 06:49:56","新北市坪林區北宜路八段558號","121.717998333333","24.9092533333333","6502000","坪林區"
"232017","705-BZ","2018/01/29 06:49:52","新北市坪林區九芎林14-4號","121.706956666667","24.93238","6502000","坪林區"
"232005","758-BX","2018/01/29 06:49:43","新北市坪林區坪雙路一段31號","121.711511666667","24.9424633333333","6502000","坪林區"
"222005","289-BY","2018/01/29 06:49:53","新北市深坑區深坑街75號","121.614635","25.0012366666667","6501800","深坑區"
"235001","611-BX","2018/01/29 06:49:55","新北市中和區圓通路305巷36號","121.494893333333","24.9885666666667","6500300","中和區"
"235010","733-UM","2018/01/29 06:49:38","新北市中和區和平街29-1號","121.50745","24.9910333333333","6500300","中和區"
"223006","022-BY","2018/01/29 06:49:38","新北市石碇區八分寮56號","121.644346666667","25.0176516666667","6501900","石碇區"
"223002","198-BX","2018/01/29 06:49:54","新北市石碇區四分子路小粗坑巷7號","121.651845","24.96339","6501900","石碇區"
"223001","205-TH","2018/01/29 06:49:57","新北市石碇區湳窟37-1號","121.662866666667","24.9952883333333","6501900","石碇區"
"223008","406-TH","2018/01/29 06:49:57","新北市石碇區碇坪路一段2號","121.651653333333","25.0061833333333","6501900","石碇區"
"223001","437-BY","2018/01/29 06:49:43","新北市石碇區湳窟31-3號","121.663325","24.99329","6501900","石碇區"
"223007","592-UM","2018/01/29 06:49:38","新北市石碇區雙溪36號","121.650158333333","25.008935","6501900","石碇區"
"223004","660-BX","2018/01/29 06:49:53","新北市石碇區碇坪路一段121號","121.664913333333","24.98761","6501900","石碇區"
"223005","677-TV","2018/01/29 06:49:47","新北市石碇區下橫坪11-3號","121.66697","24.9854216666667","6501900","石碇區"
"227005","282-VK","2018/01/29 06:49:43","新北市雙溪區新基里自強路4號","121.866198333333","25.0389616666667","6502500","雙溪區"
"252006","073-UM","2018/01/29 06:49:42","新北市三芝區埔坪里埔頭坑41號","121.5046","25.2645866666667","6502100","三芝區"
"236007","165-UM","2018/01/29 06:49:45","新北市土城區永平街51號","121.427981666667","24.9591816666667","6501300","土城區"
"220064","282-UM","2018/01/29 06:49:39","新北市板橋區國光路67巷14號","121.459028333333","25.0187066666667","6500100","板橋區"
