"lineid","car","time","location","longitude","latitude","cityid","cityname"
"248005","653-BX","2018/04/07 07:58:30","新北市五股區水碓路5巷1號","121.433486666667","25.07208","6501500","五股區"
"244005","248-BX","2018/04/07 08:09:48","新北市林口區下福里149號","121.300808333333","25.1160266666667","6501700","林口區"
"222004","289-BY","2018/04/07 08:09:41","新北市深坑區昇高坑路43號","121.629245","24.99728","6501800","深坑區"
"231007","189-VK","2018/04/07 08:09:30","新北市新店區永業路96-1號","121.529668333333","24.9508683333333","6500600","新店區"
"231008","192-VK","2018/04/07 08:09:48","新北市新店區光明街22號","121.538151666667","24.9587716666667","6500600","新店區"
"235001","611-BX","2018/04/07 08:09:50","新北市中和區圓通路367巷33弄106號","121.494675","24.98363","6500300","中和區"
"226005","5620-A6","2018/04/07 08:09:30","新北市平溪區南山里南山坪5號","121.76189","25.0329066666667","6502400","平溪區"
"226002","7418-A5","2018/04/07 08:09:38","新北市平溪區十分里十分街1-1號","121.773243333333","25.0391516666667","6502400","平溪區"
"226003","AGD-0702","2018/04/07 08:09:40","新北市平溪區十分里十分街45號","121.774513333333","25.0408033333333","6502400","平溪區"
"223006","022-BY","2018/04/07 08:09:52","新北市深坑區文山路一段69號","121.626978333333","25.0020333333333","6501900","石碇區"
"223002","KEA-2673","2018/04/07 08:09:41","新北市石碇區碇坪路一段186號","121.667711666667","24.9839483333333","6501900","石碇區"
"223001","205-TH","2018/04/07 08:09:40","新北市石碇區北宜路六段塗潭巷27號","121.649226666667","24.932165","6501900","石碇區"
"223008","406-TH","2018/04/07 08:09:32","新北市石碇區石碇子埔97-4號","121.66839","25.0045633333333","6501900","石碇區"
"223001","592-UM","2018/04/07 08:09:48","新北市石碇區北宜路六段塗潭巷28號","121.648435","24.9323733333333","6501900","石碇區"
"223004","660-BX","2018/04/07 08:09:30","新北市石碇區石崁1號","121.652443333333","24.99996","6501900","石碇區"
"223007","661-BX","2018/04/07 08:09:43","新北市石碇區靜安路一段164號","121.665295","25.0072866666667","6501900","石碇區"
"223005","677-TV","2018/04/07 08:09:41","新北市石碇區石崁1號","121.65186","24.9999933333333","6501900","石碇區"
"227006","030-BX","2018/04/07 08:09:41","新北市雙溪區牡丹里聖南29號","121.85529","25.049125","6502500","雙溪區"
"252004","249-BX","2018/04/07 08:09:28","新北市三芝區興華里車埕16號","121.502481666667","25.1979166666667","6502100","三芝區"
"252007","AAC-283","2018/04/07 08:09:44","新北市三芝區後厝里土地公坑61-1號","121.463996666667","25.2470816666667","6502100","三芝區"
"237001","159-UY","2018/04/07 08:09:45","新北市三峽區大義路9號","121.378885","24.9438033333333","6500900","三峽區"
"236011","165-UM","2018/04/07 08:09:41","新北市土城區青雲路587巷9-5號","121.465118333333","24.9705283333333","6501300","土城區"
"236002","339-SR","2018/04/07 08:09:43","新北市土城區中央路四段53-1號","121.417701666667","24.95844","6501300","土城區"
"236006","498-BY","2018/04/07 08:09:43","新北市土城區永平街51號","121.427443333333","24.9592033333333","6501300","土城區"
"220080","461-BY","2018/04/07 08:09:36","新北市樹林區八德街495-2號","121.401011666667","24.9693166666667","6500100","板橋區"
