"lineid","car","time","location","longitude","latitude","cityid","cityname"
"248005","653-BX","2018/04/07 08:17:19","新北市五股區明德路12巷8號","121.433348333333","25.0719083333333","6501500","五股區"
"244005","248-BX","2018/04/07 08:29:48","新北市林口區下福里99-2號","121.286791666667","25.11671","6501700","林口區"
"244002","657-BX","2018/04/07 08:29:33","新北市林口區林口路39號","121.390186666667","25.0788216666667","6501700","林口區"
"222004","289-BY","2018/04/07 08:29:41","新北市深坑區王軍寮1-10號","121.618321666667","24.987875","6501800","深坑區"
"231007","189-VK","2018/04/07 08:29:30","新北市新店區新潭路三段9號","121.50849","24.9153783333333","6500600","新店區"
"231008","192-VK","2018/04/07 08:29:48","新北市新店區新烏路三段1號","121.551691666667","24.9066416666667","6500600","新店區"
"235001","611-BX","2018/04/07 08:29:50","新北市中和區員山路427號","121.480928333333","25.00357","6500300","中和區"
"226005","5620-A6","2018/04/07 08:29:30","新北市平溪區南山里六分11-1號","121.797815","25.0497733333333","6502400","平溪區"
"226002","7418-A5","2018/04/07 08:29:38","新北市平溪區東勢里芊蓁林27號","121.730693333333","24.9796266666667","6502400","平溪區"
"226003","AGD-0702","2018/04/07 08:29:40","新北市平溪區新寮里月桃寮路3-7號","121.785065","25.051935","6502400","平溪區"
"223006","022-BY","2018/04/07 08:28:24","新北市深坑區文山路一段10號","121.642988333333","25.0086516666667","6501900","石碇區"
"223001","205-TH","2018/04/07 08:29:40","新北市石碇區北宜路六段柑腳巷2號","121.659636666667","24.9380933333333","6501900","石碇區"
"223008","406-TH","2018/04/07 08:29:52","新北市石碇區光明路頂紙寮坑巷1號","121.680891666667","25.0274466666667","6501900","石碇區"
"223001","592-UM","2018/04/07 08:29:48","新北市石碇區北宜路六段柑腳巷2號","121.659573333333","24.938045","6501900","石碇區"
"223004","660-BX","2018/04/07 08:29:50","新北市石碇區崩山24-2號","121.679551666667","24.9678433333333","6501900","石碇區"
"223007","661-BX","2018/04/07 08:29:43","新北市石碇區碇南路二段1-1號","121.671408333333","25.0225333333333","6501900","石碇區"
"223005","677-TV","2018/04/07 08:29:41","新北市石碇區崩山24-2號","121.678575","24.96787","6501900","石碇區"
"227006","030-BX","2018/04/07 08:29:41","新北市雙溪區平林里外平林71號","121.842238333333","25.0349283333333","6502500","雙溪區"
"252004","249-BX","2018/04/07 08:29:48","新北市三芝區興華里楓子林45-3號","121.501485","25.2046066666667","6502100","三芝區"
"252007","AAC-283","2018/04/07 08:29:44","新北市三芝區後厝里土地公坑62-5號","121.463721666667","25.24455","6502100","三芝區"
"237001","159-UY","2018/04/07 08:29:45","新北市三峽區學成路468號","121.377531666667","24.9441716666667","6500900","三峽區"
"236011","165-UM","2018/04/07 08:29:41","新北市土城區金城路二段46巷19號","121.454206666667","24.9737866666667","6501300","土城區"
"236002","339-SR","2018/04/07 08:29:43","新北市土城區中央路三段93號","121.437388333333","24.9676966666667","6501300","土城區"
"236006","498-BY","2018/04/07 08:29:43","新北市土城區中央路三段283號","121.426456666667","24.963315","6501300","土城區"
