"lineid","car","time","location","longitude","latitude","cityid","cityname"
"248005","653-BX","2018/04/07 09:09:46","新北市五股區水碓路19號","121.433238333333","25.07258","6501500","五股區"
"244002","657-BX","2018/04/07 09:09:53","新北市林口區文化一路一段135巷12號","121.37363","25.0724566666667","6501700","林口區"
"222004","289-BY","2018/04/07 09:09:21","新北市深坑區王軍寮3-2號","121.617201666667","24.9845433333333","6501800","深坑區"
"231007","189-VK","2018/04/07 09:09:30","新北市新店區新潭路三段215巷25號","121.508146666667","24.9040683333333","6500600","新店區"
"231008","192-VK","2018/04/07 09:09:48","新北市新店區廣興路60巷12-1號","121.54056","24.914885","6500600","新店區"
"235001","611-BX","2018/04/07 09:09:50","新北市中和區中山路三段89號","121.47554","25.0059333333333","6500300","中和區"
"226003","AGD-0702","2018/04/07 09:09:40","新北市平溪區望古里望古坑26號","121.763371666667","25.0344016666667","6502400","平溪區"
"223001","205-TH","2018/04/07 09:09:40","新北市石碇區北宜路四段30號","121.624423333333","24.9563733333333","6501900","石碇區"
"223005","677-TV","2018/04/07 09:09:41","新北市石碇區碇坪路二段26號","121.688713333333","24.9745133333333","6501900","石碇區"
"227006","030-BX","2018/04/07 09:09:41","新北市雙溪區長源里赤皮崙7號","121.793371666667","25.0177016666667","6502500","雙溪區"
"252004","249-BX","2018/04/07 09:09:48","新北市三芝區興華里車埕72-7號","121.493393333333","25.1968","6502100","三芝區"
"252007","AAC-283","2018/04/07 09:09:44","新北市三芝區後厝里北勢子7-22號","121.478795","25.25313","6502100","三芝區"
"236011","165-UM","2018/04/07 09:09:41","新北市土城區中央路四段46巷24號","121.421248333333","24.9621666666667","6501300","土城區"
"236006","498-BY","2018/04/07 09:09:43","新北市土城區承天路31號","121.436971666667","24.9651216666667","6501300","土城區"
