"lineid","car","time","location","longitude","latitude","cityid","cityname"
"248005","653-BX","2018/04/07 09:59:46","新北市五股區蓬萊路2巷1號","121.435793333333","25.07935","6501500","五股區"
"244002","657-BX","2018/04/07 09:59:33","新北市林口區文化一路一段135巷12號","121.37361","25.0724416666667","6501700","林口區"
"222004","289-BY","2018/04/07 09:59:41","新北市深坑區深南路105號","121.625391666667","25.015125","6501800","深坑區"
"231007","189-VK","2018/04/07 09:59:30","新北市新店區新潭路三段215巷25號","121.508115","24.9041016666667","6500600","新店區"
"231008","192-VK","2018/04/07 09:40:16","新北市新店區平廣路一段256號","121.507871666667","24.8883","6500600","新店區"
"227006","030-BX","2018/04/07 09:59:41","新北市雙溪區長源里柑腳18號","121.804675","25.01415","6502500","雙溪區"
"252004","249-BX","2018/04/07 09:59:48","新北市三芝區福德里埔尾38號","121.51052","25.2345533333333","6502100","三芝區"
"252007","AAC-283","2018/04/07 09:59:44","新北市三芝區新庄里新庄子104號","121.516233333333","25.2686866666667","6502100","三芝區"
"236006","498-BY","2018/04/07 09:59:42","新北市土城區金城路一段112號","121.44624","24.9750266666667","6501300","土城區"
