"lineid","car","time","location","longitude","latitude","cityid","cityname"
"248005","653-BX","2018/04/07 10:09:46","新北市五股區中興路二段83巷26-6號","121.459995","25.075105","6501500","五股區"
"244002","657-BX","2018/04/07 10:09:53","新北市林口區文化一路一段135巷12號","121.373458333333","25.0724833333333","6501700","林口區"
"231007","189-VK","2018/04/07 10:09:50","新北市新店區新潭路三段215巷25號","121.50813","24.904105","6500600","新店區"
"231008","192-VK","2018/04/07 10:09:48","新北市新店區平廣路一段90號","121.530205","24.8984733333333","6500600","新店區"
"227006","030-BX","2018/04/07 10:09:41","新北市雙溪區長源里柑腳18號","121.804686666667","25.0141566666667","6502500","雙溪區"
"252004","249-BX","2018/04/07 10:09:48","新北市三芝區福德里埔尾4號","121.503476666667","25.24684","6502100","三芝區"
"252007","AAC-283","2018/04/07 10:09:44","新北市三芝區新庄里新庄子80-2號","121.508343333333","25.27205","6502100","三芝區"
