"lineid","car","time","location","longitude","latitude","cityid","cityname"
"234044","148-BY","2018/04/07 12:59:27","新北市永和區得和路373巷16弄1號","121.525151666667","25.0003083333333","6500400","永和區"
"234068","149-BY","2018/04/07 12:59:26","新北市永和區中興街84巷8號","121.518336666667","25.0116466666667","6500400","永和區"
"234005","207-UY","2018/04/07 12:59:08","新北市永和區中山路一段30號","121.513633333333","25.0106416666667","6500400","永和區"
"234078","298-R6","2018/04/07 12:59:23","新北市永和區永貞路31號","121.521016666667","25.0066166666667","6500400","永和區"
"234036","336-UY","2018/04/07 12:59:19","新北市永和區成功路二段207號","121.526568333333","24.9959633333333","6500400","永和區"
"234062","337-UY","2018/04/07 12:59:16","新北市永和區秀朗路一段170號","121.518583333333","25.0033916666667","6500400","永和區"
"234084","338-UY","2018/04/07 12:59:19","新北市永和區永寧街131巷2號","121.518095","25.0050416666667","6500400","永和區"
"234015","745-BX","2018/04/07 12:59:20","新北市永和區永和路二段297號","121.516021666667","25.016055","6500400","永和區"
"234028","746-BX","2018/04/07 12:59:16","新北市永和區厚德街5號","121.52563","24.998045","6500400","永和區"
"234052","KEA-2590","2018/04/07 12:59:23","新北市永和區豫溪街189巷1號","121.522621666667","25.0103066666667","6500400","永和區"
"234012","KEA-2591","2018/04/07 12:59:11","新北市永和區信義路15號","121.514275","25.0119733333333","6500400","永和區"
"234060","AAD-866","2018/04/07 12:59:22","新北市永和區福和路307號","121.51626","25.007105","6500400","永和區"
"234040","862-TW","2018/04/07 12:59:21","新北市永和區永貞路308號","121.511855","25.0048716666667","6500400","永和區"
"234048","863-TW","2018/04/07 12:59:24","新北市永和區文化路192巷4弄2-1號","121.51092","25.0162916666667","6500400","永和區"
"234025","9371-KE","2018/04/07 12:59:21","新北市永和區水源街2巷12號","121.512346666667","25.00555","6500400","永和區"
"234010","9373-KE","2018/04/07 12:59:23","新北市永和區仁愛路40巷9弄3號","121.513886666667","25.01401","6500400","永和區"
"248017","225-UY","2018/04/07 12:59:21","新北市五股區中興路二段83巷26-6號","121.460121666667","25.0752883333333","6501500","五股區"
"234022","9380-KE","2018/04/07 12:59:09","新北市永和區竹林路39巷28弄39號","121.520073333333","25.0140866666667","6500400","永和區"
"234076","969-R7","2018/04/07 12:59:12","新北市永和區民享街11號","121.515313333333","24.99533","6500400","永和區"
"234072","AAC-211","2018/04/07 12:59:12","新北市永和區環河東路二段98號","121.52412","25.0103583333333","6500400","永和區"
"234066","AAC-212","2018/04/07 12:59:23","新北市永和區自由街70-8號","121.513358333333","25.0053966666667","6500400","永和區"
"234001","AAC-295","2018/04/07 12:59:27","新北市永和區永和路一段135巷2號","121.514005","25.0086733333333","6500400","永和區"
"244005","248-BX","2018/04/07 12:59:06","新北市林口區粉寮路一段137號","121.398991666667","25.0811533333333","6501700","林口區"
"231001","047-UY","2018/04/07 12:59:26","新北市新店區安華路28-1號","121.519315","24.960905","6500600","新店區"
"231005","106-UY","2018/04/07 12:59:17","新北市新店區安華路28-1號","121.519591666667","24.9608616666667","6500600","新店區"
"231020","108-UY","2018/04/07 12:59:15","新北市新店區安華路28-1號","121.51949","24.9612616666667","6500600","新店區"
"231012","187-VK","2018/04/07 12:59:22","新北市新店區安華路28-1號","121.519581666667","24.9612183333333","6500600","新店區"
"231018","278-BY","2018/04/07 12:58:46","新北市新店區安華路28-1號","121.519508333333","24.9613166666667","6500600","新店區"
"231038","3713-VJ","2018/04/07 12:59:08","新北市新店區安華路28-1號","121.519306666667","24.9607016666667","6500600","新店區"
"231037","4716-K9","2018/04/07 12:59:28","新北市新店區安華路28-1號","121.519331666667","24.9612616666667","6500600","新店區"
"231025","4715-K9","2018/04/07 12:59:15","新北市新店區安華路1-1號","121.519431666667","24.9605033333333","6500600","新店區"
"231036","512-UM","2018/04/07 12:59:24","新北市新店區安康路一段355-3號","121.519138333333","24.961505","6500600","新店區"
"231013","513-UM","2018/04/07 12:59:10","新北市新店區安華路28-1號","121.51962","24.9611816666667","6500600","新店區"
"231006","617-UM","2018/04/07 12:59:20","新北市新店區安華路28-1號","121.519443333333","24.9611716666667","6500600","新店區"
"231030","619-UM","2018/04/07 12:59:23","新北市新店區安華路28-1號","121.519636666667","24.9608066666667","6500600","新店區"
"231034","641-BX","2018/04/07 12:59:21","新北市新店區安華路1-1號","121.519461666667","24.9603883333333","6500600","新店區"
"231003","645-TV","2018/04/07 12:59:16","新北市新店區安華路28-1號","121.519343333333","24.9607066666667","6500600","新店區"
"231035","719-UM","2018/04/07 12:59:15","新北市新店區安華路28-1號","121.519493333333","24.961395","6500600","新店區"
"231017","719-UY","2018/04/07 12:59:10","新北市新店區安華路28-1號","121.519243333333","24.9612166666667","6500600","新店區"
"231033","720-UM","2018/04/07 12:59:18","新北市新店區安康路一段355-3號","121.519441666667","24.961555","6500600","新店區"
"231029","897-TW","2018/04/07 12:59:16","新北市新店區安華路28-1號","121.51953","24.9609783333333","6500600","新店區"
"231004","899-TW","2018/04/07 12:59:27","新北市新店區安華路28-1號","121.51931","24.9609716666667","6500600","新店區"
"231024","AKT-0513","2018/04/07 12:59:21","新北市新店區安華路28-1號","121.519471666667","24.9605816666667","6500600","新店區"
"235028","005-UY","2018/04/07 12:59:11","新北市中和區員山路36巷16-3號","121.48505","24.9913733333333","6500300","中和區"
"235029","098-UM","2018/04/07 12:59:16","新北市中和區板南路386號","121.493686666667","24.999475","6500300","中和區"
"235022","151-BY","2018/04/07 12:59:12","新北市中和區圓通路367巷4號","121.491428333333","24.9892966666667","6500300","中和區"
"235002","185-VK","2018/04/07 12:59:07","新北市中和區秀朗路三段10巷14弄25號","121.52447","24.996455","6500300","中和區"
"235031","255-BX","2018/04/07 12:57:52","新北市中和區中正路899號","121.484165","25.0049916666667","6500300","中和區"
"235018","640-BX","2018/04/07 12:59:18","新北市中和區員山路36巷16-7號","121.484975","24.992135","6500300","中和區"
"235011","732-UM","2018/04/07 12:59:25","新北市中和區員山路36巷13號","121.48418","24.9911683333333","6500300","中和區"
"235010","733-UM","2018/04/07 12:59:23","新北市中和區員山路36巷13號","121.484166666667","24.9908966666667","6500300","中和區"
"235035","783-BX","2018/04/07 12:59:22","新北市中和區員山路36巷16-3號","121.48513","24.9911983333333","6500300","中和區"
"235026","800-TS","2018/04/07 12:59:18","新北市中和區中正路571巷2弄12號","121.486096666667","24.9940783333333","6500300","中和區"
"235017","900-TW","2018/04/07 12:56:18","新北市中和區員山路36巷16-2號","121.48506","24.991935","6500300","中和區"
"235015","157-BY","2018/04/07 12:59:27","新北市中和區員山路36巷13號","121.484255","24.9909316666667","6500300","中和區"
"235001","AAC-213","2018/04/07 12:59:27","新北市中和區中正路271號","121.495761666667","24.9938766666667","6500300","中和區"
"228004","212-TW","2018/04/07 12:59:21","新北市貢寮區吉林里內寮街10-1號","121.887276666667","24.98893","6502600","貢寮區"
"228005","828-UM","2018/04/07 12:59:08","新北市貢寮區福隆里東興街84號","121.947528333333","25.0173316666667","6502600","貢寮區"
"207002","749-BX","2018/04/07 12:59:19","新北市萬里區雙興里大坪路21號","121.63579","25.1636083333333","6502800","萬里區"
"252005","073-UM","2018/04/07 12:59:15","新北市三芝區埔坪里埔頭坑41號","121.504723333333","25.2640683333333","6502100","三芝區"
"207001","662-BX","2018/04/07 12:59:14","新北市萬里區萬里里獅頭路23號","121.693165","25.1781716666667","6502800","萬里區"
"236006","498-BY","2018/04/07 12:59:28","新北市土城區亞洲路32巷8號","121.435793333333","24.9744883333333","6501300","土城區"
