"lineid","car","time","location","longitude","latitude","cityid","cityname"
"234044","148-BY","2018/04/07 13:39:07","新北市永和區永元路97號","121.522456666667","25.002195","6500400","永和區"
"234068","149-BY","2018/04/07 13:39:26","新北市永和區永和路二段235號","121.515526666667","25.0142983333333","6500400","永和區"
"234005","207-UY","2018/04/07 13:39:08","新北市永和區永和路一段100號","121.513225","25.0069533333333","6500400","永和區"
"234078","298-R6","2018/04/07 13:39:22","新北市永和區國中路2號","121.524198333333","25.0043333333333","6500400","永和區"
"234036","336-UY","2018/04/07 13:39:19","新北市永和區環河東路四段2號","121.528376666667","25.0002383333333","6500400","永和區"
"234062","337-UY","2018/04/07 13:39:15","新北市永和區秀朗路一段192巷6弄10號","121.51914","25.002365","6500400","永和區"
"234084","338-UY","2018/04/07 13:39:19","新北市永和區永亨路122號","121.524446666667","25.0040933333333","6500400","永和區"
"234015","745-BX","2018/04/07 13:39:20","新北市永和區文化路90巷32弄9-1號","121.513448333333","25.01697","6500400","永和區"
"234028","746-BX","2018/04/07 13:39:16","新北市永和區民權路29巷5號","121.520486666667","24.99785","6500400","永和區"
"234052","KEA-2590","2018/04/07 13:39:23","新北市永和區竹林路39巷26號","121.519046666667","25.0146683333333","6500400","永和區"
"234012","KEA-2591","2018/04/07 13:39:23","新北市永和區仁愛路188號","121.509875","25.01258","6500400","永和區"
"234060","AAD-866","2018/04/07 13:39:22","新北市永和區中正路456號","121.517495","25.0029433333333","6500400","永和區"
"234040","862-TW","2018/04/07 13:39:21","新北市永和區中和路305巷10弄1號","121.506961666667","25.0007966666667","6500400","永和區"
"234048","863-TW","2018/04/07 13:39:24","新北市永和區保安路35號","121.509801666667","25.0161733333333","6500400","永和區"
"234025","9371-KE","2018/04/07 13:39:27","新北市永和區和平街109巷6號","121.510771666667","25.0096433333333","6500400","永和區"
"234010","9373-KE","2018/04/07 13:39:23","新北市永和區保福路二段14-1號","121.510873333333","25.0114083333333","6500400","永和區"
"248017","225-UY","2018/04/07 13:39:21","新北市五股區民義路二段48巷1-8號","121.414201666667","25.10294","6501500","五股區"
"234022","9380-KE","2018/04/07 13:39:09","新北市永和區中正路702巷20弄1號","121.516476666667","25.0105833333333","6500400","永和區"
"234076","969-R7","2018/04/07 13:39:20","新北市永和區得和路229號","121.519861666667","25.00012","6500400","永和區"
"234072","AAC-211","2018/04/07 13:39:12","新北市永和區竹林路213巷28號","121.522356666667","25.0089916666667","6500400","永和區"
"234066","AAC-212","2018/04/07 13:39:24","新北市永和區中山路一段191巷2弄14號","121.509298333333","25.0084083333333","6500400","永和區"
"234001","AAC-295","2018/04/07 13:39:07","新北市永和區永和路一段122號","121.513863333333","25.0076966666667","6500400","永和區"
"244005","248-BX","2018/04/07 13:39:26","新北市林口區竹林路361號","121.38766","25.0846383333333","6501700","林口區"
"231027","0293-UT","2018/04/07 13:38:55","新北市新店區新店路23號","121.540175","24.9528366666667","6500600","新店區"
"231028","046-UY","2018/04/07 13:39:26","新北市新店區安和路一段52巷2-1號","121.517673333333","24.9663833333333","6500600","新店區"
"231001","047-UY","2018/04/07 13:39:06","新北市新店區中正路434號","121.534171666667","24.9782433333333","6500600","新店區"
"231005","106-UY","2018/04/07 13:39:17","新北市新店區寶中路72號","121.54788","24.980655","6500600","新店區"
"231020","108-UY","2018/04/07 13:39:15","新北市新店區永興路132-3號","121.544821666667","24.9316466666667","6500600","新店區"
"231012","187-VK","2018/04/07 13:39:22","新北市新店區德正街27巷1號","121.544583333333","24.9714383333333","6500600","新店區"
"231010","188-VK","2018/04/07 13:39:14","新北市新店區中正路307巷17號","121.535818333333","24.973635","6500600","新店區"
"231023","KEA-2219","2018/04/07 13:39:16","新北市新店區新店路166號","121.537136666667","24.9556516666667","6500600","新店區"
"231026","256-BX","2018/04/07 13:39:14","新北市新店區北新路一段293號","121.541303333333","24.9670866666667","6500600","新店區"
"231018","278-BY","2018/04/07 13:39:06","新北市新店區百忍街37號","121.533441666667","24.9758533333333","6500600","新店區"
"231038","3713-VJ","2018/04/07 13:39:08","新北市新店區安華路30巷1號","121.519616666667","24.9592683333333","6500600","新店區"
"231037","4716-K9","2018/04/07 13:39:09","新北市新店區安康路二段317-1號","121.499115","24.9563833333333","6500600","新店區"
"231025","4715-K9","2018/04/07 13:39:15","新北市新店區中央六街56號","121.527968333333","24.9757","6500600","新店區"
"231036","512-UM","2018/04/07 13:39:24","新北市新店區安祥路142號","121.474293333333","24.955475","6500600","新店區"
"231013","513-UM","2018/04/07 13:39:10","新北市新店區中正路454-5號","121.53441","24.9790633333333","6500600","新店區"
"231006","617-UM","2018/04/07 13:39:20","新北市新店區北宜路一段76號","121.538575","24.9558016666667","6500600","新店區"
"231002","618-UM","2018/04/07 13:39:23","新北市新店區溪園路405號","121.524113333333","24.9782483333333","6500600","新店區"
"231030","619-UM","2018/04/07 13:39:23","新北市新店區安康路一段355-10號","121.52075","24.9638316666667","6500600","新店區"
"231034","641-BX","2018/04/07 13:39:21","新北市新店區達觀路8巷1-1號","121.504798333333","24.9426083333333","6500600","新店區"
"231003","645-TV","2018/04/07 13:39:16","新北市新店區中興路一段280號","121.545588333333","24.968475","6500600","新店區"
"231035","719-UM","2018/04/07 13:39:15","新北市新店區安忠路90號","121.511518333333","24.9580716666667","6500600","新店區"
"231017","719-UY","2018/04/07 13:39:10","新北市新店區竹林路2巷33號","121.550501666667","24.9502216666667","6500600","新店區"
"231033","720-UM","2018/04/07 13:39:18","新北市新店區莒光路61巷2號","121.523741666667","24.95786","6500600","新店區"
"231029","897-TW","2018/04/07 13:39:21","新北市新店區安康路二段240號","121.509165","24.9591633333333","6500600","新店區"
"231004","899-TW","2018/04/07 13:39:07","新北市新店區北新路二段1號","121.542728333333","24.9712733333333","6500600","新店區"
"231024","AKT-0513","2018/04/07 13:39:21","新北市新店區華興街40號","121.537075","24.9691366666667","6500600","新店區"
"235030","003-UY","2018/04/07 13:39:19","新北市中和區水源路33號","121.50424","25.00361","6500300","中和區"
"235028","005-UY","2018/04/07 13:39:11","新北市中和區連城路109巷81號","121.49745","24.9975733333333","6500300","中和區"
"235027","006-UY","2018/04/07 13:39:09","新北市中和區連城路234號","121.489301666667","24.996335","6500300","中和區"
"235020","096-UM","2018/04/07 13:39:22","新北市中和區員山路466巷17弄31號","121.480466666667","25.0074566666667","6500300","中和區"
"235029","098-UM","2018/04/07 13:39:16","新北市中和區莊敬路49巷29弄6-6號","121.501373333333","25.0064866666667","6500300","中和區"
"235004","150-BY","2018/04/07 13:39:17","新北市中和區安平路59號","121.509445","24.9952366666667","6500300","中和區"
"235022","151-BY","2018/04/07 13:39:12","新北市中和區圓通路369巷35號","121.489496666667","24.9866916666667","6500300","中和區"
"235019","183-VK","2018/04/07 13:39:24","新北市中和區國光街127號","121.469276666667","25.00102","6500300","中和區"
"235002","185-VK","2018/04/07 13:39:27","新北市中和區立人街24-5號","121.518861666667","24.9941933333333","6500300","中和區"
"235013","186-VK","2018/04/07 13:39:25","新北市中和區景安路120巷3號","121.50507","24.9948916666667","6500300","中和區"
"235031","255-BX","2018/04/07 13:36:16","新北市中和區新生街186巷5弄29號","121.48309","24.9987216666667","6500300","中和區"
"235008","293-VK","2018/04/07 13:39:24","新北市中和區復興路280巷1弄2號","121.502248333333","24.9907566666667","6500300","中和區"
"235036","301-VK","2018/04/07 13:39:09","新北市中和區中山路二段193號","121.499911666667","25.0027","6500300","中和區"
"235007","352-BY","2018/04/07 13:39:27","新北市中和區景德街88號","121.51611","24.9918833333333","6500300","中和區"
"235032","377-QA","2018/04/07 13:39:08","新北市中和區中正路167巷17號","121.498593333333","24.9929066666667","6500300","中和區"
"235025","378-QA","2018/04/07 13:39:10","新北市中和區民享街92巷25號","121.47339","24.9995566666667","6500300","中和區"
"235014","4979-A6","2018/04/07 13:39:09","新北市中和區景新街496巷28弄12號","121.51293","24.9859466666667","6500300","中和區"
"235033","4980-A6","2018/04/07 13:39:15","新北市中和區連城路96號","121.496375","24.9999283333333","6500300","中和區"
"235006","551-UM","2018/04/07 13:39:11","新北市中和區成功路127巷21號","121.527085","24.9910966666667","6500300","中和區"
"235034","558-UM","2018/04/07 13:39:21","新北市中和區南華路52號","121.504275","24.9967566666667","6500300","中和區"
"235009","565-BX","2018/04/07 13:39:28","新北市中和區南山路236巷57號","121.504563333333","24.9881166666667","6500300","中和區"
"235018","640-BX","2018/04/07 13:39:18","新北市中和區民享街32巷1號","121.473748333333","25.0032","6500300","中和區"
"235011","732-UM","2018/04/07 13:39:24","新北市中和區南山路320巷10弄11號","121.506865","24.9866683333333","6500300","中和區"
"235010","733-UM","2018/04/07 13:39:23","新北市中和區南山路421巷1弄34號","121.507175","24.9905866666667","6500300","中和區"
"235035","783-BX","2018/04/07 13:39:22","新北市中和區立德街57號","121.48793","25.0076533333333","6500300","中和區"
"235026","800-TS","2018/04/07 13:10:58","新北市中和區建八路12號","121.486656666667","24.99821","6500300","中和區"
"235021","801-TS","2018/04/07 13:39:23","新北市中和區民安街42巷2號","121.479995","25.0005933333333","6500300","中和區"
"235005","802-TS","2018/04/07 13:39:22","新北市中和區中和路400巷27-3號","121.5118","25.0022216666667","6500300","中和區"
"235016","805-TS","2018/04/07 13:39:20","新北市中和區興南路三段52-2號","121.493905","24.975575","6500300","中和區"
"235012","896-TW","2018/04/07 13:39:19","新北市中和區中正路131號","121.499688333333","24.9935683333333","6500300","中和區"
"235017","900-TW","2018/04/07 13:39:18","新北市中和區民德路264號","121.468013333333","24.996675","6500300","中和區"
"235024","911-UM","2018/04/07 13:39:08","新北市中和區中山路二段610號","121.481663333333","25.0054233333333","6500300","中和區"
"235015","157-BY","2018/04/07 13:39:27","新北市中和區華新街143巷106弄32號","121.506215","24.9787633333333","6500300","中和區"
"235001","AAC-213","2018/04/07 13:39:26","新北市中和區景德街28號","121.518331666667","24.99143","6500300","中和區"
"235023","AAC-215","2018/04/07 13:39:12","新北市中和區中正路527號","121.487738333333","24.9938333333333","6500300","中和區"
"220013","072-UY","2018/04/07 13:39:19","新北市板橋區縣民大道二段1號","121.462356666667","25.0117966666667","6500100","板橋區"
"220034","073-UY","2018/04/07 13:39:27","新北市板橋區南雅西路二段192巷1弄3號","121.452051666667","25.0144983333333","6500100","板橋區"
"220014","075-UY","2018/04/07 13:39:22","新北市板橋區民生路二段120號","121.470478333333","25.0198083333333","6500100","板橋區"
"220017","AAD-861","2018/04/07 13:39:23","新北市板橋區華東街1-10號","121.448353333333","24.9951066666667","6500100","板橋區"
"247007","056-VK","2018/04/07 13:39:29","新北市五股區四維路171巷4號","121.46764","25.0751816666667","6501400","蘆洲區"
"247019","001-UY","2018/04/07 13:39:28","新北市五股區成洲五路22號","121.453156666667","25.1011733333333","6501400","蘆洲區"
"235003","251-BX","2018/04/07 13:39:08","新北市中和區景平路278巷16弄12號","121.514363333333","24.993635","6500300","中和區"
"228004","212-TW","2018/04/07 13:39:21","新北市貢寮區龍崗里嵩陽街41-3號","121.907333333333","25.0079316666667","6502600","貢寮區"
"228005","828-UM","2018/04/07 13:39:08","新北市貢寮區美豐里文秀坑8號","121.902466666667","25.0503233333333","6502600","貢寮區"
"253003","6232-TK","2018/04/07 13:39:25","新北市石門區內石門14-2號","121.573616666667","25.27775","6502200","石門區"
"253001","6251-TK","2018/04/07 13:39:15","新北市三芝區新庄里新庄子51-26號","121.507848333333","25.277935","6502200","石門區"
"253002","637-UY","2018/04/07 13:39:09","新北市石門區九芎林16-1號","121.564953333333","25.2600733333333","6502200","石門區"
"253004","8270-PC","2018/04/07 13:39:07","新北市石門區五爪崙8-10號","121.607866666667","25.2622433333333","6502200","石門區"
"207002","749-BX","2018/04/07 13:39:19","新北市萬里區崁腳里崁腳路166號","121.64507","25.155855","6502800","萬里區"
"252005","073-UM","2018/04/07 13:39:15","新北市三芝區圓山里木屐寮30號","121.531643333333","25.2222433333333","6502100","三芝區"
"207001","662-BX","2018/04/07 13:39:14","新北市萬里區大鵬里萬里加投18-3號","121.64991","25.20954","6502800","萬里區"
"236074","166-UM","2018/04/07 13:39:16","新北市土城區城林路6巷80號","121.438441666667","24.97976","6501300","土城區"
"236029","253-BX","2018/04/07 13:39:22","新北市土城區城林路6巷80號","121.438461666667","24.9797866666667","6501300","土城區"
"236013","270-VK","2018/04/07 13:39:22","新北市土城區城林路6巷80號","121.438598333333","24.9797483333333","6501300","土城區"
"236032","271-VK","2018/04/07 13:39:19","新北市土城區城林路6巷80號","121.438471666667","24.9797466666667","6501300","土城區"
"236006","498-BY","2018/04/07 13:39:28","新北市土城區中央路二段61巷40號","121.443865","24.9785116666667","6501300","土城區"
"236054","AAC-216","2018/04/07 13:39:23","新北市土城區城林路6巷80號","121.438723333333","24.9796233333333","6501300","土城區"
"220027","145-BY","2018/04/07 13:39:19","新北市板橋區大仁街20號","121.455621666667","25.016945","6500100","板橋區"
"220028","200-UY","2018/04/07 13:39:22","新北市板橋區大觀路二段265巷76弄32號","121.441221666667","24.9968366666667","6500100","板橋區"
"220030","610-BX","2018/04/07 13:39:07","新北市板橋區大觀路三段50巷43號","121.4321","24.9956316666667","6500100","板橋區"
"220020","277-BY","2018/04/07 13:39:04","新北市板橋區大觀路三段54號","121.433293333333","24.9955316666667","6500100","板橋區"
"220025","282-UM","2018/04/07 13:39:08","新北市板橋區篤行路一段30號","121.431905","24.9941616666667","6500100","板橋區"
"220019","283-VK","2018/04/07 13:39:23","新北市板橋區四川路二段140巷20號","121.449005","24.9935333333333","6500100","板橋區"
"220043","285-UM","2018/04/07 13:39:16","新北市板橋區民生路二段161巷1號","121.470058333333","25.01981","6500100","板橋區"
"220031","286-VK","2018/04/07 13:39:16","新北市板橋區大觀路二段力行3巷51號","121.447438333333","24.999065","6500100","板橋區"
"220029","287-VK","2018/04/07 13:39:21","新北市板橋區大觀路二段169巷23號","121.446625","24.99971","6500100","板橋區"
"220039","288-VK","2018/04/07 13:39:22","新北市板橋區民生路二段161巷9號","121.470266666667","25.0196566666667","6500100","板橋區"
"220032","296-UM","2018/04/07 13:39:14","新北市板橋區大觀路二段153巷44弄9號","121.446741666667","24.9993183333333","6500100","板橋區"
"220023","303-R5","2018/04/07 13:39:08","新北市板橋區華東街268號","121.4526","25.0012683333333","6500100","板橋區"
"220010","305-R5","2018/04/07 13:38:54","新北市板橋區民生路二段120號","121.470481666667","25.0197333333333","6500100","板橋區"
"220012","486-VK","2018/04/07 13:39:27","新北市板橋區縣民大道一段275號","121.460585","25.009795","6500100","板橋區"
"220104","560-BX","2018/04/07 13:39:20","新北市板橋區南雅西路二段175巷2號","121.451645","25.0125616666667","6500100","板橋區"
"220004","568-UM","2018/04/07 13:39:18","新北市板橋區四川路二段140巷20號","121.449101666667","24.99348","6500100","板橋區"
"220005","686-BX","2018/04/07 13:39:15","新北市板橋區華東街1-9號","121.448228333333","24.9949216666667","6500100","板橋區"
"220002","741-BX","2018/04/07 13:39:24","新北市板橋區華東街1-9號","121.448071666667","24.9949566666667","6500100","板橋區"
"220045","831-TW","2018/04/07 13:39:26","新北市板橋區民生路二段188號","121.470016666667","25.0205166666667","6500100","板橋區"
"220022","895-R6","2018/04/07 13:39:26","新北市板橋區南雅南路一段100號","121.455108333333","25.0046483333333","6500100","板橋區"
"220021","985-R7","2018/04/07 13:39:18","新北市板橋區南雅南路二段140號","121.451943333333","24.9962916666667","6500100","板橋區"
"220018","AAC-253","2018/04/07 13:39:16","新北市板橋區板城路421號","121.448063333333","24.99564","6500100","板橋區"
