"lineid","car","time","location","longitude","latitude","cityid","cityname"
"248017","225-UY","2018/04/07 15:19:26","新北市五股區成泰路一段98巷170號","121.451713333333","25.0731266666667","6501500","五股區"
"231028","046-UY","2018/04/07 15:19:26","新北市新店區僑信路126巷22號","121.499495","24.9457616666667","6500600","新店區"
"231001","047-UY","2018/04/07 15:19:26","新北市新店區北新路一段325號","121.541706666667","24.9683216666667","6500600","新店區"
"231005","106-UY","2018/04/07 15:19:21","新北市新店區建國路236號","121.537695","24.9818166666667","6500600","新店區"
"231020","108-UY","2018/04/07 15:19:15","新北市新店區湖興路109號","121.560613333333","24.9354483333333","6500600","新店區"
"231012","187-VK","2018/04/07 15:19:22","新北市新店區復興路12號","121.539943333333","24.9868366666667","6500600","新店區"
"231023","KEA-2219","2018/04/07 15:19:16","新北市新店區北新路一段64巷35號","121.542203333333","24.965755","6500600","新店區"
"231026","256-BX","2018/04/07 15:19:26","新北市新店區中正路247巷6弄2號","121.538613333333","24.9727","6500600","新店區"
"231018","278-BY","2018/04/07 15:19:26","新北市新店區中央七街59號","121.52812","24.97641","6500600","新店區"
"231038","3713-VJ","2018/04/07 15:19:28","新北市新店區安華路28-1號","121.519438333333","24.9608783333333","6500600","新店區"
"231037","4716-K9","2018/04/07 15:19:28","新北市新店區安興路81號","121.5153","24.9751966666667","6500600","新店區"
"231025","4715-K9","2018/04/07 15:19:15","新北市新店區環河路105-10號","121.532291666667","24.96976","6500600","新店區"
"231036","512-UM","2018/04/07 15:19:23","新北市新店區安祥路69巷17號","121.481893333333","24.961375","6500600","新店區"
"231006","617-UM","2018/04/07 15:19:20","新北市新店區北新路一段99號","121.539086666667","24.9621066666667","6500600","新店區"
"231002","618-UM","2018/04/07 15:19:23","新北市新店區中正路700巷3號","121.533503333333","24.9917583333333","6500600","新店區"
"231034","641-BX","2018/04/07 15:19:21","新北市新店區如意街3巷2號","121.495593333333","24.9491333333333","6500600","新店區"
"231003","645-TV","2018/04/07 15:19:16","新北市新店區寶橋路230號","121.551496666667","24.9788816666667","6500600","新店區"
"231039","718-UY","2018/04/07 15:19:23","新北市新店區寶元路一段65號","121.542226666667","24.985805","6500600","新店區"
"231035","719-UM","2018/04/07 15:19:14","新北市新店區安興路131巷2號","121.515506666667","24.9793233333333","6500600","新店區"
"231017","719-UY","2018/04/07 15:19:30","新北市新店區明山路45號","121.563801666667","24.9559183333333","6500600","新店區"
"231033","720-UM","2018/04/07 15:19:18","新北市新店區雙城路2巷1號","121.491308333333","24.9512066666667","6500600","新店區"
"231029","897-TW","2018/04/07 15:19:16","新北市新店區安康路三段738號","121.473831666667","24.9420116666667","6500600","新店區"
"231004","899-TW","2018/04/07 15:19:26","新北市新店區博愛街13巷24號","121.540265","24.974045","6500600","新店區"
"231024","AKT-0513","2018/04/07 15:19:21","新北市新店區北新路一段101號","121.539111666667","24.96213","6500600","新店區"
"241017","063-VK","2018/04/07 15:19:16","新北市三重區重新路四段121號","121.484863333333","25.0519133333333","6500200","三重區"
"235030","003-UY","2018/04/07 15:19:19","新北市中和區光華街31巷22弄7號","121.505661666667","25.00477","6500300","中和區"
"235014","4979-A6","2018/04/07 15:19:30","新北市中和區景安路82巷4號","121.505316666667","24.9961966666667","6500300","中和區"
"235033","4980-A6","2018/04/07 15:19:15","新北市中和區圓通路165號","121.4978","24.995505","6500300","中和區"
"235012","896-TW","2018/04/07 15:19:19","新北市中和區興南路一段40號","121.511063333333","24.99075","6500300","中和區"
"235001","AAC-213","2018/04/07 15:19:26","新北市三重區重新路五段283號","121.479376666667","25.0500133333333","6500300","中和區"
"235023","AAC-215","2018/04/07 15:19:11","新北市中和區圓通路320-1號","121.485311666667","24.9878233333333","6500300","中和區"
"220034","073-UY","2018/04/07 15:19:27","新北市樹林區中山路三段210-2號","121.381181666667","24.96583","6500100","板橋區"
"220014","075-UY","2018/04/07 15:19:25","新北市板橋區中山路一段214號","121.470146666667","25.0140183333333","6500100","板橋區"
"253003","6232-TK","2018/04/07 15:19:25","新北市石門區小坑9號","121.594425","25.2884083333333","6502200","石門區"
"253001","6251-TK","2018/04/07 15:19:15","新北市石門區小坑9號","121.594541666667","25.2892366666667","6502200","石門區"
"253002","637-UY","2018/04/07 15:19:29","新北市石門區阿里磅1號","121.591533333333","25.2909366666667","6502200","石門區"
"253004","8270-PC","2018/04/07 15:19:27","新北市石門區小坑9號","121.594951666667","25.286365","6502200","石門區"
"207002","749-BX","2018/04/07 15:19:19","新北市萬里區崁腳里內中福路38號","121.659043333333","25.1645266666667","6502800","萬里區"
"207001","662-BX","2018/04/07 15:19:13","新北市萬里區大鵬里萬里加投10號","121.650758333333","25.2069783333333","6502800","萬里區"
"236068","105-UM","2018/04/07 15:19:14","新北市土城區裕民路185巷36弄10號","121.454386666667","24.9845666666667","6501300","土城區"
"236040","107-UM","2018/04/07 15:19:17","新北市土城區裕民路185巷7號","121.45387","24.984815","6501300","土城區"
"236074","166-UM","2018/04/07 15:19:16","新北市土城區中州路32號","121.41333","24.9580083333333","6501300","土城區"
"236029","253-BX","2018/04/07 15:19:21","新北市土城區中華路一段205號","121.442826666667","24.9848916666667","6501300","土城區"
"236024","269-VK","2018/04/07 15:19:07","新北市土城區員林街6-1號","121.442678333333","24.9780716666667","6501300","土城區"
"236013","270-VK","2018/04/07 15:19:22","新北市土城區廣福街32號","121.45774","24.9901616666667","6501300","土城區"
"236032","271-VK","2018/04/07 15:19:19","新北市土城區國際路63號","121.466716666667","24.9765333333333","6501300","土城區"
"236017","401-BY","2018/04/07 15:19:19","新北市土城區金城路三段198號","121.468686666667","24.9878216666667","6501300","土城區"
"236057","912-UM","2018/04/07 15:19:26","新北市土城區中央路二段223-5號","121.44066","24.973395","6501300","土城區"
"236045","913-UM","2018/04/07 15:19:22","新北市土城區明德路一段78號","121.465026666667","24.9800616666667","6501300","土城區"
"236060","915-UM","2018/04/07 15:19:19","新北市土城區延平街65號","121.467825","24.9927616666667","6501300","土城區"
"236054","AAC-216","2018/04/07 15:19:23","新北市土城區立德路103號","121.463421666667","24.987595","6501300","土城區"
"220050","245-BX","2018/04/07 15:19:23","新北市板橋區縣民大道三段32號","121.471551666667","25.01891","6500100","板橋區"
"220052","257-TC","2018/04/07 15:19:19","新北市板橋區漢生西路7號","121.463858333333","25.0180116666667","6500100","板橋區"
"220025","282-UM","2018/04/07 15:12:11","新北市板橋區溪城路90-2號","121.429358333333","24.9802033333333","6500100","板橋區"
"220031","286-VK","2018/04/07 15:19:16","新北市板橋區僑中二街112巷3號","121.445506666667","25.0070383333333","6500100","板橋區"
"220047","317-R6","2018/04/07 15:19:14","新北市板橋區長江路二段311巷18-1號","121.470063333333","25.0359983333333","6500100","板橋區"
"220042","689-BX","2018/04/07 15:19:11","新北市板橋區新海路464號","121.457631666667","25.0282483333333","6500100","板橋區"
"220051","KEA-2699","2018/04/07 15:19:29","新北市板橋區民生路二段215號","121.469165","25.0209666666667","6500100","板橋區"
"220038","833-TW","2018/04/07 15:19:30","新北市板橋區四維路174號","121.464575","25.0263166666667","6500100","板橋區"
"220018","AAC-253","2018/04/07 15:19:16","新北市板橋區華東街1-8號","121.447966666667","24.9948633333333","6500100","板橋區"
