"lineid","car","time","location","longitude","latitude","cityid","cityname"
"234070","149-BY","2018/04/07 15:57:16","新北市永和區福和路1號","121.526673333333","25.0099916666667","6500400","永和區"
"244005","248-BX","2018/04/07 15:30:01","新北市林口區粉寮路二段160巷28號","121.405161666667","25.09078","6501700","林口區"
"231012","187-VK","2018/04/07 15:59:22","新北市新店區溪園路405號","121.52397","24.978355","6500600","新店區"
"231046","188-VK","2018/04/07 15:59:14","新北市新店區安康路一段355-3號","121.51963","24.9616466666667","6500600","新店區"
"231026","256-BX","2018/04/07 15:59:26","新北市新店區環河路29巷1號","121.535893333333","24.96127","6500600","新店區"
"231018","278-BY","2018/04/07 15:59:26","新北市新店區中正路663巷7弄15號","121.532971666667","24.9900816666667","6500600","新店區"
"231038","3713-VJ","2018/04/07 15:59:28","新北市新店區安康路二段320巷6號","121.504586666667","24.9595583333333","6500600","新店區"
"231037","4716-K9","2018/04/07 15:59:28","新北市新店區柴埕路59號","121.513695","24.9648666666667","6500600","新店區"
"231013","513-UM","2018/04/07 15:59:26","新北市新店區安康路一段61號","121.530608333333","24.96078","6500600","新店區"
"231030","619-UM","2018/04/07 15:59:26","新北市新店區永平街51巷1號","121.516176666667","24.9841666666667","6500600","新店區"
"231034","641-BX","2018/04/07 15:59:21","新北市新店區富貴街20巷17號","121.4932","24.9476833333333","6500600","新店區"
"231003","645-TV","2018/04/07 15:59:16","新北市新店區寶興路60巷4號","121.549766666667","24.9719083333333","6500600","新店區"
"231035","719-UM","2018/04/07 15:59:14","新北市新店區安民街251巷5號","121.516651666667","24.972695","6500600","新店區"
"231017","719-UY","2018/04/07 15:59:10","新北市新店區中正路248號","121.53946","24.973245","6500600","新店區"
"241011","013-R5","2018/04/07 15:59:20","新北市三重區雙園街1巷7號","121.497218333333","25.0683583333333","6500200","三重區"
"241028","022-UY","2018/04/07 15:59:10","新北市三重區電信街77號","121.495945","25.0582983333333","6500200","三重區"
"241008","059-VK","2018/04/07 15:59:24","新北市三重區重新路四段121號","121.48439","25.0520633333333","6500200","三重區"
"241031","061-VK","2018/04/07 15:59:22","新北市三重區重新路四段121號","121.484656666667","25.0521266666667","6500200","三重區"
"241015","062-VK","2018/04/07 15:59:18","新北市三重區重新路四段121號","121.485105","25.052135","6500200","三重區"
"241017","063-VK","2018/04/07 15:59:16","新北市三重區大仁街48巷6號","121.491325","25.0645033333333","6500200","三重區"
"241024","065-VK","2018/04/07 15:59:17","新北市三重區力行路一段38巷27號","121.485485","25.0668783333333","6500200","三重區"
"241026","066-VK","2018/04/07 15:59:18","新北市三重區重新路二段77號","121.496325","25.0617366666667","6500200","三重區"
"241005","262-UM","2018/04/07 15:59:19","新北市三重區溪尾街300-2號","121.4875","25.0837016666667","6500200","三重區"
"241022","267-UM","2018/04/07 15:59:16","新北市三重區中正北路176巷27號","121.482686666667","25.0660233333333","6500200","三重區"
"241018","268-UM","2018/04/07 15:59:24","新北市三重區中正北路35號","121.491475","25.062655","6500200","三重區"
"241013","270-UM","2018/04/07 15:59:15","新北市三重區三和路三段16巷9號","121.496578333333","25.0700583333333","6500200","三重區"
"241025","271-UM","2018/04/07 15:59:23","新北市三重區忠孝路三段48號","121.480786666667","25.06592","6500200","三重區"
"241007","398-BY","2018/04/07 15:59:26","新北市三重區三和路四段322號","121.483921666667","25.0779583333333","6500200","三重區"
"241020","478-VK","2018/04/07 15:59:13","新北市三重區忠孝路二段70號","121.484476666667","25.070135","6500200","三重區"
"241014","543-UM","2018/04/07 15:59:28","新北市三重區重新路四段121號","121.484903333333","25.0520433333333","6500200","三重區"
"241023","545-UM","2018/04/07 15:59:16","新北市三重區中正北路166號","121.484286666667","25.0661916666667","6500200","三重區"
"241001","547-UM","2018/04/07 15:59:27","新北市三重區忠孝路二段138號","121.482481666667","25.0682783333333","6500200","三重區"
"241006","AAD-863","2018/04/07 15:59:16","新北市三重區車路頭街135-1號","121.484333333333","25.0761133333333","6500200","三重區"
"241012","941-UM","2018/04/07 15:59:20","新北市三重區文化北路118巷15號","121.498158333333","25.0663616666667","6500200","三重區"
"241029","942-UM","2018/04/07 15:59:18","新北市三重區大同南路212巷28號","121.49759","25.056675","6500200","三重區"
"241033","AAC-255","2018/04/07 15:59:13","新北市三重區重新路五段506號","121.473043333333","25.04679","6500200","三重區"
"224007","275-VK","2018/04/07 15:59:16","新北市瑞芳區大寮路114號","121.780193333333","25.0979433333333","6501200","瑞芳區"
"227002","642-TC","2018/04/07 15:59:17","新北市雙溪區平林里外平林67號","121.843181666667","25.0350366666667","6502500","雙溪區"
"227010","400-TW","2018/04/07 15:59:27","新北市雙溪區三港里雙澳路38號","121.871978333333","25.051085","6502500","雙溪區"
"251013","179-VK","2018/04/07 15:59:16","新北市淡水區新民街一段117號","121.428456666667","25.187275","6501000","淡水區"
"236074","166-UM","2018/04/07 15:59:17","新北市土城區德安街4巷2號","121.422213333333","24.9648516666667","6501300","土城區"
"236057","912-UM","2018/04/07 15:59:26","新北市土城區大安路2號","121.432813333333","24.9654483333333","6501300","土城區"
