"lineid","car","time","location","longitude","latitude","cityid","cityname"
"249005","172-UM","2018/04/07 16:59:19","新北市八里區渡船頭4號","121.433683333333","25.1515716666667","6502300","八里區"
"249001","173-UM","2018/04/07 16:59:14","新北市八里區中山路三段106號","121.392353333333","25.1431566666667","6502300","八里區"
"249004","303-UY","2018/04/07 16:59:15","新北市八里區博物館路29號","121.41342","25.162455","6502300","八里區"
"249002","305-UY","2018/04/07 16:59:26","新北市八里區牛寮埔22號","121.432698333333","25.14255","6502300","八里區"
"249003","593-UM","2018/04/07 16:59:28","新北市八里區中山路二段315號","121.400641666667","25.1478383333333","6502300","八里區"
"244007","080-UY","2018/04/07 16:59:12","新北市林口區中湖43-5號","121.381773333333","25.092415","6501700","林口區"
"244023","483-VK","2018/04/07 16:59:20","新北市林口區粉寮路二段128號","121.404296666667","25.0906533333333","6501700","林口區"
"244019","657-BX","2018/04/07 16:59:14","新北市林口區仁愛路二段8號","121.385833333333","25.0763333333333","6501700","林口區"
"244021","838-TS","2018/04/07 16:59:11","新北市林口區粉寮69號","121.404805","25.0908533333333","6501700","林口區"
"231046","188-VK","2018/04/07 16:59:14","新北市新店區灣潭路4-1號","121.53578","24.9470816666667","6500600","新店區"
"241011","013-R5","2018/04/07 16:59:16","新北市三重區龍門路221號","121.500405","25.07323","6500200","三重區"
"241028","022-UY","2018/04/07 16:59:30","新北市三重區中正南路54號","121.494066666667","25.059855","6500200","三重區"
"241008","059-VK","2018/04/07 16:59:24","新北市三重區永安北路一段11巷20號","121.477398333333","25.0748166666667","6500200","三重區"
"241009","060-VK","2018/04/07 16:59:16","新北市三重區仁美街108巷11號","121.485038333333","25.080665","6500200","三重區"
"241031","061-VK","2018/04/07 16:59:22","新北市三重區三寧街18號","121.489386666667","25.059805","6500200","三重區"
"241015","062-VK","2018/04/07 16:59:18","新北市三重區三和路二段2-1號","121.501528333333","25.0664616666667","6500200","三重區"
"241017","063-VK","2018/04/07 16:59:16","新北市三重區大同北路112號","121.493176666667","25.06388","6500200","三重區"
"241024","065-VK","2018/04/07 16:59:17","新北市三重區中正北路171號","121.478165","25.0694083333333","6500200","三重區"
"241026","066-VK","2018/04/07 16:59:17","新北市三重區文化南路42號","121.500348333333","25.0602583333333","6500200","三重區"
"241002","090-VK","2018/04/07 16:59:19","新北市三重區仁義街101巷2號","121.497858333333","25.079875","6500200","三重區"
"241003","091-VK","2018/04/07 16:59:25","新北市三重區集賢路87-1號","121.493605","25.0868383333333","6500200","三重區"
"241005","262-UM","2018/04/07 16:59:19","新北市三重區碧華街54號","121.483796666667","25.0814616666667","6500200","三重區"
"241016","265-UM","2018/04/07 16:59:27","新北市三重區大同北路121巷3號","121.493805","25.0642166666667","6500200","三重區"
"241022","267-UM","2018/04/07 16:59:16","新北市三重區忠孝路三段50巷98號","121.483586666667","25.0642583333333","6500200","三重區"
"241018","268-UM","2018/04/07 16:59:24","新北市三重區民生東街11號","121.493051666667","25.06891","6500200","三重區"
"241032","269-UM","2018/04/07 16:59:30","新北市三重區新北大道一段35巷3號","121.486051666667","25.0610066666667","6500200","三重區"
"241013","270-UM","2018/04/07 16:59:15","新北市三重區仁福街64巷2號","121.497705","25.07474","6500200","三重區"
"241025","271-UM","2018/04/07 16:59:23","新北市三重區中正北路357號","121.472688333333","25.071785","6500200","三重區"
"241007","398-BY","2018/04/07 16:59:25","新北市三重區溪尾街182號","121.48837","25.0807966666667","6500200","三重區"
"241020","478-VK","2018/04/07 16:59:12","新北市三重區後竹圍街175巷20號","121.485651666667","25.07272","6500200","三重區"
"241030","480-VK","2018/04/07 16:59:12","新北市三重區昌隆街64號","121.491131666667","25.0510616666667","6500200","三重區"
"241014","543-UM","2018/04/07 16:59:28","新北市三重區三和路二段173巷149號","121.501188333333","25.0707933333333","6500200","三重區"
"241023","545-UM","2018/04/07 16:59:15","新北市三重區忠孝路三段99巷4號","121.48019","25.0643116666667","6500200","三重區"
"241001","547-UM","2018/04/07 16:59:27","新北市三重區仁政街11號","121.493401666667","25.0764383333333","6500200","三重區"
"241019","KEA-2593","2018/04/07 16:59:17","新北市三重區自強路二段74巷19號","121.487981666667","25.06998","6500200","三重區"
"241006","AAD-863","2018/04/07 16:59:33","新北市三重區車路頭街117巷50號","121.485426666667","25.0756666666667","6500200","三重區"
"241004","887-TS","2018/04/07 16:59:20","新北市三重區五華街67號","121.492606666667","25.08265","6500200","三重區"
"241012","941-UM","2018/04/07 16:59:20","新北市三重區公園街23號","121.498903333333","25.074095","6500200","三重區"
"241029","942-UM","2018/04/07 16:59:17","新北市三重區環河南路220-8號","121.493321666667","25.0527233333333","6500200","三重區"
"241033","AAC-255","2018/04/07 16:59:13","新北市三重區中興北街275號","121.46922","25.0608816666667","6500200","三重區"
"247024","893-R6","2018/04/07 16:59:26","新北市蘆洲區光明路85巷15號","121.460748333333","25.0875033333333","6501400","蘆洲區"
"247010","341-TH","2018/04/07 16:59:21","新北市蘆洲區信義路178號","121.479313333333","25.0840483333333","6501400","蘆洲區"
"247012","339-TH","2018/04/07 16:59:28","新北市蘆洲區復興路186號","121.478058333333","25.0887683333333","6501400","蘆洲區"
"247004","337-TH","2018/04/07 16:59:23","新北市蘆洲區長安街110號","121.460975","25.081545","6501400","蘆洲區"
"247006","336-TH","2018/04/07 16:59:24","新北市蘆洲區永安南路二段232號","121.460633333333","25.0795916666667","6501400","蘆洲區"
"247018","057-VK","2018/04/07 16:59:10","新北市蘆洲區民族路298巷2號","121.477971666667","25.089915","6501400","蘆洲區"
"247008","056-VK","2018/04/07 16:59:16","新北市蘆洲區信義路56號","121.475388333333","25.0797","6501400","蘆洲區"
"247014","053-VK","2018/04/07 16:59:27","新北市蘆洲區中山二路36巷29號","121.474073333333","25.08314","6501400","蘆洲區"
"247016","007-UY","2018/04/07 16:59:28","新北市蘆洲區正和街10號","121.47033","25.0827733333333","6501400","蘆洲區"
"247020","001-UY","2018/04/07 16:59:27","新北市蘆洲區復興路323巷368號","121.47408","25.093905","6501400","蘆洲區"
"228003","097-TW","2018/04/07 16:59:32","新北市貢寮區福隆里興隆街13-5號","121.944171666667","25.0165883333333","6502600","貢寮區"
"228001","212-TW","2018/04/07 16:59:17","新北市貢寮區貢寮里朝陽街1-2號","121.912206666667","25.0213183333333","6502600","貢寮區"
"228002","585-TW","2018/04/07 16:59:26","新北市貢寮區貢寮里朝陽街54號","121.91038","25.0217583333333","6502600","貢寮區"
"224006","676-BX","2018/04/07 16:59:25","新北市瑞芳區大寮路36號","121.782358333333","25.0987616666667","6501200","瑞芳區"
"224008","285-BY","2018/04/07 16:59:19","新北市瑞芳區明燈路一段175號","121.819233333333","25.10758","6501200","瑞芳區"
"224007","275-VK","2018/04/07 16:59:16","新北市瑞芳區瑞竹路80號","121.763163333333","25.1034983333333","6501200","瑞芳區"
"224009","273-VK","2018/04/07 16:59:08","新北市瑞芳區明燈路一段1號","121.826643333333","25.109355","6501200","瑞芳區"
"224005","271-BY","2018/04/07 16:59:19","新北市瑞芳區南雅路91號","121.885138333333","25.1227883333333","6501200","瑞芳區"
"227002","642-TC","2018/04/07 16:59:17","新北市雙溪區長源里柑腳44號","121.80145","25.0127816666667","6502500","雙溪區"
"227010","400-TW","2018/04/07 16:59:11","新北市雙溪區牡丹里聖南21號","121.85853","25.053305","6502500","雙溪區"
"251009","008-UM","2018/04/07 16:59:32","新北市淡水區中正路342號","121.435043333333","25.1736116666667","6501000","淡水區"
"251004","009-UM","2018/04/07 16:59:13","新北市淡水區中正路一段64號","121.425453333333","25.1769616666667","6501000","淡水區"
"251013","179-VK","2018/04/07 16:59:15","新北市淡水區泉洲厝32號","121.489263333333","25.1926166666667","6501000","淡水區"
"251014","180-VK","2018/04/07 16:59:23","新北市淡水區興仁路161號","121.450683333333","25.2200233333333","6501000","淡水區"
"251008","181-VK","2018/04/07 16:59:19","新北市淡水區樹梅坑9號","121.47274","25.14274","6501000","淡水區"
"251015","182-VK","2018/04/07 16:59:15","新北市淡水區忠愛街12號","121.457178333333","25.17437","6501000","淡水區"
"251010","413-VK","2018/04/07 16:59:27","新北市淡水區新民街一段117號","121.42808","25.1878066666667","6501000","淡水區"
"251012","441-VK","2018/04/07 16:59:12","新北市淡水區沙崙路198號","121.424508333333","25.18382","6501000","淡水區"
"251016","442-VK","2018/04/07 16:59:16","新北市淡水區瓦坑3號","121.4776","25.180805","6501000","淡水區"
"251006","561-UM","2018/04/07 16:59:19","新北市淡水區中正路二段31號","121.419323333333","25.18169","6501000","淡水區"
"251007","577-R6","2018/04/07 16:59:24","新北市淡水區中正東路二段17-4號","121.458336666667","25.1576283333333","6501000","淡水區"
"251011","650-BX","2018/04/07 16:59:28","新北市淡水區坪頂路50號","121.457941666667","25.1625266666667","6501000","淡水區"
"252002","178-VK","2018/04/07 16:59:15","新北市三芝區忠孝街175號","121.50539","25.261415","6502100","三芝區"
"252001","292-VK","2018/04/07 16:59:30","新北市三芝區淡金路二段76-1號","121.50384","25.2608866666667","6502100","三芝區"
"242053","751-BX","2018/04/07 16:59:23","新北市新莊區新泰路357巷3弄57號","121.442126666667","25.0392066666667","6500500","新莊區"
"242027","615-BX","2018/04/07 16:59:30","新北市新莊區新泰路255巷83號","121.44226","25.0388366666667","6500500","新莊區"
"242025","613-BX","2018/04/07 16:59:28","新北市新莊區新泰路357巷3弄57號","121.442235","25.0392383333333","6500500","新莊區"
"242042","566-BX","2018/04/07 16:59:23","新北市新莊區新泰路357巷3弄57號","121.442175","25.039155","6500500","新莊區"
"242023","362-BY","2018/04/07 16:59:17","新北市新莊區新泰路255巷83號","121.442405","25.038725","6500500","新莊區"
"242015","346-TH","2018/04/07 16:59:18","新北市新莊區三和路12-15號","121.441795","25.0373666666667","6500500","新莊區"
"242021","348-TH","2018/04/07 16:59:31","新北市新莊區新泰路357巷3弄57號","121.442191666667","25.0396833333333","6500500","新莊區"
"242002","349-TH","2018/04/07 16:59:19","新北市新莊區三和路12-16號","121.442108333333","25.03747","6500500","新莊區"
"242019","350-TH","2018/04/07 16:59:32","新北市新莊區新泰路255巷83號","121.442285","25.0389233333333","6500500","新莊區"
"242013","351-TH","2018/04/07 16:59:25","新北市新莊區新泰路357巷3弄57號","121.442105","25.0395966666667","6500500","新莊區"
"238019","599-UM","2018/04/07 16:59:16","新北市樹林區育德街78-1號","121.388188333333","24.968285","6500700","樹林區"
"238018","571-TV","2018/04/07 16:59:24","新北市樹林區育德街121巷5號","121.388901666667","24.968305","6500700","樹林區"
"238022","KEA-2213","2018/04/07 16:59:28","新北市樹林區八德街230-1號","121.416123333333","24.972285","6500700","樹林區"
"238017","283-BY","2018/04/07 16:59:27","新北市樹林區八德街828-3號","121.392993333333","24.9686216666667","6500700","樹林區"
"238026","172-UY","2018/04/07 16:59:27","新北市樹林區八德街1172號","121.390301666667","24.9682133333333","6500700","樹林區"
"238016","169-UY","2018/04/07 16:59:24","新北市樹林區中山路二段185-2號","121.405343333333","24.9782283333333","6500700","樹林區"
"239006","891-R6","2018/04/07 16:59:32","新北市鶯歌區二甲路13-16號","121.345548333333","24.9352616666667","6500800","鶯歌區"
"239002","359-BY","2018/04/07 16:59:27","新北市鶯歌區環河路177-3號","121.345951666667","24.9351816666667","6500800","鶯歌區"
