"lineid","car","time","location","longitude","latitude","cityid","cityname"
"249005","172-UM","2018/04/07 17:19:19","新北市五股區民義路二段132號","121.409295","25.1218166666667","6502300","八里區"
"249001","173-UM","2018/04/07 17:19:14","新北市八里區中華路二段165巷3號","121.407665","25.150865","6502300","八里區"
"249004","303-UY","2018/04/07 17:19:15","新北市八里區賢三街98號","121.417083333333","25.1578683333333","6502300","八里區"
"249002","305-UY","2018/04/07 17:19:26","新北市八里區龍米路二段117巷37號","121.443466666667","25.1418533333333","6502300","八里區"
"249003","593-UM","2018/04/07 17:19:28","新北市八里區中山路二段410號","121.400251666667","25.1476566666667","6502300","八里區"
"244013","069-UM","2018/04/07 17:19:13","新北市林口區粉寮69號","121.405083333333","25.09085","6501700","林口區"
"244007","080-UY","2018/04/07 17:19:32","新北市林口區湖子12號","121.387315","25.0896333333333","6501700","林口區"
"244025","742-UY","2018/04/07 17:19:20","新北市林口區文化三路二段6號","121.373006666667","25.07838","6501700","林口區"
"244023","483-VK","2018/04/07 17:19:00","新北市林口區育林街6號","121.385603333333","25.0752583333333","6501700","林口區"
"244019","657-BX","2018/04/07 17:19:14","新北市林口區公園路181號","121.371456666667","25.0718833333333","6501700","林口區"
"244021","838-TS","2018/04/07 17:19:31","新北市林口區粉寮70-1號","121.405691666667","25.09242","6501700","林口區"
"241011","013-R5","2018/04/07 17:19:15","新北市三重區河邊北街100巷17號","121.503185","25.0702933333333","6500200","三重區"
"241028","022-UY","2018/04/07 17:19:09","新北市三重區仁化商場4號","121.493558333333","25.059525","6500200","三重區"
"241008","059-VK","2018/04/07 17:19:24","新北市三重區永福街72巷37號","121.480295","25.0762833333333","6500200","三重區"
"241009","060-VK","2018/04/07 17:19:21","新北市三重區仁愛街606號","121.483833333333","25.0808183333333","6500200","三重區"
"241015","062-VK","2018/04/07 17:19:18","新北市三重區長元街82-1號","121.501875","25.066305","6500200","三重區"
"241017","063-VK","2018/04/07 17:19:16","新北市三重區大同北路44巷3號","121.495011666667","25.0630866666667","6500200","三重區"
"241024","065-VK","2018/04/07 17:19:17","新北市三重區國道路一段58巷20號","121.481215","25.0720333333333","6500200","三重區"
"241026","066-VK","2018/04/07 17:19:20","新北市三重區福裕街61號","121.498581666667","25.0615133333333","6500200","三重區"
"241002","090-VK","2018/04/07 17:19:18","新北市三重區自強路五段16號","121.492406666667","25.080535","6500200","三重區"
"241003","091-VK","2018/04/07 17:19:25","新北市三重區富福街35號","121.490933333333","25.0837","6500200","三重區"
"241005","262-UM","2018/04/07 17:19:19","新北市三重區永安北路二段42-6號","121.482063333333","25.081875","6500200","三重區"
"241016","265-UM","2018/04/07 17:19:27","新北市三重區大同北路97-3號","121.494325","25.0636516666667","6500200","三重區"
"241022","267-UM","2018/04/07 17:19:21","新北市三重區重陽路二段32號","121.486913333333","25.06292","6500200","三重區"
"241018","268-UM","2018/04/07 17:19:24","新北市三重區正義北路280號","121.49564","25.0691433333333","6500200","三重區"
"241032","269-UM","2018/04/07 17:19:33","新北市三重區新北大道一段133巷12號","121.482386666667","25.06094","6500200","三重區"
"241013","270-UM","2018/04/07 17:19:15","新北市三重區仁愛街82巷10號","121.494886666667","25.0733933333333","6500200","三重區"
"241025","271-UM","2018/04/07 17:19:22","新北市三重區中正北路550號","121.471373333333","25.0720866666667","6500200","三重區"
"241007","398-BY","2018/04/07 17:19:25","新北市三重區三和路四段155巷33號","121.48498","25.0787483333333","6500200","三重區"
"241020","478-VK","2018/04/07 17:19:12","新北市三重區自強路三段7巷34號","121.48812","25.0723166666667","6500200","三重區"
"241030","480-VK","2018/04/07 17:19:12","新北市三重區成功路73巷40號","121.48983","25.052505","6500200","三重區"
"241014","543-UM","2018/04/07 17:19:28","新北市三重區三和路二段83號","121.500036666667","25.0684733333333","6500200","三重區"
"241023","545-UM","2018/04/07 17:19:15","新北市三重區三民街197號","121.482","25.0656866666667","6500200","三重區"
"241001","547-UM","2018/04/07 17:19:27","新北市三重區碧華街338號","121.490358333333","25.083895","6500200","三重區"
"241019","KEA-2593","2018/04/07 17:19:17","新北市三重區忠孝路二段34號","121.485753333333","25.071","6500200","三重區"
"241004","887-TS","2018/04/07 17:19:20","新北市三重區碧華街406號","121.491886666667","25.085","6500200","三重區"
"241012","941-UM","2018/04/07 17:19:20","新北市三重區仁興街27號","121.499496666667","25.0750166666667","6500200","三重區"
"241029","942-UM","2018/04/07 17:19:32","新北市三重區集美街118號","121.488716666667","25.0537416666667","6500200","三重區"
"241033","AAC-255","2018/04/07 17:19:33","新北市三重區中興北街136號","121.46894","25.056005","6500200","三重區"
"247024","893-R6","2018/04/07 17:19:26","新北市蘆洲區光榮路2號","121.460315","25.0862366666667","6501400","蘆洲區"
"247022","500-BY","2018/04/07 17:19:12","新北市蘆洲區三民路128巷37號","121.469825","25.089755","6501400","蘆洲區"
"247010","341-TH","2018/04/07 17:19:20","新北市蘆洲區中山一路120巷7弄34-2號","121.477056666667","25.0824","6501400","蘆洲區"
"247012","339-TH","2018/04/07 17:19:28","新北市蘆洲區信義路319巷10弄17號","121.477475","25.0865333333333","6501400","蘆洲區"
"247004","337-TH","2018/04/07 17:19:23","新北市蘆洲區中原路61號","121.458945","25.08219","6501400","蘆洲區"
"247006","336-TH","2018/04/07 17:19:24","新北市蘆洲區長安街49巷7號","121.46299","25.0791483333333","6501400","蘆洲區"
"247018","057-VK","2018/04/07 17:19:30","新北市蘆洲區民權路68巷11號","121.475498333333","25.08773","6501400","蘆洲區"
"247008","056-VK","2018/04/07 17:19:16","新北市三重區永福街135巷32弄15號","121.476843333333","25.0768566666667","6501400","蘆洲區"
"247014","053-VK","2018/04/07 17:19:27","新北市蘆洲區中正路93號","121.469941666667","25.0838616666667","6501400","蘆洲區"
"247016","007-UY","2018/04/07 17:19:33","新北市蘆洲區正和街112號","121.46775","25.0804466666667","6501400","蘆洲區"
"247002","002-UY","2018/04/07 17:19:14","新北市蘆洲區永樂街38巷33弄19號","121.457303333333","25.0896333333333","6501400","蘆洲區"
"247020","001-UY","2018/04/07 17:19:27","新北市蘆洲區民族路426號","121.473773333333","25.0918116666667","6501400","蘆洲區"
"228003","097-TW","2018/04/07 17:19:20","新北市貢寮區福隆里虎子山街21號","121.93849","25.0185333333333","6502600","貢寮區"
"228001","212-TW","2018/04/07 17:19:17","新北市貢寮區仁理村尖山腳街18-3號","121.925483333333","25.0483383333333","6502600","貢寮區"
"228002","585-TW","2018/04/07 17:19:26","新北市貢寮區雙玉里下雙溪街26號","121.923391666667","25.009845","6502600","貢寮區"
"224010","AGQ-8101","2018/04/07 17:18:54","新北市瑞芳區逢甲路6號","121.811776666667","25.1082033333333","6501200","瑞芳區"
"224006","676-BX","2018/04/07 17:19:27","新北市瑞芳區傑魚坑路191號","121.788106666667","25.107575","6501200","瑞芳區"
"224008","285-BY","2018/04/07 17:19:19","新北市瑞芳區侯硐路150號","121.826328333333","25.0839416666667","6501200","瑞芳區"
"224009","273-VK","2018/04/07 17:19:28","新北市瑞芳區石崁巷49號","121.837833333333","25.1095833333333","6501200","瑞芳區"
"224005","271-BY","2018/04/07 17:19:17","新北市瑞芳區鼻頭路247號","121.912433333333","25.1238983333333","6501200","瑞芳區"
"227002","642-TC","2018/04/07 17:19:17","新北市雙溪區上林里內平林90號","121.827541666667","25.0274883333333","6502500","雙溪區"
"227010","400-TW","2018/04/07 17:19:31","新北市雙溪區三貂里定福路1號","121.849705","25.0638566666667","6502500","雙溪區"
"251009","008-UM","2018/04/07 17:19:32","新北市淡水區三民街20號","121.43904","25.1717833333333","6501000","淡水區"
"251004","009-UM","2018/04/07 17:19:13","新北市淡水區中正東路二段88巷15號","121.459053333333","25.1504516666667","6501000","淡水區"
"251013","179-VK","2018/04/07 17:19:15","新北市淡水區大竹圍6-1號","121.470088333333","25.1952233333333","6501000","淡水區"
"251014","180-VK","2018/04/07 17:19:23","新北市淡水區公埔子4-1號","121.463775","25.2268133333333","6501000","淡水區"
"251008","181-VK","2018/04/07 17:19:19","新北市淡水區大同路263號","121.466756666667","25.14216","6501000","淡水區"
"251015","182-VK","2018/04/07 17:19:15","新北市淡水區三空泉17-6號","121.474158333333","25.1659416666667","6501000","淡水區"
"251010","413-VK","2018/04/07 17:19:27","新北市淡水區中正路二段211號","121.426203333333","25.1891416666667","6501000","淡水區"
"251012","441-VK","2018/04/07 17:19:12","新北市淡水區中山北路一段158號","121.444206666667","25.1778916666667","6501000","淡水區"
"251016","442-VK","2018/04/07 17:19:16","新北市淡水區埤島64-2號","121.461635","25.1905116666667","6501000","淡水區"
"251005","443-VK","2018/04/07 17:19:30","新北市淡水區鄧公路19-1號","121.45029","25.16999","6501000","淡水區"
"251006","561-UM","2018/04/07 17:19:19","新北市淡水區大智街23號","121.442205","25.1744533333333","6501000","淡水區"
"251007","577-R6","2018/04/07 17:19:24","新北市淡水區民生路60號","121.462055","25.1379383333333","6501000","淡水區"
"251011","650-BX","2018/04/07 17:19:28","新北市淡水區坪頂路150號","121.468735","25.162275","6501000","淡水區"
"251002","672-BX","2018/04/07 17:19:14","新北市淡水區中正路二段31號","121.419383333333","25.1816933333333","6501000","淡水區"
"251003","673-BX","2018/04/07 17:19:23","新北市淡水區中正路二段31號","121.419515","25.1815166666667","6501000","淡水區"
"207003","550-UM","2018/04/07 17:19:27","新北市萬里區萬里里瑪鋉路340號","121.688013333333","25.18265","6502800","萬里區"
"252002","178-VK","2018/04/07 17:19:15","新北市三芝區忠孝街1-14號","121.505498333333","25.25394","6502100","三芝區"
"252001","292-VK","2018/04/07 17:19:10","新北市三芝區長安街119號","121.498005","25.2597133333333","6502100","三芝區"
"237012","275-BY","2018/04/07 17:19:17","新北市三峽區中山路459巷137號","121.349931666667","24.9339283333333","6500900","三峽區"
"242034","AAC-296","2018/04/07 17:19:03","新北市新莊區中正路461號","121.442083333333","25.0339266666667","6500500","新莊區"
"242058","986-R7","2018/04/07 17:19:23","新北市新莊區中正路400號","121.441681666667","25.03398","6500500","新莊區"
"242053","751-BX","2018/04/07 17:19:23","新北市新莊區環河路636-1號","121.436635","25.0107933333333","6500500","新莊區"
"242029","705-TV","2018/04/07 17:19:25","新北市新莊區幸福路784號","121.446788333333","25.0491916666667","6500500","新莊區"
"242027","615-BX","2018/04/07 17:19:28","新北市新莊區中港一街143號","121.447823333333","25.04511","6500500","新莊區"
"242025","613-BX","2018/04/07 17:19:28","新北市新莊區新泰路500號","121.442503333333","25.0460816666667","6500500","新莊區"
"242042","566-BX","2018/04/07 17:19:23","新北市新莊區中正路400號","121.441483333333","25.03389","6500500","新莊區"
"242046","497-BY","2018/04/07 17:19:23","新北市新莊區中正路400號","121.441583333333","25.0339333333333","6500500","新莊區"
"242004","442-UM","2018/04/07 17:19:22","新北市新莊區中港一街142號","121.446916666667","25.045015","6500500","新莊區"
"242051","441-UM","2018/04/07 17:19:26","新北市新莊區瓊林南路42巷1-1號","121.435901666667","25.0178483333333","6500500","新莊區"
"242056","440-UM","2018/04/07 17:19:32","新北市新莊區新莊路664-2號","121.44224","25.0330966666667","6500500","新莊區"
"242036","415-TV","2018/04/07 17:19:23","新北市新莊區中正路481號","121.441276666667","25.0338166666667","6500500","新莊區"
"242007","413-TV","2018/04/07 17:19:15","新北市新莊區中環路二段392-1號","121.442421666667","25.0456883333333","6500500","新莊區"
"242044","400-BY","2018/04/07 17:19:24","新北市新莊區民安路98巷3號","121.423701666667","25.0257483333333","6500500","新莊區"
"242023","362-BY","2018/04/07 17:19:17","新北市新莊區新泰路482號","121.44258","25.0456333333333","6500500","新莊區"
"242061","353-BY","2018/04/07 17:19:15","新北市新莊區新泰路357巷3弄39號","121.441998333333","25.0403533333333","6500500","新莊區"
"242039","133-UY","2018/04/07 17:19:17","新北市新莊區新樹路225號","121.435268333333","25.0228816666667","6500500","新莊區"
"242048","172-VK","2018/04/07 17:19:21","新北市新莊區龍安路252號","121.421195","25.0196216666667","6500500","新莊區"
"242017","175-VK","2018/04/07 17:19:26","新北市新莊區新泰路488號","121.442508333333","25.04585","6500500","新莊區"
"242015","346-TH","2018/04/07 17:19:18","新北市新莊區公園一路141號","121.446423333333","25.0383266666667","6500500","新莊區"
"242021","348-TH","2018/04/07 17:19:30","新北市新莊區中港路286號","121.452971666667","25.0442816666667","6500500","新莊區"
"242002","349-TH","2018/04/07 17:19:19","新北市新莊區新泰路40號","121.449525","25.0342416666667","6500500","新莊區"
"242019","350-TH","2018/04/07 17:19:31","新北市新莊區新泰路417-15號","121.442473333333","25.0445516666667","6500500","新莊區"
"242013","351-TH","2018/04/07 17:19:25","新北市新莊區三和路12-11號","121.44225","25.0368866666667","6500500","新莊區"
"238019","599-UM","2018/04/07 17:19:24","新北市樹林區八德街251巷10弄2號","121.422323333333","24.9787716666667","6500700","樹林區"
"238018","571-TV","2018/04/07 17:19:28","新北市樹林區鎮前街267號","121.419995","24.9859233333333","6500700","樹林區"
"238024","5061-A6","2018/04/07 17:19:21","新北市樹林區保安街一段48巷19號","121.426336666667","24.9949466666667","6500700","樹林區"
"238022","KEA-2213","2018/04/07 17:19:18","新北市樹林區仁愛街73巷1號","121.423478333333","24.982775","6500700","樹林區"
"238021","KEA-2539","2018/04/07 17:19:12","新北市樹林區西圳街一段165巷20弄12號","121.395246666667","24.9607166666667","6500700","樹林區"
"238017","283-BY","2018/04/07 17:19:27","新北市樹林區光武街42-1號","121.416675","25.0066633333333","6500700","樹林區"
"238014","282-BY","2018/04/07 17:19:23","新北市樹林區長壽街70巷35弄2號","121.421328333333","24.9949816666667","6500700","樹林區"
"238026","172-UY","2018/04/07 17:19:27","新北市樹林區中山路二段219號","121.40278","24.9763666666667","6500700","樹林區"
"238016","169-UY","2018/04/07 17:19:24","新北市樹林區中山路二段10號","121.417538333333","24.98502","6500700","樹林區"
"239006","891-R6","2018/04/07 17:19:12","新北市鶯歌區福昌街32號","121.332648333333","24.9610583333333","6500800","鶯歌區"
"239008","527-UM","2018/04/07 17:19:22","新北市鶯歌區西湖街289巷5號","121.339663333333","24.9690666666667","6500800","鶯歌區"
"239005","526-UM","2018/04/07 17:19:14","新北市鶯歌區福德二街9號","121.330061666667","24.967365","6500800","鶯歌區"
"239001","417-VK","2018/04/07 17:19:28","新北市鶯歌區尖山路246號","121.342545","24.946455","6500800","鶯歌區"
"239003","360-BY","2018/04/07 17:19:18","新北市鶯歌區德昌二街71號","121.333408333333","24.9582183333333","6500800","鶯歌區"
"239002","359-BY","2018/04/07 17:19:27","新北市鶯歌區南昌街24號","121.349615","24.9542416666667","6500800","鶯歌區"
"239004","193-VK","2018/04/07 17:19:23","新北市鶯歌區文化路324巷1-35號","121.352306666667","24.9456866666667","6500800","鶯歌區"
"242009","281-VK","2018/04/07 17:19:21","新北市新莊區新泰路480號","121.44265","25.04559","6500500","新莊區"
"242031","280-VK","2018/04/07 17:19:14","新北市新莊區三和路12-16號","121.442288333333","25.0373416666667","6500500","新莊區"
