"lineid","car","time","location","longitude","latitude","cityid","cityname"
"234007","207-UY","2018/04/07 18:09:26","新北市永和區保生路55-1號","121.50475","25.0115066666667","6500400","永和區"
"234026","9371-KE","2018/04/07 18:09:29","新北市永和區自由街33號","121.514315","25.00634","6500400","永和區"
"234011","9373-KE","2018/04/07 18:09:26","新北市永和區福和路1號","121.52548","25.009475","6500400","永和區"
"249005","172-UM","2018/04/07 18:09:18","新北市八里區荖阡坑路15號","121.401683333333","25.139885","6502300","八里區"
"249001","173-UM","2018/04/07 18:09:14","新北市八里區龍米路二段30號","121.448623333333","25.1400216666667","6502300","八里區"
"249004","303-UY","2018/04/07 18:09:15","新北市八里區龍米路二段236-2號","121.431545","25.1589516666667","6502300","八里區"
"249002","305-UY","2018/04/07 18:09:26","新北市八里區龍米路一段386巷7號","121.452145","25.13204","6502300","八里區"
"249003","593-UM","2018/04/07 18:09:28","新北市八里區松子腳3-2號","121.403026666667","25.1444516666667","6502300","八里區"
"248014","025-BX","2018/04/07 18:09:29","新北市五股區成泰路一段189巷18-1號","121.433623333333","25.0764833333333","6501500","五股區"
"248006","077-UY","2018/04/07 18:09:19","新北市五股區中興路二段82號","121.460975","25.077215","6501500","五股區"
"248008","095-VK","2018/04/07 18:09:16","新北市五股區中興路二段182巷15弄13-3號","121.457385","25.08104","6501500","五股區"
"248020","225-UY","2018/04/07 18:09:23","新北市五股區凌雲路一段22巷11號","121.454211666667","25.1002366666667","6501500","五股區"
"248010","272-BY","2018/04/07 18:09:20","新北市五股區成泰路一段229-1號","121.434178333333","25.0776766666667","6501500","五股區"
"248004","677-BX","2018/04/07 18:09:21","新北市五股區工商路66號","121.43881","25.084645","6501500","五股區"
"248002","678-BX","2018/04/07 18:09:16","新北市五股區成泰路三段83號","121.444286666667","25.0898283333333","6501500","五股區"
"232011","375-UM","2018/04/07 18:09:26","新北市坪林區坪雙路一段21號","121.712871666667","24.9412716666667","6502000","坪林區"
"244013","069-UM","2018/04/07 18:09:13","新北市林口區中山路54號","121.394878333333","25.0785016666667","6501700","林口區"
"244007","080-UY","2018/04/07 18:09:32","新北市林口區林口路113巷57號","121.387881666667","25.0797933333333","6501700","林口區"
"244025","742-UY","2018/04/07 18:09:20","新北市林口區源泉街10號","121.358656666667","25.072235","6501700","林口區"
"244009","410-SL","2018/04/07 18:09:20","新北市林口區佳林路88號","121.385595","25.079985","6501700","林口區"
"244023","483-VK","2018/04/07 18:09:20","新北市林口區仁愛路二段161號","121.382141666667","25.0737583333333","6501700","林口區"
"244017","485-VK","2018/04/07 18:09:29","新北市林口區文化一路一段21巷1號","121.369408333333","25.0695566666667","6501700","林口區"
"244019","657-BX","2018/04/07 18:09:14","新北市林口區忠孝路561巷13號","121.373215","25.0688183333333","6501700","林口區"
"244011","701-TV","2018/04/07 18:09:16","新北市林口區中正路60號","121.395011666667","25.0774216666667","6501700","林口區"
"244021","838-TS","2018/04/07 18:09:31","新北市林口區自強一街71號","121.399878333333","25.0771","6501700","林口區"
"243013","539-UM","2018/04/07 18:09:23","新北市泰山區南林路89-4號","121.415445","25.051375","6501600","泰山區"
"222003","436-BY","2018/04/07 18:09:26","新北市深坑區阿柔洋47號","121.612258333333","24.9972966666667","6501800","深坑區"
"222002","659-BX","2018/04/07 18:09:15","新北市深坑區文化街52號","121.618916666667","25.0017033333333","6501800","深坑區"
"231059","046-UY","2018/04/07 18:09:11","新北市新店區安華路28-1號","121.519598333333","24.9607066666667","6500600","新店區"
"231044","106-UY","2018/04/07 18:09:11","新北市新店區安華路28-1號","121.519796666667","24.9608166666667","6500600","新店區"
"231052","108-UY","2018/04/07 18:08:54","新北市新店區安康路一段319號","121.522175","24.96364","6500600","新店區"
"231046","188-VK","2018/04/07 18:09:14","新北市新店區直潭七街60號","121.532246666667","24.93984","6500600","新店區"
"231054","KEA-2219","2018/04/07 18:09:22","新北市新店區安華路28-1號","121.519713333333","24.961245","6500600","新店區"
"231051","278-BY","2018/04/07 18:09:27","新北市新店區安華路28-1號","121.519776666667","24.9611516666667","6500600","新店區"
"231050","AAD-862","2018/04/07 18:09:27","新北市新店區安華路28-1號","121.519963333333","24.9610933333333","6500600","新店區"
"231058","3713-VJ","2018/04/07 18:09:15","新北市新店區安華路28-1號","121.519113333333","24.9606066666667","6500600","新店區"
"231066","4716-K9","2018/04/07 18:09:31","新北市新店區安華路28-1號","121.51912","24.9612716666667","6500600","新店區"
"231056","4715-K9","2018/04/07 18:09:14","新北市新店區安康路一段227號","121.525621666667","24.9630833333333","6500600","新店區"
"231067","4772-VM","2018/04/07 18:09:16","新北市新店區安華路28-1號","121.519286666667","24.9607666666667","6500600","新店區"
"231061","619-UM","2018/04/07 18:09:32","新北市新店區安華路28-1號","121.51948","24.9607733333333","6500600","新店區"
"231060","897-TW","2018/04/07 18:09:29","新北市新店區安華路28-1號","121.51967","24.9606633333333","6500600","新店區"
"231043","899-TW","2018/04/07 18:09:20","新北市新店區安華路28-1號","121.519195","24.9608316666667","6500600","新店區"
"231055","AKT-0513","2018/04/07 18:09:32","新北市新店區安華路1-1號","121.519345","24.9604283333333","6500600","新店區"
"241033","AAC-255","2018/04/07 18:09:32","新北市三重區光復路一段68巷38號","121.470546666667","25.0492266666667","6500200","三重區"
"235064","005-UY","2018/04/07 18:09:17","新北市中和區中興街118巷10號","121.499956666667","24.993175","6500300","中和區"
"235063","006-UY","2018/04/07 18:09:29","新北市中和區員山路36巷16-3號","121.485023333333","24.99122","6500300","中和區"
"235056","096-UM","2018/04/07 18:09:28","新北市中和區中正路637巷52弄1號","121.485435","24.9934","6500300","中和區"
"235065","098-UM","2018/04/07 18:09:18","新北市中和區莊敬路49巷27號","121.501575","25.0061216666667","6500300","中和區"
"235040","150-BY","2018/04/07 18:09:15","新北市中和區員山路36巷16-2號","121.485415","24.9913633333333","6500300","中和區"
"235058","151-BY","2018/04/07 18:09:30","新北市中和區圓通路367巷33弄15號","121.495256666667","24.9851083333333","6500300","中和區"
"235055","183-VK","2018/04/07 18:09:23","新北市中和區員山路36巷16-3號","121.485128333333","24.9914266666667","6500300","中和區"
"235038","185-VK","2018/04/07 18:09:16","新北市中和區大智街55巷1號","121.520803333333","24.991995","6500300","中和區"
"235072","301-VK","2018/04/07 18:09:21","新北市中和區中正路637巷52弄1號","121.485441666667","24.9935116666667","6500300","中和區"
"235043","352-BY","2018/04/07 18:09:28","新北市中和區中正路637巷52弄1號","121.485385","24.9934333333333","6500300","中和區"
"235061","378-QA","2018/04/07 18:09:29","新北市中和區連城路607號","121.478543333333","24.9930733333333","6500300","中和區"
"235050","4979-A6","2018/04/07 18:09:26","新北市中和區中正路395號","121.489946666667","24.9935516666667","6500300","中和區"
"235042","551-UM","2018/04/07 18:09:14","新北市中和區景平路159巷9號","121.512745","24.9919383333333","6500300","中和區"
"235070","558-UM","2018/04/07 18:09:33","新北市中和區錦和路350-1號","121.490141666667","24.993595","6500300","中和區"
"235045","565-BX","2018/04/07 18:09:14","新北市中和區錦和路350-1號","121.490558333333","24.9935866666667","6500300","中和區"
"235054","640-BX","2018/04/07 18:09:21","新北市土城區延壽路53號","121.469895","24.99211","6500300","中和區"
"235062","800-TS","2018/04/07 18:09:33","新北市中和區景平路999巷2號","121.495391666667","25.005965","6500300","中和區"
"235057","801-TS","2018/04/07 18:09:23","新北市中和區員山路36巷13號","121.484391666667","24.9908933333333","6500300","中和區"
"235052","805-TS","2018/04/07 18:09:13","新北市中和區中正路395號","121.48924","24.9935716666667","6500300","中和區"
"235053","900-TW","2018/04/07 18:09:23","新北市中和區員山路36巷16-2號","121.48526","24.9915166666667","6500300","中和區"
"235051","157-BY","2018/04/07 18:09:28","新北市中和區中正路169號","121.498083333333","24.9935433333333","6500300","中和區"
"235037","AAC-213","2018/04/07 18:09:28","新北市中和區景平路149號","121.513723333333","24.9922133333333","6500300","中和區"
"226004","312-R5","2018/04/07 18:09:14","新北市平溪區白石里白石腳5號","121.721461666667","25.0215016666667","6502400","平溪區"
"235039","251-BX","2018/04/07 18:09:28","新北市中和區中正路637巷60弄61號","121.485483333333","24.993105","6500300","中和區"
"228003","097-TW","2018/04/07 18:09:20","新北市貢寮區真理里美艷山街6-2號","121.928793333333","25.0607666666667","6502600","貢寮區"
"228001","212-TW","2018/04/07 18:09:17","新北市貢寮區真理里新港街26巷55弄2-1號","121.927391666667","25.052875","6502600","貢寮區"
"228002","585-TW","2018/04/07 18:09:26","新北市貢寮區福連里馬崗街1號","121.996898333333","25.0169933333333","6502600","貢寮區"
"224010","AGQ-8101","2018/04/07 17:57:14","新北市瑞芳區烏勢巷145號","121.84757","25.1088116666667","6501200","瑞芳區"
"224006","676-BX","2018/04/07 18:09:19","新北市瑞芳區中正路2號","121.809321666667","25.107065","6501200","瑞芳區"
"224002","639-TC","2018/04/07 18:09:24","新北市瑞芳區三爪子坑路32巷92號","121.809615","25.1065083333333","6501200","瑞芳區"
"224008","285-BY","2018/04/07 18:09:19","新北市瑞芳區員山子路23號","121.82138","25.1030583333333","6501200","瑞芳區"
"224007","275-VK","2018/04/07 18:09:31","新北市瑞芳區四腳亭坑路9號","121.777633333333","25.1096366666667","6501200","瑞芳區"
"224009","273-VK","2018/04/07 18:09:28","新北市瑞芳區山尖路2號","121.85454","25.1164983333333","6501200","瑞芳區"
"224005","271-BY","2018/04/07 18:09:17","新北市瑞芳區深澳路1號","121.81645","25.1285883333333","6501200","瑞芳區"
"227002","642-TC","2018/04/07 18:09:28","新北市雙溪區共和里東榮街29號","121.866121666667","25.0335466666667","6502500","雙溪區"
"253005","032-BX","2018/04/07 18:09:17","新北市石門區福安街25號","121.56875","25.292445","6502200","石門區"
"253006","295-VK","2018/04/07 18:09:20","新北市石門區老梅路52巷21號","121.54645","25.2884816666667","6502200","石門區"
"222001","KEA-2212","2018/04/07 18:09:19","新北市深坑區北深路二段190號","121.613906666667","25.002205","6501800","深坑區"
"208002","KEA-2872","2018/04/07 18:09:20","新北市金山區三界壇路111巷6號","121.619445","25.2313616666667","6502700","金山區"
"208003","665-BX","2018/04/07 18:09:27","新北市金山區民生路51巷13號","121.642883333333","25.221305","6502700","金山區"
"251009","008-UM","2018/04/07 18:09:32","新北市淡水區大忠街34巷15號","121.443948333333","25.1757216666667","6501000","淡水區"
"251004","009-UM","2018/04/07 18:09:33","新北市淡水區民族路134號","121.462936666667","25.1347483333333","6501000","淡水區"
"251013","179-VK","2018/04/07 18:09:16","新北市淡水區桂花樹4-2號","121.476105","25.1960016666667","6501000","淡水區"
"251014","180-VK","2018/04/07 18:09:23","新北市淡水區南平14-3號","121.487111666667","25.2201516666667","6501000","淡水區"
"251008","181-VK","2018/04/07 18:09:19","新北市淡水區淡金路12-3號","121.458188333333","25.1604","6501000","淡水區"
"251015","182-VK","2018/04/07 18:09:15","新北市淡水區興福寮88巷1號","121.485355","25.1649683333333","6501000","淡水區"
"251010","413-VK","2018/04/07 18:09:27","新北市淡水區中正路二段50巷10號","121.419903333333","25.1833316666667","6501000","淡水區"
"251012","441-VK","2018/04/07 18:09:12","新北市淡水區北新路三段132號","121.488073333333","25.1898533333333","6501000","淡水區"
"251016","442-VK","2018/04/07 18:09:16","新北市淡水區下圭柔山15號","121.45321","25.202255","6501000","淡水區"
"251005","443-VK","2018/04/07 18:09:30","新北市淡水區水源街一段141號","121.447226666667","25.17189","6501000","淡水區"
"251001","559-UM","2018/04/07 18:09:21","新北市淡水區自立路10號","121.463106666667","25.1297383333333","6501000","淡水區"
"251006","561-UM","2018/04/07 18:09:19","新北市淡水區新民街65號","121.438518333333","25.1764066666667","6501000","淡水區"
"251011","650-BX","2018/04/07 18:09:28","新北市淡水區三空泉5號","121.477586666667","25.1620266666667","6501000","淡水區"
"251002","672-BX","2018/04/07 18:09:14","新北市淡水區中正東路一段113號","121.454163333333","25.1597483333333","6501000","淡水區"
"251003","673-BX","2018/04/07 18:09:23","新北市淡水區大忠街113巷24號","121.447446666667","25.17744","6501000","淡水區"
"207003","550-UM","2018/04/07 18:09:27","新北市萬里區野柳里港西路701-2號","121.685301666667","25.2046516666667","6502800","萬里區"
"207004","225-TW","2018/04/07 18:09:28","新北市萬里區中幅里中福路106號","121.67682","25.1693333333333","6502800","萬里區"
"252002","178-VK","2018/04/07 18:09:15","新北市三芝區中山路二段39號","121.502935","25.2551566666667","6502100","三芝區"
"252003","249-BX","2018/04/07 18:09:29","新北市三芝區埔頭里埔頭37號","121.498545","25.2603633333333","6502100","三芝區"
"252001","292-VK","2018/04/07 18:09:30","新北市三芝區中興街二段2號","121.498341666667","25.2566466666667","6502100","三芝區"
"237004","KEA-2597","2018/04/07 18:09:25","新北市三峽區大埔路323號","121.369983333333","24.898665","6500900","三峽區"
"237007","153-BY","2018/04/07 18:09:17","新北市三峽區中正路二段370巷81號","121.364243333333","24.911675","6500900","三峽區"
"237009","210-TH","2018/04/07 18:09:29","新北市三峽區大仁路52號","121.365351666667","24.937475","6500900","三峽區"
"237013","252-BX","2018/04/07 18:09:26","新北市三峽區長泰街80號","121.376561666667","24.9331866666667","6500900","三峽區"
"237012","275-BY","2018/04/07 18:09:17","新北市三峽區民生街1巷1-28號","121.377638333333","24.9353466666667","6500900","三峽區"
"237008","302-VK","2018/04/07 18:09:12","新北市三峽區白雞39-1號","121.380051666667","24.9112366666667","6500900","三峽區"
"237014","433-BY","2018/04/07 18:09:27","新北市三峽區國光街63巷2號","121.37395","24.9380983333333","6500900","三峽區"
"237006","5529-G3","2018/04/07 18:09:30","新北市三峽區溪東路235號","121.406545","24.9326316666667","6500900","三峽區"
"237010","706-TV","2018/04/07 18:09:18","新北市三峽區民權街147號","121.368865","24.93164","6500900","三峽區"
"237005","AKY-6261","2018/04/07 18:09:19","新北市三峽區和平街24-1號","121.370336666667","24.9363033333333","6500900","三峽區"
"236070","105-UM","2018/04/07 18:09:26","新北市土城區青雲路455號","121.458718333333","24.9745","6501300","土城區"
"236042","107-UM","2018/04/07 18:09:17","新北市土城區城林路6巷80號","121.438706666667","24.979695","6501300","土城區"
"236079","166-UM","2018/04/07 18:09:33","新北市土城區永安街78號","121.43207","24.9637516666667","6501300","土城區"
"236030","253-BX","2018/04/07 18:09:29","新北市土城區城林路6巷80號","121.438478333333","24.9797933333333","6501300","土城區"
"236026","269-VK","2018/04/07 18:09:22","新北市土城區承天路67號","121.439533333333","24.963505","6501300","土城區"
"236014","270-VK","2018/04/07 18:09:19","新北市土城區學府路二段151-1號","121.4467","24.9791916666667","6501300","土城區"
"236038","271-VK","2018/04/07 18:09:18","新北市土城區青雲路449號","121.458825","24.9749433333333","6501300","土城區"
"236021","401-BY","2018/04/07 18:09:28","新北市土城區城林路6巷80號","121.438546666667","24.97962","6501300","土城區"
"236059","912-UM","2018/04/07 18:09:31","新北市土城區中央路四段196-1號","121.416293333333","24.9576866666667","6501300","土城區"
"236049","913-UM","2018/04/07 18:09:19","新北市土城區明德路一段365-1號","121.453533333333","24.97906","6501300","土城區"
"236063","915-UM","2018/04/07 18:09:19","新北市土城區金城路二段14號","121.449306666667","24.9773866666667","6501300","土城區"
"236055","AAC-216","2018/04/07 18:09:25","新北市土城區中華路二段98號","121.438096666667","24.974485","6501300","土城區"
"242034","AAC-296","2018/04/07 18:09:23","新北市新莊區景德路382號","121.446306666667","25.0335483333333","6500500","新莊區"
"242058","986-R7","2018/04/07 18:09:23","新北市新莊區新北大道七段722號","121.412488333333","25.0260266666667","6500500","新莊區"
"242053","751-BX","2018/04/07 18:09:24","新北市新莊區民安西路354號","121.427288333333","25.0112133333333","6500500","新莊區"
"242029","705-TV","2018/04/07 18:09:25","新北市新莊區中平路127號","121.444746666667","25.04694","6500500","新莊區"
"242027","615-BX","2018/04/07 18:09:28","新北市新莊區幸福路541號","121.454873333333","25.04925","6500500","新莊區"
"242025","613-BX","2018/04/07 18:09:28","新北市新莊區五工二路86巷41號","121.460615","25.0676483333333","6500500","新莊區"
"242042","566-BX","2018/04/07 18:09:23","新北市新莊區雙鳳路116巷13弄1號","121.413436666667","25.0287566666667","6500500","新莊區"
"242046","497-BY","2018/04/07 18:09:23","新北市新莊區福營路336號","121.421651666667","25.0267766666667","6500500","新莊區"
"242004","442-UM","2018/04/07 18:09:22","新北市新莊區自立街81號","121.454486666667","25.0453766666667","6500500","新莊區"
"242051","441-UM","2018/04/07 18:09:26","新北市新莊區民本街25巷17號","121.429116666667","25.0195466666667","6500500","新莊區"
"242056","440-UM","2018/04/07 18:09:32","新北市新莊區豐年街豐1巷6號","121.44689","25.0311316666667","6500500","新莊區"
"242036","415-TV","2018/04/07 18:09:23","新北市新莊區後港一路49巷2號","121.425975","25.0265283333333","6500500","新莊區"
"242007","413-TV","2018/04/07 18:09:35","新北市新莊區自強街23巷9號","121.454071666667","25.0463083333333","6500500","新莊區"
"242044","400-BY","2018/04/07 18:09:24","新北市新莊區中正路702-3號","121.41745","25.0260333333333","6500500","新莊區"
"242023","362-BY","2018/04/07 18:09:17","新北市新莊區新泰路528號","121.441835","25.047065","6500500","新莊區"
"242061","353-BY","2018/04/07 18:09:15","新北市新莊區新樹路138-1號","121.435225","25.0235416666667","6500500","新莊區"
"242039","133-UY","2018/04/07 18:09:17","新北市新莊區民安西路40號","121.427183333333","25.02096","6500500","新莊區"
"242048","172-VK","2018/04/07 18:09:21","新北市新莊區萬安街2號","121.421711666667","25.0252366666667","6500500","新莊區"
"242011","173-VK","2018/04/07 18:09:15","新北市新莊區中信街92號","121.447915","25.053485","6500500","新莊區"
"242017","175-VK","2018/04/07 18:09:31","新北市新莊區永樂街23號","121.451805","25.045055","6500500","新莊區"
"242015","346-TH","2018/04/07 18:09:18","新北市新莊區中和街59巷10弄9號","121.446783333333","25.0472383333333","6500500","新莊區"
"242021","348-TH","2018/04/07 18:09:30","新北市新莊區新興街64號","121.450773333333","25.037625","6500500","新莊區"
"242002","349-TH","2018/04/07 18:09:19","新北市新莊區新莊路89號","121.45781","25.03671","6500500","新莊區"
"242019","350-TH","2018/04/07 18:09:31","新北市新莊區公園路210號","121.455561666667","25.0404683333333","6500500","新莊區"
"242013","351-TH","2018/04/07 18:09:25","新北市新莊區瓊林路118號","121.442166666667","25.0255733333333","6500500","新莊區"
"238015","755-BX","2018/04/07 18:09:25","新北市樹林區啟智街170號","121.414755","24.98731","6500700","樹林區"
"238023","601-UM","2018/04/07 18:09:16","新北市樹林區龍興街32巷18號","121.402168333333","25.0156433333333","6500700","樹林區"
"238019","599-UM","2018/04/07 18:09:30","新北市樹林區忠孝街67巷46號","121.42551","24.9818166666667","6500700","樹林區"
"238018","571-TV","2018/04/07 18:09:24","新北市樹林區樹新路89號","121.42779","24.9954133333333","6500700","樹林區"
"238024","5061-A6","2018/04/07 18:09:21","新北市樹林區豐林街41-1號","121.421315","24.9981266666667","6500700","樹林區"
"238022","KEA-2213","2018/04/07 18:09:25","新北市樹林區太平路150巷39弄4號","121.417163333333","24.9769466666667","6500700","樹林區"
"238021","KEA-2539","2018/04/07 18:09:32","新北市樹林區柑園街一段289號","121.393265","24.956295","6500700","樹林區"
"238025","303-VK","2018/04/07 18:09:14","新北市樹林區保安街一段327號","121.417725","24.9982616666667","6500700","樹林區"
"238017","283-BY","2018/04/07 18:09:27","新北市樹林區保安街二段337巷9號","121.411153333333","25.0083216666667","6500700","樹林區"
"238014","282-BY","2018/04/07 18:09:22","新北市樹林區潭興街99號","121.424623333333","24.9985633333333","6500700","樹林區"
"238026","172-UY","2018/04/07 18:09:26","新北市樹林區佳園路一段80巷3-1號","121.392716666667","24.9695716666667","6500700","樹林區"
"238016","169-UY","2018/04/07 18:09:24","新北市樹林區中山路一段242巷4號","121.42079","24.9878633333333","6500700","樹林區"
"239006","891-R6","2018/04/07 18:09:32","新北市鶯歌區鶯桃路365巷100號","121.330661666667","24.9621433333333","6500800","鶯歌區"
"239008","527-UM","2018/04/07 18:09:22","新北市鶯歌區國際一路179號","121.336251666667","24.9765216666667","6500800","鶯歌區"
"239005","526-UM","2018/04/07 18:09:34","新北市鶯歌區鶯桃路668巷73號","121.329931666667","24.9718516666667","6500800","鶯歌區"
"239001","417-VK","2018/04/07 18:09:28","新北市鶯歌區高職東街3巷62號","121.340731666667","24.94273","6500800","鶯歌區"
"239003","360-BY","2018/04/07 18:09:18","新北市鶯歌區福安街58號","121.33556","24.9652383333333","6500800","鶯歌區"
"239002","359-BY","2018/04/07 18:09:27","新北市鶯歌區國華路31號","121.343191666667","24.9557366666667","6500800","鶯歌區"
"239004","193-VK","2018/04/07 18:09:23","新北市鶯歌區尖山路103-6號","121.348116666667","24.9487633333333","6500800","鶯歌區"
"221036","130-UY","2018/04/07 18:09:31","新北市汐止區長安路11號","121.667653333333","25.07761","6501100","汐止區"
"221015","131-UY","2018/04/07 18:07:56","新北市汐止區鄉長路二段116號","121.66462","25.0860416666667","6501100","汐止區"
"221010","269-BY","2018/04/07 18:09:18","新北市汐止區汐萬路二段256號","121.645953333333","25.0892466666667","6501100","汐止區"
"221018","277-VK","2018/04/07 18:09:11","新北市汐止區中興路163號","121.630991666667","25.0661983333333","6501100","汐止區"
"221012","278-VK","2018/04/07 18:09:18","新北市汐止區保一街67號","121.674346666667","25.0799066666667","6501100","汐止區"
"221023","279-VK","2018/04/07 18:09:13","新北市汐止區中興路295號","121.62788","25.0701933333333","6501100","汐止區"
"221032","280-BY","2018/04/07 18:09:27","新北市汐止區力行街4號","121.617168333333","25.05115","6501100","汐止區"
"221027","281-BY","2018/04/07 18:09:30","新北市汐止區大同路二段527號","121.661786666667","25.06895","6501100","汐止區"
"221029","298-VK","2018/04/07 18:09:16","新北市汐止區樟樹二路134號","121.639985","25.0656933333333","6501100","汐止區"
"221021","299-VK","2018/04/07 18:09:19","新北市汐止區復興路11號","121.655781666667","25.06465","6501100","汐止區"
"221008","129-UY","2018/04/07 18:09:23","新北市汐止區康寧街536號","121.6346","25.069435","6501100","汐止區"
"221035","622-UM","2018/04/07 18:09:18","新北市汐止區大同路二段191號","121.652291666667","25.0644566666667","6501100","汐止區"
"221025","623-UM","2018/04/07 18:09:33","新北市汐止區秀峰路145號","121.66047","25.0621666666667","6501100","汐止區"
"221038","646-BX","2018/04/07 18:09:26","新北市汐止區仁愛路136-2號","121.663371666667","25.0641983333333","6501100","汐止區"
"221033","647-BX","2018/04/07 18:09:21","新北市汐止區宜興街30巷20號","121.622333333333","25.041055","6501100","汐止區"
"221002","707-TV","2018/04/07 18:09:26","新北市汐止區福德一路201巷1號","121.635591666667","25.0654616666667","6501100","汐止區"
"221018","753-BX","2018/04/07 18:09:25","新北市汐止區茄苳路45號","121.665955","25.0708766666667","6501100","汐止區"
"242009","281-VK","2018/04/07 18:09:21","新北市新莊區昌平街41巷12號","121.454073333333","25.0525","6500500","新莊區"
"242031","280-VK","2018/04/07 18:09:14","新北市新莊區新泰路277巷26號","121.44455","25.0402533333333","6500500","新莊區"
