"lineid","car","time","location","longitude","latitude","cityid","cityname"
"234046","148-BY","2018/04/07 18:49:11","新北市永和區秀朗路二段126巷1號","121.524818333333","25.0012816666667","6500400","永和區"
"234070","149-BY","2018/04/07 18:49:27","新北市永和區竹林路96巷9號","121.519138333333","25.0120533333333","6500400","永和區"
"234007","207-UY","2018/04/07 18:49:26","新北市永和區文化路166號","121.512141666667","25.0154483333333","6500400","永和區"
"234081","298-R6","2018/04/07 18:49:15","新北市永和區永利路116號","121.521388333333","25.00328","6500400","永和區"
"234038","336-UY","2018/04/07 18:49:20","新北市永和區成功路一段107號","121.52686","25.0023683333333","6500400","永和區"
"234064","337-UY","2018/04/07 18:49:21","新北市永和區福和路1號","121.526278333333","25.0096966666667","6500400","永和區"
"234086","338-UY","2018/04/07 18:49:17","新北市永和區中正路63號","121.5148","24.9966133333333","6500400","永和區"
"234017","745-BX","2018/04/07 18:49:18","新北市永和區永和路二段405巷3號","121.515233333333","25.0170833333333","6500400","永和區"
"234030","746-BX","2018/04/07 18:49:13","新北市永和區得和路321號","121.523401666667","24.9996066666667","6500400","永和區"
"234054","KEA-2590","2018/04/07 18:49:32","新北市永和區環河東路二段92號","121.524411666667","25.01061","6500400","永和區"
"234013","KEA-2591","2018/04/07 18:49:31","新北市永和區保福路二段109巷43號","121.509001666667","25.0128","6500400","永和區"
"234061","AAD-866","2018/04/07 18:49:16","新北市永和區福和路303號","121.516361666667","25.0071666666667","6500400","永和區"
"234042","862-TW","2018/04/07 18:49:24","新北市永和區永貞路306號","121.511945","25.004865","6500400","永和區"
"234050","863-TW","2018/04/07 18:49:16","新北市永和區環河東路二段52號","121.523346666667","25.01182","6500400","永和區"
"234026","9371-KE","2018/04/07 18:49:29","新北市永和區自由街58號","121.513713333333","25.005905","6500400","永和區"
"234011","9373-KE","2018/04/07 18:49:26","新北市永和區文化路124號","121.51306","25.015325","6500400","永和區"
"249005","172-UM","2018/04/07 18:49:18","新北市八里區長道坑14-9號","121.394543333333","25.1182","6502300","八里區"
"249001","173-UM","2018/04/07 18:49:14","新北市八里區龍米路二段91-1號","121.447691666667","25.1421666666667","6502300","八里區"
"248016","026-BX","2018/04/07 18:49:23","新北市五股區凌雲路一段149巷42號","121.448585","25.10092","6501500","五股區"
"248006","077-UY","2018/04/07 18:49:19","新北市五股區四維路1巷2弄2號","121.4665","25.070155","6501500","五股區"
"248008","095-VK","2018/04/07 18:49:16","新北市五股區中興路一段151巷52號","121.465161666667","25.0723383333333","6501500","五股區"
"248020","225-UY","2018/04/07 18:49:23","新北市五股區凌雲路三段82-1號","121.431748333333","25.1173116666667","6501500","五股區"
"248012","247-BX","2018/04/07 18:49:18","新北市五股區成泰路二段147巷5-17號","121.437108333333","25.088195","6501500","五股區"
"248010","272-BY","2018/04/07 18:49:20","新北市五股區水碓九路37號","121.428858333333","25.0720183333333","6501500","五股區"
"248004","677-BX","2018/04/07 18:49:21","新北市五股區民義路二段50-19號","121.412631666667","25.1023833333333","6501500","五股區"
"248002","678-BX","2018/04/07 18:49:16","新北市五股區成泰路三段437號","121.449833333333","25.0978233333333","6501500","五股區"
"234023","9380-KE","2018/04/07 18:49:18","新北市永和區竹林路119巷28-3號","121.521895","25.011775","6500400","永和區"
"234077","969-R7","2018/04/07 18:49:23","新北市永和區中正路2巷29弄2-2號","121.513823333333","24.9938516666667","6500400","永和區"
"234074","AAC-211","2018/04/07 18:49:15","新北市永和區福和路1號","121.526201666667","25.0097566666667","6500400","永和區"
"234067","AAC-212","2018/04/07 18:49:20","新北市永和區永和路一段22號","121.513048333333","25.00482","6500400","永和區"
"234003","AAC-295","2018/04/07 18:49:29","新北市永和區中正路609巷5弄7號","121.516405","25.00921","6500400","永和區"
"232011","375-UM","2018/04/07 18:49:16","新北市坪林區坪雙路一段5號","121.711191666667","24.9400416666667","6502000","坪林區"
"244013","069-UM","2018/04/07 18:49:33","新北市林口區文化一路一段120號","121.374155","25.071945","6501700","林口區"
"244007","080-UY","2018/04/07 18:49:32","新北市林口區太平嶺30-1號","121.374853333333","25.1216133333333","6501700","林口區"
"244025","742-UY","2018/04/07 18:49:27","新北市林口區南勢里57-3號","121.359928333333","25.0775383333333","6501700","林口區"
"244009","410-SL","2018/04/07 18:49:20","新北市林口區竹林路346巷18號","121.39283","25.0833316666667","6501700","林口區"
"244023","483-VK","2018/04/07 18:49:19","新北市林口區文化三路二段77巷39號","121.373115","25.080215","6501700","林口區"
"244017","485-VK","2018/04/07 18:49:29","新北市林口區文化二路一段20巷39號","121.36524","25.06679","6501700","林口區"
"244019","657-BX","2018/04/07 18:49:14","新北市林口區麗園二街87號","121.382725","25.066715","6501700","林口區"
"244011","701-TV","2018/04/07 18:49:16","新北市林口區中正路41巷3號","121.395756666667","25.0769516666667","6501700","林口區"
"243012","AAD-798","2018/04/07 18:49:14","新北市泰山區泰林路二段73巷29號","121.434423333333","25.057835","6501600","泰山區"
"243015","380-SR","2018/04/07 18:49:17","新北市泰山區泰林路二段359號","121.428101666667","25.0639183333333","6501600","泰山區"
"243013","539-UM","2018/04/07 18:49:23","新北市泰山區明志路三段206巷3號","121.423278333333","25.0379766666667","6501600","泰山區"
"243016","680-BX","2018/04/07 18:49:26","新北市泰山區明志路二段137號","121.427648333333","25.0506083333333","6501600","泰山區"
"222003","436-BY","2018/04/07 18:49:26","新北市深坑區深南路51-1號","121.621348333333","25.0101566666667","6501800","深坑區"
"222002","659-BX","2018/04/07 18:49:15","新北市深坑區文山路一段69號","121.627","25.0018816666667","6501800","深坑區"
"231059","046-UY","2018/04/07 18:49:31","新北市新店區安華路28-1號","121.519565","24.96064","6500600","新店區"
"231040","047-UY","2018/04/07 18:49:29","新北市新店區環河路116號","121.536843333333","24.96755","6500600","新店區"
"231044","106-UY","2018/04/07 18:49:31","新北市新店區寶中路72號","121.547855","24.9805716666667","6500600","新店區"
"231052","108-UY","2018/04/07 18:49:24","新北市新店區永興路73號","121.544641666667","24.9357183333333","6500600","新店區"
"231048","187-VK","2018/04/07 18:49:15","新北市新店區寶橋路6巷4號","121.543355","24.97345","6500600","新店區"
"231046","188-VK","2018/04/07 18:49:14","新北市新店區直潭路60號","121.53174","24.9408916666667","6500600","新店區"
"231054","KEA-2219","2018/04/07 18:49:22","新北市新店區安康路一段69號","121.530255","24.96108","6500600","新店區"
"231051","278-BY","2018/04/07 18:49:27","新北市新店區中央路210-1號","121.530143333333","24.9735866666667","6500600","新店區"
"231050","AAD-862","2018/04/07 18:49:27","新北市新店區安康路一段219號","121.525818333333","24.9630533333333","6500600","新店區"
"231058","3713-VJ","2018/04/07 18:49:15","新北市新店區北宜路一段80號","121.538668333333","24.9557883333333","6500600","新店區"
"231066","4716-K9","2018/04/07 18:49:31","新北市新店區安豐路23號","121.501145","24.956665","6500600","新店區"
"231056","4715-K9","2018/04/07 18:49:34","新北市新店區建國路163-1號","121.538638333333","24.9792116666667","6500600","新店區"
"231067","4772-VM","2018/04/07 18:49:16","新北市新店區安康路一段281巷27號","121.523786666667","24.9623916666667","6500600","新店區"
"231065","512-UM","2018/04/07 18:49:16","新北市新店區安豐路22巷20號","121.503456666667","24.9544883333333","6500600","新店區"
"231049","513-UM","2018/04/07 18:49:20","新北市新店區中正路454-5號","121.534448333333","24.9790333333333","6500600","新店區"
"231045","617-UM","2018/04/07 18:49:15","新北市新店區安康路一段186號","121.524846666667","24.9632866666667","6500600","新店區"
"231061","619-UM","2018/04/07 18:49:32","新北市新店區安華路28-1號","121.519625","24.9609483333333","6500600","新店區"
"231063","641-BX","2018/04/07 18:49:24","新北市新店區安華路30巷12-1號","121.517885","24.958035","6500600","新店區"
"231042","645-TV","2018/04/07 18:49:24","新北市新店區安康路一段3-1號","121.53452","24.960695","6500600","新店區"
"231064","719-UM","2018/04/07 18:49:25","新北市新店區安康路一段355-3號","121.519448333333","24.9616466666667","6500600","新店區"
"231062","720-UM","2018/04/07 18:49:32","新北市新店區安華路28-1號","121.519295","24.9611916666667","6500600","新店區"
"231060","897-TW","2018/04/07 18:49:29","新北市新店區安華路28-1號","121.51981","24.960705","6500600","新店區"
"231043","899-TW","2018/04/07 18:49:20","新北市新店區安康路一段285號","121.52341","24.9635866666667","6500600","新店區"
"231055","AKT-0513","2018/04/07 18:49:31","新北市新店區新生街12號","121.540091666667","24.9661433333333","6500600","新店區"
"235066","003-UY","2018/04/07 18:49:17","新北市中和區水源路7巷29號","121.504113333333","25.00385","6500300","中和區"
"235064","005-UY","2018/04/07 18:49:17","新北市中和區景平路517號","121.49925","24.99876","6500300","中和區"
"235063","006-UY","2018/04/07 18:49:29","新北市中和區連城路319巷3弄2號","121.489268333333","24.99559","6500300","中和區"
"235056","096-UM","2018/04/07 18:49:28","新北市中和區員山路611巷1號","121.477818333333","25.0112866666667","6500300","中和區"
"235065","098-UM","2018/04/07 18:49:18","新北市中和區中山路二段2巷43號","121.502511666667","25.0070066666667","6500300","中和區"
"235040","150-BY","2018/04/07 18:49:15","新北市中和區保健路74號","121.511486666667","24.99645","6500300","中和區"
"235058","151-BY","2018/04/07 18:49:30","新北市中和區連城路585號","121.478615","24.9940766666667","6500300","中和區"
"235055","183-VK","2018/04/07 18:49:23","新北市中和區民生街85巷3弄1號","121.469123333333","25.00435","6500300","中和區"
"235038","185-VK","2018/04/07 18:49:16","新北市中和區大勇街54號","121.517661666667","24.9943633333333","6500300","中和區"
"235049","186-VK","2018/04/07 18:49:23","新北市中和區明義街11巷12弄2號","121.503715","24.9946283333333","6500300","中和區"
"235067","255-BX","2018/04/07 18:49:34","新北市中和區中山路二段479號","121.483053333333","25.00487","6500300","中和區"
"235044","293-VK","2018/04/07 18:49:15","新北市中和區中興街165號","121.499945","24.9906816666667","6500300","中和區"
"235072","301-VK","2018/04/07 18:49:21","新北市中和區中山路二段258號","121.497586666667","25.0025216666667","6500300","中和區"
"235043","352-BY","2018/04/07 18:49:28","新北市中和區景平路1號","121.5258","24.9900133333333","6500300","中和區"
"235068","377-QA","2018/04/07 18:49:12","新北市中和區中正路211巷38-4號","121.497621666667","24.992685","6500300","中和區"
"235061","378-QA","2018/04/07 18:49:29","新北市中和區民享街54巷14號","121.473326666667","25.0024033333333","6500300","中和區"
"235050","4979-A6","2018/04/07 18:49:26","新北市中和區忠孝街62巷9弄1號","121.513098333333","24.9838966666667","6500300","中和區"
"235069","4980-A6","2018/04/07 18:49:31","新北市中和區泰和街4號","121.499913333333","25.0011233333333","6500300","中和區"
"235042","551-UM","2018/04/07 18:49:14","新北市中和區秀朗路三段135巷3弄1號","121.525401666667","24.9924066666667","6500300","中和區"
"235070","558-UM","2018/04/07 18:49:13","新北市中和區南山路6號","121.501963333333","24.998635","6500300","中和區"
"235045","565-BX","2018/04/07 18:49:34","新北市中和區南山路160號","121.504491666667","24.991775","6500300","中和區"
"235054","640-BX","2018/04/07 18:49:21","新北市中和區民享街68巷6號","121.473723333333","25.0018783333333","6500300","中和區"
"235047","732-UM","2018/04/07 18:49:33","新北市中和區興南路二段34巷30弄1號","121.504863333333","24.98636","6500300","中和區"
"235046","733-UM","2018/04/07 18:49:19","新北市中和區仁愛街36巷42號","121.51127","24.9864183333333","6500300","中和區"
"235062","800-TS","2018/04/07 18:49:33","新北市中和區中山路二段468號","121.488401666667","25.0045933333333","6500300","中和區"
"235057","801-TS","2018/04/07 18:49:23","新北市中和區民安街25巷13號","121.480571666667","25.0001883333333","6500300","中和區"
"235041","802-TS","2018/04/07 18:49:24","新北市中和區宜安路118巷16號","121.510715","24.99855","6500300","中和區"
"235052","805-TS","2018/04/07 18:49:34","新北市中和區興南路二段399巷98弄60號","121.497926666667","24.976425","6500300","中和區"
"235048","896-TW","2018/04/07 18:49:29","新北市中和區華新街13號","121.507536666667","24.9851133333333","6500300","中和區"
"235053","900-TW","2018/04/07 18:49:23","新北市中和區華福街42巷5號","121.466351666667","24.9960733333333","6500300","中和區"
"235060","911-UM","2018/04/07 18:49:35","新北市中和區中山路三段218號","121.471348333333","25.0065183333333","6500300","中和區"
"235051","157-BY","2018/04/07 18:49:28","新北市中和區華新街109巷16號","121.508548333333","24.9808916666667","6500300","中和區"
"235037","AAC-213","2018/04/07 18:49:28","新北市中和區秀朗路三段128巷11號","121.524478333333","24.99326","6500300","中和區"
"235059","AAC-215","2018/04/07 18:49:27","新北市中和區圓通路395號","121.48963","24.9890016666667","6500300","中和區"
"220065","072-UY","2018/04/07 18:49:16","新北市板橋區民族路247巷5弄42號","121.470176666667","25.0085083333333","6500100","板橋區"
"220086","073-UY","2018/04/07 18:49:14","新北市板橋區南雅西路二段192巷24號","121.452675","25.0139366666667","6500100","板橋區"
"220067","075-UY","2018/04/07 18:49:26","新北市板橋區中山路二段37號","121.472981666667","25.0157416666667","6500100","板橋區"
"220069","AAD-861","2018/04/07 18:49:15","新北市板橋區南雅南路一段1巷35號","121.45771","25.006505","6500100","板橋區"
"226004","312-R5","2018/04/07 18:49:34","新北市平溪區靜安路二段378號","121.738126666667","25.024595","6502400","平溪區"
"235039","251-BX","2018/04/07 18:49:28","新北市中和區安樂路143巷7號","121.514036666667","24.9970766666667","6500300","中和區"
"228003","097-TW","2018/04/07 18:49:20","新北市瑞芳區鼻頭路127號","121.916941666667","25.1214433333333","6502600","貢寮區"
"228001","212-TW","2018/04/07 18:49:17","新北市貢寮區仁理村研海街12-1號","121.923761666667","25.051675","6502600","貢寮區"
"228002","585-TW","2018/04/07 18:49:26","新北市貢寮區福隆里東興街6-11號","121.950725","25.021065","6502600","貢寮區"
"224010","AGQ-8101","2018/04/07 18:45:14","新北市瑞芳區金光路372號","121.848618333333","25.110545","6501200","瑞芳區"
"224006","676-BX","2018/04/07 18:49:32","新北市瑞芳區中正路61號","121.806341666667","25.1073683333333","6501200","瑞芳區"
"224002","639-TC","2018/04/07 18:49:24","新北市瑞芳區中山路251號","121.798028333333","25.109415","6501200","瑞芳區"
"224008","285-BY","2018/04/07 18:49:20","新北市瑞芳區逢甲路323號","121.801141666667","25.111815","6501200","瑞芳區"
"224007","275-VK","2018/04/07 18:49:30","新北市瑞芳區大埔路東泰新村2號","121.761348333333","25.101185","6501200","瑞芳區"
"224009","273-VK","2018/04/07 18:49:28","新北市瑞芳區祈堂路72-1號","121.858968333333","25.1100166666667","6501200","瑞芳區"
"224005","271-BY","2018/04/07 18:49:19","新北市瑞芳區濱二路40號","121.832966666667","25.1165783333333","6501200","瑞芳區"
"227002","642-TC","2018/04/07 18:49:28","新北市雙溪區平林里梅竹蹊28號","121.861628333333","25.0360016666667","6502500","雙溪區"
"227010","400-TW","2018/04/07 18:49:14","新北市雙溪區牡丹里聖南31-1號","121.855543333333","25.0543283333333","6502500","雙溪區"
"253005","032-BX","2018/04/07 18:49:17","新北市石門區中山路28-3號","121.565768333333","25.2898416666667","6502200","石門區"
"253006","295-VK","2018/04/07 18:49:19","新北市石門區下員坑28-6號","121.516463333333","25.283085","6502200","石門區"
"222001","KEA-2212","2018/04/07 18:49:25","新北市深坑區松柏街35號","121.638616666667","25.0115416666667","6501800","深坑區"
"208002","KEA-2872","2018/04/07 18:49:20","新北市金山區信義路66號","121.63565","25.2189416666667","6502700","金山區"
"208003","665-BX","2018/04/07 18:49:27","新北市金山區中山路393號","121.63344","25.2251866666667","6502700","金山區"
"251009","008-UM","2018/04/07 18:49:32","新北市淡水區重建街134號","121.440453333333","25.1732983333333","6501000","淡水區"
"251013","179-VK","2018/04/07 18:49:15","新北市三芝區興華里楓子林64號","121.49267","25.2120933333333","6501000","淡水區"
"251014","180-VK","2018/04/07 18:49:26","新北市淡水區崙頂15-1號","121.489391666667","25.2233716666667","6501000","淡水區"
"251015","182-VK","2018/04/07 18:49:15","新北市淡水區興福寮1-7號","121.48721","25.1655566666667","6501000","淡水區"
"251010","413-VK","2018/04/07 18:49:27","新北市淡水區沙崙路13號","121.421145","25.1812883333333","6501000","淡水區"
"251012","441-VK","2018/04/07 18:49:32","新北市淡水區新興街7號","121.443705","25.180505","6501000","淡水區"
"251016","442-VK","2018/04/07 18:49:16","新北市淡水區下圭柔山71-3號","121.447018333333","25.20618","6501000","淡水區"
"251001","559-UM","2018/04/07 18:49:20","新北市淡水區自強路86號","121.462725","25.128195","6501000","淡水區"
"251011","650-BX","2018/04/07 18:49:28","新北市淡水區學府路6號","121.4475","25.1677583333333","6501000","淡水區"
"251002","672-BX","2018/04/07 18:49:14","新北市淡水區學府路67號","121.448331666667","25.169685","6501000","淡水區"
"251003","673-BX","2018/04/07 18:49:23","新北市淡水區中山北路一段186巷27弄5號","121.446176666667","25.1789516666667","6501000","淡水區"
"207003","550-UM","2018/04/07 18:49:27","新北市萬里區大鵬里頂社1號","121.65715","25.2097133333333","6502800","萬里區"
"207004","225-TW","2018/04/07 18:49:28","新北市萬里區萬里里獅頭路23號","121.693268333333","25.1782733333333","6502800","萬里區"
"252002","178-VK","2018/04/07 18:49:15","新北市三芝區智成街70號","121.504855","25.2561083333333","6502100","三芝區"
"252003","249-BX","2018/04/07 18:49:29","新北市三芝區後厝里大片頭76號","121.459321666667","25.2459966666667","6502100","三芝區"
"252001","292-VK","2018/04/07 18:49:30","新北市三芝區中正路三段9號","121.502896666667","25.253905","6502100","三芝區"
"237004","KEA-2597","2018/04/07 18:49:25","新北市三峽區有木17號","121.425985","24.86322","6500900","三峽區"
"237007","153-BY","2018/04/07 18:49:17","新北市三峽區中正路二段399號","121.365031666667","24.9075766666667","6500900","三峽區"
"237013","252-BX","2018/04/07 18:49:26","新北市三峽區光明路69巷25號","121.376746666667","24.92919","6500900","三峽區"
"237012","275-BY","2018/04/07 18:49:17","新北市三峽區三樹路340號","121.383941666667","24.9433333333333","6500900","三峽區"
"237008","302-VK","2018/04/07 18:49:12","新北市三峽區正義街18號","121.369346666667","24.9188733333333","6500900","三峽區"
"237014","433-BY","2018/04/07 18:49:27","新北市三峽區隆恩街212號","121.359343333333","24.9417583333333","6500900","三峽區"
"237006","5529-G3","2018/04/07 18:49:30","新北市三峽區溪東路233巷47弄2號","121.411126666667","24.934955","6500900","三峽區"
"237010","706-TV","2018/04/07 18:49:18","新北市三峽區國光街69號","121.374196666667","24.9383066666667","6500900","三峽區"
"237005","AKY-6261","2018/04/07 18:49:19","新北市三峽區中山路143號","121.365035","24.93619","6500900","三峽區"
"236070","105-UM","2018/04/07 18:49:29","新北市土城區延和路21巷1號","121.464213333333","24.9885933333333","6501300","土城區"
"236042","107-UM","2018/04/07 18:49:17","新北市土城區裕民路92巷25弄10號","121.44986","24.985685","6501300","土城區"
"236079","166-UM","2018/04/07 18:49:13","新北市土城區中央路四段67巷2弄14號","121.417081666667","24.95762","6501300","土城區"
"236030","253-BX","2018/04/07 18:49:29","新北市土城區忠義路26巷10號","121.439893333333","24.9698783333333","6501300","土城區"
"236026","269-VK","2018/04/07 18:49:31","新北市土城區慶安街62號","121.440835","24.9730433333333","6501300","土城區"
"236014","270-VK","2018/04/07 18:49:19","新北市土城區清水路235巷26號","121.460813333333","24.9840983333333","6501300","土城區"
"236038","271-VK","2018/04/07 18:49:18","新北市土城區明德路一段221巷9號","121.463745","24.978015","6501300","土城區"
"236021","401-BY","2018/04/07 18:49:28","新北市土城區延吉街208號","121.46758","24.9851866666667","6501300","土城區"
"236059","912-UM","2018/04/07 18:49:31","新北市土城區金城路一段12號","121.439136666667","24.9687566666667","6501300","土城區"
"236049","913-UM","2018/04/07 18:49:23","新北市土城區青雲路6號","121.460226666667","24.9893683333333","6501300","土城區"
"236063","915-UM","2018/04/07 18:49:19","新北市土城區延和路177巷17號","121.470136666667","24.9908833333333","6501300","土城區"
"236055","AAC-216","2018/04/07 18:49:25","新北市土城區裕民路186號","121.452928333333","24.98515","6501300","土城區"
"242013","351-TH","2018/04/07 18:49:25","新北市新莊區環河路455號","121.440491666667","25.0210766666667","6500500","新莊區"
"238023","601-UM","2018/04/07 18:49:15","桃園市龜山區萬壽路一段253號","121.404283333333","25.0172483333333","6500700","樹林區"
"238019","599-UM","2018/04/07 18:49:15","新北市樹林區中山路三段186號","121.387585","24.969195","6500700","樹林區"
"238018","571-TV","2018/04/07 18:49:24","新北市樹林區鎮前街168號","121.424298333333","24.9898933333333","6500700","樹林區"
"238024","5061-A6","2018/04/07 18:49:21","新北市樹林區八德街500號","121.399926666667","24.970225","6500700","樹林區"
"238022","KEA-2213","2018/04/07 18:49:18","新北市樹林區東大街32號","121.413155","24.9764783333333","6500700","樹林區"
"238025","303-VK","2018/04/07 18:49:14","新北市樹林區中山路三段22號","121.395626666667","24.9729416666667","6500700","樹林區"
"238017","283-BY","2018/04/07 18:49:27","新北市樹林區光興街50號","121.409873333333","25.00271","6500700","樹林區"
"238014","282-BY","2018/04/07 18:49:22","新北市樹林區大安路111巷11號","121.423115","24.9975466666667","6500700","樹林區"
"238026","172-UY","2018/04/07 18:49:26","新北市樹林區中和街11號","121.39206","24.9729383333333","6500700","樹林區"
"238016","169-UY","2018/04/07 18:49:24","新北市樹林區文化街23號","121.419336666667","24.9875683333333","6500700","樹林區"
"239008","527-UM","2018/04/07 18:49:22","新北市鶯歌區國際二路18巷33號","121.337978333333","24.9756683333333","6500800","鶯歌區"
"239005","526-UM","2018/04/07 18:49:34","新北市鶯歌區鳳吉一街170號","121.329005","24.975565","6500800","鶯歌區"
"239001","417-VK","2018/04/07 18:49:28","新北市鶯歌區永安街1號","121.338355","24.9553966666667","6500800","鶯歌區"
"239003","360-BY","2018/04/07 18:49:17","新北市鶯歌區鶯桃路658巷103號","121.332143333333","24.9710083333333","6500800","鶯歌區"
"239002","359-BY","2018/04/07 18:49:27","新北市鶯歌區中山路194-11號","121.347335","24.9570916666667","6500800","鶯歌區"
"239004","193-VK","2018/04/07 18:49:24","新北市鶯歌區中正三路247巷62號","121.333513333333","24.9369616666667","6500800","鶯歌區"
"221036","130-UY","2018/04/07 18:49:31","新北市汐止區忠孝東路314巷21號","121.664536666667","25.06832","6501100","汐止區"
"221015","131-UY","2018/04/07 18:49:16","新北市汐止區鄉長路一段37號","121.665315","25.0749583333333","6501100","汐止區"
"221010","269-BY","2018/04/07 18:49:18","新北市汐止區康寧街901號","121.651075","25.075145","6501100","汐止區"
"221018","277-VK","2018/04/07 18:49:31","新北市汐止區福德一路300巷15號","121.63077","25.06386","6501100","汐止區"
"221012","278-VK","2018/04/07 18:49:18","新北市汐止區汐萬路一段256巷3號","121.65338","25.0745016666667","6501100","汐止區"
"221023","279-VK","2018/04/07 18:49:13","新北市汐止區汐萬路一段256巷3號","121.653361666667","25.0746983333333","6501100","汐止區"
"221032","280-BY","2018/04/07 18:49:27","新北市汐止區橫科路241-4號","121.622386666667","25.0487816666667","6501100","汐止區"
"221027","281-BY","2018/04/07 18:49:17","新北市汐止區康寧街901號","121.651456666667","25.0749966666667","6501100","汐止區"
"221029","298-VK","2018/04/07 18:49:15","新北市汐止區工建路62號","121.640636666667","25.0629733333333","6501100","汐止區"
"221021","299-VK","2018/04/07 18:49:18","新北市汐止區汐萬路一段256巷3號","121.652436666667","25.0745816666667","6501100","汐止區"
"221008","129-UY","2018/04/07 18:49:22","新北市汐止區康寧街901號","121.65149","25.0750316666667","6501100","汐止區"
"221035","622-UM","2018/04/07 18:49:18","新北市汐止區康寧街901號","121.65109","25.07514","6501100","汐止區"
"221025","623-UM","2018/04/07 18:49:13","新北市汐止區仁愛路108號","121.662393333333","25.0633633333333","6501100","汐止區"
"221038","646-BX","2018/04/07 18:49:26","新北市汐止區康寧街901號","121.650715","25.0753183333333","6501100","汐止區"
"221033","647-BX","2018/04/07 18:49:21","新北市汐止區南勢街1巷1號","121.627035","25.0373966666667","6501100","汐止區"
"221002","707-TV","2018/04/07 18:49:20","新北市汐止區大同路一段149號","121.631988333333","25.0560333333333","6501100","汐止區"
"221018","753-BX","2018/04/07 18:49:25","新北市汐止區茄苳路3號","121.66451","25.0709116666667","6501100","汐止區"
"220079","145-BY","2018/04/07 18:49:30","新北市板橋區民權路202巷7弄2-1號","121.460098333333","25.0148133333333","6500100","板橋區"
"220080","200-UY","2018/04/07 18:49:29","新北市板橋區大觀路二段265巷20弄49號","121.441178333333","24.9979383333333","6500100","板橋區"
"220106","KEA-2550","2018/04/07 18:49:11","新北市板橋區民生路二段161巷1號","121.470108333333","25.0199166666667","6500100","板橋區"
"220082","610-BX","2018/04/07 18:49:19","新北市板橋區篤行路三段99號","121.426265","24.9847066666667","6500100","板橋區"
"220103","257-TC","2018/04/07 18:49:28","新北市板橋區民生路二段161巷5號","121.4702","25.0197283333333","6500100","板橋區"
"220091","267-BY","2018/04/07 18:49:25","新北市板橋區民生路二段161巷1號","121.470173333333","25.0200866666667","6500100","板橋區"
"220072","277-BY","2018/04/07 18:49:31","新北市板橋區大觀路三段36巷54弄1號","121.434525","24.9972233333333","6500100","板橋區"
"220063","280-UM","2018/04/07 18:49:30","新北市板橋區民生路二段5號","121.472921666667","25.0157966666667","6500100","板橋區"
"220077","282-UM","2018/04/07 18:49:33","新北市板橋區龍興街95巷1號","121.444","25.00233","6500100","板橋區"
"220071","283-VK","2018/04/07 18:49:24","新北市板橋區忠孝路176巷42號","121.465205","25.0016666666667","6500100","板橋區"
"220094","285-UM","2018/04/07 18:49:20","新北市板橋區民生路二段161巷3號","121.470036666667","25.0197516666667","6500100","板橋區"
"220053","285-VK","2018/04/07 18:49:13","新北市板橋區民生路二段121號","121.470628333333","25.0184483333333","6500100","板橋區"
"220083","286-VK","2018/04/07 18:49:25","新北市板橋區僑中二街10巷38號","121.445475","25.0112966666667","6500100","板橋區"
"220081","287-VK","2018/04/07 18:49:23","新北市板橋區光華街13巷34號","121.453076666667","25.0112883333333","6500100","板橋區"
"220061","293-UM","2018/04/07 18:49:17","新北市板橋區太和街4巷7號","121.474105","25.0199433333333","6500100","板橋區"
"220084","296-UM","2018/04/07 18:49:23","新北市板橋區大觀路二段150巷60號","121.441538333333","25.0005133333333","6500100","板橋區"
"220075","303-R5","2018/04/07 18:49:28","新北市板橋區南雅東路100巷15號","121.453966666667","25.0076833333333","6500100","板橋區"
"220062","305-R5","2018/04/07 18:49:27","新北市板橋區中山路二段25號","121.47253","25.0153366666667","6500100","板橋區"
"220092","307-R5","2018/04/07 18:49:30","新北市板橋區民生路二段120號","121.470433333333","25.0196333333333","6500100","板橋區"
"220098","317-R6","2018/04/07 18:49:17","新北市板橋區民生路二段161巷9號","121.470246666667","25.0196266666667","6500100","板橋區"
"220064","486-VK","2018/04/07 18:49:33","新北市板橋區民生路二段17號","121.472421666667","25.0163866666667","6500100","板橋區"
"220088","491-VK","2018/04/07 18:49:27","新北市板橋區民生路二段161巷1號","121.469965","25.01995","6500100","板橋區"
"220035","560-BX","2018/04/07 18:49:16","新北市板橋區中正路325巷3弄7號","121.453786666667","25.0189383333333","6500100","板橋區"
"220056","568-UM","2018/04/07 18:49:14","新北市土城區四川路6號","121.4557","24.9960916666667","6500100","板橋區"
"220055","630-UY","2018/04/07 18:49:24","新北市板橋區縣民大道一段193號","121.459355","25.0083733333333","6500100","板橋區"
"220057","686-BX","2018/04/07 18:49:18","新北市板橋區南雅西路一段7巷5號","121.45449","25.0038433333333","6500100","板橋區"
"220093","689-BX","2018/04/07 18:49:17","新北市板橋區民生路二段188號","121.470185","25.0202266666667","6500100","板橋區"
"220054","741-BX","2018/04/07 18:49:18","新北市板橋區館前西路19號","121.458748333333","25.0069683333333","6500100","板橋區"
"220102","KEA-2699","2018/04/07 18:49:20","新北市板橋區民生路二段161巷1號","121.470171666667","25.020035","6500100","板橋區"
"220068","830-TW","2018/04/07 18:49:23","新北市板橋區民生路二段121號","121.47077","25.0183583333333","6500100","板橋區"
"220096","831-TW","2018/04/07 18:49:19","新北市板橋區民生路二段161巷9號","121.470295","25.0196733333333","6500100","板橋區"
"220089","833-TW","2018/04/07 18:49:30","新北市板橋區民生路二段161巷1號","121.469958333333","25.0201766666667","6500100","板橋區"
"220074","895-R6","2018/04/07 18:49:16","新北市板橋區館前西路269號","121.453738333333","25.00867","6500100","板橋區"
"220073","985-R7","2018/04/07 18:49:27","新北市板橋區館前西路113號","121.45678","25.0073916666667","6500100","板橋區"
"220070","AAC-253","2018/04/07 18:49:15","新北市板橋區四川路一段131號","121.459871666667","25.0046783333333","6500100","板橋區"
