"lineid","car","time","location","longitude","latitude","cityid","cityname"
"234046","148-BY","2018/04/07 19:49:31","新北市永和區永利路248號","121.524196666667","25.0028966666667","6500400","永和區"
"234070","149-BY","2018/04/07 19:49:27","新北市永和區竹林路117-1號","121.520001666667","25.0115316666667","6500400","永和區"
"234007","207-UY","2018/04/07 19:49:26","新北市中和區中和路232號","121.50677","24.9995066666667","6500400","永和區"
"234081","298-R6","2018/04/07 19:49:35","新北市永和區永亨路114號","121.523768333333","25.0043783333333","6500400","永和區"
"234038","336-UY","2018/04/07 19:49:20","新北市永和區民樂街59巷1號","121.527751666667","24.9984383333333","6500400","永和區"
"234064","337-UY","2018/04/07 19:49:30","新北市永和區中正路368巷12號","121.518245","25.0006866666667","6500400","永和區"
"234086","338-UY","2018/04/07 19:49:35","新北市永和區永亨路156巷4號","121.525503333333","25.003585","6500400","永和區"
"234017","745-BX","2018/04/07 19:49:18","新北市永和區永和路二段299號","121.516016666667","25.0161916666667","6500400","永和區"
"234030","746-BX","2018/04/07 19:49:33","新北市永和區民生路67巷56號","121.525503333333","24.9974633333333","6500400","永和區"
"234054","KEA-2590","2018/04/07 19:49:32","新北市永和區竹林路73號","121.519016666667","25.0132366666667","6500400","永和區"
"234013","KEA-2591","2018/04/07 19:49:31","新北市永和區永平路308號","121.507145","25.0125033333333","6500400","永和區"
"234061","AAD-866","2018/04/07 19:49:31","新北市永和區中正路106號","121.514505","24.9959566666667","6500400","永和區"
"234042","862-TW","2018/04/07 19:49:24","新北市永和區中和路389巷34號","121.508193333333","25.0017983333333","6500400","永和區"
"234050","863-TW","2018/04/07 19:49:16","新北市永和區保安路144號","121.508498333333","25.0148966666667","6500400","永和區"
"234026","9371-KE","2018/04/07 19:49:29","新北市永和區雙和街27號","121.509071666667","25.00218","6500400","永和區"
"234011","9373-KE","2018/04/07 19:49:26","新北市永和區仁愛路335號","121.503065","25.00737","6500400","永和區"
"249001","173-UM","2018/04/07 19:49:17","新北市八里區中華路二段252號","121.405398333333","25.1497016666667","6502300","八里區"
"249004","303-UY","2018/04/07 19:49:24","新北市八里區仁愛路29號","121.412848333333","25.1605833333333","6502300","八里區"
"249002","305-UY","2018/04/07 19:48:29","新北市八里區頂寮三街18號","121.451631666667","25.1257433333333","6502300","八里區"
"249003","593-UM","2018/04/07 19:49:22","新北市八里區中華路二段552號","121.39864","25.14537","6502300","八里區"
"248014","025-BX","2018/04/07 19:49:28","新北市五股區五福路32巷21號","121.434946666667","25.0897416666667","6501500","五股區"
"248008","095-VK","2018/04/07 19:49:37","新北市五股區四維路171巷4號","121.467623333333","25.07517","6501500","五股區"
"248020","225-UY","2018/04/07 19:49:17","新北市五股區中直路35號","121.419766666667","25.1155316666667","6501500","五股區"
"248012","247-BX","2018/04/07 19:49:18","新北市五股區蓬萊路24號","121.433858333333","25.0799283333333","6501500","五股區"
"248010","272-BY","2018/04/07 19:49:20","新北市五股區登林路76-6號","121.430446666667","25.069515","6501500","五股區"
"248004","677-BX","2018/04/07 19:49:25","新北市五股區成泰路一段142-1號","121.435058333333","25.0762016666667","6501500","五股區"
"248002","678-BX","2018/04/07 19:47:52","新北市五股區成泰路四段8號","121.453081666667","25.1065033333333","6501500","五股區"
"234077","969-R7","2018/04/07 19:49:23","新北市永和區中正路242巷2弄1號","121.516868333333","24.9979866666667","6500400","永和區"
"234074","AAC-211","2018/04/07 19:49:15","新北市永和區竹林路215號","121.520923333333","25.0087733333333","6500400","永和區"
"234067","AAC-212","2018/04/07 19:49:20","新北市永和區保平路236巷24弄15號","121.508443333333","25.007015","6500400","永和區"
"234003","AAC-295","2018/04/07 19:49:29","新北市永和區福和路316-1號","121.51601","25.00731","6500400","永和區"
"243012","AAD-798","2018/04/07 19:49:34","新北市泰山區福興一街62號","121.432501666667","25.058075","6501600","泰山區"
"243011","297-R6","2018/04/07 19:49:32","新北市泰山區明志路三段196巷21弄22號","121.422735","25.0385466666667","6501600","泰山區"
"243015","380-SR","2018/04/07 19:49:17","新北市泰山區文程路18巷15號","121.428401666667","25.0487066666667","6501600","泰山區"
"243014","421-VK","2018/04/07 19:49:28","新北市泰山區泰林路二段33-7號","121.435196666667","25.0564616666667","6501600","泰山區"
"243013","539-UM","2018/04/07 19:49:23","新北市泰山區應化街7號","121.423886666667","25.0436916666667","6501600","泰山區"
"243010","KEA-2215","2018/04/07 19:49:32","新北市泰山區民生路20號","121.430546666667","25.0523416666667","6501600","泰山區"
"243009","KEA-2216","2018/04/07 19:49:17","新北市泰山區美寧街60號","121.430961666667","25.064655","6501600","泰山區"
"243016","680-BX","2018/04/07 19:49:26","新北市泰山區新北大道七段97號","121.417888333333","25.031935","6501600","泰山區"
"222003","436-BY","2018/04/07 19:49:26","新北市深坑區深南路51-1號","121.621188333333","25.0098166666667","6501800","深坑區"
"222002","659-BX","2018/04/07 19:49:34","新北市深坑區北深路一段355-1號","121.622873333333","25.0051966666667","6501800","深坑區"
"231059","046-UY","2018/04/07 19:49:31","新北市新店區安和路二段107號","121.518726666667","24.9698316666667","6500600","新店區"
"231040","047-UY","2018/04/07 19:49:29","新北市新店區北新路一段96巷23號","121.543031666667","24.9687066666667","6500600","新店區"
"231044","106-UY","2018/04/07 19:49:31","新北市新店區復興路44-3號","121.538433333333","24.986795","6500600","新店區"
"231052","108-UY","2018/04/07 19:49:24","新北市新店區新烏路三段130號","121.552455","24.9031633333333","6500600","新店區"
"231048","187-VK","2018/04/07 19:49:15","新北市新店區寶興路42巷1號","121.549","24.9731333333333","6500600","新店區"
"231046","188-VK","2018/04/07 19:49:34","新北市新店區三民路159巷19弄31號","121.532215","24.9731383333333","6500600","新店區"
"231054","KEA-2219","2018/04/07 19:49:22","新北市新店區光明街67號","121.538808333333","24.96048","6500600","新店區"
"231057","256-BX","2018/04/07 19:49:30","新北市新店區梅崗三路1號","121.558358333333","24.9312516666667","6500600","新店區"
"231051","278-BY","2018/04/07 19:49:27","新北市新店區中央三街60號","121.526956666667","24.9748616666667","6500600","新店區"
"231050","AAD-862","2018/04/07 19:49:27","新北市新店區北宜路二段435號","121.561113333333","24.9542033333333","6500600","新店區"
"231066","4716-K9","2018/04/07 19:49:31","新北市新店區薏仁坑路6-3號","121.499701666667","24.9587216666667","6500600","新店區"
"231056","4715-K9","2018/04/07 19:49:14","新北市新店區建國路251號","121.537333333333","24.98267","6500600","新店區"
"231067","4772-VM","2018/04/07 19:49:16","新北市新店區秀山路11巷28號","121.53149","24.9585633333333","6500600","新店區"
"231049","513-UM","2018/04/07 19:49:20","新北市新店區民權路100-1號","121.536181666667","24.9833366666667","6500600","新店區"
"231045","617-UM","2018/04/07 19:49:35","新北市新店區中生路61號","121.564675","24.9522983333333","6500600","新店區"
"231041","618-UM","2018/04/07 19:49:27","新北市新店區中正路444號","121.534091666667","24.97843","6500600","新店區"
"231061","619-UM","2018/04/07 19:49:32","新北市新店區安民街141號","121.516506666667","24.96947","6500600","新店區"
"231063","641-BX","2018/04/07 19:49:24","新北市新店區車子路11號","121.503048333333","24.9520583333333","6500600","新店區"
"231042","645-TV","2018/04/07 19:49:24","新北市新店區中興路一段267-4號","121.545096666667","24.9678416666667","6500600","新店區"
"231064","719-UM","2018/04/07 19:49:25","新北市新店區安和路一段52巷2號","121.51761","24.966205","6500600","新店區"
"231065","719-UY","2018/04/07 19:49:20","新北市新店區安祥路147巷12號","121.475393333333","24.9557966666667","6500600","新店區"
"231062","720-UM","2018/04/07 19:49:32","新北市新店區永業路51巷2號","121.531918333333","24.95472","6500600","新店區"
"231060","897-TW","2018/04/07 19:49:29","新北市新店區安康路二段199號","121.509206666667","24.9589216666667","6500600","新店區"
"231043","899-TW","2018/04/07 19:49:20","新北市新店區中正路263-5號","121.538226666667","24.9738583333333","6500600","新店區"
"231055","AKT-0513","2018/04/07 19:49:31","新北市新店區力行路14巷16弄3號","121.53936","24.96559","6500600","新店區"
"241011","013-R5","2018/04/07 19:49:17","新北市三重區介壽路43號","121.498808333333","25.0700783333333","6500200","三重區"
"241028","022-UY","2018/04/07 19:49:17","新北市三重區中正南路163號","121.493836666667","25.056015","6500200","三重區"
"241008","059-VK","2018/04/07 19:49:35","新北市三重區永福街96號","121.478805","25.07597","6500200","三重區"
"241009","060-VK","2018/04/07 19:49:36","新北市三重區三和路四段396巷6號","121.480985","25.07901","6500200","三重區"
"241031","061-VK","2018/04/07 19:49:22","新北市三重區重新路四段248號","121.486055","25.053485","6500200","三重區"
"241015","062-VK","2018/04/07 19:49:35","新北市三重區三和路一段2號","121.50385","25.06426","6500200","三重區"
"241017","063-VK","2018/04/07 19:49:16","新北市三重區重陽路三段5巷6號","121.48935","25.0661316666667","6500200","三重區"
"241024","065-VK","2018/04/07 19:49:34","新北市三重區中正北路193巷35弄19號","121.476931666667","25.0709483333333","6500200","三重區"
"241026","066-VK","2018/04/07 19:49:22","新北市三重區文化南路67號","121.500291666667","25.0608316666667","6500200","三重區"
"241003","091-VK","2018/04/07 19:49:25","新北市三重區五華街93巷21號","121.492496666667","25.0839","6500200","三重區"
"241005","262-UM","2018/04/07 19:49:20","新北市三重區溪尾街317號","121.487755","25.0842083333333","6500200","三重區"
"241016","265-UM","2018/04/07 19:49:31","新北市三重區正義北路48巷44號","121.496193333333","25.0635233333333","6500200","三重區"
"241022","267-UM","2018/04/07 19:49:32","新北市三重區過圳街31巷2號","121.489141666667","25.0605833333333","6500200","三重區"
"241018","268-UM","2018/04/07 19:49:24","新北市三重區雙園街57巷34弄28號","121.49385","25.06816","6500200","三重區"
"241032","269-UM","2018/04/07 19:49:25","新北市三重區重陽路一段44巷7號","121.48609","25.057745","6500200","三重區"
"241013","270-UM","2018/04/07 19:49:25","新北市三重區仁愛街102巷8號","121.494805","25.0738833333333","6500200","三重區"
"241025","271-UM","2018/04/07 19:49:32","新北市三重區忠孝路三段52號","121.480661666667","25.06567","6500200","三重區"
"241007","398-BY","2018/04/07 19:49:25","新北市三重區三和路四段147號","121.484111666667","25.0782933333333","6500200","三重區"
"241035","462-BY","2018/04/07 19:49:27","新北市三重區文化北路10-7號","121.499251666667","25.06348","6500200","三重區"
"241030","480-VK","2018/04/07 19:49:32","新北市三重區環河南路254巷47號","121.488971666667","25.0518033333333","6500200","三重區"
"241014","543-UM","2018/04/07 19:49:27","新北市三重區龍濱路31號","121.502891666667","25.068145","6500200","三重區"
"241023","545-UM","2018/04/07 19:49:15","新北市三重區大有街1-1號","121.47766","25.0654633333333","6500200","三重區"
"241001","547-UM","2018/04/07 19:49:28","新北市三重區仁愛街327巷87號","121.494081666667","25.0806","6500200","三重區"
"241019","KEA-2593","2018/04/07 19:49:23","新北市三重區自強路二段74巷15號","121.488083333333","25.0699933333333","6500200","三重區"
"241006","AAD-863","2018/04/07 19:49:27","新北市三重區力行路二段76巷27號","121.480628333333","25.0735616666667","6500200","三重區"
"241004","887-TS","2018/04/07 19:49:22","新北市三重區五華街74號","121.493258333333","25.0820016666667","6500200","三重區"
"241012","941-UM","2018/04/07 19:49:20","新北市三重區仁興街39巷2號","121.499233333333","25.0758316666667","6500200","三重區"
"241029","942-UM","2018/04/07 19:49:22","新北市三重區光明路23號","121.491175","25.0585883333333","6500200","三重區"
"241033","AAC-255","2018/04/07 19:49:14","新北市三重區中興南街66號","121.470626666667","25.043985","6500200","三重區"
"235066","003-UY","2018/04/07 19:49:17","新北市中和區南工路22巷2號","121.505558333333","25.000635","6500300","中和區"
"235056","096-UM","2018/04/07 19:49:28","新北市中和區中山路三段101號","121.475111666667","25.00606","6500300","中和區"
"235065","098-UM","2018/04/07 19:49:18","新北市中和區莊敬路31巷21號","121.499851666667","25.00543","6500300","中和區"
"235040","150-BY","2018/04/07 19:49:35","新北市中和區安平路59號","121.509558333333","24.9949483333333","6500300","中和區"
"235058","151-BY","2018/04/07 19:49:30","新北市中和區員山路146巷19號","121.482471666667","24.9968366666667","6500300","中和區"
"235055","183-VK","2018/04/07 19:49:29","新北市中和區德光路24號","121.470933333333","25.0043716666667","6500300","中和區"
"235038","185-VK","2018/04/07 19:49:25","新北市中和區自強路20號","121.520225","24.995365","6500300","中和區"
"235049","186-VK","2018/04/07 19:49:23","新北市中和區中興街50號","121.500733333333","24.9945183333333","6500300","中和區"
"235067","255-BX","2018/04/07 19:49:34","新北市中和區新生街220巷1弄15號","121.483463333333","24.9978866666667","6500300","中和區"
"235044","293-VK","2018/04/07 19:49:15","新北市中和區南山路122號","121.5035","24.9931233333333","6500300","中和區"
"235043","352-BY","2018/04/07 19:49:28","新北市中和區興南路二段159巷31號","121.505541666667","24.9826316666667","6500300","中和區"
"235068","377-QA","2018/04/07 19:49:32","新北市中和區莊敬路1-6號","121.499555","25.0043466666667","6500300","中和區"
"235061","378-QA","2018/04/07 19:49:29","新北市中和區員山路174巷18號","121.48205","24.9996983333333","6500300","中和區"
"235050","4979-A6","2018/04/07 19:49:26","新北市中和區景平路241巷82弄33號","121.506525","24.9924216666667","6500300","中和區"
"235069","4980-A6","2018/04/07 19:49:11","新北市中和區中正路637巷60弄61號","121.48541","24.993115","6500300","中和區"
"235042","551-UM","2018/04/07 19:49:14","新北市中和區景安路79巷37弄24號","121.50771","24.9963583333333","6500300","中和區"
"235070","558-UM","2018/04/07 19:49:32","新北市中和區景平路497號","121.499768333333","24.998285","6500300","中和區"
"235045","565-BX","2018/04/07 19:49:34","新北市中和區景平路171號","121.512133333333","24.99253","6500300","中和區"
"235054","640-BX","2018/04/07 19:49:21","新北市中和區莒光路123號","121.472495","25.002135","6500300","中和區"
"235047","732-UM","2018/04/07 19:49:32","新北市中和區和平街23號","121.508081666667","24.9908816666667","6500300","中和區"
"235046","733-UM","2018/04/07 19:49:19","新北市中和區仁愛街36號","121.510978333333","24.9883616666667","6500300","中和區"
"235071","783-BX","2018/04/07 19:49:36","新北市中和區永和路335-1號","121.484991666667","25.011445","6500300","中和區"
"235057","801-TS","2018/04/07 19:49:23","新北市中和區員山路315號","121.481245","25.0004133333333","6500300","中和區"
"235041","802-TS","2018/04/07 19:49:24","新北市中和區永貞路239巷16號","121.512676666667","25.0032716666667","6500300","中和區"
"235048","896-TW","2018/04/07 19:49:29","新北市中和區興南路一段129號","121.508966666667","24.9876733333333","6500300","中和區"
"235053","900-TW","2018/04/07 19:49:22","新北市中和區國光街171巷4號","121.46767","25.0013216666667","6500300","中和區"
"235060","911-UM","2018/04/07 19:49:15","新北市中和區新生街24號","121.483093333333","25.0040233333333","6500300","中和區"
"235051","157-BY","2018/04/07 19:49:28","新北市中和區中興街127號","121.499936666667","24.9917116666667","6500300","中和區"
"235037","AAC-213","2018/04/07 19:49:28","新北市中和區自立路187-1號","121.523885","24.991395","6500300","中和區"
"235059","AAC-215","2018/04/07 19:49:26","新北市中和區圓通路305巷29弄2號","121.495046666667","24.9890466666667","6500300","中和區"
"220065","072-UY","2018/04/07 19:49:36","新北市板橋區長安街57號","121.467068333333","25.0087933333333","6500100","板橋區"
"220086","073-UY","2018/04/07 19:49:33","新北市板橋區中正路1巷4號","121.455661666667","25.0118816666667","6500100","板橋區"
"220067","075-UY","2018/04/07 19:49:26","新北市板橋區漢生東路279巷8號","121.471876666667","25.0091433333333","6500100","板橋區"
"220069","AAD-861","2018/04/07 19:49:15","新北市板橋區貴興路117號","121.455681666667","25.0023216666667","6500100","板橋區"
"247004","337-TH","2018/04/07 19:49:32","新北市蘆洲區長安街225號","121.459388333333","25.0823916666667","6501400","蘆洲區"
"247006","336-TH","2018/04/07 19:49:30","新北市蘆洲區永安南路二段28號","121.467175","25.0771","6501400","蘆洲區"
"247008","056-VK","2018/04/07 19:49:28","新北市蘆洲區中山一路29號","121.479208333333","25.0808416666667","6501400","蘆洲區"
"247014","053-VK","2018/04/07 19:49:16","新北市蘆洲區中央路93號","121.472591666667","25.08419","6501400","蘆洲區"
"247002","002-UY","2018/04/07 19:49:32","新北市蘆洲區永平街24號","121.458915","25.0907166666667","6501400","蘆洲區"
"226004","312-R5","2018/04/07 19:49:34","新北市平溪區石底里公園街18-3號","121.733238333333","25.0258166666667","6502400","平溪區"
"235039","251-BX","2018/04/07 19:49:28","新北市中和區大勇街25巷2號","121.517203333333","24.9933116666667","6500300","中和區"
"228003","097-TW","2018/04/07 19:49:20","新北市貢寮區真理里美艷山街5-1號","121.926563333333","25.0596916666667","6502600","貢寮區"
"228001","212-TW","2018/04/07 19:49:17","新北市貢寮區真理里新港街109號","121.926611666667","25.056715","6502600","貢寮區"
"224010","AGQ-8101","2018/04/07 19:47:14","新北市瑞芳區金光路372號","121.84865","25.1103566666667","6501200","瑞芳區"
"224002","639-TC","2018/04/07 19:49:24","新北市瑞芳區民享新村21號","121.817026666667","25.1057583333333","6501200","瑞芳區"
"224009","273-VK","2018/04/07 19:49:28","新北市瑞芳區靜安路四段5號","121.795723333333","25.078995","6501200","瑞芳區"
"227002","642-TC","2018/04/07 19:49:28","新北市雙溪區雙溪里內挖路47號","121.863275","25.036705","6502500","雙溪區"
"227010","400-TW","2018/04/07 19:49:34","新北市雙溪區新基里自強路7號","121.866208333333","25.0390166666667","6502500","雙溪區"
"222001","KEA-2212","2018/04/07 19:49:08","新北市深坑區北深路三段71號","121.606795","25.001495","6501800","深坑區"
"208002","KEA-2872","2018/04/07 19:49:20","新北市金山區八德街12號","121.634926666667","25.2236716666667","6502700","金山區"
"208003","665-BX","2018/04/07 19:49:27","新北市金山區清泉里清水路60巷1號","121.629513333333","25.2361983333333","6502700","金山區"
"251009","008-UM","2018/04/07 19:49:32","新北市淡水區中正路36號","121.443773333333","25.1692483333333","6501000","淡水區"
"251004","009-UM","2018/04/07 19:49:16","新北市淡水區民權路177巷53號","121.460588333333","25.1339233333333","6501000","淡水區"
"251013","179-VK","2018/04/07 19:49:35","新北市淡水區頂田寮路109號","121.457753333333","25.2161183333333","6501000","淡水區"
"251014","180-VK","2018/04/07 19:49:23","新北市淡水區番社前4-2號","121.472668333333","25.2369283333333","6501000","淡水區"
"251008","181-VK","2018/04/07 19:49:19","新北市淡水區中正路二段24巷2-1號","121.42675","25.1769916666667","6501000","淡水區"
"251015","182-VK","2018/04/07 19:49:35","新北市淡水區泉洲厝25-5號","121.484326666667","25.18981","6501000","淡水區"
"251012","441-VK","2018/04/07 19:49:32","新北市淡水區中山北路三段164號","121.446021666667","25.1967166666667","6501000","淡水區"
"251016","442-VK","2018/04/07 19:49:35","新北市淡水區下圭柔山121-12號","121.45552","25.2090133333333","6501000","淡水區"
"251005","443-VK","2018/04/07 19:49:30","新北市淡水區中正東路17號","121.44558","25.16837","6501000","淡水區"
"251001","559-UM","2018/04/07 19:49:20","新北市淡水區中正東路二段37號","121.459266666667","25.1561616666667","6501000","淡水區"
"251006","561-UM","2018/04/07 19:49:19","新北市淡水區水碓街15號","121.4435","25.176965","6501000","淡水區"
"251011","650-BX","2018/04/07 19:49:22","新北市淡水區淡金路二段365號","121.447143333333","25.18545","6501000","淡水區"
"251002","672-BX","2018/04/07 19:49:14","新北市淡水區新市二路三段16號","121.43182","25.1941566666667","6501000","淡水區"
"207003","550-UM","2018/04/07 19:49:07","新北市萬里區大鵬里萬里加投68號","121.642506666667","25.214805","6502800","萬里區"
"207004","225-TW","2018/04/07 19:49:28","新北市萬里區萬里里瑪鋉路221號","121.689715","25.1798633333333","6502800","萬里區"
"252002","178-VK","2018/04/07 19:49:15","新北市三芝區三民街33-1號","121.504608333333","25.25856","6502100","三芝區"
"252001","292-VK","2018/04/07 19:49:30","新北市三芝區公正街9號","121.499733333333","25.257475","6502100","三芝區"
"237004","KEA-2597","2018/04/07 19:49:25","新北市三峽區添福26-1號","121.375803333333","24.8974233333333","6500900","三峽區"
"237007","153-BY","2018/04/07 19:49:17","新北市三峽區麻園14-1號","121.3629","24.9148116666667","6500900","三峽區"
"237009","210-TH","2018/04/07 19:49:29","新北市三峽區民族街78巷2弄10號","121.36831","24.93006","6500900","三峽區"
"237013","252-BX","2018/04/07 19:49:26","新北市三峽區介壽路二段165號","121.394131666667","24.935965","6500900","三峽區"
"237012","275-BY","2018/04/07 19:49:17","新北市三峽區光明路1-11號","121.372776666667","24.9321833333333","6500900","三峽區"
"237008","302-VK","2018/04/07 19:49:34","新北市三峽區中華路46-8號","121.371846666667","24.9302733333333","6500900","三峽區"
"237014","433-BY","2018/04/07 19:49:27","新北市三峽區介壽路一段1號","121.375308333333","24.9340033333333","6500900","三峽區"
"237006","5529-G3","2018/04/07 19:49:30","新北市三峽區中正路一段336巷15弄2號","121.369948333333","24.9249533333333","6500900","三峽區"
"237005","AKY-6261","2018/04/07 19:49:19","新北市三峽區長泰街92號","121.376223333333","24.9331883333333","6500900","三峽區"
"236070","105-UM","2018/04/07 19:49:25","新北市土城區水源街5號","121.441331666667","24.9749733333333","6501300","土城區"
"236079","166-UM","2018/04/07 19:49:33","新北市土城區溪頭路73號","121.411488333333","24.9543733333333","6501300","土城區"
"236030","253-BX","2018/04/07 19:49:29","新北市土城區中央路一段286號","121.443561666667","24.9824133333333","6501300","土城區"
"236026","269-VK","2018/04/07 19:49:29","新北市土城區員林街75號","121.444731666667","24.9771616666667","6501300","土城區"
"236038","271-VK","2018/04/07 19:49:18","新北市土城區國際路158巷49號","121.468205","24.9753583333333","6501300","土城區"
"236021","401-BY","2018/04/07 19:49:28","新北市土城區延吉街137巷12弄3號","121.470761666667","24.9854766666667","6501300","土城區"
"236059","912-UM","2018/04/07 19:49:31","新北市土城區中央路一段232號","121.444733333333","24.9851266666667","6501300","土城區"
"236049","913-UM","2018/04/07 19:49:28","新北市土城區青雲路303號","121.459003333333","24.9794016666667","6501300","土城區"
"236063","915-UM","2018/04/07 19:49:21","新北市土城區延和路105巷8弄2號","121.467361666667","24.99124","6501300","土城區"
"236055","AAC-216","2018/04/07 19:49:25","新北市土城區延和路148號","121.467818333333","24.9902016666667","6501300","土城區"
"242034","AAC-296","2018/04/07 19:49:24","新北市新莊區仁愛街59號","121.444298333333","25.0373133333333","6500500","新莊區"
"242058","986-R7","2018/04/07 19:49:31","新北市新莊區民安路282號","121.427816666667","25.0215516666667","6500500","新莊區"
"242029","705-TV","2018/04/07 19:49:25","新北市新莊區中平路361號","121.444718333333","25.0518533333333","6500500","新莊區"
"242025","613-BX","2018/04/07 19:49:24","新北市新莊區五權一路12巷21弄15號","121.45797","25.0649583333333","6500500","新莊區"
"242046","497-BY","2018/04/07 19:49:23","新北市新莊區裕民街19巷4號","121.41969","25.025205","6500500","新莊區"
"242004","442-UM","2018/04/07 19:49:24","新北市新莊區化成路63巷24弄49號","121.461846666667","25.04591","6500500","新莊區"
"242036","415-TV","2018/04/07 19:49:35","新北市新莊區建安街99號","121.426771666667","25.0243016666667","6500500","新莊區"
"242023","362-BY","2018/04/07 19:49:21","新北市新莊區化成路69號","121.465511666667","25.0458816666667","6500500","新莊區"
"242048","172-VK","2018/04/07 19:49:21","新北市新莊區建安街92巷9號","121.425825","25.0241916666667","6500500","新莊區"
"242011","173-VK","2018/04/07 19:49:15","新北市新莊區中信街120號","121.447838333333","25.0541266666667","6500500","新莊區"
"242021","348-TH","2018/04/07 19:49:30","新北市新莊區建中街50號","121.448503333333","25.0373","6500500","新莊區"
"242019","350-TH","2018/04/07 19:49:22","新北市新莊區中華路一段118號","121.452581666667","25.0405483333333","6500500","新莊區"
"242013","351-TH","2018/04/07 19:49:23","新北市新莊區中誠街67號","121.450681666667","25.0478516666667","6500500","新莊區"
"238015","755-BX","2018/04/07 19:49:25","新北市樹林區中山路二段166號","121.412111666667","24.982735","6500700","樹林區"
"238023","601-UM","2018/04/07 19:49:15","新北市樹林區三福街114號","121.406531666667","25.0162466666667","6500700","樹林區"
"238019","599-UM","2018/04/07 19:49:15","新北市樹林區東榮街90號","121.415968333333","24.9826283333333","6500700","樹林區"
"238021","KEA-2539","2018/04/07 19:49:21","新北市樹林區佳園路三段147號","121.385988333333","24.9493166666667","6500700","樹林區"
"238014","282-BY","2018/04/07 19:49:22","新北市樹林區千歲街68號","121.426201666667","24.9975116666667","6500700","樹林區"
"239006","891-R6","2018/04/07 19:49:32","新北市鶯歌區文化路89號","121.357478333333","24.95533","6500800","鶯歌區"
"221036","130-UY","2018/04/07 19:49:31","新北市汐止區秀峰路9號","121.659211666667","25.0663733333333","6501100","汐止區"
"221015","131-UY","2018/04/07 19:49:16","新北市汐止區大同路二段535號","121.661958333333","25.0691","6501100","汐止區"
"221010","269-BY","2018/04/07 19:49:18","新北市汐止區連峰街187號","121.645843333333","25.08066","6501100","汐止區"
"221018","277-VK","2018/04/07 19:49:30","新北市汐止區福德二路54巷2弄2號","121.633966666667","25.0673716666667","6501100","汐止區"
"221012","278-VK","2018/04/07 19:49:18","新北市汐止區大同路三段408號","121.682026666667","25.0719033333333","6501100","汐止區"
"221023","279-VK","2018/04/07 19:49:32","新北市汐止區明峰街149號","121.629421666667","25.0704883333333","6501100","汐止區"
"221032","280-BY","2018/04/07 19:49:26","新北市汐止區橫科路119號","121.619905","25.0503283333333","6501100","汐止區"
"221027","281-BY","2018/04/07 19:49:34","新北市汐止區中正路7號","121.663083333333","25.070065","6501100","汐止區"
"221029","298-VK","2018/04/07 19:48:35","新北市汐止區康寧街901號","121.651491666667","25.074965","6501100","汐止區"
"221021","299-VK","2018/04/07 19:49:22","新北市汐止區青山路41-1號","121.656618333333","25.061285","6501100","汐止區"
"221008","129-UY","2018/04/07 19:49:21","新北市汐止區康寧街39號","121.61859","25.0668116666667","6501100","汐止區"
"221035","622-UM","2018/04/07 19:49:22","新北市汐止區長江街13巷6弄1號","121.6547","25.071655","6501100","汐止區"
"221025","623-UM","2018/04/07 19:49:33","新北市汐止區秀峰路81巷34號","121.661251666667","25.0646083333333","6501100","汐止區"
"221038","646-BX","2018/04/07 19:49:26","新北市汐止區忠孝東路428號","121.666011666667","25.0720033333333","6501100","汐止區"
"221033","647-BX","2018/04/07 19:49:21","新北市汐止區東勢街76巷100-1號","121.636375","25.03889","6501100","汐止區"
"221002","707-TV","2018/04/07 19:49:20","新北市汐止區大同路一段219巷26號","121.633215","25.0584983333333","6501100","汐止區"
"220079","145-BY","2018/04/07 19:49:30","新北市板橋區大仁街49號","121.454783333333","25.016435","6500100","板橋區"
"220080","200-UY","2018/04/07 19:49:29","新北市板橋區大觀路二段35號","121.446806666667","25.0029466666667","6500100","板橋區"
"220106","KEA-2550","2018/04/07 19:49:31","新北市板橋區民治街61巷27號","121.480496666667","25.0336116666667","6500100","板橋區"
"220082","610-BX","2018/04/07 19:49:20","新北市板橋區篤行路二段128-3號","121.43112","24.9906383333333","6500100","板橋區"
"220101","245-BX","2018/04/07 19:49:19","新北市板橋區縣民大道三段93巷3號","121.475493333333","25.0219916666667","6500100","板橋區"
"220103","257-TC","2018/04/07 19:49:34","新北市板橋區陽明街29巷15號","121.464661666667","25.02202","6500100","板橋區"
"220091","267-BY","2018/04/07 19:49:25","新北市板橋區文聖街149巷32號","121.479865","25.0287733333333","6500100","板橋區"
"220072","277-BY","2018/04/07 19:49:16","新北市板橋區金門街151巷3弄1號","121.433031666667","24.99052","6500100","板橋區"
"220063","280-UM","2018/04/07 19:49:30","新北市板橋區三民路一段22號","121.478885","25.0232933333333","6500100","板橋區"
"220077","282-UM","2018/04/07 19:49:33","新北市板橋區僑中一街124巷23號","121.446306666667","25.0145033333333","6500100","板橋區"
"220071","283-VK","2018/04/07 19:49:24","新北市板橋區五權街32巷22號","121.464096666667","24.99286","6500100","板橋區"
"220094","285-UM","2018/04/07 19:49:20","新北市板橋區長江路一段112號","121.459816666667","25.0296783333333","6500100","板橋區"
"220053","285-VK","2018/04/07 19:49:33","新北市板橋區中山路二段60巷1弄28號","121.47526","25.01581","6500100","板橋區"
"220083","286-VK","2018/04/07 19:49:25","新北市板橋區僑中二街8巷33號","121.445556666667","25.0114183333333","6500100","板橋區"
"220081","287-VK","2018/04/07 19:49:23","新北市板橋區大觀路一段27號","121.450041666667","25.0084316666667","6500100","板橋區"
"220090","288-VK","2018/04/07 19:49:17","新北市板橋區龍泉街54巷7弄7號","121.45659","25.02643","6500100","板橋區"
"220061","293-UM","2018/04/07 19:49:17","新北市板橋區觀光街33巷2-1號","121.47122","25.016015","6500100","板橋區"
"220084","296-UM","2018/04/07 19:49:23","新北市板橋區溪崑二街92巷9號","121.426143333333","24.9896733333333","6500100","板橋區"
"220075","303-R5","2018/04/07 19:49:28","新北市板橋區金華街10巷48弄56號","121.459053333333","25.020115","6500100","板橋區"
"220062","305-R5","2018/04/07 19:49:26","新北市板橋區中山路二段416巷54弄11號","121.482393333333","25.0193116666667","6500100","板橋區"
"220092","307-R5","2018/04/07 19:49:30","新北市板橋區四維路259巷18號","121.462553333333","25.02781","6500100","板橋區"
"220098","317-R6","2018/04/07 19:49:17","新北市板橋區裕民街151號","121.458535","25.02711","6500100","板橋區"
"220064","486-VK","2018/04/07 19:49:14","新北市板橋區區運路45號","121.466503333333","25.0104316666667","6500100","板橋區"
"242031","280-VK","2018/04/07 19:49:23","新北市新莊區忠孝街50號","121.443965","25.0359416666667","6500500","新莊區"
"220088","491-VK","2018/04/07 19:49:27","新北市板橋區仁化街92號","121.476531666667","25.032065","6500100","板橋區"
"220035","560-BX","2018/04/07 19:49:17","新北市板橋區新生街29巷15弄2號","121.456613333333","25.0220783333333","6500100","板橋區"
"220056","568-UM","2018/04/07 19:49:14","新北市板橋區四川路二段60號","121.452676666667","24.99487","6500100","板橋區"
"220055","630-UY","2018/04/07 19:49:24","新北市板橋區國慶路167巷35號","121.461498333333","24.9980733333333","6500100","板橋區"
"220057","686-BX","2018/04/07 19:49:29","新北市板橋區四川路一段338號","121.456718333333","24.996735","6500100","板橋區"
"220093","689-BX","2018/04/07 19:49:28","新北市板橋區長江路二段273巷1號","121.469796666667","25.0331283333333","6500100","板橋區"
"220054","741-BX","2018/04/07 19:49:18","新北市板橋區國泰街75巷28弄84-3號","121.467196666667","25.00416","6500100","板橋區"
"220102","KEA-2699","2018/04/07 19:49:24","新北市板橋區雙十路二段46巷45號","121.475816666667","25.029265","6500100","板橋區"
"220068","830-TW","2018/04/07 19:49:23","新北市板橋區光復街133巷9號","121.484848333333","25.0198416666667","6500100","板橋區"
"220096","831-TW","2018/04/07 19:49:26","新北市板橋區文化路二段124巷34弄2號","121.471228333333","25.0252816666667","6500100","板橋區"
"220089","833-TW","2018/04/07 19:49:29","新北市板橋區龍泉街82巷11-4號","121.455836666667","25.0254833333333","6500100","板橋區"
"220074","895-R6","2018/04/07 19:49:16","新北市板橋區府中路29-2號","121.458523333333","25.0080066666667","6500100","板橋區"
"220073","985-R7","2018/04/07 19:49:27","新北市板橋區大仁街55號","121.45454","25.016335","6500100","板橋區"
"220097","AAC-210","2018/04/07 19:49:31","新北市板橋區漢生西路58巷1弄1號","121.463366666667","25.0190083333333","6500100","板橋區"
"220070","AAC-253","2018/04/07 19:49:15","新北市板橋區成都街89號","121.46296","25.0051716666667","6500100","板橋區"
