"lineid","car","time","location","longitude","latitude","cityid","cityname"
"234046","148-BY","2018/04/07 20:09:31","新北市永和區得和路330號","121.523286666667","24.99939","6500400","永和區"
"234070","149-BY","2018/04/07 20:09:27","新北市永和區福和路175號","121.519988333333","25.007485","6500400","永和區"
"234007","207-UY","2018/04/07 20:09:26","新北市永和區保順路37巷3號","121.503238333333","25.0102633333333","6500400","永和區"
"234081","298-R6","2018/04/07 20:09:26","新北市永和區永亨路107號","121.52342","25.0048733333333","6500400","永和區"
"234038","336-UY","2018/04/07 20:09:20","新北市永和區環河東路三段96號","121.528058333333","25.003995","6500400","永和區"
"234064","337-UY","2018/04/07 20:09:21","新北市永和區秀朗路二段43號","121.521528333333","25.0023983333333","6500400","永和區"
"234086","338-UY","2018/04/07 19:54:53","新北市永和區福和路1號","121.526385","25.0097783333333","6500400","永和區"
"234086","553-UM","2018/04/07 20:09:35","新北市永和區永亨路107號","121.523425","25.004705","6500400","永和區"
"234017","745-BX","2018/04/07 20:09:18","新北市永和區文化路49號","121.514368333333","25.0150933333333","6500400","永和區"
"234030","746-BX","2018/04/07 20:09:33","新北市永和區民權路49巷28號","121.521515","24.9973983333333","6500400","永和區"
"234054","KEA-2590","2018/04/07 20:09:32","新北市永和區博愛街15號","121.517153333333","25.0157833333333","6500400","永和區"
"234013","KEA-2591","2018/04/07 20:09:31","新北市永和區永貞路387號","121.508076666667","25.008745","6500400","永和區"
"234061","AAD-866","2018/04/07 20:09:36","新北市永和區中正路131號","121.51574","24.998045","6500400","永和區"
"234042","862-TW","2018/04/07 20:09:34","新北市永和區雙和街43號","121.508918333333","25.0028466666667","6500400","永和區"
"234050","863-TW","2018/04/07 20:09:22","新北市永和區新生路182巷1號","121.506021666667","25.0137883333333","6500400","永和區"
"234011","9373-KE","2018/04/07 20:09:26","新北市永和區環河西路二段245-1號","121.500593333333","25.00914","6500400","永和區"
"249005","172-UM","2018/04/07 20:09:27","新北市八里區下罟子60-8號","121.387568333333","25.1368216666667","6502300","八里區"
"249001","173-UM","2018/04/07 20:09:24","新北市八里區中華路二段318號","121.403513333333","25.1481633333333","6502300","八里區"
"249004","303-UY","2018/04/07 20:09:24","新北市八里區中山路一段418-7號","121.410746666667","25.1583883333333","6502300","八里區"
"249002","305-UY","2018/04/07 20:09:29","新北市八里區龍米路一段3-6號","121.457483333333","25.1174683333333","6502300","八里區"
"249003","593-UM","2018/04/07 20:09:22","新北市八里區中山路二段540巷9弄27號","121.396441666667","25.1465166666667","6502300","八里區"
"248014","025-BX","2018/04/07 20:09:28","新北市五股區成泰路三段358號","121.451186666667","25.0977166666667","6501500","五股區"
"248008","095-VK","2018/04/07 20:09:16","新北市五股區中興路一段1巷13號","121.469633333333","25.0714283333333","6501500","五股區"
"248020","225-UY","2018/04/07 20:09:16","新北市五股區凌雲路二段14號","121.445608333333","25.1024416666667","6501500","五股區"
"248012","247-BX","2018/04/07 20:09:18","新北市五股區六合街118號","121.430278333333","25.0908066666667","6501500","五股區"
"248010","272-BY","2018/04/07 20:09:20","新北市五股區成泰路一段7巷11號","121.433061666667","25.0667633333333","6501500","五股區"
"248004","677-BX","2018/04/07 20:09:21","新北市五股區成泰路一段173-1號","121.4352","25.0746833333333","6501500","五股區"
"248002","678-BX","2018/04/07 20:09:36","新北市五股區成泰路三段277號","121.447161666667","25.0940766666667","6501500","五股區"
"234023","9380-KE","2018/04/07 20:09:18","新北市永和區中正路700號","121.516338333333","25.0098916666667","6500400","永和區"
"234077","969-R7","2018/04/07 20:09:23","新北市永和區民光街34號","121.516636666667","24.9957366666667","6500400","永和區"
"234074","AAC-211","2018/04/07 20:09:15","新北市永和區豫溪街134號","121.520988333333","25.01033","6500400","永和區"
"234067","AAC-212","2018/04/07 20:09:20","新北市永和區保平路214巷3弄2號","121.509303333333","25.0063983333333","6500400","永和區"
"234003","AAC-295","2018/04/07 20:09:29","新北市永和區中正路605號","121.516311666667","25.0097266666667","6500400","永和區"
"243012","AAD-798","2018/04/07 20:09:14","新北市泰山區楓江路95號","121.437841666667","25.0637516666667","6501600","泰山區"
"243011","297-R6","2018/04/07 20:09:32","新北市新莊區丹鳳街34號","121.421606666667","25.029535","6501600","泰山區"
"243015","380-SR","2018/04/07 20:09:17","新北市泰山區明志路二段96號","121.428148333333","25.051995","6501600","泰山區"
"243014","421-VK","2018/04/07 20:09:28","新北市泰山區明志路一段52號","121.433433333333","25.06493","6501600","泰山區"
"243013","539-UM","2018/04/07 20:09:21","新北市泰山區明志路三段76號","121.424865","25.0417566666667","6501600","泰山區"
"243010","KEA-2215","2018/04/07 20:09:32","新北市泰山區明志路二段136巷48號","121.426136666667","25.0520433333333","6501600","泰山區"
"243009","KEA-2216","2018/04/07 20:09:17","新北市泰山區泰林路二段116巷4弄1號","121.435248333333","25.0596016666667","6501600","泰山區"
"243016","680-BX","2018/04/07 20:09:26","新北市泰山區貴陽街4號","121.421431666667","25.0332366666667","6501600","泰山區"
"222003","436-BY","2018/04/07 20:09:26","新北市深坑區埔新街65號","121.620206666667","25.0023533333333","6501800","深坑區"
"222002","659-BX","2018/04/07 20:09:26","新北市深坑區北深路三段153號","121.60263","25.0032133333333","6501800","深坑區"
"231059","046-UY","2018/04/07 20:09:31","新北市新店區安德街49號","121.511043333333","24.9622566666667","6500600","新店區"
"231040","047-UY","2018/04/07 20:09:29","新北市新店區中正路106號","121.54313","24.9706083333333","6500600","新店區"
"231044","106-UY","2018/04/07 20:09:31","新北市新店區寶元路一段15巷11號","121.541971666667","24.9871033333333","6500600","新店區"
"231052","108-UY","2018/04/07 20:09:24","新北市新店區新烏路三段141號","121.551238333333","24.9019116666667","6500600","新店區"
"231048","187-VK","2018/04/07 20:09:35","新北市新店區寶橋路59-1號","121.54511","24.9750666666667","6500600","新店區"
"231054","KEA-2219","2018/04/07 20:09:22","新北市新店區檳榔路21號","121.541536666667","24.96382","6500600","新店區"
"231057","256-BX","2018/04/07 20:09:30","新北市新店區花園一路一段2號","121.553121666667","24.932415","6500600","新店區"
"231051","278-BY","2018/04/07 20:09:27","新北市新店區中央五街5號","121.5302","24.9742283333333","6500600","新店區"
"231050","AAD-862","2018/04/07 20:09:27","新北市新店區北新路一段72號","121.5413","24.9670183333333","6500600","新店區"
"231066","4716-K9","2018/04/07 20:09:31","新北市新店區安民街189號","121.516808333333","24.970875","6500600","新店區"
"231056","4715-K9","2018/04/07 20:09:14","新北市新店區北新路二段29巷3弄1號","121.54219","24.9729683333333","6500600","新店區"
"231067","4772-VM","2018/04/07 20:09:16","新北市新店區溪洲路6巷88號","121.533146666667","24.9640116666667","6500600","新店區"
"231049","513-UM","2018/04/07 20:09:37","新北市新店區北新路二段97巷8號","121.542208333333","24.97446","6500600","新店區"
"231045","617-UM","2018/04/07 20:09:35","新北市新店區北宜路一段136號","121.539686666667","24.9548583333333","6500600","新店區"
"231041","618-UM","2018/04/07 20:09:27","新北市新店區中正路460號","121.533995","24.97936","6500600","新店區"
"231061","619-UM","2018/04/07 20:09:32","新北市新店區安民街379巷16號","121.515533333333","24.97663","6500600","新店區"
"231063","641-BX","2018/04/07 20:09:24","新北市新店區黎明路53巷1號","121.502328333333","24.9487683333333","6500600","新店區"
"231042","645-TV","2018/04/07 20:09:24","新北市新店區中興路一段308號","121.5466","24.9698783333333","6500600","新店區"
"231068","718-UY","2018/04/07 20:09:23","新北市新店區寶中路45號","121.545253333333","24.9790383333333","6500600","新店區"
"231064","719-UM","2018/04/07 20:09:25","新北市新店區安光路10-1號","121.513535","24.9640883333333","6500600","新店區"
"231065","719-UY","2018/04/07 20:09:20","新北市新店區安祥路109巷1弄81號","121.478536666667","24.960505","6500600","新店區"
"231062","720-UM","2018/04/07 20:09:32","新北市新店區安康路二段99號","121.512915","24.9626183333333","6500600","新店區"
"231060","897-TW","2018/04/07 20:09:29","新北市新店區安康路三段381號","121.483516666667","24.95029","6500600","新店區"
"231043","899-TW","2018/04/07 20:09:25","新北市新店區民族路172號","121.537276666667","24.9764383333333","6500600","新店區"
"231055","AKT-0513","2018/04/07 20:09:31","新北市新店區中華路42巷7號","121.540276666667","24.9685916666667","6500600","新店區"
"241011","013-R5","2018/04/07 20:09:17","新北市三重區仁愛街32號","121.496385","25.0717733333333","6500200","三重區"
"241028","022-UY","2018/04/07 20:09:37","新北市三重區仁化街137號","121.494651666667","25.0575016666667","6500200","三重區"
"241008","059-VK","2018/04/07 20:09:17","新北市三重區永福街197巷15號","121.47904","25.0744183333333","6500200","三重區"
"241009","060-VK","2018/04/07 20:09:15","新北市三重區永福街119號","121.479131666667","25.0770566666667","6500200","三重區"
"241031","061-VK","2018/04/07 20:09:22","新北市三重區過圳街9-1號","121.488788333333","25.0601466666667","6500200","三重區"
"241015","062-VK","2018/04/07 20:09:15","新北市三重區福德北路24號","121.502218333333","25.0649033333333","6500200","三重區"
"241017","063-VK","2018/04/07 20:09:36","新北市三重區長壽西街187號","121.492271666667","25.066415","6500200","三重區"
"241024","065-VK","2018/04/07 20:09:15","新北市三重區中正北路284號","121.480501666667","25.0686166666667","6500200","三重區"
"241026","066-VK","2018/04/07 20:09:22","新北市三重區中央南路109號","121.50141","25.0601616666667","6500200","三重區"
"241002","090-VK","2018/04/07 20:09:18","新北市三重區仁義街210號","121.496305","25.0823016666667","6500200","三重區"
"241003","091-VK","2018/04/07 20:09:24","新北市三重區仁愛街472號","121.48967","25.08244","6500200","三重區"
"241005","262-UM","2018/04/07 20:09:20","新北市三重區碧華街294巷14號","121.489015","25.084285","6500200","三重區"
"241016","265-UM","2018/04/07 20:09:31","新北市三重區大同北路54巷1號","121.494298333333","25.0635283333333","6500200","三重區"
"241022","267-UM","2018/04/07 20:09:32","新北市三重區新北大道一段66號","121.487255","25.0614116666667","6500200","三重區"
"241018","268-UM","2018/04/07 20:09:24","新北市三重區雙園街64號","121.495793333333","25.067615","6500200","三重區"
"241032","269-UM","2018/04/07 20:09:25","新北市三重區捷運路65號","121.483395","25.05562","6500200","三重區"
"241013","270-UM","2018/04/07 20:09:25","新北市三重區三和路三段125巷28號","121.493626666667","25.0738283333333","6500200","三重區"
"241025","271-UM","2018/04/07 20:09:32","新北市三重區中正北路235號","121.475778333333","25.0707666666667","6500200","三重區"
"241007","398-BY","2018/04/07 20:09:25","新北市三重區三和路四段111-33號","121.486333333333","25.077445","6500200","三重區"
"241035","462-BY","2018/04/07 20:09:27","新北市三重區平安街20號","121.498596666667","25.0642483333333","6500200","三重區"
"241030","480-VK","2018/04/07 20:09:32","新北市三重區成功路145巷35號","121.487795","25.0531816666667","6500200","三重區"
"241014","543-UM","2018/04/07 20:09:27","新北市三重區長樂街84號","121.501185","25.0694416666667","6500200","三重區"
"241023","545-UM","2018/04/07 20:09:15","新北市三重區頂崁街218號","121.477021666667","25.068035","6500200","三重區"
"241001","547-UM","2018/04/07 20:09:31","新北市三重區溪尾街24-1號","121.490938333333","25.0763333333333","6500200","三重區"
"241019","KEA-2593","2018/04/07 20:09:23","新北市三重區自強路二段33巷26號","121.490178333333","25.0698366666667","6500200","三重區"
"241006","AAD-863","2018/04/07 20:09:27","新北市三重區車路頭街148號","121.483926666667","25.0760466666667","6500200","三重區"
"241004","887-TS","2018/04/07 20:09:32","新北市三重區自強路四段93號","121.491463333333","25.0796933333333","6500200","三重區"
"241012","941-UM","2018/04/07 20:09:20","新北市三重區河邊北街379-1號","121.501686666667","25.0765666666667","6500200","三重區"
"241029","942-UM","2018/04/07 20:09:22","新北市三重區光明路32巷23弄1號","121.492003333333","25.0587","6500200","三重區"
"241033","AAC-255","2018/04/07 20:09:34","新北市三重區光復路一段61巷12號","121.472805","25.049355","6500200","三重區"
"235066","003-UY","2018/04/07 20:09:17","新北市中和區水源路127巷2弄2號","121.50809","25.0040883333333","6500300","中和區"
"235065","098-UM","2018/04/07 20:09:21","新北市中和區永和路39巷4號","121.497951666667","25.0050483333333","6500300","中和區"
"235040","150-BY","2018/04/07 20:09:35","新北市中和區宜安路119巷16號","121.509681666667","24.9977283333333","6500300","中和區"
"235068","377-QA","2018/04/07 20:06:12","新北市中和區福美路301巷42號","121.497773333333","25.0035016666667","6500300","中和區"
"235050","4979-A6","2018/04/07 20:09:26","新北市中和區景新街323-1號","121.511335","24.9922033333333","6500300","中和區"
"235069","4980-A6","2018/04/07 20:09:31","新北市中和區景新街64巷7弄17號","121.504575","24.998555","6500300","中和區"
"235042","551-UM","2018/04/07 20:09:14","新北市中和區中正路586號","121.485911666667","24.9948366666667","6500300","中和區"
"235070","558-UM","2018/04/07 20:05:32","新北市中和區中正路352號","121.49392","24.9940683333333","6500300","中和區"
"235046","733-UM","2018/04/07 20:09:19","新北市中和區忠孝街39-2號","121.511635","24.983805","6500300","中和區"
"235026","800-TS","2018/04/07 20:00:52","新北市中和區員山路36巷16-3號","121.484835","24.9917566666667","6500300","中和區"
"235051","157-BY","2018/04/07 20:09:28","新北市中和區景安路220巷4弄1號","121.503263333333","24.99102","6500300","中和區"
"235037","AAC-213","2018/04/07 20:09:28","新北市中和區自立路56巷1號","121.523476666667","24.9917833333333","6500300","中和區"
"235059","AAC-215","2018/04/07 20:09:26","新北市中和區圓通路367巷13弄31號","121.493326666667","24.9881","6500300","中和區"
"220086","073-UY","2018/04/07 20:09:33","新北市五股區新五路三段38號","121.444323333333","25.08766","6500100","板橋區"
"220067","075-UY","2018/04/07 20:09:26","新北市板橋區漢生東路193巷75號","121.472543333333","25.0118166666667","6500100","板橋區"
"220069","AAD-861","2018/04/07 20:09:35","新北市板橋區貴興路117號","121.455658333333","25.0024266666667","6500100","板橋區"
"247024","893-R6","2018/04/07 20:09:17","新北市蘆洲區光榮路120巷8弄21號","121.46513","25.08821","6501400","蘆洲區"
"247022","500-BY","2018/04/07 20:09:20","新北市蘆洲區三民路193號","121.470651666667","25.0875133333333","6501400","蘆洲區"
"247010","341-TH","2018/04/07 20:09:28","新北市蘆洲區集賢路406號","121.480148333333","25.081885","6501400","蘆洲區"
"247012","339-TH","2018/04/07 20:09:33","新北市蘆洲區民族路252-1號","121.47918","25.0887583333333","6501400","蘆洲區"
"247004","337-TH","2018/04/07 20:09:32","新北市蘆洲區永安南路二段328巷17弄11號","121.456073333333","25.0837916666667","6501400","蘆洲區"
"247006","336-TH","2018/04/07 20:09:30","新北市蘆洲區中山二路300巷1號","121.468685","25.0769066666667","6501400","蘆洲區"
"247018","057-VK","2018/04/07 20:09:32","新北市蘆洲區民族路290巷1號","121.478038333333","25.0897866666667","6501400","蘆洲區"
"247008","056-VK","2018/04/07 20:09:28","新北市蘆洲區中山一路195號","121.474411666667","25.0811216666667","6501400","蘆洲區"
"247014","053-VK","2018/04/07 20:09:16","新北市蘆洲區和平路64號","121.469971666667","25.0794766666667","6501400","蘆洲區"
"247016","007-UY","2018/04/07 20:09:20","新北市蘆洲區光華路130號","121.466466666667","25.0824366666667","6501400","蘆洲區"
"247002","002-UY","2018/04/07 20:09:32","新北市蘆洲區永康街2巷27號","121.459103333333","25.0864266666667","6501400","蘆洲區"
"247020","001-UY","2018/04/07 20:09:15","新北市蘆洲區民權路106巷5弄2-1號","121.474385","25.089135","6501400","蘆洲區"
"235039","251-BX","2018/04/07 20:09:28","新北市中和區大勇街27巷24號","121.516275","24.9939533333333","6500300","中和區"
"224010","AGQ-8101","2018/04/07 20:09:21","新北市瑞芳區基山街265號","121.841176666667","25.1074716666667","6501200","瑞芳區"
"224009","273-VK","2018/04/07 20:09:28","新北市瑞芳區靜安路四段2巷1號","121.794838333333","25.0845166666667","6501200","瑞芳區"
"222001","KEA-2212","2018/04/07 20:09:25","新北市深坑區北深路三段210號","121.601211666667","25.0038016666667","6501800","深坑區"
"208002","KEA-2872","2018/04/07 20:09:20","新北市金山區環金路462號","121.630105","25.22479","6502700","金山區"
"208003","665-BX","2018/04/07 20:09:27","新北市金山區海興路107號","121.63366","25.242955","6502700","金山區"
"251009","008-UM","2018/04/07 20:09:32","新北市淡水區清水街1號","121.445156666667","25.170295","6501000","淡水區"
"251004","009-UM","2018/04/07 20:05:16","新北市淡水區樹梅坑43號","121.475223333333","25.144415","6501000","淡水區"
"251013","179-VK","2018/04/07 20:09:29","新北市淡水區奎柔山路752巷2號","121.472898333333","25.20518","6501000","淡水區"
"251014","180-VK","2018/04/07 20:09:23","新北市淡水區石頭厝3號","121.458701666667","25.2355583333333","6501000","淡水區"
"251008","181-VK","2018/04/07 20:09:19","新北市淡水區淡海路72巷30弄9號","121.42479","25.1825566666667","6501000","淡水區"
"251015","182-VK","2018/04/07 20:09:35","新北市淡水區埤島77-4號","121.450238333333","25.19134","6501000","淡水區"
"251010","413-VK","2018/04/07 20:09:27","新北市淡水區崁頂五路303號","121.424088333333","25.1967566666667","6501000","淡水區"
"251012","441-VK","2018/04/07 20:09:32","新北市淡水區淡金路三段185號","121.448705","25.20453","6501000","淡水區"
"251016","442-VK","2018/04/07 20:09:15","新北市淡水區番子田18-7號","121.456436666667","25.2296016666667","6501000","淡水區"
"251006","561-UM","2018/04/07 20:09:19","新北市淡水區北新路141巷29號","121.448221666667","25.1796383333333","6501000","淡水區"
"251002","672-BX","2018/04/07 20:09:34","新北市淡水區中正路288號","121.437743333333","25.1720116666667","6501000","淡水區"
"207003","550-UM","2018/04/07 20:09:27","新北市萬里區大鵬里萬里加投192號","121.642851666667","25.2157383333333","6502800","萬里區"
"207004","225-TW","2018/04/07 20:09:28","新北市萬里區北基里愛三街11號","121.681828333333","25.176635","6502800","萬里區"
"252002","178-VK","2018/04/07 20:09:15","新北市三芝區三民街7號","121.504095","25.2580433333333","6502100","三芝區"
"252001","292-VK","2018/04/07 20:09:30","新北市三芝區公正街9號","121.49962","25.2576683333333","6502100","三芝區"
"237012","275-BY","2018/04/07 20:09:17","新北市三峽區中華路74-1號","121.37155","24.9294283333333","6500900","三峽區"
"237006","5529-G3","2018/04/07 20:09:30","新北市三峽區大利路24號","121.367081666667","24.9116266666667","6500900","三峽區"
"237005","AKY-6261","2018/04/07 20:09:19","新北市三峽區三樹路98巷74弄25號","121.385028333333","24.9384716666667","6500900","三峽區"
"236070","105-UM","2018/04/07 20:09:34","新北市土城區中央路三段147巷2弄16號","121.432011666667","24.9649133333333","6501300","土城區"
"236079","166-UM","2018/04/07 20:09:33","新北市土城區中山路47號","121.420688333333","24.9629416666667","6501300","土城區"
"236030","253-BX","2018/04/07 20:09:29","新北市土城區中央路一段118巷1弄13號","121.445823333333","24.9877433333333","6501300","土城區"
"236026","269-VK","2018/04/07 20:09:30","新北市土城區裕生路100巷1號","121.446618333333","24.984935","6501300","土城區"
"236014","270-VK","2018/04/07 20:09:19","新北市土城區廣明街1號","121.455968333333","24.9917816666667","6501300","土城區"
"236038","271-VK","2018/04/07 20:09:26","新北市土城區延吉街294號","121.464563333333","24.9840716666667","6501300","土城區"
"236021","401-BY","2018/04/07 20:09:28","新北市土城區和城路二段255巷60號","121.474671666667","24.9872283333333","6501300","土城區"
"236059","912-UM","2018/04/07 20:09:31","新北市土城區中央路二段195號","121.442153333333","24.9751766666667","6501300","土城區"
"236049","913-UM","2018/04/07 20:09:28","新北市土城區金城路三段77號","121.466631666667","24.9872233333333","6501300","土城區"
"236063","915-UM","2018/04/07 20:09:35","新北市土城區延和路12巷15號","121.464575","24.9874683333333","6501300","土城區"
"236055","AAC-216","2018/04/07 20:09:25","新北市土城區中華路一段172號","121.441236666667","24.9827116666667","6501300","土城區"
"242034","AAC-296","2018/04/07 20:09:23","新北市新莊區中正路318巷15號","121.446375","25.0359116666667","6500500","新莊區"
"242058","986-R7","2018/04/07 20:09:31","新北市新莊區八德街169號","121.42334","25.019075","6500500","新莊區"
"242053","751-BX","2018/04/07 20:09:23","新北市新莊區西盛街395巷22弄6號","121.428301666667","25.0128733333333","6500500","新莊區"
"242029","705-TV","2018/04/07 20:09:25","新北市新莊區中原路301號","121.44745","25.0543866666667","6500500","新莊區"
"242027","615-BX","2018/04/07 20:09:25","新北市新莊區中平路256-1號","121.444903333333","25.049675","6500500","新莊區"
"242025","613-BX","2018/04/07 20:09:24","新北市新莊區五權一路12巷25弄26號","121.458795","25.0648083333333","6500500","新莊區"
"242042","566-BX","2018/04/07 20:09:23","新北市新莊區青山路一段181號","121.3999","25.0304583333333","6500500","新莊區"
"242046","497-BY","2018/04/07 20:09:23","新北市新莊區裕民街85巷22弄1號","121.419443333333","25.0229466666667","6500500","新莊區"
"242004","442-UM","2018/04/07 20:09:32","新北市新莊區頭前路2巷30號","121.4682","25.0538266666667","6500500","新莊區"
"242051","441-UM","2018/04/07 20:09:25","新北市新莊區民安西路172巷4弄2號","121.42556","25.0160533333333","6500500","新莊區"
"242056","440-UM","2018/04/07 20:09:28","新北市新莊區新莊路649巷15弄18-1號","121.445306666667","25.0314966666667","6500500","新莊區"
"242036","415-TV","2018/04/07 20:09:30","新北市新莊區建安街9巷6號","121.429051666667","25.0265816666667","6500500","新莊區"
"242007","413-TV","2018/04/07 20:09:14","新北市新莊區思源路419巷3號","121.459255","25.0524166666667","6500500","新莊區"
"242044","400-BY","2018/04/07 20:09:25","新北市新莊區中正路923號","121.410753333333","25.02118","6500500","新莊區"
"242023","362-BY","2018/04/07 20:09:26","新北市新莊區化成路658號","121.46587","25.0560366666667","6500500","新莊區"
"242061","353-BY","2018/04/07 20:09:29","新北市新莊區瓊林路瓊英巷4弄2號","121.443603333333","25.0274066666667","6500500","新莊區"
"242039","133-UY","2018/04/07 20:09:19","新北市新莊區民安西路90-2號","121.426861666667","25.01904","6500500","新莊區"
"242048","172-VK","2018/04/07 20:09:21","新北市新莊區萬安街47巷4號","121.421843333333","25.0246183333333","6500500","新莊區"
"242011","173-VK","2018/04/07 20:09:35","新北市新莊區中和街204巷1號","121.447995","25.0504633333333","6500500","新莊區"
"242017","175-VK","2018/04/07 20:09:17","新北市新莊區中港路397號","121.451956666667","25.0469166666667","6500500","新莊區"
"242015","346-TH","2018/04/07 20:09:20","新北市新莊區中平路26巷53號","121.44731","25.04353","6500500","新莊區"
"242021","348-TH","2018/04/07 20:09:30","新北市新莊區中興街9號","121.449175","25.0360483333333","6500500","新莊區"
"242002","349-TH","2018/04/07 20:09:20","新北市新莊區中正路55-1號","121.462126666667","25.0399516666667","6500500","新莊區"
"242019","350-TH","2018/04/07 20:09:22","新北市新莊區民樂街66號","121.458323333333","25.0422283333333","6500500","新莊區"
"242013","351-TH","2018/04/07 20:09:25","新北市新莊區幸福路710巷1弄8號","121.449353333333","25.049605","6500500","新莊區"
"238021","KEA-2539","2018/04/07 20:09:21","新北市樹林區佳園路三段99巷71號","121.393623333333","24.952035","6500700","樹林區"
"221036","130-UY","2018/04/07 20:09:31","新北市汐止區福安街61巷1號","121.664285","25.06349","6501100","汐止區"
"221015","131-UY","2018/04/07 20:09:16","新北市汐止區建成路21號","121.664348333333","25.07248","6501100","汐止區"
"221010","269-BY","2018/04/07 20:09:18","新北市汐止區八連路一段530巷50號","121.640581666667","25.0907416666667","6501100","汐止區"
"221018","277-VK","2018/04/07 20:09:30","新北市汐止區福德二路93號","121.63252","25.066065","6501100","汐止區"
"221012","278-VK","2018/04/07 20:09:18","新北市汐止區汐平路二段66號","121.698493333333","25.06099","6501100","汐止區"
"221023","279-VK","2018/04/07 20:09:33","新北市汐止區明峰街298巷7弄2號","121.624898333333","25.06908","6501100","汐止區"
"221032","280-BY","2018/04/07 20:09:27","新北市汐止區弘道街9巷2弄2號","121.617025","25.048845","6501100","汐止區"
"221027","281-BY","2018/04/07 20:09:34","新北市汐止區民生街1-1號","121.660153333333","25.06876","6501100","汐止區"
"221029","298-VK","2018/04/07 20:09:35","新北市汐止區樟樹一路123巷19號","121.641328333333","25.06449","6501100","汐止區"
"221021","299-VK","2018/04/07 20:09:18","新北市汐止區莊敬街88號","121.655638333333","25.0611183333333","6501100","汐止區"
"221008","129-UY","2018/04/07 20:09:21","台北市內湖區康樂街63號","121.618398333333","25.0684983333333","6501100","汐止區"
"221035","622-UM","2018/04/07 20:09:22","新北市汐止區長江街79巷10號","121.657586666667","25.0726783333333","6501100","汐止區"
"221025","623-UM","2018/04/07 20:09:13","新北市汐止區新台五路一段151號","121.653641666667","25.0622666666667","6501100","汐止區"
"221038","646-BX","2018/04/07 20:09:26","新北市汐止區大同路三段66-4號","121.668153333333","25.0770133333333","6501100","汐止區"
"221033","647-BX","2018/04/07 20:09:21","新北市汐止區東勢街201巷104號","121.633525","25.0429866666667","6501100","汐止區"
"221018","753-BX","2018/04/07 20:09:25","新北市汐止區茄福街35巷37號","121.673393333333","25.06615","6501100","汐止區"
"220080","200-UY","2018/04/07 20:09:29","新北市板橋區大觀路二段153巷44弄53號","121.445985","24.999","6500100","板橋區"
"220101","245-BX","2018/04/07 20:09:19","新北市板橋區雙十路二段47巷2弄12號","121.47586","25.026495","6500100","板橋區"
"220103","257-TC","2018/04/07 20:09:28","新北市板橋區陽明街68號","121.464758333333","25.022505","6500100","板橋區"
"220072","277-BY","2018/04/07 20:09:16","新北市板橋區金門街389號","121.427815","24.9842366666667","6500100","板橋區"
"220071","283-VK","2018/04/07 20:09:29","新北市板橋區廣權路97號","121.464478333333","24.9927","6500100","板橋區"
"220083","286-VK","2018/04/07 20:09:25","新北市板橋區僑中二街92巷23號","121.445085","25.0090266666667","6500100","板橋區"
"220081","287-VK","2018/04/07 20:09:23","新北市板橋區僑中一街124巷18弄46號","121.447883333333","25.0135016666667","6500100","板橋區"
"220061","293-UM","2018/04/07 20:09:36","新北市板橋區中山路一段132號","121.463445","25.01086","6500100","板橋區"
"242009","281-VK","2018/04/07 20:09:32","新北市新莊區昌盛街35巷2弄2號","121.454096666667","25.0502016666667","6500500","新莊區"
"220092","307-R5","2018/04/07 20:09:30","新北市板橋區民權路202巷6弄8號","121.460378333333","25.0143233333333","6500100","板橋區"
"220098","317-R6","2018/04/07 20:09:17","新北市板橋區新海路72巷5弄36號","121.461551666667","25.0230316666667","6500100","板橋區"
"220064","486-VK","2018/04/07 20:09:13","新北市板橋區文化路二段656號","121.480958333333","25.0404","6500100","板橋區"
"242031","280-VK","2018/04/07 20:09:23","新北市新莊區中正路449-1號","121.44304","25.03401","6500500","新莊區"
"220088","491-VK","2018/04/07 20:09:33","新北市板橋區民治街51巷1號","121.479071666667","25.03378","6500100","板橋區"
"220055","630-UY","2018/04/07 20:09:24","新北市板橋區忠孝路48巷11弄12號","121.461916666667","24.9998116666667","6500100","板橋區"
"220093","689-BX","2018/04/07 20:09:28","新北市板橋區長江路一段142號","121.460741666667","25.0301083333333","6500100","板橋區"
"220102","KEA-2699","2018/04/07 20:09:30","新北市板橋區懷德街66巷26號","121.476723333333","25.0319216666667","6500100","板橋區"
"220068","830-TW","2018/04/07 20:09:23","新北市板橋區光復街234-1號","121.484673333333","25.0215266666667","6500100","板橋區"
"220089","833-TW","2018/04/07 20:09:29","新北市板橋區互助街47號","121.46103","25.0265083333333","6500100","板橋區"
"220074","895-R6","2018/04/07 20:09:16","新北市板橋區府後街1巷2-1號","121.459203333333","25.0107116666667","6500100","板橋區"
"220073","985-R7","2018/04/07 20:09:27","新北市板橋區大觀路一段28巷96號","121.450416666667","25.0110766666667","6500100","板橋區"
"220097","AAC-210","2018/04/07 20:09:32","新北市板橋區建國街125號","121.4609","25.0176933333333","6500100","板橋區"
"220070","AAC-253","2018/04/07 20:09:33","新北市板橋區四川路二段245巷30號","121.451391666667","24.9927666666667","6500100","板橋區"
