"lineid","car","time","location","longitude","latitude","cityid","cityname"
"234070","149-BY","2018/04/07 20:19:27","新北市永和區福和路263巷22號","121.517985","25.0064333333333","6500400","永和區"
"234007","207-UY","2018/04/07 20:19:26","新北市永和區環河西路二段215號","121.501531666667","25.0102666666667","6500400","永和區"
"234081","298-R6","2018/04/07 20:19:35","新北市永和區國中路130號","121.523446666667","25.0067516666667","6500400","永和區"
"234038","336-UY","2018/04/07 20:19:20","新北市永和區成功路一段1號","121.527241666667","25.0054783333333","6500400","永和區"
"234064","337-UY","2018/04/07 20:19:21","新北市永和區得和路120號","121.518606666667","25.0001","6500400","永和區"
"234086","338-UY","2018/04/07 19:54:53","新北市永和區福和路1號","121.526385","25.0097783333333","6500400","永和區"
"234086","553-UM","2018/04/07 20:19:35","新北市永和區福和路256號","121.518556666667","25.007645","6500400","永和區"
"234017","745-BX","2018/04/07 20:19:18","新北市永和區仁愛路37號","121.514093333333","25.0133066666667","6500400","永和區"
"234030","746-BX","2018/04/07 20:19:33","新北市中和區立人街14巷40弄28號","121.519445","24.9959716666667","6500400","永和區"
"234054","KEA-2590","2018/04/07 20:19:32","新北市永和區光復街2巷27號","121.517363333333","25.01667","6500400","永和區"
"234013","KEA-2591","2018/04/07 20:19:31","新北市永和區仁愛路278號","121.503775","25.0083766666667","6500400","永和區"
"234061","AAD-866","2018/04/07 20:19:36","新北市永和區得和路29號","121.515846666667","25.00028","6500400","永和區"
"234042","862-TW","2018/04/07 20:19:24","新北市中和區中和路350巷10號","121.510745","25.0003916666667","6500400","永和區"
"234050","863-TW","2018/04/07 20:19:36","新北市永和區文化路222號","121.509898333333","25.01687","6500400","永和區"
"234011","9373-KE","2018/04/07 20:19:26","新北市永和區保生路55號","121.50457","25.0108166666667","6500400","永和區"
"249005","172-UM","2018/04/07 20:19:27","新北市八里區下罟子2-17號","121.38833","25.141075","6502300","八里區"
"249001","173-UM","2018/04/07 20:19:17","新北市八里區中華路二段538號","121.399068333333","25.1450383333333","6502300","八里區"
"249004","303-UY","2018/04/07 20:19:24","新北市八里區中山路一段129巷29號","121.414085","25.1585683333333","6502300","八里區"
"249002","305-UY","2018/04/07 20:19:29","新北市八里區龍米路一段213號","121.451515","25.1315033333333","6502300","八里區"
"249003","593-UM","2018/04/07 20:19:22","新北市八里區華峰一街56號","121.39831","25.1462116666667","6502300","八里區"
"248012","247-BX","2018/04/07 20:19:18","新北市五股區民義路一段212號","121.430578333333","25.0893766666667","6501500","五股區"
"248010","272-BY","2018/04/07 20:19:20","新北市五股區新五路二段24號","121.438008333333","25.0654633333333","6501500","五股區"
"248004","677-BX","2018/04/07 20:19:21","新北市五股區中興路四段23號","121.43895","25.0826016666667","6501500","五股區"
"248002","678-BX","2018/04/07 20:19:36","新北市五股區成泰路三段145號","121.4448","25.09134","6501500","五股區"
"234023","9380-KE","2018/04/07 20:19:18","新北市永和區永和路二段135號","121.51508","25.0125066666667","6500400","永和區"
"234074","AAC-211","2018/04/07 20:19:36","新北市永和區豫溪街160巷4號","121.523173333333","25.0094666666667","6500400","永和區"
"234067","AAC-212","2018/04/07 20:19:32","新北市永和區保平路236巷1弄16號","121.5084","25.005495","6500400","永和區"
"234003","AAC-295","2018/04/07 20:19:29","新北市永和區自強街24號","121.515358333333","25.0080066666667","6500400","永和區"
"243012","AAD-798","2018/04/07 20:19:34","新北市泰山區楓江路83巷3號","121.436926666667","25.0636383333333","6501600","泰山區"
"243011","297-R6","2018/04/07 20:19:32","新北市泰山區德安街24號","121.418561666667","25.03138","6501600","泰山區"
"243015","380-SR","2018/04/07 20:19:17","新北市泰山區明志路一段293號","121.431886666667","25.0595566666667","6501600","泰山區"
"243014","421-VK","2018/04/07 20:19:28","新北市泰山區泰林路二段317號","121.42969","25.0631683333333","6501600","泰山區"
"243013","539-UM","2018/04/07 20:19:21","新北市泰山區中央路5巷17弄34號","121.427415","25.044185","6501600","泰山區"
"243010","KEA-2215","2018/04/07 20:19:38","新北市泰山區明志路二段254巷16弄6號","121.42625","25.0481616666667","6501600","泰山區"
"243009","KEA-2216","2018/04/07 20:19:17","新北市泰山區福泰街11號","121.432688333333","25.0603066666667","6501600","泰山區"
"243016","680-BX","2018/04/07 20:19:26","新北市泰山區明志路三段98號","121.424981666667","25.04112","6501600","泰山區"
"222003","436-BY","2018/04/07 20:19:26","新北市深坑區文化街43號","121.617701666667","25.0018866666667","6501800","深坑區"
"222002","659-BX","2018/04/07 20:19:15","新北市深坑區萬福路75巷48號","121.598265","25.01005","6501800","深坑區"
"231059","046-UY","2018/04/07 20:19:31","新北市新店區安德街120巷6號","121.509003333333","24.9607966666667","6500600","新店區"
"231040","047-UY","2018/04/07 20:19:29","新北市新店區三民路15號","121.539763333333","24.9722666666667","6500600","新店區"
"231044","106-UY","2018/04/07 20:19:31","新北市新店區北新路三段196號","121.541386666667","24.98327","6500600","新店區"
"231052","108-UY","2018/04/07 20:19:24","新北市新店區松林路2號","121.546715","24.9110333333333","6500600","新店區"
"231048","187-VK","2018/04/07 20:19:34","新北市新店區寶橋路132號","121.547376666667","24.9761","6500600","新店區"
"231054","KEA-2219","2018/04/07 20:19:22","新北市新店區檳榔路109號","121.544446666667","24.9617183333333","6500600","新店區"
"231057","256-BX","2018/04/07 20:19:30","新北市新店區花園十二路1號","121.554775","24.9347516666667","6500600","新店區"
"231051","278-BY","2018/04/07 20:19:27","新北市新店區中央六街85號","121.526683333333","24.97671","6500600","新店區"
"231058","3713-VJ","2018/04/07 20:19:15","新北市新店區中正路360號","121.535586666667","24.9758733333333","6500600","新店區"
"231066","4716-K9","2018/04/07 20:19:31","新北市新店區安民街341號","121.516936666667","24.97494","6500600","新店區"
"231056","4715-K9","2018/04/07 20:19:34","新北市新店區中正路275巷15號","121.537328333333","24.973675","6500600","新店區"
"231067","4772-VM","2018/04/07 20:19:36","新北市新店區安康路一段50號","121.530316666667","24.9611","6500600","新店區"
"231049","513-UM","2018/04/07 20:19:20","新北市新店區北新路一段128-3號","121.542145","24.9699766666667","6500600","新店區"
"231045","617-UM","2018/04/07 20:19:35","新北市新店區新坡一街72號","121.548928333333","24.964545","6500600","新店區"
"231041","618-UM","2018/04/07 20:19:27","新北市新店區二十張路16巷1弄6號","121.53854","24.9826583333333","6500600","新店區"
"231061","619-UM","2018/04/07 20:19:32","新北市新店區安興路65巷6號","121.515893333333","24.9728183333333","6500600","新店區"
"231063","641-BX","2018/04/07 20:19:24","新北市新店區安豐路2號","121.501963333333","24.9573466666667","6500600","新店區"
"231042","645-TV","2018/04/07 20:19:24","新北市新店區中興路二段233號","121.547536666667","24.975095","6500600","新店區"
"231068","718-UY","2018/04/07 20:19:23","新北市新店區寶安街30號","121.542043333333","24.982385","6500600","新店區"
"231064","719-UM","2018/04/07 20:19:25","新北市新店區安利街32號","121.519038333333","24.9747933333333","6500600","新店區"
"231065","719-UY","2018/04/07 20:19:20","新北市新店區安祥路109巷85弄31號","121.478421666667","24.959935","6500600","新店區"
"231062","720-UM","2018/04/07 20:19:32","新北市新店區安泰路7巷16號","121.485686666667","24.95098","6500600","新店區"
"231060","897-TW","2018/04/07 20:19:29","新北市新店區錦秀路11巷64號","121.48076","24.9436316666667","6500600","新店區"
"231043","899-TW","2018/04/07 20:19:20","新北市新店區建國路131號","121.539431666667","24.9782066666667","6500600","新店區"
"231055","AKT-0513","2018/04/07 20:19:31","新北市新店區安康路一段24巷10號","121.532258333333","24.9607116666667","6500600","新店區"
"241011","013-R5","2018/04/07 20:19:17","新北市三重區龍門路163號","121.498841666667","25.07301","6500200","三重區"
"241028","022-UY","2018/04/07 20:19:17","新北市三重區大同南路103-2號","121.496268333333","25.0585866666667","6500200","三重區"
"241008","059-VK","2018/04/07 20:19:17","新北市三重區永福街156號","121.48038","25.0745533333333","6500200","三重區"
"241009","060-VK","2018/04/07 20:19:15","新北市三重區三和路四段382巷40弄4號","121.481501666667","25.078385","6500200","三重區"
"241031","061-VK","2018/04/07 20:19:22","新北市三重區三寧街22號","121.489483333333","25.0599166666667","6500200","三重區"
"241015","062-VK","2018/04/07 20:19:35","新北市三重區重新路一段128號","121.50029","25.0628333333333","6500200","三重區"
"241017","063-VK","2018/04/07 20:19:16","新北市三重區自強路一段298號","121.491441666667","25.0683083333333","6500200","三重區"
"241024","065-VK","2018/04/07 20:19:15","新北市三重區忠孝路三段15巷20號","121.480908333333","25.06766","6500200","三重區"
"241026","066-VK","2018/04/07 20:19:21","新北市三重區重新路一段12號","121.50404","25.0638316666667","6500200","三重區"
"241002","090-VK","2018/04/07 20:19:18","新北市三重區仁義街126號","121.497591666667","25.08013","6500200","三重區"
"241003","091-VK","2018/04/07 20:19:24","新北市三重區富華街57號","121.4912","25.0835333333333","6500200","三重區"
"241005","262-UM","2018/04/07 20:19:20","新北市三重區溪尾街255巷31號","121.488676666667","25.0821166666667","6500200","三重區"
"241016","265-UM","2018/04/07 20:19:31","新北市三重區大同北路54巷1號","121.49432","25.0635566666667","6500200","三重區"
"241022","267-UM","2018/04/07 20:19:32","新北市三重區市前街14號","121.489158333333","25.0624416666667","6500200","三重區"
"241018","268-UM","2018/04/07 20:19:24","新北市三重區雙園街57巷21-2號","121.4947","25.0680933333333","6500200","三重區"
"241032","269-UM","2018/04/07 20:19:24","新北市三重區捷運路19巷8弄17號","121.484246666667","25.0572683333333","6500200","三重區"
"241013","270-UM","2018/04/07 20:19:25","新北市三重區三和路三段167巷4號","121.492036666667","25.0741433333333","6500200","三重區"
"241025","271-UM","2018/04/07 20:19:32","新北市三重區三民街272巷2號","121.478921666667","25.067955","6500200","三重區"
"241007","398-BY","2018/04/07 20:19:25","新北市三重區溪尾街108巷50號","121.48747","25.0781666666667","6500200","三重區"
"241035","462-BY","2018/04/07 20:19:27","新北市三重區正義北路33巷55號","121.499108333333","25.0638866666667","6500200","三重區"
"241030","480-VK","2018/04/07 20:19:32","新北市三重區環河南路254巷63號","121.487673333333","25.0524983333333","6500200","三重區"
"241014","543-UM","2018/04/07 20:19:27","新北市三重區河邊北街86巷52號","121.502706666667","25.0690166666667","6500200","三重區"
"241023","545-UM","2018/04/07 20:19:15","新北市三重區忠孝路三段93巷6號","121.47919","25.0648116666667","6500200","三重區"
"241001","547-UM","2018/04/07 20:19:28","新北市三重區自強路四段3巷52號","121.490468333333","25.076745","6500200","三重區"
"241019","KEA-2593","2018/04/07 20:19:23","新北市三重區忠孝路一段30巷58號","121.490445","25.071205","6500200","三重區"
"241006","AAD-863","2018/04/07 20:19:27","新北市三重區車路頭街139巷14號","121.484271666667","25.0762466666667","6500200","三重區"
"241004","887-TS","2018/04/07 20:19:22","新北市三重區仁愛街403號","121.490951666667","25.081025","6500200","三重區"
"241012","941-UM","2018/04/07 20:19:20","新北市三重區河邊北街379-1號","121.501751666667","25.0764966666667","6500200","三重區"
"241029","942-UM","2018/04/07 20:19:22","新北市三重區重安街98號","121.492648333333","25.0561816666667","6500200","三重區"
"241033","AAC-255","2018/04/07 20:19:34","新北市三重區五谷王北街50巷40號","121.475171666667","25.0513466666667","6500200","三重區"
"235066","003-UY","2018/04/07 20:19:17","新北市中和區水源路99號","121.507308333333","25.003505","6500300","中和區"
"235065","098-UM","2018/04/07 20:19:18","新北市中和區永和路128巷47號","121.497676666667","25.0068566666667","6500300","中和區"
"235068","377-QA","2018/04/07 20:06:12","新北市中和區福美路301巷42號","121.497773333333","25.0035016666667","6500300","中和區"
"235050","4979-A6","2018/04/07 20:19:26","新北市中和區景平路474號","121.50542","24.9936016666667","6500300","中和區"
"235069","4980-A6","2018/04/07 20:19:31","新北市中和區圓通路190號","121.49645","24.9943566666667","6500300","中和區"
"235042","551-UM","2018/04/07 20:19:34","新北市樹林區佳園路三段99巷39-2號","121.392608333333","24.9519366666667","6500300","中和區"
"235026","800-TS","2018/04/07 20:00:52","新北市中和區員山路36巷16-3號","121.484835","24.9917566666667","6500300","中和區"
"235037","AAC-213","2018/04/07 20:19:08","新北市板橋區民生路二段192號","121.469708333333","25.0205783333333","6500300","中和區"
"235059","AAC-215","2018/04/07 20:19:26","新北市中和區員山路5-9號","121.483328333333","24.9846383333333","6500300","中和區"
"220086","073-UY","2018/04/07 20:19:33","新北市八里區中山路三段132號","121.385263333333","25.14518","6500100","板橋區"
"220067","075-UY","2018/04/07 20:19:26","新北市板橋區中山路一段206巷123號","121.472523333333","25.0134933333333","6500100","板橋區"
"247024","893-R6","2018/04/07 20:19:17","新北市蘆洲區光榮路120巷8弄41號","121.464575","25.0878283333333","6501400","蘆洲區"
"247022","500-BY","2018/04/07 20:19:20","新北市蘆洲區民族路451號","121.46753","25.088495","6501400","蘆洲區"
"247010","341-TH","2018/04/07 20:19:28","新北市蘆洲區信義路222巷32弄16號","121.480536666667","25.0846566666667","6501400","蘆洲區"
"247012","339-TH","2018/04/07 20:19:33","新北市蘆洲區中興街38號","121.481313333333","25.0870783333333","6501400","蘆洲區"
"247004","337-TH","2018/04/07 20:19:32","新北市蘆洲區永康街30號","121.458616666667","25.0855416666667","6501400","蘆洲區"
"247006","336-TH","2018/04/07 20:19:30","新北市蘆洲區九芎街153巷5號","121.465368333333","25.0789433333333","6501400","蘆洲區"
"247018","057-VK","2018/04/07 20:19:32","新北市蘆洲區民族路406號","121.474741666667","25.0915516666667","6501400","蘆洲區"
"247008","056-VK","2018/04/07 20:19:31","新北市蘆洲區集賢路320號","121.481313333333","25.0849633333333","6501400","蘆洲區"
"247014","053-VK","2018/04/07 20:19:16","新北市蘆洲區中山二路137巷7號","121.472131666667","25.0813316666667","6501400","蘆洲區"
"247016","007-UY","2018/04/07 20:19:20","新北市蘆洲區光華路150巷15號","121.46524","25.08299","6501400","蘆洲區"
"247002","002-UY","2018/04/07 20:19:32","新北市蘆洲區長安街313巷42-1號","121.455838333333","25.0859566666667","6501400","蘆洲區"
"235039","251-BX","2018/04/07 20:19:28","新北市中和區自強路58號","121.520106666667","24.9945366666667","6500300","中和區"
"224010","AGQ-8101","2018/04/07 20:19:34","新北市瑞芳區輕便路131號","121.843508333333","25.1087183333333","6501200","瑞芳區"
"224009","273-VK","2018/04/07 20:19:28","新北市瑞芳區傑魚坑路324-2號","121.785913333333","25.104005","6501200","瑞芳區"
"222001","KEA-2212","2018/04/07 20:19:25","新北市深坑區北深路三段258號","121.599643333333","25.004375","6501800","深坑區"
"251009","008-UM","2018/04/07 20:19:32","新北市淡水區中正路38-1號","121.44372","25.1692816666667","6501000","淡水區"
"251013","179-VK","2018/04/07 20:19:15","新北市淡水區水汴頭4-3號","121.475615","25.2043083333333","6501000","淡水區"
"251014","180-VK","2018/04/07 20:19:23","新北市淡水區石頭厝3號","121.458705","25.2355633333333","6501000","淡水區"
"251008","181-VK","2018/04/07 20:19:19","新北市淡水區淡海路150巷16號","121.422393333333","25.1844016666667","6501000","淡水區"
"251015","182-VK","2018/04/07 20:19:15","新北市淡水區埤島3-23號","121.447518333333","25.1896766666667","6501000","淡水區"
"251010","413-VK","2018/04/07 20:19:27","新北市淡水區新民街一段134號","121.427516666667","25.18892","6501000","淡水區"
"251012","441-VK","2018/04/07 20:19:31","新北市淡水區下圭柔山431-1號","121.44981","25.2102516666667","6501000","淡水區"
"251016","442-VK","2018/04/07 20:19:15","新北市淡水區淡金路五段20號","121.45341","25.2323883333333","6501000","淡水區"
"251006","561-UM","2018/04/07 20:19:19","新北市淡水區北新路228號","121.45238","25.1804066666667","6501000","淡水區"
"251002","672-BX","2018/04/07 20:19:14","新北市淡水區中正路118號","121.441526666667","25.1695416666667","6501000","淡水區"
"251003","673-BX","2018/04/07 20:19:23","新北市淡水區中山北路一段188-5號","121.444418333333","25.179145","6501000","淡水區"
"207004","225-TW","2018/04/07 20:19:28","新北市萬里區北基里大仁路11號","121.682665","25.1755633333333","6502800","萬里區"
"252002","178-VK","2018/04/07 20:19:35","新北市三芝區中正路一段35號","121.503088333333","25.2584133333333","6502100","三芝區"
"252001","292-VK","2018/04/07 20:19:30","新北市三芝區中山路一段31號","121.500626666667","25.258035","6502100","三芝區"
"237006","5529-G3","2018/04/07 20:19:30","新北市三峽區中正路二段126號","121.3663","24.9166916666667","6500900","三峽區"
"236070","105-UM","2018/04/07 20:19:25","新北市土城區中山路34號","121.424785","24.9637983333333","6501300","土城區"
"236030","253-BX","2018/04/07 20:19:29","新北市土城區學成路128巷11號","121.449463333333","24.9899816666667","6501300","土城區"
"236026","269-VK","2018/04/07 20:19:22","新北市土城區中央路一段264-2號","121.44393","24.9836583333333","6501300","土城區"
"236014","270-VK","2018/04/07 20:19:19","新北市土城區廣明街90巷18號","121.455475","24.9944983333333","6501300","土城區"
"236059","912-UM","2018/04/07 20:19:30","新北市土城區中央路三段119-1號","121.43425","24.96575","6501300","土城區"
"242034","AAC-296","2018/04/07 20:19:23","新北市新莊區仁愛街54巷12號","121.444998333333","25.0370383333333","6500500","新莊區"
"242058","986-R7","2018/04/07 20:19:31","新北市新莊區龍安路264號","121.421685","25.0193633333333","6500500","新莊區"
"242053","751-BX","2018/04/07 20:19:23","新北市新莊區民安西路265號","121.42619","25.0129633333333","6500500","新莊區"
"242029","705-TV","2018/04/07 20:19:25","新北市新莊區中華路二段201號","121.452223333333","25.052645","6500500","新莊區"
"242027","615-BX","2018/04/07 20:19:25","新北市新莊區幸福路602號","121.452118333333","25.0493783333333","6500500","新莊區"
"242025","613-BX","2018/04/07 20:19:25","新北市新莊區五工二路94巷18號","121.460035","25.0672466666667","6500500","新莊區"
"242042","566-BX","2018/04/07 20:19:23","新北市新莊區壽山路73號","121.409715","25.0326583333333","6500500","新莊區"
"242046","497-BY","2018/04/07 20:19:29","新北市新莊區中正路新生巷23號","121.416891666667","25.0236316666667","6500500","新莊區"
"242004","442-UM","2018/04/07 20:19:28","新北市新莊區化成路746巷37號","121.466963333333","25.05797","6500500","新莊區"
"242051","441-UM","2018/04/07 20:19:25","新北市新莊區民安西路212巷12號","121.425048333333","25.0150033333333","6500500","新莊區"
"242056","440-UM","2018/04/07 20:19:19","新北市新莊區豐年街28巷23弄3號","121.44528","25.0321283333333","6500500","新莊區"
"242036","415-TV","2018/04/07 20:19:30","新北市新莊區後港一路56巷24弄10號","121.42625","25.0252816666667","6500500","新莊區"
"242007","413-TV","2018/04/07 20:19:35","新北市新莊區福壽街94巷6號","121.458641666667","25.0499483333333","6500500","新莊區"
"242044","400-BY","2018/04/07 20:19:26","新北市新莊區中正路新建巷28弄83號","121.413516666667","25.021385","6500500","新莊區"
"242023","362-BY","2018/04/07 20:19:21","新北市新莊區化成路936號","121.464773333333","25.0625166666667","6500500","新莊區"
"242061","353-BY","2018/04/07 20:19:29","新北市新莊區新樹路172-13號","121.434616666667","25.0217466666667","6500500","新莊區"
"242039","133-UY","2018/04/07 20:19:17","新北市新莊區龍安路457號","121.424503333333","25.0183733333333","6500500","新莊區"
"242048","172-VK","2018/04/07 20:18:41","新北市新莊區龍安路220巷8號","121.420363333333","25.0194566666667","6500500","新莊區"
"242011","173-VK","2018/04/07 20:15:55","新北市新莊區中信街63巷2弄7號","121.448728333333","25.0504016666667","6500500","新莊區"
"242017","175-VK","2018/04/07 20:19:17","新北市新莊區中港一街73號","121.449845","25.0453483333333","6500500","新莊區"
"242015","346-TH","2018/04/07 20:19:34","新北市新莊區永樂街237巷2號","121.446271666667","25.04431","6500500","新莊區"
"242021","348-TH","2018/04/07 20:19:30","新北市新莊區和興街37-4號","121.446956666667","25.0399166666667","6500500","新莊區"
"242002","349-TH","2018/04/07 20:19:19","新北市新莊區化成路38號","121.464951666667","25.04312","6500500","新莊區"
"242019","350-TH","2018/04/07 20:19:22","新北市新莊區復興路二段184號","121.45896","25.0443233333333","6500500","新莊區"
"242013","351-TH","2018/04/07 20:19:23","新北市新莊區中和街155巷24弄29號","121.446643333333","25.050675","6500500","新莊區"
"221036","130-UY","2018/04/07 20:19:31","新北市汐止區仁愛路151巷26號","121.663413333333","25.06528","6501100","汐止區"
"221015","131-UY","2018/04/07 20:19:16","新北市汐止區建成路160巷2號","121.66185","25.0735816666667","6501100","汐止區"
"221010","269-BY","2018/04/07 20:19:18","新北市汐止區八連路二段610巷4號","121.628146666667","25.10846","6501100","汐止區"
"221018","277-VK","2018/04/07 20:19:30","新北市汐止區中興路150巷15號","121.633055","25.0650733333333","6501100","汐止區"
"221012","278-VK","2018/04/07 20:19:31","新北市汐止區保新街101號","121.686723333333","25.0713566666667","6501100","汐止區"
"221023","279-VK","2018/04/07 20:19:33","新北市汐止區湖前街110巷2弄12號","121.63194","25.0717483333333","6501100","汐止區"
"221032","280-BY","2018/04/07 20:19:26","新北市汐止區弘道街57號","121.618851666667","25.0482733333333","6501100","汐止區"
"221027","281-BY","2018/04/07 20:19:34","新北市汐止區大同路二段353號","121.656813333333","25.0673733333333","6501100","汐止區"
"221029","298-VK","2018/04/07 20:17:55","新北市汐止區南陽街211號","121.626713333333","25.05824","6501100","汐止區"
"221021","299-VK","2018/04/07 20:19:18","新北市汐止區水源路一段280號","121.654186666667","25.0583633333333","6501100","汐止區"
"221008","129-UY","2018/04/07 20:19:29","新北市汐止區康寧街457號","121.631458333333","25.0683733333333","6501100","汐止區"
"221035","622-UM","2018/04/07 20:19:22","新北市汐止區長江街101-5號","121.658776666667","25.073085","6501100","汐止區"
"221025","623-UM","2018/04/07 20:19:33","新北市汐止區水源路二段30號","121.654783333333","25.0573083333333","6501100","汐止區"
"221038","646-BX","2018/04/07 20:19:26","新北市汐止區忠孝東路454號","121.66613","25.072825","6501100","汐止區"
"221033","647-BX","2018/04/07 20:19:21","新北市汐止區東勢街215巷14號","121.634885","25.0432583333333","6501100","汐止區"
"221018","753-BX","2018/04/07 20:19:25","新北市汐止區茄苳路274號","121.67221","25.068","6501100","汐止區"
"220101","245-BX","2018/04/07 20:19:19","新北市板橋區民治街61巷30號","121.481595","25.03428","6500100","板橋區"
"220103","257-TC","2018/04/07 20:19:28","新北市板橋區漢生西路29號","121.463248333333","25.0183566666667","6500100","板橋區"
"220083","286-VK","2018/04/07 20:19:30","新北市板橋區僑中二街104巷48號","121.444121666667","25.0083316666667","6500100","板橋區"
"220081","287-VK","2018/04/07 20:19:23","新北市板橋區僑中一街86號","121.447273333333","25.011655","6500100","板橋區"
"220061","293-UM","2018/04/07 20:19:16","新北市板橋區文華街8號","121.458011666667","25.0003683333333","6500100","板橋區"
"242009","281-VK","2018/04/07 20:19:22","新北市新莊區昌平街1號","121.454806666667","25.0513966666667","6500500","新莊區"
"242031","280-VK","2018/04/07 20:19:23","新北市新莊區中正路414-1號","121.441041666667","25.03389","6500500","新莊區"
"220055","630-UY","2018/04/07 20:19:24","新北市板橋區四川路一段367號","121.458341666667","24.9995716666667","6500100","板橋區"
"220102","KEA-2699","2018/04/07 20:19:20","新北市板橋區縣民大道三段203號","121.479973333333","25.0249066666667","6500100","板橋區"
"220089","833-TW","2018/04/07 20:19:30","新北市板橋區四維路162號","121.464816666667","25.025965","6500100","板橋區"
"220070","AAC-253","2018/04/07 20:19:35","新北市板橋區華東街300號","121.452775","25.0028716666667","6500100","板橋區"
