"lineid","car","time","location","longitude","latitude","cityid","cityname"
"234086","553-UM","2018/04/07 20:59:15","新北市新店區安和路三段1號","121.517338333333","24.979765","6500400","永和區"
"249004","303-UY","2018/04/07 20:59:24","新北市林口區太平里180號","121.366455","25.1344183333333","6502300","八里區"
"234074","AAC-211","2018/04/07 20:59:15","新北市中和區秀朗路三段109巷2弄12-1號","121.528026666667","24.99437","6500400","永和區"
"231059","046-UY","2018/04/07 20:59:31","新北市新店區僑信路106號","121.500115","24.9471466666667","6500600","新店區"
"231040","047-UY","2018/04/07 20:59:29","新北市新店區北新路一段351號","121.541915","24.969325","6500600","新店區"
"231052","108-UY","2018/04/07 20:59:24","新北市新店區新烏路一段87巷3號","121.546251666667","24.9420116666667","6500600","新店區"
"231048","187-VK","2018/04/07 20:59:34","新北市新店區文化路73巷1號","121.544861666667","24.9825383333333","6500600","新店區"
"231054","KEA-2219","2018/04/07 20:59:22","新北市新店區北新路一段96巷23號","121.542881666667","24.96884","6500600","新店區"
"231051","278-BY","2018/04/07 20:59:27","新北市新店區中正路663巷7弄15-5號","121.533201666667","24.9903483333333","6500600","新店區"
"231050","AAD-862","2018/04/07 20:59:33","新北市新店區三民路75巷3弄2號","121.535635","24.9709716666667","6500600","新店區"
"231066","4716-K9","2018/04/07 20:59:31","新北市新店區柴埕路59號","121.513666666667","24.9648033333333","6500600","新店區"
"231056","4715-K9","2018/04/07 20:59:34","新北市新店區安康路二段320巷15弄2號","121.504598333333","24.95984","6500600","新店區"
"231067","4772-VM","2018/04/07 20:59:16","新北市新店區安德街148巷42號","121.507726666667","24.9607783333333","6500600","新店區"
"231049","513-UM","2018/04/07 20:59:20","新北市新店區薏仁坑路2-1號","121.500713333333","24.9582066666667","6500600","新店區"
"231061","619-UM","2018/04/07 20:59:32","新北市新店區新和街86號","121.52058","24.9859183333333","6500600","新店區"
"231063","641-BX","2018/04/07 20:59:24","新北市新店區玫瑰路58巷3號","121.49532","24.9465483333333","6500600","新店區"
"231042","645-TV","2018/04/07 20:59:24","新北市新店區中興路二段239號","121.547508333333","24.9754916666667","6500600","新店區"
"231064","719-UM","2018/04/07 20:59:25","新北市新店區安民街243號","121.51664","24.9726666666667","6500600","新店區"
"231065","719-UY","2018/04/07 20:59:19","新北市新店區安祥路102巷42弄79號","121.486546666667","24.963125","6500600","新店區"
"231062","720-UM","2018/04/07 20:59:32","新北市新店區裕合街3號","121.48985","24.94984","6500600","新店區"
"231060","897-TW","2018/04/07 20:59:29","新北市新店區安康路三段517號","121.481875","24.9485016666667","6500600","新店區"
"231043","899-TW","2018/04/07 20:59:20","新北市新店區民族路195號","121.537241666667","24.9761316666667","6500600","新店區"
"241011","013-R5","2018/04/07 20:59:17","新北市三重區秀江街119號","121.499711666667","25.0722166666667","6500200","三重區"
"241028","022-UY","2018/04/07 20:59:17","新北市三重區重新路二段94號","121.497125","25.0618433333333","6500200","三重區"
"241008","059-VK","2018/04/07 20:59:37","新北市三重區永福街72巷37號","121.480406666667","25.076345","6500200","三重區"
"241009","060-VK","2018/04/07 20:59:36","新北市三重區三和路四段326號","121.483746666667","25.078255","6500200","三重區"
"241031","061-VK","2018/04/07 20:59:22","新北市三重區重陽路一段113巷2弄2號","121.487541666667","25.0598783333333","6500200","三重區"
"241015","062-VK","2018/04/07 20:59:35","新北市三重區福德北路50號","121.501861666667","25.0656683333333","6500200","三重區"
"241017","063-VK","2018/04/07 20:59:36","新北市三重區大仁街23號","121.492145","25.0645883333333","6500200","三重區"
"241024","065-VK","2018/04/07 20:59:34","新北市三重區大勇街49號","121.481303333333","25.071935","6500200","三重區"
"241026","066-VK","2018/04/07 20:59:21","新北市三重區文化南路45號","121.500196666667","25.0614233333333","6500200","三重區"
"241002","090-VK","2018/04/07 20:59:18","新北市三重區五華街1巷11號","121.495933333333","25.0798516666667","6500200","三重區"
"241003","091-VK","2018/04/07 20:59:24","新北市三重區仁義街250號","121.493801666667","25.0859066666667","6500200","三重區"
"241005","262-UM","2018/04/07 20:59:20","新北市三重區五華街182號","121.488755","25.086315","6500200","三重區"
"241016","265-UM","2018/04/07 20:59:31","新北市三重區正義北路154號","121.496393333333","25.0663666666667","6500200","三重區"
"241022","267-UM","2018/04/07 20:59:32","新北市三重區中正北路20巷12號","121.487901666667","25.062485","6500200","三重區"
"241018","268-UM","2018/04/07 20:59:31","新北市三重區正義北路220-1號","121.496265","25.06771","6500200","三重區"
"241032","269-UM","2018/04/07 20:59:24","新北市三重區三陽路120號","121.482965","25.0587966666667","6500200","三重區"
"241013","270-UM","2018/04/07 20:59:25","新北市三重區仁賢街6號","121.495641666667","25.07484","6500200","三重區"
"241025","271-UM","2018/04/07 20:59:32","新北市三重區貴陽街14號","121.484128333333","25.06183","6500200","三重區"
"241007","398-BY","2018/04/07 20:59:25","新北市三重區慈愛街10號","121.484536666667","25.07843","6500200","三重區"
"241020","478-VK","2018/04/07 20:59:28","新北市三重區忠孝路二段35號","121.48588","25.0711083333333","6500200","三重區"
"241030","480-VK","2018/04/07 20:59:32","新北市三重區環河南路220-8號","121.493366666667","25.0527333333333","6500200","三重區"
"241014","543-UM","2018/04/07 20:59:27","新北市三重區長壽街120巷11號","121.502475","25.0691433333333","6500200","三重區"
"241023","545-UM","2018/04/07 20:59:35","新北市三重區忠孝路三段50巷41弄64號","121.482368333333","25.06375","6500200","三重區"
"241001","547-UM","2018/04/07 20:59:28","新北市三重區自強路三段87巷9號","121.487775","25.0748133333333","6500200","三重區"
"241019","KEA-2593","2018/04/07 20:59:23","新北市三重區自強路二段74巷19號","121.48798","25.0698966666667","6500200","三重區"
"241006","AAD-863","2018/04/07 20:59:27","新北市三重區永福街52號","121.48165","25.0780116666667","6500200","三重區"
"241004","887-TS","2018/04/07 20:59:22","新北市三重區仁愛街420號","121.490415","25.081425","6500200","三重區"
"241012","941-UM","2018/04/07 20:59:20","新北市三重區仁信街6號","121.501328333333","25.075525","6500200","三重區"
"241029","942-UM","2018/04/07 20:59:22","新北市三重區正義南路107號","121.498235","25.0585366666667","6500200","三重區"
"241033","AAC-255","2018/04/07 20:59:34","新北市三重區光復路二段56號","121.471965","25.055945","6500200","三重區"
"235052","031-BX","2018/04/07 20:59:31","新北市中和區興南路二段40號","121.506875","24.985215","6500300","中和區"
"220086","073-UY","2018/04/07 20:59:33","新北市板橋區大觀路二段7巷109-3號","121.452041666667","25.0028866666667","6500100","板橋區"
"247024","893-R6","2018/04/07 20:59:37","新北市蘆洲區長興路213號","121.461181666667","25.0863083333333","6501400","蘆洲區"
"247022","500-BY","2018/04/07 20:59:20","新北市蘆洲區中正路198號","121.466853333333","25.0883333333333","6501400","蘆洲區"
"247010","341-TH","2018/04/07 20:59:28","新北市蘆洲區鷺江街93號","121.476761666667","25.0838133333333","6501400","蘆洲區"
"247012","339-TH","2018/04/07 20:59:32","新北市蘆洲區民權路5號","121.476608333333","25.0857116666667","6501400","蘆洲區"
"247004","337-TH","2018/04/07 20:59:32","新北市蘆洲區永安南路二段268號","121.458616666667","25.0807","6501400","蘆洲區"
"247006","336-TH","2018/04/07 20:59:30","新北市蘆洲區永安南路二段18號","121.467725","25.0772033333333","6501400","蘆洲區"
"247018","057-VK","2018/04/07 20:59:32","新北市蘆洲區民權路93號","121.472853333333","25.0889283333333","6501400","蘆洲區"
"247008","056-VK","2018/04/07 20:59:28","新北市蘆洲區民生街127號","121.47274","25.079005","6501400","蘆洲區"
"247014","053-VK","2018/04/07 20:59:30","新北市蘆洲區中山二路36巷13號","121.474273333333","25.0828216666667","6501400","蘆洲區"
"247016","007-UY","2018/04/07 20:59:20","新北市蘆洲區正和街70號","121.468675","25.08117","6501400","蘆洲區"
"247020","001-UY","2018/04/07 20:59:14","新北市蘆洲區民族路375號","121.470715","25.0910583333333","6501400","蘆洲區"
"222001","KEA-2212","2018/04/07 20:59:25","新北市深坑區北深路三段25巷15-1號","121.60867","25.00017","6501800","深坑區"
"251013","179-VK","2018/04/07 20:59:35","新北市淡水區水汴頭12號","121.469828333333","25.2035083333333","6501000","淡水區"
"251014","180-VK","2018/04/07 20:59:03","新北市淡水區溪口16號","121.455823333333","25.2364866666667","6501000","淡水區"
"251010","413-VK","2018/04/07 20:59:27","新北市淡水區中正路一段118-3號","121.42385","25.1787566666667","6501000","淡水區"
"251012","441-VK","2018/04/07 20:59:31","新北市淡水區淡金路五段72號","121.454643333333","25.2335416666667","6501000","淡水區"
"251016","442-VK","2018/04/07 20:59:35","新北市淡水區牛埔子11-1號","121.450296666667","25.218465","6501000","淡水區"
"251005","443-VK","2018/04/07 20:59:30","新北市淡水區學府路71號","121.448251666667","25.1699216666667","6501000","淡水區"
"251001","559-UM","2018/04/07 20:59:20","新北市淡水區淡金路二段38號","121.451706666667","25.1815533333333","6501000","淡水區"
"251007","577-R6","2018/04/07 20:59:31","新北市淡水區仁愛街1號","121.445835","25.1704966666667","6501000","淡水區"
"251011","650-BX","2018/04/07 20:59:22","新北市淡水區新民街226巷1號","121.43622","25.180735","6501000","淡水區"
"251002","672-BX","2018/04/07 20:59:34","新北市淡水區水源街一段110號","121.446805","25.171945","6501000","淡水區"
"251003","673-BX","2018/04/07 20:59:23","新北市淡水區新春街188號","121.443275","25.1808633333333","6501000","淡水區"
"221029","298-VK","2018/04/07 20:47:15","新北市汐止區工建路31號","121.639046666667","25.0635616666667","6501100","汐止區"
"221021","299-VK","2018/04/07 20:59:18","新北市汐止區汐萬路一段256巷3號","121.652283333333","25.0746383333333","6501100","汐止區"
"221018","753-BX","2018/04/07 20:59:25","新北市汐止區汐萬路一段256巷1號","121.651885","25.074775","6501100","汐止區"
"220070","AAC-253","2018/04/07 20:59:35","新北市八里區中山路三段409號","121.368468333333","25.1349133333333","6500100","板橋區"
