"lineid","car","time","location","longitude","latitude","cityid","cityname"
"249004","303-UY","2018/04/07 21:09:24","新北市林口區太平里180號","121.36822","25.1343133333333","6502300","八里區"
"231059","046-UY","2018/04/07 21:09:31","新北市新店區僑義路16號","121.500445","24.95054","6500600","新店區"
"231040","047-UY","2018/04/07 21:09:29","新北市新店區北新路一段351號","121.541793333333","24.96935","6500600","新店區"
"231048","187-VK","2018/04/07 21:09:15","新北市新店區文化路19號","121.543213333333","24.9795316666667","6500600","新店區"
"231054","KEA-2219","2018/04/07 21:09:36","新北市新店區大新街7巷10號","121.543651666667","24.96817","6500600","新店區"
"231051","278-BY","2018/04/07 21:09:27","新北市新店區中正路680巷33弄1號","121.535151666667","24.9893566666667","6500600","新店區"
"231050","AAD-862","2018/04/07 21:09:33","新北市新店區中華路147號","121.538158333333","24.9704483333333","6500600","新店區"
"231067","4772-VM","2018/04/07 21:09:36","新北市新店區薏仁坑路自強巷1號","121.497638333333","24.9576566666667","6500600","新店區"
"231061","619-UM","2018/04/07 21:09:32","新北市新店區永安街28-2號","121.517508333333","24.9864933333333","6500600","新店區"
"231063","641-BX","2018/04/07 21:09:24","新北市新店區玫瑰路64巷2號","121.495823333333","24.9457883333333","6500600","新店區"
"231042","645-TV","2018/04/07 21:09:24","新北市新店區寶興路60巷4號","121.549778333333","24.9718883333333","6500600","新店區"
"231064","719-UM","2018/04/07 21:09:25","新北市新店區薏仁坑路自強巷1號","121.497468333333","24.9576266666667","6500600","新店區"
"231065","719-UY","2018/04/07 21:09:19","新北市新店區安祥路102巷105號","121.486731666667","24.9640966666667","6500600","新店區"
"231062","720-UM","2018/04/07 21:09:32","新北市新店區雙城路60巷16弄13號","121.4917","24.9478666666667","6500600","新店區"
"231060","897-TW","2018/04/07 21:09:29","新北市新店區安康路二段383號","121.494998333333","24.9546116666667","6500600","新店區"
"241011","013-R5","2018/04/07 21:09:17","新北市三重區秀江街57號","121.500898333333","25.072555","6500200","三重區"
"241028","022-UY","2018/04/07 21:09:37","新北市三重區正義南路53號","121.498215","25.06062","6500200","三重區"
"241008","059-VK","2018/04/07 21:09:17","新北市三重區自強路一段60號","121.497338333333","25.0667816666667","6500200","三重區"
"241009","060-VK","2018/04/07 21:09:15","新北市三重區忠孝路二段124號","121.483053333333","25.0688183333333","6500200","三重區"
"241031","061-VK","2018/04/07 21:09:22","新北市三重區五谷王南街46巷37號","121.47569","25.045525","6500200","三重區"
"241015","062-VK","2018/04/07 21:09:35","新北市三重區長元街61號","121.502641666667","25.0665783333333","6500200","三重區"
"241017","063-VK","2018/04/07 21:09:16","新北市三重區國隆路30號","121.492223333333","25.0643416666667","6500200","三重區"
"241024","065-VK","2018/04/07 21:09:15","新北市三重區大勇街49號","121.481313333333","25.0719466666667","6500200","三重區"
"241026","066-VK","2018/04/07 21:09:22","新北市三重區文化南路42號","121.500405","25.0602283333333","6500200","三重區"
"241002","090-VK","2018/04/07 21:09:18","新北市三重區五華街16號","121.494878333333","25.0803366666667","6500200","三重區"
"241003","091-VK","2018/04/07 21:09:37","新北市三重區仁義街244號","121.494153333333","25.0854833333333","6500200","三重區"
"241005","262-UM","2018/04/07 21:09:20","新北市三重區三信路182號","121.487976666667","25.0861366666667","6500200","三重區"
"241016","265-UM","2018/04/07 21:09:31","新北市三重區信義西街138號","121.495568333333","25.06425","6500200","三重區"
"241022","267-UM","2018/04/07 21:09:32","新北市三重區中正北路64巷24號","121.486156666667","25.0636666666667","6500200","三重區"
"241018","268-UM","2018/04/07 21:09:24","新北市三重區正義北路332-1號","121.494335","25.0705533333333","6500200","三重區"
"241032","269-UM","2018/04/07 21:09:24","新北市三重區新北大道一段137號","121.482443333333","25.061415","6500200","三重區"
"241013","270-UM","2018/04/07 21:09:34","新北市三重區仁愛街96號","121.495433333333","25.0739066666667","6500200","三重區"
"241025","271-UM","2018/04/07 21:09:32","新北市三重區忠孝路三段40巷6弄11號","121.48225","25.0668583333333","6500200","三重區"
"241007","398-BY","2018/04/07 21:09:25","新北市三重區三和路四段145巷81號","121.486336666667","25.0787583333333","6500200","三重區"
"241020","478-VK","2018/04/07 21:09:28","新北市三重區忠孝路二段35號","121.485948333333","25.07111","6500200","三重區"
"241030","480-VK","2018/04/07 21:09:32","新北市三重區五谷王北街20巷15弄1號","121.47506","25.0484766666667","6500200","三重區"
"241014","543-UM","2018/04/07 21:09:27","新北市三重區三和路二段37-9號","121.501333333333","25.0677016666667","6500200","三重區"
"241023","545-UM","2018/04/07 21:09:15","新北市三重區忠孝路三段50巷41弄64號","121.482421666667","25.063755","6500200","三重區"
"241001","547-UM","2018/04/07 21:09:28","新北市三重區福隆路42號","121.492331666667","25.07834","6500200","三重區"
"241019","KEA-2593","2018/04/07 21:09:23","新北市三重區自強路二段74巷19號","121.487983333333","25.0699016666667","6500200","三重區"
"241006","AAD-863","2018/04/07 21:09:27","新北市三重區明志街135號","121.4893","25.0632566666667","6500200","三重區"
"241004","887-TS","2018/04/07 21:09:22","新北市三重區仁愛街423-1號","121.490451666667","25.081445","6500200","三重區"
"241012","941-UM","2018/04/07 21:09:19","新北市三重區龍門路274巷45號","121.501243333333","25.075525","6500200","三重區"
"241029","942-UM","2018/04/07 21:09:22","新北市三重區正義南路107號","121.498213333333","25.0585416666667","6500200","三重區"
"241033","AAC-255","2018/04/07 21:09:34","新北市三重區中興北街246-1號","121.469018333333","25.062365","6500200","三重區"
"247024","893-R6","2018/04/07 21:09:37","新北市蘆洲區長興路50巷1號","121.463745","25.0838183333333","6501400","蘆洲區"
"247022","500-BY","2018/04/07 21:09:30","新北市蘆洲區中正路275號","121.467081666667","25.0877783333333","6501400","蘆洲區"
"247010","341-TH","2018/04/07 21:09:28","新北市蘆洲區鷺江街48號","121.477215","25.0832083333333","6501400","蘆洲區"
"247012","339-TH","2018/04/07 21:09:32","新北市蘆洲區民族路10號","121.475723333333","25.0839533333333","6501400","蘆洲區"
"247004","337-TH","2018/04/07 21:09:32","新北市蘆洲區永安南路二段282號","121.457863333333","25.08104","6501400","蘆洲區"
"247006","336-TH","2018/04/07 21:09:30","新北市蘆洲區九芎街15巷12號","121.467931666667","25.0778016666667","6501400","蘆洲區"
"247018","057-VK","2018/04/07 21:09:32","新北市蘆洲區民族路408巷10號","121.474893333333","25.0917983333333","6501400","蘆洲區"
"247008","056-VK","2018/04/07 21:09:37","新北市蘆洲區民生街26號","121.474951666667","25.0790116666667","6501400","蘆洲區"
"247014","053-VK","2018/04/07 21:09:36","新北市蘆洲區中央路155號","121.472663333333","25.0846883333333","6501400","蘆洲區"
"247016","007-UY","2018/04/07 21:09:25","新北市蘆洲區光華路166號","121.465341666667","25.0823633333333","6501400","蘆洲區"
"247002","002-UY","2018/04/07 21:09:32","新北市蘆洲區永樂街38巷40號","121.458718333333","25.08999","6501400","蘆洲區"
"247020","001-UY","2018/04/07 21:09:34","新北市蘆洲區民族路375號","121.470766666667","25.09112","6501400","蘆洲區"
"251009","008-UM","2018/04/07 21:09:22","新北市淡水區民族路112巷40號","121.462023333333","25.1343883333333","6501000","淡水區"
"251004","009-UM","2018/04/07 21:09:30","新北市淡水區大同路113巷6號","121.463363333333","25.1415016666667","6501000","淡水區"
"251013","179-VK","2018/04/07 21:09:35","新北市淡水區行忠路328號","121.460548333333","25.199605","6501000","淡水區"
"251014","180-VK","2018/04/07 21:09:23","新北市淡水區溪口2號","121.449096666667","25.23773","6501000","淡水區"
"251015","182-VK","2018/04/07 21:09:24","新北市淡水區淡金路四段542巷66號","121.45525","25.2263783333333","6501000","淡水區"
"251010","413-VK","2018/04/07 21:09:27","新北市淡水區中正路一段63巷9號","121.422853333333","25.177295","6501000","淡水區"
"251012","441-VK","2018/04/07 21:09:31","新北市淡水區淡金路五段172號","121.457031666667","25.2400516666667","6501000","淡水區"
"251016","442-VK","2018/04/07 21:09:35","新北市淡水區牛埔子7-8號","121.448031666667","25.218365","6501000","淡水區"
"251005","443-VK","2018/04/07 21:09:30","新北市淡水區中正東路35巷28號","121.44678","25.1689016666667","6501000","淡水區"
"251001","559-UM","2018/04/07 21:09:21","新北市淡水區新市一路三段101巷16弄3號","121.446381666667","25.1838383333333","6501000","淡水區"
"251011","650-BX","2018/04/07 21:09:23","新北市淡水區新民街120巷45弄10號","121.438","25.179745","6501000","淡水區"
"251002","672-BX","2018/04/07 21:09:34","新北市淡水區英專路151號","121.448355","25.1749033333333","6501000","淡水區"
"251003","673-BX","2018/04/07 21:09:23","新北市淡水區新春街103-39號","121.44056","25.18278","6501000","淡水區"
"220070","AAC-253","2018/04/07 21:09:35","新北市八里區中山路三段409號","121.368765","25.1356","6500100","板橋區"
