"lineid","car","time","location","longitude","latitude","cityid","cityname"
"243008","680-BX","2018/04/07 21:23:47","新北市泰山區犁頭窠3-1號","121.421996666667","25.0605233333333","6501600","泰山區"
"241005","262-UM","2018/04/07 21:49:20","新北市三重區集賢路87-1號","121.493745","25.086905","6500200","三重區"
"235010","733-UM","2018/04/07 21:43:33","新北市中和區員山路36巷13號","121.484178333333","24.990805","6500300","中和區"
"247010","341-TH","2018/04/07 21:49:28","新北市八里區下罟子8-10號","121.383478333333","25.1445666666667","6501400","蘆洲區"
"251009","008-UM","2018/04/07 21:49:22","新北市淡水區民族路35巷23號","121.465066666667","25.1371733333333","6501000","淡水區"
"251004","009-UM","2018/04/07 21:49:30","新北市淡水區自強路201巷35號","121.462333333333","25.1267266666667","6501000","淡水區"
"251014","180-VK","2018/04/07 21:49:23","新北市淡水區中山北路三段165-1號","121.445303333333","25.1967766666667","6501000","淡水區"
"251008","181-VK","2018/04/07 21:49:38","新北市淡水區學府路104號","121.449848333333","25.1717883333333","6501000","淡水區"
"251010","413-VK","2018/04/07 21:49:27","新北市淡水區中正路二段211號","121.42619","25.1891016666667","6501000","淡水區"
"251012","441-VK","2018/04/07 21:49:31","新北市淡水區淡金路三段304號","121.448943333333","25.20783","6501000","淡水區"
"251005","443-VK","2018/04/07 21:49:30","新北市淡水區鄧公路30巷32弄3號","121.453606666667","25.170125","6501000","淡水區"
"251001","559-UM","2018/04/07 21:49:20","新北市淡水區沙崙路二段112號","121.433328333333","25.1984683333333","6501000","淡水區"
"251011","650-BX","2018/04/07 21:49:22","新北市淡水區新民街322巷5弄1號","121.436321666667","25.182915","6501000","淡水區"
"251002","672-BX","2018/04/07 21:49:34","新北市淡水區大忠街123號","121.447451666667","25.1767783333333","6501000","淡水區"
"251003","673-BX","2018/04/07 21:49:19","新北市淡水區新春街87號","121.438991666667","25.182565","6501000","淡水區"
"220070","AAC-253","2018/04/07 21:49:35","新北市板橋區華東街1-9號","121.448271666667","24.99486","6500100","板橋區"
