"lineid","car","time","location","longitude","latitude","cityid","cityname"
"235010","733-UM","2018/04/07 21:43:33","新北市中和區員山路36巷13號","121.484178333333","24.990805","6500300","中和區"
"247010","341-TH","2018/04/07 22:09:28","新北市八里區下罟子1-7號","121.391118333333","25.1418616666667","6501400","蘆洲區"
"251004","009-UM","2018/04/07 22:09:30","新北市淡水區民族路33號","121.462305","25.13582","6501000","淡水區"
"251008","181-VK","2018/04/07 22:09:38","新北市淡水區學府路104號","121.449791666667","25.1717416666667","6501000","淡水區"
"251010","413-VK","2018/04/07 22:09:27","新北市淡水區沙崙路200號","121.424705","25.1838933333333","6501000","淡水區"
"251007","577-R6","2018/04/07 22:09:30","新北市淡水區北新路180號","121.449323333333","25.1787633333333","6501000","淡水區"
"251011","650-BX","2018/04/07 22:09:22","新北市淡水區水碓街7號","121.443173333333","25.1771183333333","6501000","淡水區"
