"lineid","car","time","location","longitude","latitude","cityid","cityname"
"248005","653-BX","2018/08/25 10:29:24","新北市五股區中興路二段37巷24號","121.460728333333","25.0749283333333","6501500","五股區"
"231007","189-VK","2018/08/25 10:29:21","新北市新店區新潭路三段181號","121.508808333333","24.90538","6500600","新店區"
"231008","192-VK","2018/08/25 10:29:26","新北市新店區小坑一路21-1號","121.530916666667","24.912125","6500600","新店區"
"227006","282-VK","2018/08/25 10:29:39","新北市雙溪區上林里內平林131-1號","121.82205","25.0250783333333","6502500","雙溪區"
"252007","AAC-283","2018/08/25 10:29:32","新北市三芝區新庄里番社后8-11號","121.502151666667","25.2683183333333","6502100","三芝區"
"237001","159-UY","2018/08/25 10:29:32","新北市三峽區中山路459巷163-3號","121.349041666667","24.9331466666667","6500900","三峽區"
"236006","498-BY","2018/08/25 10:29:36","新北市土城區金城路二段20號","121.44987","24.9778066666667","6501300","土城區"
"220014","255-TC","2018/08/25 10:29:35","新北市板橋區四川路2段6-1號","121.447443333333","24.9947216666667","6500100","板橋區"
