"lineid","car","time","location","longitude","latitude","cityid","cityname"
"231007","189-VK","2018/08/25 10:59:21","新北市新店區新潭路三段62號","121.507368333333","24.9124933333333","6500600","新店區"
"231008","192-VK","2018/08/25 10:51:26","新北市新店區成功路58-1號","121.538611666667","24.9001116666667","6500600","新店區"
"227006","282-VK","2018/08/25 10:59:39","新北市雙溪區魚行里坤溪8號","121.866328333333","25.0211583333333","6502500","雙溪區"
"237001","159-UY","2018/08/25 10:59:32","新北市三峽區中山路459巷163-3號","121.349061666667","24.9331383333333","6500900","三峽區"
"220014","255-TC","2018/08/25 10:59:35","新北市板橋區四川路2段6-1號","121.447418333333","24.9947833333333","6500100","板橋區"
