"lineid","car","time","location","longitude","latitude","cityid","cityname"
"234015","745-BX","2018/08/25 12:19:33","新北市永和區福和路1號","121.52629","25.0095233333333","6500400","永和區"
"234048","863-TW","2018/08/25 12:19:37","新北市永和區福和路1號","121.526363333333","25.0097683333333","6500400","永和區"
"234022","9380-KE","2018/08/25 12:07:57","新北市永和區福和路1號","121.525798333333","25.0093883333333","6500400","永和區"
"231008","192-VK","2018/08/25 12:19:26","新北市新店區北宜路一段2號","121.537955","24.9588566666667","6500600","新店區"
"228005","097-TW","2018/08/25 12:19:39","新北市貢寮區福連里福連街5號","121.988046666667","25.0144966666667","6502600","貢寮區"
"228004","212-TW","2018/08/25 12:19:32","新北市貢寮區貢寮里長泰路17-2號","121.891903333333","25.0211183333333","6502600","貢寮區"
"237001","159-UY","2018/08/25 12:19:32","新北市三峽區學勤路38號","121.37428","24.9459133333333","6500900","三峽區"
