"lineid","car","time","location","longitude","latitude","cityid","cityname"
"234044","148-BY","2018/08/25 12:59:22","新北市永和區得和路373巷16弄1號","121.525213333333","25.0003483333333","6500400","永和區"
"234005","207-UY","2018/08/25 12:59:22","新北市永和區中山路一段31號","121.51332","25.0105416666667","6500400","永和區"
"234078","298-R6","2018/08/25 12:59:38","新北市永和區國中路198號","121.522356666667","25.00623","6500400","永和區"
"234036","336-UY","2018/08/25 12:59:27","新北市永和區成功路二段207號","121.526686666667","24.9959266666667","6500400","永和區"
"234062","337-UY","2018/08/25 12:59:23","新北市永和區秀朗路一段160號","121.51839","25.0034466666667","6500400","永和區"
"234084","338-UY","2018/08/25 12:59:27","新北市永和區永寧街121號","121.517996666667","25.005715","6500400","永和區"
"234068","552-UM","2018/08/25 12:59:35","新北市永和區中興街68巷5弄1號","121.517786666667","25.01145","6500400","永和區"
"234015","745-BX","2018/08/25 12:59:33","新北市永和區永和路二段299號","121.516115","25.01615","6500400","永和區"
"234028","746-BX","2018/08/25 12:59:29","新北市永和區秀朗路二段278號","121.52602","24.9978233333333","6500400","永和區"
"234052","KEA-2590","2018/08/25 12:59:38","新北市永和區竹林路66巷2號","121.51832","25.0133916666667","6500400","永和區"
"234012","KEA-2591","2018/08/25 12:59:40","新北市永和區信義路19號","121.514176666667","25.0120166666667","6500400","永和區"
"234060","AAD-866","2018/08/25 12:59:26","新北市永和區福和路307號","121.516228333333","25.0070983333333","6500400","永和區"
"234040","862-TW","2018/08/25 12:59:35","新北市永和區永貞路310號","121.511848333333","25.004945","6500400","永和區"
"234048","863-TW","2018/08/25 12:59:37","新北市永和區文化路206號","121.510396666667","25.0165883333333","6500400","永和區"
"234025","9371-KE","2018/08/25 12:59:37","新北市永和區水源街2巷15號","121.512073333333","25.0057083333333","6500400","永和區"
"234010","9373-KE","2018/08/25 12:59:27","新北市永和區仁愛路40巷9弄3號","121.513796666667","25.0139633333333","6500400","永和區"
"248017","225-UY","2018/08/25 12:59:32","新北市五股區中興路二段83巷26-3號","121.460083333333","25.0753883333333","6501500","五股區"
"234022","9380-KE","2018/08/25 12:59:44","新北市永和區竹林路75巷7號","121.519216666667","25.0132633333333","6500400","永和區"
"234076","969-R7","2018/08/25 12:59:32","新北市永和區民享街2巷2號","121.514735","24.9957133333333","6500400","永和區"
"234066","AAC-212","2018/08/25 12:59:25","新北市永和區中和路625號","121.51291","25.0048183333333","6500400","永和區"
"234001","AAC-295","2018/08/25 12:59:39","新北市永和區永平路20號","121.513523333333","25.0088133333333","6500400","永和區"
"244005","248-BX","2018/08/25 12:59:30","新北市林口區中山路319號","121.38347","25.0805866666667","6501700","林口區"
"231005","001-UM","2018/08/25 12:59:42","新北市新店區安華路28-1號","121.519531666667","24.9610216666667","6500600","新店區"
"231002","002-UM","2018/08/25 12:59:36","新北市新店區安華路28-1號","121.519643333333","24.9608966666667","6500600","新店區"
"231010","107-UY","2018/08/25 12:59:41","新北市新店區安一路一段1-1號","121.519486666667","24.9612816666667","6500600","新店區"
"231023","KEA-2219","2018/08/25 12:59:33","新北市新店區安一路一段1-1號","121.519961666667","24.961115","6500600","新店區"
"231003","268-BY","2018/08/25 12:59:30","新北市新店區安華路28-1號","121.519426666667","24.9605766666667","6500600","新店區"
"231018","278-BY","2018/08/25 12:59:28","新北市新店區安一路一段1-1號","121.519713333333","24.9610583333333","6500600","新店區"
"231017","AAD-862","2018/08/25 12:59:26","新北市新店區安一路一段1-1號","121.519918333333","24.961155","6500600","新店區"
"231027","3713-VJ","2018/08/25 12:59:21","新北市新店區安華路28-1號","121.519161666667","24.960685","6500600","新店區"
"231037","4716-K9","2018/08/25 12:59:28","新北市新店區安一路一段1-1號","121.519238333333","24.9612033333333","6500600","新店區"
"231036","512-UM","2018/08/25 12:59:33","新北市新店區安一路一段1-1號","121.519236666667","24.9611966666667","6500600","新店區"
"231013","513-UM","2018/08/25 12:59:24","新北市新店區安一路一段1-1號","121.519738333333","24.961255","6500600","新店區"
"231006","617-UM","2018/08/25 12:59:39","新北市新店區安一路一段1-1號","121.519491666667","24.9610233333333","6500600","新店區"
"231030","619-UM","2018/08/25 12:59:38","新北市新店區安華路28-1號","121.519445","24.960945","6500600","新店區"
"231034","641-BX","2018/08/25 12:59:39","新北市新店區安華路1-1號","121.519515","24.960495","6500600","新店區"
"231035","719-UM","2018/08/25 12:59:26","新北市新店區安一路一段1-1號","121.519478333333","24.9614383333333","6500600","新店區"
"231033","720-UM","2018/08/25 12:59:39","新北市新店區安一路一段1-1號","121.519351666667","24.9612333333333","6500600","新店區"
"231029","897-TW","2018/08/25 12:59:41","新北市新店區安華路28-1號","121.519531666667","24.9609366666667","6500600","新店區"
"235028","005-UY","2018/08/25 12:59:44","新北市中和區員山路36巷16-3號","121.485091666667","24.99137","6500300","中和區"
"235029","098-UM","2018/08/25 12:59:33","新北市中和區景平路735號","121.496415","25.004365","6500300","中和區"
"235022","151-BY","2018/08/25 12:59:21","新北市中和區圓通路367巷18-3號","121.491821666667","24.9887183333333","6500300","中和區"
"235002","185-VK","2018/08/25 12:59:36","新北市中和區成功路14號","121.526143333333","24.9934766666667","6500300","中和區"
"235031","255-BX","2018/08/25 12:59:30","新北市中和區新生街13巷5號","121.483506666667","25.0043833333333","6500300","中和區"
"235006","KEA-2878","2018/08/25 12:59:23","新北市中和區中正路271號","121.495785","24.9938816666667","6500300","中和區"
"235034","558-UM","2018/08/25 12:59:24","新北市中和區員山路36巷16-2號","121.485168333333","24.991795","6500300","中和區"
"235018","640-BX","2018/08/25 12:59:23","新北市中和區員山路36巷16-4號","121.485033333333","24.9920316666667","6500300","中和區"
"235011","732-UM","2018/08/25 12:59:34","新北市中和區員山路36巷13號","121.484153333333","24.9910666666667","6500300","中和區"
"235035","783-BX","2018/08/25 12:59:28","新北市中和區民樂路81號","121.484901666667","25.001365","6500300","中和區"
"235026","800-TS","2018/08/25 12:59:34","新北市中和區錦和路89號","121.490083333333","24.99591","6500300","中和區"
"235021","801-TS","2018/08/25 12:59:41","新北市中和區員山路36巷16-3號","121.484886666667","24.9916366666667","6500300","中和區"
"235005","802-TS","2018/08/25 12:59:30","新北市中和區員山路36巷16-2號","121.485306666667","24.99165","6500300","中和區"
"235016","805-TS","2018/08/25 12:59:25","新北市中和區員山路36巷16號","121.484355","24.991615","6500300","中和區"
"235015","157-BY","2018/08/25 12:59:40","新北市中和區員山路36巷13號","121.484096666667","24.9909966666667","6500300","中和區"
"235001","AAC-213","2018/08/25 12:59:41","新北市中和區中正路271號","121.495951666667","24.99375","6500300","中和區"
"235023","AAC-215","2018/08/25 12:59:26","新北市中和區員山路36巷16-2號","121.485136666667","24.991595","6500300","中和區"
"228005","097-TW","2018/08/25 12:59:39","新北市貢寮區龍門里復興街46-1號","121.928075","25.0289216666667","6502600","貢寮區"
"228004","212-TW","2018/08/25 12:59:32","新北市貢寮區吉林里內寮街57號","121.887038333333","24.987505","6502600","貢寮區"
"207002","749-BX","2018/08/25 12:59:23","新北市萬里區雙興里大坪路39號","121.625595","25.17139","6502800","萬里區"
"252005","073-UM","2018/08/25 12:59:27","新北市三芝區埔坪里埔頭坑41號","121.504696666667","25.26387","6502100","三芝區"
"207001","662-BX","2018/08/25 12:59:34","新北市萬里區萬里里獅頭路23號","121.693163333333","25.1781783333333","6502800","萬里區"
"237001","159-UY","2018/08/25 12:59:32","新北市三峽區中山路459巷163-1號","121.349305","24.9334316666667","6500900","三峽區"
"236006","498-BY","2018/08/25 12:59:37","新北市土城區亞洲路32巷6號","121.435856666667","24.974505","6501300","土城區"
"221032","280-BY","2018/08/25 12:59:27","新北市汐止區大同路二段535號","121.661976666667","25.069065","6501100","汐止區"
"235032","KEA-2873","2018/08/25 12:59:35","新北市中和區員山路36巷16-3號","121.484976666667","24.9912533333333","6500300","中和區"
