"lineid","car","time","location","longitude","latitude","cityid","cityname"
"234062","337-UY","2018/08/25 14:39:43","新北市永和區環河西路二段211號","121.501478333333","25.01075","6500400","永和區"
"234028","746-BX","2018/08/25 14:39:28","新北市永和區民權路51號","121.520068333333","24.9970166666667","6500400","永和區"
"234025","9371-KE","2018/08/25 14:39:37","新北市永和區中和路517號","121.511003333333","25.00267","6500400","永和區"
"248017","225-UY","2018/08/25 14:22:12","新北市五股區壟路16號","121.415353333333","25.0856283333333","6501500","五股區"
"234072","AAC-211","2018/08/25 14:39:38","新北市永和區環河東路二段48號","121.52307","25.0119533333333","6500400","永和區"
"231005","001-UM","2018/08/25 14:39:41","新北市新店區順安街59號","121.54086","24.986365","6500600","新店區"
"231002","002-UM","2018/08/25 14:39:36","新北市新店區中正路460號","121.534006666667","24.979385","6500600","新店區"
"231028","046-UY","2018/08/25 14:39:37","新北市新店區安成街17號","121.510255","24.9607883333333","6500600","新店區"
"231020","108-UY","2018/08/25 14:39:26","新北市新店區桂山路51巷6-1號","121.561968333333","24.9015766666667","6500600","新店區"
"231012","187-VK","2018/08/25 14:39:44","新北市新店區寶宏路3-3號","121.549176666667","24.976695","6500600","新店區"
"231023","KEA-2219","2018/08/25 14:39:34","新北市新店區檳榔路48號","121.541723333333","24.9636616666667","6500600","新店區"
"231003","268-BY","2018/08/25 14:39:30","新北市新店區中興路一段283號","121.545413333333","24.9684816666667","6500600","新店區"
"231018","278-BY","2018/08/25 14:39:42","新北市新店區中央路206號","121.53036","24.973955","6500600","新店區"
"231017","AAD-862","2018/08/25 14:39:26","新北市新店區北宜路三段221號","121.592385","24.9532116666667","6500600","新店區"
"231001","355-BY","2018/08/25 14:39:42","新北市新店區中正路51號","121.544636666667","24.969885","6500600","新店區"
"231038","3712-VJ","2018/08/25 14:39:43","新北市新店區安康路一段46巷16號","121.53117","24.9621316666667","6500600","新店區"
"231027","3713-VJ","2018/08/25 14:39:41","新北市新店區中央路131號","121.530436666667","24.9738683333333","6500600","新店區"
"231037","4716-K9","2018/08/25 14:39:28","新北市新店區柴埕路52巷12號","121.512031666667","24.964435","6500600","新店區"
"231036","512-UM","2018/08/25 14:39:36","新北市新店區安祥路106巷270號","121.472958333333","24.958725","6500600","新店區"
"231013","513-UM","2018/08/25 14:39:40","新北市新店區明德路27號","121.541908333333","24.9771616666667","6500600","新店區"
"231006","617-UM","2018/08/25 14:39:39","新北市新店區北宜路二段131號","121.551043333333","24.9530866666667","6500600","新店區"
"231030","619-UM","2018/08/25 14:39:38","新北市新店區安民街204號","121.5172","24.971895","6500600","新店區"
"231034","641-BX","2018/08/25 14:39:39","新北市新店區黎明路11號","121.502018333333","24.94983","6500600","新店區"
"231035","719-UM","2018/08/25 14:38:06","新北市新店區安光路13-1號","121.513276666667","24.9638366666667","6500600","新店區"
"231029","897-TW","2018/08/25 14:39:36","新北市新店區安康路三段552號","121.481858333333","24.9488216666667","6500600","新店區"
"231004","899-TW","2018/08/25 14:39:44","新北市新店區中正路306號","121.537363333333","24.9745516666667","6500600","新店區"
"231024","AKT-0513","2018/08/25 14:39:39","新北市新店區新生街1號","121.540393333333","24.96562","6500600","新店區"
"235030","003-UY","2018/08/25 14:39:40","新北市中和區景新街137號","121.506163333333","24.9971683333333","6500300","中和區"
"235027","006-UY","2018/08/25 14:39:44","新北市中和區連城路263巷9弄2號","121.492368333333","24.99549","6500300","中和區"
"235020","096-UM","2018/08/25 14:39:26","新北市中和區員山路581巷31弄1號","121.477321666667","25.0103183333333","6500300","中和區"
"235003","097-UM","2018/08/25 14:39:32","新北市中和區安平路105號","121.511526666667","24.9973683333333","6500300","中和區"
"235029","098-UM","2018/08/25 14:39:33","新北市中和區福美路263號","121.498406666667","25.00507","6500300","中和區"
"235004","150-BY","2018/08/25 14:39:27","新北市中和區宜安路32號","121.512786666667","24.99614","6500300","中和區"
"235022","151-BY","2018/08/25 14:39:41","新北市中和區員山路124巷3號","121.48158","24.996005","6500300","中和區"
"235019","183-VK","2018/08/25 14:39:25","新北市中和區民生街15號","121.471311666667","25.0059383333333","6500300","中和區"
"235002","185-VK","2018/08/25 14:39:36","新北市中和區自立路20巷16號","121.521565","24.99328","6500300","中和區"
"235013","186-VK","2018/08/25 14:39:29","新北市中和區景新街214號","121.507038333333","24.9951666666667","6500300","中和區"
"235031","255-BX","2018/08/25 14:39:30","新北市中和區連城路340巷14弄18號","121.482926666667","24.9971733333333","6500300","中和區"
"235008","293-VK","2018/08/25 14:39:36","新北市中和區興南路一段71號","121.510143333333","24.9893266666667","6500300","中和區"
"235036","301-VK","2018/08/25 14:39:40","新北市中和區中和路74號","121.500696666667","25.0001683333333","6500300","中和區"
"235007","352-BY","2018/08/25 14:39:36","新北市中和區南山路127巷18弄42號","121.503491666667","24.99652","6500300","中和區"
"235006","KEA-2878","2018/08/25 14:39:24","新北市中和區保健路2巷30號","121.506971666667","24.9974566666667","6500300","中和區"
"247009","KEA-2869","2018/08/25 14:39:45","新北市蘆洲區集賢路308號","121.481143333333","25.085215","6501400","蘆洲區"
"235034","558-UM","2018/08/25 14:39:28","新北市中和區連勝街50號","121.497796666667","24.9973733333333","6500300","中和區"
"235018","640-BX","2018/08/25 14:39:43","新北市中和區莒光路105號","121.472541666667","25.0028416666667","6500300","中和區"
"235024","647-TV","2018/08/25 14:39:27","新北市中和區新生街16巷19號","121.482375","25.004285","6500300","中和區"
"235011","732-UM","2018/08/25 14:39:34","新北市中和區和平街3-2號","121.509681666667","24.9901033333333","6500300","中和區"
"235010","733-UM","2018/08/25 14:39:37","新北市中和區景新街500號","121.513863333333","24.9870433333333","6500300","中和區"
"235026","800-TS","2018/08/25 14:39:38","新北市中和區建二路56號","121.485991666667","25.0037","6500300","中和區"
"235021","801-TS","2018/08/25 14:39:41","新北市中和區員山路150-28號","121.48137","24.998175","6500300","中和區"
"235005","802-TS","2018/08/25 14:39:30","新北市中和區宜安路152號","121.509381666667","24.998755","6500300","中和區"
"235016","805-TS","2018/08/25 14:39:45","新北市中和區華新街204號","121.506661666667","24.9818833333333","6500300","中和區"
"235012","896-TW","2018/08/25 14:39:34","新北市中和區景新街462號","121.513453333333","24.987375","6500300","中和區"
"235017","900-TW","2018/08/25 14:39:33","新北市中和區民德路197-2號","121.46866","24.9988533333333","6500300","中和區"
"235015","157-BY","2018/08/25 14:39:40","新北市中和區中興街180巷50弄5號","121.498613333333","24.9889966666667","6500300","中和區"
"235001","AAC-213","2018/08/25 14:39:40","新北市中和區秀朗路三段95號","121.526496666667","24.9951683333333","6500300","中和區"
"235023","AAC-215","2018/08/25 14:39:46","新北市中和區圓通路270-1號","121.49249","24.9909783333333","6500300","中和區"
"220013","072-UY","2018/08/25 14:39:33","新北市板橋區國泰街38巷3弄10號","121.468158333333","25.006745","6500100","板橋區"
"220105","075-UY","2018/08/25 14:39:25","新北市板橋區文化路二段444號","121.47441","25.0321816666667","6500100","板橋區"
"220017","AAD-861","2018/08/25 14:39:33","新北市板橋區縣民大道一段64巷12號","121.455303333333","25.0037516666667","6500100","板橋區"
"247023","893-R6","2018/08/25 14:39:35","新北市蘆洲區正和街63巷12號","121.469043333333","25.08085","6501400","蘆洲區"
"247013","546-UM","2018/08/25 14:39:39","新北市蘆洲區成功路108號","121.472396666667","25.0822933333333","6501400","蘆洲區"
"247011","339-TH","2018/08/25 14:39:37","新北市蘆洲區集賢路224巷46弄60-1號","121.480811666667","25.0880033333333","6501400","蘆洲區"
"247003","337-TH","2018/08/25 14:39:40","新北市蘆洲區長安街285巷8號","121.457865","25.0843066666667","6501400","蘆洲區"
"247005","336-TH","2018/08/25 14:39:33","新北市蘆洲區長安街78號","121.462373333333","25.0802716666667","6501400","蘆洲區"
"247007","056-VK","2018/08/25 14:39:27","新北市蘆洲區信義路56號","121.475308333333","25.079715","6501400","蘆洲區"
"247015","007-UY","2018/08/25 14:39:45","新北市蘆洲區正和街22號","121.469888333333","25.0822933333333","6501400","蘆洲區"
"247001","002-UY","2018/08/25 14:39:31","新北市蘆洲區永樂街38巷25號","121.458193333333","25.0890866666667","6501400","蘆洲區"
"247019","001-UY","2018/08/25 14:39:47","新北市蘆洲區民義街88號","121.473683333333","25.0903","6501400","蘆洲區"
"228005","097-TW","2018/08/25 14:39:38","新北市貢寮區美豐里雞母嶺街6-6號","121.902096666667","25.0642416666667","6502600","貢寮區"
"228004","212-TW","2018/08/25 14:39:32","新北市貢寮區福隆里虎子山街14-1號","121.944295","25.0156133333333","6502600","貢寮區"
"253003","6232-TK","2018/08/25 14:39:29","新北市石門區內石門73號","121.582918333333","25.259495","6502200","石門區"
"253001","6251-TK","2018/08/25 14:39:34","新北市石門區八甲15-2號","121.523181666667","25.2807983333333","6502200","石門區"
"253002","637-UY","2018/08/25 14:35:42","新北市三芝區橫山里橫山39-3號","121.545816666667","25.2538166666667","6502200","石門區"
"253004","8270-PC","2018/08/25 14:39:36","新北市石門區內阿里磅25號","121.591711666667","25.2451866666667","6502200","石門區"
"207002","749-BX","2018/08/25 14:39:43","新北市萬里區崁腳里內崁路2-3號","121.63877","25.1605483333333","6502800","萬里區"
"252005","073-UM","2018/08/25 14:39:27","新北市三芝區橫山里大坑94-1號","121.526151666667","25.2595733333333","6502100","三芝區"
"207001","662-BX","2018/08/25 14:39:34","新北市萬里區磺潭里員潭路54號","121.643443333333","25.1906183333333","6502800","萬里區"
"236068","105-UM","2018/08/25 14:39:38","新北市土城區永豐路252號","121.469021666667","24.9797533333333","6501300","土城區"
"236040","107-UM","2018/08/25 14:39:35","新北市土城區學成路91巷10號","121.450741666667","24.9880316666667","6501300","土城區"
"236074","166-UM","2018/08/25 14:39:27","新北市土城區頂埔街62號","121.417998333333","24.9598633333333","6501300","土城區"
"236029","253-BX","2018/08/25 14:39:38","新北市土城區中華路二段90號","121.438351666667","24.9747866666667","6501300","土城區"
"236024","269-VK","2018/08/25 14:39:37","新北市土城區忠義路47-1號","121.440818333333","24.9694916666667","6501300","土城區"
"236013","270-VK","2018/08/25 14:39:25","新北市土城區清水路222號","121.460828333333","24.9822633333333","6501300","土城區"
"236032","271-VK","2018/08/25 14:39:25","新北市土城區明德路一段313巷11弄7號","121.460196666667","24.97595","6501300","土城區"
"236017","401-BY","2018/08/25 14:39:28","新北市土城區延吉街214號","121.467431666667","24.984975","6501300","土城區"
"236057","912-UM","2018/08/25 14:39:39","新北市土城區中央路三段159號","121.431976666667","24.965385","6501300","土城區"
"236045","913-UM","2018/08/25 14:39:43","新北市土城區金城路三段1號","121.464248333333","24.98607","6501300","土城區"
"236060","915-UM","2018/08/25 14:39:42","新北市土城區延和路125巷29號","121.46903","24.9911416666667","6501300","土城區"
"236063","970-R7","2018/08/25 14:39:26","新北市土城區學府路一段201號","121.451816666667","24.984765","6501300","土城區"
"236054","AAC-216","2018/08/25 14:39:34","新北市土城區裕民路22號","121.447668333333","24.9886433333333","6501300","土城區"
"220027","145-BY","2018/08/25 14:39:40","新北市板橋區建國街103號","121.46002","25.0174116666667","6500100","板橋區"
"220028","200-UY","2018/08/25 14:39:27","新北市板橋區大觀路二段37巷57號","121.449423333333","25.0026466666667","6500100","板橋區"
"220030","610-BX","2018/08/25 14:39:41","新北市板橋區篤行路一段39號","121.431991666667","24.9942183333333","6500100","板橋區"
"220050","245-BX","2018/08/25 14:39:39","新北市板橋區萬板路52號","121.472158333333","25.02297","6500100","板橋區"
"220004","276-BY","2018/08/25 14:39:42","新北市板橋區德興街37巷3號","121.453715","24.9939083333333","6500100","板橋區"
"220020","277-BY","2018/08/25 14:39:30","新北市板橋區金門街215巷79號","121.434115","24.9893166666667","6500100","板橋區"
"220011","280-UM","2018/08/25 14:39:30","新北市板橋區三民路一段31巷89弄4號","121.481555","25.0234766666667","6500100","板橋區"
"220019","283-VK","2018/08/25 14:39:43","新北市板橋區五權街32巷32號","121.463758333333","24.9927183333333","6500100","板橋區"
"220043","285-UM","2018/08/25 14:39:39","新北市板橋區宏國路93號","121.469736666667","25.0324033333333","6500100","板橋區"
"220001","285-VK","2018/08/25 14:39:45","新北市板橋區懷仁街79號","121.477315","25.018425","6500100","板橋區"
"220031","286-VK","2018/08/25 14:39:38","新北市板橋區僑中二街152號","121.444795","25.0043733333333","6500100","板橋區"
"220029","287-VK","2018/08/25 14:39:42","新北市板橋區大觀路一段28巷101號","121.450033333333","25.01192","6500100","板橋區"
"220039","288-VK","2018/08/25 14:39:36","新北市板橋區新海路431巷10號","121.457896666667","25.0271616666667","6500100","板橋區"
"220009","295-UM","2018/08/25 14:39:39","新北市板橋區漢生東路111-1號","121.467288333333","25.0150483333333","6500100","板橋區"
"220032","296-UM","2018/08/25 14:39:45","新北市板橋區滿平街11號","121.426323333333","24.9901316666667","6500100","板橋區"
"220010","299-UM","2018/08/25 14:39:40","新北市板橋區三民路二段77號","121.47934","25.0167883333333","6500100","板橋區"
"220023","303-R5","2018/08/25 14:39:39","新北市板橋區大勇街8巷1號","121.453955","25.0171316666667","6500100","板橋區"
"220041","307-R5","2018/08/25 14:39:27","新北市板橋區陽明街46-3號","121.465586666667","25.021985","6500100","板橋區"
"220047","317-R6","2018/08/25 14:39:37","新北市板橋區裕民街75巷2弄15-2號","121.460511666667","25.0277166666667","6500100","板橋區"
"220012","486-VK","2018/08/25 14:39:43","新北市板橋區中山路一段74號","121.461693333333","25.009945","6500100","板橋區"
"220037","491-VK","2018/08/25 14:39:28","新北市板橋區文化路二段580號","121.47673","25.0346316666667","6500100","板橋區"
"220104","560-BX","2018/08/25 14:39:28","新北市板橋區金華街85巷42號","121.459208333333","25.021395","6500100","板橋區"
"220052","561-BX","2018/08/25 14:39:40","新北市板橋區陽明街23巷29號","121.465886666667","25.02051","6500100","板橋區"
"220040","637-BX","2018/08/25 14:39:37","新北市板橋區懷德街139巷20弄10號","121.480215","25.0306683333333","6500100","板橋區"
"220005","686-BX","2018/08/25 14:39:30","新北市板橋區和平路安樂巷25號","121.461551666667","24.9935666666667","6500100","板橋區"
"220025","687-BX","2018/08/25 14:39:37","新北市板橋區僑中二街108巷1號","121.44578","25.00727","6500100","板橋區"
"220042","689-BX","2018/08/25 14:39:24","新北市板橋區新海路428號","121.45816","25.0275416666667","6500100","板橋區"
"220002","741-BX","2018/08/25 14:39:44","新北市板橋區忠孝路188號","121.464961666667","25.0026383333333","6500100","板橋區"
"220051","KEA-2699","2018/08/25 14:39:34","新北市板橋區松柏街50巷43號","121.476156666667","25.0293983333333","6500100","板橋區"
"220003","827-TW","2018/08/25 14:39:42","新北市板橋區國慶路149巷21弄12號","121.460276666667","24.9972916666667","6500100","板橋區"
"220014","829-TW","2018/08/25 14:39:43","新北市板橋區長安街259巷2號","121.47319","25.0105066666667","6500100","板橋區"
"220016","830-TW","2018/08/25 14:39:42","新北市板橋區中山路二段412巷5號","121.483255","25.0207966666667","6500100","板橋區"
"220045","831-TW","2018/08/25 14:39:23","新北市板橋區莒光路40巷7弄11號","121.47089","25.0239966666667","6500100","板橋區"
"220038","833-TW","2018/08/25 14:39:24","新北市板橋區雨農路21號","121.46144","25.0242566666667","6500100","板橋區"
"220022","895-R6","2018/08/25 14:39:43","新北市板橋區明德街2-2號","121.459748333333","25.0099833333333","6500100","板橋區"
"220021","985-R7","2018/08/25 14:39:43","新北市板橋區瑞安街46巷1號","121.455365","25.0220733333333","6500100","板橋區"
"220046","AAC-210","2018/08/25 14:39:44","新北市板橋區漢生西路89巷2弄28號","121.461686666667","25.0199866666667","6500100","板橋區"
"220018","AAC-253","2018/08/25 14:39:35","新北市板橋區民族路306號","121.470673333333","25.006725","6500100","板橋區"
"235032","KEA-2873","2018/08/25 14:39:35","新北市中和區福美路301巷42號","121.497746666667","25.0034633333333","6500300","中和區"
"235025","KEA-2875","2018/08/25 14:39:26","新北市中和區民安街22巷20號","121.479531666667","25.001515","6500300","中和區"
