"lineid","car","time","location","longitude","latitude","cityid","cityname"
"234025","9371-KE","2018/08/25 14:59:37","新北市永和區水源街34號","121.511105","25.00452","6500400","永和區"
"248017","225-UY","2018/08/25 14:59:38","新北市五股區水碓九路83號","121.429375","25.0747116666667","6501500","五股區"
"231005","001-UM","2018/08/25 14:59:41","新北市新店區寶慶街58巷4號","121.542171666667","24.9869233333333","6500600","新店區"
"231002","002-UM","2018/08/25 14:59:36","新北市新店區中正路501-2號","121.533691666667","24.9837633333333","6500600","新店區"
"231028","046-UY","2018/08/25 14:59:37","新北市新店區安康路二段309-1號","121.501396666667","24.9571183333333","6500600","新店區"
"231020","108-UY","2018/08/25 14:59:26","新北市新店區永福路30-1號","121.548635","24.9289966666667","6500600","新店區"
"231012","187-VK","2018/08/25 14:59:24","新北市新店區寶橋路85巷5弄3號","121.54599","24.9756216666667","6500600","新店區"
"231023","KEA-2219","2018/08/25 14:59:33","新北市新店區檳榔路109號","121.544546666667","24.9617083333333","6500600","新店區"
"231026","256-BX","2018/08/25 14:59:35","新北市新店區北新路二段2號","121.542556666667","24.9708016666667","6500600","新店區"
"231003","268-BY","2018/08/25 14:59:42","新北市新店區中興路一段308號","121.546545","24.9701566666667","6500600","新店區"
"231018","278-BY","2018/08/25 14:59:42","新北市新店區中央六街30號","121.529135","24.975125","6500600","新店區"
"231017","AAD-862","2018/08/25 14:59:45","新北市新店區明山路24巷1號","121.562743333333","24.9542283333333","6500600","新店區"
"231001","355-BY","2018/08/25 14:59:33","新北市新店區中正路276號","121.538776666667","24.9736316666667","6500600","新店區"
"231038","3712-VJ","2018/08/25 14:59:43","新北市新店區安華路28-1號","121.519618333333","24.9609133333333","6500600","新店區"
"231037","4716-K9","2018/08/25 14:59:28","新北市新店區薏仁坑路自強巷1號","121.497461666667","24.957815","6500600","新店區"
"231025","4715-K9","2018/08/25 14:59:33","新北市新店區大同街20號","121.539281666667","24.9801583333333","6500600","新店區"
"231036","512-UM","2018/08/25 14:59:36","新北市新店區安祥路102巷42弄73號","121.486381666667","24.9632433333333","6500600","新店區"
"231006","617-UM","2018/08/25 14:59:39","新北市新店區新坡一街72號","121.548936666667","24.9645633333333","6500600","新店區"
"231030","619-UM","2018/08/25 14:59:38","新北市新店區安民街341-1號","121.516773333333","24.9749233333333","6500600","新店區"
"231034","641-BX","2018/08/25 14:59:39","新北市新店區玫瑰路4-1號","121.493591666667","24.95142","6500600","新店區"
"231039","718-UY","2018/08/25 14:59:37","新北市新店區中興路三段88號","121.545268333333","24.97886","6500600","新店區"
"231035","719-UM","2018/08/25 14:59:46","新北市新店區安和路二段240號","121.516616666667","24.9785216666667","6500600","新店區"
"231029","897-TW","2018/08/25 14:59:36","新北市新店區安康路三段738號","121.473858333333","24.9420416666667","6500600","新店區"
"231004","899-TW","2018/08/25 14:59:24","新北市新店區民族路12號","121.541555","24.9788483333333","6500600","新店區"
"231024","AKT-0513","2018/08/25 14:59:39","新北市新店區中華路83巷15號","121.538745","24.9681633333333","6500600","新店區"
"235030","003-UY","2018/08/25 14:59:40","新北市中和區中山路二段65號","121.50414","25.004655","6500300","中和區"
"235020","096-UM","2018/08/25 14:59:29","新北市中和區中山路三段170巷8弄24號","121.473125","25.0076233333333","6500300","中和區"
"235003","097-UM","2018/08/25 14:59:32","新北市中和區安樂路143巷20號","121.51323","24.9967533333333","6500300","中和區"
"235029","098-UM","2018/08/25 14:59:33","新北市中和區永和路128巷9號","121.49764","25.0069216666667","6500300","中和區"
"235004","150-BY","2018/08/25 14:59:27","新北市中和區景安路79巷23號","121.507131666667","24.9967716666667","6500300","中和區"
"235022","151-BY","2018/08/25 14:59:41","新北市中和區員山路148巷5號","121.48163","24.9972516666667","6500300","中和區"
"235013","186-VK","2018/08/25 14:59:29","新北市中和區中正路4號","121.50318","24.9939283333333","6500300","中和區"
"235031","255-BX","2018/08/25 14:59:30","新北市板橋區民生路三段32-6號","121.467133333333","25.024845","6500300","中和區"
"235008","293-VK","2018/08/25 14:59:36","新北市中和區中正路67號","121.50137","24.993515","6500300","中和區"
"235007","352-BY","2018/08/25 14:59:36","新北市中和區華新街228號","121.506088333333","24.981815","6500300","中和區"
"235033","4980-A6","2018/08/25 14:59:44","新北市中和區圓通路42號","121.500821666667","24.9977116666667","6500300","中和區"
"235034","558-UM","2018/08/25 14:59:44","新北市中和區圓通路173號","121.497553333333","24.995195","6500300","中和區"
"235018","640-BX","2018/08/25 14:59:43","新北市中和區民享街38號","121.473965","25.0030583333333","6500300","中和區"
"235010","733-UM","2018/08/25 14:59:37","新北市中和區興南路一段105巷20弄9號","121.510328333333","24.9854616666667","6500300","中和區"
"235012","896-TW","2018/08/25 14:59:34","新北市中和區忠孝街2-7號","121.509163333333","24.9829316666667","6500300","中和區"
"235017","900-TW","2018/08/25 14:59:33","新北市中和區國光街134號","121.468633333333","25.0012816666667","6500300","中和區"
"235015","157-BY","2018/08/25 14:59:40","新北市中和區景安路220巷20號","121.502791666667","24.9914516666667","6500300","中和區"
"235001","AAC-213","2018/08/25 14:59:40","新北市中和區自立路99巷22弄27號","121.523221666667","24.9938916666667","6500300","中和區"
"235023","AAC-215","2018/08/25 14:59:26","新北市中和區圓通路365號","121.491696666667","24.98947","6500300","中和區"
"220013","072-UY","2018/08/25 14:59:30","新北市板橋區海山路39號","121.467313333333","25.0097333333333","6500100","板橋區"
"220105","075-UY","2018/08/25 14:59:25","新北市板橋區仁化街137號","121.477365","25.03286","6500100","板橋區"
"220017","AAD-861","2018/08/25 14:59:33","新北市板橋區大明街20巷19弄19號","121.457715","25.00318","6500100","板橋區"
"247015","007-UY","2018/08/25 14:59:25","新北市五股區更洲路47-1號","121.454498333333","25.078305","6501400","蘆洲區"
"228004","212-TW","2018/08/25 14:59:32","新北市貢寮區雙玉里田寮洋街25-4號","121.930461666667","25.01779","6502600","貢寮區"
"253003","6232-TK","2018/08/25 14:59:29","新北市石門區尖子鹿103-2號","121.579976666667","25.2937866666667","6502200","石門區"
"253001","6251-TK","2018/08/25 14:59:34","新北市石門區崁子腳37-5號","121.536598333333","25.2686716666667","6502200","石門區"
"253002","637-UY","2018/08/25 14:58:42","新北市石門區楓林46號","121.542998333333","25.2787583333333","6502200","石門區"
"253004","8270-PC","2018/08/25 14:59:36","新北市石門區茂林社區259號","121.593338333333","25.26998","6502200","石門區"
"207002","749-BX","2018/08/25 14:59:43","新北市萬里區崁腳里崁腳路60-1號","121.648256666667","25.1607083333333","6502800","萬里區"
"252005","073-UM","2018/08/25 14:59:27","新北市三芝區埔坪里埔頭坑91-1號","121.507765","25.2536233333333","6502100","三芝區"
"207001","662-BX","2018/08/25 14:59:34","新北市萬里區雙興里太和路27-2號","121.654715","25.1767766666667","6502800","萬里區"
"236068","105-UM","2018/08/25 14:59:38","新北市土城區裕生路84巷10號","121.446853333333","24.9856016666667","6501300","土城區"
"236040","107-UM","2018/08/25 14:59:35","新北市土城區裕民路136巷29號","121.450708333333","24.98508","6501300","土城區"
"236074","166-UM","2018/08/25 14:59:27","新北市土城區中央路四段67巷60號","121.419096666667","24.9563716666667","6501300","土城區"
"236029","253-BX","2018/08/25 14:59:38","新北市土城區福仁街23號","121.440198333333","24.9759083333333","6501300","土城區"
"236024","269-VK","2018/08/25 14:59:38","新北市土城區中正路74巷6弄2號","121.444666666667","24.9749633333333","6501300","土城區"
"236013","270-VK","2018/08/25 14:59:25","新北市土城區永豐路29巷2號","121.463178333333","24.9882766666667","6501300","土城區"
"236032","271-VK","2018/08/25 14:59:25","新北市土城區明德路一段240巷26弄12號","121.460631666667","24.9781516666667","6501300","土城區"
"236017","401-BY","2018/08/25 14:59:28","新北市土城區延吉街168巷5弄23號","121.468058333333","24.985685","6501300","土城區"
"236057","912-UM","2018/08/25 14:59:39","新北市土城區金城路二段240號","121.45655","24.98317","6501300","土城區"
"236045","913-UM","2018/08/25 14:59:43","新北市土城區明德路一段365-1號","121.45365","24.9791016666667","6501300","土城區"
"236060","915-UM","2018/08/25 14:59:42","新北市土城區金城路三段97號","121.467213333333","24.9875766666667","6501300","土城區"
"236054","AAC-216","2018/08/25 14:59:34","新北市土城區學成路80號","121.45084","24.9885433333333","6501300","土城區"
"220027","145-BY","2018/08/25 14:59:34","新北市板橋區大智街93號","121.453","25.0158316666667","6500100","板橋區"
"220028","200-UY","2018/08/25 14:59:27","新北市板橋區大觀路二段175號","121.444965","25.00017","6500100","板橋區"
"220050","245-BX","2018/08/25 14:59:34","新北市板橋區萬板路132號","121.475176666667","25.0234883333333","6500100","板橋區"
"220020","277-BY","2018/08/25 14:59:30","新北市板橋區金門街109巷10號","121.433695","24.991835","6500100","板橋區"
"220011","280-UM","2018/08/25 14:59:36","新北市板橋區三民路一段131號","121.479236666667","25.02034","6500100","板橋區"
"220019","283-VK","2018/08/25 14:59:42","新北市板橋區廣權路101號","121.46456","24.992705","6500100","板橋區"
"220043","285-UM","2018/08/25 14:59:39","新北市板橋區文德路21號","121.462188333333","25.0241216666667","6500100","板橋區"
"220001","285-VK","2018/08/25 14:59:45","新北市板橋區永豐街32號","121.474673333333","25.0173116666667","6500100","板橋區"
"220031","286-VK","2018/08/25 14:59:38","新北市板橋區僑中二街88巷38號","121.444431666667","25.0096766666667","6500100","板橋區"
"220029","287-VK","2018/08/25 14:59:42","新北市板橋區僑中一街102巷5弄2號","121.44678","25.0126183333333","6500100","板橋區"
"220039","288-VK","2018/08/25 14:59:36","新北市板橋區幸福路32巷2弄21號","121.4611","25.0216066666667","6500100","板橋區"
"220009","295-UM","2018/08/25 14:59:39","新北市板橋區縣民大道二段200巷5號","121.469823333333","25.0172933333333","6500100","板橋區"
"220010","299-UM","2018/08/25 14:59:40","新北市板橋區萬安街85巷1弄11號","121.48443","25.0249733333333","6500100","板橋區"
"220041","307-R5","2018/08/25 14:59:27","新北市板橋區裕民街128巷3號","121.458785","25.02774","6500100","板橋區"
"220047","317-R6","2018/08/25 14:59:37","新北市板橋區新海路72巷7號","121.462236666667","25.0220083333333","6500100","板橋區"
"220012","486-VK","2018/08/25 14:59:25","新北市板橋區區運路61號","121.466623333333","25.010545","6500100","板橋區"
"220037","491-VK","2018/08/25 14:59:28","新北市板橋區懷德街56號","121.477433333333","25.03246","6500100","板橋區"
"220104","560-BX","2018/08/25 14:59:28","新北市板橋區新生街35號","121.456653333333","25.0211116666667","6500100","板橋區"
"220052","561-BX","2018/08/25 14:59:40","新北市板橋區自由路41號","121.465593333333","25.02323","6500100","板橋區"
"220040","637-BX","2018/08/25 14:59:37","新北市板橋區懷德街158巷5號","121.478571666667","25.0306116666667","6500100","板橋區"
"220005","686-BX","2018/08/25 14:59:30","新北市板橋區南雅南路二段144巷30號","121.450256666667","24.9956866666667","6500100","板橋區"
"220025","687-BX","2018/08/25 14:59:32","新北市板橋區僑中一街102巷3弄20號","121.445945","25.0125416666667","6500100","板橋區"
"220042","689-BX","2018/08/25 14:59:24","新北市板橋區文化路二段588號","121.476938333333","25.034815","6500100","板橋區"
"220002","741-BX","2018/08/25 14:59:44","新北市板橋區忠孝路201巷52號","121.464896666667","25.0038983333333","6500100","板橋區"
"220051","KEA-2699","2018/08/25 14:59:34","新北市板橋區仁化街42巷25號","121.475681666667","25.030825","6500100","板橋區"
"220003","827-TW","2018/08/25 14:59:42","新北市板橋區忠孝路48巷11弄16號","121.462183333333","24.9998316666667","6500100","板橋區"
"220014","829-TW","2018/08/25 14:59:28","新北市板橋區中山路一段285號","121.470271666667","25.0140533333333","6500100","板橋區"
"220016","830-TW","2018/08/25 14:59:45","新北市板橋區光復街51巷7號","121.482378333333","25.0186733333333","6500100","板橋區"
"220045","831-TW","2018/08/25 14:59:43","新北市板橋區莒光路18號","121.469843333333","25.0246833333333","6500100","板橋區"
"220038","833-TW","2018/08/25 14:59:44","新北市板橋區英士路199號","121.458726666667","25.02363","6500100","板橋區"
"220021","985-R7","2018/08/25 14:59:43","新北市板橋區南雅西路二段98-5號","121.452393333333","25.0115","6500100","板橋區"
"220046","AAC-210","2018/08/25 14:59:25","新北市板橋區光正街32號","121.462148333333","25.0173166666667","6500100","板橋區"
"220018","AAC-253","2018/08/25 14:59:43","新北市板橋區成都街17號","121.460458333333","25.0049083333333","6500100","板橋區"
