"lineid","car","time","location","longitude","latitude","cityid","cityname"
"231046","107-UY","2018/08/25 16:29:33","新北市新店區灣潭路3-3號","121.538251666667","24.9507716666667","6500600","新店區"
"241011","013-R5","2018/08/25 16:29:36","新北市三重區龍濱路269號","121.50143","25.0729333333333","6500200","三重區"
"241028","022-UY","2018/08/25 16:29:45","新北市三重區中正南路164號","121.494121666667","25.0570016666667","6500200","三重區"
"241008","059-VK","2018/08/25 16:29:39","新北市三重區力行路二段136巷45弄12號","121.47907","25.07534","6500200","三重區"
"241022","060-VK","2018/08/25 16:29:35","新北市三重區三民街55號","121.486021666667","25.0622866666667","6500200","三重區"
"241031","061-VK","2018/08/25 16:29:34","新北市三重區重陽路一段68號","121.486648333333","25.0584733333333","6500200","三重區"
"241015","062-VK","2018/08/25 16:29:36","新北市三重區福德北路46號","121.501953333333","25.0653666666667","6500200","三重區"
"241017","063-VK","2018/08/25 16:29:36","新北市三重區大同北路61號","121.495123333333","25.0633016666667","6500200","三重區"
"241024","065-VK","2018/08/25 16:29:32","新北市三重區中正北路253號","121.475613333333","25.07093","6500200","三重區"
"241026","066-VK","2018/08/25 16:29:39","新北市三重區光興街1號","121.500308333333","25.0603983333333","6500200","三重區"
"241002","090-VK","2018/08/25 16:29:40","新北市三重區五華街29號","121.494648333333","25.0807016666667","6500200","三重區"
"241003","091-VK","2018/08/25 16:29:35","新北市三重區五華街71巷98號","121.494405","25.0839866666667","6500200","三重區"
"241023","265-UM","2018/08/25 16:29:31","新北市三重區忠孝路三段50巷43號","121.482863333333","25.0644316666667","6500200","三重區"
"241016","266-UM","2018/08/25 16:29:30","新北市三重區大智街21號","121.494221666667","25.0657633333333","6500200","三重區"
"241009","267-UM","2018/08/25 16:29:47","新北市三重區三和路四段191巷63號","121.484173333333","25.079705","6500200","三重區"
"241018","268-UM","2018/08/25 16:29:38","新北市三重區重陽路四段66號","121.491996666667","25.0705133333333","6500200","三重區"
"241032","269-UM","2018/08/25 16:29:45","新北市三重區三陽路100巷3弄13號","121.482965","25.0581566666667","6500200","三重區"
"241013","270-UM","2018/08/25 16:29:31","新北市三重區龍門路144號","121.498383333333","25.0732283333333","6500200","三重區"
"241025","271-UM","2018/08/25 16:29:27","新北市三重區中正北路560巷100弄12號","121.472638333333","25.068545","6500200","三重區"
"241007","398-BY","2018/08/25 16:29:30","新北市三重區三和路四段167巷139號","121.487935","25.0802916666667","6500200","三重區"
"241020","413-TH","2018/08/25 16:29:32","新北市三重區車路頭街43號","121.48398","25.072055","6500200","三重區"
"241004","475-VK","2018/08/25 16:29:40","新北市三重區仁愛街377巷17號","121.492398333333","25.0808083333333","6500200","三重區"
"241030","480-VK","2018/08/25 16:29:32","新北市三重區成功路72號","121.488306666667","25.0511216666667","6500200","三重區"
"241014","543-UM","2018/08/25 16:29:33","新北市三重區河邊北街82號","121.504225","25.0689633333333","6500200","三重區"
"241001","547-UM","2018/08/25 16:29:35","新北市三重區仁愛街300號","121.49229","25.0793966666667","6500200","三重區"
"241019","KEA-2593","2018/08/25 16:29:44","新北市三重區重陽路三段89號","121.490153333333","25.0675916666667","6500200","三重區"
"241006","AAD-863","2018/08/25 16:29:45","新北市三重區力行路二段136巷23弄35號","121.48142","25.0764566666667","6500200","三重區"
"241005","887-TS","2018/08/25 16:29:28","新北市三重區溪尾街300號","121.487496666667","25.0834366666667","6500200","三重區"
"241012","941-UM","2018/08/25 16:29:32","新北市三重區河邊北街317號","121.502413333333","25.0749133333333","6500200","三重區"
"241029","942-UM","2018/08/25 16:29:45","新北市三重區集美街126巷2號","121.489085","25.05361","6500200","三重區"
"241033","AAC-255","2018/08/25 16:29:25","新北市三重區重新路五段317巷1弄1號","121.477495","25.0491083333333","6500200","三重區"
"235064","005-UY","2018/08/25 16:29:45","新北市中和區員山路36巷16-2號","121.485208333333","24.9913283333333","6500300","中和區"
"235026","800-TS","2018/08/25 16:29:38","新北市中和區連城路222巷2弄2號","121.491161666667","24.9969616666667","6500300","中和區"
"247008","056-VK","2018/08/25 16:29:35","新北市五股區中興路三段2巷10號","121.449385","25.0808733333333","6501400","蘆洲區"
"224007","275-VK","2018/08/25 16:29:32","新北市瑞芳區瑞竹路36巷3號","121.764213333333","25.103635","6501200","瑞芳區"
"224005","271-BY","2018/08/25 16:29:40","新北市瑞芳區阿美家園43號","121.821043333333","25.1170133333333","6501200","瑞芳區"
"227002","642-TC","2018/08/25 16:29:35","新北市雙溪區上林里內平林120-2號","121.824441666667","25.0262766666667","6502500","雙溪區"
"227010","400-TW","2018/08/25 16:29:38","新北市雙溪區三港里雙澳路5號","121.869131666667","25.0478516666667","6502500","雙溪區"
"251013","KEA-2871","2018/08/25 16:29:28","新北市淡水區北新路三段162號","121.492346666667","25.1915266666667","6501000","淡水區"
"251016","179-VK","2018/08/25 16:29:41","新北市淡水區中正路二段31號","121.419573333333","25.182195","6501000","淡水區"
"251014","180-VK","2018/08/25 16:29:39","新北市淡水區新市一路一段99巷37號","121.429766666667","25.1880883333333","6501000","淡水區"
"251008","442-VK","2018/08/25 16:29:31","新北市淡水區大同路21號","121.467388333333","25.1447866666667","6501000","淡水區"
"220014","255-TC","2018/08/25 16:29:45","新北市板橋區大觀路一段38巷156弄147號","121.443838333333","25.0089766666667","6500100","板橋區"
