"lineid","car","time","location","longitude","latitude","cityid","cityname"
"249005","172-UM","2018/08/25 17:39:14","新北市八里區荖阡坑路67號","121.40562","25.129","6502300","八里區"
"249001","173-UM","2018/08/25 17:39:03","新北市八里區龍米路二段159號","121.438823333333","25.1541683333333","6502300","八里區"
"249004","303-UY","2018/08/25 17:39:17","新北市八里區賢三街101號","121.41591","25.1575116666667","6502300","八里區"
"249002","305-UY","2018/08/25 17:39:15","新北市八里區石壁腳9號","121.444343333333","25.1348683333333","6502300","八里區"
"249003","593-UM","2018/08/25 17:39:05","新北市八里區中山路二段261號","121.402463333333","25.1489816666667","6502300","八里區"
"232011","375-UM","2018/08/25 17:39:00","新北市坪林區北宜路八段101號","121.706081666667","24.9348683333333","6502000","坪林區"
"244007","080-UY","2018/08/25 17:38:59","新北市林口區林口路283號","121.386105","25.08474","6501700","林口區"
"244019","403-UM","2018/08/25 17:39:05","新北市林口區文化一路一段83巷14弄62號","121.372545","25.0714983333333","6501700","林口區"
"244013","KEA-2802","2018/08/25 17:39:04","新北市林口區中山路251號","121.385681666667","25.0794816666667","6501700","林口區"
"244023","483-VK","2018/08/25 17:39:13","新北市林口區東明三街332號","121.390338333333","25.0698766666667","6501700","林口區"
"244017","485-VK","2018/08/25 17:39:18","新北市林口區忠孝路371-1號","121.369073333333","25.0720616666667","6501700","林口區"
"244009","656-BX","2018/08/25 17:39:11","新北市林口區寶林路109號","121.383566666667","25.08531","6501700","林口區"
"244011","657-BX","2018/08/25 17:39:16","新北市林口區佳林路211號","121.384263333333","25.0771083333333","6501700","林口區"
"244025","837-TS","2018/08/25 17:39:07","新北市林口區民族路16巷2-1號","121.364295","25.0739433333333","6501700","林口區"
"244021","838-TS","2018/08/25 17:39:10","新北市林口區東林街14號","121.396396666667","25.07889","6501700","林口區"
"231046","107-UY","2018/08/25 17:39:13","新北市新店區直潭路92號","121.53083","24.9375933333333","6500600","新店區"
"241011","013-R5","2018/08/25 17:39:16","新北市三重區河邊北街122-1號","121.503636666667","25.0713933333333","6500200","三重區"
"241015","062-VK","2018/08/25 17:39:10","新北市三重區三和路二段35-1號","121.500916666667","25.06733","6500200","三重區"
"241017","063-VK","2018/08/25 17:39:11","新北市三重區大同北路36號","121.494911666667","25.0625333333333","6500200","三重區"
"241024","065-VK","2018/08/25 17:39:12","新北市三重區力行路二段9巷10號","121.482936666667","25.0722533333333","6500200","三重區"
"241023","265-UM","2018/08/25 17:39:11","新北市三重區新北大道一段252號","121.479983333333","25.0616833333333","6500200","三重區"
"241016","266-UM","2018/08/25 17:39:10","新北市三重區正義北路10號","121.497681666667","25.0629183333333","6500200","三重區"
"241018","268-UM","2018/08/25 17:38:58","新北市三重區大仁街78號","121.492555","25.065175","6500200","三重區"
"241007","398-BY","2018/08/25 17:39:10","新北市三重區車路頭街76號","121.484381666667","25.0738933333333","6500200","三重區"
"241014","543-UM","2018/08/25 17:39:13","新北市三重區長元街98巷21弄26號","121.50331","25.0679516666667","6500200","三重區"
"241005","887-TS","2018/08/25 17:39:08","新北市三重區碧華街175號","121.487148333333","25.0823666666667","6500200","三重區"
"241012","941-UM","2018/08/25 17:39:12","新北市三重區仁興街41號","121.49915","25.075825","6500200","三重區"
"241033","AAC-255","2018/08/25 17:39:05","新北市三重區興德路103號","121.471658333333","25.0531883333333","6500200","三重區"
"235064","005-UY","2018/08/25 17:39:04","新北市中和區員山路36巷16-2號","121.485245","24.99122","6500300","中和區"
"235065","098-UM","2018/08/25 17:39:03","新北市中和區員山路36巷16-3號","121.48513","24.991225","6500300","中和區"
"247010","KEA-2869","2018/08/25 17:39:14","新北市蘆洲區中山一路49號","121.478803333333","25.0809","6501400","蘆洲區"
"247024","893-R6","2018/08/25 17:39:13","新北市蘆洲區長樂路125-1號","121.462085","25.0881","6501400","蘆洲區"
"247014","546-UM","2018/08/25 17:39:08","新北市蘆洲區中山二路130號","121.471718333333","25.0817233333333","6501400","蘆洲區"
"247022","500-BY","2018/08/25 17:39:10","新北市蘆洲區民族路544號","121.467881666667","25.0891266666667","6501400","蘆洲區"
"247012","339-TH","2018/08/25 17:39:19","新北市蘆洲區民權路3巷14弄8號","121.475631666667","25.0857566666667","6501400","蘆洲區"
"247004","337-TH","2018/08/25 17:39:03","新北市蘆洲區長安街249巷24號","121.458275","25.0830516666667","6501400","蘆洲區"
"247006","336-TH","2018/08/25 17:39:13","新北市蘆洲區長安街22巷39弄15號","121.46448","25.08068","6501400","蘆洲區"
"247018","057-VK","2018/08/25 17:39:08","新北市蘆洲區民權路61巷4弄2號","121.473478333333","25.0879533333333","6501400","蘆洲區"
"247008","056-VK","2018/08/25 17:39:15","新北市蘆洲區民生街74號","121.47292","25.078975","6501400","蘆洲區"
"247016","007-UY","2018/08/25 17:39:06","新北市蘆洲區光華路46巷36號","121.4679","25.0841833333333","6501400","蘆洲區"
"247002","002-UY","2018/08/25 17:39:06","新北市蘆洲區永平街30號","121.458776666667","25.0908316666667","6501400","蘆洲區"
"247020","001-UY","2018/08/25 17:39:06","新北市蘆洲區民族路464-1號","121.471801666667","25.091755","6501400","蘆洲區"
"228003","097-TW","2018/08/25 17:39:06","新北市貢寮區仁理村仁和路47號","121.924028333333","25.0540966666667","6502600","貢寮區"
"228001","212-TW","2018/08/25 17:39:06","新北市貢寮區仁理村仁愛路95-1號","121.92766","25.0554483333333","6502600","貢寮區"
"228002","663-BX","2018/08/25 17:39:18","新北市貢寮區福隆里外隆林街16-4號","121.957696666667","25.0052633333333","6502600","貢寮區"
"224010","AGQ-8101","2018/08/25 17:34:43","新北市瑞芳區逢甲路204號","121.806901666667","25.11009","6501200","瑞芳區"
"224006","676-BX","2018/08/25 17:39:02","新北市瑞芳區傑魚坑路38號","121.794035","25.110555","6501200","瑞芳區"
"224002","639-TC","2018/08/25 17:39:14","新北市瑞芳區明燈路二段46號","121.809561666667","25.1081166666667","6501200","瑞芳區"
"224008","285-BY","2018/08/25 17:39:12","新北市瑞芳區瑞柑新村1-1號","121.829373333333","25.10613","6501200","瑞芳區"
"224009","273-VK","2018/08/25 17:39:11","新北市瑞芳區金光路376號","121.850366666667","25.1113083333333","6501200","瑞芳區"
"224005","271-BY","2018/08/25 17:39:00","新北市瑞芳區海濱路8-6號","121.831651666667","25.12618","6501200","瑞芳區"
"227002","642-TC","2018/08/25 17:39:15","新北市雙溪區共和里東榮街29號","121.866068333333","25.033555","6502500","雙溪區"
"251009","008-UM","2018/08/25 17:39:01","新北市淡水區中正路32號","121.443858333333","25.1692066666667","6501000","淡水區"
"251005","010-UM","2018/08/25 17:39:02","新北市淡水區鄧公路33巷5號","121.451606666667","25.1710533333333","6501000","淡水區"
"251002","012-UM","2018/08/25 17:39:05","新北市淡水區文化路1號","121.440173333333","25.172365","6501000","淡水區"
"251013","KEA-2871","2018/08/25 17:39:08","新北市淡水區大竹圍4號","121.466698333333","25.19548","6501000","淡水區"
"251016","179-VK","2018/08/25 17:39:01","新北市淡水區埤島39-15號","121.452765","25.19591","6501000","淡水區"
"251014","180-VK","2018/08/25 17:38:59","新北市淡水區公埔子16-6號","121.480011666667","25.225355","6501000","淡水區"
"251015","181-VK","2018/08/25 17:39:05","新北市淡水區三空泉17-5號","121.473281666667","25.16528","6501000","淡水區"
"251010","413-VK","2018/08/25 17:39:04","新北市淡水區淡海路280巷21號","121.419765","25.1897616666667","6501000","淡水區"
"251012","441-VK","2018/08/25 17:39:08","新北市淡水區北新路200巷10號","121.451801666667","25.1796933333333","6501000","淡水區"
"251008","442-VK","2018/08/25 17:39:11","新北市淡水區八勢路一段100巷6號","121.466993333333","25.1552766666667","6501000","淡水區"
"251004","443-VK","2018/08/25 17:39:05","新北市淡水區中正東路二段88巷37-21號","121.459271666667","25.1446783333333","6501000","淡水區"
"251001","559-UM","2018/08/25 17:39:03","新北市淡水區民權路92巷35-1號","121.462111666667","25.1266816666667","6501000","淡水區"
"251006","561-UM","2018/08/25 17:39:16","新北市淡水區大信街17號","121.441901666667","25.1767516666667","6501000","淡水區"
"251007","577-R6","2018/08/25 17:39:12","新北市淡水區民生路124巷28號","121.464076666667","25.1375","6501000","淡水區"
"251011","650-BX","2018/08/25 17:39:06","新北市淡水區小坪頂20-1號","121.48472","25.1577533333333","6501000","淡水區"
"251003","766-UM","2018/08/25 17:39:11","新北市淡水區中山北路一段85號","121.442165","25.176165","6501000","淡水區"
"207003","550-UM","2018/08/25 17:39:11","新北市萬里區龜吼里漁澳路29-1號","121.686133333333","25.1948483333333","6502800","萬里區"
"207004","225-TW","2018/08/25 17:39:06","新北市萬里區中幅里中福路19-1號","121.683151666667","25.1646183333333","6502800","萬里區"
"252002","178-VK","2018/08/25 17:39:09","新北市三芝區智成街80號","121.505028333333","25.255735","6502100","三芝區"
"252001","292-VK","2018/08/25 17:39:09","新北市三芝區淡金路二段15號","121.502296666667","25.2590566666667","6502100","三芝區"
"237013","252-BX","2018/08/25 17:38:57","新北市三峽區復興路183號","121.368763333333","24.9388916666667","6500900","三峽區"
"237012","275-BY","2018/08/25 17:39:06","新北市三峽區中山路459巷163-3號","121.348851666667","24.93307","6500900","三峽區"
"237014","433-BY","2018/08/25 17:39:06","新北市三峽區中山路459巷163-3號","121.348678333333","24.9330833333333","6500900","三峽區"
"237016","649-BX","2018/08/25 17:39:07","新北市三峽區白雞9-1號","121.368485","24.91249","6500900","三峽區"
"236042","107-UM","2018/08/25 17:39:01","新北市土城區城林路6巷80號","121.438623333333","24.9797116666667","6501300","土城區"
"236079","166-UM","2018/08/25 17:39:13","新北市土城區城林路6巷80號","121.438421666667","24.9796583333333","6501300","土城區"
"236014","270-VK","2018/08/25 17:39:04","新北市土城區城林路6巷80號","121.438521666667","24.9795933333333","6501300","土城區"
"242034","AAC-296","2018/08/25 17:39:04","新北市新莊區新莊路506號","121.446055","25.0332316666667","6500500","新莊區"
"242058","986-R7","2018/08/25 17:39:12","新北市新莊區中正路700-22號","121.417948333333","25.0269516666667","6500500","新莊區"
"242053","751-BX","2018/08/25 17:39:16","新北市新莊區新樹路709號","121.432053333333","25.002085","6500500","新莊區"
"242027","615-BX","2018/08/25 17:39:13","新北市新莊區福壽街114號","121.458071666667","25.0506766666667","6500500","新莊區"
"242025","613-BX","2018/08/25 17:39:16","新北市新莊區思源路98號","121.460071666667","25.04605","6500500","新莊區"
"242042","566-BX","2018/08/25 17:39:08","新北市新莊區建國一路1號","121.433753333333","25.0320366666667","6500500","新莊區"
"242046","497-BY","2018/08/25 17:39:15","新北市新莊區中正路589號","121.434126666667","25.03231","6500500","新莊區"
"242021","442-UM","2018/08/25 17:39:16","新北市新莊區中華路一段50號","121.45204","25.038165","6500500","新莊區"
"242051","441-UM","2018/08/25 17:39:04","新北市新莊區西盛街216號","121.427993333333","25.0174116666667","6500500","新莊區"
"242056","440-UM","2018/08/25 17:39:09","新北市新莊區泰豐街20號","121.448491666667","25.0315466666667","6500500","新莊區"
"242036","415-TV","2018/08/25 17:39:13","新北市新莊區建福路59巷44號","121.42875","25.0276783333333","6500500","新莊區"
"242007","413-TV","2018/08/25 17:39:04","新北市新莊區福樂街118巷17號","121.4575","25.048385","6500500","新莊區"
"242044","400-BY","2018/08/25 17:39:13","新北市新莊區富國路65巷10號","121.419931666667","25.0264683333333","6500500","新莊區"
"242023","362-BY","2018/08/25 17:39:19","新北市新莊區公園路129-10號","121.45748","25.040915","6500500","新莊區"
"242061","353-BY","2018/08/25 17:39:03","新北市新莊區瓊林南路103巷8弄43號","121.435123333333","25.0112","6500500","新莊區"
"242009","132-UY","2018/08/25 17:39:11","新北市新莊區昌明街14巷3弄1號","121.457305","25.052825","6500500","新莊區"
"242039","133-UY","2018/08/25 17:39:10","新北市新莊區民全街6號","121.429058333333","25.0214333333333","6500500","新莊區"
"242031","135-UY","2018/08/25 17:39:15","新北市新莊區新泰路361巷9號","121.44325","25.0429483333333","6500500","新莊區"
"242048","172-VK","2018/08/25 17:39:15","新北市新莊區萬安街144號","121.420041666667","25.0212666666667","6500500","新莊區"
"242011","173-VK","2018/08/25 17:37:04","新北市新莊區中港路526號","121.451581666667","25.05221","6500500","新莊區"
"242017","175-VK","2018/08/25 17:39:20","新北市新莊區中和街30巷13號","121.448873333333","25.04389","6500500","新莊區"
"242004","176-VK","2018/08/25 17:39:11","新北市新莊區自立街113號","121.455633333333","25.0455433333333","6500500","新莊區"
"242002","349-TH","2018/08/25 17:39:04","新北市新莊區新莊路292號","121.45129","25.0338216666667","6500500","新莊區"
"242019","350-TH","2018/08/25 17:39:19","新北市新莊區中港路144號","121.455133333333","25.0410133333333","6500500","新莊區"
"238015","755-BX","2018/08/25 17:39:09","新北市樹林區啟智街44巷2號","121.420445","24.9929866666667","6500700","樹林區"
"238023","601-UM","2018/08/25 17:39:02","新北市樹林區三福街70巷18號","121.404853333333","25.01663","6500700","樹林區"
"238019","599-UM","2018/08/25 17:39:10","新北市樹林區太順街5巷1號","121.420191666667","24.980015","6500700","樹林區"
"238018","571-TV","2018/08/25 17:38:54","新北市樹林區鎮前街62號","121.425605","24.9923283333333","6500700","樹林區"
"238024","5061-A6","2018/08/25 17:39:03","新北市樹林區環河路10號","121.42703","24.978235","6500700","樹林區"
"238022","KEA-2213","2018/08/25 17:39:13","新北市樹林區中華路185-1號","121.420386666667","24.9816983333333","6500700","樹林區"
"238021","KEA-2539","2018/08/25 17:38:58","新北市樹林區柑園街一段253巷16號","121.396265","24.9551066666667","6500700","樹林區"
"238025","303-VK","2018/08/25 17:39:13","新北市樹林區保安街二段182號","121.412606666667","25.0100983333333","6500700","樹林區"
"238017","283-BY","2018/08/25 17:39:16","新北市樹林區三德街19號","121.413376666667","25.0131566666667","6500700","樹林區"
"238014","282-BY","2018/08/25 17:39:15","新北市樹林區保安街一段336巷25號","121.417645","24.9991033333333","6500700","樹林區"
"238020","268-VK","2018/08/25 17:39:05","新北市樹林區俊英街252號","121.424511666667","25.0110083333333","6500700","樹林區"
"238026","172-UY","2018/08/25 17:39:12","新北市樹林區新興街19巷6號","121.40052","24.9726333333333","6500700","樹林區"
"238016","169-UY","2018/08/25 17:39:08","新北市樹林區復興路273號","121.419271666667","24.9895616666667","6500700","樹林區"
"239007","AAC-297","2018/08/25 17:39:11","新北市鶯歌區國光街62號","121.340661666667","24.9581366666667","6500800","鶯歌區"
"239006","891-R6","2018/08/25 17:39:08","新北市鶯歌區永和街34巷10弄2號","121.333408333333","24.9673566666667","6500800","鶯歌區"
"239008","527-UM","2018/08/25 17:39:13","新北市鶯歌區大湖路732巷10號","121.333206666667","24.9772283333333","6500800","鶯歌區"
"239005","526-UM","2018/08/25 17:39:03","新北市鶯歌區鶯桃路二段22號","121.326041666667","24.9723966666667","6500800","鶯歌區"
"239001","417-VK","2018/08/25 17:39:11","新北市鶯歌區中正三路208-4號","121.33199","24.9378433333333","6500800","鶯歌區"
"239003","360-BY","2018/08/25 17:39:06","新北市鶯歌區鶯桃路206巷21號","121.337666666667","24.9596366666667","6500800","鶯歌區"
"239002","359-BY","2018/08/25 17:39:02","新北市鶯歌區育智路86號","121.34509","24.954615","6500800","鶯歌區"
"239004","193-VK","2018/08/25 17:38:57","新北市三峽區隆恩街250號","121.357008333333","24.9408","6500800","鶯歌區"
"221036","130-UY","2018/08/25 17:38:58","新北市汐止區汐萬路一段256巷1號","121.651881666667","25.0748283333333","6501100","汐止區"
"221010","269-BY","2018/08/25 17:39:07","新北市汐止區汐萬路一段418巷22號","121.650323333333","25.0785783333333","6501100","汐止區"
"221023","279-VK","2018/08/25 17:39:08","新北市汐止區康寧街901號","121.651628333333","25.0749733333333","6501100","汐止區"
"221021","299-VK","2018/08/25 17:39:09","新北市汐止區汐萬路一段256巷1號","121.651998333333","25.0748916666667","6501100","汐止區"
"221033","647-BX","2018/08/25 17:39:18","新北市汐止區林森街132巷6弄19號","121.62421","25.0406083333333","6501100","汐止區"
"242013","281-VK","2018/08/25 17:39:00","新北市新莊區中誠街124號","121.449235","25.0475833333333","6500500","新莊區"
