"lineid","car","time","location","longitude","latitude","cityid","cityname"
"234026","9371-KE","2018/08/25 17:49:17","新北市永和區永平路168號","121.51076","25.008935","6500400","永和區"
"249005","172-UM","2018/08/25 17:49:14","新北市八里區荖阡坑路41-10號","121.402638333333","25.1331616666667","6502300","八里區"
"249001","173-UM","2018/08/25 17:49:03","新北市八里區龍米路二段139號","121.444465","25.1485766666667","6502300","八里區"
"249004","303-UY","2018/08/25 17:49:17","新北市八里區中華路一段79巷11號","121.421018333333","25.1564333333333","6502300","八里區"
"249002","305-UY","2018/08/25 17:49:15","新北市八里區龍形五街37巷3號","121.448778333333","25.1323366666667","6502300","八里區"
"249003","593-UM","2018/08/25 17:49:05","新北市八里區中山路二段123號","121.405455","25.1519033333333","6502300","八里區"
"248020","225-UY","2018/08/25 17:49:16","新北市五股區中興路二段83巷26-6號","121.459965","25.075355","6501500","五股區"
"232011","375-UM","2018/08/25 17:49:20","新北市坪林區北宜路八段216號","121.708605","24.9347966666667","6502000","坪林區"
"244007","080-UY","2018/08/25 17:49:19","新北市林口區佳林路35號","121.386601666667","25.0819616666667","6501700","林口區"
"244019","403-UM","2018/08/25 17:49:05","新北市林口區忠孝路512巷8號","121.371188333333","25.0687833333333","6501700","林口區"
"244013","KEA-2802","2018/08/25 17:49:04","新北市林口區中正路446號","121.3838","25.0777566666667","6501700","林口區"
"244023","483-VK","2018/08/25 17:49:13","新北市林口區興林路346號","121.3886","25.06997","6501700","林口區"
"244017","485-VK","2018/08/25 17:48:58","新北市林口區文化二路一段260巷1-1號","121.371411666667","25.0733983333333","6501700","林口區"
"244009","656-BX","2018/08/25 17:49:11","新北市林口區林口路295號","121.385743333333","25.0847716666667","6501700","林口區"
"244011","657-BX","2018/08/25 17:49:16","新北市林口區竹林路35號","121.386486666667","25.0777066666667","6501700","林口區"
"244025","837-TS","2018/08/25 17:49:07","新北市林口區文化三路一段165號","121.361435","25.0692866666667","6501700","林口區"
"244021","838-TS","2018/08/25 17:49:10","新北市林口區仁愛路一段159巷41號","121.397526666667","25.07212","6501700","林口區"
"222003","436-BY","2018/08/25 17:49:04","新北市深坑區阿柔洋60-1號","121.608591666667","24.99854","6501800","深坑區"
"222002","659-BX","2018/08/25 17:49:04","新北市深坑區平埔街22巷17弄1號","121.614735","25.00081","6501800","深坑區"
"231046","107-UY","2018/08/25 17:49:13","新北市新店區下石厝路17號","121.533001666667","24.9274316666667","6500600","新店區"
"241024","065-VK","2018/08/25 17:49:12","新北市三重區國道路一段50號","121.482286666667","25.0729183333333","6500200","三重區"
"241016","266-UM","2018/08/25 17:49:10","新北市三重區新北大道一段3-1號","121.490386666667","25.061405","6500200","三重區"
"241012","941-UM","2018/08/25 17:49:12","新北市三重區龍濱路287號","121.500891666667","25.0737233333333","6500200","三重區"
"241033","AAC-255","2018/08/25 17:49:05","新北市三重區重新路五段567號","121.470261666667","25.0460816666667","6500200","三重區"
"235064","005-UY","2018/08/25 17:49:04","新北市中和區員山路36巷16-2號","121.485268333333","24.9913833333333","6500300","中和區"
"235065","098-UM","2018/08/25 17:49:03","新北市中和區中正路637巷52弄1號","121.485486666667","24.9934166666667","6500300","中和區"
"235058","151-BY","2018/08/25 17:49:04","新北市中和區員山路36巷16-2號","121.485088333333","24.9916566666667","6500300","中和區"
"247010","KEA-2869","2018/08/25 17:49:12","新北市蘆洲區民族路44號","121.476786666667","25.084535","6501400","蘆洲區"
"247024","893-R6","2018/08/25 17:49:13","新北市蘆洲區光榮路63號","121.461163333333","25.0886783333333","6501400","蘆洲區"
"247014","546-UM","2018/08/25 17:49:03","新北市蘆洲區保和街69巷2弄1號","121.469511666667","25.08577","6501400","蘆洲區"
"247022","500-BY","2018/08/25 17:49:04","新北市蘆洲區中正路355號","121.465358333333","25.0897916666667","6501400","蘆洲區"
"247012","339-TH","2018/08/25 17:48:59","新北市蘆洲區復興路107號","121.476915","25.0879116666667","6501400","蘆洲區"
"247004","337-TH","2018/08/25 17:49:03","新北市蘆洲區長安街194巷17號","121.45971","25.0845433333333","6501400","蘆洲區"
"247006","336-TH","2018/08/25 17:49:13","新北市蘆洲區長安街2號","121.464675","25.0787416666667","6501400","蘆洲區"
"247018","057-VK","2018/08/25 17:49:08","新北市蘆洲區復興路227巷2弄11號","121.480508333333","25.0903683333333","6501400","蘆洲區"
"247008","056-VK","2018/08/25 17:49:20","新北市蘆洲區中山一路285號","121.471925","25.0794666666667","6501400","蘆洲區"
"247016","007-UY","2018/08/25 17:49:06","新北市蘆洲區中正路185巷31弄32號","121.46694","25.0834733333333","6501400","蘆洲區"
"247002","002-UY","2018/08/25 17:49:06","新北市蘆洲區永平街32巷21弄19號","121.458403333333","25.0919983333333","6501400","蘆洲區"
"247020","001-UY","2018/08/25 17:49:06","新北市蘆洲區民義街71巷6號","121.472981666667","25.0903283333333","6501400","蘆洲區"
"228003","097-TW","2018/08/25 17:49:06","新北市貢寮區真理里延平街72-5號","121.925185","25.0581816666667","6502600","貢寮區"
"228001","212-TW","2018/08/25 17:49:06","新北市貢寮區仁理村仁愛路95-1號","121.927636666667","25.0554216666667","6502600","貢寮區"
"228002","663-BX","2018/08/25 17:49:18","新北市貢寮區福隆里龜壽谷街26號","121.952623333333","25.00849","6502600","貢寮區"
"224010","AGQ-8101","2018/08/25 17:49:03","新北市瑞芳區逢甲路17號","121.80959","25.10863","6501200","瑞芳區"
"224006","676-BX","2018/08/25 17:49:02","新北市瑞芳區傑魚坑路183號","121.78844","25.10827","6501200","瑞芳區"
"224002","639-TC","2018/08/25 17:49:14","新北市瑞芳區明燈路二段46號","121.809475","25.108135","6501200","瑞芳區"
"224008","285-BY","2018/08/25 17:49:12","新北市瑞芳區明燈路一段18巷10號","121.82213","25.1073183333333","6501200","瑞芳區"
"224009","273-VK","2018/08/25 17:49:13","新北市瑞芳區山尖路2號","121.854066666667","25.1154133333333","6501200","瑞芳區"
"224005","271-BY","2018/08/25 17:49:00","新北市瑞芳區海濱路37號","121.830963333333","25.1236816666667","6501200","瑞芳區"
"227002","642-TC","2018/08/25 17:49:15","新北市雙溪區共和里東榮街31號","121.866195","25.0335633333333","6502500","雙溪區"
"253006","295-VK","2018/08/25 17:49:13","新北市石門區中央路10號","121.566656666667","25.29128","6502200","石門區"
"222001","KEA-2212","2018/08/25 17:48:59","新北市深坑區北深路三段25巷15-2號","121.608715","24.9997483333333","6501800","深坑區"
"208003","665-BX","2018/08/25 17:48:58","新北市金山區磺清路135號","121.639191666667","25.2277016666667","6502700","金山區"
"208001","761-BX","2018/08/25 17:49:03","新北市金山區磺清路135號","121.639228333333","25.2276883333333","6502700","金山區"
"251009","008-UM","2018/08/25 17:49:01","新北市淡水區長興街43-2號","121.444183333333","25.1717266666667","6501000","淡水區"
"251005","010-UM","2018/08/25 17:49:10","新北市淡水區學府路102巷2號","121.450431666667","25.17194","6501000","淡水區"
"251002","012-UM","2018/08/25 17:49:05","新北市淡水區中山路54號","121.443948333333","25.1703316666667","6501000","淡水區"
"251013","KEA-2871","2018/08/25 17:49:08","新北市淡水區口湖子2-3號","121.4759","25.1897666666667","6501000","淡水區"
"251016","179-VK","2018/08/25 17:49:01","新北市淡水區埤島39-15號","121.452713333333","25.1959033333333","6501000","淡水區"
"251014","180-VK","2018/08/25 17:48:59","新北市淡水區公埔子16-6號","121.480998333333","25.2246066666667","6501000","淡水區"
"251015","181-VK","2018/08/25 17:49:05","新北市淡水區糞箕湖9-1號","121.485286666667","25.1707366666667","6501000","淡水區"
"251010","413-VK","2018/08/25 17:49:14","新北市淡水區淡海路280巷33弄34-2號","121.418631666667","25.1884966666667","6501000","淡水區"
"251012","441-VK","2018/08/25 17:49:12","新北市淡水區北新路一段607號","121.47164","25.1845783333333","6501000","淡水區"
"251008","442-VK","2018/08/25 17:49:11","新北市淡水區八勢路一段155號","121.467971666667","25.1564066666667","6501000","淡水區"
"251004","443-VK","2018/08/25 17:49:05","新北市淡水區民權一街17巷1號","121.458696666667","25.1367316666667","6501000","淡水區"
"251001","559-UM","2018/08/25 17:49:03","新北市淡水區民權路92巷35-1號","121.462126666667","25.1266916666667","6501000","淡水區"
"251006","561-UM","2018/08/25 17:48:56","新北市淡水區新生街51巷39號","121.440955","25.1760583333333","6501000","淡水區"
"251007","577-R6","2018/08/25 17:49:12","新北市淡水區民生路16巷2號","121.461071666667","25.1373316666667","6501000","淡水區"
"251011","650-BX","2018/08/25 17:43:46","新北市淡水區吳(仔)厝65號","121.482818333333","25.15054","6501000","淡水區"
"251003","766-UM","2018/08/25 17:49:11","新北市淡水區大忠街5巷2號","121.4432","25.1763333333333","6501000","淡水區"
"207003","550-UM","2018/08/25 17:49:11","新北市萬里區野柳里東澳路66號","121.69267","25.2009183333333","6502800","萬里區"
"207004","225-TW","2018/08/25 17:49:09","新北市萬里區萬里里瑪鋉路252號","121.688645","25.1805116666667","6502800","萬里區"
"252002","178-VK","2018/08/25 17:49:09","新北市三芝區智成街47號","121.504168333333","25.256305","6502100","三芝區"
"252001","292-VK","2018/08/25 17:49:17","新北市三芝區中興街一段8號","121.497448333333","25.2594933333333","6502100","三芝區"
"237004","KEA-2597","2018/08/25 17:49:16","新北市三峽區民權街134號","121.36867","24.9318166666667","6500900","三峽區"
"237007","153-BY","2018/08/25 17:49:17","新北市三峽區中園街156號","121.366835","24.9198116666667","6500900","三峽區"
"237009","210-TH","2018/08/25 17:49:03","新北市三峽區大勇路3巷38號","121.367411666667","24.936805","6500900","三峽區"
"237013","252-BX","2018/08/25 17:49:17","新北市三峽區愛國路12號","121.374178333333","24.93387","6500900","三峽區"
"237012","275-BY","2018/08/25 17:49:06","新北市三峽區民生街111號","121.373873333333","24.9354366666667","6500900","三峽區"
"237008","302-VK","2018/08/25 17:49:01","新北市三峽區中正路一段443號","121.368618333333","24.919995","6500900","三峽區"
"237014","433-BY","2018/08/25 17:49:06","新北市三峽區文化路120巷21號","121.371028333333","24.9367366666667","6500900","三峽區"
"237006","5529-G3","2018/08/25 17:49:05","新北市三峽區介壽路二段34-2號","121.39128","24.93512","6500900","三峽區"
"237011","KEA-2596","2018/08/25 17:49:05","新北市三峽區大同路192號","121.371458333333","24.92708","6500900","三峽區"
"237016","649-BX","2018/08/25 17:49:07","新北市三峽區白雞149-2號","121.400085","24.9055116666667","6500900","三峽區"
"237005","AKY-6261","2018/08/25 17:49:10","新北市三峽區中山路333-7號","121.359396666667","24.9374566666667","6500900","三峽區"
"236070","105-UM","2018/08/25 17:49:14","新北市土城區青雲路603號","121.459536666667","24.9696066666667","6501300","土城區"
"236042","107-UM","2018/08/25 17:49:01","新北市土城區城林路6巷80號","121.43861","24.9797066666667","6501300","土城區"
"236079","166-UM","2018/08/25 17:49:13","新北市土城區中央路三段180號","121.430793333333","24.9650766666667","6501300","土城區"
"236030","253-BX","2018/08/25 17:49:13","新北市土城區城林路6巷80號","121.438446666667","24.9798216666667","6501300","土城區"
"236024","269-VK","2018/08/25 17:49:06","新北市土城區城林路6巷80號","121.4385","24.9795983333333","6501300","土城區"
"236014","270-VK","2018/08/25 17:49:04","新北市土城區城林路6巷80號","121.438538333333","24.979595","6501300","土城區"
"236038","271-VK","2018/08/25 17:49:11","新北市土城區城林路6巷80號","121.438666666667","24.9796383333333","6501300","土城區"
"236021","401-BY","2018/08/25 17:49:03","新北市土城區城林路6巷80號","121.43872","24.97973","6501300","土城區"
"236059","912-UM","2018/08/25 17:49:05","新北市土城區中華路二段2號","121.439446666667","24.97954","6501300","土城區"
"236063","915-UM","2018/08/25 17:49:08","新北市土城區城林路6巷80號","121.438405","24.979755","6501300","土城區"
"236055","AAC-216","2018/08/25 17:49:19","新北市土城區城林路6巷80號","121.438511666667","24.9795833333333","6501300","土城區"
"242034","AAC-296","2018/08/25 17:49:15","新北市新莊區新莊路773號","121.442013333333","25.03282","6500500","新莊區"
"242058","986-R7","2018/08/25 17:49:12","新北市新莊區新北大道七段355號","121.412391666667","25.0272133333333","6500500","新莊區"
"242053","751-BX","2018/08/25 17:49:16","新北市新莊區新樹路565號","121.432855","25.0071516666667","6500500","新莊區"
"242027","615-BX","2018/08/25 17:49:13","新北市新莊區福壽街165號","121.457993333333","25.0535566666667","6500500","新莊區"
"242025","613-BX","2018/08/25 17:49:07","新北市三重區新北大道二段37號","121.470821666667","25.061285","6500500","新莊區"
"242042","566-BX","2018/08/25 17:49:08","新北市泰山區新北大道六段369號","121.422391666667","25.032875","6500500","新莊區"
"242046","497-BY","2018/08/25 17:49:15","新北市新莊區建國一路76號","121.434411666667","25.0305166666667","6500500","新莊區"
"242021","442-UM","2018/08/25 17:49:16","新北市新莊區中華路一段230號","121.45262","25.0432166666667","6500500","新莊區"
"242051","441-UM","2018/08/25 17:49:04","新北市新莊區西盛街311巷9號","121.428376666667","25.015435","6500500","新莊區"
"242056","440-UM","2018/08/25 17:49:15","新北市新莊區瓊林路46-9號","121.447033333333","25.029285","6500500","新莊區"
"242036","415-TV","2018/08/25 17:49:14","新北市新莊區後港一路75號","121.427118333333","25.0266116666667","6500500","新莊區"
"242007","413-TV","2018/08/25 17:49:04","新北市新莊區福樂街134號","121.4566","25.047955","6500500","新莊區"
"242044","400-BY","2018/08/25 17:49:13","新北市新莊區中正路857號","121.41964","25.0278883333333","6500500","新莊區"
"242023","362-BY","2018/08/25 17:49:16","新北市新莊區福樂街78號","121.457685","25.0467916666667","6500500","新莊區"
"242061","353-BY","2018/08/25 17:49:04","新北市新莊區新樹路605號","121.433308333333","25.0056216666667","6500500","新莊區"
"242009","132-UY","2018/08/25 17:49:11","新北市新莊區昌明街30巷5弄1號","121.456751666667","25.0528483333333","6500500","新莊區"
"242039","133-UY","2018/08/25 17:49:10","新北市新莊區民安路185號","121.4259","25.0229816666667","6500500","新莊區"
"242031","135-UY","2018/08/25 17:49:18","新北市新莊區新泰路321巷37號","121.443055","25.0411266666667","6500500","新莊區"
"242048","172-VK","2018/08/25 17:49:15","新北市新莊區萬安街109號","121.420888333333","25.0228033333333","6500500","新莊區"
"242011","173-VK","2018/08/25 17:49:08","新北市新莊區中港路684號","121.450773333333","25.05681","6500500","新莊區"
"242017","175-VK","2018/08/25 17:49:20","新北市新莊區永安街94號","121.450498333333","25.0446683333333","6500500","新莊區"
"242004","176-VK","2018/08/25 17:49:10","新北市新莊區自立街184號","121.456185","25.0455066666667","6500500","新莊區"
"242002","349-TH","2018/08/25 17:49:04","新北市新莊區景德路168號","121.450503333333","25.034125","6500500","新莊區"
"242019","350-TH","2018/08/25 17:49:19","新北市新莊區中港路262號","121.453628333333","25.0436166666667","6500500","新莊區"
"238015","755-BX","2018/08/25 17:49:09","新北市樹林區長壽街70巷1弄21號","121.42109","24.9946683333333","6500700","樹林區"
"238023","601-UM","2018/08/25 17:49:18","新北市樹林區龍興街32巷6號","121.402598333333","25.0158483333333","6500700","樹林區"
"238019","599-UM","2018/08/25 17:49:10","新北市樹林區太平路235-1號","121.418855","24.9740683333333","6500700","樹林區"
"238018","571-TV","2018/08/25 17:49:14","新北市樹林區博愛街153號","121.425543333333","24.990315","6500700","樹林區"
"238022","KEA-2213","2018/08/25 17:49:13","新北市樹林區太順街62巷3弄10號","121.417215","24.979545","6500700","樹林區"
"238021","KEA-2539","2018/08/25 17:48:58","新北市樹林區柑園街一段30-3號","121.405086666667","24.9610766666667","6500700","樹林區"
"238025","303-VK","2018/08/25 17:49:13","新北市樹林區三俊街172號","121.417671666667","25.015505","6500700","樹林區"
"238017","283-BY","2018/08/25 17:49:13","新北市樹林區三俊街112號","121.41502","25.01538","6500700","樹林區"
"238014","282-BY","2018/08/25 17:49:15","新北市樹林區大安路161號","121.4215","24.99653","6500700","樹林區"
"238020","268-VK","2018/08/25 17:49:05","新北市樹林區三俊街199巷20弄1-1號","121.420575","25.0177783333333","6500700","樹林區"
"238026","172-UY","2018/08/25 17:49:12","新北市樹林區中洲街43號","121.396876666667","24.9712416666667","6500700","樹林區"
"238016","169-UY","2018/08/25 17:49:14","新北市樹林區復興路371號","121.417021666667","24.9870383333333","6500700","樹林區"
"239007","AAC-297","2018/08/25 17:49:11","新北市鶯歌區永利街22號","121.33924","24.954855","6500800","鶯歌區"
"239006","891-R6","2018/08/25 17:49:08","新北市鶯歌區鳳鳴路21號","121.333618333333","24.965155","6500800","鶯歌區"
"239008","527-UM","2018/08/25 17:49:13","新北市鶯歌區香賓街11巷1號","121.336775","24.979405","6500800","鶯歌區"
"239005","526-UM","2018/08/25 17:49:03","新北市鶯歌區鳳吉五街29號","121.327305","24.972685","6500800","鶯歌區"
"239001","417-VK","2018/08/25 17:49:11","新北市鶯歌區中正三路408號","121.325596666667","24.9347316666667","6500800","鶯歌區"
"239003","360-BY","2018/08/25 17:49:06","新北市鶯歌區鶯桃路285巷2-5號","121.334351666667","24.9591416666667","6500800","鶯歌區"
"239002","359-BY","2018/08/25 17:48:51","新北市鶯歌區光明街101號","121.344626666667","24.9557583333333","6500800","鶯歌區"
"239004","193-VK","2018/08/25 17:49:17","新北市鶯歌區中正二路91號","121.348623333333","24.9495583333333","6500800","鶯歌區"
"221008","489-VK","2018/08/25 17:49:03","新北市汐止區康寧街901號","121.651405","25.075205","6501100","汐止區"
"221036","130-UY","2018/08/25 17:49:18","新北市汐止區汐萬路一段191號","121.652411666667","25.0716933333333","6501100","汐止區"
"221015","131-UY","2018/08/25 17:49:18","新北市汐止區長江街250號","121.663061666667","25.07935","6501100","汐止區"
"221010","269-BY","2018/08/25 17:49:07","新北市汐止區汐萬路二段122巷3號","121.648371666667","25.0857566666667","6501100","汐止區"
"221012","278-VK","2018/08/25 17:49:11","新北市汐止區長江街83號","121.657458333333","25.07242","6501100","汐止區"
"221023","279-VK","2018/08/25 17:49:08","新北市汐止區民族二街9號","121.634926666667","25.070915","6501100","汐止區"
"221032","280-BY","2018/08/25 17:49:00","新北市汐止區工建路202號","121.63689","25.0627416666667","6501100","汐止區"
"221027","281-BY","2018/08/25 17:49:16","新北市汐止區汐萬路一段312號","121.650546666667","25.07541","6501100","汐止區"
"221029","298-VK","2018/08/25 17:49:01","新北市汐止區康寧街901號","121.651536666667","25.0748966666667","6501100","汐止區"
"221021","299-VK","2018/08/25 17:49:09","新北市汐止區水源路一段15號","121.657208333333","25.0667666666667","6501100","汐止區"
"221031","353-TW","2018/08/25 17:49:01","新北市汐止區中興路96巷1-3號","121.635605","25.062675","6501100","汐止區"
"221002","129-UY","2018/08/25 17:49:02","新北市汐止區汐萬路一段256巷1號","121.651883333333","25.0748166666667","6501100","汐止區"
"221035","622-UM","2018/08/25 17:49:13","新北市汐止區汐萬路一段211巷15號","121.651378333333","25.0718283333333","6501100","汐止區"
"221025","623-UM","2018/08/25 17:49:00","新北市汐止區新台五路一段260-1號","121.657326666667","25.0638366666667","6501100","汐止區"
"221038","646-BX","2018/08/25 17:49:16","新北市汐止區汐萬路一段160號","121.652558333333","25.0715466666667","6501100","汐止區"
"221033","647-BX","2018/08/25 17:49:18","新北市汐止區林森街78號","121.62394","25.04021","6501100","汐止區"
"221018","753-BX","2018/08/25 17:49:10","新北市汐止區大同路二段497號","121.660998333333","25.06855","6501100","汐止區"
"242013","281-VK","2018/08/25 17:49:19","新北市新莊區中誠街167號","121.448166666667","25.0473616666667","6500500","新莊區"
