"lineid","car","time","location","longitude","latitude","cityid","cityname"
"234046","148-BY","2018/08/25 18:29:02","新北市永和區福和路1號","121.526396666667","25.0098966666667","6500400","永和區"
"234007","207-UY","2018/08/25 18:29:12","新北市永和區保順路59號","121.50269","25.011555","6500400","永和區"
"234081","298-R6","2018/08/25 18:29:17","新北市永和區豫溪街217巷5號","121.524688333333","25.00954","6500400","永和區"
"234038","336-UY","2018/08/25 18:29:14","新北市永和區福和路1號","121.526703333333","25.0101033333333","6500400","永和區"
"234042","862-TW","2018/08/25 18:29:20","新北市永和區福和路1號","121.525803333333","25.0095083333333","6500400","永和區"
"234026","9371-KE","2018/08/25 18:29:17","新北市永和區中正路748號","121.514876666667","25.01034","6500400","永和區"
"234011","9373-KE","2018/08/25 18:29:20","新北市永和區保安路73號","121.508818333333","25.01509","6500400","永和區"
"249005","172-UM","2018/08/25 18:29:13","新北市八里區長坑口47號","121.389351666667","25.1340033333333","6502300","八里區"
"249001","173-UM","2018/08/25 18:29:02","新北市八里區龍米路一段126號","121.453106666667","25.12532","6502300","八里區"
"249004","303-UY","2018/08/25 18:29:17","新北市八里區忠孝路71-1號","121.426785","25.160335","6502300","八里區"
"249002","305-UY","2018/08/25 18:29:15","新北市八里區龍形三街6巷9-1號","121.449878333333","25.13249","6502300","八里區"
"248014","025-BX","2018/08/25 18:29:06","新北市五股區明德路7巷14號","121.434756666667","25.0708633333333","6501500","五股區"
"248016","026-BX","2018/08/25 18:29:04","新北市五股區成泰路三段477巷18號","121.4499","25.098895","6501500","五股區"
"248006","077-UY","2018/08/25 18:29:06","新北市五股區四維路60號","121.467373333333","25.0722183333333","6501500","五股區"
"248008","095-VK","2018/08/25 18:29:12","新北市五股區四維路185巷42弄1號","121.463633333333","25.0768616666667","6501500","五股區"
"248020","225-UY","2018/08/25 18:29:16","新北市五股區孝義路47巷7-4號","121.453733333333","25.1102233333333","6501500","五股區"
"248012","247-BX","2018/08/25 18:29:18","新北市五股區御史路59號","121.441876666667","25.0936966666667","6501500","五股區"
"248010","272-BY","2018/08/25 18:29:16","新北市五股區水碓路16巷11號","121.433936666667","25.0730466666667","6501500","五股區"
"248004","677-BX","2018/08/25 18:29:06","新北市五股區六合街19號","121.431203333333","25.0886266666667","6501500","五股區"
"234067","AAC-212","2018/08/25 18:29:13","新北市永和區福和路1號","121.526463333333","25.0097016666667","6500400","永和區"
"244007","080-UY","2018/08/25 18:29:16","新北市林口區後湖17-9號","121.386966666667","25.0974016666667","6501700","林口區"
"244019","403-UM","2018/08/25 18:29:05","新北市林口區忠孝路622巷2號","121.377801666667","25.06827","6501700","林口區"
"244013","KEA-2802","2018/08/25 18:29:04","新北市林口區中山路301號","121.383911666667","25.0802766666667","6501700","林口區"
"244023","483-VK","2018/08/25 18:29:13","新北市林口區仁愛路二段18號","121.38562","25.0761716666667","6501700","林口區"
"244017","485-VK","2018/08/25 18:29:18","新北市林口區八德路62號","121.365966666667","25.0657633333333","6501700","林口區"
"244009","656-BX","2018/08/25 18:29:11","新北市林口區文林一街123號","121.379095","25.0870566666667","6501700","林口區"
"244011","657-BX","2018/08/25 18:29:16","新北市林口區中正路130號","121.393061666667","25.0772833333333","6501700","林口區"
"244025","837-TS","2018/08/25 18:29:07","新北市林口區南勢四街196巷26號","121.35744","25.0729533333333","6501700","林口區"
"244021","838-TS","2018/08/25 18:29:10","新北市林口區工六路6巷8號","121.397511666667","25.0786933333333","6501700","林口區"
"243013","AAD-798","2018/08/25 18:29:14","新北市泰山區明志路三段206巷1號","121.423475","25.0378483333333","6501600","泰山區"
"222003","436-BY","2018/08/25 18:29:04","新北市深坑區北深路一段288號","121.628165","25.0076666666667","6501800","深坑區"
"222002","659-BX","2018/08/25 18:29:12","新北市深坑區雲鄉路147號","121.621966666667","24.9982833333333","6501800","深坑區"
"231044","001-UM","2018/08/25 18:29:04","新北市新店區安華路28-1號","121.519541666667","24.9609916666667","6500600","新店區"
"231041","002-UM","2018/08/25 18:28:58","新北市新店區安華路28-1號","121.519816666667","24.9608966666667","6500600","新店區"
"231059","046-UY","2018/08/25 18:29:17","新北市新店區安華路28-1號","121.51967","24.9609033333333","6500600","新店區"
"231046","107-UY","2018/08/25 18:29:13","新北市新店區直潭七街60號","121.532281666667","24.9397633333333","6500600","新店區"
"231052","108-UY","2018/08/25 18:29:16","新北市新店區北宜路一段123-1號","121.5406","24.9535466666667","6500600","新店區"
"231048","187-VK","2018/08/25 18:29:14","新北市新店區安一路一段1-1號","121.519656666667","24.9613016666667","6500600","新店區"
"231054","KEA-2219","2018/08/25 18:29:16","新北市新店區安一路一段1-1號","121.520158333333","24.961235","6500600","新店區"
"231057","256-BX","2018/08/25 18:29:09","新北市新店區安康路一段3-1號","121.53514","24.9608583333333","6500600","新店區"
"231042","268-BY","2018/08/25 18:29:04","新北市新店區安華路28-1號","121.519336666667","24.96056","6500600","新店區"
"231051","278-BY","2018/08/25 18:29:02","新北市新店區安康路一段50-1號","121.529795","24.9613083333333","6500600","新店區"
"231050","AAD-862","2018/08/25 18:29:08","新北市新店區安一路一段1-1號","121.520123333333","24.9611616666667","6500600","新店區"
"231040","355-BY","2018/08/25 18:29:01","新北市新店區安華路28-1號","121.519115","24.9609016666667","6500600","新店區"
"231058","3713-VJ","2018/08/25 18:29:08","新北市新店區新店後街95號","121.53766","24.95563","6500600","新店區"
"231066","4716-K9","2018/08/25 18:29:03","新北市新店區安一路一段1-1號","121.519386666667","24.9612283333333","6500600","新店區"
"231056","4715-K9","2018/08/25 18:29:13","新北市新店區二十張路129巷5弄3號","121.536536666667","24.978745","6500600","新店區"
"231067","4772-VM","2018/08/25 18:29:11","新北市新店區安華路28-1號","121.519295","24.9606133333333","6500600","新店區"
"231065","512-UM","2018/08/25 18:29:09","新北市新店區安一路一段1-1號","121.519231666667","24.9611333333333","6500600","新店區"
"231049","513-UM","2018/08/25 18:29:03","新北市新店區安一路一段1-1號","121.519713333333","24.961215","6500600","新店區"
"231045","617-UM","2018/08/25 18:29:03","新北市新店區安華路28-1號","121.51929","24.9609683333333","6500600","新店區"
"231061","619-UM","2018/08/25 18:29:19","新北市新店區安華路28-1號","121.51967","24.9608716666667","6500600","新店區"
"231063","641-BX","2018/08/25 18:29:06","新北市新店區安華路28-1號","121.51967","24.9607283333333","6500600","新店區"
"231039","718-UY","2018/08/25 18:29:18","新北市新店區安康路一段355號","121.519745","24.96283","6500600","新店區"
"231064","719-UM","2018/08/25 18:29:06","新北市新店區安一路一段1-1號","121.51954","24.9613116666667","6500600","新店區"
"231062","720-UM","2018/08/25 18:29:12","新北市新店區安一路一段1-1號","121.519316666667","24.9611916666667","6500600","新店區"
"231060","897-TW","2018/08/25 18:29:01","新北市新店區安華路28-1號","121.519513333333","24.9607433333333","6500600","新店區"
"231043","899-TW","2018/08/25 18:29:10","新北市新店區安華路28-1號","121.519058333333","24.9609083333333","6500600","新店區"
"231055","AKT-0513","2018/08/25 18:28:58","新北市新店區中正路190號","121.540726666667","24.972355","6500600","新店區"
"235066","003-UY","2018/08/25 18:29:19","新北市中和區中山路二段120號","121.502728333333","25.0037666666667","6500300","中和區"
"235064","005-UY","2018/08/25 18:29:04","新北市中和區連城路139巷54號","121.49674","24.997345","6500300","中和區"
"235063","006-UY","2018/08/25 18:29:10","新北市中和區連城路347巷16弄51號","121.486851666667","24.9950916666667","6500300","中和區"
"235056","096-UM","2018/08/25 18:28:59","新北市中和區員山路611巷1號","121.477798333333","25.0113116666667","6500300","中和區"
"235039","097-UM","2018/08/25 18:29:06","新北市中和區安平路192號","121.513181666667","24.99921","6500300","中和區"
"235065","098-UM","2018/08/25 18:29:03","新北市中和區中山路二段64巷9號","121.503195","25.005025","6500300","中和區"
"235040","150-BY","2018/08/25 18:28:58","新北市中和區安平路59號","121.509475","24.99509","6500300","中和區"
"235058","151-BY","2018/08/25 18:29:04","新北市中和區圓通路369巷30弄88號","121.488696666667","24.9849333333333","6500300","中和區"
"235055","183-VK","2018/08/25 18:29:06","新北市中和區莒光路101號","121.472375","25.0029133333333","6500300","中和區"
"235038","185-VK","2018/08/25 18:29:11","新北市中和區自立路24號","121.522395","24.99316","6500300","中和區"
"235049","186-VK","2018/08/25 18:29:17","新北市中和區景安路142號","121.505121666667","24.9941716666667","6500300","中和區"
"235067","255-BX","2018/08/25 18:29:18","新北市中和區新生街287號","121.483748333333","24.9974316666667","6500300","中和區"
"235044","293-VK","2018/08/25 18:29:10","新北市中和區復興路301巷7號","121.501556666667","24.9899166666667","6500300","中和區"
"235072","301-VK","2018/08/25 18:29:03","新北市中和區連城路144巷2號","121.495578333333","24.9986516666667","6500300","中和區"
"235043","352-BY","2018/08/25 18:29:05","新北市中和區景平路311號","121.506456666667","24.9932066666667","6500300","中和區"
"235042","KEA-2878","2018/08/25 18:29:17","新北市中和區自立路56巷1號","121.523425","24.9918316666667","6500300","中和區"
"235069","4980-A6","2018/08/25 18:29:12","新北市中和區連城路127巷19-10號","121.49681","24.9980983333333","6500300","中和區"
"235070","558-UM","2018/08/25 18:29:18","新北市中和區南華路61號","121.50441","24.9971133333333","6500300","中和區"
"235045","565-BX","2018/08/25 18:29:14","新北市中和區南山路236巷24弄20號","121.504953333333","24.9890283333333","6500300","中和區"
"235054","640-BX","2018/08/25 18:29:17","新北市中和區民享街99號","121.474936666667","24.9999283333333","6500300","中和區"
"235060","647-TV","2018/08/25 18:29:04","新北市中和區員山路477巷6號","121.479908333333","25.0052266666667","6500300","中和區"
"235047","732-UM","2018/08/25 18:29:03","新北市中和區南山路320巷3號","121.507675","24.986465","6500300","中和區"
"235046","733-UM","2018/08/25 18:29:02","新北市中和區板南路100號","121.503855","24.992435","6500300","中和區"
"235062","800-TS","2018/08/25 18:29:13","新北市中和區景平路989巷2號","121.49572","25.00561","6500300","中和區"
"235057","801-TS","2018/08/25 18:29:15","新北市中和區民安街63號","121.478653333333","24.9997516666667","6500300","中和區"
"235041","802-TS","2018/08/25 18:29:01","新北市中和區景安路38號","121.507036666667","24.9982883333333","6500300","中和區"
"235052","805-TS","2018/08/25 18:29:04","新北市中和區興南路二段96號","121.505201666667","24.9842583333333","6500300","中和區"
"235048","896-TW","2018/08/25 18:29:18","新北市中和區中正路79號","121.500801666667","24.9935016666667","6500300","中和區"
"235053","900-TW","2018/08/25 18:29:17","新北市中和區民享街457號","121.470366666667","24.9931733333333","6500300","中和區"
"235051","157-BY","2018/08/25 18:29:18","新北市中和區興南路二段142巷35弄1號","121.502548333333","24.9844766666667","6500300","中和區"
"235037","AAC-213","2018/08/25 18:29:09","新北市中和區景德街103號","121.515553333333","24.99112","6500300","中和區"
"235059","AAC-215","2018/08/25 18:29:07","新北市中和區員山路36巷16-3號","121.485011666667","24.9914366666667","6500300","中和區"
"220065","072-UY","2018/08/25 18:29:08","新北市板橋區南雅南路二段15號","121.454146666667","25.0002816666667","6500100","板橋區"
"220086","073-UY","2018/08/25 18:29:07","新北市板橋區南雅南路二段140號","121.451708333333","24.996245","6500100","板橋區"
"220069","AAD-861","2018/08/25 18:29:07","新北市板橋區華東街1-10號","121.448301666667","24.99514","6500100","板橋區"
"226004","312-R5","2018/08/25 18:29:02","新北市平溪區靜安路二段330號","121.73694","25.024275","6502400","平溪區"
"228003","097-TW","2018/08/25 18:29:06","新北市貢寮區和美里和美街39號","121.912336666667","25.0893933333333","6502600","貢寮區"
"228001","212-TW","2018/08/25 18:29:06","新北市貢寮區仁理村仁和路166號","121.923343333333","25.0522466666667","6502600","貢寮區"
"228002","663-BX","2018/08/25 18:29:17","新北市貢寮區福連里福連街5號","121.988125","25.0146383333333","6502600","貢寮區"
"224010","AGQ-8101","2018/08/25 18:05:23","新北市瑞芳區烏勢巷145號","121.847538333333","25.1089916666667","6501200","瑞芳區"
"224006","676-BX","2018/08/25 18:29:19","新北市瑞芳區明燈路二段40-1號","121.810006666667","25.1077616666667","6501200","瑞芳區"
"224002","639-TC","2018/08/25 18:29:14","新北市瑞芳區三爪子坑路29巷31號","121.813738333333","25.10669","6501200","瑞芳區"
"224008","285-BY","2018/08/25 18:29:12","新北市瑞芳區岳王路1巷9號","121.80632","25.1103966666667","6501200","瑞芳區"
"224007","275-VK","2018/08/25 18:29:11","新北市瑞芳區大埔路有勝新村4號","121.764833333333","25.101265","6501200","瑞芳區"
"224009","273-VK","2018/08/25 18:29:10","新北市瑞芳區五號路126號","121.854948333333","25.1108533333333","6501200","瑞芳區"
"224005","271-BY","2018/08/25 18:29:16","新北市瑞芳區台電新村89號","121.811215","25.1274383333333","6501200","瑞芳區"
"227002","642-TC","2018/08/25 18:29:15","新北市雙溪區魚行里新店47號","121.869923333333","25.031055","6502500","雙溪區"
"227010","400-TW","2018/08/25 18:28:58","新北市雙溪區牡丹里牡丹131號","121.850918333333","25.059305","6502500","雙溪區"
"253005","032-BX","2018/08/25 18:29:08","新北市石門區老崩山11-4號","121.552156666667","25.2907283333333","6502200","石門區"
"253006","295-VK","2018/08/25 18:29:13","新北市石門區老梅路41號","121.545136666667","25.289475","6502200","石門區"
"222001","KEA-2212","2018/08/25 18:29:18","新北市深坑區北深路一段199號","121.630413333333","25.008905","6501800","深坑區"
"208002","KEA-2872","2018/08/25 18:29:03","新北市金山區磺港里磺港路171-1號","121.64369","25.2238383333333","6502700","金山區"
"208003","665-BX","2018/08/25 18:28:58","新北市金山區中山路141號","121.638985","25.2201566666667","6502700","金山區"
"208001","761-BX","2018/08/25 18:29:03","新北市金山區溫泉路21巷1號","121.637803333333","25.2228666666667","6502700","金山區"
"251005","010-UM","2018/08/25 18:29:02","新北市淡水區中正東路37號","121.445908333333","25.1682733333333","6501000","淡水區"
"251002","012-UM","2018/08/25 18:29:05","新北市淡水區竿蓁二街19巷5號","121.453216666667","25.163305","6501000","淡水區"
"251013","KEA-2871","2018/08/25 18:29:08","新北市淡水區行忠路901號","121.48048","25.20043","6501000","淡水區"
"251016","179-VK","2018/08/25 18:29:01","新北市淡水區下圭柔山114-5號","121.446458333333","25.2110266666667","6501000","淡水區"
"251014","180-VK","2018/08/25 18:28:59","新北市淡水區南平20-1號","121.493875","25.2171033333333","6501000","淡水區"
"251015","181-VK","2018/08/25 18:29:05","新北市淡水區興福寮88巷216號","121.485975","25.166665","6501000","淡水區"
"251010","413-VK","2018/08/25 18:29:04","新北市淡水區沙崙路181巷1號","121.424148333333","25.1841783333333","6501000","淡水區"
"251012","441-VK","2018/08/25 18:29:08","新北市淡水區北新路一段157號","121.458748333333","25.18231","6501000","淡水區"
"251008","442-VK","2018/08/25 18:29:11","新北市淡水區北投子87-3號","121.469243333333","25.1791483333333","6501000","淡水區"
"251004","443-VK","2018/08/25 18:29:05","新北市淡水區民族路31巷27號","121.462248333333","25.1364683333333","6501000","淡水區"
"251001","559-UM","2018/08/25 18:29:21","新北市淡水區自強路385號","121.464866666667","25.1335733333333","6501000","淡水區"
"251006","561-UM","2018/08/25 18:29:16","新北市淡水區中山北路三段16巷20號","121.443936666667","25.1902266666667","6501000","淡水區"
"251007","577-R6","2018/08/25 18:29:12","新北市淡水區中正東路二段143巷2弄1號","121.460513333333","25.1472333333333","6501000","淡水區"
"251011","650-BX","2018/08/25 18:29:06","新北市淡水區中正東路一段3巷2號","121.450666666667","25.1645166666667","6501000","淡水區"
"251003","766-UM","2018/08/25 18:29:11","新北市淡水區北新路169巷14號","121.4497","25.1800616666667","6501000","淡水區"
"207003","550-UM","2018/08/25 18:29:11","新北市萬里區野柳里港東路68號","121.687955","25.2044033333333","6502800","萬里區"
"207004","225-TW","2018/08/25 18:29:06","新北市萬里區萬里里瑪鋉路21號","121.687506666667","25.1754316666667","6502800","萬里區"
"252002","178-VK","2018/08/25 18:29:09","新北市三芝區中山路二段41號","121.502905","25.2550633333333","6502100","三芝區"
"252004","249-BX","2018/08/25 18:29:02","新北市三芝區後厝里北勢子41-7號","121.472461666667","25.253035","6502100","三芝區"
"252001","292-VK","2018/08/25 18:29:09","新北市三芝區中興街二段2號","121.498353333333","25.256625","6502100","三芝區"
"237004","KEA-2597","2018/08/25 18:29:16","新北市三峽區五寮81-1號","121.35959","24.8584583333333","6500900","三峽區"
"237007","153-BY","2018/08/25 18:29:17","新北市三峽區中正路三段21號","121.349513333333","24.9028866666667","6500900","三峽區"
"237009","210-TH","2018/08/25 18:29:03","新北市三峽區民權街231號","121.368046666667","24.927925","6500900","三峽區"
"237013","252-BX","2018/08/25 18:29:17","新北市三峽區長泰街41巷9號","121.377521666667","24.932175","6500900","三峽區"
"237012","275-BY","2018/08/25 18:29:06","新北市三峽區三樹路168巷30號","121.379568333333","24.9405433333333","6500900","三峽區"
"237008","302-VK","2018/08/25 18:29:01","新北市三峽區白雞68-8號","121.39055","24.909185","6500900","三峽區"
"237014","433-BY","2018/08/25 18:29:06","新北市三峽區文化路109號","121.370491666667","24.9360433333333","6500900","三峽區"
"237006","5529-G3","2018/08/25 18:29:00","新北市三峽區溪東路473巷16號","121.414283333333","24.9287283333333","6500900","三峽區"
"237011","KEA-2596","2018/08/25 18:29:05","新北市三峽區成福路59號","121.418345","24.929105","6500900","三峽區"
"237016","649-BX","2018/08/25 18:29:07","新北市三峽區竹崙路123號","121.433823333333","24.9099816666667","6500900","三峽區"
"237010","706-TV","2018/08/25 18:29:17","新北市三峽區中山路286號","121.36088","24.9380583333333","6500900","三峽區"
"237005","AKY-6261","2018/08/25 18:29:10","新北市三峽區秀川街40號","121.37161","24.9340533333333","6500900","三峽區"
"236070","105-UM","2018/08/25 18:29:14","新北市土城區永豐路282號","121.470681666667","24.978","6501300","土城區"
"236042","107-UM","2018/08/25 18:29:19","新北市土城區學成路91巷20號","121.45027","24.9876883333333","6501300","土城區"
"236079","166-UM","2018/08/25 18:29:13","新北市土城區大暖路51-1號","121.422605","24.9588233333333","6501300","土城區"
"236030","253-BX","2018/08/25 18:29:13","新北市土城區水源街81巷7號","121.439401666667","24.9758633333333","6501300","土城區"
"236026","269-VK","2018/08/25 18:29:06","新北市土城區南天母路18-4號","121.448428333333","24.9531966666667","6501300","土城區"
"236014","270-VK","2018/08/25 18:29:04","新北市土城區立清街69號","121.460288333333","24.9872983333333","6501300","土城區"
"236038","271-VK","2018/08/25 18:29:11","新北市土城區青雲路449號","121.458853333333","24.975085","6501300","土城區"
"236021","401-BY","2018/08/25 18:29:03","新北市土城區永豐路135巷1號","121.466658333333","24.9834283333333","6501300","土城區"
"236059","912-UM","2018/08/25 18:29:05","新北市土城區中央路四段117號","121.41645","24.957745","6501300","土城區"
"236049","913-UM","2018/08/25 18:29:01","新北市土城區青雲路480號","121.458681666667","24.9732233333333","6501300","土城區"
"236063","915-UM","2018/08/25 18:29:08","新北市土城區延壽路77巷6弄8號","121.46844","24.9928883333333","6501300","土城區"
"236055","AAC-216","2018/08/25 18:28:59","新北市土城區中華路一段249號","121.440756666667","24.9814316666667","6501300","土城區"
"242058","986-R7","2018/08/25 18:29:12","新北市新莊區中正路887-19號","121.415968333333","25.0240783333333","6500500","新莊區"
"242053","751-BX","2018/08/25 18:29:16","新北市新莊區民安西路472號","121.431978333333","25.00775","6500500","新莊區"
"242027","615-BX","2018/08/25 18:23:53","新北市新莊區新泰路255巷83號","121.442251666667","25.038785","6500500","新莊區"
"242025","613-BX","2018/08/25 18:29:07","新北市新莊區中原路656號","121.443791666667","25.0543516666667","6500500","新莊區"
"242042","566-BX","2018/08/25 18:29:08","新北市新莊區天祥街53號","121.414975","25.0304316666667","6500500","新莊區"
"242046","497-BY","2018/08/25 18:29:14","新北市新莊區中正路803巷40號","121.42171","25.0278583333333","6500500","新莊區"
"242021","442-UM","2018/08/25 18:29:16","新北市新莊區中正路265號","121.449563333333","25.0354166666667","6500500","新莊區"
"242051","441-UM","2018/08/25 18:29:04","新北市新莊區民安東路45號","121.429283333333","25.0209116666667","6500500","新莊區"
"242056","440-UM","2018/08/25 18:29:09","新北市新莊區瓊林路51-3號","121.445286666667","25.027705","6500500","新莊區"
"242044","400-BY","2018/08/25 18:29:13","新北市新莊區中正路新旺巷38號","121.41635","25.0225616666667","6500500","新莊區"
"242061","353-BY","2018/08/25 18:29:07","新北市新莊區四維路23號","121.424081666667","25.0238383333333","6500500","新莊區"
"242009","132-UY","2018/08/25 18:29:11","新北市新莊區自立街62號","121.454056666667","25.0453516666667","6500500","新莊區"
"242031","135-UY","2018/08/25 18:29:18","新北市新莊區新泰路277巷45號","121.444075","25.04011","6500500","新莊區"
"242002","349-TH","2018/08/25 18:29:04","新北市新莊區瓊林路56-70號","121.443185","25.025315","6500500","新莊區"
"238015","755-BX","2018/08/25 18:29:09","新北市樹林區啟智街187巷2號","121.415113333333","24.98723","6500700","樹林區"
"238023","601-UM","2018/08/25 18:29:02","新北市樹林區三福街114號","121.406478333333","25.0163183333333","6500700","樹林區"
"238018","571-TV","2018/08/25 18:29:14","新北市樹林區樹新路199號","121.429116666667","24.997655","6500700","樹林區"
"238024","5061-A6","2018/08/25 18:29:03","新北市樹林區中山路二段72-1號","121.415446666667","24.9840466666667","6500700","樹林區"
"238025","303-VK","2018/08/25 18:29:13","新北市樹林區中山路二段230號","121.40916","24.9803283333333","6500700","樹林區"
"238017","283-BY","2018/08/25 18:29:13","新北市樹林區光興街18號","121.4124","25.0029766666667","6500700","樹林區"
"238014","282-BY","2018/08/25 18:29:15","新北市樹林區大安路111巷11號","121.423168333333","24.99769","6500700","樹林區"
"238020","268-VK","2018/08/25 18:29:09","新北市樹林區三俊街127號","121.417981666667","25.0157433333333","6500700","樹林區"
"238026","172-UY","2018/08/25 18:29:12","新北市樹林區佳園路一段75巷90號","121.396396666667","24.970265","6500700","樹林區"
"239007","AAC-297","2018/08/25 18:29:11","新北市鶯歌區國慶街26號","121.349323333333","24.95591","6500800","鶯歌區"
"239008","527-UM","2018/08/25 18:29:13","新北市鶯歌區國際一路179號","121.336296666667","24.97647","6500800","鶯歌區"
"239005","526-UM","2018/08/25 18:29:03","桃園市八德區桃鶯路81號","121.327965","24.97039","6500800","鶯歌區"
"239001","417-VK","2018/08/25 18:29:11","新北市鶯歌區國中街197號","121.338186666667","24.93917","6500800","鶯歌區"
"239003","360-BY","2018/08/25 18:29:06","新北市鶯歌區永和街57號","121.332698333333","24.9675683333333","6500800","鶯歌區"
"239004","193-VK","2018/08/25 18:29:16","新北市鶯歌區尖山路235號","121.340051666667","24.9435933333333","6500800","鶯歌區"
"221008","489-VK","2018/08/25 18:29:03","新北市汐止區康寧街901號","121.651368333333","25.07507","6501100","汐止區"
"221036","130-UY","2018/08/25 18:29:18","新北市汐止區南昌街29號","121.663163333333","25.069195","6501100","汐止區"
"221015","131-UY","2018/08/25 18:29:18","新北市汐止區鄉友街16號","121.668461666667","25.080865","6501100","汐止區"
"221010","269-BY","2018/08/25 18:29:07","新北市汐止區汐萬路三段66號","121.644053333333","25.09352","6501100","汐止區"
"221012","278-VK","2018/08/25 18:29:11","新北市汐止區保長路51巷1號","121.673313333333","25.0788516666667","6501100","汐止區"
"221023","279-VK","2018/08/25 18:29:08","新北市汐止區康寧街520-1號","121.633761666667","25.06871","6501100","汐止區"
"221032","280-BY","2018/08/25 18:29:00","新北市汐止區福山街60巷11號","121.618198333333","25.0462933333333","6501100","汐止區"
"221027","281-BY","2018/08/25 18:29:15","新北市汐止區和平街55號","121.661841666667","25.07072","6501100","汐止區"
"221029","298-VK","2018/08/25 18:29:01","新北市汐止區樟樹二路330巷68號","121.642918333333","25.0698333333333","6501100","汐止區"
"221021","299-VK","2018/08/25 18:29:09","新北市汐止區復興路53巷1號","121.656805","25.0626966666667","6501100","汐止區"
"221031","353-TW","2018/08/25 18:29:21","新北市汐止區福德一路264號","121.632553333333","25.0641316666667","6501100","汐止區"
"221002","129-UY","2018/08/25 18:29:12","新北市汐止區福德一路190號","121.635295","25.0657116666667","6501100","汐止區"
"221035","622-UM","2018/08/25 18:29:13","新北市汐止區大同路二段167-1號","121.651286666667","25.0640433333333","6501100","汐止區"
"221025","623-UM","2018/08/25 18:29:00","新北市汐止區仁愛路124號","121.662973333333","25.0638533333333","6501100","汐止區"
"221038","646-BX","2018/08/25 18:28:56","新北市汐止區汐萬路一段115巷2號","121.654256666667","25.0708716666667","6501100","汐止區"
"221033","647-BX","2018/08/25 18:29:18","新北市汐止區宜興街40巷1號","121.622021666667","25.0421033333333","6501100","汐止區"
"221018","753-BX","2018/08/25 18:29:10","新北市汐止區茄苳路223號","121.670968333333","25.0687416666667","6501100","汐止區"
"220080","200-UY","2018/08/25 18:29:12","新北市板橋區華東街1-9號","121.448166666667","24.9949233333333","6500100","板橋區"
"220082","610-BX","2018/08/25 18:29:11","新北市板橋區華東街1-9號","121.44824","24.9949066666667","6500100","板橋區"
"220072","277-BY","2018/08/25 18:29:01","新北市板橋區華東街1-10號","121.448338333333","24.9951016666667","6500100","板橋區"
"220071","283-VK","2018/08/25 18:29:04","新北市板橋區華東街1-9號","121.44804","24.9949316666667","6500100","板橋區"
"220083","286-VK","2018/08/25 18:29:08","新北市板橋區華東街1-10號","121.448338333333","24.99508","6500100","板橋區"
"220081","287-VK","2018/08/25 18:29:11","新北市板橋區華東街1-10號","121.448211666667","24.995045","6500100","板橋區"
"220084","296-UM","2018/08/25 18:29:14","新北市板橋區華東街1-9號","121.448148333333","24.9949516666667","6500100","板橋區"
"220075","303-R5","2018/08/25 18:28:51","新北市板橋區華東街1-10號","121.44824","24.994985","6500100","板橋區"
"220064","486-VK","2018/08/25 18:29:12","新北市板橋區華東街1-8號","121.447595","24.994915","6500100","板橋區"
"220035","560-BX","2018/08/25 18:29:07","新北市板橋區南雅南路二段7巷12號","121.454288333333","25.0029033333333","6500100","板橋區"
"220077","687-BX","2018/08/25 18:29:05","新北市板橋區華東街1-10號","121.448316666667","24.995025","6500100","板橋區"
"220073","985-R7","2018/08/25 18:29:13","新北市板橋區華東街1-10號","121.44833","24.99495","6500100","板橋區"
"235068","KEA-2873","2018/08/25 18:29:16","新北市中和區圓通路273號","121.495701666667","24.99314","6500300","中和區"
"235061","KEA-2875","2018/08/25 18:29:08","新北市中和區民治街29巷2弄6號","121.475538333333","25.000695","6500300","中和區"
