"lineid","car","time","location","longitude","latitude","cityid","cityname"
"234046","148-BY","2018/08/25 18:59:42","新北市永和區秀朗路二段126巷30號","121.524556666667","25.0007566666667","6500400","永和區"
"234007","207-UY","2018/08/25 18:59:32","新北市永和區永和路二段74號","121.514988333333","25.01126","6500400","永和區"
"234081","298-R6","2018/08/25 18:59:37","新北市永和區國中路200號","121.522275","25.0061616666667","6500400","永和區"
"234038","336-UY","2018/08/25 18:59:34","新北市永和區成功路二段207號","121.526565","24.9959233333333","6500400","永和區"
"234064","337-UY","2018/08/25 18:59:42","新北市永和區秀朗路一段170號","121.518581666667","25.0034266666667","6500400","永和區"
"234086","338-UY","2018/08/25 18:59:46","新北市永和區永利路22號","121.518118333333","25.005775","6500400","永和區"
"234070","552-UM","2018/08/25 18:59:38","新北市永和區竹林路124巷32號","121.518196666667","25.0115716666667","6500400","永和區"
"234017","745-BX","2018/08/25 18:59:36","新北市永和區永和路二段299號","121.516083333333","25.0161316666667","6500400","永和區"
"234030","746-BX","2018/08/25 18:59:45","新北市永和區秀朗路二段270號","121.526105","24.9981616666667","6500400","永和區"
"234054","KEA-2590","2018/08/25 18:59:37","新北市永和區竹林路66巷2號","121.518231666667","25.013395","6500400","永和區"
"234013","KEA-2591","2018/08/25 18:59:40","新北市永和區中山路一段60巷8號","121.51317","25.0110816666667","6500400","永和區"
"234061","AAD-866","2018/08/25 18:59:40","新北市永和區福和路313號","121.51619","25.007105","6500400","永和區"
"234042","862-TW","2018/08/25 18:59:39","新北市永和區永貞路332巷30號","121.511738333333","25.0058933333333","6500400","永和區"
"234050","863-TW","2018/08/25 18:59:42","新北市永和區文化路147號","121.51073","25.0161683333333","6500400","永和區"
"234026","9371-KE","2018/08/25 18:59:37","新北市永和區安樂路453號","121.51421","25.0049733333333","6500400","永和區"
"234011","9373-KE","2018/08/25 18:59:40","新北市永和區信義路126-1號","121.512385","25.0151316666667","6500400","永和區"
"249005","172-UM","2018/08/25 18:59:34","新北市八里區長道坑11號","121.395313333333","25.121635","6502300","八里區"
"249001","173-UM","2018/08/25 18:59:43","新北市八里區龍米路二段216號","121.433225","25.1584416666667","6502300","八里區"
"248016","026-BX","2018/08/25 18:59:44","新北市五股區成泰路三段543巷60號","121.449523333333","25.103175","6501500","五股區"
"248006","077-UY","2018/08/25 18:59:35","新北市五股區中興路一段40號","121.468305","25.0725383333333","6501500","五股區"
"248008","095-VK","2018/08/25 18:59:32","新北市五股區中興路一段128巷14號","121.465693333333","25.0745433333333","6501500","五股區"
"248020","225-UY","2018/08/25 18:59:35","新北市五股區凌雲路三段82-3號","121.431306666667","25.11806","6501500","五股區"
"248012","247-BX","2018/08/25 18:59:38","新北市五股區工商路38號","121.439403333333","25.083745","6501500","五股區"
"248010","272-BY","2018/08/25 18:59:35","新北市五股區水碓三路29號","121.429846666667","25.0709666666667","6501500","五股區"
"248004","677-BX","2018/08/25 18:59:25","新北市五股區民義路一段312-7號","121.423396666667","25.0947666666667","6501500","五股區"
"234023","9380-KE","2018/08/25 18:59:26","新北市永和區竹林路75巷33弄21號","121.520826666667","25.0144266666667","6500400","永和區"
"234077","969-R7","2018/08/25 18:59:45","新北市永和區智光街22號","121.518043333333","24.9991816666667","6500400","永和區"
"234074","AAC-211","2018/08/25 18:59:36","新北市永和區環河東路二段98號","121.524131666667","25.0103466666667","6500400","永和區"
"234067","AAC-212","2018/08/25 18:59:33","新北市永和區永和路一段1號","121.512908333333","25.0051466666667","6500400","永和區"
"234003","AAC-295","2018/08/25 18:59:25","新北市永和區和平街29號","121.51319","25.0099183333333","6500400","永和區"
"244007","080-UY","2018/08/25 18:59:39","新北市林口區太平里16號","121.377438333333","25.1149483333333","6501700","林口區"
"244019","403-UM","2018/08/25 18:59:25","新北市林口區麗園二街1巷5-2號","121.377591666667","25.0700516666667","6501700","林口區"
"244013","KEA-2802","2018/08/25 18:59:44","新北市林口區麗園二街1巷7-3號","121.378208333333","25.0704733333333","6501700","林口區"
"244023","483-VK","2018/08/25 18:59:33","新北市林口區文化三路二段211巷85號","121.375103333333","25.0841433333333","6501700","林口區"
"244017","485-VK","2018/08/25 18:59:38","新北市林口區文化二路一段68巷6號","121.366451666667","25.0687833333333","6501700","林口區"
"244009","656-BX","2018/08/25 18:59:31","新北市林口區竹林路362巷1號","121.391781666667","25.084695","6501700","林口區"
"244011","657-BX","2018/08/25 18:59:36","新北市林口區仁愛路一段272巷2號","121.393703333333","25.0760583333333","6501700","林口區"
"244025","837-TS","2018/08/25 18:59:27","新北市林口區文化北路一段370號","121.362455","25.0747433333333","6501700","林口區"
"244021","838-TS","2018/08/25 18:59:30","新北市林口區自強一街72號","121.39998","25.0770033333333","6501700","林口區"
"243013","AAD-798","2018/08/25 18:59:40","新北市泰山區明志路三段239號","121.42355","25.0377083333333","6501600","泰山區"
"243009","297-R6","2018/08/25 18:59:34","新北市泰山區泰林路二段360號","121.429001666667","25.0635783333333","6501600","泰山區"
"243016","KEA-2801","2018/08/25 18:59:40","新北市泰山區明志路二段152-1號","121.427556666667","25.0506466666667","6501600","泰山區"
"243015","421-VK","2018/08/25 18:59:33","新北市泰山區泰林路二段216號","121.432818333333","25.0617733333333","6501600","泰山區"
"243011","KEA-2215","2018/08/25 18:59:29","新北市泰山區明志路二段228號","121.42702","25.04835","6501600","泰山區"
"243010","KEA-2216","2018/08/25 18:59:37","新北市泰山區辭修路28號","121.429075","25.0583633333333","6501600","泰山區"
"243012","646-TV","2018/08/25 18:59:45","新北市泰山區福興三街181號","121.432913333333","25.05702","6501600","泰山區"
"243014","680-BX","2018/08/25 18:59:43","新北市泰山區黎明路21號","121.420893333333","25.0627216666667","6501600","泰山區"
"222003","436-BY","2018/08/25 18:59:44","新北市深坑區深南路51-1號","121.621326666667","25.0101783333333","6501800","深坑區"
"222002","659-BX","2018/08/25 18:59:44","新北市深坑區文山路一段31巷2號","121.629918333333","25.003345","6501800","深坑區"
"231044","001-UM","2018/08/25 18:59:24","新北市新店區寶中路72號","121.547895","24.9806266666667","6500600","新店區"
"231041","002-UM","2018/08/25 18:59:38","新北市新店區環河路29巷1號","121.537046666667","24.9613666666667","6500600","新店區"
"231059","046-UY","2018/08/25 18:59:37","新北市新店區安華路28-1號","121.519756666667","24.9609883333333","6500600","新店區"
"231046","107-UY","2018/08/25 18:59:33","新北市新店區直潭七街8號","121.53443","24.9406533333333","6500600","新店區"
"231052","108-UY","2018/08/25 18:59:36","新北市新店區櫻花街55巷18號","121.548915","24.9250533333333","6500600","新店區"
"231048","187-VK","2018/08/25 18:59:34","新北市新店區德正街23巷12-1號","121.544616666667","24.9722033333333","6500600","新店區"
"231054","KEA-2219","2018/08/25 18:59:36","新北市新店區新店路13號","121.540335","24.9528866666667","6500600","新店區"
"231042","268-BY","2018/08/25 18:59:44","新北市新店區中正路23號","121.54534","24.9695033333333","6500600","新店區"
"231051","278-BY","2018/08/25 18:59:42","新北市新店區百忍街36號","121.533791666667","24.97582","6500600","新店區"
"231050","AAD-862","2018/08/25 18:59:41","新北市新店區北宜路二段56巷3弄1號","121.549211666667","24.95091","6500600","新店區"
"231040","355-BY","2018/08/25 18:59:26","新北市新店區中正路429-1號","121.534113333333","24.9782433333333","6500600","新店區"
"231058","3713-VJ","2018/08/25 18:59:29","新北市新店區光明街98號","121.53907","24.9603383333333","6500600","新店區"
"231066","4716-K9","2018/08/25 18:59:43","新北市新店區安豐路20號","121.501175","24.9567166666667","6500600","新店區"
"231056","4715-K9","2018/08/25 18:59:33","新北市新店區二十張路46巷37弄21-3號","121.535675","24.981335","6500600","新店區"
"231067","4772-VM","2018/08/25 18:59:31","新北市新店區安華路28-1號","121.51923","24.9606366666667","6500600","新店區"
"231065","512-UM","2018/08/25 18:59:29","新北市新店區安祥路145巷2號","121.47465","24.955425","6500600","新店區"
"231049","513-UM","2018/08/25 18:59:43","新北市新店區中正路454-5號","121.534436666667","24.97909","6500600","新店區"
"231045","617-UM","2018/08/25 18:59:43","新北市新店區光明街51號","121.53858","24.9601433333333","6500600","新店區"
"231061","619-UM","2018/08/25 18:59:39","新北市新店區安華路16號","121.51762","24.9581283333333","6500600","新店區"
"231063","641-BX","2018/08/25 18:59:27","新北市新店區安華路28-1號","121.51967","24.9607","6500600","新店區"
"231039","718-UY","2018/08/25 18:59:38","新北市新店區建國路94號","121.540141666667","24.97754","6500600","新店區"
"231064","719-UM","2018/08/25 18:59:26","新北市新店區安一路一段1-1號","121.519518333333","24.9613116666667","6500600","新店區"
"231062","720-UM","2018/08/25 18:59:32","新北市新店區安豐路60-1號","121.497806666667","24.9536133333333","6500600","新店區"
"231060","897-TW","2018/08/25 18:59:41","新北市新店區安忠路205巷8號","121.510156666667","24.9554666666667","6500600","新店區"
"231043","899-TW","2018/08/25 18:59:34","新北市新店區北新路二段4號","121.5427","24.9709733333333","6500600","新店區"
"231055","AKT-0513","2018/08/25 18:59:37","新北市新店區中央二街56號","121.526556666667","24.9742466666667","6500600","新店區"
"241026","066-VK","2018/08/25 18:59:45","新北市三重區泉州街108號","121.494871666667","25.0536816666667","6500200","三重區"
"241035","KEA-2210","2018/08/25 18:59:29","新北市三重區重新路四段138號","121.48641","25.05644","6500200","三重區"
"241029","942-UM","2018/08/25 18:59:36","新北市三重區重安街13巷6號","121.490446666667","25.0570316666667","6500200","三重區"
"235066","003-UY","2018/08/25 18:59:39","新北市中和區中山路二段131巷5弄3號","121.502881666667","25.0028533333333","6500300","中和區"
"235064","005-UY","2018/08/25 18:59:44","新北市中和區泰和街42號","121.499195","24.9998183333333","6500300","中和區"
"235063","006-UY","2018/08/25 18:59:30","新北市中和區中正路578號","121.486228333333","24.9947566666667","6500300","中和區"
"235056","096-UM","2018/08/25 18:59:39","新北市中和區新民街94巷17號","121.481351666667","25.0091166666667","6500300","中和區"
"235039","097-UM","2018/08/25 18:59:26","新北市中和區安平路222號","121.514055","25.0001516666667","6500300","中和區"
"235065","098-UM","2018/08/25 18:59:43","新北市中和區中山路二段2巷95弄1號","121.500435","25.00766","6500300","中和區"
"235040","150-BY","2018/08/25 18:59:38","新北市中和區安樂路85號","121.512896666667","24.9944583333333","6500300","中和區"
"235058","151-BY","2018/08/25 18:59:45","新北市中和區連城路531號","121.480823333333","24.99491","6500300","中和區"
"235055","183-VK","2018/08/25 18:59:45","新北市中和區民德路25巷1號","121.469093333333","25.0027283333333","6500300","中和區"
"235038","185-VK","2018/08/25 18:59:31","新北市中和區立人街24-5號","121.51896","24.9941533333333","6500300","中和區"
"235049","186-VK","2018/08/25 18:59:41","新北市中和區景安路167巷24-3號","121.506546666667","24.9948516666667","6500300","中和區"
"235067","255-BX","2018/08/25 18:59:38","新北市中和區民樂路81號","121.484848333333","25.00134","6500300","中和區"
"235044","293-VK","2018/08/25 18:59:30","新北市中和區中興街161巷9弄1號","121.50123","24.9909733333333","6500300","中和區"
"235072","301-VK","2018/08/25 18:59:43","新北市中和區中山路二段248號","121.497836666667","25.002525","6500300","中和區"
"235043","352-BY","2018/08/25 18:59:44","新北市中和區秀朗路三段103號","121.52644","24.994795","6500300","中和區"
"235042","KEA-2878","2018/08/25 18:59:37","新北市永和區成功路二段203號","121.52663","24.9960266666667","6500300","中和區"
"235069","4980-A6","2018/08/25 18:59:12","新北市中和區景平路622號","121.50059","24.997155","6500300","中和區"
"235070","558-UM","2018/08/25 18:59:38","新北市中和區安和路159號","121.506246666667","24.99745","6500300","中和區"
"235045","565-BX","2018/08/25 18:59:34","新北市中和區景新街467巷20弄84號","121.514456666667","24.98756","6500300","中和區"
"235054","640-BX","2018/08/25 18:59:37","新北市中和區民享街6-4號","121.474005","25.0046533333333","6500300","中和區"
"235060","647-TV","2018/08/25 18:59:44","新北市中和區民治街26號","121.475143333333","25.0039016666667","6500300","中和區"
"235047","732-UM","2018/08/25 18:59:43","新北市中和區興南路二段90號","121.505276666667","24.9845583333333","6500300","中和區"
"235046","733-UM","2018/08/25 18:59:41","新北市中和區興南路一段135巷17號","121.509356666667","24.987005","6500300","中和區"
"235071","783-BX","2018/08/25 18:59:36","新北市中和區員山路36巷16-3號","121.485185","24.9911233333333","6500300","中和區"
"235062","800-TS","2018/08/25 18:59:41","新北市中和區中山路二段304號","121.49587","25.00245","6500300","中和區"
"235057","801-TS","2018/08/25 18:59:35","新北市中和區民利街60號","121.479001666667","24.99862","6500300","中和區"
"235041","802-TS","2018/08/25 18:59:41","新北市中和區宜安路125號","121.509943333333","24.9981183333333","6500300","中和區"
"235052","805-TS","2018/08/25 18:59:34","新北市中和區興南路二段116號","121.504618333333","24.9839383333333","6500300","中和區"
"235048","896-TW","2018/08/25 18:59:38","新北市中和區華新街98號","121.508566666667","24.9828683333333","6500300","中和區"
"235053","900-TW","2018/08/25 18:59:37","新北市中和區壽德街26-1號","121.466521666667","24.9944866666667","6500300","中和區"
"235051","157-BY","2018/08/25 18:59:39","新北市中和區忠孝街11巷3號","121.509838333333","24.9831733333333","6500300","中和區"
"235037","AAC-213","2018/08/25 18:59:29","新北市中和區秀朗路三段10巷37弄2號","121.524103333333","24.9960883333333","6500300","中和區"
"235059","AAC-215","2018/08/25 18:59:27","新北市中和區圓通路367巷20弄7號","121.491955","24.9884933333333","6500300","中和區"
"220065","072-UY","2018/08/25 18:59:46","新北市板橋區漢生東路335號","121.47204","25.007745","6500100","板橋區"
"220086","073-UY","2018/08/25 18:59:27","新北市板橋區中正路250巷18號","121.45618","25.0193983333333","6500100","板橋區"
"220106","075-UY","2018/08/25 18:59:38","新北市板橋區莒光路59號","121.47091","25.0243116666667","6500100","板橋區"
"220069","AAD-861","2018/08/25 18:59:47","新北市板橋區華興街73-1號","121.457161666667","25.0050283333333","6500100","板橋區"
"226004","312-R5","2018/08/25 18:59:41","新北市平溪區靜安路三段67號","121.765605","25.0322283333333","6502400","平溪區"
"228003","097-TW","2018/08/25 18:59:46","新北市貢寮區和美里龍洞街60號","121.914268333333","25.1162883333333","6502600","貢寮區"
"228001","212-TW","2018/08/25 18:59:46","新北市貢寮區仁理村保健街69號","121.923738333333","25.0516033333333","6502600","貢寮區"
"228002","663-BX","2018/08/25 18:59:38","新北市貢寮區福隆里東興街106巷23弄3號","121.946366666667","25.0182583333333","6502600","貢寮區"
"224010","AGQ-8101","2018/08/25 18:59:23","新北市瑞芳區基山街3號","121.845238333333","25.1097383333333","6501200","瑞芳區"
"224006","676-BX","2018/08/25 18:59:42","新北市瑞芳區民族街29號","121.806935","25.10702","6501200","瑞芳區"
"224008","285-BY","2018/08/25 18:59:32","新北市瑞芳區逢甲路343-6號","121.799853333333","25.1123683333333","6501200","瑞芳區"
"224007","275-VK","2018/08/25 18:59:31","新北市瑞芳區中央路48巷162號","121.759366666667","25.10353","6501200","瑞芳區"
"224009","273-VK","2018/08/25 18:59:31","新北市瑞芳區山尖路54號","121.856865","25.1166183333333","6501200","瑞芳區"
"224005","271-BY","2018/08/25 18:59:40","新北市瑞芳區瑞芳街32-10號","121.822395","25.1209766666667","6501200","瑞芳區"
"227002","642-TC","2018/08/25 18:59:35","新北市雙溪區平林里康福家園10號","121.858753333333","25.0372683333333","6502500","雙溪區"
"227010","400-TW","2018/08/25 18:59:38","新北市雙溪區牡丹里中正路58巷23號","121.866486666667","25.041615","6502500","雙溪區"
"253005","032-BX","2018/08/25 18:59:27","新北市石門區中央路6號","121.566548333333","25.291415","6502200","石門區"
"253006","295-VK","2018/08/25 18:59:33","新北市石門區八甲11-1號","121.522176666667","25.281375","6502200","石門區"
"222001","KEA-2212","2018/08/25 18:59:39","新北市深坑區北深路一段177號","121.632356666667","25.0107116666667","6501800","深坑區"
"208002","KEA-2872","2018/08/25 18:59:43","新北市金山區仁愛路68號","121.634898333333","25.2211683333333","6502700","金山區"
"208003","665-BX","2018/08/25 18:59:38","新北市金山區中正路35號","121.635116666667","25.222045","6502700","金山區"
"208001","761-BX","2018/08/25 18:59:43","新北市金山區環金路19號","121.64116","25.217595","6502700","金山區"
"251005","010-UM","2018/08/25 18:59:42","新北市淡水區中正路18巷6號","121.437635","25.17282","6501000","淡水區"
"251002","012-UM","2018/08/25 18:59:45","新北市淡水區中正東路43號","121.446396666667","25.1680666666667","6501000","淡水區"
"251013","KEA-2871","2018/08/25 18:59:43","新北市淡水區頂田寮路951號","121.485285","25.2134416666667","6501000","淡水區"
"251016","179-VK","2018/08/25 18:59:41","新北市淡水區淡金路三段331巷8號","121.44844","25.2061116666667","6501000","淡水區"
"251014","180-VK","2018/08/25 18:59:39","新北市淡水區小中寮32號","121.49066","25.2271716666667","6501000","淡水區"
"251015","181-VK","2018/08/25 18:59:45","新北市淡水區糞箕湖112號","121.48734","25.1723716666667","6501000","淡水區"
"251010","413-VK","2018/08/25 18:59:24","新北市淡水區淡海路92號","121.422928333333","25.181955","6501000","淡水區"
"251001","559-UM","2018/08/25 18:59:43","新北市淡水區自強路58號","121.463196666667","25.1274716666667","6501000","淡水區"
"251006","561-UM","2018/08/25 18:59:36","新北市淡水區下圭柔山90-8號","121.431271666667","25.2102866666667","6501000","淡水區"
"251007","577-R6","2018/08/25 18:59:32","新北市淡水區民生路142號","121.464423333333","25.1383966666667","6501000","淡水區"
"251003","766-UM","2018/08/25 18:59:31","新北市淡水區中山北路一段149巷31號","121.443018333333","25.1779666666667","6501000","淡水區"
"207003","550-UM","2018/08/25 18:59:31","新北市萬里區大鵬里頂社1-2號","121.657396666667","25.2097633333333","6502800","萬里區"
"207004","225-TW","2018/08/25 18:59:46","新北市萬里區萬里里獅頭路23號","121.693256666667","25.178265","6502800","萬里區"
"252002","178-VK","2018/08/25 18:59:29","新北市三芝區中正路一段58號","121.503618333333","25.2578916666667","6502100","三芝區"
"252004","249-BX","2018/08/25 18:59:41","新北市三芝區後厝里北勢子22-16號","121.473121666667","25.25335","6502100","三芝區"
"252001","292-VK","2018/08/25 18:59:29","新北市三芝區中興街二段260號","121.501733333333","25.2530866666667","6502100","三芝區"
"237004","KEA-2597","2018/08/25 18:59:36","新北市三峽區有木194-1號","121.447513333333","24.8452416666667","6500900","三峽區"
"237007","153-BY","2018/08/25 18:59:37","新北市三峽區中正路二段275號","121.366028333333","24.9114433333333","6500900","三峽區"
"237013","252-BX","2018/08/25 18:59:37","新北市三峽區光明路69巷25號","121.376676666667","24.929255","6500900","三峽區"
"237012","275-BY","2018/08/25 18:59:46","新北市三峽區三樹路222巷192-3號","121.388483333333","24.9423816666667","6500900","三峽區"
"237008","302-VK","2018/08/25 18:59:41","新北市三峽區中正路一段279號","121.371681666667","24.9258666666667","6500900","三峽區"
"237014","433-BY","2018/08/25 18:59:26","新北市三峽區隆恩街178號","121.361776666667","24.9426066666667","6500900","三峽區"
"237006","5529-G3","2018/08/25 18:59:39","新北市三峽區溪東路233巷4弄13號","121.407026666667","24.9337","6500900","三峽區"
"237011","KEA-2596","2018/08/25 18:59:45","新北市三峽區介壽路三段155號","121.400883333333","24.9432316666667","6500900","三峽區"
"237016","649-BX","2018/08/25 18:59:27","新北市三峽區安坑38號","121.454503333333","24.9319983333333","6500900","三峽區"
"237010","706-TV","2018/08/25 18:59:31","新北市三峽區國光街350巷12號","121.37169","24.940075","6500900","三峽區"
"237005","AKY-6261","2018/08/25 18:59:30","新北市三峽區中山路459巷163-3號","121.348668333333","24.9329416666667","6500900","三峽區"
"236070","105-UM","2018/08/25 18:59:40","新北市土城區裕生路86巷2號","121.447243333333","24.9851883333333","6501300","土城區"
"236042","107-UM","2018/08/25 18:59:41","新北市土城區學府路一段209巷9號","121.452223333333","24.9841933333333","6501300","土城區"
"236079","166-UM","2018/08/25 18:59:33","新北市土城區中央路四段466號","121.409965","24.9506166666667","6501300","土城區"
"236030","253-BX","2018/08/25 18:59:32","新北市土城區興城路75號","121.440113333333","24.9707366666667","6501300","土城區"
"236026","269-VK","2018/08/25 18:59:26","新北市土城區中央路二段252號","121.441888333333","24.9746616666667","6501300","土城區"
"236014","270-VK","2018/08/25 18:59:44","新北市土城區永豐路31巷22號","121.463763333333","24.9881683333333","6501300","土城區"
"236038","271-VK","2018/08/25 18:59:31","新北市土城區青仁路51號","121.46153","24.9794633333333","6501300","土城區"
"236021","401-BY","2018/08/25 18:59:24","新北市土城區延吉街170號","121.468333333333","24.985425","6501300","土城區"
"236059","912-UM","2018/08/25 18:59:25","新北市土城區金城路二段240號","121.4568","24.9829666666667","6501300","土城區"
"236049","913-UM","2018/08/25 18:59:41","新北市土城區明德路一段280號","121.457465","24.9774883333333","6501300","土城區"
"236063","915-UM","2018/08/25 18:59:27","新北市土城區延和路41巷2弄15號","121.466621666667","24.9901783333333","6501300","土城區"
"236055","AAC-216","2018/08/25 18:59:39","新北市土城區學成路147號","121.448795","24.9895383333333","6501300","土城區"
"242002","349-TH","2018/08/25 18:59:23","新北市新莊區環河路636-7號","121.437443333333","25.0117333333333","6500500","新莊區"
"238015","755-BX","2018/08/25 18:59:29","新北市樹林區大安路626號","121.411196666667","24.9826266666667","6500700","樹林區"
"238023","601-UM","2018/08/25 18:59:45","新北市樹林區大慶街57號","121.396003333333","25.0138383333333","6500700","樹林區"
"238019","599-UM","2018/08/25 18:59:30","新北市樹林區鎮前街425巷29號","121.414496666667","24.9821133333333","6500700","樹林區"
"238024","5061-A6","2018/08/25 18:59:03","新北市樹林區中山路三段214號","121.379715","24.9677516666667","6500700","樹林區"
"238022","KEA-2213","2018/08/25 18:59:42","新北市樹林區中山路二段151巷15號","121.40806","24.9776983333333","6500700","樹林區"
"238021","KEA-2539","2018/08/25 18:59:36","新北市樹林區柑園街二段276巷22號","121.372918333333","24.95302","6500700","樹林區"
"238025","303-VK","2018/08/25 18:59:33","新北市樹林區中山路三段38號","121.394856666667","24.9726483333333","6500700","樹林區"
"238017","283-BY","2018/08/25 18:59:32","新北市樹林區光興街50號","121.409823333333","25.002735","6500700","樹林區"
"238014","282-BY","2018/08/25 18:59:35","新北市樹林區千歲街134巷7號","121.42772","24.9986233333333","6500700","樹林區"
"238020","268-VK","2018/08/25 18:59:45","新北市樹林區俊英街83巷2號","121.425788333333","25.0081816666667","6500700","樹林區"
"238026","172-UY","2018/08/25 18:59:32","新北市樹林區信和街136-2號","121.39082","24.97222","6500700","樹林區"
"238016","169-UY","2018/08/25 18:59:33","新北市樹林區復興路335巷16號","121.418605","24.987355","6500700","樹林區"
"239007","AAC-297","2018/08/25 18:59:33","新北市鶯歌區中正一路221號","121.354161666667","24.95721","6500800","鶯歌區"
"239008","527-UM","2018/08/25 18:59:33","新北市鶯歌區國際二路20巷39號","121.337565","24.9757116666667","6500800","鶯歌區"
"239005","526-UM","2018/08/25 18:59:43","新北市鶯歌區大湖路361巷24弄14號","121.329983333333","24.9781233333333","6500800","鶯歌區"
"239001","417-VK","2018/08/25 18:59:30","新北市鶯歌區永明街70號","121.340955","24.9559516666667","6500800","鶯歌區"
"239003","360-BY","2018/08/25 18:59:26","新北市鶯歌區鶯桃路483號","121.331771666667","24.9662483333333","6500800","鶯歌區"
"239004","193-VK","2018/08/25 18:59:36","新北市鶯歌區中正三路316號","121.328215","24.9354416666667","6500800","鶯歌區"
"221008","489-VK","2018/08/25 18:59:43","新北市汐止區康寧街753巷2弄8號","121.639361666667","25.073925","6501100","汐止區"
"221036","130-UY","2018/08/25 18:59:38","新北市汐止區汐萬路一段242號","121.651571666667","25.07307","6501100","汐止區"
"221010","269-BY","2018/08/25 18:59:27","新北市汐止區康寧街901號","121.651455","25.0750033333333","6501100","汐止區"
"221012","278-VK","2018/08/25 18:59:31","新北市汐止區康寧街901號","121.65084","25.0752633333333","6501100","汐止區"
"221023","279-VK","2018/08/25 18:59:28","新北市汐止區康寧街901號","121.651015","25.0752416666667","6501100","汐止區"
"221032","280-BY","2018/08/25 18:59:40","新北市汐止區橫科路367巷26號","121.623333333333","25.0483033333333","6501100","汐止區"
"221027","281-BY","2018/08/25 18:59:35","新北市汐止區康寧街901號","121.651481666667","25.0749733333333","6501100","汐止區"
"221029","298-VK","2018/08/25 18:59:41","新北市汐止區樟樹一路254號","121.642443333333","25.0672516666667","6501100","汐止區"
"221021","299-VK","2018/08/25 18:59:28","新北市汐止區康寧街901號","121.651341666667","25.0750516666667","6501100","汐止區"
"221031","353-TW","2018/08/25 18:59:40","新北市汐止區福德三路133號","121.63324","25.067495","6501100","汐止區"
"221002","129-UY","2018/08/25 18:59:42","新北市汐止區大同路一段4號","121.621111666667","25.055065","6501100","汐止區"
"221035","622-UM","2018/08/25 18:59:33","新北市汐止區康寧街901號","121.651098333333","25.0752433333333","6501100","汐止區"
"221025","623-UM","2018/08/25 18:59:39","新北市汐止區汐萬路一段256巷3號","121.652496666667","25.074555","6501100","汐止區"
"221038","646-BX","2018/08/25 18:59:36","新北市汐止區康寧街901號","121.650715","25.07529","6501100","汐止區"
"221033","647-BX","2018/08/25 18:59:37","新北市汐止區南勢街1巷3號","121.627073333333","25.0377216666667","6501100","汐止區"
"221018","753-BX","2018/08/25 18:59:29","新北市汐止區康寧街901號","121.651386666667","25.0750766666667","6501100","汐止區"
"220079","145-BY","2018/08/25 18:59:31","新北市板橋區民權路202巷14弄1號","121.460663333333","25.0159383333333","6500100","板橋區"
"220080","200-UY","2018/08/25 18:59:32","新北市板橋區大觀路二段46弄11-15號","121.447033333333","24.9969516666667","6500100","板橋區"
"220082","610-BX","2018/08/25 18:59:31","新北市板橋區滿平街81巷120弄22號","121.427816666667","24.9890016666667","6500100","板橋區"
"220056","276-BY","2018/08/25 18:59:28","新北市板橋區信義路148號","121.458916666667","24.9919","6500100","板橋區"
"220072","277-BY","2018/08/25 18:59:41","新北市板橋區金門街369巷29號","121.428993333333","24.984515","6500100","板橋區"
"220063","280-UM","2018/08/25 18:59:30","新北市板橋區中山路二段254號","121.478731666667","25.01833","6500100","板橋區"
"220071","283-VK","2018/08/25 18:59:34","新北市板橋區忠孝路146號","121.463868333333","25.002435","6500100","板橋區"
"220094","285-UM","2018/08/25 18:59:38","新北市板橋區文化路二段76號","121.469436666667","25.0250183333333","6500100","板橋區"
"220053","285-VK","2018/08/25 18:59:33","新北市板橋區中山路二段89巷60號","121.473746666667","25.0173666666667","6500100","板橋區"
"220083","286-VK","2018/08/25 18:59:28","新北市板橋區大觀路一段38巷156弄36-1號","121.442561666667","25.0055766666667","6500100","板橋區"
"220081","287-VK","2018/08/25 18:59:37","新北市板橋區光華街19巷7號","121.453438333333","25.0120083333333","6500100","板橋區"
"220090","288-VK","2018/08/25 18:59:37","新北市板橋區四維路169號","121.464661666667","25.0259916666667","6500100","板橋區"
"220061","295-UM","2018/08/25 18:59:40","新北市板橋區富山街109巷112號","121.474816666667","25.0209616666667","6500100","板橋區"
"220084","296-UM","2018/08/25 18:59:34","新北市板橋區龍興街14號","121.442856666667","24.9998166666667","6500100","板橋區"
"220075","303-R5","2018/08/25 18:59:31","新北市板橋區館前西路157號","121.45607","25.0079883333333","6500100","板橋區"
"220062","305-R5","2018/08/25 18:59:15","新北市板橋區三民路二段正隆巷17號","121.4775","25.0131466666667","6500100","板橋區"
"220098","317-R6","2018/08/25 18:59:32","新北市板橋區民有街17號","121.466183333333","25.0249466666667","6500100","板橋區"
"220064","486-VK","2018/08/25 18:59:32","新北市板橋區縣民大道二段100號","121.466788333333","25.01485","6500100","板橋區"
"220088","491-VK","2018/08/25 18:59:40","新北市板橋區民生路二段216號","121.469293333333","25.02152","6500100","板橋區"
"220035","560-BX","2018/08/25 18:59:27","新北市板橋區中正路341巷35號","121.454248333333","25.01974","6500100","板橋區"
"220103","561-BX","2018/08/25 18:59:38","新北市板橋區介壽街130號","121.470078333333","25.0180966666667","6500100","板橋區"
"220091","637-BX","2018/08/25 18:59:36","新北市板橋區雙十路二段47巷28號","121.475578333333","25.0258833333333","6500100","板橋區"
"220057","686-BX","2018/08/25 18:59:40","新北市板橋區重慶路97號","121.462101666667","25.0055833333333","6500100","板橋區"
"220077","687-BX","2018/08/25 18:59:45","新北市板橋區大觀路二段297號","121.44219","24.9987166666667","6500100","板橋區"
"220093","689-BX","2018/08/25 18:59:35","新北市板橋區民生路三段68-1號","121.466751666667","25.0259166666667","6500100","板橋區"
"220054","741-BX","2018/08/25 18:59:35","新北市板橋區重慶路139巷12號","121.462928333333","25.004545","6500100","板橋區"
"220102","KEA-2699","2018/08/25 18:59:46","新北市板橋區萬板路706號","121.481561666667","25.0274933333333","6500100","板橋區"
"220055","827-TW","2018/08/25 18:59:44","新北市板橋區中山路一段158巷27-4號","121.466538333333","25.0111233333333","6500100","板橋區"
"220067","829-TW","2018/08/25 18:59:44","新北市板橋區民享街116巷4號","121.478038333333","25.01561","6500100","板橋區"
"220068","830-TW","2018/08/25 18:59:39","新北市板橋區中山路二段465巷92-1號","121.481118333333","25.02257","6500100","板橋區"
"220096","831-TW","2018/08/25 18:59:37","新北市板橋區莒光路135號","121.473183333333","25.024035","6500100","板橋區"
"220089","833-TW","2018/08/25 18:59:36","新北市板橋區仁化街45號","121.474986666667","25.0316633333333","6500100","板橋區"
"220074","895-R6","2018/08/25 18:59:28","新北市板橋區後菜園街45號","121.456158333333","25.0098366666667","6500100","板橋區"
"220073","985-R7","2018/08/25 18:59:39","新北市板橋區民權路200號","121.459088333333","25.0137916666667","6500100","板橋區"
"220097","AAC-210","2018/08/25 18:59:25","新北市板橋區文化路一段90號","121.464341666667","25.0174883333333","6500100","板橋區"
"220070","AAC-253","2018/08/25 18:59:45","新北市板橋區四川路一段287號","121.458965","25.0009283333333","6500100","板橋區"
"235068","KEA-2873","2018/08/25 18:59:16","新北市中和區圓通路202號","121.496185","24.9941583333333","6500300","中和區"
"235061","KEA-2875","2018/08/25 18:59:38","新北市中和區民享街89巷9弄3號","121.47485","25.001975","6500300","中和區"
