"lineid","car","time","location","longitude","latitude","cityid","cityname"
"234046","148-BY","2018/08/25 19:29:42","新北市永和區秀朗路二段251號","121.526288333333","24.999445","6500400","永和區"
"234007","207-UY","2018/08/25 19:29:32","新北市永和區永和路一段147-1號","121.514183333333","25.009145","6500400","永和區"
"234081","298-R6","2018/08/25 19:29:37","新北市永和區環河東路三段52巷2弄2號","121.52642","25.0061466666667","6500400","永和區"
"234038","336-UY","2018/08/25 19:29:34","新北市永和區民樂街37巷1號","121.527581666667","25.000815","6500400","永和區"
"234064","337-UY","2018/08/25 19:29:42","新北市永和區得和路243巷26號","121.52084","25.001185","6500400","永和區"
"234086","338-UY","2018/08/25 19:29:26","新北市永和區成功路一段18巷20號","121.526155","25.0051633333333","6500400","永和區"
"234070","552-UM","2018/08/25 19:29:28","新北市永和區警光街12號","121.519768333333","25.009555","6500400","永和區"
"234017","745-BX","2018/08/25 19:29:36","新北市永和區環河西路一段73號","121.51328","25.01812","6500400","永和區"
"234030","746-BX","2018/08/25 19:29:28","新北市永和區民生路63號","121.522641666667","24.9973966666667","6500400","永和區"
"234054","KEA-2590","2018/08/25 19:29:37","新北市永和區復興街19巷2號","121.516143333333","25.0131466666667","6500400","永和區"
"234013","KEA-2591","2018/08/25 19:29:40","新北市永和區中山路一段95號","121.511371666667","25.0106383333333","6500400","永和區"
"234061","AAD-866","2018/08/25 19:29:40","新北市永和區中正路570號","121.517136666667","25.0063016666667","6500400","永和區"
"234042","862-TW","2018/08/25 19:29:45","新北市永和區永貞路300號","121.512138333333","25.0046416666667","6500400","永和區"
"234050","863-TW","2018/08/25 19:29:42","新北市永和區保福路二段127號","121.509878333333","25.0137883333333","6500400","永和區"
"234026","9371-KE","2018/08/25 19:29:37","新北市中和區安平路222號","121.514021666667","25.00002","6500400","永和區"
"234011","9373-KE","2018/08/25 19:29:40","新北市永和區保福路二段163巷12號","121.5089","25.01477","6500400","永和區"
"249005","172-UM","2018/08/25 19:29:34","新北市八里區中華路三段170-1號","121.392211666667","25.1303566666667","6502300","八里區"
"249003","593-UM","2018/08/25 19:29:47","新北市八里區商港六路19號","121.396683333333","25.1485033333333","6502300","八里區"
"248014","025-BX","2018/08/25 19:29:38","新北市五股區民義路一段157-22號","121.43151","25.0868033333333","6501500","五股區"
"248008","095-VK","2018/08/25 19:29:32","新北市五股區中興路一段84號","121.466745","25.07328","6501500","五股區"
"248020","225-UY","2018/08/25 19:29:35","新北市五股區凌雲路三段69-3號","121.424345","25.12426","6501500","五股區"
"248012","247-BX","2018/08/25 19:29:38","新北市五股區成泰路二段97號","121.437948333333","25.08433","6501500","五股區"
"248010","272-BY","2018/08/25 19:29:35","新北市五股區水碓二路1號","121.430546666667","25.0711583333333","6501500","五股區"
"248004","677-BX","2018/08/25 19:29:45","新北市五股區工商路148-1號","121.433891666667","25.0872866666667","6501500","五股區"
"234023","9380-KE","2018/08/25 19:29:46","新北市永和區竹林路91巷43弄2號","121.521316666667","25.0128683333333","6500400","永和區"
"234077","969-R7","2018/08/25 19:29:45","新北市永和區民族街43巷10號","121.519098333333","24.9982916666667","6500400","永和區"
"234074","AAC-211","2018/08/25 19:29:35","新北市永和區永和路二段278號","121.516021666667","25.0152166666667","6500400","永和區"
"234067","AAC-212","2018/08/25 19:29:34","新北市永和區保平路174巷7號","121.510275","25.0073183333333","6500400","永和區"
"234003","AAC-295","2018/08/25 19:29:25","新北市永和區福和路379號","121.514403333333","25.0075933333333","6500400","永和區"
"244023","483-VK","2018/08/25 19:29:33","新北市林口區民富街93號","121.370135","25.0748916666667","6501700","林口區"
"243013","AAD-798","2018/08/25 19:29:40","新北市泰山區貴子路36巷16號","121.425901666667","25.0410783333333","6501600","泰山區"
"243009","297-R6","2018/08/25 19:29:34","新北市泰山區半山雅2號","121.431883333333","25.067415","6501600","泰山區"
"243016","KEA-2801","2018/08/25 19:29:40","新北市泰山區工專路22號","121.423668333333","25.0398233333333","6501600","泰山區"
"243015","421-VK","2018/08/25 19:29:33","新北市泰山區民族街1號","121.428888333333","25.0521066666667","6501600","泰山區"
"243011","KEA-2215","2018/08/25 19:29:29","新北市泰山區貴子路72號","121.426878333333","25.0411466666667","6501600","泰山區"
"243010","KEA-2216","2018/08/25 19:29:37","新北市泰山區民族街10巷1號","121.429245","25.0517233333333","6501600","泰山區"
"243012","646-TV","2018/08/25 19:29:45","新北市泰山區仁義路220巷2號","121.432978333333","25.0538133333333","6501600","泰山區"
"243014","680-BX","2018/08/25 19:29:42","新北市泰山區中港西路420號","121.43383","25.0540483333333","6501600","泰山區"
"222003","436-BY","2018/08/25 19:29:44","新北市深坑區深南路51-1號","121.62126","25.009815","6501800","深坑區"
"222002","659-BX","2018/08/25 19:29:44","新北市深坑區北深路一段177號","121.632481666667","25.0109366666667","6501800","深坑區"
"231044","001-UM","2018/08/25 19:29:24","新北市新店區中興路三段197號","121.543936666667","24.9814666666667","6500600","新店區"
"231041","002-UM","2018/08/25 19:29:41","新北市新店區中正路602號","121.533956666667","24.9881733333333","6500600","新店區"
"231059","046-UY","2018/08/25 19:29:37","新北市新店區安和路三段7號","121.518095","24.9806333333333","6500600","新店區"
"231046","107-UY","2018/08/25 19:29:33","新北市新店區北新路一段303號","121.541383333333","24.9673916666667","6500600","新店區"
"231052","108-UY","2018/08/25 19:29:36","新北市新店區新烏路二段300號","121.548198333333","24.9140866666667","6500600","新店區"
"231048","187-VK","2018/08/25 19:29:34","新北市新店區五峰路119號","121.545003333333","24.9665366666667","6500600","新店區"
"231054","KEA-2219","2018/08/25 19:29:36","新北市新店區文中路51-5號","121.540336666667","24.95675","6500600","新店區"
"231057","256-BX","2018/08/25 19:29:38","新北市新店區花園一路二段27號","121.55135","24.9325233333333","6500600","新店區"
"231042","268-BY","2018/08/25 19:29:44","新北市新店區光明街96巷3號","121.5394","24.9600783333333","6500600","新店區"
"231051","278-BY","2018/08/25 19:29:42","新北市新店區中央五街72-1號","121.526826666667","24.97594","6500600","新店區"
"231050","AAD-862","2018/08/25 19:29:28","新北市新店區竹林路71-7號","121.553628333333","24.9512583333333","6500600","新店區"
"231040","355-BY","2018/08/25 19:29:26","新北市新店區中華路52號","121.539553333333","24.9685683333333","6500600","新店區"
"231058","3713-VJ","2018/08/25 19:29:28","新北市新店區寶橋路85巷19號","121.5456","24.9760416666667","6500600","新店區"
"231066","4716-K9","2018/08/25 19:29:42","新北市新店區安康路三段355巷45號","121.485043333333","24.9493916666667","6500600","新店區"
"231067","4772-VM","2018/08/25 19:29:31","新北市新店區安光路1號","121.514066666667","24.963615","6500600","新店區"
"231065","512-UM","2018/08/25 19:29:29","新北市新店區安祥路109巷3弄34號","121.476376666667","24.96038","6500600","新店區"
"231049","513-UM","2018/08/25 19:29:43","新北市新店區北新路三段95巷12號","121.540833333333","24.9817616666667","6500600","新店區"
"231045","617-UM","2018/08/25 19:29:43","新北市新店區北宜路二段215號","121.553296666667","24.9533566666667","6500600","新店區"
"231061","619-UM","2018/08/25 19:29:39","新北市新店區安康路一段238號","121.522071666667","24.9637583333333","6500600","新店區"
"231063","641-BX","2018/08/25 19:29:27","新北市新店區達觀路16號","121.503111666667","24.940655","6500600","新店區"
"231064","719-UM","2018/08/25 19:29:46","新北市新店區安康路二段85巷44號","121.514398333333","24.96137","6500600","新店區"
"231062","720-UM","2018/08/25 19:29:32","新北市新店區莒光路28號","121.523623333333","24.9592866666667","6500600","新店區"
"231060","897-TW","2018/08/25 19:29:44","新北市新店區安康路二段51號","121.514385","24.9634783333333","6500600","新店區"
"231043","899-TW","2018/08/25 19:29:44","新北市新店區北新路二段172號","121.543","24.975865","6500600","新店區"
"231055","AKT-0513","2018/08/25 19:29:37","新北市新店區力行路96號","121.538063333333","24.9669666666667","6500600","新店區"
"241028","022-UY","2018/08/25 19:29:44","新北市三重區中寮街100號","121.493475","25.0579216666667","6500200","三重區"
"241008","059-VK","2018/08/25 19:29:31","新北市三重區永福街135巷32弄7號","121.476991666667","25.0771533333333","6500200","三重區"
"241022","060-VK","2018/08/25 19:29:27","新北市三重區三民街141-1號","121.484656666667","25.0640216666667","6500200","三重區"
"241031","061-VK","2018/08/25 19:29:34","新北市三重區重新路四段184巷40號","121.48824","25.0550966666667","6500200","三重區"
"241017","063-VK","2018/08/25 19:29:31","新北市三重區長壽西街168號","121.493186666667","25.0664416666667","6500200","三重區"
"241026","066-VK","2018/08/25 19:29:45","新北市三重區文化南路47巷53號","121.498878333333","25.06108","6500200","三重區"
"241023","265-UM","2018/08/25 19:29:29","新北市三重區頂崁街183號","121.478071666667","25.0638633333333","6500200","三重區"
"241009","267-UM","2018/08/25 19:29:47","新北市三重區溪尾街242巷27號","121.486938333333","25.081745","6500200","三重區"
"241032","269-UM","2018/08/25 19:29:37","新北市三重區三陽路64號","121.483841666667","25.0587283333333","6500200","三重區"
"241013","270-UM","2018/08/25 19:29:44","新北市三重區仁賢街16-1號","121.495836666667","25.07497","6500200","三重區"
"241025","271-UM","2018/08/25 19:29:29","新北市三重區頂崁街210巷12弄10號","121.475791666667","25.0672416666667","6500200","三重區"
"241007","398-BY","2018/08/25 19:29:30","新北市三重區溪尾街130號","121.489306666667","25.0795316666667","6500200","三重區"
"241035","KEA-2210","2018/08/25 19:29:29","新北市三重區信義西街1號","121.49815","25.064845","6500200","三重區"
"241020","413-TH","2018/08/25 19:29:36","新北市三重區三和路四段22號","121.490755","25.0739683333333","6500200","三重區"
"241030","480-VK","2018/08/25 19:29:32","新北市三重區成功路41巷13號","121.490368333333","25.051595","6500200","三重區"
"241006","AAD-863","2018/08/25 19:29:25","新北市三重區車路頭街77號","121.48441","25.073905","6500200","三重區"
"241029","942-UM","2018/08/25 19:29:36","新北市三重區大同南路161巷68號","121.495243333333","25.0550666666667","6500200","三重區"
"235066","003-UY","2018/08/25 19:29:39","新北市中和區景新街43號","121.504028333333","24.9992316666667","6500300","中和區"
"235064","005-UY","2018/08/25 19:29:44","新北市中和區圓通路2號","121.501985","24.9980366666667","6500300","中和區"
"235063","006-UY","2018/08/25 19:29:30","新北市中和區連城路219巷15號","121.494856666667","24.9962633333333","6500300","中和區"
"235056","096-UM","2018/08/25 19:29:39","新北市中和區民富街21號","121.47647","25.007575","6500300","中和區"
"235039","097-UM","2018/08/25 19:29:45","新北市中和區秀峰街119巷8弄7號","121.519116666667","24.9898916666667","6500300","中和區"
"235065","098-UM","2018/08/25 19:29:43","新北市中和區中山路二段2巷5弄1號","121.504603333333","25.0064016666667","6500300","中和區"
"235040","150-BY","2018/08/25 19:29:38","新北市中和區保健路46巷35號","121.508775","24.9956366666667","6500300","中和區"
"235058","151-BY","2018/08/25 19:29:44","新北市中和區中正路637巷52弄7號","121.4851","24.993775","6500300","中和區"
"235055","183-VK","2018/08/25 19:29:26","新北市中和區莒光路120巷58號","121.471671666667","25.0007916666667","6500300","中和區"
"235038","185-VK","2018/08/25 19:29:31","新北市中和區自立路115號","121.52205","24.994435","6500300","中和區"
"235049","186-VK","2018/08/25 19:29:41","新北市中和區景新街285巷2號","121.509936666667","24.9934766666667","6500300","中和區"
"235067","255-BX","2018/08/25 19:29:38","新北市中和區中正路683號","121.485065","24.997815","6500300","中和區"
"235044","293-VK","2018/08/25 19:29:30","新北市中和區景安路209號","121.504535","24.9918916666667","6500300","中和區"
"235072","301-VK","2018/08/25 19:29:43","新北市中和區連城路263巷8弄7號","121.491746666667","24.99521","6500300","中和區"
"235043","352-BY","2018/08/25 19:29:44","新北市中和區南山路76號","121.502648333333","24.9953116666667","6500300","中和區"
"235042","KEA-2878","2018/08/25 19:29:37","新北市中和區中和路262巷49號","121.510173333333","24.99993","6500300","中和區"
"235069","4980-A6","2018/08/25 19:29:32","新北市中和區景平路736巷3弄3號","121.497253333333","25.00369","6500300","中和區"
"235070","558-UM","2018/08/25 19:29:38","新北市中和區景平路638號","121.497971666667","25.0002166666667","6500300","中和區"
"235045","565-BX","2018/08/25 19:29:34","新北市中和區景新街399巷5號","121.51285","24.98985","6500300","中和區"
"235054","640-BX","2018/08/25 19:29:37","新北市中和區國光街112巷22弄20號","121.470621666667","25.00224","6500300","中和區"
"235060","647-TV","2018/08/25 19:29:43","新北市中和區員山路266巷7號","121.481716666667","25.0018566666667","6500300","中和區"
"235047","732-UM","2018/08/25 19:29:43","新北市中和區景平路259巷38號","121.506765","24.9927666666667","6500300","中和區"
"235046","733-UM","2018/08/25 19:29:41","新北市中和區興南路一段105巷20弄35號","121.51054","24.9848233333333","6500300","中和區"
"235071","783-BX","2018/08/25 19:29:36","新北市中和區連城路469巷21弄12號","121.48395","24.994995","6500300","中和區"
"235057","801-TS","2018/08/25 19:29:35","新北市中和區員山路338號","121.481103333333","25.0033683333333","6500300","中和區"
"235041","802-TS","2018/08/25 19:29:41","新北市中和區中和路400巷21號","121.511648333333","25.00227","6500300","中和區"
"235052","805-TS","2018/08/25 19:29:44","新北市中和區華新街143巷69弄20號","121.507715","24.9789416666667","6500300","中和區"
"235048","896-TW","2018/08/25 19:29:38","新北市中和區忠孝街154號","121.512648333333","24.9876033333333","6500300","中和區"
"235053","900-TW","2018/08/25 19:29:37","新北市中和區華順街25號","121.467243333333","24.9985983333333","6500300","中和區"
"235051","157-BY","2018/08/25 19:29:39","新北市中和區景新街228號","121.508066666667","24.9944566666667","6500300","中和區"
"235037","AAC-213","2018/08/25 19:29:29","新北市中和區秀朗路三段10巷14弄2號","121.525285","24.996565","6500300","中和區"
"235059","AAC-215","2018/08/25 19:29:07","新北市中和區圓通路252巷36弄1號","121.492398333333","24.9931183333333","6500300","中和區"
"220065","072-UY","2018/08/25 19:29:40","新北市板橋區國泰街111巷3號","121.465748333333","25.0062033333333","6500100","板橋區"
"220086","073-UY","2018/08/25 19:29:47","新北市板橋區中正路236巷82號","121.458273333333","25.0193583333333","6500100","板橋區"
"220106","075-UY","2018/08/25 19:29:45","新北市板橋區江寧路三段101號","121.472765","25.03266","6500100","板橋區"
"220069","AAD-861","2018/08/25 19:29:27","新北市板橋區稚暉街35號","121.457131666667","25.0040983333333","6500100","板橋區"
"226004","312-R5","2018/08/25 19:29:41","新北市平溪區十分里十分街66巷2號","121.775636666667","25.0420666666667","6502400","平溪區"
"228003","097-TW","2018/08/25 19:29:46","新北市貢寮區和美里和美街22-1號","121.912836666667","25.0826416666667","6502600","貢寮區"
"228001","212-TW","2018/08/25 19:29:26","新北市貢寮區真理里延平街68號","121.925401666667","25.0574283333333","6502600","貢寮區"
"228002","663-BX","2018/08/25 19:29:37","新北市貢寮區龍門里龍門街78號","121.931013333333","25.0266","6502600","貢寮區"
"224010","AGQ-8101","2018/08/25 19:29:22","新北市瑞芳區佛堂巷55號","121.841991666667","25.1049166666667","6501200","瑞芳區"
"224002","639-TC","2018/08/25 19:29:34","新北市瑞芳區三爪子坑路89-17號","121.812238333333","25.1073433333333","6501200","瑞芳區"
"227002","642-TC","2018/08/25 19:29:35","新北市雙溪區雙溪里光復街14號","121.865035","25.035325","6502500","雙溪區"
"227010","400-TW","2018/08/25 19:29:38","新北市雙溪區新基里新基北街43號","121.868191666667","25.0397","6502500","雙溪區"
"253005","032-BX","2018/08/25 19:29:27","新北市石門區小坑9號","121.594275","25.2886033333333","6502200","石門區"
"253006","295-VK","2018/08/25 19:29:33","新北市石門區海園路37號","121.558513333333","25.291115","6502200","石門區"
"222001","KEA-2212","2018/08/25 19:29:38","新北市深坑區北深路二段126號","121.61621","25.0030816666667","6501800","深坑區"
"208002","KEA-2872","2018/08/25 19:29:43","新北市金山區仁愛路57號","121.635291666667","25.2206766666667","6502700","金山區"
"208003","665-BX","2018/08/25 19:29:38","新北市金山區中山路263巷14號","121.636376666667","25.221635","6502700","金山區"
"208001","761-BX","2018/08/25 19:29:43","新北市金山區金包里街71號","121.638376666667","25.2217683333333","6502700","金山區"
"251009","008-UM","2018/08/25 19:29:41","新北市淡水區大忠街5巷8號","121.443335","25.1765233333333","6501000","淡水區"
"251005","010-UM","2018/08/25 19:29:42","新北市淡水區水源街一段47巷20號","121.443946666667","25.1729533333333","6501000","淡水區"
"251013","KEA-2871","2018/08/25 19:29:48","新北市淡水區安子內20號","121.474975","25.2185866666667","6501000","淡水區"
"251016","179-VK","2018/08/25 19:29:41","新北市淡水區下圭柔山119-51號","121.450716666667","25.2085133333333","6501000","淡水區"
"251014","180-VK","2018/08/25 19:29:19","新北市淡水區小中寮19-7號","121.484745","25.229605","6501000","淡水區"
"251015","181-VK","2018/08/25 19:29:25","新北市淡水區北新路三段38巷7號","121.48454","25.1870083333333","6501000","淡水區"
"251010","413-VK","2018/08/25 19:29:44","新北市淡水區中正路二段138-6號","121.421845","25.1874533333333","6501000","淡水區"
"251012","441-VK","2018/08/25 19:29:28","新北市淡水區崁頂101號","121.434188333333","25.2037533333333","6501000","淡水區"
"251008","442-VK","2018/08/25 19:29:31","新北市淡水區中正路一段49號","121.424381666667","25.17754","6501000","淡水區"
"251001","559-UM","2018/08/25 19:29:43","新北市淡水區民權路177號","121.45981","25.1354266666667","6501000","淡水區"
"251006","561-UM","2018/08/25 19:29:36","新北市淡水區大義街32號","121.442305","25.178365","6501000","淡水區"
"251007","577-R6","2018/08/25 19:29:32","新北市淡水區坪頂路52巷2號","121.458188333333","25.162445","6501000","淡水區"
"207003","550-UM","2018/08/25 19:29:31","新北市萬里區大鵬里萬里加投199號","121.643996666667","25.2151233333333","6502800","萬里區"
"207004","225-TW","2018/08/25 19:29:46","新北市萬里區萬里里瑪鋉路121號","121.689011666667","25.1779383333333","6502800","萬里區"
"252002","178-VK","2018/08/25 19:29:29","新北市三芝區淡金路二段25號","121.502818333333","25.2596633333333","6502100","三芝區"
"252001","292-VK","2018/08/25 19:29:29","新北市三芝區長勤街62-1號","121.500198333333","25.2561433333333","6502100","三芝區"
"237004","KEA-2597","2018/08/25 19:29:36","新北市三峽區有木206號","121.439168333333","24.8516183333333","6500900","三峽區"
"237007","153-BY","2018/08/25 19:29:37","新北市三峽區中正路二段584巷4弄3號","121.359001666667","24.90674","6500900","三峽區"
"237009","210-TH","2018/08/25 19:29:42","新北市三峽區民權街115號","121.369083333333","24.9323816666667","6500900","三峽區"
"237013","252-BX","2018/08/25 19:29:37","新北市三峽區介壽路一段276巷102弄18號","121.379125","24.928295","6500900","三峽區"
"237012","275-BY","2018/08/25 19:29:26","新北市三峽區三樹路60號","121.377776666667","24.9382366666667","6500900","三峽區"
"237008","302-VK","2018/08/25 19:29:41","新北市三峽區中正路一段230號","121.372128333333","24.9274533333333","6500900","三峽區"
"237014","433-BY","2018/08/25 19:29:46","新北市三峽區中山路63巷8號","121.366943333333","24.934335","6500900","三峽區"
"237006","5529-G3","2018/08/25 19:29:39","新北市三峽區介壽路一段337號","121.381811666667","24.9304433333333","6500900","三峽區"
"237011","KEA-2596","2018/08/25 19:29:25","新北市三峽區中正路一段375號","121.370743333333","24.9225","6500900","三峽區"
"237016","649-BX","2018/08/25 19:29:27","新北市三峽區成福路185號","121.421501666667","24.9300766666667","6500900","三峽區"
"237010","706-TV","2018/08/25 19:29:30","新北市三峽區復興路77號","121.37264","24.9374866666667","6500900","三峽區"
"237005","AKY-6261","2018/08/25 19:29:30","新北市三峽區中山路184巷11號","121.364246666667","24.9370683333333","6500900","三峽區"
"236070","105-UM","2018/08/25 19:29:34","新北市土城區裕民路185巷36弄2號","121.454641666667","24.98471","6501300","土城區"
"236042","107-UM","2018/08/25 19:29:41","新北市土城區學府路一段239號","121.450373333333","24.983385","6501300","土城區"
"236079","166-UM","2018/08/25 19:29:33","新北市土城區中州路12巷23號","121.415305","24.9576916666667","6501300","土城區"
"236026","269-VK","2018/08/25 19:29:26","新北市土城區中央路二段61巷26號","121.443281666667","24.9786833333333","6501300","土城區"
"236021","401-BY","2018/08/25 19:29:43","新北市土城區金城路三段200-5號","121.468755","24.98782","6501300","土城區"
"236049","913-UM","2018/08/25 19:29:42","新北市土城區清水路211號","121.460543333333","24.9820216666667","6501300","土城區"
"236063","915-UM","2018/08/25 19:29:47","新北市土城區延和路170號","121.468563333333","24.9903483333333","6501300","土城區"
"236055","AAC-216","2018/08/25 19:29:39","新北市土城區學府路一段276號","121.450188333333","24.9832883333333","6501300","土城區"
"242027","615-BX","2018/08/25 19:29:26","新北市新莊區新泰路255巷83號","121.4422","25.0388533333333","6500500","新莊區"
"242023","362-BY","2018/08/25 19:29:44","新北市新莊區新泰路357巷3弄53號","121.44243","25.0399183333333","6500500","新莊區"
"242031","135-UY","2018/08/25 19:29:45","新北市新莊區新泰路225巷22弄2號","121.445258333333","25.0393666666667","6500500","新莊區"
"242048","172-VK","2018/08/25 19:29:35","新北市新莊區後港一路3號","121.42414","25.0262866666667","6500500","新莊區"
"242004","176-VK","2018/08/25 19:29:31","新北市新莊區化成路11巷68號","121.462216666667","25.0435433333333","6500500","新莊區"
"238015","755-BX","2018/08/25 19:29:29","新北市樹林區中興街26號","121.421011666667","24.9906516666667","6500700","樹林區"
"238023","601-UM","2018/08/25 19:29:43","新北市樹林區福興街25號","121.404438333333","25.01613","6500700","樹林區"
"238019","599-UM","2018/08/25 19:29:43","新北市樹林區鎮前街347巷1弄36號","121.417845","24.98426","6500700","樹林區"
"238018","571-TV","2018/08/25 19:29:41","新北市樹林區中華路21號","121.424145","24.98385","6500700","樹林區"
"238024","5061-A6","2018/08/25 19:29:43","新北市樹林區山佳街17號","121.393998333333","24.9728066666667","6500700","樹林區"
"238022","KEA-2213","2018/08/25 19:29:33","新北市樹林區太平路96號","121.418681666667","24.9793616666667","6500700","樹林區"
"238021","KEA-2539","2018/08/25 19:29:36","新北市樹林區學成路532號","121.380373333333","24.9453283333333","6500700","樹林區"
"238025","303-VK","2018/08/25 19:29:37","新北市樹林區中山路一段376-3號","121.418843333333","24.9855383333333","6500700","樹林區"
"238017","283-BY","2018/08/25 19:29:32","新北市樹林區保安街二段167巷26號","121.41417","25.00279","6500700","樹林區"
"238014","282-BY","2018/08/25 19:29:35","新北市樹林區千歲街31巷12號","121.424703333333","24.9962616666667","6500700","樹林區"
"238020","268-VK","2018/08/25 19:29:45","新北市樹林區俊英街111巷8-1號","121.424138333333","25.0095783333333","6500700","樹林區"
"238026","172-UY","2018/08/25 19:29:32","新北市樹林區佳園路三段73號","121.387695","24.95274","6500700","樹林區"
"238016","169-UY","2018/08/25 19:29:28","新北市樹林區大安路614號","121.411173333333","24.9831916666667","6500700","樹林區"
"239007","AAC-297","2018/08/25 19:29:31","新北市鶯歌區大湖路326巷7號","121.345723333333","24.9702966666667","6500800","鶯歌區"
"239006","891-R6","2018/08/25 19:29:48","新北市鶯歌區永智街132號","121.337181666667","24.95213","6500800","鶯歌區"
"239001","417-VK","2018/08/25 19:29:30","新北市鶯歌區鶯桃路36號","121.341683333333","24.9526683333333","6500800","鶯歌區"
"239003","360-BY","2018/08/25 19:29:26","新北市鶯歌區中正一路阿南巷501號","121.38083","24.9648783333333","6500800","鶯歌區"
"239004","193-VK","2018/08/25 19:29:36","新北市鶯歌區二甲路41-1號","121.337805","24.9347883333333","6500800","鶯歌區"
"221008","489-VK","2018/08/25 19:29:43","新北市汐止區康寧街227號","121.623276666667","25.066745","6501100","汐止區"
"221036","130-UY","2018/08/25 19:29:38","新北市汐止區康寧街901號","121.651718333333","25.0750183333333","6501100","汐止區"
"221010","269-BY","2018/08/25 19:29:27","新北市汐止區連峰街7號","121.646383333333","25.0773466666667","6501100","汐止區"
"221012","278-VK","2018/08/25 19:29:31","新北市汐止區大同路三段186號","121.674375","25.0745666666667","6501100","汐止區"
"221023","279-VK","2018/08/25 19:29:28","新北市汐止區康寧街473號","121.63197","25.0684066666667","6501100","汐止區"
"221032","280-BY","2018/08/25 19:29:40","新北市汐止區新台五路一段129號","121.652275","25.0617783333333","6501100","汐止區"
"221027","281-BY","2018/08/25 19:29:35","新北市汐止區忠孝東路9號","121.658326666667","25.065995","6501100","汐止區"
"221029","298-VK","2018/08/25 19:29:41","新北市汐止區康寧街901號","121.651613333333","25.074885","6501100","汐止區"
"221021","299-VK","2018/08/25 19:29:28","新北市汐止區康寧街901號","121.651433333333","25.075095","6501100","汐止區"
"221031","353-TW","2018/08/25 19:29:40","新北市汐止區汐萬路一段256巷1號","121.651746666667","25.0748683333333","6501100","汐止區"
"221002","129-UY","2018/08/25 19:29:42","新北市汐止區大同路一段337巷15弄1號","121.637701666667","25.0599433333333","6501100","汐止區"
"221025","623-UM","2018/08/25 19:29:39","新北市汐止區新台五路二段28號","121.660708333333","25.0653016666667","6501100","汐止區"
"221038","646-BX","2018/08/25 19:29:36","新北市汐止區汐萬路一段2號","121.656315","25.0670616666667","6501100","汐止區"
"221033","647-BX","2018/08/25 19:29:37","新北市汐止區南勢街3號","121.627036666667","25.03728","6501100","汐止區"
"221018","753-BX","2018/08/25 19:29:29","新北市汐止區康寧街901號","121.650818333333","25.0751866666667","6501100","汐止區"
"220079","145-BY","2018/08/25 19:29:30","新北市板橋區建國街1巷2號","121.457325","25.016985","6500100","板橋區"
"220080","200-UY","2018/08/25 19:29:32","新北市板橋區大觀路二段37巷180號","121.44958","25.002185","6500100","板橋區"
"220082","610-BX","2018/08/25 19:29:31","新北市板橋區金門街95號","121.433206666667","24.9924383333333","6500100","板橋區"
"220101","245-BX","2018/08/25 19:29:41","新北市板橋區縣民大道三段33巷6弄5號","121.474113333333","25.0213116666667","6500100","板橋區"
"220056","276-BY","2018/08/25 19:29:28","新北市板橋區信義路1巷26弄35號","121.458835","24.99667","6500100","板橋區"
"220072","277-BY","2018/08/25 19:29:41","新北市板橋區金門街253巷2弄28號","121.431593333333","24.9878216666667","6500100","板橋區"
"220063","280-UM","2018/08/25 19:29:30","新北市板橋區三民路一段31巷89弄7-2號","121.482028333333","25.0234783333333","6500100","板橋區"
"220071","283-VK","2018/08/25 19:29:44","新北市板橋區忠孝路6號","121.459598333333","25.0014483333333","6500100","板橋區"
"220094","285-UM","2018/08/25 19:29:45","新北市板橋區松江街124巷7號","121.46953","25.0302866666667","6500100","板橋區"
"220053","285-VK","2018/08/25 19:29:33","新北市板橋區永豐街205號","121.47651","25.0209733333333","6500100","板橋區"
"220083","286-VK","2018/08/25 19:29:28","新北市板橋區龍興街73巷23號","121.442876666667","25.0024416666667","6500100","板橋區"
"220081","287-VK","2018/08/25 19:29:31","新北市板橋區大觀路一段28巷1弄102號","121.451856666667","25.00637","6500100","板橋區"
"220090","288-VK","2018/08/25 19:29:37","新北市板橋區裕民街91號","121.460368333333","25.0280133333333","6500100","板橋區"
"220061","295-UM","2018/08/25 19:29:40","新北市板橋區中山路二段255巷6號","121.477118333333","25.0179283333333","6500100","板橋區"
"220084","296-UM","2018/08/25 19:29:34","新北市板橋區滿平街84巷120弄23號","121.4264","24.9855966666667","6500100","板橋區"
"220075","303-R5","2018/08/25 19:29:35","新北市板橋區中正路253巷76號","121.452525","25.0172483333333","6500100","板橋區"
"220062","305-R5","2018/08/25 19:29:35","新北市板橋區三民路二段123巷20號","121.480166666667","25.0155666666667","6500100","板橋區"
"220092","307-R5","2018/08/25 19:29:26","新北市板橋區光武街6號","121.467968333333","25.024985","6500100","板橋區"
"220098","317-R6","2018/08/25 19:29:32","新北市板橋區民生路三段281巷2弄3號","121.463566666667","25.0300083333333","6500100","板橋區"
"220064","486-VK","2018/08/25 19:29:32","新北市板橋區中山路一段22號","121.460361666667","25.0080633333333","6500100","板橋區"
"220088","491-VK","2018/08/25 19:29:41","新北市板橋區文化路二段444號","121.474425","25.0321283333333","6500100","板橋區"
"220035","560-BX","2018/08/25 19:29:47","新北市板橋區中正路399巷15號","121.453078333333","25.02263","6500100","板橋區"
"220103","561-BX","2018/08/25 19:29:38","新北市板橋區文化路一段339號","121.466631666667","25.020665","6500100","板橋區"
"220091","637-BX","2018/08/25 19:29:37","新北市板橋區文聖街149巷23弄16號","121.479276666667","25.0289183333333","6500100","板橋區"
"220057","686-BX","2018/08/25 19:29:40","新北市板橋區國慶路182巷32-1號","121.462863333333","24.995145","6500100","板橋區"
"220077","687-BX","2018/08/25 19:29:25","新北市板橋區僑中二街114巷1號","121.445771666667","25.0066316666667","6500100","板橋區"
"220093","689-BX","2018/08/25 19:29:35","新北市板橋區英士路60號","121.460951666667","25.0246833333333","6500100","板橋區"
"220054","741-BX","2018/08/25 19:29:35","新北市板橋區四川路一段200號","121.459656666667","25.00244","6500100","板橋區"
"220102","KEA-2699","2018/08/25 19:29:26","新北市板橋區松柏街3號","121.473766666667","25.02951","6500100","板橋區"
"220055","827-TW","2018/08/25 19:29:44","新北市板橋區重慶路290巷22弄16號","121.462265","24.9994916666667","6500100","板橋區"
"220067","829-TW","2018/08/25 19:29:44","新北市板橋區長安街138巷25號","121.473141666667","25.0089316666667","6500100","板橋區"
"220068","830-TW","2018/08/25 19:29:38","新北市板橋區翠華街8巷12號","121.481861666667","25.0250033333333","6500100","板橋區"
"220096","831-TW","2018/08/25 19:29:31","新北市板橋區大同街23號","121.477388333333","25.0270783333333","6500100","板橋區"
"220089","833-TW","2018/08/25 19:29:36","新北市板橋區文化路一段31號","121.460261666667","25.0128983333333","6500100","板橋區"
"220074","895-R6","2018/08/25 19:29:27","新北市板橋區民權路97號","121.459821666667","25.01282","6500100","板橋區"
"220073","985-R7","2018/08/25 19:29:33","新北市板橋區中正路257號","121.45577","25.0185283333333","6500100","板橋區"
"220097","AAC-210","2018/08/25 19:29:45","新北市板橋區陽明街29巷45號","121.46312","25.0227733333333","6500100","板橋區"
"220070","AAC-253","2018/08/25 19:29:45","新北市板橋區館前東路51號","121.461245","25.0074033333333","6500100","板橋區"
"235068","KEA-2873","2018/08/25 19:29:46","新北市中和區景平路493巷10號","121.499248333333","24.9970283333333","6500300","中和區"
"235061","KEA-2875","2018/08/25 19:29:38","新北市中和區連城路456巷7號","121.47867","24.995095","6500300","中和區"
