"lineid","car","time","location","longitude","latitude","cityid","cityname"
"234046","148-BY","2018/08/25 19:59:43","新北市永和區成功路一段103號","121.526973333333","25.0025216666667","6500400","永和區"
"234007","207-UY","2018/08/25 19:59:32","新北市永和區保生路22巷8號","121.507365","25.007905","6500400","永和區"
"234081","298-R6","2018/08/25 19:59:37","新北市永和區永利路81巷2弄2號","121.521541666667","25.0036216666667","6500400","永和區"
"234038","336-UY","2018/08/25 19:59:34","新北市永和區成功路二段116號","121.526588333333","24.9979","6500400","永和區"
"234064","337-UY","2018/08/25 19:59:42","新北市永和區中正路412巷20弄27號","121.519131666667","25.0012883333333","6500400","永和區"
"234086","338-UY","2018/08/25 19:59:26","新北市永和區福和路12巷2號","121.524383333333","25.0086466666667","6500400","永和區"
"234070","552-UM","2018/08/25 19:59:31","新北市永和區國光路16號","121.519035","25.0084166666667","6500400","永和區"
"234017","745-BX","2018/08/25 19:59:47","新北市永和區文化路47號","121.514416666667","25.015035","6500400","永和區"
"234030","746-BX","2018/08/25 19:59:28","新北市永和區四維街103巷16號","121.523538333333","24.997175","6500400","永和區"
"234054","KEA-2590","2018/08/25 19:59:37","新北市永和區環河東路一段122號","121.520591666667","25.015475","6500400","永和區"
"234013","KEA-2591","2018/08/25 19:59:39","新北市永和區保生路55號","121.504686666667","25.0106383333333","6500400","永和區"
"234061","AAD-866","2018/08/25 19:59:39","新北市永和區中正路283巷30號","121.516893333333","25.00061","6500400","永和區"
"234042","862-TW","2018/08/25 19:59:39","新北市永和區中和路421巷5弄18號","121.508255","25.0006166666667","6500400","永和區"
"234050","863-TW","2018/08/25 19:59:42","新北市永和區保安路290號","121.505301666667","25.0121566666667","6500400","永和區"
"234026","9371-KE","2018/08/25 19:59:37","新北市永和區水源街30巷2號","121.51139","25.0046166666667","6500400","永和區"
"234011","9373-KE","2018/08/25 19:59:40","新北市永和區仁愛路352巷114號","121.500451666667","25.0082616666667","6500400","永和區"
"249005","172-UM","2018/08/25 19:59:34","新北市八里區楓林路3-2號","121.382151666667","25.130245","6502300","八里區"
"249001","173-UM","2018/08/25 19:59:39","新北市八里區中華路二段310號","121.403823333333","25.1483266666667","6502300","八里區"
"249004","303-UY","2018/08/25 19:59:39","新北市八里區中山路一段418-3號","121.411101666667","25.1578216666667","6502300","八里區"
"249002","305-UY","2018/08/25 19:59:44","新北市八里區頂寮二街3號","121.450955","25.1239283333333","6502300","八里區"
"249003","593-UM","2018/08/25 19:59:28","新北市八里區中華路二段562號","121.398746666667","25.1449183333333","6502300","八里區"
"248014","025-BX","2018/08/25 19:59:48","新北市五股區五福路14巷7號","121.434718333333","25.08883","6501500","五股區"
"248016","026-BX","2018/08/25 19:59:44","新北市五股區成泰路三段577巷80弄7號","121.449526666667","25.1043416666667","6501500","五股區"
"248008","095-VK","2018/08/25 19:59:32","新北市五股區中興路一段17號","121.469328333333","25.0714566666667","6501500","五股區"
"248020","225-UY","2018/08/25 19:59:35","新北市五股區中直路47號","121.418863333333","25.1147133333333","6501500","五股區"
"248012","247-BX","2018/08/25 19:59:38","新北市五股區民義路一段112-10號","121.435356666667","25.0852316666667","6501500","五股區"
"248010","272-BY","2018/08/25 19:59:35","新北市五股區登林路49號","121.430958333333","25.0692083333333","6501500","五股區"
"248004","677-BX","2018/08/25 19:59:45","新北市五股區成泰路一段32巷56號","121.434905","25.067045","6501500","五股區"
"234023","9380-KE","2018/08/25 19:59:46","新北市永和區中正路702巷18號","121.516463333333","25.0105783333333","6500400","永和區"
"234077","969-R7","2018/08/25 19:59:35","新北市永和區智光街101號","121.516238333333","24.9969166666667","6500400","永和區"
"234074","AAC-211","2018/08/25 19:59:35","新北市永和區豫溪街215巷11號","121.52384","25.0099716666667","6500400","永和區"
"234067","AAC-212","2018/08/25 19:59:33","新北市永和區中山路一段255巷22號","121.508433333333","25.00717","6500400","永和區"
"234003","AAC-295","2018/08/25 19:59:25","新北市永和區永和路二段5號","121.514405","25.010155","6500400","永和區"
"243013","AAD-798","2018/08/25 19:47:48","新北市泰山區應化街7號","121.423925","25.0438083333333","6501600","泰山區"
"243009","297-R6","2018/08/25 19:59:34","新北市泰山區楓江路16巷11號","121.433913333333","25.0618633333333","6501600","泰山區"
"243016","KEA-2801","2018/08/25 19:59:40","新北市泰山區明志路三段517號","121.421045","25.0321216666667","6501600","泰山區"
"243015","421-VK","2018/08/25 19:59:33","新北市泰山區明志路二段194號","121.427466666667","25.0496616666667","6501600","泰山區"
"243011","KEA-2215","2018/08/25 19:59:29","新北市泰山區明志路三段196巷21弄24號","121.422653333333","25.038575","6501600","泰山區"
"243010","KEA-2216","2018/08/25 19:59:37","新北市泰山區中華街9號","121.427826666667","25.0524516666667","6501600","泰山區"
"243012","646-TV","2018/08/25 19:59:45","新北市泰山區全興路101號","121.433543333333","25.0573933333333","6501600","泰山區"
"243014","680-BX","2018/08/25 19:59:42","新北市泰山區泰林路二段165號","121.433755","25.0605016666667","6501600","泰山區"
"222003","436-BY","2018/08/25 19:59:48","新北市深坑區埔新街14號","121.62074","25.003965","6501800","深坑區"
"222002","659-BX","2018/08/25 19:59:43","新北市深坑區北深路二段81巷6弄3號","121.618145","25.0032966666667","6501800","深坑區"
"231044","001-UM","2018/08/25 19:59:44","新北市新店區復興路36號","121.539006666667","24.9868783333333","6500600","新店區"
"231041","002-UM","2018/08/25 19:59:38","新北市新店區自由街2-1號","121.535588333333","24.975385","6500600","新店區"
"231059","046-UY","2018/08/25 19:59:37","新北市新店區安康路二段1-3號","121.516735","24.963775","6500600","新店區"
"231052","108-UY","2018/08/25 19:59:36","新北市新店區新烏路三段寶島巷2弄3號","121.55195","24.8985883333333","6500600","新店區"
"231048","187-VK","2018/08/25 19:59:34","新北市新店區寶宏路3-5號","121.54923","24.9765383333333","6500600","新店區"
"231054","KEA-2219","2018/08/25 19:59:36","新北市新店區光明街143號","121.539295","24.9622116666667","6500600","新店區"
"231057","256-BX","2018/08/25 19:59:38","新北市新店區花園二路一段11號","121.555553333333","24.9325","6500600","新店區"
"231042","268-BY","2018/08/25 19:59:44","新北市新店區中興路一段280號","121.545558333333","24.9685133333333","6500600","新店區"
"231051","278-BY","2018/08/25 19:59:42","新北市新店區中央路151號","121.529743333333","24.9723333333333","6500600","新店區"
"231050","AAD-862","2018/08/25 19:58:08","新北市新店區北宜路二段579巷2號","121.565376666667","24.95399","6500600","新店區"
"231040","355-BY","2018/08/25 19:59:46","新北市新店區中正路59號","121.544231666667","24.9700483333333","6500600","新店區"
"231056","4715-K9","2018/08/25 19:59:33","新北市新店區明德路26巷3號","121.54217","24.9776466666667","6500600","新店區"
"231067","4772-VM","2018/08/25 19:59:44","新北市新店區精忠路10-1號","121.532638333333","24.959115","6500600","新店區"
"231065","512-UM","2018/08/25 19:59:29","新北市新店區安祥路109巷151弄10號","121.47817","24.9589133333333","6500600","新店區"
"231049","513-UM","2018/08/25 19:59:43","新北市新店區明德路83號","121.54146","24.9782616666667","6500600","新店區"
"231045","617-UM","2018/08/25 19:59:43","新北市新店區北宜路二段283號","121.555275","24.9536216666667","6500600","新店區"
"231061","619-UM","2018/08/25 19:59:39","新北市新店區安民街290號","121.51762","24.973315","6500600","新店區"
"231063","641-BX","2018/08/25 19:59:47","新北市新店區黎明路11號","121.502055","24.9499266666667","6500600","新店區"
"231068","718-UY","2018/08/25 19:59:31","新北市新店區安一路一段1-1號","121.51954","24.961095","6500600","新店區"
"231064","719-UM","2018/08/25 19:59:45","新北市新店區安和路二段47號","121.518165","24.9680516666667","6500600","新店區"
"231062","720-UM","2018/08/25 19:59:32","新北市新店區華城路36巷1-5號","121.527496666667","24.955485","6500600","新店區"
"231060","897-TW","2018/08/25 19:59:41","新北市新店區安康路二段458號","121.494335","24.9542816666667","6500600","新店區"
"231043","899-TW","2018/08/25 19:59:30","新北市新店區中正路263-2號","121.538365","24.973655","6500600","新店區"
"231055","AKT-0513","2018/08/25 19:59:37","新北市新店區中華路83巷61號","121.538396666667","24.967505","6500600","新店區"
"241011","013-R5","2018/08/25 19:59:36","新北市三重區三和路二段165號","121.497951666667","25.069615","6500200","三重區"
"241028","022-UY","2018/08/25 19:59:44","新北市三重區中正北路9號","121.492611666667","25.061275","6500200","三重區"
"241008","059-VK","2018/08/25 19:59:31","新北市三重區力行路二段136巷49弄6號","121.479441666667","25.0752116666667","6500200","三重區"
"241022","060-VK","2018/08/25 19:59:26","新北市三重區新北大道一段9號","121.488775","25.060745","6500200","三重區"
"241031","061-VK","2018/08/25 19:59:34","新北市三重區重新路四段144巷15號","121.486926666667","25.0554383333333","6500200","三重區"
"241015","062-VK","2018/08/25 19:59:41","新北市三重區三和路二段35-1號","121.50094","25.067185","6500200","三重區"
"241017","063-VK","2018/08/25 19:59:31","新北市三重區重陽路四段10號","121.49071","25.068885","6500200","三重區"
"241024","065-VK","2018/08/25 19:59:31","新北市三重區力行路二段2號","121.481888333333","25.07187","6500200","三重區"
"241026","066-VK","2018/08/25 19:59:45","新北市三重區中央南路26號","121.501286666667","25.0625016666667","6500200","三重區"
"241002","090-VK","2018/08/25 19:59:40","新北市三重區仁愛街284號","121.492431666667","25.0790616666667","6500200","三重區"
"241003","091-VK","2018/08/25 19:59:35","新北市三重區仁愛街451號","121.490121666667","25.0819833333333","6500200","三重區"
"241023","265-UM","2018/08/25 19:59:29","新北市三重區大有街1-9號","121.477601666667","25.0660633333333","6500200","三重區"
"241016","266-UM","2018/08/25 19:59:29","新北市三重區正義北路38號","121.49737","25.06346","6500200","三重區"
"241009","267-UM","2018/08/25 19:59:47","新北市三重區三和路四段390巷54號","121.479915","25.0784333333333","6500200","三重區"
"241018","268-UM","2018/08/25 19:59:42","新北市三重區正義北路244巷88號","121.493628333333","25.0675616666667","6500200","三重區"
"241032","269-UM","2018/08/25 19:59:37","新北市三重區捷運路65號","121.483396666667","25.0555883333333","6500200","三重區"
"241013","270-UM","2018/08/25 19:59:44","新北市三重區三和路三段125巷42號","121.494146666667","25.07373","6500200","三重區"
"241025","271-UM","2018/08/25 19:59:29","新北市三重區頂崁街210巷16號","121.476501666667","25.067665","6500200","三重區"
"241007","398-BY","2018/08/25 19:59:30","新北市三重區慈愛街58號","121.486671666667","25.0793433333333","6500200","三重區"
"241035","KEA-2210","2018/08/25 19:59:29","新北市三重區大榮街15號","121.49834","25.0632566666667","6500200","三重區"
"241020","413-TH","2018/08/25 19:59:36","新北市三重區大智街165巷9號","121.4903","25.0725016666667","6500200","三重區"
"241004","475-VK","2018/08/25 19:59:40","新北市三重區仁愛街425巷95號","121.492305","25.0826666666667","6500200","三重區"
"241030","480-VK","2018/08/25 19:59:32","新北市三重區重新路四段248-1號","121.486221666667","25.05342","6500200","三重區"
"241014","543-UM","2018/08/25 19:59:33","新北市三重區三和路二段156號","121.499405","25.0685316666667","6500200","三重區"
"241001","547-UM","2018/08/25 19:59:41","新北市三重區仁愛街277號","121.492853333333","25.07863","6500200","三重區"
"241019","KEA-2593","2018/08/25 19:59:36","新北市三重區自強路二段9號","121.49017","25.0690583333333","6500200","三重區"
"241006","AAD-863","2018/08/25 19:59:25","新北市三重區力行路二段138-1號","121.482331666667","25.0756233333333","6500200","三重區"
"241005","887-TS","2018/08/25 19:59:42","新北市三重區溪尾街325巷28號","121.488653333333","25.0835883333333","6500200","三重區"
"241012","941-UM","2018/08/25 19:59:34","新北市三重區仁厚街82號","121.500763333333","25.0768433333333","6500200","三重區"
"241029","942-UM","2018/08/25 19:59:36","新北市三重區重安街1號","121.490021666667","25.0584283333333","6500200","三重區"
"241033","AAC-255","2018/08/25 19:59:46","新北市三重區中興北街95號","121.469563333333","25.0483283333333","6500200","三重區"
"235066","003-UY","2018/08/25 19:59:40","新北市中和區中山路二段61號","121.504178333333","25.0047666666667","6500300","中和區"
"235056","096-UM","2018/08/25 19:59:39","新北市中和區中山路三段170巷2弄2號","121.473003333333","25.00661","6500300","中和區"
"235039","097-UM","2018/08/25 19:59:45","新北市中和區景平路278巷16弄24號","121.514381666667","24.99378","6500300","中和區"
"235065","098-UM","2018/08/25 19:59:43","新北市中和區福祥路106號","121.498995","25.006175","6500300","中和區"
"235040","150-BY","2018/08/25 19:59:38","新北市中和區保健路19巷2弄4號","121.50835","24.998205","6500300","中和區"
"235058","151-BY","2018/08/25 19:59:44","新北市中和區員山路150巷2弄10號","121.481653333333","24.9980416666667","6500300","中和區"
"235055","183-VK","2018/08/25 19:59:46","新北市中和區民生街21-6號","121.47076","25.00553","6500300","中和區"
"235049","186-VK","2018/08/25 19:59:41","新北市中和區景平路534號","121.502735","24.994595","6500300","中和區"
"235067","255-BX","2018/08/25 19:59:38","新北市中和區新生街262號","121.483846666667","24.9972183333333","6500300","中和區"
"235044","293-VK","2018/08/25 19:59:32","新北市中和區中正路67號","121.501155","24.9935016666667","6500300","中和區"
"235043","352-BY","2018/08/25 19:59:44","新北市中和區興南路二段159巷12號","121.505103333333","24.9831333333333","6500300","中和區"
"247010","KEA-2869","2018/08/25 19:59:39","新北市蘆洲區集賢路222-4號","121.482746666667","25.0868133333333","6501400","蘆洲區"
"235069","4980-A6","2018/08/25 19:59:32","新北市中和區景平路477號","121.500171666667","24.9970866666667","6500300","中和區"
"235070","558-UM","2018/08/25 19:59:38","新北市中和區中正路436號","121.491191666667","24.99415","6500300","中和區"
"235054","640-BX","2018/08/25 19:59:36","新北市中和區莒光路7號","121.471878333333","25.0059166666667","6500300","中和區"
"235046","733-UM","2018/08/25 19:59:41","新北市中和區興南路一段93巷42號","121.51043","24.9863866666667","6500300","中和區"
"235041","802-TS","2018/08/25 19:59:40","新北市中和區安平路30號","121.509536666667","24.9947033333333","6500300","中和區"
"235052","805-TS","2018/08/25 19:59:44","新北市中和區興南路二段113巷30號","121.506198333333","24.983915","6500300","中和區"
"235048","896-TW","2018/08/25 19:59:38","新北市中和區景新街385號","121.51246","24.9900583333333","6500300","中和區"
"235053","900-TW","2018/08/25 19:59:37","新北市中和區莒光路222-8號","121.46904","24.99474","6500300","中和區"
"235051","157-BY","2018/08/25 19:59:38","新北市中和區復興路301巷16號","121.501425","24.989595","6500300","中和區"
"235037","AAC-213","2018/08/25 19:59:29","新北市中和區立人街1號","121.521886666667","24.993885","6500300","中和區"
"235059","AAC-215","2018/08/25 19:59:27","新北市中和區圓通路305巷5弄36號","121.494485","24.9902733333333","6500300","中和區"
"220065","072-UY","2018/08/25 19:59:28","新北市板橋區中山路一段143號","121.464613333333","25.0114483333333","6500100","板橋區"
"220106","075-UY","2018/08/25 19:59:37","新北市板橋區民治街42巷2號","121.478945","25.03375","6500100","板橋區"
"220069","AAD-861","2018/08/25 19:59:27","新北市板橋區大明街15巷3號","121.458835","25.002375","6500100","板橋區"
"247024","893-R6","2018/08/25 19:59:30","新北市蘆洲區光榮路120巷12號","121.465416666667","25.0884683333333","6501400","蘆洲區"
"247014","546-UM","2018/08/25 19:59:40","新北市蘆洲區成功路151號","121.472163333333","25.082545","6501400","蘆洲區"
"247012","339-TH","2018/08/25 19:59:39","新北市蘆洲區民族路151號","121.47959","25.0879566666667","6501400","蘆洲區"
"247004","337-TH","2018/08/25 19:59:30","新北市蘆洲區永康街75號","121.455838333333","25.0852233333333","6501400","蘆洲區"
"247006","336-TH","2018/08/25 19:59:37","新北市蘆洲區九芎街115號","121.46553","25.079495","6501400","蘆洲區"
"247008","056-VK","2018/08/25 19:59:41","新北市蘆洲區中山一路61巷34號","121.477308333333","25.0807716666667","6501400","蘆洲區"
"247016","007-UY","2018/08/25 19:59:46","新北市蘆洲區光華路10號","121.46977","25.0834666666667","6501400","蘆洲區"
"247002","002-UY","2018/08/25 19:59:26","新北市蘆洲區長安街274巷2號","121.457585","25.086995","6501400","蘆洲區"
"247020","001-UY","2018/08/25 19:59:30","新北市蘆洲區民義街68巷2號","121.473051666667","25.08973","6501400","蘆洲區"
"228003","097-TW","2018/08/25 19:59:46","新北市貢寮區仁理村仁和路192號","121.923423333333","25.05268","6502600","貢寮區"
"224002","639-TC","2018/08/25 19:59:34","新北市瑞芳區員山子路員山巷1號","121.816898333333","25.10358","6501200","瑞芳區"
"227002","642-TC","2018/08/25 19:59:35","新北市雙溪區雙溪里長安街16號","121.865038333333","25.0346166666667","6502500","雙溪區"
"227010","400-TW","2018/08/25 19:59:38","新北市雙溪區新基里朝陽街18號","121.866016666667","25.0386383333333","6502500","雙溪區"
"222001","KEA-2212","2018/08/25 19:59:39","新北市深坑區北深路三段162號","121.602425","25.0033333333333","6501800","深坑區"
"208002","KEA-2872","2018/08/25 19:59:43","新北市金山區中正路135號","121.632393333333","25.2215083333333","6502700","金山區"
"208003","665-BX","2018/08/25 19:59:33","新北市金山區海興路112-1號","121.63126","25.2388666666667","6502700","金山區"
"208001","761-BX","2018/08/25 19:59:43","新北市金山區重和里林口15號","121.597883333333","25.2108966666667","6502700","金山區"
"251009","008-UM","2018/08/25 19:59:41","新北市淡水區英專路28巷18號","121.44589","25.1698466666667","6501000","淡水區"
"251005","010-UM","2018/08/25 19:59:42","新北市淡水區學府路136巷37號","121.45187","25.1727716666667","6501000","淡水區"
"251013","KEA-2871","2018/08/25 19:59:28","新北市淡水區下圭柔山63-7號","121.451863333333","25.20619","6501000","淡水區"
"251016","179-VK","2018/08/25 19:59:41","新北市淡水區番子田16-13號","121.453705","25.2317316666667","6501000","淡水區"
"251014","180-VK","2018/08/25 19:59:39","新北市淡水區石頭厝14-53號","121.464153333333","25.236715","6501000","淡水區"
"251015","181-VK","2018/08/25 19:59:45","新北市淡水區商工路307號","121.455461666667","25.1864466666667","6501000","淡水區"
"251010","413-VK","2018/08/25 19:59:44","新北市淡水區崁頂142號","121.43096","25.20599","6501000","淡水區"
"251012","441-VK","2018/08/25 19:59:28","新北市淡水區下圭柔山93-4號","121.436838333333","25.209615","6501000","淡水區"
"251008","442-VK","2018/08/25 19:59:31","新北市淡水區淡海路76號","121.423136666667","25.1811033333333","6501000","淡水區"
"251004","443-VK","2018/08/25 19:59:35","新北市淡水區民權路173巷15號","121.460728333333","25.1355833333333","6501000","淡水區"
"251001","559-UM","2018/08/25 19:59:43","新北市淡水區新市二路四段265號","121.445941666667","25.1925033333333","6501000","淡水區"
"251006","561-UM","2018/08/25 19:59:36","新北市淡水區水碓街40巷1號","121.444525","25.1771716666667","6501000","淡水區"
"251011","650-BX","2018/08/25 19:59:43","新北市淡水區崁頂55-3號","121.442345","25.1966483333333","6501000","淡水區"
"251003","766-UM","2018/08/25 19:59:31","新北市淡水區中山北路二段189巷15弄29號","121.443496666667","25.18427","6501000","淡水區"
"207003","550-UM","2018/08/25 19:59:31","新北市萬里區磺潭里公館崙5號","121.641875","25.2142466666667","6502800","萬里區"
"207004","225-TW","2018/08/25 19:59:46","新北市萬里區北基里忠二街35號","121.68566","25.1757766666667","6502800","萬里區"
"252002","178-VK","2018/08/25 19:59:29","新北市三芝區忠孝街116-3號","121.505448333333","25.2575783333333","6502100","三芝區"
"252001","292-VK","2018/08/25 19:59:29","新北市三芝區公正街9號","121.499781666667","25.25752","6502100","三芝區"
"237004","KEA-2597","2018/08/25 19:59:37","新北市三峽區添福29-3號","121.373128333333","24.9034583333333","6500900","三峽區"
"237007","153-BY","2018/08/25 19:59:37","新北市三峽區二鬮路136巷24弄63號","121.357318333333","24.91049","6500900","三峽區"
"237009","210-TH","2018/08/25 19:59:42","新北市三峽區民權街173號","121.36805","24.93001","6500900","三峽區"
"237013","252-BX","2018/08/25 19:59:37","新北市三峽區介壽路二段165號","121.394131666667","24.9359616666667","6500900","三峽區"
"237012","275-BY","2018/08/25 19:59:26","新北市三峽區安溪路316號","121.371138333333","24.9303166666667","6500900","三峽區"
"237008","302-VK","2018/08/25 19:59:21","新北市三峽區中華路39號","121.372658333333","24.93109","6500900","三峽區"
"237014","433-BY","2018/08/25 19:59:46","新北市三峽區嘉添185-1號","121.37001","24.91186","6500900","三峽區"
"237006","5529-G3","2018/08/25 19:59:39","新北市三峽區中正路一段330號","121.3707","24.92482","6500900","三峽區"
"237016","649-BX","2018/08/25 19:59:27","新北市三峽區介壽路二段138巷1弄42-2號","121.39789","24.9328416666667","6500900","三峽區"
"237005","AKY-6261","2018/08/25 19:59:30","新北市三峽區三樹路44巷14號","121.378341666667","24.9375066666667","6500900","三峽區"
"236070","105-UM","2018/08/25 19:59:34","新北市土城區忠義路95-5號","121.443711666667","24.962025","6501300","土城區"
"236042","107-UM","2018/08/25 19:59:45","新北市土城區學府路一段98巷27號","121.455106666667","24.98854","6501300","土城區"
"236079","166-UM","2018/08/25 19:59:44","新北市土城區福安街92號","121.417845","24.9641916666667","6501300","土城區"
"236030","253-BX","2018/08/25 19:59:32","新北市土城區中央路一段252號","121.444346666667","24.9846233333333","6501300","土城區"
"236026","269-VK","2018/08/25 19:59:43","新北市土城區中央路二段89號","121.442286666667","24.97813","6501300","土城區"
"236014","270-VK","2018/08/25 19:59:44","新北市土城區廣福街125號","121.456235","24.992995","6501300","土城區"
"236038","271-VK","2018/08/25 19:59:31","新北市土城區國際路52號","121.466496666667","24.97834","6501300","土城區"
"236021","401-BY","2018/08/25 19:59:43","新北市土城區延吉街111巷15號","121.47187","24.98599","6501300","土城區"
"236059","912-UM","2018/08/25 19:59:45","新北市土城區中央路一段325號","121.443755","24.982985","6501300","土城區"
"236049","913-UM","2018/08/25 19:59:41","新北市中和區連城路534巷2號","121.475316666667","24.991395","6501300","土城區"
"236063","915-UM","2018/08/25 19:59:31","新北市土城區金城路三段73巷4弄1號","121.466313333333","24.9878716666667","6501300","土城區"
"236055","AAC-216","2018/08/25 19:59:39","新北市土城區學府路一段39號","121.457831666667","24.988345","6501300","土城區"
"242034","AAC-296","2018/08/25 19:59:44","新北市新莊區建中街90巷3弄19號","121.445793333333","25.0369133333333","6500500","新莊區"
"242058","986-R7","2018/08/25 19:59:48","新北市新莊區八德街105號","121.424233333333","25.0211816666667","6500500","新莊區"
"242027","615-BX","2018/08/25 19:59:26","新北市新莊區幸福路902號","121.44309","25.0493366666667","6500500","新莊區"
"242025","613-BX","2018/08/25 19:59:47","新北市新莊區五工一路86號","121.46138","25.0674666666667","6500500","新莊區"
"242021","442-UM","2018/08/25 19:59:36","新北市新莊區建中街48巷8弄11號","121.448646666667","25.0383616666667","6500500","新莊區"
"242051","441-UM","2018/08/25 19:59:43","新北市新莊區西盛街170號","121.428141666667","25.0191366666667","6500500","新莊區"
"242056","440-UM","2018/08/25 19:59:29","新北市新莊區中正路347巷19號","121.447173333333","25.0342316666667","6500500","新莊區"
"242036","415-TV","2018/08/25 19:59:33","新北市新莊區建安街41巷6弄2號","121.42895","25.0252216666667","6500500","新莊區"
"242007","413-TV","2018/08/25 19:59:44","新北市新莊區榮華路一段2號","121.457893333333","25.0552916666667","6500500","新莊區"
"242044","400-BY","2018/08/25 19:59:47","新北市新莊區中正路929巷15號","121.41092","25.0205066666667","6500500","新莊區"
"242023","362-BY","2018/08/25 19:59:43","新北市新莊區化成路428號","121.466098333333","25.0511283333333","6500500","新莊區"
"242061","353-BY","2018/08/25 19:59:43","新北市新莊區瓊泰路30號","121.444238333333","25.0286233333333","6500500","新莊區"
"242039","133-UY","2018/08/25 19:59:30","新北市新莊區民安路299巷25弄11號","121.428795","25.023285","6500500","新莊區"
"242031","135-UY","2018/08/25 19:59:41","新北市新莊區公園一路74號","121.443153333333","25.03655","6500500","新莊區"
"242048","172-VK","2018/08/25 19:59:35","新北市新莊區民安路98巷23號","121.423403333333","25.0252583333333","6500500","新莊區"
"242017","175-VK","2018/08/25 19:59:40","新北市新莊區中港路328號","121.452565","25.0457933333333","6500500","新莊區"
"242004","176-VK","2018/08/25 19:59:31","新北市新莊區化成路231號","121.46593","25.05259","6500500","新莊區"
"242015","346-TH","2018/08/25 19:59:35","新北市新莊區泰順街33巷2號","121.44618","25.0425716666667","6500500","新莊區"
"242002","349-TH","2018/08/25 19:59:44","新北市新莊區中正路219號","121.450835","25.0357916666667","6500500","新莊區"
"242019","350-TH","2018/08/25 19:59:45","新北市新莊區民生街15巷1弄1號","121.455735","25.042175","6500500","新莊區"
"238015","755-BX","2018/08/25 19:59:29","新北市樹林區中山路三段210-2號","121.380585","24.966995","6500700","樹林區"
"238021","KEA-2539","2018/08/25 19:59:36","新北市樹林區佳園路三段101巷60號","121.392941666667","24.9502133333333","6500700","樹林區"
"239006","891-R6","2018/08/25 19:59:28","新北市鶯歌區文化路66號","121.356026666667","24.9545583333333","6500800","鶯歌區"
"221008","489-VK","2018/08/25 19:59:43","台北市內湖區康樂街162巷1號","121.619453333333","25.073095","6501100","汐止區"
"221036","130-UY","2018/08/25 19:59:38","新北市汐止區新台五路二段85巷10號","121.66447","25.06722","6501100","汐止區"
"221015","131-UY","2018/08/25 19:59:37","新北市汐止區建成路13號","121.66457","25.0725683333333","6501100","汐止區"
"221010","269-BY","2018/08/25 19:59:27","新北市汐止區連峰街225巷15號","121.64435","25.0808966666667","6501100","汐止區"
"221012","278-VK","2018/08/25 19:59:31","新北市汐止區大同路三段332號","121.679373333333","25.0711583333333","6501100","汐止區"
"221023","279-VK","2018/08/25 19:59:33","新北市汐止區明峰街252巷4號","121.62626","25.0685733333333","6501100","汐止區"
"221032","280-BY","2018/08/25 19:59:40","新北市汐止區力行街59巷9弄2號","121.617383333333","25.0497666666667","6501100","汐止區"
"221027","281-BY","2018/08/25 19:59:35","新北市汐止區中正路90號","121.66138","25.069515","6501100","汐止區"
"221029","298-VK","2018/08/25 19:59:40","新北市汐止區樟樹一路137巷26號","121.640975","25.0660616666667","6501100","汐止區"
"221021","299-VK","2018/08/25 19:59:28","新北市汐止區水源路一段138號","121.655993333333","25.062425","6501100","汐止區"
"221031","353-TW","2018/08/25 19:59:40","新北市汐止區中興路130-1號","121.633068333333","25.0643416666667","6501100","汐止區"
"221035","622-UM","2018/08/25 19:59:33","新北市汐止區長江街57巷1號","121.656278333333","25.0715516666667","6501100","汐止區"
"221025","623-UM","2018/08/25 19:59:39","新北市汐止區秀峰路97號","121.660068333333","25.0637383333333","6501100","汐止區"
"221038","646-BX","2018/08/25 19:59:36","新北市汐止區忠孝東路526號","121.667055","25.0761583333333","6501100","汐止區"
"221033","647-BX","2018/08/25 19:59:37","新北市汐止區東勢街203號","121.63381","25.04186","6501100","汐止區"
"221018","753-BX","2018/08/25 19:59:29","新北市汐止區茄苳路28號","121.665136666667","25.07073","6501100","汐止區"
"220079","145-BY","2018/08/25 19:59:38","新北市板橋區南雅西路二段175巷4號","121.451503333333","25.012635","6500100","板橋區"
"220080","200-UY","2018/08/25 19:59:32","新北市板橋區大觀路二段169巷23號","121.446615","24.9998066666667","6500100","板橋區"
"220082","610-BX","2018/08/25 19:59:39","新北市板橋區篤行路二段108號","121.43135","24.9910766666667","6500100","板橋區"
"220101","245-BX","2018/08/25 19:58:12","新北市板橋區縣民大道三段127巷33號","121.47648","25.0243166666667","6500100","板橋區"
"220072","277-BY","2018/08/25 19:59:41","新北市板橋區篤行路二段1巷3-1號","121.43236","24.99307","6500100","板橋區"
"220071","283-VK","2018/08/25 19:59:44","新北市板橋區和平路174巷32號","121.46474","24.99427","6500100","板橋區"
"220094","285-UM","2018/08/25 19:59:38","新北市板橋區陽明街71號","121.464208333333","25.022885","6500100","板橋區"
"220053","285-VK","2018/08/25 19:59:33","新北市板橋區永豐街69號","121.473711666667","25.01868","6500100","板橋區"
"220083","286-VK","2018/08/25 19:59:44","新北市板橋區僑中二街8巷25號","121.445896666667","25.0112733333333","6500100","板橋區"
"220081","287-VK","2018/08/25 19:59:31","新北市板橋區僑中一街80巷6弄1號","121.447705","25.0121766666667","6500100","板橋區"
"220090","288-VK","2018/08/25 19:59:39","新北市板橋區幸福路32巷2弄35號","121.460846666667","25.0219766666667","6500100","板橋區"
"220061","295-UM","2018/08/25 19:59:40","新北市板橋區觀光街3巷3號","121.471743333333","25.0156966666667","6500100","板橋區"
"220084","296-UM","2018/08/25 19:59:34","新北市板橋區溪崑二街110號","121.426251666667","24.9886666666667","6500100","板橋區"
"242013","281-VK","2018/08/25 19:59:39","新北市新莊區中港路439號","121.452408333333","25.0481516666667","6500500","新莊區"
"220075","303-R5","2018/08/25 19:59:31","新北市板橋區金華街10巷118號","121.459263333333","25.0204883333333","6500100","板橋區"
"220062","305-R5","2018/08/25 19:59:44","新北市板橋區萬安街20巷2弄13號","121.485263333333","25.02271","6500100","板橋區"
"220092","307-R5","2018/08/25 19:59:26","新北市板橋區新海路135巷39號","121.459133333333","25.02242","6500100","板橋區"
"220098","317-R6","2018/08/25 19:59:44","新北市板橋區漢生西路165巷48號","121.461878333333","25.0236466666667","6500100","板橋區"
"220064","486-VK","2018/08/25 19:59:39","新北市板橋區區運路8號","121.465116666667","25.0091233333333","6500100","板橋區"
"242011","280-VK","2018/08/25 19:59:35","新北市新莊區中港路531巷68號","121.450478333333","25.051575","6500500","新莊區"
"220088","491-VK","2018/08/25 19:59:40","新北市板橋區懷德街54號","121.477368333333","25.03246","6500100","板橋區"
"220035","560-BX","2018/08/25 19:59:47","新北市板橋區新生街87巷34號","121.456521666667","25.0222033333333","6500100","板橋區"
"220103","561-BX","2018/08/25 19:59:38","新北市板橋區自由路22號","121.465531666667","25.0226783333333","6500100","板橋區"
"220091","637-BX","2018/08/25 19:59:36","新北市板橋區民治街119巷5號","121.478481666667","25.0307","6500100","板橋區"
"220057","686-BX","2018/08/25 19:59:40","新北市板橋區四川路二段130巷53號","121.449751666667","24.9948233333333","6500100","板橋區"
"220093","689-BX","2018/08/25 19:59:43","新北市板橋區長江路三段55號","121.47378","25.0340916666667","6500100","板橋區"
"220054","741-BX","2018/08/25 19:59:35","新北市板橋區忠孝路201巷120號","121.464686666667","25.00524","6500100","板橋區"
"220102","KEA-2699","2018/08/25 19:59:26","新北市板橋區仁化街53號","121.475245","25.0317683333333","6500100","板橋區"
"220055","827-TW","2018/08/25 19:59:44","新北市板橋區仁愛路62巷15弄1號","121.459948333333","24.9985666666667","6500100","板橋區"
"220067","829-TW","2018/08/25 19:59:44","新北市板橋區漢生東路161巷3號","121.4698","25.0126383333333","6500100","板橋區"
"220068","830-TW","2018/08/25 19:59:38","新北市板橋區光復街172巷27號","121.4857","25.0189966666667","6500100","板橋區"
"220096","831-TW","2018/08/25 19:59:31","新北市板橋區莒光路15巷7號","121.470058333333","25.0252","6500100","板橋區"
"220089","833-TW","2018/08/25 19:59:36","新北市板橋區新海路385巷16弄11號","121.457865","25.026325","6500100","板橋區"
"220074","895-R6","2018/08/25 19:59:44","新北市板橋區縣民大道一段295號","121.460948333333","25.0103316666667","6500100","板橋區"
"220073","985-R7","2018/08/25 19:59:44","新北市板橋區南雅西路二段30號","121.452891666667","25.0097883333333","6500100","板橋區"
"220097","AAC-210","2018/08/25 19:59:45","新北市板橋區光正街32號","121.462123333333","25.0173166666667","6500100","板橋區"
"220070","AAC-253","2018/08/25 19:59:45","新北市板橋區成都街10號","121.460261666667","25.004685","6500100","板橋區"
"235068","KEA-2873","2018/08/25 19:59:46","新北市中和區中山路二段250巷16號","121.497431666667","25.0030866666667","6500300","中和區"
"235061","KEA-2875","2018/08/25 19:59:38","新北市中和區員山路220號","121.48124","25.0009666666667","6500300","中和區"
