"lineid","car","time","location","longitude","latitude","cityid","cityname"
"234081","298-R6","2018/08/25 20:29:37","新北市永和區福和路55-1號","121.523041666667","25.0078633333333","6500400","永和區"
"234064","337-UY","2018/08/25 20:29:42","新北市永和區中正路437號","121.517135","25.005195","6500400","永和區"
"234086","338-UY","2018/08/25 20:29:46","新北市永和區光復街26-1號","121.516533333333","25.0173766666667","6500400","永和區"
"234070","552-UM","2018/08/25 20:29:28","新北市永和區永利路26號","121.518213333333","25.0057783333333","6500400","永和區"
"234030","746-BX","2018/08/25 20:29:48","新北市永和區民族街81巷60號","121.52013","24.9965","6500400","永和區"
"234054","KEA-2590","2018/08/25 20:29:45","新北市永和區環河東路一段42號","121.518598333333","25.0170516666667","6500400","永和區"
"234061","AAD-866","2018/08/25 20:29:42","新北市永和區安樂路194巷2號","121.515333333333","25.00119","6500400","永和區"
"234042","862-TW","2018/08/25 20:29:39","新北市中和區安平路182號","121.512928333333","24.9988633333333","6500400","永和區"
"234050","863-TW","2018/08/25 20:29:42","新北市永和區環河西路二段101號","121.506448333333","25.0147533333333","6500400","永和區"
"249005","172-UM","2018/08/25 20:29:34","新北市八里區下罟子2號","121.387471666667","25.1415016666667","6502300","八里區"
"249001","173-UM","2018/08/25 20:29:39","新北市八里區下罟子5-11號","121.38687","25.142295","6502300","八里區"
"249004","303-UY","2018/08/25 20:29:39","新北市八里區中山路一段129巷5號","121.413621666667","25.1590383333333","6502300","八里區"
"249002","305-UY","2018/08/25 20:29:44","新北市八里區龍米路二段125巷13號","121.446051666667","25.145415","6502300","八里區"
"249003","593-UM","2018/08/25 20:29:36","新北市八里區華峰一街48號","121.398481666667","25.1462883333333","6502300","八里區"
"248002","678-BX","2018/08/25 20:29:32","新北市五股區成泰路二段197巷1號","121.440723333333","25.08752","6501500","五股區"
"234023","9380-KE","2018/08/25 20:29:45","新北市永和區博愛街32巷17-1號","121.518856666667","25.015255","6500400","永和區"
"234077","969-R7","2018/08/25 20:29:25","新北市中和區景平路259巷1號","121.508615","24.99273","6500400","永和區"
"234074","AAC-211","2018/08/25 20:29:35","新北市永和區豫溪街162巷1號","121.523795","25.00955","6500400","永和區"
"234067","AAC-212","2018/08/25 20:29:34","新北市永和區保平路268巷16號","121.507898333333","25.0060683333333","6500400","永和區"
"234003","AAC-295","2018/08/25 20:29:45","新北市永和區中正路545號","121.516896666667","25.0079966666667","6500400","永和區"
"243013","AAD-798","2018/08/25 20:29:35","新北市泰山區貴子路9巷6號","121.425548333333","25.0421633333333","6501600","泰山區"
"243009","297-R6","2018/08/25 20:29:34","新北市泰山區泰林路二段304號","121.43075","25.0628616666667","6501600","泰山區"
"243016","KEA-2801","2018/08/25 20:29:40","新北市泰山區新生路27號","121.427341666667","25.0454283333333","6501600","泰山區"
"243015","421-VK","2018/08/25 20:29:33","新北市泰山區福興三街7號","121.434781666667","25.0579116666667","6501600","泰山區"
"243011","KEA-2215","2018/08/25 20:29:29","新北市新莊區壽山路160巷21號","121.4175","25.0319616666667","6501600","泰山區"
"243010","KEA-2216","2018/08/25 20:29:37","新北市泰山區新生路31巷12號","121.427825","25.0462533333333","6501600","泰山區"
"243012","646-TV","2018/08/25 20:29:45","新北市泰山區楓江路6號","121.433436666667","25.06243","6501600","泰山區"
"243014","680-BX","2018/08/25 20:29:42","新北市泰山區泰林路二段2-4號","121.419616666667","25.065115","6501600","泰山區"
"222003","436-BY","2018/08/25 20:29:28","新北市深坑區深坑街42號","121.614926666667","25.00168","6501800","深坑區"
"222002","659-BX","2018/08/25 20:29:43","新北市深坑區萬福路16巷35號","121.608933333333","25.008985","6501800","深坑區"
"231044","001-UM","2018/08/25 20:29:44","新北市新店區建國路176號","121.538056666667","24.9798116666667","6500600","新店區"
"231041","002-UM","2018/08/25 20:29:38","新北市新店區中正路501-4號","121.533613333333","24.9838066666667","6500600","新店區"
"231059","046-UY","2018/08/25 20:29:37","新北市新店區安康路二段227號","121.508516666667","24.958625","6500600","新店區"
"231052","108-UY","2018/08/25 20:29:36","新北市新店區松林路38號","121.546291666667","24.9102433333333","6500600","新店區"
"231048","187-VK","2018/08/25 20:29:34","新北市新店區寶慶街58巷21-1號","121.542015","24.987345","6500600","新店區"
"231054","KEA-2219","2018/08/25 20:29:36","新北市新店區檳榔路105號","121.544651666667","24.9616666666667","6500600","新店區"
"231057","256-BX","2018/08/25 20:29:38","新北市新店區花園十路一段5號","121.553998333333","24.93419","6500600","新店區"
"231042","268-BY","2018/08/25 20:29:43","新北市新店區寶橋路103號","121.548093333333","24.9767366666667","6500600","新店區"
"231051","278-BY","2018/08/25 20:29:42","新北市新店區中央路196號","121.53076","24.9745433333333","6500600","新店區"
"231050","AAD-862","2018/08/25 20:29:28","新北市新店區建國路83號","121.540495","24.9763333333333","6500600","新店區"
"231040","355-BY","2018/08/25 20:29:26","新北市新店區自由街2-1號","121.535491666667","24.9755016666667","6500600","新店區"
"231058","3713-VJ","2018/08/25 20:29:29","新北市新店區自由街37號","121.534711666667","24.9739516666667","6500600","新店區"
"231066","4716-K9","2018/08/25 20:29:42","新北市新店區安興路69號","121.516066666667","24.97514","6500600","新店區"
"231056","4715-K9","2018/08/25 20:29:33","新北市新店區中央路2號","121.533953333333","24.9789316666667","6500600","新店區"
"231067","4772-VM","2018/08/25 20:29:44","新北市新店區安華路28-1號","121.519571666667","24.9608433333333","6500600","新店區"
"231065","512-UM","2018/08/25 20:29:49","新北市新店區安祥路102巷30弄15號","121.484651666667","24.96352","6500600","新店區"
"231049","513-UM","2018/08/25 20:29:43","新北市新店區永業路81巷1弄1號","121.529715","24.9493466666667","6500600","新店區"
"231045","617-UM","2018/08/25 20:29:43","新北市新店區新坡一街10號","121.548746666667","24.9616033333333","6500600","新店區"
"231061","619-UM","2018/08/25 20:29:39","新北市新店區新和街33號","121.519106666667","24.984795","6500600","新店區"
"231063","641-BX","2018/08/25 20:29:27","新北市新店區安康路二段382-2號","121.5004","24.957325","6500600","新店區"
"231068","718-UY","2018/08/25 20:29:31","新北市新店區民權路15號","121.542236666667","24.9828766666667","6500600","新店區"
"231064","719-UM","2018/08/25 20:29:45","新北市新店區永安街74巷18號","121.519261666667","24.986085","6500600","新店區"
"231062","720-UM","2018/08/25 20:29:32","新北市新店區安泰路7巷16號","121.485708333333","24.9509883333333","6500600","新店區"
"231060","897-TW","2018/08/25 20:29:41","新北市新店區錦秀路59號","121.479035","24.943165","6500600","新店區"
"231043","899-TW","2018/08/25 20:29:30","新北市新店區建國路88號","121.540418333333","24.9771483333333","6500600","新店區"
"241011","013-R5","2018/08/25 20:29:36","新北市三重區三和路三段53號","121.495355","25.07175","6500200","三重區"
"241028","022-UY","2018/08/25 20:29:44","新北市三重區光興街91號","121.497376666667","25.0599133333333","6500200","三重區"
"241008","059-VK","2018/08/25 20:29:31","新北市三重區下竹圍街42-1號","121.481008333333","25.0749283333333","6500200","三重區"
"241022","060-VK","2018/08/25 20:29:47","新北市三重區民生街61巷18弄2號","121.48783","25.0630583333333","6500200","三重區"
"241031","061-VK","2018/08/25 20:29:34","新北市三重區三寧街18號","121.48939","25.0598116666667","6500200","三重區"
"241015","062-VK","2018/08/25 20:29:41","新北市三重區長元街2-2號","121.49876","25.065835","6500200","三重區"
"241017","063-VK","2018/08/25 20:29:31","新北市三重區自強路一段298號","121.491358333333","25.0682466666667","6500200","三重區"
"241024","065-VK","2018/08/25 20:29:31","新北市三重區中正北路276巷22號","121.480343333333","25.06758","6500200","三重區"
"241026","066-VK","2018/08/25 20:29:45","新北市三重區重新路一段46號","121.502956666667","25.063895","6500200","三重區"
"241002","090-VK","2018/08/25 20:29:40","新北市三重區仁義街211巷21號","121.497536666667","25.0822683333333","6500200","三重區"
"241003","091-VK","2018/08/25 20:29:35","新北市三重區富華街179號","121.493706666667","25.08523","6500200","三重區"
"241023","265-UM","2018/08/25 20:29:29","新北市三重區自由街19號","121.479813333333","25.0665766666667","6500200","三重區"
"241016","266-UM","2018/08/25 20:29:29","新北市三重區正義北路140號","121.496798333333","25.0659466666667","6500200","三重區"
"241009","267-UM","2018/08/25 20:29:47","新北市三重區永福街46巷15弄7號","121.481385","25.077995","6500200","三重區"
"241018","268-UM","2018/08/25 20:29:42","新北市三重區雙園街97號","121.493831666667","25.0672916666667","6500200","三重區"
"241032","269-UM","2018/08/25 20:29:37","新北市三重區重陽路一段120巷48號","121.485043333333","25.0601866666667","6500200","三重區"
"241013","270-UM","2018/08/25 20:29:44","新北市三重區溪尾街5巷2號","121.491921666667","25.0744183333333","6500200","三重區"
"241025","271-UM","2018/08/25 20:29:49","新北市三重區頂崁街210巷23弄1號","121.475845","25.068165","6500200","三重區"
"241007","398-BY","2018/08/25 20:29:30","新北市三重區自強路四段32-2號","121.489056666667","25.07703","6500200","三重區"
"241035","KEA-2210","2018/08/25 20:29:37","新北市三重區正義北路2巷2號","121.497641666667","25.0625383333333","6500200","三重區"
"241020","413-TH","2018/08/25 20:29:36","新北市三重區忠孝路一段23號","121.492018333333","25.0720066666667","6500200","三重區"
"241004","475-VK","2018/08/25 20:29:40","新北市三重區溪尾街257號","121.487746666667","25.0818116666667","6500200","三重區"
"241030","480-VK","2018/08/25 20:29:32","新北市三重區成功路70號","121.488605","25.0510816666667","6500200","三重區"
"241014","543-UM","2018/08/25 20:29:33","新北市三重區長興街117號","121.502196666667","25.0691683333333","6500200","三重區"
"241001","547-UM","2018/08/25 20:29:41","新北市三重區福隆路9號","121.489641666667","25.0770916666667","6500200","三重區"
"241019","KEA-2593","2018/08/25 20:29:36","新北市三重區重陽路四段57號","121.492073333333","25.07031","6500200","三重區"
"241006","AAD-863","2018/08/25 20:29:45","新北市三重區車路頭街139巷14號","121.48432","25.07626","6500200","三重區"
"241005","887-TS","2018/08/25 20:29:42","新北市三重區碧華街317號","121.490975","25.0842233333333","6500200","三重區"
"241012","941-UM","2018/08/25 20:29:34","新北市三重區龍濱路269號","121.501386666667","25.07313","6500200","三重區"
"241029","942-UM","2018/08/25 20:29:36","新北市三重區集美街112巷7號","121.489165","25.0540266666667","6500200","三重區"
"241033","AAC-255","2018/08/25 20:29:26","新北市三重區五谷王北街82號","121.476045","25.0527616666667","6500200","三重區"
"235066","003-UY","2018/08/25 20:29:39","新北市中和區中山路二段3巷22弄40號","121.50571","25.0040066666667","6500300","中和區"
"235065","098-UM","2018/08/25 20:29:43","新北市中和區橋和路284號","121.496483333333","25.00677","6500300","中和區"
"235040","150-BY","2018/08/25 20:29:38","新北市中和區中正路582號","121.486131666667","24.99491","6500300","中和區"
"247010","KEA-2869","2018/08/25 20:29:39","新北市蘆洲區信義路222巷59號","121.481215","25.0854233333333","6501400","蘆洲區"
"235069","4980-A6","2018/08/25 20:29:32","新北市中和區中正路446號","121.491013333333","24.994225","6500300","中和區"
"235059","AAC-215","2018/08/25 20:29:46","新北市中和區員山路14-4號","121.484161666667","24.9828383333333","6500300","中和區"
"247024","893-R6","2018/08/25 20:29:30","新北市蘆洲區光復路70巷19號","121.464728333333","25.0852466666667","6501400","蘆洲區"
"247014","546-UM","2018/08/25 20:29:40","新北市蘆洲區中山二路147號","121.471586666667","25.08143","6501400","蘆洲區"
"247022","500-BY","2018/08/25 20:29:46","新北市蘆洲區中正路315號","121.466285","25.088635","6501400","蘆洲區"
"247012","339-TH","2018/08/25 20:29:39","新北市蘆洲區復興路260號","121.48","25.0896616666667","6501400","蘆洲區"
"247004","337-TH","2018/08/25 20:29:30","新北市蘆洲區永康街63巷12號","121.456415","25.0845383333333","6501400","蘆洲區"
"247006","336-TH","2018/08/25 20:29:17","新北市蘆洲區九芎街71巷25號","121.466253333333","25.0779466666667","6501400","蘆洲區"
"247018","057-VK","2018/08/25 20:29:40","新北市蘆洲區民族路327巷13弄2號","121.474981666667","25.0903966666667","6501400","蘆洲區"
"247008","056-VK","2018/08/25 20:29:41","新北市蘆洲區重陽二街7號","121.482965","25.0844933333333","6501400","蘆洲區"
"247016","007-UY","2018/08/25 20:29:46","新北市蘆洲區光華路80號","121.467863333333","25.0826366666667","6501400","蘆洲區"
"247002","002-UY","2018/08/25 20:29:46","新北市蘆洲區長安街361巷35號","121.455726666667","25.087515","6501400","蘆洲區"
"247020","001-UY","2018/08/25 20:29:30","新北市蘆洲區仁愛街122號","121.469473333333","25.09467","6501400","蘆洲區"
"222001","KEA-2212","2018/08/25 20:29:38","新北市深坑區北深路三段325號","121.597521666667","25.0049516666667","6501800","深坑區"
"251009","008-UM","2018/08/25 20:29:41","新北市淡水區中正東路二段163號","121.45962","25.1451383333333","6501000","淡水區"
"251002","012-UM","2018/08/25 20:29:45","新北市淡水區中正路90-3號","121.442423333333","25.1695983333333","6501000","淡水區"
"251013","KEA-2871","2018/08/25 20:29:48","新北市淡水區奎柔山路417號","121.463691666667","25.205015","6501000","淡水區"
"251016","179-VK","2018/08/25 20:29:41","新北市淡水區新埔子11-7號","121.447455","25.2285083333333","6501000","淡水區"
"251014","180-VK","2018/08/25 20:29:39","新北市淡水區石頭厝8-6號","121.459031666667","25.2371366666667","6501000","淡水區"
"251015","181-VK","2018/08/25 20:29:45","新北市淡水區淡金路四段542巷17號","121.452725","25.2270633333333","6501000","淡水區"
"251010","413-VK","2018/08/25 20:29:44","新北市淡水區沙崙路181巷15號","121.423988333333","25.1843516666667","6501000","淡水區"
"251012","441-VK","2018/08/25 20:29:28","新北市淡水區興仁路108號","121.451703333333","25.2181366666667","6501000","淡水區"
"251008","442-VK","2018/08/25 20:29:31","新北市淡水區淡海路204號","121.420286666667","25.1855916666667","6501000","淡水區"
"251001","559-UM","2018/08/25 20:29:43","新北市淡水區水源街二段177巷2弄8號","121.456018333333","25.1768066666667","6501000","淡水區"
"251006","561-UM","2018/08/25 20:29:23","新北市淡水區商工路353號","121.46899","25.1856283333333","6501000","淡水區"
"251007","577-R6","2018/08/25 20:29:32","新北市淡水區崁頂70-2號","121.437061666667","25.2032366666667","6501000","淡水區"
"251003","766-UM","2018/08/25 20:29:31","新北市淡水區新生街108巷2號","121.440121666667","25.174725","6501000","淡水區"
"252002","178-VK","2018/08/25 20:29:29","新北市三芝區淡金路二段47-2號","121.503635","25.2605716666667","6502100","三芝區"
"252001","292-VK","2018/08/25 20:29:29","新北市三芝區中山路一段35號","121.500633333333","25.2579966666667","6502100","三芝區"
"237006","5529-G3","2018/08/25 20:29:39","新北市三峽區嘉添1-3號","121.367691666667","24.9117316666667","6500900","三峽區"
"236014","270-VK","2018/08/25 20:29:44","新北市板橋區四川路二段245巷65號","121.452476666667","24.9920583333333","6501300","土城區"
"242034","AAC-296","2018/08/25 20:29:44","新北市新莊區新泰路199巷5號","121.44662","25.0378766666667","6500500","新莊區"
"242058","986-R7","2018/08/25 20:29:29","新北市新莊區四維路153號","121.422565","25.02207","6500500","新莊區"
"242053","751-BX","2018/08/25 20:29:48","新北市新莊區西盛街362巷14號","121.427286666667","25.0136866666667","6500500","新莊區"
"242027","615-BX","2018/08/25 20:29:26","新北市新莊區思源路309號","121.45994","25.0489833333333","6500500","新莊區"
"242025","613-BX","2018/08/25 20:29:17","新北市新莊區五工三路62巷40號","121.460343333333","25.065745","6500500","新莊區"
"242042","566-BX","2018/08/25 20:29:48","新北市新莊區天祥街54巷3弄6號","121.416868333333","25.0296866666667","6500500","新莊區"
"242021","442-UM","2018/08/25 20:29:36","新北市新莊區公園路10巷2號","121.447788333333","25.03881","6500500","新莊區"
"242051","441-UM","2018/08/25 20:29:43","新北市新莊區民安西路252巷29號","121.425056666667","25.0135666666667","6500500","新莊區"
"242056","440-UM","2018/08/25 20:29:29","新北市新莊區瓊泰路181號","121.443058333333","25.0315916666667","6500500","新莊區"
"242036","415-TV","2018/08/25 20:29:33","新北市新莊區後港一路76巷12弄1號","121.427258333333","25.0258183333333","6500500","新莊區"
"242007","413-TV","2018/08/25 20:29:44","新北市新莊區思源路245號","121.459776666667","25.0470883333333","6500500","新莊區"
"242044","400-BY","2018/08/25 20:29:47","新北市新莊區中正路新建巷1號","121.413876666667","25.0227133333333","6500500","新莊區"
"242023","362-BY","2018/08/25 20:29:43","新北市新莊區化成路556號","121.466216666667","25.0538116666667","6500500","新莊區"
"242061","353-BY","2018/08/25 20:29:43","新北市新莊區民全街2號","121.429","25.021085","6500500","新莊區"
"242009","132-UY","2018/08/25 20:29:31","新北市新莊區昌隆街76號","121.455508333333","25.0507266666667","6500500","新莊區"
"242039","133-UY","2018/08/25 20:29:30","新北市新莊區成功街41號","121.42536","25.02093","6500500","新莊區"
"242031","135-UY","2018/08/25 20:29:41","新北市新莊區三和路58號","121.437263333333","25.0385516666667","6500500","新莊區"
"242048","172-VK","2018/08/25 20:29:41","新北市新莊區龍安路256號","121.421328333333","25.0194833333333","6500500","新莊區"
"242017","175-VK","2018/08/25 20:29:40","新北市新莊區中港二街45號","121.450515","25.04589","6500500","新莊區"
"242004","176-VK","2018/08/25 20:29:39","新北市新莊區化成路403巷31號","121.46359","25.0586283333333","6500500","新莊區"
"242015","346-TH","2018/08/25 20:29:35","新北市新莊區中平路78號","121.444803333333","25.0446","6500500","新莊區"
"242002","349-TH","2018/08/25 20:29:44","新北市新莊區中正路80號","121.457681666667","25.03733","6500500","新莊區"
"242019","350-TH","2018/08/25 20:29:45","新北市新莊區復興路二段196巷5號","121.459416666667","25.04376","6500500","新莊區"
"221008","489-VK","2018/08/25 20:29:43","新北市汐止區康寧街706號","121.637916666667","25.0725783333333","6501100","汐止區"
"221036","130-UY","2018/08/25 20:29:38","新北市汐止區新台五路二段138號","121.663888333333","25.0665483333333","6501100","汐止區"
"221015","131-UY","2018/08/25 20:29:37","新北市汐止區建成路160巷8號","121.661803333333","25.07366","6501100","汐止區"
"221010","269-BY","2018/08/25 20:29:47","新北市汐止區八連路二段337巷3號","121.62966","25.101235","6501100","汐止區"
"221012","278-VK","2018/08/25 20:29:31","新北市汐止區大同路三段279號","121.674181666667","25.075045","6501100","汐止區"
"221023","279-VK","2018/08/25 20:29:28","新北市汐止區湖東街62號","121.634843333333","25.0728783333333","6501100","汐止區"
"221032","280-BY","2018/08/25 20:29:40","新北市汐止區弘道街53巷19弄2號","121.618676666667","25.0495083333333","6501100","汐止區"
"221027","281-BY","2018/08/25 20:29:43","新北市汐止區中正路201號","121.65852","25.06893","6501100","汐止區"
"221029","298-VK","2018/08/25 20:29:40","新北市汐止區工建路129巷34弄21號","121.640548333333","25.065315","6501100","汐止區"
"221021","299-VK","2018/08/25 20:29:49","新北市汐止區水源路一段284號","121.654166666667","25.0582616666667","6501100","汐止區"
"221031","353-TW","2018/08/25 20:29:40","新北市汐止區中興路110巷32號","121.634315","25.0645883333333","6501100","汐止區"
"221002","129-UY","2018/08/25 20:29:42","新北市汐止區福德一路8號","121.638961666667","25.06971","6501100","汐止區"
"221035","622-UM","2018/08/25 20:29:32","新北市汐止區長江街101-5號","121.658656666667","25.0732183333333","6501100","汐止區"
"221025","623-UM","2018/08/25 20:29:39","新北市汐止區水源路二段88巷1弄1號","121.656373333333","25.0558466666667","6501100","汐止區"
"221038","646-BX","2018/08/25 20:29:36","新北市汐止區水源路一段56號","121.657523333333","25.0654833333333","6501100","汐止區"
"221033","647-BX","2018/08/25 20:29:37","新北市汐止區林森街72號","121.62315","25.040725","6501100","汐止區"
"221018","753-BX","2018/08/25 20:29:29","新北市汐止區茄苳路225巷11弄1號","121.671405","25.069215","6501100","汐止區"
"220083","286-VK","2018/08/25 20:29:48","新北市板橋區僑中二街102巷34號","121.444838333333","25.0084833333333","6500100","板橋區"
"220061","295-UM","2018/08/25 20:29:40","新北市板橋區四川路一段320號","121.458188333333","25.000165","6500100","板橋區"
"242013","281-VK","2018/08/25 20:29:43","新北市新莊區中榮街83號","121.445433333333","25.0526583333333","6500500","新莊區"
"242011","280-VK","2018/08/25 20:29:34","新北市新莊區中義街17號","121.450888333333","25.0510766666667","6500500","新莊區"
"220103","561-BX","2018/08/25 20:29:37","新北市板橋區漢生東路23巷46號","121.465926666667","25.0180483333333","6500100","板橋區"
"220102","KEA-2699","2018/08/25 20:29:46","新北市板橋區民生路二段249-1號","121.468418333333","25.0220683333333","6500100","板橋區"
"220089","833-TW","2018/08/25 20:29:36","新北市板橋區四維路324號","121.462241666667","25.0301716666667","6500100","板橋區"
"220070","AAC-253","2018/08/25 20:29:45","新北市新莊區瓊泰路63巷23弄9號","121.44249","25.0278883333333","6500100","板橋區"
"235061","KEA-2875","2018/08/25 20:29:38","新北市樹林區八德街862-1號","121.391658333333","24.968285","6500300","中和區"
