"lineid","car","time","location","longitude","latitude","cityid","cityname"
"248005","653-BX","2018/08/31 07:57:55","新北市五股區明德路12巷6號","121.433353333333","25.071855","6501500","五股區"
"232008","758-BX","2018/08/31 07:58:01","新北市坪林區魚堀1-12號","121.715333333333","24.8938133333333","6502000","坪林區"
"244004","248-BX","2018/08/31 07:58:04","新北市林口區下福里16號","121.311768333333","25.1112516666667","6501700","林口區"
"222005","289-BY","2018/08/31 07:58:06","新北市深坑區文化街45號","121.616931666667","25.001745","6501800","深坑區"
"231007","189-VK","2018/08/31 07:57:55","新北市新店區華城路18-1號","121.528978333333","24.9572033333333","6500600","新店區"
"231009","192-VK","2018/08/31 07:58:07","新北市新店區安一路一段1-1號","121.51934","24.96129","6500600","新店區"
"235001","611-BX","2018/08/31 07:58:04","新北市中和區圓通路367巷6號","121.491461666667","24.9892333333333","6500300","中和區"
"226005","4501-MT","2018/08/31 07:57:56","新北市平溪區石底里公園街18-3號","121.733535","25.025675","6502400","平溪區"
"226001","7418-A5","2018/08/31 07:58:08","新北市平溪區南山里乾坑11號","121.782718333333","25.0472033333333","6502400","平溪區"
"226006","AGD-0702","2018/08/31 07:58:12","新北市平溪區十分里十分街45號","121.774503333333","25.0408066666667","6502400","平溪區"
"223006","022-BY","2018/08/31 07:58:08","新北市坪林區鶯子瀨12-1號","121.712128333333","24.9148766666667","6501900","石碇區"
"223002","KEA-2673","2018/08/31 07:47:02","新北市石碇區大格門3號","121.667918333333","24.9558716666667","6501900","石碇區"
"223003","205-TH","2018/08/31 07:48:15","新北市石碇區樟空子10-6號","121.666405","24.963995","6501900","石碇區"
"223001","592-UM","2018/08/31 07:58:07","新北市石碇區橫坪1號","121.66898","24.96698","6501900","石碇區"
"223004","660-BX","2018/08/31 07:58:07","新北市石碇區外按16-1號","121.650626666667","24.9977983333333","6501900","石碇區"
"223007","661-BX","2018/08/31 07:42:49","新北市石碇區靜安路一段337號","121.698973333333","25.0145533333333","6501900","石碇區"
"223005","677-TV","2018/08/31 07:58:03","新北市石碇區靜安路一段108號","121.648843333333","25.0092616666667","6501900","石碇區"
"227005","282-VK","2018/08/31 07:58:01","新北市雙溪區平林里梅竹蹊16號","121.862011666667","25.035945","6502500","雙溪區"
"252003","249-BX","2018/08/31 07:58:06","新北市三芝區中正路三段3號","121.50298","25.25433","6502100","三芝區"
"237001","159-UY","2018/08/31 07:57:56","新北市三峽區大學路45-1號","121.376938333333","24.9406283333333","6500900","三峽區"
"236010","165-UM","2018/08/31 07:57:58","新北市土城區永豐路222-2號","121.467108333333","24.9821016666667","6501300","土城區"
"236004","339-SR","2018/08/31 07:57:56","新北市土城區龍泉路43號","121.417306666667","24.9432983333333","6501300","土城區"
"236006","498-BY","2018/08/31 07:57:55","新北市土城區永平街51號","121.427646666667","24.9592383333333","6501300","土城區"
