"lineid","car","time","location","longitude","latitude","cityid","cityname"
"248005","653-BX","2018/08/31 09:48:40","新北市五股區成泰路一段105號","121.4358","25.0712333333333","6501500","五股區"
"231007","189-VK","2018/08/31 09:48:35","新北市新店區新潭路三段215巷25號","121.50814","24.9040183333333","6500600","新店區"
"231009","192-VK","2018/08/31 09:32:47","新北市新店區平廣路一段256號","121.507801666667","24.8882683333333","6500600","新店區"
"223003","205-TH","2018/08/31 09:48:41","新北市石碇區靜安路一段102號","121.648536666667","25.0096333333333","6501900","石碇區"
"223008","406-TH","2018/08/31 09:48:36","新北市石碇區小粗坑(潭邊里)9-2號","121.67904","24.9861","6501900","石碇區"
"227005","282-VK","2018/08/31 09:43:40","新北市雙溪區泰平里溪尾寮13號","121.820731666667","24.9608266666667","6502500","雙溪區"
"237001","159-UY","2018/08/31 09:48:36","新北市三峽區學府路12號","121.371998333333","24.9472166666667","6500900","三峽區"
"236006","498-BY","2018/08/31 09:48:35","新北市土城區中央路二段396巷4號","121.439241666667","24.9708433333333","6501300","土城區"
