"lineid","car","time","location","longitude","latitude","cityid","cityname"
"248005","653-BX","2018/08/31 10:08:00","新北市五股區成泰路一段106-1號","121.435678333333","25.0719383333333","6501500","五股區"
"231007","189-VK","2018/08/31 10:07:55","新北市新店區新潭路三段215巷25號","121.508176666667","24.9040216666667","6500600","新店區"
"231009","192-VK","2018/08/31 10:08:10","新北市新店區小坑一路12號","121.534458333333","24.9126083333333","6500600","新店區"
"223003","205-TH","2018/08/31 10:08:01","新北市石碇區碇坪路一段121號","121.664703333333","24.9876133333333","6501900","石碇區"
"227005","282-VK","2018/08/31 10:08:00","新北市雙溪區泰平里灣潭路36號","121.811275","24.9288466666667","6502500","雙溪區"
"237001","159-UY","2018/08/31 10:07:56","新北市三峽區大德路208號","121.375553333333","24.9460366666667","6500900","三峽區"
