"lineid","car","time","location","longitude","latitude","cityid","cityname"
"234044","148-BY","2018/08/31 13:08:28","新北市永和區永元路18巷38弄1號","121.52407","25.0002183333333","6500400","永和區"
"234005","207-UY","2018/08/31 13:08:34","新北市永和區中山路一段175-1號","121.509551666667","25.0091066666667","6500400","永和區"
"234078","298-R6","2018/08/31 13:08:32","新北市永和區福和路57巷14弄1號","121.522781666667","25.0069683333333","6500400","永和區"
"234036","336-UY","2018/08/31 13:08:42","新北市永和區民樂街69巷3號","121.527475","24.99776","6500400","永和區"
"234062","337-UY","2018/08/31 13:08:46","新北市永和區秀朗路二段48號","121.521608333333","25.00221","6500400","永和區"
"234068","552-UM","2018/08/31 13:08:49","新北市永和區豫溪街137巷1弄22號","121.518498333333","25.010445","6500400","永和區"
"234015","745-BX","2018/08/31 13:08:42","新北市永和區文化路90巷15弄1號","121.513741666667","25.0159266666667","6500400","永和區"
"234028","746-BX","2018/08/31 13:08:36","新北市永和區四維街56號","121.524696666667","24.99821","6500400","永和區"
"234052","KEA-2590","2018/08/31 13:08:49","新北市永和區中興街133巷16號","121.518295","25.01263","6500400","永和區"
"234060","AAD-866","2018/08/31 13:08:40","新北市永和區安樂路348號","121.514498333333","25.006475","6500400","永和區"
"234084","748-BX","2018/08/31 13:08:30","新北市永和區永貞路67號","121.519073333333","25.0043566666667","6500400","永和區"
"234012","847-RS","2018/08/31 13:08:31","新北市永和區中山路一段51號","121.51284","25.01061","6500400","永和區"
"234040","862-TW","2018/08/31 13:08:39","新北市永和區永和路一段49巷3弄81號","121.511943333333","25.006145","6500400","永和區"
"234048","863-TW","2018/08/31 13:08:42","新北市永和區文化路135巷32弄1號","121.510931666667","25.0140333333333","6500400","永和區"
"234025","9371-KE","2018/08/31 13:08:34","新北市永和區自由街33號","121.514336666667","25.00633","6500400","永和區"
"234010","9373-KE","2018/08/31 13:08:44","新北市永和區仁愛路31巷2弄5號","121.513863333333","25.0129166666667","6500400","永和區"
"248019","225-UY","2018/08/31 13:08:40","新北市蘆洲區永平街32巷33弄27-3號","121.454943333333","25.0945183333333","6501500","五股區"
"234022","9380-KE","2018/08/31 13:08:31","新北市永和區中興街10巷29號","121.516503333333","25.0109833333333","6500400","永和區"
"234076","969-R7","2018/08/31 13:08:47","新北市永和區民光街2號","121.515225","24.996345","6500400","永和區"
"234072","AAC-211","2018/08/31 13:08:42","新北市永和區竹林路198號","121.520506666667","25.009555","6500400","永和區"
"234066","AAC-212","2018/08/31 13:08:39","新北市永和區永和路一段63號","121.512965","25.0068116666667","6500400","永和區"
"234001","AAC-295","2018/08/31 13:08:44","新北市永和區中山路一段68號","121.51255","25.0107383333333","6500400","永和區"
"244004","248-BX","2018/08/31 13:08:38","新北市林口區頭湖74-9號","121.369308333333","25.0884133333333","6501700","林口區"
"231002","002-UM","2018/08/31 13:08:43","新北市新店區安華路28-1號","121.519766666667","24.960715","6500600","新店區"
"231028","046-UY","2018/08/31 13:08:44","新北市新店區安華路28-1號","121.519608333333","24.960955","6500600","新店區"
"231001","047-UY","2018/08/31 13:08:45","新北市新店區安華路28-1號","121.519101666667","24.9608483333333","6500600","新店區"
"231010","107-UY","2018/08/31 13:08:43","新北市新店區安一路一段1-1號","121.519256666667","24.9614516666667","6500600","新店區"
"231022","108-UY","2018/08/31 13:08:33","新北市新店區安一路一段1-1號","121.519795","24.9614433333333","6500600","新店區"
"231035","110-UY","2018/08/31 13:08:36","新北市新店區安一路一段1-1號","121.519296666667","24.9612683333333","6500600","新店區"
"231012","187-VK","2018/08/31 13:08:39","新北市新店區安一路一段1-1號","121.51957","24.9612083333333","6500600","新店區"
"231026","256-BX","2018/08/31 13:08:39","新北市新店區安一路一段1-1號","121.519685","24.96112","6500600","新店區"
"231003","268-BY","2018/08/31 13:08:34","新北市新店區安華路1-1號","121.51934","24.9604866666667","6500600","新店區"
"231018","278-BY","2018/08/31 13:08:32","新北市新店區安一路一段1-1號","121.519753333333","24.9611616666667","6500600","新店區"
"231016","AAD-862","2018/08/31 13:08:46","新北市新店區安一路一段1-1號","121.519805","24.9613533333333","6500600","新店區"
"231005","355-BY","2018/08/31 13:08:38","新北市新店區安華路28-1號","121.519088333333","24.9609516666667","6500600","新店區"
"231037","4716-K9","2018/08/31 13:08:32","新北市新店區安華路28-1號","121.519648333333","24.96095","6500600","新店區"
"231025","4715-K9","2018/08/31 13:08:48","新北市新店區安華路28-1號","121.519296666667","24.96059","6500600","新店區"
"231013","513-UM","2018/08/31 13:08:40","新北市新店區安一路一段1-1號","121.519626666667","24.9611466666667","6500600","新店區"
"231030","619-UM","2018/08/31 13:08:36","新北市新店區安華路28-1號","121.519521666667","24.9607416666667","6500600","新店區"
"231034","641-BX","2018/08/31 13:08:47","新北市新店區安華路1-1號","121.51966","24.960375","6500600","新店區"
"231032","720-UM","2018/08/31 13:08:36","新北市新店區安一路一段1-1號","121.519236666667","24.961075","6500600","新店區"
"231029","897-TW","2018/08/31 13:08:42","新北市新店區安華路28-1號","121.519541666667","24.9606116666667","6500600","新店區"
"231024","AKT-0513","2018/08/31 13:08:38","新北市新店區安華路28-1號","121.51937","24.9606916666667","6500600","新店區"
"235030","003-UY","2018/08/31 13:08:45","新北市中和區泰和街2號","121.500065","25.001445","6500300","中和區"
"235028","005-UY","2018/08/31 13:08:35","新北市中和區中正路215號","121.496773333333","24.9937066666667","6500300","中和區"
"235027","006-UY","2018/08/31 13:08:46","新北市中和區員山路36巷16-3號","121.484981666667","24.9914133333333","6500300","中和區"
"235003","097-UM","2018/08/31 13:08:32","新北市中和區錦和路350-1號","121.490481666667","24.9935683333333","6500300","中和區"
"235029","098-UM","2018/08/31 13:08:31","新北市中和區莊敬路49巷20弄22號","121.5027","25.0057666666667","6500300","中和區"
"235004","150-BY","2018/08/31 13:08:40","新北市中和區中正路637巷60弄61號","121.48544","24.9933066666667","6500300","中和區"
"235022","151-BY","2018/08/31 13:08:32","新北市中和區圓通路367巷57弄1號","121.492203333333","24.9837383333333","6500300","中和區"
"235002","185-VK","2018/08/31 13:08:46","新北市中和區立人街12-1號","121.519423333333","24.994195","6500300","中和區"
"235031","255-BX","2018/08/31 13:08:36","新北市中和區新生街187號","121.483788333333","25.000385","6500300","中和區"
"235006","KEA-2878","2018/08/31 13:08:42","新北市中和區中正路65巷2弄2號","121.501275","24.99315","6500300","中和區"
"235034","558-UM","2018/08/31 13:08:41","新北市中和區圓通路208號","121.49603","24.9940366666667","6500300","中和區"
"235009","565-BX","2018/08/31 13:08:42","新北市中和區員山路36巷13號","121.484216666667","24.990935","6500300","中和區"
"235018","640-BX","2018/08/31 13:08:35","新北市土城區金城路三段289-1號","121.473815","24.9907933333333","6500300","中和區"
"235011","732-UM","2018/08/31 13:08:37","新北市中和區中正路637巷52弄1號","121.485488333333","24.9935466666667","6500300","中和區"
"235035","783-BX","2018/08/31 13:08:29","新北市中和區板南路492-5號","121.485828333333","25.0074533333333","6500300","中和區"
"235026","800-TS","2018/08/31 13:08:45","新北市中和區錦和路53號","121.488621666667","24.99938","6500300","中和區"
"235021","801-TS","2018/08/31 13:08:35","新北市中和區員山路36巷16-3號","121.484851666667","24.9917033333333","6500300","中和區"
"235005","802-TS","2018/08/31 13:08:45","新北市中和區中正路589巷15號","121.48575","24.9934966666667","6500300","中和區"
"235016","805-TS","2018/08/31 13:08:43","新北市中和區中正路637巷52弄1號","121.48544","24.9935366666667","6500300","中和區"
"235017","900-TW","2018/08/31 13:08:36","新北市中和區員山路36巷16-3號","121.48491","24.9917833333333","6500300","中和區"
"235015","157-BY","2018/08/31 13:08:34","新北市中和區中正路131號","121.499716666667","24.993515","6500300","中和區"
"235001","AAC-213","2018/08/31 13:08:33","新北市中和區景平路149號","121.513926666667","24.9921566666667","6500300","中和區"
"247007","056-VK","2018/08/31 13:08:35","新北市五股區中興路三段2巷10號","121.449105","25.0810366666667","6501400","蘆洲區"
"207002","749-BX","2018/08/31 13:08:40","新北市萬里區崁腳里內崁路4號","121.643791666667","25.1594133333333","6502800","萬里區"
"207001","662-BX","2018/08/31 13:08:39","新北市萬里區萬里里瑪鋉下街2號","121.691113333333","25.178205","6502800","萬里區"
"237001","159-UY","2018/08/31 13:08:36","新北市三峽區復興路553號","121.356758333333","24.9402883333333","6500900","三峽區"
"236006","498-BY","2018/08/31 13:08:38","新北市土城區亞洲路58巷3弄6號","121.434696666667","24.9736333333333","6501300","土城區"
"221002","269-BY","2018/08/31 13:08:36","新北市汐止區忠三街8號","121.624733333333","25.0784183333333","6501100","汐止區"
"221032","280-BY","2018/08/31 13:08:31","新北市汐止區連興街69號","121.65439","25.0630633333333","6501100","汐止區"
"220009","295-UM","2018/08/31 13:08:43","新北市板橋區民生路二段120號","121.470511666667","25.0194483333333","6500100","板橋區"
"235032","KEA-2873","2018/08/31 13:08:33","新北市中和區員山路36巷16-3號","121.48493","24.99135","6500300","中和區"
"235025","KEA-2875","2018/08/31 13:08:28","新北市中和區員山路36巷16-2號","121.485093333333","24.9917716666667","6500300","中和區"
