"lineid","car","time","location","longitude","latitude","cityid","cityname"
"234044","148-BY","2018/08/31 13:28:48","新北市永和區秀朗路二段243號","121.52629","24.9996733333333","6500400","永和區"
"234005","207-UY","2018/08/31 13:28:34","新北市永和區中山路一段220號","121.50819","25.0083466666667","6500400","永和區"
"234078","298-R6","2018/08/31 13:28:52","新北市永和區環河東路三段56號","121.52692","25.0061583333333","6500400","永和區"
"234036","336-UY","2018/08/31 13:28:42","新北市永和區成功路二段1巷9號","121.527358333333","25.0015066666667","6500400","永和區"
"234062","337-UY","2018/08/31 13:28:46","新北市永和區中正路428巷30弄61號","121.519893333333","25.0012933333333","6500400","永和區"
"234068","552-UM","2018/08/31 13:28:50","新北市永和區竹林路182號","121.52034","25.0096766666667","6500400","永和區"
"234015","745-BX","2018/08/31 13:28:42","新北市永和區永和路二段425巷31號","121.514518333333","25.01761","6500400","永和區"
"234028","746-BX","2018/08/31 13:28:31","新北市永和區民生路51號","121.52273","24.997725","6500400","永和區"
"234052","KEA-2590","2018/08/31 13:28:32","新北市永和區復興街19巷4號","121.516203333333","25.0131416666667","6500400","永和區"
"234060","AAD-866","2018/08/31 13:28:44","新北市永和區中正路399號","121.517096666667","25.004195","6500400","永和區"
"234084","748-BX","2018/08/31 13:28:50","新北市永和區林森路31-1號","121.525966666667","25.0050566666667","6500400","永和區"
"234012","847-RS","2018/08/31 13:28:32","新北市永和區永貞路424號","121.508178333333","25.00866","6500400","永和區"
"234040","862-TW","2018/08/31 13:28:48","新北市永和區中和路525號","121.511198333333","25.0027933333333","6500400","永和區"
"234048","863-TW","2018/08/31 13:28:42","新北市永和區保福路二段128號","121.5098","25.014145","6500400","永和區"
"234025","9371-KE","2018/08/31 13:28:34","新北市永和區中山路一段9號","121.51393","25.0104133333333","6500400","永和區"
"234010","9373-KE","2018/08/31 13:28:44","新北市永和區中山路一段62號","121.512895","25.0107783333333","6500400","永和區"
"248019","225-UY","2018/08/31 13:28:40","新北市五股區孝義路55巷1號","121.453471666667","25.1120316666667","6501500","五股區"
"234022","9380-KE","2018/08/31 13:28:32","新北市永和區竹林路91巷55弄1號","121.521928333333","25.013745","6500400","永和區"
"234076","969-R7","2018/08/31 13:28:41","新北市永和區智光街32巷1號","121.517823333333","24.9987633333333","6500400","永和區"
"234072","AAC-211","2018/08/31 13:28:42","新北市永和區環河東路一段76號","121.519363333333","25.0166483333333","6500400","永和區"
"234066","AAC-212","2018/08/31 13:28:40","新北市永和區永貞路378巷2弄2號","121.510043333333","25.0070866666667","6500400","永和區"
"234001","AAC-295","2018/08/31 13:28:44","新北市永和區永和路一段116號","121.513671666667","25.0074933333333","6500400","永和區"
"244004","248-BX","2018/08/31 13:28:38","新北市林口區頂福里9號","121.357605","25.0802483333333","6501700","林口區"
"231002","002-UM","2018/08/31 13:28:43","新北市新店區環河路62號","121.537063333333","24.9626466666667","6500600","新店區"
"231028","046-UY","2018/08/31 13:28:44","新北市新店區安華路28-1號","121.519663333333","24.9609133333333","6500600","新店區"
"231001","047-UY","2018/08/31 13:28:45","新北市新店區安華路28-1號","121.519048333333","24.9608883333333","6500600","新店區"
"231010","107-UY","2018/08/31 13:28:43","新北市新店區中央路81號","121.532336666667","24.976695","6500600","新店區"
"231022","108-UY","2018/08/31 13:28:33","新北市新店區北宜路一段260號","121.545811666667","24.9527583333333","6500600","新店區"
"231035","110-UY","2018/08/31 13:28:36","新北市新店區安一路一段1-1號","121.519738333333","24.96113","6500600","新店區"
"231012","187-VK","2018/08/31 13:28:39","新北市新店區光明街298號","121.54044","24.9647683333333","6500600","新店區"
"231023","KEA-2219","2018/08/31 13:28:44","新北市新店區新店路13號","121.540331666667","24.9528283333333","6500600","新店區"
"231026","256-BX","2018/08/31 13:28:39","新北市新店區安康路一段164-1號","121.52589","24.96308","6500600","新店區"
"231003","268-BY","2018/08/31 13:28:34","新北市新店區安康路一段164號","121.526078333333","24.9630033333333","6500600","新店區"
"231018","278-BY","2018/08/31 13:28:32","新北市新店區中央路93號","121.531621666667","24.9756183333333","6500600","新店區"
"231016","AAD-862","2018/08/31 13:28:46","新北市新店區北宜路二段30巷5弄5號","121.54842","24.9507433333333","6500600","新店區"
"231005","355-BY","2018/08/31 13:28:38","新北市新店區安康路一段164-1號","121.525955","24.963","6500600","新店區"
"231038","3712-VJ","2018/08/31 13:28:45","新北市新店區安華路3號","121.519155","24.9600783333333","6500600","新店區"
"231027","3713-VJ","2018/08/31 13:28:45","新北市新店區環河路19巷24號","121.537496666667","24.9601433333333","6500600","新店區"
"231037","4716-K9","2018/08/31 13:28:31","新北市新店區車子路10-4號","121.504808333333","24.9545483333333","6500600","新店區"
"231025","4715-K9","2018/08/31 13:28:48","新北市新店區中央六街56號","121.527883333333","24.9757116666667","6500600","新店區"
"231036","512-UM","2018/08/31 13:28:48","新北市新店區建業路15號","121.482505","24.9526533333333","6500600","新店區"
"231013","513-UM","2018/08/31 13:28:40","新北市新店區安一路一段1-1號","121.519803333333","24.962215","6500600","新店區"
"231006","617-UM","2018/08/31 13:28:30","新北市新店區安康路一段222-2號","121.52304","24.9636433333333","6500600","新店區"
"231030","619-UM","2018/08/31 13:28:36","新北市新店區安華路28-1號","121.519476666667","24.9607316666667","6500600","新店區"
"231034","641-BX","2018/08/31 13:28:47","新北市新店區安華路1-1號","121.519643333333","24.9604183333333","6500600","新店區"
"231032","720-UM","2018/08/31 13:28:36","新北市新店區車子路15號","121.50389","24.9545116666667","6500600","新店區"
"231029","897-TW","2018/08/31 13:28:42","新北市新店區安華路28-1號","121.519688333333","24.96051","6500600","新店區"
"231004","899-TW","2018/08/31 13:28:39","新北市新店區安康路一段355號","121.520061666667","24.9637916666667","6500600","新店區"
"231024","AKT-0513","2018/08/31 13:28:38","新北市新店區北新路二段29巷1弄20號","121.54199","24.9722616666667","6500600","新店區"
"235030","003-UY","2018/08/31 13:28:45","新北市中和區中山路二段120號","121.502676666667","25.0037783333333","6500300","中和區"
"235028","005-UY","2018/08/31 13:28:35","新北市中和區連城路139巷67號","121.49701","24.9970383333333","6500300","中和區"
"235027","006-UY","2018/08/31 13:28:46","新北市中和區連城路347巷16號","121.48838","24.99514","6500300","中和區"
"235020","096-UM","2018/08/31 13:28:35","新北市中和區新生街6號","121.483108333333","25.0046133333333","6500300","中和區"
"235003","097-UM","2018/08/31 13:28:49","新北市中和區大勇街25巷2號","121.517231666667","24.9933566666667","6500300","中和區"
"235029","098-UM","2018/08/31 13:28:51","新北市中和區莊敬路49巷18號","121.501628333333","25.0060266666667","6500300","中和區"
"235004","150-BY","2018/08/31 13:28:40","新北市中和區安平路59號","121.50951","24.9951416666667","6500300","中和區"
"235022","151-BY","2018/08/31 13:28:52","新北市中和區圓通路369巷72號","121.490166666667","24.9822166666667","6500300","中和區"
"235019","183-VK","2018/08/31 13:28:37","新北市中和區民享街245號","121.472065","24.9961966666667","6500300","中和區"
"235002","185-VK","2018/08/31 13:28:46","新北市中和區秀朗路三段128巷17弄41號","121.522935","24.99322","6500300","中和區"
"235013","186-VK","2018/08/31 13:28:36","新北市中和區景平路349號","121.505068333333","24.9935116666667","6500300","中和區"
"235031","255-BX","2018/08/31 13:28:37","新北市中和區新生街220巷13號","121.482966666667","24.9983866666667","6500300","中和區"
"235036","301-VK","2018/08/31 13:28:33","新北市中和區錦和路91-1號","121.490006666667","24.9957033333333","6500300","中和區"
"235007","352-BY","2018/08/31 13:28:47","新北市中和區景平路329巷2弄12號","121.505365","24.9931","6500300","中和區"
"235006","KEA-2878","2018/08/31 13:28:42","新北市中和區景平路64巷11號","121.522193333333","24.9912633333333","6500300","中和區"
"235014","4979-A6","2018/08/31 13:28:39","新北市中和區興南路一段71號","121.51021","24.9893116666667","6500300","中和區"
"235033","4980-A6","2018/08/31 13:28:39","新北市中和區連城路127巷9號","121.496516666667","24.9987716666667","6500300","中和區"
"235034","558-UM","2018/08/31 13:28:41","新北市中和區南華路65號","121.504608333333","24.997215","6500300","中和區"
"235009","565-BX","2018/08/31 13:28:42","新北市中和區南山路236巷22弄23號","121.504941666667","24.9892716666667","6500300","中和區"
"235018","640-BX","2018/08/31 13:28:35","新北市中和區民享街82號","121.47432","25.00138","6500300","中和區"
"235024","647-TV","2018/08/31 13:28:38","新北市中和區員山路325-4號","121.481126666667","25.000855","6500300","中和區"
"235011","732-UM","2018/08/31 13:28:37","新北市中和區板南路220號","121.497886666667","24.9941216666667","6500300","中和區"
"235035","783-BX","2018/08/31 13:28:49","新北市中和區中板路50號","121.482355","25.01225","6500300","中和區"
"235026","800-TS","2018/08/31 13:28:45","新北市中和區景平路754號","121.496465","25.004565","6500300","中和區"
"235021","801-TS","2018/08/31 13:28:35","新北市中和區民享街97巷11號","121.475316666667","24.9995416666667","6500300","中和區"
"235005","802-TS","2018/08/31 13:28:45","新北市中和區中和路324巷3弄2號","121.51002","25.0008066666667","6500300","中和區"
"235016","805-TS","2018/08/31 13:28:43","新北市中和區興南路二段96號","121.50519","24.9842316666667","6500300","中和區"
"235012","896-TW","2018/08/31 13:28:37","新北市中和區員山路36巷16-2號","121.485205","24.9917366666667","6500300","中和區"
"235017","900-TW","2018/08/31 13:28:36","新北市中和區民享街469-1號","121.469828333333","24.9922516666667","6500300","中和區"
"235015","157-BY","2018/08/31 13:28:37","新北市中和區興南路二段128巷7弄6號","121.503131666667","24.9840116666667","6500300","中和區"
"235001","AAC-213","2018/08/31 13:28:33","新北市中和區景德街95號","121.515788333333","24.991325","6500300","中和區"
"235023","AAC-215","2018/08/31 13:28:46","新北市中和區員山路36巷16-3號","121.484986666667","24.9913","6500300","中和區"
"220013","072-UY","2018/08/31 13:28:32","新北市板橋區南雅南路二段122-15號","121.452485","24.99769","6500100","板橋區"
"247005","336-TH","2018/08/31 13:28:40","新北市五股區中興路三段163號","121.449335","25.0807183333333","6501400","蘆洲區"
"247007","056-VK","2018/08/31 13:28:35","新北市五股區工商路8號","121.440715","25.0829433333333","6501400","蘆洲區"
"207002","749-BX","2018/08/31 13:28:40","新北市萬里區崁腳里崁腳路166號","121.645043333333","25.1558383333333","6502800","萬里區"
"207001","662-BX","2018/08/31 13:28:38","新北市萬里區野柳里八斗60-1號","121.672121666667","25.2012216666667","6502800","萬里區"
"236006","498-BY","2018/08/31 13:28:38","新北市土城區亞洲路11巷3弄10號","121.435441666667","24.97125","6501300","土城區"
"221002","269-BY","2018/08/31 13:28:36","新北市汐止區長青路12號","121.609728333333","25.1066683333333","6501100","汐止區"
"221032","280-BY","2018/08/31 13:28:31","新北市汐止區水源路一段56號","121.657441666667","25.06546","6501100","汐止區"
"220009","295-UM","2018/08/31 13:28:43","新北市板橋區民生路二段120號","121.470493333333","25.0195883333333","6500100","板橋區"
"220010","299-UM","2018/08/31 13:28:34","新北市板橋區民生路二段120號","121.47034","25.0197166666667","6500100","板橋區"
"220012","486-VK","2018/08/31 13:28:44","新北市板橋區縣民大道二段68-1號","121.4634","25.01289","6500100","板橋區"
"220104","560-BX","2018/08/31 13:28:37","新北市板橋區南雅東路89號","121.453265","25.0084216666667","6500100","板橋區"
"220025","687-BX","2018/08/31 13:28:48","新北市板橋區篤行路一段18號","121.43208","24.9949916666667","6500100","板橋區"
"220021","985-R7","2018/08/31 13:28:35","新北市板橋區華東街1-10號","121.448296666667","24.9949116666667","6500100","板橋區"
"235032","KEA-2873","2018/08/31 13:28:33","新北市中和區圓通路269號","121.495753333333","24.9931216666667","6500300","中和區"
"235025","KEA-2875","2018/08/31 13:28:34","新北市中和區民享街95-5號","121.475103333333","24.9999966666667","6500300","中和區"
