"lineid","car","time","location","longitude","latitude","cityid","cityname"
"234044","148-BY","2018/08/31 13:38:08","新北市永和區永亨路148號","121.525313333333","25.00395","6500400","永和區"
"234005","207-UY","2018/08/31 13:38:14","新北市永和區永和路二段37號","121.514451666667","25.01058","6500400","永和區"
"234078","298-R6","2018/08/31 13:38:13","新北市永和區國中路104巷8弄16號","121.525188333333","25.006445","6500400","永和區"
"234036","336-UY","2018/08/31 13:38:02","新北市永和區民樂街31巷10弄2號","121.528173333333","25.0007383333333","6500400","永和區"
"234062","337-UY","2018/08/31 13:38:06","新北市永和區中正路412巷20弄7號","121.518566666667","25.00199","6500400","永和區"
"234068","552-UM","2018/08/31 13:38:10","新北市永和區永和路二段237-1號","121.515636666667","25.0144383333333","6500400","永和區"
"234015","745-BX","2018/08/31 13:38:16","新北市永和區忠孝街26巷8號","121.515408333333","25.0167316666667","6500400","永和區"
"234028","746-BX","2018/08/31 13:38:10","新北市永和區民權路23號","121.52025","24.9977966666667","6500400","永和區"
"234052","KEA-2590","2018/08/31 13:38:17","新北市永和區竹林路39巷21號","121.518898333333","25.0148116666667","6500400","永和區"
"234060","AAD-866","2018/08/31 13:38:20","新北市永和區中正路470號","121.517411666667","25.003025","6500400","永和區"
"234084","748-BX","2018/08/31 13:38:10","新北市永和區永亨路132號","121.524688333333","25.0039666666667","6500400","永和區"
"234012","847-RS","2018/08/31 13:38:11","新北市永和區仁愛路243巷8號","121.509503333333","25.0118","6500400","永和區"
"234040","862-TW","2018/08/31 13:38:08","新北市永和區中和路525號","121.511388333333","25.0029833333333","6500400","永和區"
"234048","863-TW","2018/08/31 13:37:42","新北市永和區保安路18號","121.510623333333","25.017275","6500400","永和區"
"234025","9371-KE","2018/08/31 13:38:14","新北市永和區自由街56號","121.51373","25.0059433333333","6500400","永和區"
"234010","9373-KE","2018/08/31 13:38:04","新北市永和區保福路二段9巷9號","121.510555","25.0108833333333","6500400","永和區"
"248019","225-UY","2018/08/31 13:37:59","新北市五股區天乙路169號","121.446528333333","25.1174383333333","6501500","五股區"
"234022","9380-KE","2018/08/31 13:38:11","新北市永和區中正路702巷18號","121.516451666667","25.0105366666667","6500400","永和區"
"234076","969-R7","2018/08/31 13:38:01","新北市永和區民權路3號","121.52021","24.998545","6500400","永和區"
"234072","AAC-211","2018/08/31 13:38:02","新北市永和區豫溪街160巷17號","121.52332","25.0091333333333","6500400","永和區"
"234066","AAC-212","2018/08/31 13:38:19","新北市永和區中山路一段186號","121.509063333333","25.00905","6500400","永和區"
"234001","AAC-295","2018/08/31 13:38:04","新北市永和區秀朗路一段22號","121.514008333333","25.0067733333333","6500400","永和區"
"244004","248-BX","2018/08/31 13:38:18","新北市林口區南勢里6鄰72-99號","121.355576666667","25.077815","6501700","林口區"
"231002","002-UM","2018/08/31 13:38:03","新北市新店區溪園路403號","121.524033333333","24.9781266666667","6500600","新店區"
"231028","046-UY","2018/08/31 13:38:04","新北市新店區安康路一段355號","121.519941666667","24.9638483333333","6500600","新店區"
"231001","047-UY","2018/08/31 13:38:05","新北市新店區中央路151號","121.529245","24.9720983333333","6500600","新店區"
"231010","107-UY","2018/08/31 13:38:03","新北市新店區中正路307巷17號","121.535876666667","24.9735966666667","6500600","新店區"
"231022","108-UY","2018/08/31 13:38:13","新北市新店區永興路88-1號","121.544013333333","24.9336533333333","6500600","新店區"
"231035","110-UY","2018/08/31 13:38:16","新北市新店區安忠路23號","121.514518333333","24.9613483333333","6500600","新店區"
"231012","187-VK","2018/08/31 13:38:19","新北市新店區德正街23巷2號","121.544213333333","24.971945","6500600","新店區"
"231023","KEA-2219","2018/08/31 13:38:04","新北市新店區新店路104號","121.537211666667","24.9545283333333","6500600","新店區"
"231026","256-BX","2018/08/31 13:38:19","新北市新店區光明街1-1號","121.538065","24.9592283333333","6500600","新店區"
"231003","268-BY","2018/08/31 13:38:14","新北市新店區中正路75巷61號","121.54333","24.9693833333333","6500600","新店區"
"231018","278-BY","2018/08/31 13:38:12","新北市新店區百忍街17巷2號","121.53422","24.975725","6500600","新店區"
"231016","AAD-862","2018/08/31 13:38:06","新北市新店區竹林路2巷27弄11號","121.550961666667","24.9508633333333","6500600","新店區"
"231005","355-BY","2018/08/31 13:38:18","新北市新店區中興路二段186-1號","121.547878333333","24.9723716666667","6500600","新店區"
"231038","3712-VJ","2018/08/31 13:38:05","新北市新店區安華路3號","121.519073333333","24.96014","6500600","新店區"
"231027","3713-VJ","2018/08/31 13:38:05","新北市新店區新店路13號","121.540393333333","24.9528933333333","6500600","新店區"
"231037","4716-K9","2018/08/31 13:38:11","新北市新店區薏仁坑路29號","121.495125","24.9610383333333","6500600","新店區"
"231025","4715-K9","2018/08/31 13:38:08","新北市新店區中央六街54號","121.528021666667","24.9757333333333","6500600","新店區"
"231036","512-UM","2018/08/31 13:38:08","新北市新店區安祥路156巷43號","121.474483333333","24.9546383333333","6500600","新店區"
"231013","513-UM","2018/08/31 13:38:20","新北市新店區中央路2號","121.53379","24.9787966666667","6500600","新店區"
"231006","617-UM","2018/08/31 13:38:10","新北市新店區北宜路一段3號","121.538165","24.9585583333333","6500600","新店區"
"231030","619-UM","2018/08/31 13:38:16","新北市新店區安康路一段355-10號","121.520725","24.9638433333333","6500600","新店區"
"231034","641-BX","2018/08/31 13:38:07","新北市新店區車子路110號","121.505246666667","24.9520416666667","6500600","新店區"
"231032","720-UM","2018/08/31 13:38:16","新北市新店區安豐路63號","121.498125","24.9528716666667","6500600","新店區"
"231029","897-TW","2018/08/31 13:38:03","新北市新店區安豐路38號","121.500521666667","24.95609","6500600","新店區"
"231004","899-TW","2018/08/31 13:38:00","新北市新店區中正路111號","121.54246","24.9705416666667","6500600","新店區"
"231024","AKT-0513","2018/08/31 13:38:18","新北市新店區中華路44號","121.5398","24.968275","6500600","新店區"
"235030","003-UY","2018/08/31 13:38:05","新北市中和區水源路7巷5號","121.503728333333","25.003665","6500300","中和區"
"235028","005-UY","2018/08/31 13:38:15","新北市中和區連城路99巷28號","121.496878333333","24.99906","6500300","中和區"
"235027","006-UY","2018/08/31 13:38:06","新北市中和區連城路389巷16號","121.486551666667","24.995225","6500300","中和區"
"235020","096-UM","2018/08/31 13:38:15","新北市中和區員山路466巷17弄4號","121.480581666667","25.007185","6500300","中和區"
"235003","097-UM","2018/08/31 13:38:13","新北市中和區景平路278巷14弄4號","121.514261666667","24.9930266666667","6500300","中和區"
"235029","098-UM","2018/08/31 13:38:11","新北市中和區中山路二段2巷81弄2號","121.50076","25.00737","6500300","中和區"
"235004","150-BY","2018/08/31 13:38:20","新北市中和區保健路50巷66號","121.50935","24.9950966666667","6500300","中和區"
"235022","151-BY","2018/08/31 13:38:12","新北市中和區員山路49號","121.481303333333","24.9927","6500300","中和區"
"235019","183-VK","2018/08/31 13:38:17","新北市中和區莒光路120巷17弄1號","121.471701666667","25.0010166666667","6500300","中和區"
"235002","185-VK","2018/08/31 13:38:06","新北市中和區大勇街60巷18號","121.518876666667","24.9947","6500300","中和區"
"235013","186-VK","2018/08/31 13:38:16","新北市中和區景安路179號","121.505195","24.99405","6500300","中和區"
"235031","255-BX","2018/08/31 13:38:16","新北市中和區新生街220巷4號","121.483006666667","24.9985266666667","6500300","中和區"
"235008","293-VK","2018/08/31 13:38:12","新北市中和區復興路274巷12號","121.502758333333","24.9907683333333","6500300","中和區"
"235036","301-VK","2018/08/31 13:38:13","新北市中和區安邦街8號","121.495581666667","24.9982183333333","6500300","中和區"
"235007","352-BY","2018/08/31 13:38:07","新北市中和區景平路189號","121.511448333333","24.9925833333333","6500300","中和區"
"235006","KEA-2878","2018/08/31 13:38:02","新北市中和區成功路127巷12弄3號","121.526941666667","24.990585","6500300","中和區"
"235014","4979-A6","2018/08/31 13:38:19","新北市中和區忠孝街119號","121.512403333333","24.9881333333333","6500300","中和區"
"235033","4980-A6","2018/08/31 13:37:59","新北市中和區連城路99巷40號","121.497036666667","24.9988783333333","6500300","中和區"
"235034","558-UM","2018/08/31 13:38:21","新北市中和區景平路614號","121.500643333333","24.9969016666667","6500300","中和區"
"235009","565-BX","2018/08/31 13:38:02","新北市中和區南山路236巷53號","121.504861666667","24.9882783333333","6500300","中和區"
"235018","640-BX","2018/08/31 13:38:15","新北市中和區民享街32巷4號","121.473751666667","25.0032583333333","6500300","中和區"
"235024","647-TV","2018/08/31 13:38:14","新北市中和區中山路二段479號","121.483021666667","25.0049283333333","6500300","中和區"
"235011","732-UM","2018/08/31 13:38:17","新北市中和區南山路320巷10弄21號","121.506746666667","24.9866833333333","6500300","中和區"
"235035","783-BX","2018/08/31 13:38:09","新北市中和區永和路356巷71號","121.486878333333","25.0170716666667","6500300","中和區"
"235026","800-TS","2018/08/31 13:38:20","新北市中和區中山路二段310號","121.495698333333","25.0025366666667","6500300","中和區"
"235021","801-TS","2018/08/31 13:38:15","新北市中和區民安街42巷2號","121.479973333333","25.0005733333333","6500300","中和區"
"235005","802-TS","2018/08/31 13:38:13","新北市永和區中和路513號","121.51087","25.0025116666667","6500300","中和區"
"235016","805-TS","2018/08/31 13:38:03","新北市中和區興南路三段42號","121.496015","24.97737","6500300","中和區"
"235012","896-TW","2018/08/31 13:38:17","新北市中和區中正路93號","121.500143333333","24.993455","6500300","中和區"
"235017","900-TW","2018/08/31 13:38:16","新北市土城區延壽路55巷1號","121.46983","24.9921166666667","6500300","中和區"
"235015","157-BY","2018/08/31 13:38:14","新北市中和區華新街143巷106弄34號","121.506296666667","24.97861","6500300","中和區"
"235001","AAC-213","2018/08/31 13:38:13","新北市中和區景平路125巷8弄2-2號","121.5149","24.9912","6500300","中和區"
"235023","AAC-215","2018/08/31 13:38:06","新北市中和區中正路637巷52弄1號","121.48546","24.9934866666667","6500300","中和區"
"220013","072-UY","2018/08/31 13:38:12","新北市板橋區漢生東路155號","121.468368333333","25.0134816666667","6500100","板橋區"
"220034","073-UY","2018/08/31 13:38:14","新北市板橋區華東街330號","121.452821666667","25.0034983333333","6500100","板橋區"
"247005","336-TH","2018/08/31 13:38:19","新北市五股區中興路三段192號","121.442761666667","25.0816716666667","6501400","蘆洲區"
"247007","056-VK","2018/08/31 13:38:15","新北市蘆洲區國道路二段115號","121.470443333333","25.0750166666667","6501400","蘆洲區"
"247019","001-UY","2018/08/31 13:38:05","新北市五股區新城八路26號","121.44819","25.0901866666667","6501400","蘆洲區"
"207002","749-BX","2018/08/31 13:38:00","新北市萬里區崁腳里崁腳路166號","121.645041666667","25.1558383333333","6502800","萬里區"
"207001","662-BX","2018/08/31 13:37:58","新北市萬里區大鵬里萬里加投45-1號","121.641935","25.21097","6502800","萬里區"
"236067","105-UM","2018/08/31 13:38:19","新北市土城區城林路6巷80號","121.438685","24.9796516666667","6501300","土城區"
"236077","166-UM","2018/08/31 13:38:03","新北市土城區城林路6巷80號","121.43873","24.9796216666667","6501300","土城區"
"236006","498-BY","2018/08/31 13:38:18","新北市土城區慶祥街59巷2號","121.43561","24.9727416666667","6501300","土城區"
"236057","912-UM","2018/08/31 13:38:08","新北市土城區城林路6巷80號","121.43868","24.979755","6501300","土城區"
"221002","269-BY","2018/08/31 13:38:16","新北市汐止區長青路210巷51號","121.614313333333","25.116125","6501100","汐止區"
"220027","145-BY","2018/08/31 13:38:06","新北市板橋區大觀路一段51號","121.447596666667","25.0064233333333","6500100","板橋區"
"220028","200-UY","2018/08/31 13:38:08","新北市板橋區大觀路二段265巷130弄32號","121.441103333333","24.9965716666667","6500100","板橋區"
"220030","610-BX","2018/08/31 13:38:05","新北市板橋區大觀路三段59巷17弄6-1號","121.436586666667","24.9954416666667","6500100","板橋區"
"220004","276-BY","2018/08/31 13:38:06","新北市板橋區華東街1-9號","121.448148333333","24.9949583333333","6500100","板橋區"
"220020","277-BY","2018/08/31 13:38:20","新北市板橋區大觀路三段20號","121.434468333333","24.9956933333333","6500100","板橋區"
"220019","283-VK","2018/08/31 13:38:14","新北市板橋區四川路二段237號","121.450926666667","24.99389","6500100","板橋區"
"220043","285-UM","2018/08/31 13:38:13","新北市板橋區民生路二段161巷3號","121.470075","25.01976","6500100","板橋區"
"220031","286-VK","2018/08/31 13:38:16","新北市板橋區大觀路二段101巷4號","121.44643","25.001565","6500100","板橋區"
"220029","287-VK","2018/08/31 13:38:04","新北市板橋區大觀路二段111號","121.446181666667","25.0016466666667","6500100","板橋區"
"220009","295-UM","2018/08/31 13:38:03","新北市板橋區民生路二段123號","121.470788333333","25.0186333333333","6500100","板橋區"
"220032","296-UM","2018/08/31 13:38:21","新北市板橋區華東街1-8號","121.447491666667","24.9950716666667","6500100","板橋區"
"220010","299-UM","2018/08/31 13:38:13","新北市板橋區民生路二段120號","121.470418333333","25.0198366666667","6500100","板橋區"
"220023","303-R5","2018/08/31 13:38:16","新北市板橋區南雅南路二段116號","121.452425","25.0003883333333","6500100","板橋區"
"220012","486-VK","2018/08/31 13:38:04","新北市板橋區民生路二段36-1號","121.47207","25.0167266666667","6500100","板橋區"
"220037","491-VK","2018/08/31 13:38:12","新北市板橋區民生路二段179號","121.469835","25.020355","6500100","板橋區"
"220104","560-BX","2018/08/31 13:38:17","新北市板橋區南雅西路二段145巷10號","121.451535","25.0120166666667","6500100","板橋區"
"220052","561-BX","2018/08/31 13:38:13","新北市板橋區民生路二段161巷7號","121.470146666667","25.0196583333333","6500100","板橋區"
"220040","637-BX","2018/08/31 13:38:01","新北市板橋區民生路二段161巷1號","121.470006666667","25.0200533333333","6500100","板橋區"
"220025","687-BX","2018/08/31 13:38:07","新北市板橋區沙崙街37號","121.430481666667","24.9944716666667","6500100","板橋區"
"220002","741-BX","2018/08/31 13:38:06","新北市板橋區華東街1-9號","121.448125","24.9949266666667","6500100","板橋區"
"220014","829-TW","2018/08/31 13:38:05","新北市板橋區民生路二段97號","121.471311666667","25.0176516666667","6500100","板橋區"
"220022","895-R6","2018/08/31 13:38:13","新北市板橋區南雅東路1號","121.455558333333","25.0055933333333","6500100","板橋區"
"220021","985-R7","2018/08/31 13:38:15","新北市板橋區華東街262號","121.452403333333","25.0006416666667","6500100","板橋區"
"235032","KEA-2873","2018/08/31 13:38:03","新北市中和區圓通路265巷60號","121.496303333333","24.99247","6500300","中和區"
"235025","KEA-2875","2018/08/31 13:37:58","新北市中和區民享街92巷1號","121.474463333333","24.9998566666667","6500300","中和區"
