"lineid","car","time","location","longitude","latitude","cityid","cityname"
"231046","107-UY","2018/08/31 16:19:33","新北市新店區灣潭路3-3號","121.538256666667","24.9508","6500600","新店區"
"231018","278-BY","2018/08/31 16:19:52","新北市新店區中正路700巷77號","121.535826666667","24.99385","6500600","新店區"
"241011","013-R5","2018/08/31 16:19:44","新北市三重區龍濱路285號","121.501048333333","25.0733783333333","6500200","三重區"
"241028","022-UY","2018/08/31 16:19:50","新北市三重區正義南路181巷1號","121.499013333333","25.0569183333333","6500200","三重區"
"241008","059-VK","2018/08/31 16:19:50","新北市三重區力行路二段136巷45弄10號","121.479105","25.0753266666667","6500200","三重區"
"241022","060-VK","2018/08/31 16:19:34","新北市三重區新北大道一段11號","121.48862","25.0606316666667","6500200","三重區"
"241031","061-VK","2018/08/31 16:19:43","新北市三重區重陽路一段45號","121.48669","25.0580983333333","6500200","三重區"
"241015","062-VK","2018/08/31 16:19:53","新北市三重區福德北路79號","121.501941666667","25.0658716666667","6500200","三重區"
"241017","063-VK","2018/08/31 16:19:51","新北市三重區大同北路85號","121.494838333333","25.0636333333333","6500200","三重區"
"241024","065-VK","2018/08/31 16:19:49","新北市三重區中正北路117號","121.483516666667","25.066905","6500200","三重區"
"241026","066-VK","2018/08/31 16:19:34","新北市三重區正義南路38號","121.498196666667","25.0609966666667","6500200","三重區"
"241002","090-VK","2018/08/31 16:19:43","新北市三重區仁義街91號","121.499795","25.079435","6500200","三重區"
"241003","091-VK","2018/08/31 16:19:39","新北市三重區五華街57巷32號","121.493943333333","25.083095","6500200","三重區"
"241016","266-UM","2018/08/31 16:19:47","新北市三重區大仁街33號","121.492831666667","25.06535","6500200","三重區"
"241009","267-UM","2018/08/31 16:19:38","新北市三重區溪尾街261號","121.487761666667","25.0818966666667","6500200","三重區"
"241018","268-UM","2018/08/31 16:19:43","新北市三重區重陽路三段142-1號","121.489411666667","25.0670783333333","6500200","三重區"
"241013","270-UM","2018/08/31 16:19:41","新北市三重區龍門路86號","121.497181666667","25.0728833333333","6500200","三重區"
"241025","271-UM","2018/08/31 16:19:46","新北市三重區中正北路560巷100弄2號","121.472585","25.06825","6500200","三重區"
"241007","398-BY","2018/08/31 16:19:48","新北市三重區三和路四段163巷97號","121.486713333333","25.0795","6500200","三重區"
"241019","413-TH","2018/08/31 16:19:47","新北市三重區重陽路三段95號","121.490198333333","25.067925","6500200","三重區"
"241004","475-VK","2018/08/31 16:19:42","新北市三重區五華街74號","121.493486666667","25.08197","6500200","三重區"
"241020","478-VK","2018/08/31 16:19:37","新北市三重區車路頭街33號","121.483915","25.070875","6500200","三重區"
"241014","543-UM","2018/08/31 16:19:45","新北市三重區河邊北街96-1號","121.503995","25.0699766666667","6500200","三重區"
"241023","545-UM","2018/08/31 16:19:25","新北市三重區忠孝路二段138號","121.482488333333","25.0682866666667","6500200","三重區"
"241001","547-UM","2018/08/31 16:19:35","新北市三重區仁政街159號","121.49129","25.0795816666667","6500200","三重區"
"241006","AAD-863","2018/08/31 16:19:38","新北市三重區永福街46巷41弄27號","121.481543333333","25.0771383333333","6500200","三重區"
"241005","887-TS","2018/08/31 16:19:42","新北市三重區溪尾街300-2號","121.48749","25.0836633333333","6500200","三重區"
"241012","941-UM","2018/08/31 16:19:38","新北市三重區河邊北街313號","121.50245","25.0748583333333","6500200","三重區"
"241029","942-UM","2018/08/31 16:19:39","新北市三重區環河南路220-8號","121.493381666667","25.0526733333333","6500200","三重區"
"241033","AAC-255","2018/08/31 16:19:51","新北市三重區五谷王南街11巷9號","121.473255","25.0452533333333","6500200","三重區"
"235064","005-UY","2018/08/31 16:19:45","新北市中和區員山路36巷16-2號","121.48518","24.99141","6500300","中和區"
"235026","800-TS","2018/08/31 16:19:45","新北市中和區永和路204號","121.491888333333","25.0073566666667","6500300","中和區"
"224007","275-VK","2018/08/31 16:19:46","新北市瑞芳區大埔路100號","121.761813333333","25.1005733333333","6501200","瑞芳區"
"224005","271-BY","2018/08/31 16:19:53","新北市瑞芳區中正路2號","121.809246666667","25.1070716666667","6501200","瑞芳區"
"227003","642-TC","2018/08/31 16:19:44","新北市雙溪區上林里內平林80號","121.828275","25.02793","6502500","雙溪區"
"227011","400-TW","2018/08/31 16:19:51","新北市雙溪區三港里雙澳路80號","121.883801666667","25.053885","6502500","雙溪區"
"251008","181-VK","2018/08/31 16:19:47","新北市淡水區中正路一段8巷1弄11號","121.427981666667","25.1756283333333","6501000","淡水區"
