"lineid","car","time","location","longitude","latitude","cityid","cityname"
"249005","172-UM","2018/08/31 17:28:44","新北市八里區荖阡坑路46號","121.410971666667","25.1242483333333","6502300","八里區"
"249001","173-UM","2018/08/31 17:28:52","新北市八里區中華路一段1-8號","121.42362","25.1587783333333","6502300","八里區"
"249004","303-UY","2018/08/31 17:28:38","新北市八里區埤頭一街31號","121.415581666667","25.1559133333333","6502300","八里區"
"249002","305-UY","2018/08/31 17:28:50","新北市八里區烏山頭1-10號","121.447388333333","25.140295","6502300","八里區"
"249003","593-UM","2018/08/31 17:28:52","新北市八里區中山路二段317號","121.400623333333","25.1476766666667","6502300","八里區"
"244007","080-UY","2018/08/31 17:28:55","新北市林口區湖北里5鄰24號","121.38654","25.0931833333333","6501700","林口區"
"244019","403-UM","2018/08/31 17:28:49","新北市林口區公園路165號","121.371091666667","25.0715533333333","6501700","林口區"
"244013","KEA-2802","2018/08/31 17:28:48","新北市林口區粉寮路二段167-1號","121.40447","25.0885266666667","6501700","林口區"
"244023","483-VK","2018/08/31 17:28:51","新北市林口區東明一街1巷29號","121.393938333333","25.0717516666667","6501700","林口區"
"244017","485-VK","2018/08/31 17:28:51","新北市林口區文化一路一段166號","121.376845","25.0739216666667","6501700","林口區"
"244009","656-BX","2018/08/31 17:28:47","新北市林口區中湖39-54號","121.38498","25.0862783333333","6501700","林口區"
"244011","657-BX","2018/08/31 17:28:53","新北市林口區仁愛路一段386巷6號","121.387981666667","25.0772083333333","6501700","林口區"
"244025","837-TS","2018/08/31 17:28:51","新北市林口區忠孝一路33號","121.363388333333","25.0730866666667","6501700","林口區"
"244021","838-TS","2018/08/31 17:28:40","新北市林口區粉寮路一段84號","121.39731","25.0797816666667","6501700","林口區"
"231046","107-UY","2018/08/31 17:28:53","新北市新店區直潭路92號","121.530893333333","24.937635","6500600","新店區"
"241011","013-R5","2018/08/31 17:28:44","新北市三重區河邊北街124巷43號","121.502735","25.0713683333333","6500200","三重區"
"241008","059-VK","2018/08/31 17:28:49","新北市三重區車路頭街137號","121.483948333333","25.0762016666667","6500200","三重區"
"241015","062-VK","2018/08/31 17:28:53","新北市三重區長元街65巷22弄20號","121.503686666667","25.065905","6500200","三重區"
"241017","063-VK","2018/08/31 17:28:51","新北市三重區重新路三段45-6號","121.493413333333","25.0618","6500200","三重區"
"241024","065-VK","2018/08/31 17:28:49","新北市三重區後竹圍街295號","121.478755","25.0698383333333","6500200","三重區"
"241016","266-UM","2018/08/31 17:28:47","新北市三重區信義西街51號","121.49513","25.0637933333333","6500200","三重區"
"241009","267-UM","2018/08/31 17:28:38","新北市三重區車路頭街140號","121.484135","25.0757033333333","6500200","三重區"
"241032","269-UM","2018/08/31 17:28:55","新北市三重區名源街61巷3號","121.481925","25.0593283333333","6500200","三重區"
"241025","271-UM","2018/08/31 17:28:46","新北市三重區中正北路422號","121.474765","25.0709866666667","6500200","三重區"
"241007","398-BY","2018/08/31 17:28:48","新北市三重區溪尾街146號","121.488983333333","25.079755","6500200","三重區"
"241019","413-TH","2018/08/31 17:28:46","新北市三重區自強路二段26巷16號","121.488963333333","25.0689933333333","6500200","三重區"
"241020","478-VK","2018/08/31 17:28:37","新北市三重區忠孝路一段107號","121.489051666667","25.0720783333333","6500200","三重區"
"241030","480-VK","2018/08/31 17:28:46","新北市三重區中正南路252巷5號","121.493441666667","25.05265","6500200","三重區"
"241014","543-UM","2018/08/31 17:28:45","新北市三重區安和路17號","121.50135","25.0685083333333","6500200","三重區"
"241023","545-UM","2018/08/31 17:28:45","新北市三重區忠孝路三段84巷28號","121.481475","25.0642083333333","6500200","三重區"
"241005","887-TS","2018/08/31 17:28:42","新北市三重區永安北路二段33號","121.482386666667","25.0822066666667","6500200","三重區"
"241012","941-UM","2018/08/31 17:28:38","新北市三重區仁興街33巷2號","121.499196666667","25.075505","6500200","三重區"
"241029","942-UM","2018/08/31 17:28:39","新北市三重區重安街22號","121.490271666667","25.0580066666667","6500200","三重區"
"241033","AAC-255","2018/08/31 17:28:51","新北市三重區中興北街130號","121.469065","25.0555183333333","6500200","三重區"
"235064","005-UY","2018/08/31 17:28:45","新北市中和區員山路36巷16-3號","121.485126666667","24.9913066666667","6500300","中和區"
"247010","KEA-2869","2018/08/31 17:28:36","新北市蘆洲區中山一路120巷11號","121.477648333333","25.0818866666667","6501400","蘆洲區"
"247024","893-R6","2018/08/31 17:28:51","新北市蘆洲區長興路296-1號","121.460355","25.0895616666667","6501400","蘆洲區"
"247014","546-UM","2018/08/31 17:28:52","新北市蘆洲區三民路17號","121.475708333333","25.082375","6501400","蘆洲區"
"247022","500-BY","2018/08/31 17:28:50","新北市蘆洲區三民路238-2號","121.468206666667","25.089695","6501400","蘆洲區"
"247012","339-TH","2018/08/31 17:28:48","新北市蘆洲區民族路42號","121.476633333333","25.0844366666667","6501400","蘆洲區"
"247004","337-TH","2018/08/31 17:28:25","新北市蘆洲區永安南路二段308號","121.457335","25.082485","6501400","蘆洲區"
"247006","336-TH","2018/08/31 17:28:41","新北市蘆洲區長安街22巷39弄2號","121.464815","25.0804933333333","6501400","蘆洲區"
"247018","057-VK","2018/08/31 17:28:52","新北市蘆洲區民義街22巷6號","121.471578333333","25.0882583333333","6501400","蘆洲區"
"247008","056-VK","2018/08/31 17:28:50","新北市蘆洲區民生街34號","121.474375","25.078755","6501400","蘆洲區"
"247016","007-UY","2018/08/31 17:28:50","新北市蘆洲區光華路22巷57號","121.467906666667","25.085135","6501400","蘆洲區"
"247002","002-UY","2018/08/31 17:28:55","新北市蘆洲區永樂街38巷57弄10號","121.45784","25.09043","6501400","蘆洲區"
"247020","001-UY","2018/08/31 17:28:37","新北市蘆洲區水湳街150號","121.469996666667","25.0937516666667","6501400","蘆洲區"
"228002","663-BX","2018/08/31 17:28:49","新北市貢寮區福隆里興隆街36號","121.942271666667","25.0166416666667","6502600","貢寮區"
"228001","670-TC","2018/08/31 17:28:50","新北市貢寮區仁理村仁愛路52號","121.925365","25.053315","6502600","貢寮區"
"228003","828-UM","2018/08/31 17:28:49","新北市貢寮區仁理村仁和路2-1號","121.923126666667","25.0487016666667","6502600","貢寮區"
"224010","AGQ-8101","2018/08/31 17:28:56","新北市瑞芳區逢甲路84號","121.809751666667","25.1087333333333","6501200","瑞芳區"
"224006","676-BX","2018/08/31 17:28:42","新北市瑞芳區靜安路四段98號","121.793233333333","25.110445","6501200","瑞芳區"
"224008","285-BY","2018/08/31 17:28:52","新北市瑞芳區九芎橋路8號","121.83273","25.0895833333333","6501200","瑞芳區"
"224007","275-VK","2018/08/31 17:27:56","新北市瑞芳區大寮路356-1號","121.78465","25.1032766666667","6501200","瑞芳區"
"224009","273-VK","2018/08/31 17:28:50","新北市瑞芳區崙頂路2-1號","121.846515","25.10716","6501200","瑞芳區"
"224005","271-BY","2018/08/31 17:28:33","新北市瑞芳區南雅路1號","121.889546666667","25.1196966666667","6501200","瑞芳區"
"227003","642-TC","2018/08/31 17:28:44","新北市雙溪區上林里內平林13號","121.836461666667","25.028225","6502500","雙溪區"
"227011","400-TW","2018/08/31 17:28:51","新北市雙溪區三貂里定福路1-2號","121.850735","25.0634733333333","6502500","雙溪區"
"251005","010-UM","2018/08/31 17:28:40","新北市淡水區鄧公路31巷16號","121.451903333333","25.1706166666667","6501000","淡水區"
"251008","181-VK","2018/08/31 17:28:47","新北市淡水區大同路124巷17號","121.463538333333","25.1398266666667","6501000","淡水區"
"251010","413-VK","2018/08/31 17:28:37","新北市淡水區中正路二段211號","121.426226666667","25.18916","6501000","淡水區"
"251012","441-VK","2018/08/31 17:28:48","新北市淡水區北新路114號","121.447855","25.178435","6501000","淡水區"
"251007","442-VK","2018/08/31 17:28:40","新北市淡水區民生路47-4號","121.462045","25.1380116666667","6501000","淡水區"
"251004","443-VK","2018/08/31 17:25:58","新北市淡水區中正東路二段88巷15號","121.459038333333","25.1504666666667","6501000","淡水區"
"251006","561-UM","2018/08/31 17:28:46","新北市淡水區大仁街19號","121.442433333333","25.1751533333333","6501000","淡水區"
"251009","575-R6","2018/08/31 17:28:22","新北市淡水區建設街1巷1-1號","121.439246666667","25.1730483333333","6501000","淡水區"
"251011","650-BX","2018/08/31 17:28:42","新北市淡水區坪頂路712號","121.482526666667","25.1584966666667","6501000","淡水區"
"251002","672-BX","2018/08/31 17:28:45","新北市淡水區中正路一段1號","121.426791666667","25.17598","6501000","淡水區"
"251003","673-BX","2018/08/31 17:28:51","新北市淡水區中正路22巷1-4號","121.436468333333","25.173235","6501000","淡水區"
"207003","550-UM","2018/08/31 17:28:51","新北市萬里區龜吼里美崙路96號","121.68385","25.1857","6502800","萬里區"
"207004","225-TW","2018/08/31 17:28:44","新北市萬里區萬里里景美路16號","121.686701666667","25.173405","6502800","萬里區"
"252002","178-VK","2018/08/31 17:28:47","新北市三芝區忠孝街1-14號","121.505456666667","25.253905","6502100","三芝區"
"252001","292-VK","2018/08/31 17:28:54","新北市三芝區長安街119號","121.497961666667","25.2596783333333","6502100","三芝區"
"237015","649-BX","2018/08/31 17:28:57","新北市三峽區中山路459巷66號","121.355628333333","24.9364383333333","6500900","三峽區"
"242034","AAC-296","2018/08/31 17:28:44","新北市新莊區新泰路16號","121.449693333333","25.0331133333333","6500500","新莊區"
"242058","986-R7","2018/08/31 17:28:52","新北市新莊區中正路516-42號","121.432326666667","25.0320466666667","6500500","新莊區"
"242054","751-BX","2018/08/31 17:28:54","新北市新莊區瓊林南路187巷50-16號","121.436083333333","25.0065633333333","6500500","新莊區"
"242027","615-BX","2018/08/31 17:28:46","新北市新莊區思源路32號","121.46029","25.0404116666667","6500500","新莊區"
"242041","566-BX","2018/08/31 17:28:48","新北市新莊區新樹路115號","121.437383333333","25.0266283333333","6500500","新莊區"
"242046","497-BY","2018/08/31 17:28:37","新北市新莊區新樹路47號","121.440221666667","25.0320583333333","6500500","新莊區"
"242050","441-UM","2018/08/31 17:28:46","新北市新莊區瓊林南路46-2號","121.43595","25.01771","6500500","新莊區"
"242056","440-UM","2018/08/31 17:28:46","新北市新莊區景德路202號","121.44934","25.033865","6500500","新莊區"
"242037","415-TV","2018/08/31 17:28:42","新北市新莊區建國一路288巷32號","121.43448","25.0255466666667","6500500","新莊區"
"242007","413-TV","2018/08/31 17:28:48","新北市新莊區自強街72號","121.454746666667","25.047155","6500500","新莊區"
"242044","400-BY","2018/08/31 17:28:46","新北市新莊區富國路74號","121.419961666667","25.0259416666667","6500500","新莊區"
"242023","362-BY","2018/08/31 17:28:40","新北市新莊區中華路一段110號","121.452408333333","25.04023","6500500","新莊區"
"242060","353-BY","2018/08/31 17:28:54","新北市新莊區瓊林南路12-3號","121.436225","25.0188266666667","6500500","新莊區"
"242009","132-UY","2018/08/31 17:28:47","新北市新莊區中原路185號","121.453066666667","25.05436","6500500","新莊區"
"242039","133-UY","2018/08/31 17:28:51","新北市新莊區民安路280號","121.427745","25.0215833333333","6500500","新莊區"
"242032","135-UY","2018/08/31 17:28:55","新北市新莊區新泰路381巷38號","121.442473333333","25.04375","6500500","新莊區"
"242048","172-VK","2018/08/31 17:28:38","新北市新莊區龍安路252-2號","121.421238333333","25.0195416666667","6500500","新莊區"
"242017","175-VK","2018/08/31 17:28:39","新北市新莊區中華路一段103號","121.452766666667","25.0439333333333","6500500","新莊區"
"242015","347-TH","2018/08/31 17:28:38","新北市新莊區新泰路159號","121.447673333333","25.0369966666667","6500500","新莊區"
"242021","348-TH","2018/08/31 17:28:57","新北市新莊區中華路一段18號","121.451961666667","25.0371633333333","6500500","新莊區"
"242002","349-TH","2018/08/31 17:28:47","新北市新莊區新莊路154號","121.455255","25.035495","6500500","新莊區"
"242019","350-TH","2018/08/31 17:28:47","新北市新莊區中港路54號","121.455405","25.038535","6500500","新莊區"
"242013","351-TH","2018/08/31 17:28:44","新北市新莊區中誠街16巷2號","121.451941666667","25.0483033333333","6500500","新莊區"
"238015","755-BX","2018/08/31 17:28:52","新北市樹林區大安路267號","121.419076666667","24.993635","6500700","樹林區"
"238023","601-UM","2018/08/31 17:28:52","新北市樹林區中正路439-1號","121.415133333333","25.0087566666667","6500700","樹林區"
"238019","599-UM","2018/08/31 17:28:40","新北市樹林區太平路51號","121.419238333333","24.982565","6500700","樹林區"
"238018","571-TV","2018/08/31 17:28:51","新北市樹林區鎮前街165號","121.421953333333","24.9870983333333","6500700","樹林區"
"238024","5061-A6","2018/08/31 17:28:34","新北市樹林區鎮前街157號","121.423886666667","24.9887733333333","6500700","樹林區"
"238022","KEA-2213","2018/08/31 17:28:45","新北市樹林區仁愛街61號","121.42271","24.98233","6500700","樹林區"
"238021","KEA-2539","2018/08/31 17:28:49","新北市樹林區民權街5巷17號","121.395691666667","24.9582033333333","6500700","樹林區"
"238025","303-VK","2018/08/31 17:28:55","新北市樹林區保安街一段296號","121.419128333333","24.9972633333333","6500700","樹林區"
"238017","283-BY","2018/08/31 17:28:39","新北市樹林區中正路417號","121.416876666667","25.0073866666667","6500700","樹林區"
"238014","282-BY","2018/08/31 17:28:34","新北市樹林區長壽街57號","121.419878333333","24.9957816666667","6500700","樹林區"
"238020","268-VK","2018/08/31 17:28:41","新北市樹林區千歲街101-2號","121.428513333333","25.000895","6500700","樹林區"
"238026","172-UY","2018/08/31 17:28:40","新北市樹林區新興街11號","121.400108333333","24.9730616666667","6500700","樹林區"
"238016","169-UY","2018/08/31 17:28:41","新北市樹林區長壽街4號","121.423928333333","24.99337","6500700","樹林區"
"239007","AAC-297","2018/08/31 17:28:38","新北市鶯歌區仁愛路17號","121.353881666667","24.95625","6500800","鶯歌區"
"239006","891-R6","2018/08/31 17:28:54","新北市鶯歌區福安街7巷24弄52號","121.334663333333","24.96617","6500800","鶯歌區"
"239008","527-UM","2018/08/31 17:28:50","新北市鶯歌區大湖路540號","121.337016666667","24.9728433333333","6500800","鶯歌區"
"239005","526-UM","2018/08/31 17:28:51","新北市鶯歌區鶯桃路二段15號","121.325891666667","24.9721483333333","6500800","鶯歌區"
"239001","417-VK","2018/08/31 17:28:50","新北市鶯歌區中正三路79號","121.338641666667","24.94114","6500800","鶯歌區"
"239003","360-BY","2018/08/31 17:28:51","新北市鶯歌區德昌街98號","121.33238","24.9602066666667","6500800","鶯歌區"
"239002","359-BY","2018/08/31 17:28:50","新北市鶯歌區建國路244號","121.347991666667","24.9534866666667","6500800","鶯歌區"
"239004","193-VK","2018/08/31 17:28:42","新北市鶯歌區三鶯路31巷1號","121.354716666667","24.9428866666667","6500800","鶯歌區"
"221008","489-VK","2018/08/31 17:28:37","新北市汐止區康寧街901號","121.65139","25.0750983333333","6501100","汐止區"
"242011","280-VK","2018/08/31 17:28:42","新北市新莊區中港路435號","121.452435","25.0479283333333","6500500","新莊區"
