"lineid","car","time","location","longitude","latitude","cityid","cityname"
"234046","148-BY","2018/08/31 18:49:15","新北市永和區秀朗路二段136號","121.52509","25.00151","6500400","永和區"
"234007","207-UY","2018/08/31 18:49:14","新北市永和區文化路162號","121.512258333333","25.0153833333333","6500400","永和區"
"234081","298-R6","2018/08/31 18:49:10","新北市永和區永利路112號","121.521271666667","25.003145","6500400","永和區"
"234038","336-UY","2018/08/31 18:49:05","新北市永和區成功路一段30號","121.527016666667","25.0046933333333","6500400","永和區"
"234064","337-UY","2018/08/31 18:49:07","新北市永和區福和路1號","121.525553333333","25.00947","6500400","永和區"
"234086","338-UY","2018/08/31 18:49:13","新北市永和區中正路1號","121.513853333333","24.9953466666667","6500400","永和區"
"234070","552-UM","2018/08/31 18:49:15","新北市永和區豫溪街215巷25號","121.523583333333","25.0103833333333","6500400","永和區"
"234017","745-BX","2018/08/31 18:49:21","新北市永和區永和路二段299號","121.515976666667","25.016215","6500400","永和區"
"234030","746-BX","2018/08/31 18:49:23","新北市永和區得和路328號","121.523403333333","24.9995083333333","6500400","永和區"
"234054","KEA-2590","2018/08/31 18:49:20","新北市永和區豫溪街191巷3弄1號","121.52326","25.010355","6500400","永和區"
"234061","AAD-866","2018/08/31 18:49:16","新北市永和區福和路233號","121.51853","25.0074683333333","6500400","永和區"
"234013","847-RS","2018/08/31 18:49:19","新北市永和區保福路二段133巷18號","121.509243333333","25.0136983333333","6500400","永和區"
"234026","9371-KE","2018/08/31 18:49:18","新北市永和區自由街58號","121.513866666667","25.0059366666667","6500400","永和區"
"234011","9373-KE","2018/08/31 18:49:17","新北市永和區文化路124號","121.513081666667","25.015365","6500400","永和區"
"249005","172-UM","2018/08/31 18:48:44","新北市八里區長道坑17號","121.396353333333","25.1156016666667","6502300","八里區"
"249001","173-UM","2018/08/31 18:49:12","新北市八里區龍米路二段16號","121.44895","25.139145","6502300","八里區"
"248014","025-BX","2018/08/31 18:49:24","新北市五股區蓬萊路24號","121.434198333333","25.079825","6501500","五股區"
"248016","026-BX","2018/08/31 18:49:22","新北市五股區凌雲路一段83巷21號","121.448858333333","25.1010533333333","6501500","五股區"
"248006","077-UY","2018/08/31 18:49:11","新北市五股區中興路二段9巷40號","121.461965","25.0729683333333","6501500","五股區"
"248008","095-VK","2018/08/31 18:49:19","新北市五股區中興路一段151巷1弄1號","121.465058333333","25.0733383333333","6501500","五股區"
"248018","225-UY","2018/08/31 18:49:11","新北市五股區民義路二段37號","121.41323","25.10034","6501500","五股區"
"248012","247-BX","2018/08/31 18:49:10","新北市五股區成泰路二段222-2號","121.439083333333","25.0854383333333","6501500","五股區"
"248010","272-BY","2018/08/31 18:49:16","新北市五股區明德路12巷26弄7號","121.432985","25.07274","6501500","五股區"
"248004","677-BX","2018/08/31 18:49:23","新北市五股區民義路二段50-1號","121.411871666667","25.1030333333333","6501500","五股區"
"248002","678-BX","2018/08/31 18:49:15","新北市五股區成泰路三段435巷11號","121.449376666667","25.0978966666667","6501500","五股區"
"234023","9380-KE","2018/08/31 18:49:06","新北市永和區竹林路119巷45號","121.521948333333","25.0119","6500400","永和區"
"234077","969-R7","2018/08/31 18:49:17","新北市永和區中正路2巷29弄2-2號","121.513848333333","24.9939466666667","6500400","永和區"
"234067","AAC-212","2018/08/31 18:49:14","新北市中和區永貞路229號","121.513326666667","25.00372","6500400","永和區"
"234003","AAC-295","2018/08/31 18:49:10","新北市永和區中正路657號","121.514946666667","25.0101883333333","6500400","永和區"
"232011","375-UM","2018/08/31 18:49:14","新北市坪林區坪林街50號","121.711513333333","24.937315","6502000","坪林區"
"244007","080-UY","2018/08/31 18:48:42","新北市林口區太平里5-12號","121.379821666667","25.112955","6501700","林口區"
"244019","403-UM","2018/08/31 18:49:09","新北市林口區麗園二街60巷78號","121.381308333333","25.067445","6501700","林口區"
"244013","KEA-2802","2018/08/31 18:49:08","新北市林口區文化一路一段135巷12號","121.373485","25.0724383333333","6501700","林口區"
"244023","483-VK","2018/08/31 18:49:11","新北市林口區文化二路二段72號","121.378378333333","25.0804666666667","6501700","林口區"
"244017","485-VK","2018/08/31 18:49:11","新北市林口區文化二路一段20巷25弄4號","121.366063333333","25.067725","6501700","林口區"
"244009","656-BX","2018/08/31 18:49:07","新北市林口區竹林路458號","121.387798333333","25.0852783333333","6501700","林口區"
"244011","657-BX","2018/08/31 18:49:13","新北市林口區中正路57巷12弄4號","121.394988333333","25.07676","6501700","林口區"
"244025","837-TS","2018/08/31 18:49:11","新北市林口區南勢二街412號","121.359796666667","25.0771033333333","6501700","林口區"
"243013","AAD-798","2018/08/31 18:26:17","新北市泰山區明志路三段206巷3號","121.423311666667","25.0379166666667","6501600","泰山區"
"243016","KEA-2801","2018/08/31 18:49:16","新北市泰山區明志路二段126號","121.427823333333","25.051285","6501600","泰山區"
"243010","KEA-2216","2018/08/31 18:49:15","新北市泰山區公園路2號","121.430025","25.05392","6501600","泰山區"
"243012","646-TV","2018/08/31 18:49:26","新北市泰山區福興三街13號","121.43443","25.0577566666667","6501600","泰山區"
"222003","436-BY","2018/08/31 18:49:11","新北市深坑區深南路32號","121.621101666667","25.0082916666667","6501800","深坑區"
"222002","659-BX","2018/08/31 18:49:13","新北市深坑區文山路一段69號","121.626998333333","25.0018833333333","6501800","深坑區"
"231041","002-UM","2018/08/31 18:49:13","新北市新店區安華路28-1號","121.519751666667","24.96084","6500600","新店區"
"231056","0291-UT","2018/08/31 18:49:25","新北市新店區大同街42號","121.538698333333","24.9807516666667","6500600","新店區"
"231059","046-UY","2018/08/31 18:49:18","新北市新店區安華路28-1號","121.519665","24.9609383333333","6500600","新店區"
"231040","047-UY","2018/08/31 18:49:15","新北市新店區力行路15號","121.53706","24.9658633333333","6500600","新店區"
"231046","107-UY","2018/08/31 18:49:13","新北市新店區直潭二街1號","121.535518333333","24.9431783333333","6500600","新店區"
"231053","108-UY","2018/08/31 18:49:13","新北市新店區新烏路一段127-1號","121.546903333333","24.9367483333333","6500600","新店區"
"231064","110-UY","2018/08/31 18:49:23","新北市新店區安一路一段1-1號","121.519778333333","24.9613316666667","6500600","新店區"
"231048","187-VK","2018/08/31 18:49:23","新北市新店區光明街127號","121.539243333333","24.9618816666667","6500600","新店區"
"231054","KEA-2219","2018/08/31 18:49:21","新北市新店區安康路一段104號","121.527286666667","24.9625516666667","6500600","新店區"
"231042","268-BY","2018/08/31 18:49:18","新北市新店區安康路一段75-1號","121.53006","24.9611516666667","6500600","新店區"
"231051","278-BY","2018/08/31 18:49:11","新北市新店區中央路63號","121.532611666667","24.97705","6500600","新店區"
"231050","AAD-862","2018/08/31 18:49:18","新北市新店區安康路一段50號","121.530213333333","24.9611416666667","6500600","新店區"
"231044","355-BY","2018/08/31 18:49:12","新北市新店區中興路二段222號","121.548048333333","24.9750016666667","6500600","新店區"
"231058","3713-VJ","2018/08/31 18:49:08","新北市新店區北宜路一段107號","121.539433333333","24.9553","6500600","新店區"
"231066","4716-K9","2018/08/31 18:49:22","新北市新店區安一路一段1-1號","121.519291666667","24.9613166666667","6500600","新店區"
"231067","4772-VM","2018/08/31 18:49:18","新北市新店區安華路28-1號","121.519131666667","24.9606033333333","6500600","新店區"
"231065","512-UM","2018/08/31 18:49:08","新北市新店區安一路一段1-1號","121.519471666667","24.9612433333333","6500600","新店區"
"231049","513-UM","2018/08/31 18:49:13","新北市新店區中央路151號","121.52955","24.97194","6500600","新店區"
"231045","617-UM","2018/08/31 18:49:08","新北市新店區安康路一段105號","121.529046666667","24.9615516666667","6500600","新店區"
"231061","619-UM","2018/08/31 18:49:06","新北市新店區安華路28-1號","121.519731666667","24.960605","6500600","新店區"
"231063","641-BX","2018/08/31 18:49:13","新北市新店區安華路28-1號","121.519685","24.9606783333333","6500600","新店區"
"231062","720-UM","2018/08/31 18:49:26","新北市新店區安一路一段1-1號","121.519265","24.961325","6500600","新店區"
"231060","897-TW","2018/08/31 18:49:20","新北市新店區安華路28-1號","121.519721666667","24.96074","6500600","新店區"
"231043","899-TW","2018/08/31 18:49:11","新北市新店區安康路一段287號","121.523156666667","24.9636283333333","6500600","新店區"
"231055","AKT-0513","2018/08/31 18:49:13","新北市新店區新生街21號","121.539718333333","24.966465","6500600","新店區"
"241035","462-BY","2018/08/31 18:49:04","新北市三重區重新路四段121號","121.484668333333","25.0521333333333","6500200","三重區"
"235066","003-UY","2018/08/31 18:49:21","新北市中和區水源路7巷25號","121.504066666667","25.0037983333333","6500300","中和區"
"235064","005-UY","2018/08/31 18:49:05","新北市中和區連城路75巷2-1號","121.497611666667","24.99962","6500300","中和區"
"235063","006-UY","2018/08/31 18:49:10","新北市中和區錦和路196巷1號","121.48991","24.9949166666667","6500300","中和區"
"235056","096-UM","2018/08/31 18:49:12","新北市中和區員山路568號","121.478651666667","25.01052","6500300","中和區"
"235039","097-UM","2018/08/31 18:49:25","新北市中和區安樂路217巷67弄12號","121.513376666667","24.9968966666667","6500300","中和區"
"235065","098-UM","2018/08/31 18:49:14","新北市中和區中山路二段2巷41號","121.502588333333","25.0069366666667","6500300","中和區"
"235040","150-BY","2018/08/31 18:49:21","新北市中和區安平路46號","121.510166666667","24.99543","6500300","中和區"
"235058","151-BY","2018/08/31 18:49:20","新北市中和區連城路603號","121.478266666667","24.993575","6500300","中和區"
"235055","183-VK","2018/08/31 18:49:05","新北市中和區民生街55號","121.46956","25.00516","6500300","中和區"
"235038","185-VK","2018/08/31 18:49:13","新北市中和區大仁街44號","121.518245","24.9939866666667","6500300","中和區"
"235049","186-VK","2018/08/31 18:49:05","新北市中和區景安路130號","121.505183333333","24.9945433333333","6500300","中和區"
"235067","255-BX","2018/08/31 18:49:17","新北市中和區中正路859號","121.48456","25.0031883333333","6500300","中和區"
"235044","293-VK","2018/08/31 18:49:16","新北市中和區中興街143號","121.499895","24.9912333333333","6500300","中和區"
"235072","301-VK","2018/08/31 18:49:06","新北市中和區中山路二段47號","121.504451666667","25.0049666666667","6500300","中和區"
"235043","352-BY","2018/08/31 18:49:06","新北市中和區成功路139號","121.526045","24.9903583333333","6500300","中和區"
"235042","KEA-2878","2018/08/31 18:49:10","新北市中和區成功路99號","121.525983333333","24.9916883333333","6500300","中和區"
"235050","4979-A6","2018/08/31 18:49:04","新北市中和區景新街496巷32弄15號","121.512926666667","24.9852833333333","6500300","中和區"
"235069","4980-A6","2018/08/31 18:49:23","新北市中和區連城路65巷14號","121.49804","25.00062","6500300","中和區"
"235070","558-UM","2018/08/31 18:49:13","新北市中和區中和路162號","121.504201666667","24.9997166666667","6500300","中和區"
"235045","565-BX","2018/08/31 18:49:21","新北市中和區捷運路135號","121.506998333333","24.990805","6500300","中和區"
"235054","640-BX","2018/08/31 18:49:18","新北市中和區民治街28號","121.475291666667","25.0038016666667","6500300","中和區"
"235060","647-TV","2018/08/31 18:49:19","新北市中和區中山路三段124號","121.474315","25.0061883333333","6500300","中和區"
"235047","732-UM","2018/08/31 18:49:06","新北市中和區興南路二段34巷71號","121.504933333333","24.9850633333333","6500300","中和區"
"235046","733-UM","2018/08/31 18:49:21","新北市中和區仁愛街36巷44號","121.511383333333","24.9862966666667","6500300","中和區"
"235062","800-TS","2018/08/31 18:49:03","新北市中和區中山路二段312巷33弄22號","121.49478","25.0043816666667","6500300","中和區"
"235057","801-TS","2018/08/31 18:49:20","新北市中和區民利街12號","121.480655","24.9991566666667","6500300","中和區"
"235041","802-TS","2018/08/31 18:49:03","新北市中和區中安街226號","121.512195","24.9986816666667","6500300","中和區"
"235052","805-TS","2018/08/31 18:49:12","新北市中和區興南路二段399巷98弄48號","121.498173333333","24.9765783333333","6500300","中和區"
"235048","896-TW","2018/08/31 18:49:09","新北市中和區華新街2-6號","121.50746","24.98513","6500300","中和區"
"235053","900-TW","2018/08/31 18:49:07","新北市中和區華福街42巷5號","121.466371666667","24.9961666666667","6500300","中和區"
"235051","157-BY","2018/08/31 18:49:16","新北市中和區忠孝街106巷34號","121.513123333333","24.9842933333333","6500300","中和區"
"235037","AAC-213","2018/08/31 18:49:15","新北市中和區秀朗路三段128巷13號","121.52451","24.99331","6500300","中和區"
"235059","AAC-215","2018/08/31 18:49:16","新北市中和區圓通路393巷18號","121.489836666667","24.988575","6500300","中和區"
"220086","073-UY","2018/08/31 18:49:11","新北市板橋區大智街71巷3弄1號","121.453495","25.015305","6500100","板橋區"
"220106","075-UY","2018/08/31 18:49:10","新北市板橋區民生路二段120號","121.470538333333","25.0197083333333","6500100","板橋區"
"220069","AAD-861","2018/08/31 18:49:09","新北市板橋區大華街20號","121.458915","25.0061283333333","6500100","板橋區"
"226004","205-ST","2018/08/31 18:49:13","新北市平溪區平溪里三坑路40-2號","121.73113","25.0348283333333","6502400","平溪區"
"228002","663-BX","2018/08/31 18:49:10","新北市貢寮區福隆里東興街6-11號","121.950741666667","25.0210983333333","6502600","貢寮區"
"228001","670-TC","2018/08/31 18:49:10","新北市貢寮區仁理村保健街73號","121.923746666667","25.0516983333333","6502600","貢寮區"
"228003","828-UM","2018/08/31 18:49:09","新北市貢寮區和美里龍洞街53號","121.912391666667","25.113695","6502600","貢寮區"
"224010","AGQ-8101","2018/08/31 18:38:16","新北市瑞芳區金光路334號","121.848283333333","25.1095433333333","6501200","瑞芳區"
"224006","676-BX","2018/08/31 18:49:16","新北市瑞芳區中正路63-1號","121.806136666667","25.1074266666667","6501200","瑞芳區"
"224002","639-TC","2018/08/31 18:49:05","新北市瑞芳區靜安路四段10號","121.795038333333","25.086065","6501200","瑞芳區"
"224008","285-BY","2018/08/31 18:49:12","新北市瑞芳區逢甲路323號","121.801126666667","25.1117766666667","6501200","瑞芳區"
"224007","275-VK","2018/08/31 18:49:06","新北市瑞芳區大埔路146號","121.761736666667","25.1010016666667","6501200","瑞芳區"
"224009","273-VK","2018/08/31 18:49:19","新北市瑞芳區五號路253-1號","121.85629","25.1127066666667","6501200","瑞芳區"
"224005","271-BY","2018/08/31 18:49:13","新北市瑞芳區瑞濱路1-8號","121.828416666667","25.12149","6501200","瑞芳區"
"227003","642-TC","2018/08/31 18:49:24","新北市雙溪區平林里梅竹蹊26號","121.861671666667","25.0360033333333","6502500","雙溪區"
"227011","400-TW","2018/08/31 18:49:10","新北市雙溪區牡丹里聖南8號","121.858943333333","25.0526866666667","6502500","雙溪區"
"253005","032-BX","2018/08/31 18:49:19","新北市石門區中山路26號","121.565966666667","25.2902483333333","6502200","石門區"
"253006","295-VK","2018/08/31 18:49:07","新北市石門區下員坑15號","121.511643333333","25.2846316666667","6502200","石門區"
"222001","KEA-2212","2018/08/31 18:49:10","新北市深坑區松柏街37巷3號","121.638276666667","25.0116","6501800","深坑區"
"208002","KEA-2872","2018/08/31 18:49:08","新北市金山區信義路66號","121.63569","25.2189266666667","6502700","金山區"
"208003","665-BX","2018/08/31 18:49:17","新北市金山區中山路393號","121.63339","25.22522","6502700","金山區"
"208001","761-BX","2018/08/31 18:49:18","新北市金山區文化三路66巷1號","121.634171666667","25.225605","6502700","金山區"
"251010","413-VK","2018/08/31 18:49:17","新北市淡水區沙崙路20號","121.421451666667","25.1809716666667","6501000","淡水區"
"251012","441-VK","2018/08/31 18:49:08","新北市淡水區中山北路一段245號","121.444663333333","25.1800966666667","6501000","淡水區"
"251007","442-VK","2018/08/31 18:49:20","新北市淡水區中正東路二段143巷2弄1號","121.46048","25.1472866666667","6501000","淡水區"
"251001","559-UM","2018/08/31 18:49:21","新北市淡水區自強路311號","121.462821666667","25.1320366666667","6501000","淡水區"
"251006","561-UM","2018/08/31 18:49:05","新北市淡水區下圭柔山90-8號","121.431718333333","25.2109766666667","6501000","淡水區"
"251011","650-BX","2018/08/31 18:49:22","新北市淡水區學府路8號","121.447481666667","25.167875","6501000","淡水區"
"251002","672-BX","2018/08/31 18:49:05","新北市淡水區學府路71號","121.448498333333","25.1698366666667","6501000","淡水區"
"251003","673-BX","2018/08/31 18:49:11","新北市淡水區中山北路一段186巷27弄1-1號","121.44617","25.17888","6501000","淡水區"
"207003","550-UM","2018/08/31 18:49:21","新北市萬里區大鵬里頂社1-2號","121.657328333333","25.20972","6502800","萬里區"
"207004","225-TW","2018/08/31 18:49:03","新北市萬里區萬里里獅頭路23號","121.693236666667","25.1782366666667","6502800","萬里區"
"252002","178-VK","2018/08/31 18:49:07","新北市三芝區中正路一段112號","121.504835","25.25637","6502100","三芝區"
"252003","249-BX","2018/08/31 18:49:10","新北市三芝區後厝里大片頭83-3號","121.458985","25.2441133333333","6502100","三芝區"
"252001","292-VK","2018/08/31 18:49:14","新北市三芝區中正路三段9號","121.502901666667","25.253965","6502100","三芝區"
"237004","KEA-2597","2018/08/31 18:49:18","新北市三峽區有木206號","121.439143333333","24.8515333333333","6500900","三峽區"
"237007","153-BY","2018/08/31 18:49:17","新北市三峽區大埔路87號","121.366503333333","24.9073666666667","6500900","三峽區"
"237009","210-TH","2018/08/31 18:49:12","新北市三峽區民權街153-1號","121.368373333333","24.9311966666667","6500900","三峽區"
"237013","252-BX","2018/08/31 18:49:24","新北市三峽區光明路69巷25號","121.37658","24.9291933333333","6500900","三峽區"
"237012","275-BY","2018/08/31 18:49:15","新北市樹林區佳園路三段486號","121.382978333333","24.94391","6500900","三峽區"
"237008","302-VK","2018/08/31 18:49:21","新北市三峽區白雞33-60號","121.370906666667","24.91314","6500900","三峽區"
"237014","433-BY","2018/08/31 18:49:09","新北市三峽區隆恩街189號","121.361205","24.94242","6500900","三峽區"
"237011","280-TH","2018/08/31 18:49:22","新北市三峽區介壽路三段132號","121.400008333333","24.9426866666667","6500900","三峽區"
"237006","5529-G3","2018/08/31 18:49:09","新北市三峽區溪東路233巷44-1號","121.409656666667","24.9333383333333","6500900","三峽區"
"237015","649-BX","2018/08/31 18:49:16","新北市三峽區建安139-7號","121.466585","24.9142466666667","6500900","三峽區"
"237010","706-TV","2018/08/31 18:49:14","新北市三峽區復興路299號","121.365676666667","24.938855","6500900","三峽區"
"237005","AKY-6261","2018/08/31 18:49:16","新北市三峽區中山路459巷163-3號","121.349098333333","24.9333833333333","6500900","三峽區"
"236069","105-UM","2018/08/31 18:49:21","新北市土城區永豐路143號","121.466633333333","24.9834883333333","6501300","土城區"
"236042","107-UM","2018/08/31 18:49:08","新北市土城區裕民路92巷23弄2號","121.449766666667","24.9861283333333","6501300","土城區"
"236079","166-UM","2018/08/31 18:49:16","新北市土城區中央路四段185巷42號","121.416073333333","24.9558016666667","6501300","土城區"
"236030","253-BX","2018/08/31 18:49:06","新北市土城區忠義路26巷10號","121.439828333333","24.9699166666667","6501300","土城區"
"236026","269-VK","2018/08/31 18:49:04","新北市土城區興城路20號","121.442286666667","24.9730483333333","6501300","土城區"
"236014","270-VK","2018/08/31 18:49:25","新北市土城區金城路二段354巷4號","121.460713333333","24.9848366666667","6501300","土城區"
"236039","271-VK","2018/08/31 18:49:22","新北市土城區仁愛路25號","121.462593333333","24.9784616666667","6501300","土城區"
"236020","401-BY","2018/08/31 18:49:09","新北市土城區延吉街253巷3號","121.467745","24.9847","6501300","土城區"
"236059","912-UM","2018/08/31 18:49:16","新北市土城區金城路二段8-1號","121.449005","24.9770766666667","6501300","土城區"
"236048","913-UM","2018/08/31 18:49:20","新北市土城區青雲路113號","121.458938333333","24.9847866666667","6501300","土城區"
"236063","915-UM","2018/08/31 18:49:16","新北市土城區延和路230號","121.469375","24.9901333333333","6501300","土城區"
"236055","AAC-216","2018/08/31 18:49:22","新北市土城區裕民路198號","121.453076666667","24.9847783333333","6501300","土城區"
"242027","615-BX","2018/08/31 18:49:06","新北市新莊區新泰路255巷83號","121.442275","25.038845","6500500","新莊區"
"238023","601-UM","2018/08/31 18:49:12","新北市樹林區工興街14巷2號","121.398975","25.0135866666667","6500700","樹林區"
"238019","599-UM","2018/08/31 18:49:22","新北市樹林區中華路188號","121.413536666667","24.9803666666667","6500700","樹林區"
"238024","5061-A6","2018/08/31 18:49:14","新北市樹林區八德街490號","121.400443333333","24.9703","6500700","樹林區"
"238021","KEA-2539","2018/08/31 18:49:12","新北市樹林區西圳街二段30號","121.388526666667","24.96179","6500700","樹林區"
"238025","303-VK","2018/08/31 18:49:15","新北市樹林區中山路三段22號","121.395615","24.9729566666667","6500700","樹林區"
"238017","283-BY","2018/08/31 18:49:19","新北市樹林區光興街44號","121.409871666667","25.002765","6500700","樹林區"
"238014","282-BY","2018/08/31 18:49:14","新北市樹林區大安路111巷25號","121.423135","24.9975566666667","6500700","樹林區"
"238020","268-VK","2018/08/31 18:49:21","新北市樹林區俊安街31巷5號","121.420503333333","25.01337","6500700","樹林區"
"238026","172-UY","2018/08/31 18:49:20","新北市樹林區吉祥街23號","121.395656666667","24.9737366666667","6500700","樹林區"
"238016","169-UY","2018/08/31 18:49:20","新北市樹林區文化街23號","121.419288333333","24.98762","6500700","樹林區"
"239007","AAC-297","2018/08/31 18:49:18","新北市鶯歌區中正一路345巷22號","121.357976666667","24.9577583333333","6500800","鶯歌區"
"239006","891-R6","2018/08/31 18:49:24","新北市鶯歌區鶯桃路296巷72弄10號","121.336853333333","24.9614333333333","6500800","鶯歌區"
"239008","527-UM","2018/08/31 18:49:10","新北市鶯歌區國際二路20巷1號","121.336608333333","24.9751","6500800","鶯歌區"
"239005","526-UM","2018/08/31 18:49:11","新北市鶯歌區大湖路361巷24弄2號","121.33026","24.97817","6500800","鶯歌區"
"239001","417-VK","2018/08/31 18:49:10","新北市鶯歌區永明街67-2號","121.340663333333","24.9560783333333","6500800","鶯歌區"
"239003","360-BY","2018/08/31 18:49:11","新北市鶯歌區鶯桃路660號","121.329171666667","24.96922","6500800","鶯歌區"
"239002","359-BY","2018/08/31 18:49:09","新北市鶯歌區中正一路300號","121.355761666667","24.9571066666667","6500800","鶯歌區"
"239004","193-VK","2018/08/31 18:49:22","新北市鶯歌區中正三路390號","121.326723333333","24.9346183333333","6500800","鶯歌區"
"221008","489-VK","2018/08/31 18:49:17","新北市汐止區康寧街901號","121.65142","25.07502","6501100","汐止區"
"221036","130-UY","2018/08/31 18:49:23","新北市汐止區新台五路二段87-1號","121.664841666667","25.06704","6501100","汐止區"
"221015","131-UY","2018/08/31 18:49:18","新北市汐止區鄉長路一段55巷22號","121.664766666667","25.07631","6501100","汐止區"
"221010","269-BY","2018/08/31 18:49:08","新北市汐止區康寧街901號","121.651531666667","25.07507","6501100","汐止區"
"221012","278-VK","2018/08/31 18:49:17","新北市汐止區康寧街901號","121.650798333333","25.0752566666667","6501100","汐止區"
"221023","279-VK","2018/08/31 18:49:05","新北市汐止區康寧街901號","121.650946666667","25.07523","6501100","汐止區"
"221032","280-BY","2018/08/31 18:49:14","新北市汐止區橫科路322巷24弄6-1號","121.62033","25.0501733333333","6501100","汐止區"
"221027","281-BY","2018/08/31 18:49:26","新北市汐止區康寧街901號","121.65152","25.0750166666667","6501100","汐止區"
"221029","298-VK","2018/08/31 18:49:15","新北市汐止區樟樹一路2巷36號","121.641515","25.0627216666667","6501100","汐止區"
"221021","299-VK","2018/08/31 18:49:26","新北市汐止區新台五路一段131號","121.652361666667","25.06186","6501100","汐止區"
"221031","353-TW","2018/08/31 18:49:17","新北市汐止區福德一路300巷27號","121.630536666667","25.0642216666667","6501100","汐止區"
"221002","129-UY","2018/08/31 18:49:19","新北市汐止區大同路一段161號","121.63245","25.0564983333333","6501100","汐止區"
"221035","622-UM","2018/08/31 18:49:13","新北市汐止區大同路二段268號","121.654685","25.0661116666667","6501100","汐止區"
"221025","623-UM","2018/08/31 18:49:04","新北市汐止區仁愛路36號","121.660518333333","25.0628283333333","6501100","汐止區"
"221038","646-BX","2018/08/31 18:49:12","新北市汐止區汐萬路一段312號","121.6507","25.0752883333333","6501100","汐止區"
"221033","647-BX","2018/08/31 18:49:20","新北市汐止區南勢街3號","121.627055","25.0373416666667","6501100","汐止區"
"221018","753-BX","2018/08/31 18:49:09","新北市汐止區茄苳路2巷1號","121.664448333333","25.0708416666667","6501100","汐止區"
"220079","145-BY","2018/08/31 18:49:19","新北市板橋區民權路202巷7弄21號","121.459213333333","25.0149616666667","6500100","板橋區"
"220080","200-UY","2018/08/31 18:49:26","新北市板橋區大觀路二段265巷60弄1號","121.442685","24.9980333333333","6500100","板橋區"
"220082","610-BX","2018/08/31 18:49:13","新北市板橋區篤行路三段71號","121.427273333333","24.9855","6500100","板橋區"
"220056","276-BY","2018/08/31 18:49:20","新北市土城區四川路11號","121.455493333333","24.9959683333333","6500100","板橋區"
"220072","277-BY","2018/08/31 18:49:10","新北市板橋區大觀路三段36巷76號","121.434545","24.9973916666667","6500100","板橋區"
"220089","280-UM","2018/08/31 18:49:17","新北市板橋區民生路二段148號","121.471133333333","25.0199033333333","6500100","板橋區"
"220071","283-VK","2018/08/31 18:49:10","新北市板橋區忠孝路176巷8號","121.464601666667","25.0020333333333","6500100","板橋區"
"220094","285-UM","2018/08/31 18:49:07","新北市板橋區民生路二段161巷1號","121.470098333333","25.0199233333333","6500100","板橋區"
"220083","286-VK","2018/08/31 18:49:16","新北市板橋區僑中二街90巷2號","121.446451666667","25.0091383333333","6500100","板橋區"
"220081","287-VK","2018/08/31 18:49:05","新北市板橋區光華街13巷28-3號","121.453385","25.0113683333333","6500100","板橋區"
"220061","295-UM","2018/08/31 18:49:24","新北市板橋區介壽街119號","121.470591666667","25.0187766666667","6500100","板橋區"
"220084","296-UM","2018/08/31 18:49:19","新北市板橋區大觀路二段150巷61號","121.441515","25.0003133333333","6500100","板橋區"
"220062","299-UM","2018/08/31 18:49:12","新北市板橋區中山路二段23號","121.472341666667","25.01532","6500100","板橋區"
"220075","303-R5","2018/08/31 18:49:23","新北市板橋區南雅東路100巷6號","121.454115","25.0074366666667","6500100","板橋區"
"220098","317-R6","2018/08/31 18:49:22","新北市板橋區民生路二段120號","121.470695","25.0200133333333","6500100","板橋區"
"220064","486-VK","2018/08/31 18:49:19","新北市板橋區民生路二段15-1號","121.472776666667","25.016005","6500100","板橋區"
"220088","491-VK","2018/08/31 18:49:08","新北市板橋區民生路二段161巷1號","121.470173333333","25.0201816666667","6500100","板橋區"
"220104","560-BX","2018/08/31 18:49:12","新北市板橋區中正路275巷62弄4號","121.453125","25.0181566666667","6500100","板橋區"
"220063","609-BX","2018/08/31 18:49:14","新北市板橋區民生路二段123號","121.47065","25.0186733333333","6500100","板橋區"
"220091","637-BX","2018/08/31 18:49:22","新北市板橋區民生路二段120號","121.4704","25.0201833333333","6500100","板橋區"
"220057","686-BX","2018/08/31 18:49:09","新北市板橋區華東街270號","121.452713333333","25.001695","6500100","板橋區"
"220077","687-BX","2018/08/31 18:49:22","新北市板橋區龍興街103巷1號","121.444505","25.003385","6500100","板橋區"
"220054","741-BX","2018/08/31 18:49:05","新北市板橋區館前東路22號","121.460198333333","25.0071783333333","6500100","板橋區"
"220102","KEA-2699","2018/08/31 18:49:06","新北市板橋區民生路二段148號","121.471415","25.0197066666667","6500100","板橋區"
"220055","827-TW","2018/08/31 18:49:06","新北市板橋區中山路一段143號","121.464546666667","25.0116866666667","6500100","板橋區"
"220067","829-TW","2018/08/31 18:49:17","新北市板橋區民生路二段5號","121.472823333333","25.0157766666667","6500100","板橋區"
"220068","830-TW","2018/08/31 18:49:12","新北市板橋區介壽街117號","121.470503333333","25.0187083333333","6500100","板橋區"
"220074","895-R6","2018/08/31 18:49:15","新北市板橋區林園街55號","121.453585","25.0102333333333","6500100","板橋區"
"220073","985-R7","2018/08/31 18:49:24","新北市板橋區林園街54號","121.45396","25.01068","6500100","板橋區"
"220097","AAC-210","2018/08/31 18:44:33","新北市板橋區莊敬路208巷8弄6號","121.470703333333","25.0208183333333","6500100","板橋區"
"220070","AAC-253","2018/08/31 18:49:06","新北市板橋區四川路一段133號","121.45983","25.0045916666667","6500100","板橋區"
"235068","KEA-2873","2018/08/31 18:48:59","新北市中和區中正路211巷13弄42-1號","121.498035","24.9930083333333","6500300","中和區"
"235061","KEA-2875","2018/08/31 18:49:07","新北市中和區民享街32巷2號","121.474006666667","25.003275","6500300","中和區"
