"lineid","car","time","location","longitude","latitude","cityid","cityname"
"234046","148-BY","2018/08/31 18:59:13","新北市永和區永元路52巷52號","121.524493333333","25.0007166666667","6500400","永和區"
"234007","207-UY","2018/08/31 18:59:14","新北市永和區中山路一段47號","121.513106666667","25.0104866666667","6500400","永和區"
"234081","298-R6","2018/08/31 18:59:10","新北市永和區國中路156號","121.52265","25.0066916666667","6500400","永和區"
"234038","336-UY","2018/08/31 18:59:25","新北市中和區秀朗路三段38號","121.526505","24.995965","6500400","永和區"
"234064","337-UY","2018/08/31 18:59:27","新北市永和區中正路387號","121.517153333333","25.003925","6500400","永和區"
"234086","338-UY","2018/08/31 18:59:13","新北市永和區中正路500號","121.517333333333","25.0042166666667","6500400","永和區"
"234070","552-UM","2018/08/31 18:59:15","新北市永和區竹林路124巷38號","121.517906666667","25.01153","6500400","永和區"
"234017","745-BX","2018/08/31 18:59:21","新北市永和區永和路二段289號","121.51609","25.0159216666667","6500400","永和區"
"234030","746-BX","2018/08/31 18:59:23","新北市永和區得和路420號","121.526185","24.9987783333333","6500400","永和區"
"234054","KEA-2590","2018/08/31 18:59:20","新北市永和區竹林路66巷15-7號","121.518271666667","25.0132483333333","6500400","永和區"
"234061","AAD-866","2018/08/31 18:59:16","新北市永和區福和路313號","121.516106666667","25.0071666666667","6500400","永和區"
"234013","847-RS","2018/08/31 18:59:19","新北市永和區信義路17巷9弄1號","121.514","25.0116183333333","6500400","永和區"
"234050","863-TW","2018/08/31 18:59:13","新北市永和區文化路208號","121.510295","25.0165183333333","6500400","永和區"
"234026","9371-KE","2018/08/31 18:59:18","新北市永和區安樂路453號","121.514238333333","25.0050083333333","6500400","永和區"
"234011","9373-KE","2018/08/31 18:59:17","新北市永和區仁愛路111號","121.512278333333","25.01305","6500400","永和區"
"249005","172-UM","2018/08/31 18:59:24","新北市八里區長道坑11號","121.395558333333","25.1228833333333","6502300","八里區"
"249001","173-UM","2018/08/31 18:59:11","新北市八里區龍米路二段228-1號","121.432768333333","25.1584216666667","6502300","八里區"
"248014","025-BX","2018/08/31 18:59:18","新北市五股區民義路一段107巷32號","121.432178333333","25.08456","6501500","五股區"
"248016","026-BX","2018/08/31 18:59:22","新北市五股區成泰路三段543巷18號","121.450888333333","25.10222","6501500","五股區"
"248006","077-UY","2018/08/31 18:59:11","新北市五股區中興路一段24號","121.46873","25.0724366666667","6501500","五股區"
"248008","095-VK","2018/08/31 18:59:19","新北市五股區中興路一段116號","121.465981666667","25.0736616666667","6501500","五股區"
"248018","225-UY","2018/08/31 18:59:11","新北市五股區民義路二段22巷21號","121.421305","25.0978383333333","6501500","五股區"
"248012","247-BX","2018/08/31 18:59:22","新北市五股區中興路四段48巷19號","121.438573333333","25.0835633333333","6501500","五股區"
"248010","272-BY","2018/08/31 18:59:16","新北市五股區水碓五路81號","121.429966666667","25.071915","6501500","五股區"
"248004","677-BX","2018/08/31 18:59:23","新北市五股區民義路二段50-5號","121.410935","25.10393","6501500","五股區"
"248002","678-BX","2018/08/31 18:59:15","新北市五股區凌雲路一段85號","121.450703333333","25.101365","6501500","五股區"
"234023","9380-KE","2018/08/31 18:59:27","新北市永和區竹林路75巷33弄3號","121.52055","25.014305","6500400","永和區"
"234077","969-R7","2018/08/31 18:59:26","新北市永和區得和路104巷16號","121.517918333333","24.9995266666667","6500400","永和區"
"234074","AAC-211","2018/08/31 18:59:14","新北市永和區環河東路二段98號","121.524123333333","25.0103416666667","6500400","永和區"
"234067","AAC-212","2018/08/31 18:59:22","新北市永和區自由街62號","121.51371","25.0057333333333","6500400","永和區"
"234003","AAC-295","2018/08/31 18:59:10","新北市永和區和平街38號","121.512996666667","25.0099066666667","6500400","永和區"
"232011","375-UM","2018/08/31 18:59:22","新北市坪林區水聳淒坑25號","121.711473333333","24.9342","6502000","坪林區"
"244019","403-UM","2018/08/31 18:59:09","新北市林口區麗園二街1巷5-2號","121.377621666667","25.0700416666667","6501700","林口區"
"244013","KEA-2802","2018/08/31 18:59:08","新北市林口區麗園一街6巷1-3號","121.376628333333","25.06981","6501700","林口區"
"244023","483-VK","2018/08/31 18:59:11","新北市林口區吉祥路178號","121.376661666667","25.080495","6501700","林口區"
"244017","485-VK","2018/08/31 18:58:51","新北市林口區文化二路一段68巷11號","121.366543333333","25.0688133333333","6501700","林口區"
"244011","657-BX","2018/08/31 18:59:13","新北市林口區仁愛路一段285巷116號","121.395116666667","25.07586","6501700","林口區"
"244025","837-TS","2018/08/31 18:59:11","新北市林口區忠孝路1號","121.36415","25.0760016666667","6501700","林口區"
"243013","AAD-798","2018/08/31 18:59:11","新北市泰山區明志路三段239號","121.423521666667","25.0377716666667","6501600","泰山區"
"243009","297-R6","2018/08/31 18:59:12","新北市泰山區泰林路二段365號","121.42798","25.0637033333333","6501600","泰山區"
"243016","KEA-2801","2018/08/31 18:59:11","新北市泰山區明志路二段152-1號","121.427523333333","25.0506616666667","6501600","泰山區"
"243015","421-VK","2018/08/31 18:59:07","新北市泰山區泰林路二段216號","121.43283","25.061785","6501600","泰山區"
"243011","KEA-2215","2018/08/31 18:59:16","新北市泰山區明志路二段228號","121.427178333333","25.0483416666667","6501600","泰山區"
"243010","KEA-2216","2018/08/31 18:59:15","新北市泰山區辭修路22號","121.429143333333","25.05817","6501600","泰山區"
"243012","646-TV","2018/08/31 18:59:26","新北市泰山區福興三街181號","121.4329","25.0570316666667","6501600","泰山區"
"243014","680-BX","2018/08/31 18:59:17","新北市泰山區黎明路23號","121.42094","25.0625516666667","6501600","泰山區"
"222003","436-BY","2018/08/31 18:59:11","新北市深坑區深南路51-1號","121.621366666667","25.0101866666667","6501800","深坑區"
"222002","659-BX","2018/08/31 18:59:13","新北市深坑區文山路一段31巷2號","121.62982","25.0033116666667","6501800","深坑區"
"231041","002-UM","2018/08/31 18:59:12","新北市新店區環河路62號","121.537043333333","24.9626583333333","6500600","新店區"
"231056","0291-UT","2018/08/31 18:59:05","新北市新店區二十張路46巷20號","121.536868333333","24.9820216666667","6500600","新店區"
"231059","046-UY","2018/08/31 18:59:18","新北市新店區安華路28-1號","121.519681666667","24.9609466666667","6500600","新店區"
"231040","047-UY","2018/08/31 18:59:15","新北市新店區中央路11號","121.533375","24.9785083333333","6500600","新店區"
"231046","107-UY","2018/08/31 18:59:13","新北市新店區直潭四街46號","121.533168333333","24.9414316666667","6500600","新店區"
"231053","108-UY","2018/08/31 18:59:13","新北市新店區屈尺路12號","121.548916666667","24.9226066666667","6500600","新店區"
"231064","110-UY","2018/08/31 18:59:23","新北市新店區安一路一段1-1號","121.519733333333","24.9611533333333","6500600","新店區"
"231048","187-VK","2018/08/31 18:59:23","新北市新店區德正街23巷12-1號","121.544608333333","24.9721866666667","6500600","新店區"
"231054","KEA-2219","2018/08/31 18:59:21","新北市新店區新店路9號","121.540451666667","24.9528816666667","6500600","新店區"
"231042","268-BY","2018/08/31 18:59:18","新北市新店區中正路45號","121.544851666667","24.9698566666667","6500600","新店區"
"231051","278-BY","2018/08/31 18:59:11","新北市新店區百忍街17巷1號","121.53448","24.9756366666667","6500600","新店區"
"231050","AAD-862","2018/08/31 18:59:18","新北市新店區北宜路二段56巷3弄1號","121.54922","24.9509616666667","6500600","新店區"
"231044","355-BY","2018/08/31 18:59:14","新北市新店區寶中路78號","121.548376666667","24.9806316666667","6500600","新店區"
"231058","3713-VJ","2018/08/31 18:59:08","新北市新店區中興路一段139號","121.542036666667","24.9636733333333","6500600","新店區"
"231066","4716-K9","2018/08/31 18:59:22","新北市新店區安豐路24號","121.500703333333","24.9566116666667","6500600","新店區"
"231067","4772-VM","2018/08/31 18:59:18","新北市新店區安康路一段355-10號","121.52036","24.9638283333333","6500600","新店區"
"231065","512-UM","2018/08/31 18:59:08","新北市新店區安康路二段393號","121.494316666667","24.9539216666667","6500600","新店區"
"231049","513-UM","2018/08/31 18:59:13","新北市新店區中正路454-5號","121.534453333333","24.9790366666667","6500600","新店區"
"231045","617-UM","2018/08/31 18:59:08","新北市新店區北新路一段71號","121.538343333333","24.9602833333333","6500600","新店區"
"231061","619-UM","2018/08/31 18:59:07","新北市新店區安華路30巷3號","121.518823333333","24.958625","6500600","新店區"
"231063","641-BX","2018/08/31 18:59:13","新北市新店區安華路3號","121.519401666667","24.9599","6500600","新店區"
"231062","720-UM","2018/08/31 18:59:06","新北市新店區安豐路49號","121.500188333333","24.9541016666667","6500600","新店區"
"231060","897-TW","2018/08/31 18:59:20","新北市新店區安忠路57巷11弄2號","121.51413","24.9576616666667","6500600","新店區"
"231043","899-TW","2018/08/31 18:59:11","新北市新店區中正路111號","121.542525","24.9707066666667","6500600","新店區"
"231055","AKT-0513","2018/08/31 18:59:12","新北市新店區新生街13巷42-1號","121.538836666667","24.966515","6500600","新店區"
"241035","462-BY","2018/08/31 18:59:24","新北市三重區重新路四段121號","121.484693333333","25.0521433333333","6500200","三重區"
"241029","942-UM","2018/08/31 18:59:09","新北市三重區重安街1號","121.489805","25.05848","6500200","三重區"
"235066","003-UY","2018/08/31 18:59:21","新北市中和區中山路二段131巷5弄7號","121.50295","25.0029216666667","6500300","中和區"
"235064","005-UY","2018/08/31 18:59:05","新北市中和區泰和街38號","121.49927","25.0000066666667","6500300","中和區"
"235063","006-UY","2018/08/31 18:59:11","新北市中和區中正路464號","121.490161666667","24.9942533333333","6500300","中和區"
"235056","096-UM","2018/08/31 18:59:20","新北市中和區新民街94巷10號","121.481281666667","25.008725","6500300","中和區"
"235039","097-UM","2018/08/31 18:59:25","新北市中和區安樂路217巷20弄21號","121.513238333333","24.9989916666667","6500300","中和區"
"235065","098-UM","2018/08/31 18:59:13","新北市中和區勝利路35巷4號","121.49888","25.0075483333333","6500300","中和區"
"235040","150-BY","2018/08/31 18:59:23","新北市中和區宜安路22號","121.513095","24.9958283333333","6500300","中和區"
"235058","151-BY","2018/08/31 18:59:20","新北市中和區連城路569巷9弄1號","121.479505","24.9943716666667","6500300","中和區"
"235055","183-VK","2018/08/31 18:59:05","新北市中和區民德路10號","121.468801666667","25.0027783333333","6500300","中和區"
"235038","185-VK","2018/08/31 18:59:13","新北市中和區立人街24-5號","121.518893333333","24.9941466666667","6500300","中和區"
"235049","186-VK","2018/08/31 18:59:25","新北市中和區景安路177巷35號","121.507006666667","24.994765","6500300","中和區"
"235067","255-BX","2018/08/31 18:59:17","新北市中和區新生街178號","121.483716666667","24.9999566666667","6500300","中和區"
"235044","293-VK","2018/08/31 18:59:16","新北市中和區中興街161巷3弄2號","121.500668333333","24.990935","6500300","中和區"
"235072","301-VK","2018/08/31 18:59:06","新北市中和區中山路二段149號","121.501798333333","25.0028","6500300","中和區"
"235043","352-BY","2018/08/31 18:59:06","新北市中和區成功路48號","121.526068333333","24.992855","6500300","中和區"
"235042","KEA-2878","2018/08/31 18:59:27","新北市中和區秀朗路三段76巷3號","121.52587","24.9940783333333","6500300","中和區"
"235050","4979-A6","2018/08/31 18:59:04","新北市中和區忠孝街58巷16弄1號","121.512248333333","24.9831","6500300","中和區"
"235069","4980-A6","2018/08/31 18:59:23","新北市中和區南山路50號","121.50198","24.997505","6500300","中和區"
"235070","558-UM","2018/08/31 18:59:12","新北市中和區中和路188號","121.504993333333","24.9996633333333","6500300","中和區"
"235045","565-BX","2018/08/31 18:59:21","新北市中和區景新街467巷22號","121.514165","24.98836","6500300","中和區"
"235054","640-BX","2018/08/31 18:59:08","新北市中和區民享街86巷14號","121.473838333333","25.0007816666667","6500300","中和區"
"235060","647-TV","2018/08/31 18:59:09","新北市中和區中山路三段153號","121.473556666667","25.0061833333333","6500300","中和區"
"235047","732-UM","2018/08/31 18:59:26","新北市中和區興南路二段54巷9弄2號","121.505985","24.9855733333333","6500300","中和區"
"235046","733-UM","2018/08/31 18:59:21","新北市中和區興南路二段7號","121.50813","24.9862183333333","6500300","中和區"
"235062","800-TS","2018/08/31 18:59:03","新北市中和區中山路二段356號","121.492865","25.0029566666667","6500300","中和區"
"235057","801-TS","2018/08/31 18:59:20","新北市中和區民利街100巷5弄1號","121.477231666667","24.9980566666667","6500300","中和區"
"235041","802-TS","2018/08/31 18:59:23","新北市中和區宜安路131號","121.509648333333","24.9981966666667","6500300","中和區"
"235052","805-TS","2018/08/31 18:59:25","新北市中和區興南路二段108號","121.504636666667","24.9841016666667","6500300","中和區"
"235048","896-TW","2018/08/31 18:59:09","新北市中和區華新街111號","121.508471666667","24.9814916666667","6500300","中和區"
"235053","900-TW","2018/08/31 18:59:07","新北市中和區民德路364號","121.46584","24.9940883333333","6500300","中和區"
"235051","157-BY","2018/08/31 18:59:16","新北市中和區忠孝街11巷8號","121.510045","24.9832133333333","6500300","中和區"
"235037","AAC-213","2018/08/31 18:59:15","新北市中和區自立路15巷1號","121.522458333333","24.9962816666667","6500300","中和區"
"235059","AAC-215","2018/08/31 18:59:16","新北市中和區圓通路367巷20弄29號","121.49133","24.9882266666667","6500300","中和區"
"220086","073-UY","2018/08/31 18:59:11","新北市板橋區中正路250巷10號","121.456015","25.01935","6500100","板橋區"
"220106","075-UY","2018/08/31 18:59:13","新北市板橋區文化路二段124巷24號","121.471143333333","25.02567","6500100","板橋區"
"220069","AAD-861","2018/08/31 18:59:08","新北市板橋區東興街48號","121.458465","25.0058516666667","6500100","板橋區"
"226004","205-ST","2018/08/31 18:59:13","新北市平溪區靜安路二段362號","121.737818333333","25.02453","6502400","平溪區"
"228002","663-BX","2018/08/31 18:59:09","新北市貢寮區福隆里東興街106巷25弄1號","121.94642","25.0182683333333","6502600","貢寮區"
"228001","670-TC","2018/08/31 18:59:10","新北市貢寮區仁理村保健街73號","121.923735","25.0517133333333","6502600","貢寮區"
"228003","828-UM","2018/08/31 18:59:27","新北市貢寮區和美里龍洞街56-3號","121.912436666667","25.1141983333333","6502600","貢寮區"
"224010","AGQ-8101","2018/08/31 18:57:40","新北市瑞芳區街頂巷6-1號","121.84535","25.1092883333333","6501200","瑞芳區"
"224006","676-BX","2018/08/31 18:59:16","新北市瑞芳區三爪子坑路106巷1-11號","121.8082","25.1052","6501200","瑞芳區"
"224008","285-BY","2018/08/31 18:59:23","新北市瑞芳區瑞芳街96號","121.801945","25.11038","6501200","瑞芳區"
"224007","275-VK","2018/08/31 18:59:06","新北市瑞芳區中央路48巷124號","121.75832","25.1042316666667","6501200","瑞芳區"
"224009","273-VK","2018/08/31 18:59:19","新北市瑞芳區長仁路38號","121.864345","25.117155","6501200","瑞芳區"
"224005","271-BY","2018/08/31 18:59:13","新北市瑞芳區豎崎路32-5號","121.824256666667","25.12114","6501200","瑞芳區"
"227003","642-TC","2018/08/31 18:59:04","新北市雙溪區平林里康福家園10號","121.858706666667","25.0372683333333","6502500","雙溪區"
"227011","400-TW","2018/08/31 18:59:11","新北市雙溪區牡丹里中正路58巷23號","121.866488333333","25.0416233333333","6502500","雙溪區"
"253005","032-BX","2018/08/31 18:59:19","新北市石門區中央路35-1號","121.568343333333","25.2938033333333","6502200","石門區"
"253006","295-VK","2018/08/31 18:59:07","新北市石門區八甲4-3號","121.520973333333","25.2831166666667","6502200","石門區"
"222001","KEA-2212","2018/08/31 18:59:10","新北市深坑區翠谷街1號","121.626728333333","25.0074116666667","6501800","深坑區"
"208002","KEA-2872","2018/08/31 18:59:08","新北市金山區仁愛路37-12號","121.635755","25.2199933333333","6502700","金山區"
"208003","665-BX","2018/08/31 18:59:17","新北市金山區中正路32號","121.635375","25.2221483333333","6502700","金山區"
"208001","761-BX","2018/08/31 18:59:18","新北市金山區中山路79號","121.640443333333","25.218555","6502700","金山區"
"251010","413-VK","2018/08/31 18:59:17","新北市淡水區淡海路90號","121.423013333333","25.18191","6501000","淡水區"
"251012","441-VK","2018/08/31 18:59:08","新北市淡水區新興街111號","121.44057","25.1808233333333","6501000","淡水區"
"251007","442-VK","2018/08/31 18:59:20","新北市淡水區民生路113巷1弄36號","121.463255","25.1386766666667","6501000","淡水區"
"251001","559-UM","2018/08/31 18:59:21","新北市淡水區自強路58號","121.463218333333","25.127445","6501000","淡水區"
"251006","561-UM","2018/08/31 18:59:25","新北市淡水區下圭柔山90-8號","121.431298333333","25.2103016666667","6501000","淡水區"
"251002","672-BX","2018/08/31 18:59:07","新北市淡水區中正東路63號","121.447093333333","25.1677","6501000","淡水區"
"251003","673-BX","2018/08/31 18:59:11","新北市淡水區中山北路一段149巷28號","121.443025","25.178075","6501000","淡水區"
"207003","550-UM","2018/08/31 18:59:24","新北市萬里區大鵬里頂社28號","121.656826666667","25.2105583333333","6502800","萬里區"
"207004","225-TW","2018/08/31 18:59:24","新北市萬里區萬里里獅頭路23號","121.693253333333","25.178225","6502800","萬里區"
"252002","178-VK","2018/08/31 18:59:27","新北市三芝區中正路一段58號","121.503643333333","25.257865","6502100","三芝區"
"252003","249-BX","2018/08/31 18:59:10","新北市三芝區後厝里北勢子42-1號","121.471636666667","25.2521183333333","6502100","三芝區"
"252001","292-VK","2018/08/31 18:59:14","新北市三芝區中興街二段260號","121.50172","25.2530633333333","6502100","三芝區"
"237004","KEA-2597","2018/08/31 18:53:29","新北市三峽區有木206號","121.439138333333","24.85157","6500900","三峽區"
"237007","153-BY","2018/08/31 18:59:05","新北市三峽區中正路二段41號","121.36674","24.9186933333333","6500900","三峽區"
"237013","252-BX","2018/08/31 18:59:24","新北市三峽區光明路69巷27號","121.376813333333","24.9292133333333","6500900","三峽區"
"237012","275-BY","2018/08/31 18:58:55","新北市三峽區三樹路222巷192-9號","121.388391666667","24.9418983333333","6500900","三峽區"
"237008","302-VK","2018/08/31 18:59:21","新北市三峽區中正路一段325-8號","121.370966666667","24.9231166666667","6500900","三峽區"
"237014","433-BY","2018/08/31 18:59:09","新北市三峽區隆恩街178巷2-1號","121.361973333333","24.9426516666667","6500900","三峽區"
"237011","280-TH","2018/08/31 18:59:22","新北市三峽區介壽路二段6巷2號","121.388995","24.9345283333333","6500900","三峽區"
"237006","5529-G3","2018/08/31 18:59:18","新北市三峽區溪東路205巷2號","121.404666666667","24.9337","6500900","三峽區"
"237015","649-BX","2018/08/31 18:59:16","新北市三峽區建安80-3號","121.452663333333","24.92383","6500900","三峽區"
"237010","706-TV","2018/08/31 18:59:14","新北市三峽區國光街153號","121.371866666667","24.9393983333333","6500900","三峽區"
"237005","AKY-6261","2018/08/31 18:59:16","新北市三峽區中山路459巷163-3號","121.348656666667","24.9329066666667","6500900","三峽區"
"236069","105-UM","2018/08/31 18:59:21","新北市土城區金城路二段188號","121.45361","24.9810383333333","6501300","土城區"
"236042","107-UM","2018/08/31 18:59:12","新北市土城區裕民路136巷29號","121.450716666667","24.9850983333333","6501300","土城區"
"236079","166-UM","2018/08/31 18:59:16","新北市土城區中央路四段125巷2弄17-1號","121.416375","24.95679","6501300","土城區"
"236030","253-BX","2018/08/31 18:59:25","新北市土城區慶利街11號","121.439506666667","24.9736216666667","6501300","土城區"
"236026","269-VK","2018/08/31 18:59:23","新北市土城區光明街11號","121.442015","24.97466","6501300","土城區"
"236014","270-VK","2018/08/31 18:59:25","新北市土城區延和路13巷1號","121.463535","24.9884883333333","6501300","土城區"
"236039","271-VK","2018/08/31 18:59:19","新北市土城區仁愛路10-1號","121.460128333333","24.9808766666667","6501300","土城區"
"236020","401-BY","2018/08/31 18:59:09","新北市土城區延吉街168巷9號","121.468081666667","24.9858216666667","6501300","土城區"
"236059","912-UM","2018/08/31 18:59:12","新北市土城區金城路二段200號","121.454656666667","24.9816483333333","6501300","土城區"
"236048","913-UM","2018/08/31 18:59:19","新北市土城區明德路一段365-1號","121.453673333333","24.9790983333333","6501300","土城區"
"236063","915-UM","2018/08/31 18:59:16","新北市土城區延和路41巷6弄12號","121.466415","24.990245","6501300","土城區"
"236055","AAC-216","2018/08/31 18:59:22","新北市土城區裕民路28號","121.447828333333","24.98851","6501300","土城區"
"242027","615-BX","2018/08/31 18:59:06","新北市新莊區新泰路255巷83號","121.442253333333","25.0388916666667","6500500","新莊區"
"238023","601-UM","2018/08/31 18:59:12","新北市樹林區大慶街122號","121.396","25.0134566666667","6500700","樹林區"
"238019","599-UM","2018/08/31 18:59:02","新北市樹林區東榮街147巷27弄1號","121.414705","24.9806983333333","6500700","樹林區"
"238021","KEA-2539","2018/08/31 18:59:12","新北市樹林區柑園街二段276巷22號","121.373015","24.9529816666667","6500700","樹林區"
"238025","303-VK","2018/08/31 18:59:15","新北市樹林區中山路三段22號","121.39559","24.9729966666667","6500700","樹林區"
"238017","283-BY","2018/08/31 18:59:19","新北市樹林區光興街50號","121.409856666667","25.0027433333333","6500700","樹林區"
"238014","282-BY","2018/08/31 18:59:14","新北市樹林區潭興街141巷2號","121.42566","24.9996433333333","6500700","樹林區"
"238020","268-VK","2018/08/31 18:59:21","新北市樹林區俊英街83巷1-1號","121.425828333333","25.007975","6500700","樹林區"
"238026","172-UY","2018/08/31 18:59:20","新北市樹林區地政街1號","121.393806666667","24.9717933333333","6500700","樹林區"
"238016","169-UY","2018/08/31 18:59:21","新北市樹林區復興路373巷7弄12號","121.417763333333","24.9867616666667","6500700","樹林區"
"239007","AAC-297","2018/08/31 18:59:18","新北市鶯歌區中山路124號","121.350425","24.9570683333333","6500800","鶯歌區"
"239006","891-R6","2018/08/31 18:59:14","新北市鶯歌區鶯桃路296巷72弄11號","121.336933333333","24.961545","6500800","鶯歌區"
"239008","527-UM","2018/08/31 18:59:09","新北市鶯歌區國際二路14巷16號","121.338065","24.97496","6500800","鶯歌區"
"239005","526-UM","2018/08/31 18:59:11","新北市鶯歌區大湖路金包珠巷1號","121.344765","24.973515","6500800","鶯歌區"
"239001","417-VK","2018/08/31 18:59:10","新北市鶯歌區永安街72號","121.338405","24.9561816666667","6500800","鶯歌區"
"239003","360-BY","2018/08/31 18:59:11","新北市鶯歌區鶯桃路405號","121.332975","24.9644183333333","6500800","鶯歌區"
"239002","359-BY","2018/08/31 18:59:09","新北市鶯歌區中山路222號","121.344815","24.9570733333333","6500800","鶯歌區"
"239004","193-VK","2018/08/31 18:59:02","新北市鶯歌區中正三路鄭厝巷16-6號","121.334236666667","24.9343183333333","6500800","鶯歌區"
"221008","489-VK","2018/08/31 18:59:17","新北市汐止區康寧街815巷11號","121.640733333333","25.0748416666667","6501100","汐止區"
"221036","130-UY","2018/08/31 18:59:16","新北市汐止區汐萬路一段256巷3號","121.652463333333","25.0745516666667","6501100","汐止區"
"221015","131-UY","2018/08/31 18:59:18","新北市汐止區大同路二段373號","121.657261666667","25.0672683333333","6501100","汐止區"
"221010","269-BY","2018/08/31 18:58:08","新北市汐止區康寧街901號","121.651456666667","25.0749533333333","6501100","汐止區"
"221012","278-VK","2018/08/31 18:59:17","新北市汐止區康寧街901號","121.650818333333","25.0752666666667","6501100","汐止區"
"221023","279-VK","2018/08/31 18:59:06","新北市汐止區康寧街901號","121.650936666667","25.0752366666667","6501100","汐止區"
"221032","280-BY","2018/08/31 18:59:14","新北市汐止區橫科路407巷25弄17-4號","121.626516666667","25.04882","6501100","汐止區"
"221027","281-BY","2018/08/31 18:59:06","新北市汐止區康寧街901號","121.651546666667","25.0750383333333","6501100","汐止區"
"221029","298-VK","2018/08/31 18:59:18","新北市汐止區樟樹一路242號","121.64233","25.0669366666667","6501100","汐止區"
"221021","299-VK","2018/08/31 18:59:06","新北市汐止區康寧街901號","121.651431666667","25.075115","6501100","汐止區"
"221031","353-TW","2018/08/31 18:59:17","新北市汐止區中興路181巷29弄8號","121.629881666667","25.0658633333333","6501100","汐止區"
"221002","129-UY","2018/08/31 18:59:19","新北市汐止區大同路一段2號","121.621006666667","25.05508","6501100","汐止區"
"221035","622-UM","2018/08/31 18:59:23","新北市汐止區中正路293號","121.656356666667","25.06804","6501100","汐止區"
"221025","623-UM","2018/08/31 18:59:24","新北市汐止區康寧街901號","121.651501666667","25.07505","6501100","汐止區"
"221038","646-BX","2018/08/31 18:59:12","新北市汐止區康寧街901號","121.650756666667","25.075265","6501100","汐止區"
"221033","647-BX","2018/08/31 18:59:20","新北市汐止區南勢街3號","121.627073333333","25.0373583333333","6501100","汐止區"
"221018","753-BX","2018/08/31 18:59:09","新北市汐止區汐萬路一段256巷3號","121.653296666667","25.074715","6501100","汐止區"
"220079","145-BY","2018/08/31 18:59:19","新北市板橋區民權路202巷10弄1號","121.460443333333","25.01536","6500100","板橋區"
"220080","200-UY","2018/08/31 18:59:06","新北市板橋區合宜路1-1號","121.44599","24.995545","6500100","板橋區"
"220082","610-BX","2018/08/31 18:59:13","新北市板橋區滿平街111號","121.42849","24.9884866666667","6500100","板橋區"
"220101","245-BX","2018/08/31 18:59:19","新北市板橋區文化路二段182巷7弄1號","121.471708333333","25.0267383333333","6500100","板橋區"
"220056","276-BY","2018/08/31 18:59:20","新北市板橋區信義路136號","121.458653333333","24.9921766666667","6500100","板橋區"
"220072","277-BY","2018/08/31 18:59:10","新北市板橋區溪北路154號","121.430425","24.9882716666667","6500100","板橋區"
"220089","280-UM","2018/08/31 18:59:17","新北市板橋區文化路二段464號","121.474746666667","25.032455","6500100","板橋區"
"220071","283-VK","2018/08/31 18:59:09","新北市板橋區忠孝路138號","121.463686666667","25.00243","6500100","板橋區"
"220094","285-UM","2018/08/31 18:59:07","新北市板橋區文化路二段76號","121.469386666667","25.0251566666667","6500100","板橋區"
"220053","285-VK","2018/08/31 18:59:07","新北市板橋區中山路二段147號","121.475598333333","25.01667","6500100","板橋區"
"220083","286-VK","2018/08/31 18:59:16","新北市板橋區大觀路一段38巷156弄10號","121.442403333333","25.0048066666667","6500100","板橋區"
"220081","287-VK","2018/08/31 18:59:24","新北市板橋區光華街19巷1號","121.453701666667","25.0120766666667","6500100","板橋區"
"220090","288-VK","2018/08/31 18:59:22","新北市板橋區四維路177巷1弄2號","121.464045","25.0262183333333","6500100","板橋區"
"220061","295-UM","2018/08/31 18:59:04","新北市板橋區富山街109巷73號","121.475258333333","25.0211183333333","6500100","板橋區"
"220084","296-UM","2018/08/31 18:59:19","新北市板橋區龍興街32號","121.443068333333","25.0004816666667","6500100","板橋區"
"220062","299-UM","2018/08/31 18:59:12","新北市板橋區三民路二段正隆巷13號","121.477526666667","25.0130066666667","6500100","板橋區"
"220075","303-R5","2018/08/31 18:59:13","新北市板橋區福德街28號","121.456015","25.00848","6500100","板橋區"
"220098","317-R6","2018/08/31 18:59:22","新北市板橋區民有街16號","121.466263333333","25.024855","6500100","板橋區"
"220064","486-VK","2018/08/31 18:59:22","新北市板橋區板新路145號","121.470095","25.0155166666667","6500100","板橋區"
"220088","491-VK","2018/08/31 18:59:17","新北市板橋區民生路二段216號","121.469346666667","25.021515","6500100","板橋區"
"220103","561-BX","2018/08/31 18:59:21","新北市板橋區縣民大道二段279號","121.469925","25.0177216666667","6500100","板橋區"
"220063","609-BX","2018/08/31 18:59:14","新北市板橋區中山路二段157號","121.475706666667","25.016725","6500100","板橋區"
"220091","637-BX","2018/08/31 18:59:22","新北市板橋區莒光路165巷28號","121.474171666667","25.0246933333333","6500100","板橋區"
"220057","686-BX","2018/08/31 18:59:09","新北市板橋區重慶路37號","121.461695","25.0075333333333","6500100","板橋區"
"220077","687-BX","2018/08/31 18:59:23","新北市板橋區大觀路二段281號","121.442508333333","24.99896","6500100","板橋區"
"220093","689-BX","2018/08/31 18:59:06","新北市板橋區民生路三段66號","121.466963333333","25.0257066666667","6500100","板橋區"
"220054","741-BX","2018/08/31 18:59:05","新北市板橋區成都街43號","121.461333333333","25.004895","6500100","板橋區"
"220102","KEA-2699","2018/08/31 18:59:26","新北市板橋區田單街2巷38號","121.481848333333","25.0275983333333","6500100","板橋區"
"220055","827-TW","2018/08/31 18:59:06","新北市板橋區中山路一段158巷27-4號","121.466578333333","25.0111566666667","6500100","板橋區"
"220067","829-TW","2018/08/31 18:59:23","新北市板橋區三民路二段正隆巷12弄6號","121.478146666667","25.0131166666667","6500100","板橋區"
"220068","830-TW","2018/08/31 18:59:12","新北市板橋區中山路二段465巷96號","121.481211666667","25.022715","6500100","板橋區"
"220096","831-TW","2018/08/31 18:59:22","新北市板橋區莒光路116號","121.47247","25.023965","6500100","板橋區"
"220074","895-R6","2018/08/31 18:59:06","新北市板橋區中正路37號","121.456286666667","25.01321","6500100","板橋區"
"220073","985-R7","2018/08/31 18:59:14","新北市板橋區民權路215號","121.457873333333","25.0151633333333","6500100","板橋區"
"220097","AAC-210","2018/08/31 18:59:12","新北市板橋區漢生東路83巷12號","121.467498333333","25.0161116666667","6500100","板橋區"
"220070","AAC-253","2018/08/31 18:59:06","新北市板橋區信義路15號","121.4569","24.9967433333333","6500100","板橋區"
"235068","KEA-2873","2018/08/31 18:58:59","新北市中和區圓通路289號","121.495113333333","24.9926716666667","6500300","中和區"
"235061","KEA-2875","2018/08/31 18:59:07","新北市中和區民享街89巷9弄3號","121.474883333333","25.0019883333333","6500300","中和區"
