"lineid","car","time","location","longitude","latitude","cityid","cityname"
"234046","148-BY","2018/08/31 20:18:33","新北市永和區林森路35號","121.525801666667","25.0049533333333","6500400","永和區"
"234081","298-R6","2018/08/31 20:18:30","新北市永和區國中路104巷2弄1號","121.524475","25.006765","6500400","永和區"
"234038","336-UY","2018/08/31 20:18:45","新北市永和區成功路一段93巷21弄2號","121.528316666667","25.0026966666667","6500400","永和區"
"234064","337-UY","2018/08/31 20:18:47","新北市永和區得和路106號","121.51807","25.000035","6500400","永和區"
"234086","338-UY","2018/08/31 20:17:33","新北市永和區中正路638號","121.51689","25.0082466666667","6500400","永和區"
"234070","552-UM","2018/08/31 20:18:35","新北市永和區福和路263巷20號","121.517971666667","25.0065166666667","6500400","永和區"
"234017","745-BX","2018/08/31 20:18:42","新北市永和區永和路二段207號","121.515455","25.0135833333333","6500400","永和區"
"234030","746-BX","2018/08/31 20:18:23","新北市永和區民有街67巷8弄3號","121.518223333333","24.9962283333333","6500400","永和區"
"234054","KEA-2590","2018/08/31 20:18:39","新北市永和區光復街2巷18號","121.51723","25.016645","6500400","永和區"
"234061","AAD-866","2018/08/31 20:18:16","新北市永和區得和路29號","121.515891666667","25.0002683333333","6500400","永和區"
"234013","847-RS","2018/08/31 20:18:40","新北市永和區保生路50號","121.505655","25.00855","6500400","永和區"
"234042","862-TW","2018/08/31 20:18:38","新北市中和區中安街168號","121.510855","24.9998783333333","6500400","永和區"
"234050","863-TW","2018/08/31 20:16:33","新北市永和區環河西路二段121號","121.506046666667","25.0145816666667","6500400","永和區"
"249005","172-UM","2018/08/31 20:17:04","新北市八里區下罟子57-8號","121.387838333333","25.1386766666667","6502300","八里區"
"249001","173-UM","2018/08/31 20:18:46","新北市八里區中華路二段538號","121.399008333333","25.145115","6502300","八里區"
"249004","303-UY","2018/08/31 20:17:19","新北市八里區中山路一段129巷19-1號","121.413933333333","25.1586516666667","6502300","八里區"
"249002","305-UY","2018/08/31 20:18:48","新北市八里區龍米路一段288號","121.451628333333","25.1295416666667","6502300","八里區"
"249003","593-UM","2018/08/31 20:18:37","新北市八里區訊塘路25號","121.397703333333","25.1452933333333","6502300","八里區"
"248014","025-BX","2018/08/31 20:18:47","新北市八里區荖阡坑路4-23號","121.398138333333","25.1432333333333","6501500","五股區"
"248016","026-BX","2018/08/31 20:18:41","新北市五股區天乙路34號","121.448456666667","25.10348","6501500","五股區"
"248012","247-BX","2018/08/31 20:17:30","新北市五股區民義路一段216-3號","121.430313333333","25.0895866666667","6501500","五股區"
"248002","678-BX","2018/08/31 20:18:35","新北市五股區成泰路三段195號","121.44576","25.0924066666667","6501500","五股區"
"234023","9380-KE","2018/08/31 20:18:27","新北市永和區永和路二段245號","121.515838333333","25.014995","6500400","永和區"
"234077","969-R7","2018/08/31 20:18:37","新北市永和區民享街12號","121.515296666667","24.995275","6500400","永和區"
"234074","AAC-211","2018/08/31 20:16:34","新北市永和區竹林路201巷22弄1號","121.522033333333","25.0093933333333","6500400","永和區"
"234067","AAC-212","2018/08/31 20:17:53","新北市永和區保平路236巷1弄16號","121.508365","25.0055066666667","6500400","永和區"
"234003","AAC-295","2018/08/31 20:18:30","新北市永和區大新街24號","121.515298333333","25.0084383333333","6500400","永和區"
"243013","AAD-798","2018/08/31 20:18:18","新北市泰山區新民路14巷2弄2號","121.42635","25.044525","6501600","泰山區"
"243009","297-R6","2018/08/31 20:18:32","新北市泰山區全興路47巷48號","121.434215","25.0590316666667","6501600","泰山區"
"243016","KEA-2801","2018/08/31 20:18:17","新北市泰山區明志路三段135號","121.424916666667","25.0403733333333","6501600","泰山區"
"243015","421-VK","2018/08/31 20:17:27","新北市泰山區仁愛路106號","121.433408333333","25.0555216666667","6501600","泰山區"
"243011","KEA-2215","2018/08/31 20:17:57","新北市泰山區明志路三段531巷2號","121.421383333333","25.02967","6501600","泰山區"
"243010","KEA-2216","2018/08/31 20:18:47","新北市泰山區明志路二段246巷9號","121.426456666667","25.04769","6501600","泰山區"
"243012","646-TV","2018/08/31 20:18:39","新北市泰山區楓江路169號","121.44033","25.0664383333333","6501600","泰山區"
"243014","680-BX","2018/08/31 20:18:32","新北市泰山區泰林路二段355號","121.428188333333","25.06388","6501600","泰山區"
"222003","436-BY","2018/08/31 20:18:19","新北市深坑區文化街43號","121.617726666667","25.0018783333333","6501800","深坑區"
"222002","659-BX","2018/08/31 20:18:32","新北市深坑區萬福路75巷48號","121.598266666667","25.0099166666667","6501800","深坑區"
"231041","002-UM","2018/08/31 20:18:33","新北市新店區民權路42號","121.540526666667","24.9829633333333","6500600","新店區"
"231056","0291-UT","2018/08/31 20:18:45","新北市新店區中正路328巷41號","121.53793","24.9762966666667","6500600","新店區"
"231059","046-UY","2018/08/31 20:18:18","新北市新店區安德街60巷19號","121.51079","24.9628816666667","6500600","新店區"
"231040","047-UY","2018/08/31 20:18:35","新北市新店區中正路146號","121.541731666667","24.9715783333333","6500600","新店區"
"231053","108-UY","2018/08/31 20:18:43","新北市新店區新烏路二段300號","121.548311666667","24.9129216666667","6500600","新店區"
"231064","110-UY","2018/08/31 20:18:43","新北市新店區安民街379巷13號","121.51548","24.9758183333333","6500600","新店區"
"231048","187-VK","2018/08/31 20:18:23","新北市新店區寶橋路85巷5弄3號","121.545986666667","24.9757","6500600","新店區"
"231054","KEA-2219","2018/08/31 20:18:01","新北市新店區檳榔路69號","121.543976666667","24.9621016666667","6500600","新店區"
"231057","256-BX","2018/08/31 20:18:47","新北市新店區花園五路二段27號","121.554765","24.9347416666667","6500600","新店區"
"231042","268-BY","2018/08/31 20:18:31","新北市新店區中興路二段22-2號","121.54676","24.97035","6500600","新店區"
"231051","278-BY","2018/08/31 20:18:31","新北市新店區中央六街99號","121.525911666667","24.9770833333333","6500600","新店區"
"231050","AAD-862","2018/08/31 20:18:38","新北市新店區北新路一段100號","121.542168333333","24.9694233333333","6500600","新店區"
"231044","355-BY","2018/08/31 20:18:32","新北市新店區北新路三段97號","121.54151","24.9818416666667","6500600","新店區"
"231058","3713-VJ","2018/08/31 20:18:48","新北市新店區中正路366號","121.535251666667","24.976135","6500600","新店區"
"231066","4716-K9","2018/08/31 20:18:23","新北市新店區柴埕路52巷1-2號","121.51199","24.9650433333333","6500600","新店區"
"231067","4772-VM","2018/08/31 20:18:18","新北市新店區安康路一段107-2號","121.528776666667","24.9616666666667","6500600","新店區"
"231065","512-UM","2018/08/31 20:17:48","新北市新店區安祥路106巷104號","121.474088333333","24.9592316666667","6500600","新店區"
"231049","513-UM","2018/08/31 20:18:13","新北市新店區北新路二段68號","121.542868333333","24.97247","6500600","新店區"
"231045","617-UM","2018/08/31 20:16:28","新北市新店區中興路一段216號","121.544221666667","24.9656016666667","6500600","新店區"
"231061","619-UM","2018/08/31 20:18:26","新北市新店區安興路33-1號","121.515815","24.9704133333333","6500600","新店區"
"231063","641-BX","2018/08/31 20:18:13","新北市新店區柴埕路100-2號","121.503218333333","24.9594783333333","6500600","新店區"
"231068","718-UY","2018/08/31 20:18:44","新北市新店區寶安街30號","121.541988333333","24.9823066666667","6500600","新店區"
"231062","720-UM","2018/08/31 20:18:46","新北市新店區安康路三段58號","121.49239","24.9522633333333","6500600","新店區"
"231060","897-TW","2018/08/31 20:18:20","新北市新店區錦秀路11巷92弄2號","121.480315","24.9428866666667","6500600","新店區"
"231043","899-TW","2018/08/31 20:17:51","新北市新店區建國路133號","121.539403333333","24.97829","6500600","新店區"
"231055","AKT-0513","2018/08/31 20:16:52","新北市新店區新明街26巷8號","121.541285","24.9688516666667","6500600","新店區"
"241011","013-R5","2018/08/31 20:18:14","新北市三重區龍門路219號","121.500363333333","25.07347","6500200","三重區"
"241028","022-UY","2018/08/31 20:18:37","新北市三重區大同南路162號","121.496606666667","25.0574416666667","6500200","三重區"
"241008","059-VK","2018/08/31 20:17:53","新北市三重區永福街211巷25號","121.479035","25.0739966666667","6500200","三重區"
"241022","060-VK","2018/08/31 20:18:46","新北市三重區中正北路2號","121.489315","25.0629133333333","6500200","三重區"
"241031","061-VK","2018/08/31 20:18:38","新北市三重區三寧街15號","121.489491666667","25.0597983333333","6500200","三重區"
"241015","062-VK","2018/08/31 20:18:39","新北市三重區重新路一段112號","121.50061","25.0631416666667","6500200","三重區"
"241017","063-VK","2018/08/31 20:18:30","新北市三重區自強路一段163號","121.493173333333","25.06722","6500200","三重區"
"241024","065-VK","2018/08/31 20:17:48","新北市三重區中正北路258號","121.481346666667","25.0682633333333","6500200","三重區"
"241026","066-VK","2018/08/31 20:18:13","新北市三重區環河南路2號","121.503846666667","25.0637883333333","6500200","三重區"
"241002","090-VK","2018/08/31 20:18:43","新北市三重區仁義街101巷20號","121.498525","25.0804666666667","6500200","三重區"
"241003","091-VK","2018/08/31 20:12:35","新北市三重區富華街18號","121.489636666667","25.0825","6500200","三重區"
"241016","266-UM","2018/08/31 20:17:57","新北市三重區大同北路54巷1號","121.49425","25.063505","6500200","三重區"
"241009","267-UM","2018/08/31 20:17:51","新北市三重區三和路四段382巷46弄1號","121.480946666667","25.0783283333333","6500200","三重區"
"241018","268-UM","2018/08/31 20:18:07","新北市三重區自強路一段236號","121.49333","25.06701","6500200","三重區"
"241032","269-UM","2018/08/31 20:18:44","新北市三重區捷運路19巷6弄7號","121.484683333333","25.0569983333333","6500200","三重區"
"241013","270-UM","2018/08/31 20:17:52","新北市三重區三和路三段167巷2號","121.491971666667","25.0741266666667","6500200","三重區"
"241025","271-UM","2018/08/31 20:18:12","新北市三重區三民街270號","121.479095","25.0681083333333","6500200","三重區"
"241007","398-BY","2018/08/31 20:18:48","新北市三重區溪尾街108巷51號","121.48767","25.0783133333333","6500200","三重區"
"241019","413-TH","2018/08/31 20:18:25","新北市三重區忠孝路一段68號","121.490113333333","25.07189","6500200","三重區"
"241035","462-BY","2018/08/31 20:18:44","新北市三重區文化北路20號","121.499165","25.0639716666667","6500200","三重區"
"241004","475-VK","2018/08/31 20:18:42","新北市三重區自強路四段108號","121.491458333333","25.0798633333333","6500200","三重區"
"241020","478-VK","2018/08/31 20:18:32","新北市三重區三和路三段170巷14號","121.492226666667","25.0729416666667","6500200","三重區"
"241030","480-VK","2018/08/31 20:18:45","新北市三重區環河南路254巷53號","121.488061666667","25.0523083333333","6500200","三重區"
"241014","543-UM","2018/08/31 20:18:24","新北市三重區龍濱路269號","121.5014","25.0730483333333","6500200","三重區"
"241023","545-UM","2018/08/31 20:18:08","新北市三重區頂崁街187巷6號","121.4778","25.0666866666667","6500200","三重區"
"241001","547-UM","2018/08/31 20:17:56","新北市三重區自強路四段3巷37號","121.490171666667","25.0765283333333","6500200","三重區"
"241006","AAD-863","2018/08/31 20:18:38","新北市三重區車路頭街139巷14號","121.484328333333","25.0763116666667","6500200","三重區"
"241005","887-TS","2018/08/31 20:18:02","新北市三重區富華街2號","121.489191666667","25.082385","6500200","三重區"
"241012","941-UM","2018/08/31 20:18:38","新北市三重區河邊北街379-1號","121.501758333333","25.0764516666667","6500200","三重區"
"241029","942-UM","2018/08/31 20:18:50","新北市三重區重安街98號","121.492663333333","25.0560883333333","6500200","三重區"
"241033","AAC-255","2018/08/31 20:18:35","新北市三重區五谷王北街50巷6號","121.475776666667","25.0514483333333","6500200","三重區"
"235066","003-UY","2018/08/31 20:18:41","新北市中和區保平路342號","121.506691666667","25.0041266666667","6500300","中和區"
"235039","097-UM","2018/08/31 20:18:45","新北市中和區大勇街29巷14號","121.515863333333","24.99463","6500300","中和區"
"235065","098-UM","2018/08/31 20:17:45","新北市中和區橋和路318號","121.497391666667","25.0070966666667","6500300","中和區"
"247010","KEA-2869","2018/08/31 20:18:09","新北市蘆洲區信義路222巷32弄16號","121.480423333333","25.08465","6501400","蘆洲區"
"235050","4979-A6","2018/08/31 20:18:44","新北市中和區景平路466號","121.505685","24.9935","6500300","中和區"
"235069","4980-A6","2018/08/31 20:18:42","新北市中和區圓通路177號","121.497503333333","24.9950333333333","6500300","中和區"
"235054","640-BX","2018/08/31 20:18:28","新北市八里區中山路三段380號","121.368965","25.1362883333333","6500300","中和區"
"235059","AAC-215","2018/08/31 20:18:36","新北市中和區圓通路447號","121.48489","24.9865683333333","6500300","中和區"
"247024","893-R6","2018/08/31 20:17:22","新北市蘆洲區光榮路120巷8弄39號","121.46459","25.0879066666667","6501400","蘆洲區"
"247014","546-UM","2018/08/31 20:18:48","新北市蘆洲區中山二路137巷33號","121.47253","25.0806783333333","6501400","蘆洲區"
"247022","500-BY","2018/08/31 20:18:24","新北市蘆洲區民族路435號","121.467906666667","25.0891","6501400","蘆洲區"
"247012","339-TH","2018/08/31 20:18:27","新北市蘆洲區中興街23號","121.480833333333","25.0870033333333","6501400","蘆洲區"
"247004","337-TH","2018/08/31 20:18:47","新北市蘆洲區永康街116號","121.458116666667","25.0853083333333","6501400","蘆洲區"
"247006","336-TH","2018/08/31 20:18:08","新北市蘆洲區九芎街136號","121.465113333333","25.0790466666667","6501400","蘆洲區"
"247018","057-VK","2018/08/31 20:18:36","新北市蘆洲區民族路406號","121.474618333333","25.0915816666667","6501400","蘆洲區"
"247008","056-VK","2018/08/31 20:18:25","新北市蘆洲區集賢路235號","121.481921666667","25.0855083333333","6501400","蘆洲區"
"247016","007-UY","2018/08/31 20:17:50","新北市蘆洲區光華路132巷41號","121.465856666667","25.08382","6501400","蘆洲區"
"247002","002-UY","2018/08/31 20:18:32","新北市蘆洲區環堤大道108號","121.45553","25.086585","6501400","蘆洲區"
"247020","001-UY","2018/08/31 20:18:45","新北市蘆洲區仁愛街46號","121.471868333333","25.093465","6501400","蘆洲區"
"222001","KEA-2212","2018/08/31 20:18:30","新北市深坑區北深路三段213號","121.600366666667","25.004085","6501800","深坑區"
"251010","413-VK","2018/08/31 20:17:57","新北市淡水區新民街一段134號","121.42754","25.1888816666667","6501000","淡水區"
"251012","441-VK","2018/08/31 20:17:48","新北市淡水區淡金路三段403號","121.44908","25.2082133333333","6501000","淡水區"
"251007","442-VK","2018/08/31 20:18:40","新北市淡水區淡金路一段69號","121.458181666667","25.1735066666667","6501000","淡水區"
"251004","443-VK","2018/08/31 20:18:11","新北市淡水區民族路33巷2-7號","121.464093333333","25.1371166666667","6501000","淡水區"
"251001","559-UM","2018/08/31 20:18:41","新北市淡水區新市二路四段265號","121.445758333333","25.192485","6501000","淡水區"
"251006","561-UM","2018/08/31 20:17:05","新北市淡水區北新路169巷63號","121.448356666667","25.1806416666667","6501000","淡水區"
"251009","575-R6","2018/08/31 20:18:21","新北市淡水區中正路38-1號","121.443726666667","25.1693316666667","6501000","淡水區"
"251002","672-BX","2018/08/31 20:18:25","新北市淡水區中正路196號","121.43998","25.170035","6501000","淡水區"
"251003","673-BX","2018/08/31 20:17:51","新北市淡水區中山北路一段229號","121.44446","25.1794516666667","6501000","淡水區"
"207003","550-UM","2018/08/31 20:15:51","新北市萬里區大鵬里萬里加投14號","121.651523333333","25.2087","6502800","萬里區"
"207004","225-TW","2018/08/31 20:18:17","新北市萬里區北基里仁七街2號","121.68125","25.1749","6502800","萬里區"
"252002","178-VK","2018/08/31 20:18:27","新北市三芝區中正路一段47號","121.503315","25.25814","6502100","三芝區"
"252001","292-VK","2018/08/31 20:18:34","新北市三芝區中山路一段35號","121.50062","25.2579966666667","6502100","三芝區"
"237008","302-VK","2018/08/31 20:18:41","新北市三峽區大義路398號","121.376235","24.9495","6500900","三峽區"
"237006","5529-G3","2018/08/31 20:18:09","新北市三峽區中園街126-17號","121.367008333333","24.9210933333333","6500900","三峽區"
"236069","105-UM","2018/08/31 20:18:41","新北市土城區中山路28號","121.423346666667","24.9633866666667","6501300","土城區"
"236030","253-BX","2018/08/31 20:18:45","新北市土城區學成路128巷8弄1號","121.449516666667","24.989985","6501300","土城區"
"236026","269-VK","2018/08/31 20:18:25","新北市土城區中央路一段249巷12號","121.445788333333","24.98548","6501300","土城區"
"236014","270-VK","2018/08/31 20:17:05","新北市土城區廣明街90巷21號","121.455398333333","24.9946066666667","6501300","土城區"
"236059","912-UM","2018/08/31 20:18:32","新北市土城區大安路126號","121.43396","24.9698733333333","6501300","土城區"
"236055","AAC-216","2018/08/31 20:18:42","新北市土城區城林路6巷80號","121.438633333333","24.97975","6501300","土城區"
"242034","AAC-296","2018/08/31 20:18:39","新北市新莊區建中街116巷3弄2號","121.445493333333","25.0371516666667","6500500","新莊區"
"242058","986-R7","2018/08/31 20:18:38","新北市新莊區四維路201號","121.421916666667","25.020635","6500500","新莊區"
"242054","751-BX","2018/08/31 20:18:33","新北市新莊區民安西路261巷2號","121.426381666667","25.0131","6500500","新莊區"
"242027","615-BX","2018/08/31 20:18:00","新北市新莊區幸福路570號","121.454276666667","25.0493566666667","6500500","新莊區"
"242025","613-BX","2018/08/31 20:16:15","新北市新莊區五工二路70巷6號","121.460605","25.066015","6500500","新莊區"
"242041","566-BX","2018/08/31 20:18:12","新北市新莊區壽山路33-4號","121.41659","25.03051","6500500","新莊區"
"242046","497-BY","2018/08/31 20:18:37","新北市新莊區中正路新生巷33號","121.417145","25.023505","6500500","新莊區"
"242050","441-UM","2018/08/31 20:18:25","新北市新莊區民安西路256號","121.426001666667","25.0134633333333","6500500","新莊區"
"242056","440-UM","2018/08/31 20:14:45","新北市新莊區豐年街24號","121.446265","25.0324516666667","6500500","新莊區"
"242037","415-TV","2018/08/31 20:18:41","新北市新莊區後港一路56巷24弄10號","121.426276666667","25.025245","6500500","新莊區"
"242007","413-TV","2018/08/31 20:18:07","新北市新莊區福壽街124巷41弄20號","121.45929","25.05191","6500500","新莊區"
"242044","400-BY","2018/08/31 20:18:42","新北市新莊區中正路新建巷26號","121.414276666667","25.02182","6500500","新莊區"
"242023","362-BY","2018/08/31 20:17:37","新北市新莊區化成路786號","121.465131666667","25.059235","6500500","新莊區"
"242060","353-BY","2018/08/31 20:18:34","新北市新莊區新樹路225號","121.435218333333","25.0227916666667","6500500","新莊區"
"242009","132-UY","2018/08/31 20:18:34","新北市新莊區昌平街9號","121.454735","25.051705","6500500","新莊區"
"242039","133-UY","2018/08/31 20:18:02","新北市新莊區八德街133巷4弄9號","121.424283333333","25.01964","6500500","新莊區"
"242032","135-UY","2018/08/31 20:18:20","新北市新莊區中正路414-1號","121.440998333333","25.034035","6500500","新莊區"
"242048","172-VK","2018/08/31 20:18:04","新北市新莊區龍安路230號","121.420481666667","25.0197983333333","6500500","新莊區"
"242017","175-VK","2018/08/31 20:18:18","新北市新莊區中港二街143號","121.448113333333","25.0455666666667","6500500","新莊區"
"242015","347-TH","2018/08/31 20:17:06","新北市新莊區中和街29號","121.447971666667","25.0440416666667","6500500","新莊區"
"242021","348-TH","2018/08/31 20:17:57","新北市新莊區和興街59號","121.446431666667","25.0408983333333","6500500","新莊區"
"242002","349-TH","2018/08/31 20:18:27","新北市新莊區中正路16號","121.465446666667","25.0421683333333","6500500","新莊區"
"242019","350-TH","2018/08/31 20:16:04","新北市新莊區博愛路1巷2號","121.456461666667","25.04281","6500500","新莊區"
"242013","351-TH","2018/08/31 20:17:40","新北市新莊區中和街204巷16號","121.448451666667","25.0499483333333","6500500","新莊區"
"221008","489-VK","2018/08/31 20:18:41","新北市汐止區康寧街39號","121.618488333333","25.0667683333333","6501100","汐止區"
"221036","130-UY","2018/08/31 20:18:16","新北市汐止區福安街57巷8號","121.66418","25.0640016666667","6501100","汐止區"
"221015","131-UY","2018/08/31 20:18:38","新北市汐止區建成路142巷19弄17號","121.661818333333","25.0738866666667","6501100","汐止區"
"221010","269-BY","2018/08/31 20:17:28","新北市汐止區八連路二段326號","121.629545","25.09991","6501100","汐止區"
"221012","278-VK","2018/08/31 20:18:37","新北市汐止區保新街283號","121.692718333333","25.0683233333333","6501100","汐止區"
"221023","279-VK","2018/08/31 20:18:45","新北市汐止區湖東街5巷11號","121.634095","25.073065","6501100","汐止區"
"221032","280-BY","2018/08/31 20:18:34","新北市汐止區民權街二段43號","121.619483333333","25.0493183333333","6501100","汐止區"
"221027","281-BY","2018/08/31 20:18:22","新北市汐止區大同路二段447號","121.65953","25.0675766666667","6501100","汐止區"
"221029","298-VK","2018/08/31 20:18:34","新北市汐止區樟樹一路99巷7弄2號","121.641136666667","25.0636533333333","6501100","汐止區"
"221021","299-VK","2018/08/31 20:18:46","新北市汐止區水源路一段284號","121.65426","25.0583316666667","6501100","汐止區"
"221031","353-TW","2018/08/31 20:18:36","新北市汐止區中興路150巷13號","121.633011666667","25.0650483333333","6501100","汐止區"
"221002","129-UY","2018/08/31 20:18:19","新北市汐止區福德三路73號","121.636578333333","25.0693066666667","6501100","汐止區"
"221035","622-UM","2018/08/31 20:18:33","新北市汐止區長江街101-5號","121.658606666667","25.0732366666667","6501100","汐止區"
"221025","623-UM","2018/08/31 20:18:24","新北市汐止區水源路二段32號","121.65487","25.0572783333333","6501100","汐止區"
"221038","646-BX","2018/08/31 20:18:32","新北市汐止區忠孝東路474號","121.666266666667","25.0734","6501100","汐止區"
"221033","647-BX","2018/08/31 20:18:20","新北市汐止區東勢街215巷12號","121.63476","25.0432366666667","6501100","汐止區"
"221018","753-BX","2018/08/31 20:17:08","新北市汐止區茄安路33號","121.673313333333","25.0681433333333","6501100","汐止區"
"220101","245-BX","2018/08/31 20:17:53","新北市板橋區萬板路476號","121.47975","25.02617","6500100","板橋區"
"220089","280-UM","2018/08/31 20:18:37","新北市板橋區陽明街293號","121.461901666667","25.0265416666667","6500100","板橋區"
"220094","285-UM","2018/08/31 20:18:27","新北市五股區成洲一路25號","121.449596666667","25.0949516666667","6500100","板橋區"
"220083","286-VK","2018/08/31 20:18:36","新北市板橋區僑中二街102巷4號","121.44591","25.008285","6500100","板橋區"
"220081","287-VK","2018/08/31 20:17:03","新北市板橋區僑中一街80巷5弄5號","121.44758","25.0125133333333","6500100","板橋區"
"220061","295-UM","2018/08/31 20:18:24","新北市板橋區中山路一段48號","121.460738333333","25.0088966666667","6500100","板橋區"
"242011","280-VK","2018/08/31 20:17:22","新北市新莊區中信街37巷2弄1號","121.450315","25.0504033333333","6500500","新莊區"
"220088","491-VK","2018/08/31 20:18:08","新北市五股區成泰路三段544-1號","121.45435","25.1025716666667","6500100","板橋區"
"220103","561-BX","2018/08/31 20:18:00","新北市板橋區陽明街251號","121.462763333333","25.0251633333333","6500100","板橋區"
"220102","KEA-2699","2018/08/31 20:18:26","新北市板橋區文化路一段383號","121.467291666667","25.0217633333333","6500100","板橋區"
"220055","827-TW","2018/08/31 20:16:09","新北市板橋區忠孝路48巷11弄9-2號","121.461753333333","24.99982","6500100","板橋區"
"220097","AAC-210","2018/08/31 20:18:03","新北市板橋區光正街43號","121.461798333333","25.0172233333333","6500100","板橋區"
"220070","AAC-253","2018/08/31 20:18:46","新北市板橋區南雅南路二段124號","121.452156666667","24.9969916666667","6500100","板橋區"
"235068","KEA-2873","2018/08/31 20:18:04","新北市中和區勝利路35巷1弄27號","121.49992","25.00782","6500300","中和區"
