"lineid","car","time","location","longitude","latitude","cityid","cityname"
"234030","746-BX","2018/08/31 20:48:02","新北市五股區凌雲路二段66號","121.439356666667","25.10622","6500400","永和區"
"249004","303-UY","2018/08/31 20:47:59","新北市八里區中山路一段63號","121.418353333333","25.1594016666667","6502300","八里區"
"234077","969-R7","2018/08/31 20:48:17","新北市八里區荖阡坑路7-2號","121.398556666667","25.1417433333333","6500400","永和區"
"234074","AAC-211","2018/08/31 20:48:14","新北市永和區環河東路二段10號","121.522253333333","25.0131616666667","6500400","永和區"
"243011","KEA-2215","2018/08/31 20:47:56","新北市泰山區明志路二段324號","121.426186666667","25.04581","6501600","泰山區"
"222003","436-BY","2018/08/31 20:48:08","新北市深坑區文山路三段48-1號","121.609938333333","24.99851","6501800","深坑區"
"222002","659-BX","2018/08/31 20:48:13","新北市深坑區北深路三段93巷73號","121.603303333333","25.00124","6501800","深坑區"
"231056","0291-UT","2018/08/31 20:48:05","新北市新店區柴埕路116號","121.504668333333","24.95992","6500600","新店區"
"231059","046-UY","2018/08/31 20:48:19","新北市新店區僑愛一路1號","121.499861666667","24.9449433333333","6500600","新店區"
"231040","047-UY","2018/08/31 20:48:15","新北市新店區中正路266號","121.53908","24.97353","6500600","新店區"
"231053","108-UY","2018/08/31 20:48:13","新北市新店區新烏路一段231號","121.549478333333","24.930955","6500600","新店區"
"231064","110-UY","2018/08/31 20:48:03","新北市新店區安和路三段60-1號","121.518186666667","24.9826333333333","6500600","新店區"
"231048","187-VK","2018/08/31 20:48:03","新北市新店區寶元路一段109號","121.54573","24.98318","6500600","新店區"
"231054","KEA-2219","2018/08/31 20:48:01","新北市新店區北新路一段88巷1-1號","121.542023333333","24.96762","6500600","新店區"
"231057","256-BX","2018/08/31 20:48:07","新北市新店區新烏路一段100-2號","121.54634","24.9371416666667","6500600","新店區"
"231042","268-BY","2018/08/31 20:48:16","新北市新店區寶高路120巷1號","121.554566666667","24.976065","6500600","新店區"
"231051","278-BY","2018/08/31 20:48:11","新北市新店區民生路156巷117號","121.526863333333","24.9824733333333","6500600","新店區"
"231050","AAD-862","2018/08/31 20:48:18","新北市新店區三民路53號","121.536833333333","24.97099","6500600","新店區"
"231044","355-BY","2018/08/31 20:48:12","新北市新店區建國路132號","121.539031666667","24.97879","6500600","新店區"
"231058","3713-VJ","2018/08/31 20:48:08","新北市新店區中央路133巷27弄42號","121.532585","24.9742883333333","6500600","新店區"
"231066","4716-K9","2018/08/31 20:48:02","新北市新店區安興路105號","121.514755","24.97796","6500600","新店區"
"231067","4772-VM","2018/08/31 20:47:58","新北市新店區安華路28-1號","121.519868333333","24.960745","6500600","新店區"
"231065","512-UM","2018/08/31 20:48:08","新北市新店區安祥路104巷10號","121.48133","24.9630383333333","6500600","新店區"
"231049","513-UM","2018/08/31 20:48:13","新北市新店區華潭街26巷1弄1號","121.529363333333","24.9534316666667","6500600","新店區"
"231045","617-UM","2018/08/31 20:48:08","新北市新店區檳榔路29巷12號","121.542248333333","24.9639416666667","6500600","新店區"
"231061","619-UM","2018/08/31 20:48:15","新北市新店區新和街82號","121.52041","24.985895","6500600","新店區"
"231063","641-BX","2018/08/31 20:48:13","新北市新店區如意街11-2號","121.494998333333","24.948315","6500600","新店區"
"231068","718-UY","2018/08/31 20:48:04","新北市新店區寶元路一段84巷1號","121.544571666667","24.9837316666667","6500600","新店區"
"231062","720-UM","2018/08/31 20:48:05","新北市新店區和成街15巷1號","121.487773333333","24.9473533333333","6500600","新店區"
"231060","897-TW","2018/08/31 20:48:00","新北市新店區安康路三段780-1號","121.472588333333","24.9411483333333","6500600","新店區"
"231043","899-TW","2018/08/31 20:48:11","新北市新店區建國路85號","121.540486666667","24.9764466666667","6500600","新店區"
"241011","013-R5","2018/08/31 20:48:18","新北市三重區龍濱路205巷1號","121.502158333333","25.0717083333333","6500200","三重區"
"241028","022-UY","2018/08/31 20:48:14","新北市三重區中正南路40號","121.493755","25.060155","6500200","三重區"
"241008","059-VK","2018/08/31 20:48:13","新北市三重區永福街72巷11號","121.47942","25.07675","6500200","三重區"
"241022","060-VK","2018/08/31 20:48:15","新北市三重區中正北路20巷12號","121.487991666667","25.0625333333333","6500200","三重區"
"241031","061-VK","2018/08/31 20:48:03","新北市三重區重陽路一段113巷2弄2號","121.487515","25.0598516666667","6500200","三重區"
"241015","062-VK","2018/08/31 20:48:19","新北市三重區自強路一段8號","121.498925","25.0682316666667","6500200","三重區"
"241017","063-VK","2018/08/31 20:48:10","新北市三重區自強路一段272號","121.49213","25.0677133333333","6500200","三重區"
"241024","065-VK","2018/08/31 20:48:09","新北市三重區大勇街82巷15弄30號","121.481258333333","25.0719883333333","6500200","三重區"
"241026","066-VK","2018/08/31 20:48:13","新北市三重區和平街1號","121.500083333333","25.06233","6500200","三重區"
"241002","090-VK","2018/08/31 20:48:03","新北市三重區仁義街157巷46號","121.498141666667","25.0815316666667","6500200","三重區"
"241016","266-UM","2018/08/31 20:48:16","新北市三重區自強路一段164號","121.495383333333","25.0662883333333","6500200","三重區"
"241009","267-UM","2018/08/31 20:48:11","新北市三重區三和路四段197號","121.482133333333","25.0792416666667","6500200","三重區"
"241018","268-UM","2018/08/31 20:48:07","新北市三重區正義北路261號","121.495565","25.0697683333333","6500200","三重區"
"241032","269-UM","2018/08/31 20:48:04","新北市三重區重陽路一段120巷48號","121.485068333333","25.0601433333333","6500200","三重區"
"241013","270-UM","2018/08/31 20:48:12","新北市三重區仁賢街6號","121.495658333333","25.0748133333333","6500200","三重區"
"241025","271-UM","2018/08/31 20:48:12","新北市三重區貴陽街18號","121.484138333333","25.06185","6500200","三重區"
"241007","398-BY","2018/08/31 20:48:08","新北市三重區慈愛街10號","121.484546666667","25.0784266666667","6500200","三重區"
"241019","413-TH","2018/08/31 20:48:05","新北市三重區三張街75號","121.490068333333","25.0707133333333","6500200","三重區"
"241035","462-BY","2018/08/31 20:48:04","新北市三重區文化北路248號","121.49737","25.0698933333333","6500200","三重區"
"241004","475-VK","2018/08/31 20:48:02","新北市三重區分子尾街54號","121.489151666667","25.0815033333333","6500200","三重區"
"241020","478-VK","2018/08/31 20:48:11","新北市三重區忠孝路一段101號","121.48946","25.0721516666667","6500200","三重區"
"241030","480-VK","2018/08/31 20:48:05","新北市三重區環河南路221巷7號","121.49188","25.05241","6500200","三重區"
"241014","543-UM","2018/08/31 20:48:04","新北市三重區萬全街77號","121.501506666667","25.0703266666667","6500200","三重區"
"241023","545-UM","2018/08/31 20:48:08","新北市三重區忠孝路三段84巷5號","121.480226666667","25.0644233333333","6500200","三重區"
"241001","547-UM","2018/08/31 20:47:56","新北市三重區自強路三段97號","121.487658333333","25.0751866666667","6500200","三重區"
"241006","AAD-863","2018/08/31 20:48:18","新北市三重區車路頭街139巷14號","121.484316666667","25.0762766666667","6500200","三重區"
"241005","887-TS","2018/08/31 20:47:42","新北市三重區五華街141巷11號","121.49147","25.0849733333333","6500200","三重區"
"241012","941-UM","2018/08/31 20:48:18","新北市三重區仁信街27號","121.501286666667","25.0755616666667","6500200","三重區"
"241029","942-UM","2018/08/31 20:48:10","新北市三重區重安街14號","121.490346666667","25.0581983333333","6500200","三重區"
"241033","AAC-255","2018/08/31 20:47:55","新北市三重區光復路二段1號","121.472463333333","25.05328","6500200","三重區"
"247010","KEA-2869","2018/08/31 20:48:20","新北市蘆洲區中山一路126號","121.476541666667","25.0817083333333","6501400","蘆洲區"
"235069","4980-A6","2018/08/31 20:47:43","新北市中和區員山路359巷1弄8號","121.480966666667","25.001715","6500300","中和區"
"247024","893-R6","2018/08/31 20:48:02","新北市蘆洲區長樂路231號","121.461923333333","25.0901483333333","6501400","蘆洲區"
"247014","546-UM","2018/08/31 20:48:08","新北市蘆洲區三民路33號","121.475471666667","25.0829266666667","6501400","蘆洲區"
"247022","500-BY","2018/08/31 20:48:04","新北市蘆洲區民義街7號","121.471186666667","25.0888116666667","6501400","蘆洲區"
"247012","339-TH","2018/08/31 20:48:11","新北市蘆洲區集賢路224巷12號","121.48195","25.086915","6501400","蘆洲區"
"247004","337-TH","2018/08/31 20:48:07","新北市蘆洲區長安街100號","121.461633333333","25.0808466666667","6501400","蘆洲區"
"247006","336-TH","2018/08/31 20:48:07","新北市蘆洲區永安南路二段16巷8號","121.467758333333","25.0772016666667","6501400","蘆洲區"
"247016","007-UY","2018/08/31 20:48:10","新北市蘆洲區中山二路150號","121.471211666667","25.08123","6501400","蘆洲區"
"247002","002-UY","2018/08/31 20:47:54","新北市蘆洲區長榮路327號","121.459735","25.087095","6501400","蘆洲區"
"247020","001-UY","2018/08/31 20:48:05","新北市蘆洲區仁愛街64號","121.471443333333","25.09401","6501400","蘆洲區"
"222001","KEA-2212","2018/08/31 20:48:10","新北市深坑區北深路三段165-1號","121.602091666667","25.0034183333333","6501800","深坑區"
"251010","413-VK","2018/08/31 20:48:17","新北市淡水區沙崙路126號","121.423423333333","25.182905","6501000","淡水區"
"251012","441-VK","2018/08/31 20:48:07","新北市淡水區淡金路四段191號","121.451733333333","25.2216733333333","6501000","淡水區"
"251007","442-VK","2018/08/31 20:48:20","新北市淡水區學府路102巷30號","121.451938333333","25.1716283333333","6501000","淡水區"
"251001","559-UM","2018/08/31 20:48:01","新北市淡水區淡金路一段69號","121.458826666667","25.173075","6501000","淡水區"
"251006","561-UM","2018/08/31 20:48:05","新北市淡水區新民街276號","121.435533333333","25.18135","6501000","淡水區"
"251009","575-R6","2018/08/31 20:48:02","新北市淡水區民權路187巷19號","121.460515","25.133495","6501000","淡水區"
"251011","650-BX","2018/08/31 20:48:07","新北市淡水區新市一路一段285號","121.434403333333","25.1863566666667","6501000","淡水區"
"251002","672-BX","2018/08/31 20:48:04","新北市淡水區中正東路6號","121.447091666667","25.1671133333333","6501000","淡水區"
"251003","673-BX","2018/08/31 20:48:11","新北市淡水區新興街121巷47號","121.440878333333","25.1796116666667","6501000","淡水區"
"242034","AAC-296","2018/08/31 20:48:19","新北市新莊區中正路403號","121.445131666667","25.0345366666667","6500500","新莊區"
"242058","986-R7","2018/08/31 20:48:18","新北市板橋區大觀路三段54號","121.433316666667","24.99552","6500500","新莊區"
"242054","751-BX","2018/08/31 20:48:13","新北市新莊區民安西路229巷7弄1號","121.426581666667","25.014375","6500500","新莊區"
"242027","615-BX","2018/08/31 20:48:06","新北市新莊區環漢路三段532號","121.435356666667","25.0006633333333","6500500","新莊區"
"242041","566-BX","2018/08/31 20:48:12","新北市新莊區天祥街3號","121.417218333333","25.0272166666667","6500500","新莊區"
"242013","442-UM","2018/08/31 20:48:15","新北市新莊區中和街191巷35號","121.447656666667","25.0513116666667","6500500","新莊區"
"242050","441-UM","2018/08/31 20:48:05","新北市新莊區民安西路50號","121.427406666667","25.02076","6500500","新莊區"
"242056","440-UM","2018/08/31 20:48:05","新北市新莊區瓊林路59-82號","121.441763333333","25.0233266666667","6500500","新莊區"
"242037","415-TV","2018/08/31 20:48:02","新北市新莊區中正路449號","121.443186666667","25.03406","6500500","新莊區"
"242023","362-BY","2018/08/31 20:48:17","新北市新莊區思源路123號","121.459876666667","25.0424633333333","6500500","新莊區"
"242060","353-BY","2018/08/31 20:48:13","新北市新莊區新樹路280號","121.432586666667","25.0126866666667","6500500","新莊區"
"242009","132-UY","2018/08/31 20:48:14","新北市新莊區幸福路76號","121.456686666667","25.04946","6500500","新莊區"
"242039","133-UY","2018/08/31 20:48:11","新北市新莊區環河路462號","121.4402","25.01957","6500500","新莊區"
"242048","172-VK","2018/08/31 20:48:18","新北市新莊區瓊林路59-83號","121.441855","25.023495","6500500","新莊區"
"242017","175-VK","2018/08/31 20:48:18","新北市新莊區瓊林路59-82號","121.44176","25.0233233333333","6500500","新莊區"
"242002","349-TH","2018/08/31 20:48:07","新北市新莊區中港路五守新村35巷2號","121.454523333333","25.03871","6500500","新莊區"
"221036","130-UY","2018/08/31 20:48:16","新北市汐止區新台五路一段151號","121.653488333333","25.0623066666667","6501100","汐止區"
"221015","131-UY","2018/08/31 20:48:18","新北市汐止區大同路二段605號","121.664021666667","25.07069","6501100","汐止區"
"221027","281-BY","2018/08/31 20:48:14","新北市汐止區禮門街1號","121.656763333333","25.067185","6501100","汐止區"
"221029","298-VK","2018/08/31 20:47:54","新北市汐止區樟樹二路247號","121.640721666667","25.0681166666667","6501100","汐止區"
"221021","299-VK","2018/08/31 20:48:06","新北市汐止區青山路41-1號","121.656591666667","25.0613966666667","6501100","汐止區"
"221002","129-UY","2018/08/31 20:47:59","新北市汐止區福德二路123號","121.63124","25.0652516666667","6501100","汐止區"
"221035","622-UM","2018/08/31 20:48:13","新北市汐止區汐萬路一段244-1號","121.651295","25.0734533333333","6501100","汐止區"
"221038","646-BX","2018/08/31 20:48:12","新北市汐止區汐萬路一段256巷3號","121.652061666667","25.0747466666667","6501100","汐止區"
"221033","647-BX","2018/08/31 20:48:00","台北市南港區合順街8巷7弄38號","121.620276666667","25.041895","6501100","汐止區"
"221018","753-BX","2018/08/31 20:48:08","新北市汐止區汐萬路一段186號","121.652246666667","25.0720416666667","6501100","汐止區"
"220070","AAC-253","2018/08/31 20:48:06","新北市林口區汕頭32號","121.366933333333","25.1351083333333","6500100","板橋區"
