"lineid","car","time","location","longitude","latitude","cityid","cityname"
"234077","969-R7","2018/08/31 21:59:17","新北市永和區福和路1號","121.526348333333","25.0097583333333","6500400","永和區"
"247010","KEA-2869","2018/08/31 21:59:09","新北市八里區中山路三段380號","121.369315","25.13622","6501400","蘆洲區"
"235010","733-UM","2018/08/31 21:46:52","新北市中和區員山路36巷13號","121.48415","24.9908566666667","6500300","中和區"
"251005","010-UM","2018/08/31 21:59:20","新北市淡水區鄧公路30巷1弄67號","121.454425","25.169555","6501000","淡水區"
"251008","181-VK","2018/08/31 21:59:26","新北市淡水區學府路104號","121.449875","25.171835","6501000","淡水區"
"251010","413-VK","2018/08/31 21:59:17","新北市淡水區中正路二段215號","121.426283333333","25.1893316666667","6501000","淡水區"
"251007","442-VK","2018/08/31 21:59:20","新北市淡水區北新路184巷60號","121.451163333333","25.1776083333333","6501000","淡水區"
"251004","443-VK","2018/08/31 21:59:15","新北市淡水區民權路229號","121.460595","25.12939","6501000","淡水區"
"251006","561-UM","2018/08/31 21:59:25","新北市淡水區中正路11巷3號","121.437858333333","25.1707683333333","6501000","淡水區"
"251011","650-BX","2018/08/31 21:59:07","新北市淡水區中山北路一段151號","121.443175","25.177305","6501000","淡水區"
"251003","673-BX","2018/08/31 21:59:11","新北市淡水區新春街83號","121.438876666667","25.1824966666667","6501000","淡水區"
