"lineid","car","time","location","longitude","latitude","cityid","cityname"
"234040","862-TW","2018/08/31 22:06:56","新北市永和區福和路1號","121.52644","25.0096633333333","6500400","永和區"
"247010","KEA-2869","2018/08/31 22:19:09","新北市五股區中興路三段2巷10號","121.449081666667","25.0811133333333","6501400","蘆洲區"
"247005","336-TH","2018/08/31 22:19:27","新北市五股區中興路三段2巷10號","121.449135","25.0809033333333","6501400","蘆洲區"
"251008","181-VK","2018/08/31 22:19:26","新北市淡水區學府路104號","121.449838333333","25.1718033333333","6501000","淡水區"
"251010","413-VK","2018/08/31 22:19:17","新北市淡水區沙崙路200號","121.424675","25.1839033333333","6501000","淡水區"
"251007","442-VK","2018/08/31 22:19:20","新北市淡水區北新路139號","121.449503333333","25.1788383333333","6501000","淡水區"
"251004","443-VK","2018/08/31 22:19:15","新北市淡水區民族路33號","121.462208333333","25.135745","6501000","淡水區"
"251006","561-UM","2018/08/31 22:19:25","新北市淡水區下圭柔山90-8號","121.431201666667","25.21036","6501000","淡水區"
"251011","650-BX","2018/08/31 22:19:07","新北市淡水區中山北路一段153號","121.443201666667","25.17744","6501000","淡水區"
