"lineid","car","time","location","longitude","latitude","cityid","cityname"
"248005","653-BX","2018/03/05 07:59:18","新北市五股區明德路12巷6號","121.433388333333","25.071815","6501500","五股區"
"232001","290-BY","2018/03/05 07:59:27","新北市坪林區下坑子口6-15號","121.711425","24.9434066666667","6502000","坪林區"
"232012","291-BY","2018/03/05 07:59:13","新北市坪林區金瓜寮22-4號","121.679401666667","24.91171","6502000","坪林區"
"232017","705-BZ","2018/03/05 07:59:20","新北市坪林區乾溪8號","121.74951","24.9658583333333","6502000","坪林區"
"232005","758-BX","2018/03/05 07:59:21","新北市坪林區九芎林24-2號","121.704051666667","24.924895","6502000","坪林區"
"244001","248-BX","2018/03/05 07:59:20","新北市林口區嘉溪雅坑16號","121.339425","25.1071633333333","6501700","林口區"
"244018","402-UM","2018/03/05 07:59:20","新北市林口區粉寮路17-3號","121.398856666667","25.0809883333333","6501700","林口區"
"244024","742-UY","2018/03/05 07:59:10","新北市林口區粉寮路二段160巷28號","121.40517","25.0908016666667","6501700","林口區"
"244022","483-VK","2018/03/05 07:59:12","新北市林口區粉寮路二段221號","121.404138333333","25.0906366666667","6501700","林口區"
"244016","485-VK","2018/03/05 07:59:20","新北市林口區粉寮69號","121.405035","25.090865","6501700","林口區"
"222005","289-BY","2018/03/05 07:59:12","新北市深坑區深坑街3巷22號","121.616876666667","25.001875","6501800","深坑區"
"231007","189-VK","2018/03/05 07:59:08","新北市新店區安華路28-1號","121.519528333333","24.9609516666667","6500600","新店區"
"231008","192-VK","2018/03/05 07:59:16","新北市新店區安華路28-1號","121.519188333333","24.96107","6500600","新店區"
"235001","611-BX","2018/03/05 07:59:22","新北市中和區圓通路367巷4號","121.491343333333","24.9891783333333","6500300","中和區"
"226005","5620-A6","2018/03/05 07:59:13","新北市平溪區石底里公園街18-3號","121.733405","25.0256966666667","6502400","平溪區"
"226001","7418-A5","2018/03/05 07:59:22","新北市平溪區靜安路三段375號","121.781086666667","25.04646","6502400","平溪區"
"226003","AGD-0702","2018/03/05 07:59:17","新北市平溪區新寮里頂寮子4號","121.77371","25.05183","6502400","平溪區"
"223006","022-BY","2018/03/05 07:59:27","新北市石碇區靜安路一段292巷10號","121.691918333333","25.0058933333333","6501900","石碇區"
"223001","205-TH","2018/03/05 07:58:53","新北市石碇區樟空子10-2號","121.666928333333","24.962265","6501900","石碇區"
"223008","406-TH","2018/03/05 07:59:08","新北市石碇區靜安路一段337號","121.69902","25.0147583333333","6501900","石碇區"
"223001","592-UM","2018/03/05 07:58:17","新北市石碇區樟空子10-2號","121.666905","24.9621566666667","6501900","石碇區"
"223004","660-BX","2018/03/05 07:59:09","新北市深坑區文山路一段7號","121.644738333333","25.008735","6501900","石碇區"
"223007","661-BX","2018/03/05 07:59:10","新北市石碇區靜安路一段337號","121.698863333333","25.0134916666667","6501900","石碇區"
"223005","677-TV","2018/03/05 07:59:11","新北市石碇區碇坪路一段16號","121.65167","25.005915","6501900","石碇區"
"227005","282-VK","2018/03/05 07:59:23","新北市雙溪區平林里梅竹蹊16號","121.862038333333","25.0359716666667","6502500","雙溪區"
"252006","073-UM","2018/03/05 07:58:41","新北市三芝區海景一街2-1號","121.47397","25.245905","6502100","三芝區"
"252004","249-BX","2018/03/05 07:59:13","新北市三芝區店子里菜公坑81號","121.513003333333","25.20185","6502100","三芝區"
"237001","159-UY","2018/03/05 07:59:14","新北市三峽區大學路45-1號","121.376923333333","24.94061","6500900","三峽區"
"236007","165-UM","2018/03/05 07:59:08","新北市土城區清水路194巷8號","121.46053","24.98141","6501300","土城區"
"236001","339-SR","2018/03/05 07:59:20","新北市土城區龍泉路89-3號","121.44548","24.9432233333333","6501300","土城區"
"242028","986-R7","2018/03/05 07:59:19","新北市新莊區幸福路2號","121.459481666667","25.0495183333333","6500500","新莊區"
"242049","751-BX","2018/03/05 07:59:28","新北市新莊區新樹路447號","121.432695","25.0135533333333","6500500","新莊區"
"242024","615-BX","2018/03/05 07:59:24","新北市新莊區中港路268號","121.453166666667","25.043885","6500500","新莊區"
"242022","613-BX","2018/03/05 07:59:10","新北市新莊區公園路148號","121.45309","25.0401233333333","6500500","新莊區"
"242026","612-BX","2018/03/05 07:59:16","新北市新莊區思源路96號","121.460065","25.0458866666667","6500500","新莊區"
"242038","566-BX","2018/03/05 07:59:23","新北市新莊區民安路268號","121.427506666667","25.02142","6500500","新莊區"
"242043","497-BY","2018/03/05 07:59:27","新北市新莊區富國路61號","121.41961","25.0260583333333","6500500","新莊區"
"242030","442-UM","2018/03/05 07:59:18","新北市新莊區新泰路413巷25號","121.442455","25.044365","6500500","新莊區"
"242047","441-UM","2018/03/05 07:59:22","新北市新莊區龍安路253號","121.419681666667","25.020085","6500500","新莊區"
"242052","440-UM","2018/03/05 07:59:18","新北市新莊區瓊林南路305巷7號","121.434921666667","25.0053416666667","6500500","新莊區"
"242033","415-TV","2018/03/05 07:59:15","新北市新莊區新莊路380號","121.449116666667","25.0335466666667","6500500","新莊區"
"242003","413-TV","2018/03/05 07:59:09","新北市新莊區中港路293號","121.4527","25.0442333333333","6500500","新莊區"
"242040","400-BY","2018/03/05 07:59:13","新北市新莊區中正路514巷7號","121.433278333333","25.0328883333333","6500500","新莊區"
"242059","362-BY","2018/03/05 07:59:06","新北市新莊區瓊林南路42巷1-1號","121.43597","25.01791","6500500","新莊區"
"242057","353-BY","2018/03/05 07:59:28","新北市新莊區中正路651號","121.429743333333","25.0311783333333","6500500","新莊區"
"242006","132-UY","2018/03/05 07:59:20","新北市新莊區自信街52號","121.45505","25.0481266666667","6500500","新莊區"
"242035","133-UY","2018/03/05 07:59:20","新北市新莊區民安路429巷8號","121.434041666667","25.023225","6500500","新莊區"
"242020","135-UY","2018/03/05 07:59:20","新北市新莊區中華路一段8號","121.452083333333","25.0368616666667","6500500","新莊區"
"242045","172-VK","2018/03/05 07:59:25","新北市新莊區新樹路65-4號","121.439426666667","25.03096","6500500","新莊區"
"242008","173-VK","2018/03/05 07:59:18","新北市新莊區中原路191號","121.452163333333","25.054395","6500500","新莊區"
"242001","176-VK","2018/03/05 07:59:14","","121.45528","25.0354416666667","6500500","新莊區"
"242012","346-TH","2018/03/05 07:59:15","新北市新莊區中誠街14號","121.452001666667","25.0482133333333","6500500","新莊區"
"242018","348-TH","2018/03/05 07:59:15","新北市新莊區中港路72號","121.455475","25.0389083333333","6500500","新莊區"
"242055","349-TH","2018/03/05 07:59:18","新北市新莊區新泰路103號","121.448968333333","25.0349383333333","6500500","新莊區"
"242016","350-TH","2018/03/05 07:59:12","新北市新莊區中華路一段101號","121.452675","25.0437066666667","6500500","新莊區"
"242010","351-TH","2018/03/05 07:59:05","新北市新莊區中港路491號","121.452153333333","25.0501083333333","6500500","新莊區"
"220057","282-UM","2018/03/05 07:59:16","新北市新莊區中正路384號","121.442261666667","25.0343","6500100","板橋區"
"242014","280-VK","2018/03/05 07:59:18","新北市新莊區新泰路223號","121.446443333333","25.0390633333333","6500500","新莊區"
