"lineid","car","time","location","longitude","latitude","cityid","cityname"
"248005","653-BX","2018/03/05 08:39:18","新北市五股區明德路12巷3號","121.433295","25.07184","6501500","五股區"
"232001","290-BY","2018/03/05 08:39:07","新北市坪林區粗石斛4號","121.747348333333","24.9535283333333","6502000","坪林區"
"232012","291-BY","2018/03/05 08:39:13","新北市坪林區金瓜寮24-3號","121.678836666667","24.909455","6502000","坪林區"
"232017","705-BZ","2018/03/05 08:39:20","新北市坪林區中心崙6-2號","121.780011666667","24.9464233333333","6502000","坪林區"
"232005","758-BX","2018/03/05 08:39:21","新北市坪林區魚堀10號","121.706548333333","24.9054333333333","6502000","坪林區"
"244012","069-UM","2018/03/05 08:39:16","新北市林口區中山路164號","121.390286666667","25.0787533333333","6501700","林口區"
"244006","080-UY","2018/03/05 08:39:19","新北市林口區林口路206號","121.387135","25.0834283333333","6501700","林口區"
"244001","248-BX","2018/03/05 08:39:20","新北市林口區嘉寶里15鄰43-2號","121.341898333333","25.1083183333333","6501700","林口區"
"244018","402-UM","2018/03/05 08:39:20","新北市林口區文化一路一段133號","121.373695","25.0719666666667","6501700","林口區"
"244024","742-UY","2018/03/05 08:39:10","新北市林口區忠孝三路一段118號","121.359215","25.0716183333333","6501700","林口區"
"244022","483-VK","2018/03/05 08:39:12","新北市林口區興林路152巷24號","121.3875","25.0717416666667","6501700","林口區"
"244016","485-VK","2018/03/05 08:39:20","新北市林口區文化二路一段214-1號","121.369285","25.0722766666667","6501700","林口區"
"244008","657-BX","2018/03/05 08:39:15","新北市林口區竹林路564號","121.386631666667","25.0837083333333","6501700","林口區"
"244010","701-TV","2018/03/05 08:39:25","新北市林口區中正路32號","121.395736666667","25.077595","6501700","林口區"
"244020","838-TS","2018/03/05 08:39:12","新北市林口區自強一街99號","121.4004","25.0767366666667","6501700","林口區"
"222005","289-BY","2018/03/05 08:38:52","台北市南港區南深路52號","121.622596666667","25.0207716666667","6501800","深坑區"
"231007","189-VK","2018/03/05 08:39:28","新北市新店區新潭路二段61-1號","121.521118333333","24.9257266666667","6500600","新店區"
"231008","192-VK","2018/03/05 08:39:16","新北市新店區新烏路三段366-1號","121.546598333333","24.8931066666667","6500600","新店區"
"235001","611-BX","2018/03/05 08:39:22","新北市中和區員山路395號","121.481203333333","25.0031333333333","6500300","中和區"
"226005","5620-A6","2018/03/05 08:39:13","新北市平溪區南山里六分3號","121.793283333333","25.0488516666667","6502400","平溪區"
"226001","7418-A5","2018/03/05 08:37:02","新北市平溪區東勢里火燒寮11-1號","121.752045","24.9934166666667","6502400","平溪區"
"226003","AGD-0702","2018/03/05 08:39:17","新北市平溪區新寮里新寮路1-1號","121.790656666667","25.0584383333333","6502400","平溪區"
"223006","022-BY","2018/03/05 08:39:27","新北市深坑區文山路一段33號","121.629773333333","25.0042816666667","6501900","石碇區"
"223001","205-TH","2018/03/05 08:39:13","新北市石碇區北宜路六段直潭巷9號","121.661448333333","24.9355983333333","6501900","石碇區"
"223008","406-TH","2018/03/05 08:39:08","新北市石碇區十八重溪69號","121.673333333333","25.0146966666667","6501900","石碇區"
"223001","592-UM","2018/03/05 08:39:17","新北市石碇區北宜路六段直潭巷8號","121.660523333333","24.9352266666667","6501900","石碇區"
"223004","660-BX","2018/03/05 08:39:09","新北市石碇區崩山15號","121.674935","24.97069","6501900","石碇區"
"223007","661-BX","2018/03/05 08:39:10","新北市石碇區十八重溪68號","121.673578333333","25.01488","6501900","石碇區"
"223005","677-TV","2018/03/05 08:39:24","新北市石碇區崩山33-3號","121.677061666667","24.9655716666667","6501900","石碇區"
"227005","282-VK","2018/03/05 08:39:22","新北市雙溪區外柑里四分子4號","121.842511666667","25.0007933333333","6502500","雙溪區"
"252006","073-UM","2018/03/05 08:38:40","新北市三芝區後厝里北勢子7-10號","121.477596666667","25.25424","6502100","三芝區"
"252004","249-BX","2018/03/05 08:39:13","新北市三芝區興華里楓子林38號","121.490511666667","25.2079216666667","6502100","三芝區"
"237001","159-UY","2018/03/05 08:39:14","新北市三峽區大觀路3號","121.375811666667","24.9437433333333","6500900","三峽區"
"236007","165-UM","2018/03/05 08:39:28","新北市土城區青雲路456號","121.459238333333","24.9691066666667","6501300","土城區"
"236001","339-SR","2018/03/05 08:39:20","新北市土城區大暖路110號","121.421366666667","24.9576166666667","6501300","土城區"
"236005","498-BY","2018/03/05 08:39:20","新北市土城區永和街42巷9號","121.434498333333","24.96008","6501300","土城區"
"242028","986-R7","2018/03/05 08:39:25","新北市新莊區中平路181號","121.444625","25.0489433333333","6500500","新莊區"
"242049","751-BX","2018/03/05 08:39:22","新北市新莊區民本街18號","121.428023333333","25.0197883333333","6500500","新莊區"
"242024","615-BX","2018/03/05 08:39:24","新北市新莊區五權一路14號","121.457221666667","25.0647483333333","6500500","新莊區"
"242022","613-BX","2018/03/05 08:39:10","新北市新莊區化成路306號","121.465645","25.0481266666667","6500500","新莊區"
"242026","612-BX","2018/03/05 08:39:16","新北市新莊區幸福路825號","121.445156666667","25.049015","6500500","新莊區"
"242038","566-BX","2018/03/05 08:39:27","新北市新莊區民安路309號","121.429831666667","25.02264","6500500","新莊區"
"242043","497-BY","2018/03/05 08:39:27","新北市新莊區新北大道七段758號","121.41275","25.0254766666667","6500500","新莊區"
"242030","442-UM","2018/03/05 08:39:18","新北市新莊區新泰路277巷36號","121.444108333333","25.0402283333333","6500500","新莊區"
"242047","441-UM","2018/03/05 08:39:22","新北市新莊區富國路156號","121.423328333333","25.02492","6500500","新莊區"
"242052","440-UM","2018/03/05 08:39:26","新北市新莊區光華街8號","121.428763333333","25.0106866666667","6500500","新莊區"
"242033","415-TV","2018/03/05 08:39:15","新北市新莊區新豐街18號","121.448418333333","25.0344683333333","6500500","新莊區"
"242003","413-TV","2018/03/05 08:39:09","新北市新莊區復興路三段2號","121.460441666667","25.0444383333333","6500500","新莊區"
"242040","400-BY","2018/03/05 08:39:20","新北市新莊區天祥街72巷9號","121.416213333333","25.02972","6500500","新莊區"
"242059","362-BY","2018/03/05 08:39:27","新北市新莊區後港一路141號","121.430255","25.0276233333333","6500500","新莊區"
"242057","353-BY","2018/03/05 08:39:07","新北市新莊區中正路742-2號","121.413503333333","25.02293","6500500","新莊區"
"242006","132-UY","2018/03/05 08:39:21","新北市新莊區思源路593巷6弄14號","121.458893333333","25.0599216666667","6500500","新莊區"
"242035","133-UY","2018/03/05 08:39:28","新北市新莊區後港一路65巷11弄2號","121.426146666667","25.0273783333333","6500500","新莊區"
"242020","135-UY","2018/03/05 08:39:12","新北市新莊區中正路170號","121.450758333333","25.0359183333333","6500500","新莊區"
"242045","172-VK","2018/03/05 08:39:25","新北市新莊區中正路829巷111號","121.422405","25.0276233333333","6500500","新莊區"
"242008","173-VK","2018/03/05 08:39:18","新北市新莊區昌平街71巷16號","121.45373","25.0537166666667","6500500","新莊區"
"242001","176-VK","2018/03/05 08:39:22","新北市新莊區碧江街31號","121.45224","25.033095","6500500","新莊區"
"242012","346-TH","2018/03/05 08:39:21","新北市新莊區中港路417巷18號","121.451618333333","25.0475933333333","6500500","新莊區"
"242018","348-TH","2018/03/05 08:39:15","新北市新莊區中港路132巷10號","121.45581","25.040625","6500500","新莊區"
"242055","349-TH","2018/03/05 08:39:18","新北市新莊區豐年街68號","121.446401666667","25.0314933333333","6500500","新莊區"
"242016","350-TH","2018/03/05 08:39:12","新北市新莊區中港路397號","121.451973333333","25.0468433333333","6500500","新莊區"
"242010","351-TH","2018/03/05 08:39:25","新北市新莊區中港路591巷28號","121.449845","25.0523616666667","6500500","新莊區"
"220057","282-UM","2018/03/05 08:39:16","新北市八里區中山路三段409號","121.368626666667","25.135375","6500100","板橋區"
"242014","280-VK","2018/03/05 08:39:10","新北市新莊區中平路184巷10弄1號","121.445503333333","25.048075","6500500","新莊區"
