"lineid","car","time","location","longitude","latitude","cityid","cityname"
"248005","653-BX","2018/03/05 08:49:38","新北市五股區明德路12巷6號","121.433376666667","25.0718033333333","6501500","五股區"
"232001","290-BY","2018/03/05 08:49:27","新北市坪林區虎寮潭1號","121.740945","24.95","6502000","坪林區"
"232012","291-BY","2018/03/05 08:49:33","新北市坪林區仁里13號","121.687598333333","24.9289483333333","6502000","坪林區"
"232017","705-BZ","2018/03/05 08:49:40","新北市坪林區中心崙2-1號","121.784955","24.9539133333333","6502000","坪林區"
"232005","758-BX","2018/03/05 08:49:41","新北市坪林區魚堀10號","121.705698333333","24.9061533333333","6502000","坪林區"
"244012","069-UM","2018/03/05 08:49:36","新北市林口區中山路130號","121.392178333333","25.0787083333333","6501700","林口區"
"244006","080-UY","2018/03/05 08:49:39","新北市林口區中山路135號","121.388368333333","25.07904","6501700","林口區"
"244001","248-BX","2018/03/05 08:49:40","新北市林口區寶林路70號","121.371163333333","25.0929416666667","6501700","林口區"
"244018","402-UM","2018/03/05 08:49:40","新北市林口區文化一路83巷14弄60號","121.372528333333","25.0713966666667","6501700","林口區"
"244024","742-UY","2018/03/05 08:49:30","新北市林口區南勢六街57號","121.355573333333","25.0719466666667","6501700","林口區"
"244022","483-VK","2018/03/05 08:49:33","新北市林口區東湖路92號","121.386096666667","25.0738883333333","6501700","林口區"
"244016","485-VK","2018/03/05 08:49:40","新北市林口區文化一路一段19號","121.369781666667","25.068575","6501700","林口區"
"244008","657-BX","2018/03/05 08:49:35","新北市林口區竹林路606巷26號","121.385375","25.0829633333333","6501700","林口區"
"244010","701-TV","2018/03/05 08:49:45","新北市林口區新生街26號","121.394023333333","25.0764566666667","6501700","林口區"
"244020","838-TS","2018/03/05 08:49:32","新北市林口區自強三街27號","121.398126666667","25.07743","6501700","林口區"
"222005","289-BY","2018/03/05 08:48:52","新北市深坑區風格街31巷46號","121.626928333333","25.01804","6501800","深坑區"
"231007","189-VK","2018/03/05 08:49:28","新北市新店區新潭路三段112巷11號","121.509283333333","24.9089766666667","6500600","新店區"
"231008","192-VK","2018/03/05 08:49:16","新北市新店區桂山路37號","121.560803333333","24.9017533333333","6500600","新店區"
"235001","611-BX","2018/03/05 08:49:42","新北市中和區民安街178號","121.4764","24.999895","6500300","中和區"
"226005","5620-A6","2018/03/05 08:49:33","新北市平溪區十分里十分街94號","121.777111666667","25.0422883333333","6502400","平溪區"
"226001","7418-A5","2018/03/05 08:48:42","新北市平溪區東勢里番仔坑16號","121.756121666667","24.9917566666667","6502400","平溪區"
"226003","AGD-0702","2018/03/05 08:49:36","新北市平溪區十分里十分街259號","121.778281666667","25.044965","6502400","平溪區"
"223006","022-BY","2018/03/05 08:49:27","新北市深坑區昇高坑路51-1號","121.630465","24.993885","6501900","石碇區"
"223001","205-TH","2018/03/05 08:49:33","新北市石碇區北宜路六段柑腳巷2號","121.659595","24.9380583333333","6501900","石碇區"
"223008","406-TH","2018/03/05 08:49:28","新北市石碇區碇南路二段松柏崎巷53號","121.67888","25.02591","6501900","石碇區"
"223001","592-UM","2018/03/05 08:49:37","新北市石碇區北宜路六段柑腳巷2號","121.659581666667","24.9380883333333","6501900","石碇區"
"223004","660-BX","2018/03/05 08:49:09","新北市石碇區崩山47-5號","121.678613333333","24.9700416666667","6501900","石碇區"
"223007","661-BX","2018/03/05 08:49:30","新北市石碇區碇南路二段1-1號","121.671351666667","25.0225583333333","6501900","石碇區"
"223005","677-TV","2018/03/05 08:46:24","新北市石碇區崩山26-1號","121.67677","24.9671833333333","6501900","石碇區"
"227005","282-VK","2018/03/05 08:49:42","新北市雙溪區泰平里泰平18號","121.836683333333","24.9807216666667","6502500","雙溪區"
"252006","073-UM","2018/03/05 08:49:40","新北市三芝區古庄里四棧橋23號","121.487158333333","25.2603316666667","6502100","三芝區"
"252004","249-BX","2018/03/05 08:49:33","新北市三芝區興華里田心子18-3號","121.494248333333","25.2031166666667","6502100","三芝區"
"237001","159-UY","2018/03/05 08:49:41","新北市三峽區學勤路106號","121.37487","24.9461666666667","6500900","三峽區"
"236007","165-UM","2018/03/05 08:49:28","新北市土城區明德路一段398-1號","121.453553333333","24.9793533333333","6501300","土城區"
"236001","339-SR","2018/03/05 08:49:40","新北市土城區中央路三段183號","121.43115","24.9651366666667","6501300","土城區"
"236005","498-BY","2018/03/05 08:49:40","新北市土城區承天路4巷20-1號","121.436181666667","24.9601416666667","6501300","土城區"
"242028","986-R7","2018/03/05 08:49:39","新北市新莊區中平路298號","121.444791666667","25.0517183333333","6500500","新莊區"
"242049","751-BX","2018/03/05 08:49:28","新北市新莊區民安西路172巷15號","121.425245","25.0160316666667","6500500","新莊區"
"242024","615-BX","2018/03/05 08:49:24","新北市新莊區五工一路87巷16號","121.46097","25.06725","6500500","新莊區"
"242022","613-BX","2018/03/05 08:49:30","新北市新莊區化成路560號","121.466196666667","25.054","6500500","新莊區"
"242026","612-BX","2018/03/05 08:49:36","新北市新莊區立信一街52號","121.443108333333","25.0494466666667","6500500","新莊區"
"242038","566-BX","2018/03/05 08:49:43","新北市新莊區民安路299巷42號","121.429693333333","25.02364","6500500","新莊區"
"242043","497-BY","2018/03/05 08:49:27","新北市新莊區龍安路71號","121.41577","25.0220916666667","6500500","新莊區"
"242030","442-UM","2018/03/05 08:49:38","新北市新莊區新泰路255巷78號","121.443068333333","25.0395066666667","6500500","新莊區"
"242047","441-UM","2018/03/05 08:49:41","新北市新莊區後港一路19號","121.424076666667","25.0261533333333","6500500","新莊區"
"242052","440-UM","2018/03/05 08:49:38","新北市新莊區民安西路327巷3號","121.42787","25.0113933333333","6500500","新莊區"
"242033","415-TV","2018/03/05 08:49:37","新北市新莊區仁愛街54巷1號","121.444971666667","25.0372833333333","6500500","新莊區"
"242003","413-TV","2018/03/05 08:49:28","新北市新莊區復興路三段117號","121.464406666667","25.0446016666667","6500500","新莊區"
"242040","400-BY","2018/03/05 08:49:28","新北市新莊區青山路一段8-1號","121.411678333333","25.027475","6500500","新莊區"
"242059","362-BY","2018/03/05 08:49:27","新北市新莊區民安路186號","121.425313333333","25.0236316666667","6500500","新莊區"
"242057","353-BY","2018/03/05 08:49:27","新北市新莊區中正路891-32號","121.414713333333","25.023355","6500500","新莊區"
"242006","132-UY","2018/03/05 08:49:40","新北市新莊區中原路55號","121.457955","25.0546483333333","6500500","新莊區"
"242035","133-UY","2018/03/05 08:49:40","新北市新莊區後港一路49巷3弄6號","121.425428333333","25.0268333333333","6500500","新莊區"
"242020","135-UY","2018/03/05 08:49:32","新北市新莊區建中街16巷27號","121.449066666667","25.038675","6500500","新莊區"
"242045","172-VK","2018/03/05 08:49:13","新北市新莊區中正路803巷76號","121.421963333333","25.027585","6500500","新莊區"
"242008","173-VK","2018/03/05 08:49:38","新北市新莊區昌盛街35巷1弄6號","121.453881666667","25.0504033333333","6500500","新莊區"
"242001","176-VK","2018/03/05 08:49:34","新北市新莊區中正路219號","121.450951666667","25.035805","6500500","新莊區"
"242012","346-TH","2018/03/05 08:49:35","新北市新莊區幸福路678巷3弄1號","121.450335","25.0495683333333","6500500","新莊區"
"242018","348-TH","2018/03/05 08:49:35","新北市新莊區民生街15巷1弄2號","121.455568333333","25.0422683333333","6500500","新莊區"
"242055","349-TH","2018/03/05 08:49:38","新北市新莊區中環路一段18號","121.442713333333","25.0263933333333","6500500","新莊區"
"242016","350-TH","2018/03/05 08:49:32","新北市新莊區中港二街120號","121.448635","25.0457066666667","6500500","新莊區"
"242010","351-TH","2018/03/05 08:49:25","新北市新莊區中港路531巷68號","121.450585","25.051575","6500500","新莊區"
"220057","282-UM","2018/03/05 08:49:16","新北市八里區荖阡坑路34號","121.402375","25.1285633333333","6500100","板橋區"
"242014","280-VK","2018/03/05 08:49:30","新北市新莊區泰順街46號","121.447108333333","25.0428583333333","6500500","新莊區"
