"lineid","car","time","location","longitude","latitude","cityid","cityname"
"248005","653-BX","2018/03/05 09:39:38","新北市五股區成泰路一段7巷38號","121.432668333333","25.0670516666667","6501500","五股區"
"244012","069-UM","2018/03/05 09:39:36","新北市林口區麗園二街1巷2-2號","121.376876666667","25.0699016666667","6501700","林口區"
"244018","402-UM","2018/03/05 09:39:40","新北市林口區忠孝路622巷3弄2號","121.377838333333","25.0674583333333","6501700","林口區"
"244022","483-VK","2018/03/05 09:39:33","新北市林口區文化三路二段211巷85號","121.375033333333","25.0841083333333","6501700","林口區"
"244008","657-BX","2018/03/05 09:39:40","新北市林口區竹林路462號","121.387886666667","25.0849783333333","6501700","林口區"
"222005","289-BY","2018/03/05 09:39:37","新北市深坑區北深路一段288號","121.628341666667","25.0077983333333","6501800","深坑區"
"231007","189-VK","2018/03/05 09:39:28","新北市新店區新潭路三段215巷25號","121.508158333333","24.9040616666667","6500600","新店區"
"231008","192-VK","2018/03/05 09:39:36","新北市新店區平廣路一段185號","121.517236666667","24.888935","6500600","新店區"
"235001","611-BX","2018/03/05 09:39:42","新北市中和區連城路338號","121.482995","24.9958283333333","6500300","中和區"
"223001","205-TH","2018/03/05 09:39:33","新北市石碇區北宜路五段坑內巷6號","121.635756666667","24.9535816666667","6501900","石碇區"
"223008","406-TH","2018/03/05 09:39:35","新北市石碇區南勢坑2-3號","121.699248333333","24.9902616666667","6501900","石碇區"
"223001","592-UM","2018/03/05 09:39:37","新北市石碇區北宜路四段25號","121.623058333333","24.957915","6501900","石碇區"
"223004","660-BX","2018/03/05 09:39:29","新北市石碇區碇坪路二段35號","121.684755","24.97668","6501900","石碇區"
"223007","661-BX","2018/03/05 09:39:30","新北市石碇區南勢坑12號","121.698953333333","24.9822666666667","6501900","石碇區"
"223005","677-TV","2018/03/05 09:38:10","新北市石碇區碇坪路二段35號","121.684811666667","24.9767333333333","6501900","石碇區"
"227005","282-VK","2018/03/05 09:27:22","新北市雙溪區泰平里溪尾寮6號","121.820743333333","24.9611383333333","6502500","雙溪區"
"252004","249-BX","2018/03/05 09:39:33","新北市三芝區福德里大水堀21號","121.512351666667","25.2202016666667","6502100","三芝區"
"252006","AAC-283","2018/03/05 09:39:37","新北市三芝區新庄里新庄子95-29號","121.512881666667","25.2734816666667","6502100","三芝區"
"237001","159-UY","2018/03/05 09:39:33","新北市三峽區學勤路97號","121.374656666667","24.9461933333333","6500900","三峽區"
"236007","165-UM","2018/03/05 09:39:28","新北市土城區城林路6巷71號","121.437526666667","24.9785233333333","6501300","土城區"
"236005","498-BY","2018/03/05 09:39:42","新北市土城區千歲路33號","121.442131666667","24.96842","6501300","土城區"
"242038","566-BX","2018/03/05 09:39:43","新北市新莊區瓊林路59-38號","121.441203333333","25.0235716666667","6500500","新莊區"
"242043","497-BY","2018/03/05 09:39:35","新北市新莊區中正路新生巷85弄1號","121.416973333333","25.0215583333333","6500500","新莊區"
"242030","442-UM","2018/03/05 09:39:38","新北市新莊區中正路508巷146號","121.438423333333","25.035445","6500500","新莊區"
"242047","441-UM","2018/03/05 09:39:41","新北市新莊區中正路654號","121.421376666667","25.0284883333333","6500500","新莊區"
"242003","413-TV","2018/03/05 09:39:28","新北市新莊區化成路403巷4號","121.464635","25.058815","6500500","新莊區"
"242059","362-BY","2018/03/05 09:39:26","新北市新莊區新樹路447號","121.432636666667","25.013525","6500500","新莊區"
"242057","353-BY","2018/03/05 09:39:27","新北市新莊區四維路129號","121.422905","25.0226983333333","6500500","新莊區"
"242035","133-UY","2018/03/05 09:39:40","新北市新莊區後港一路63號","121.426438333333","25.0264833333333","6500500","新莊區"
"242045","172-VK","2018/03/05 09:39:45","新北市五股區成泰路一段90號","121.437315","25.069995","6500500","新莊區"
"242055","349-TH","2018/03/05 09:39:38","新北市新莊區瓊泰路94巷45號","121.4444","25.0294716666667","6500500","新莊區"
