"lineid","car","time","location","longitude","latitude","cityid","cityname"
"234044","148-BY","2018/03/05 13:39:35","新北市永和區永亨路166號","121.526123333333","25.0034666666667","6500400","永和區"
"234005","207-UY","2018/03/05 13:39:19","新北市永和區中山路一段36號","121.513443333333","25.01057","6500400","永和區"
"234078","298-R6","2018/03/05 13:39:27","新北市永和區林森路20巷7號","121.525926666667","25.0056366666667","6500400","永和區"
"234038","336-UY","2018/03/05 13:39:23","新北市永和區民樂街31巷6弄2號","121.52805","25.0012483333333","6500400","永和區"
"234062","337-UY","2018/03/05 13:39:33","新北市永和區秀朗路一段192巷6弄14號","121.519088333333","25.0022783333333","6500400","永和區"
"234084","338-UY","2018/03/05 13:39:23","新北市永和區成功路一段48巷12號","121.5263","25.0042783333333","6500400","永和區"
"234068","552-UM","2018/03/05 13:39:23","新北市永和區永和路二段233號","121.515643333333","25.014235","6500400","永和區"
"234015","745-BX","2018/03/05 13:39:25","新北市永和區環河西路一段51巷24號","121.514263333333","25.0176016666667","6500400","永和區"
"234028","746-BX","2018/03/05 13:39:31","新北市永和區民權路1巷18號","121.521301666667","24.998285","6500400","永和區"
"234052","KEA-2590","2018/03/05 13:39:32","新北市永和區竹林路39巷26號","121.519026666667","25.014745","6500400","永和區"
"234012","KEA-2591","2018/03/05 13:39:23","新北市永和區永平路252號","121.508451666667","25.0111866666667","6500400","永和區"
"234060","AAD-866","2018/03/05 13:39:23","新北市永和區中正路486號","121.517366666667","25.0038183333333","6500400","永和區"
"234040","862-TW","2018/03/05 13:39:25","新北市永和區中和路373號","121.508293333333","24.9997066666667","6500400","永和區"
"234048","863-TW","2018/03/05 13:39:36","新北市永和區保安路84號","121.509758333333","25.0162316666667","6500400","永和區"
"234010","9373-KE","2018/03/05 13:39:30","新北市永和區保福路二段23巷19號","121.5101","25.0111633333333","6500400","永和區"
"248015","026-BX","2018/03/05 13:39:28","新北市五股區凌雲路一段133巷27-3號","121.448641666667","25.1008966666667","6501500","五股區"
"248005","077-UY","2018/03/05 13:39:33","新北市五股區中興路一段52號","121.468003333333","25.0726766666667","6501500","五股區"
"248007","095-VK","2018/03/05 13:39:37","新北市五股區中興路一段148號","121.464683333333","25.0740283333333","6501500","五股區"
"248019","225-UY","2018/03/05 13:38:39","新北市五股區孝義路108-1號","121.442748333333","25.1198116666667","6501500","五股區"
"248011","247-BX","2018/03/05 13:39:35","新北市五股區成泰路三段2巷1-20號","121.441225","25.0866733333333","6501500","五股區"
"248013","261-SL","2018/03/05 13:39:24","新北市五股區中興路四段70號","121.437005","25.083395","6501500","五股區"
"248009","272-BY","2018/03/05 13:39:39","新北市五股區水碓七路168號","121.430703333333","25.074035","6501500","五股區"
"248003","677-BX","2018/03/05 13:39:27","新北市五股區民義路一段270號","121.425843333333","25.092775","6501500","五股區"
"248001","678-BX","2018/03/05 13:39:20","新北市五股區成泰路三段435巷11號","121.449343333333","25.0978566666667","6501500","五股區"
"234022","9380-KE","2018/03/05 13:39:29","新北市永和區中正路702巷18號","121.516376666667","25.0104633333333","6500400","永和區"
"234076","969-R7","2018/03/05 13:39:29","新北市永和區民權路22號","121.520278333333","24.9992933333333","6500400","永和區"
"234072","AAC-211","2018/03/05 13:39:24","新北市永和區竹林路213巷21號","121.522208333333","25.0090016666667","6500400","永和區"
"234066","AAC-212","2018/03/05 13:39:35","新北市永和區中山路一段191巷7弄4號","121.509603333333","25.0082666666667","6500400","永和區"
"234001","AAC-295","2018/03/05 13:39:32","新北市永和區福和路346號","121.514943333333","25.0073583333333","6500400","永和區"
"244001","248-BX","2018/03/05 13:39:30","新北市林口區瑞平里8鄰53-1號","121.342251666667","25.1230083333333","6501700","林口區"
"243004","AAD-798","2018/03/05 13:39:21","新北市泰山區泰林路二段302號","121.430851666667","25.0627216666667","6501600","泰山區"
"243002","KEA-2215","2018/03/05 13:39:24","新北市泰山區泰林路二段568號","121.42277","25.0636683333333","6501600","泰山區"
"243005","646-TV","2018/03/05 13:39:29","新北市泰山區明志路三段206巷3號","121.423255","25.0379666666667","6501600","泰山區"
"243008","680-BX","2018/03/05 13:39:31","新北市泰山區泰林路二段332-1號","121.429793333333","25.0633","6501600","泰山區"
"231002","002-UM","2018/03/05 13:39:34","新北市新店區中央三街127號","121.524113333333","24.9768733333333","6500600","新店區"
"231025","0293-UT","2018/03/05 13:39:20","新北市新店區中央六街56號","121.527888333333","24.97571","6500600","新店區"
"231028","046-UY","2018/03/05 13:39:23","新北市新店區安和路二段120-6號","121.519135","24.971065","6500600","新店區"
"231030","047-UY","2018/03/05 13:39:26","新北市新店區安康路一段50號","121.530208333333","24.96118","6500600","新店區"
"231029","106-UY","2018/03/05 13:39:29","新北市新店區安康路二段125-1號","121.512411666667","24.9609016666667","6500600","新店區"
"231018","107-UY","2018/03/05 13:39:31","新北市新店區百忍街14號","121.53462","24.9756733333333","6500600","新店區"
"231019","187-VK","2018/03/05 13:39:31","新北市新店區永興路88號","121.544148333333","24.9329216666667","6500600","新店區"
"231014","KEA-2219","2018/03/05 13:39:28","新北市新店區竹林路2巷29弄7號","121.550406666667","24.9502933333333","6500600","新店區"
"231026","256-BX","2018/03/05 13:39:28","新北市新店區中正路331號","121.53595","24.9750233333333","6500600","新店區"
"231010","278-BY","2018/03/05 13:39:32","新北市新店區中正路309-1號","121.536541666667","24.974655","6500600","新店區"
"231027","3712-VJ","2018/03/05 13:39:18","新北市新店區北宜路一段105巷4弄3號","121.540005","24.9554683333333","6500600","新店區"
"231024","4716-K9","2018/03/05 13:39:27","新北市新店區華興街36號","121.537066666667","24.9690616666667","6500600","新店區"
"231038","4715-K9","2018/03/05 13:39:15","新北市新店區安華路30巷1號","121.519596666667","24.95929","6500600","新店區"
"231036","512-UM","2018/03/05 13:39:28","新北市新店區安祥路147巷72號","121.475903333333","24.9558316666667","6500600","新店區"
"231023","513-UM","2018/03/05 13:39:31","新北市新店區新店路166號","121.537156666667","24.95567","6500600","新店區"
"231035","515-UM","2018/03/05 13:39:31","新北市新店區安忠路90-8號","121.511325","24.95764","6500600","新店區"
"231001","619-UM","2018/03/05 13:39:26","新北市新店區中正路396號","121.534606666667","24.9773616666667","6500600","新店區"
"231003","641-BX","2018/03/05 13:39:34","新北市新店區中興路一段268-1號","121.54512","24.9677333333333","6500600","新店區"
"231034","645-TV","2018/03/05 13:39:31","新北市新店區車子路109號","121.505253333333","24.952145","6500600","新店區"
"231013","719-UM","2018/03/05 13:39:28","新北市新店區中正路454-5號","121.534463333333","24.9790616666667","6500600","新店區"
"231011","719-UY","2018/03/05 13:39:34","新北市新店區德正街27巷27號","121.545761666667","24.9717166666667","6500600","新店區"
"231031","720-UM","2018/03/05 13:39:27","新北市新店區莒光路44巷21弄11-2號","121.51975","24.9535083333333","6500600","新店區"
"231005","897-TW","2018/03/05 13:39:24","新北市新店區寶中路72號","121.547865","24.9806216666667","6500600","新店區"
"231006","898-TW","2018/03/05 13:39:27","新北市新店區北宜路一段83號","121.538743333333","24.9559316666667","6500600","新店區"
"231004","899-TW","2018/03/05 13:39:23","新北市新店區北新路二段1號","121.542723333333","24.9711416666667","6500600","新店區"
"231037","AKT-0513","2018/03/05 13:39:19","新北市新店區薏仁坑路25號","121.496368333333","24.96007","6500600","新店區"
"235030","003-UY","2018/03/05 13:39:29","新北市中和區水源路28號","121.50447","25.003505","6500300","中和區"
"235028","005-UY","2018/03/05 13:39:33","新北市中和區連城路90號","121.496891666667","25.0006066666667","6500300","中和區"
"235001","006-UY","2018/03/05 13:39:37","新北市中和區連城路403號","121.486105","24.996215","6500300","中和區"
"235024","031-BX","2018/03/05 13:39:33","新北市中和區員山路448號","121.480105","25.005635","6500300","中和區"
"235020","096-UM","2018/03/05 13:39:21","新北市中和區員山路466巷21弄6號","121.481071666667","25.0067733333333","6500300","中和區"
"235003","097-UM","2018/03/05 13:39:32","新北市中和區大勇街25巷54號","121.515076666667","24.9944633333333","6500300","中和區"
"235029","098-UM","2018/03/05 13:39:32","新北市中和區莊敬路49巷29弄13號","121.500856666667","25.0063933333333","6500300","中和區"
"235004","150-BY","2018/03/05 13:39:23","新北市中和區保健路50巷66號","121.509286666667","24.995225","6500300","中和區"
"235022","151-BY","2018/03/05 13:39:33","新北市中和區員山路32-4號","121.481245","24.9879583333333","6500300","中和區"
"235019","183-VK","2018/03/05 13:39:28","新北市中和區莒光路120巷13弄2號","121.471686666667","25.0014033333333","6500300","中和區"
"235002","185-VK","2018/03/05 13:39:29","新北市中和區自強路60號","121.519885","24.9944533333333","6500300","中和區"
"235013","186-VK","2018/03/05 13:39:25","新北市中和區明義街11巷1弄1號","121.503913333333","24.9949016666667","6500300","中和區"
"235031","255-BX","2018/03/05 13:39:35","新北市中和區新生街220巷13號","121.482938333333","24.9984916666667","6500300","中和區"
"235008","293-VK","2018/03/05 13:39:21","新北市中和區復興路280巷6號","121.502285","24.9909933333333","6500300","中和區"
"235036","301-VK","2018/03/05 13:39:18","新北市中和區中山路二段131號","121.502483333333","25.0032666666667","6500300","中和區"
"235007","352-BY","2018/03/05 13:39:29","新北市中和區景平路163號","121.51235","24.9924766666667","6500300","中和區"
"235032","377-QA","2018/03/05 13:39:27","新北市中和區中正路167巷13號","121.498226666667","24.9929216666667","6500300","中和區"
"235025","378-QA","2018/03/05 13:39:36","新北市中和區民享街85號","121.474283333333","25.0016333333333","6500300","中和區"
"235035","269-TV","2018/03/05 13:39:20","新北市板橋區光復街172巷16-4號","121.486696666667","25.0167716666667","6500300","中和區"
"235014","4979-A6","2018/03/05 13:39:30","新北市中和區景新街496巷28弄47號","121.512568333333","24.9858983333333","6500300","中和區"
"235033","4980-A6","2018/03/05 13:39:23","新北市中和區連城路99巷42號","121.49694","24.9988016666667","6500300","中和區"
"235006","551-UM","2018/03/05 13:39:25","新北市中和區成功路101巷5號","121.526516666667","24.9917333333333","6500300","中和區"
"235009","565-BX","2018/03/05 13:39:35","新北市中和區南山路236巷22弄2號","121.505855","24.989065","6500300","中和區"
"235001","611-BX","2018/03/05 13:39:28","新北市八里區中山路三段409號","121.368593333333","25.13441","6500300","中和區"
"235018","640-BX","2018/03/05 13:39:18","新北市中和區莒光路149號","121.472621666667","25.00113","6500300","中和區"
"235011","732-UM","2018/03/05 13:39:22","新北市中和區南山路320巷15號","121.507363333333","24.9863066666667","6500300","中和區"
"235026","800-TS","2018/03/05 13:37:39","台北市萬華區環河南路三段313號","121.492155","25.01698","6500300","中和區"
"235021","801-TS","2018/03/05 13:39:38","新北市中和區員山路327巷39-1號","121.479628333333","25.0021433333333","6500300","中和區"
"235016","805-TS","2018/03/05 13:39:37","新北市中和區興南路三段52巷2-5號","121.494551666667","24.9758966666667","6500300","中和區"
"235012","896-TW","2018/03/05 13:39:34","新北市中和區中正路75號","121.500955","24.9934283333333","6500300","中和區"
"235017","900-TW","2018/03/05 13:39:37","新北市土城區延壽路118-5號","121.469111666667","24.99441","6500300","中和區"
"235034","911-UM","2018/03/05 13:39:21","新北市中和區景新街133號","121.505895","24.997255","6500300","中和區"
"235015","157-BY","2018/03/05 13:39:21","新北市中和區華新街143巷106弄13號","121.506311666667","24.9787566666667","6500300","中和區"
"235001","AAC-213","2018/03/05 13:39:20","新北市中和區景德街95-13號","121.515","24.991205","6500300","中和區"
"235023","AAC-215","2018/03/05 13:39:36","新北市中和區員山路36巷16-2號","121.485301666667","24.9916583333333","6500300","中和區"
"220016","013-TV","2018/03/05 13:39:33","新北市板橋區民生路二段120號","121.470408333333","25.019705","6500100","板橋區"
"220013","072-UY","2018/03/05 13:39:39","新北市板橋區縣民大道二段68-1號","121.463358333333","25.012835","6500100","板橋區"
"220034","073-UY","2018/03/05 13:39:32","新北市板橋區大智街71巷28弄22號","121.452371666667","25.0150666666667","6500100","板橋區"
"220017","AAD-861","2018/03/05 13:39:23","新北市板橋區華東街1-10號","121.448353333333","24.9950966666667","6500100","板橋區"
"247005","336-TH","2018/03/05 13:39:28","新北市蘆洲區永安南路二段226號","121.460888333333","25.0793033333333","6501400","蘆洲區"
"247007","056-VK","2018/03/05 13:39:35","新北市蘆洲區國道路二段105號","121.470473333333","25.0749216666667","6501400","蘆洲區"
"235005","251-BX","2018/03/05 13:39:28","新北市中和區中安街80號","121.512118333333","25.00185","6500300","中和區"
"253003","6232-TK","2018/03/05 13:39:12","新北市石門區尖子鹿10-2號","121.574471666667","25.2828183333333","6502200","石門區"
"253001","6251-TK","2018/03/05 13:39:08","新北市石門區下員坑20號","121.511318333333","25.27889","6502200","石門區"
"253002","637-UY","2018/03/05 13:39:19","新北市石門區內石門80號","121.565936666667","25.2614916666667","6502200","石門區"
"253004","8270-PC","2018/03/05 13:39:05","新北市石門區竹子湖11號","121.617986666667","25.25789","6502200","石門區"
"207001","662-BX","2018/03/05 13:39:36","新北市萬里區磺潭里公館崙35號","121.632501666667","25.2117266666667","6502800","萬里區"
"252005","AAC-283","2018/03/05 13:39:30","新北市三芝區圓山里內柑宅22-2號","121.537543333333","25.2169683333333","6502100","三芝區"
"236074","166-UM","2018/03/05 13:39:29","新北市土城區中華路二段26號","121.439266666667","24.9783816666667","6501300","土城區"
"236012","270-VK","2018/03/05 13:39:32","新北市土城區城林路6巷80號","121.438795","24.9796633333333","6501300","土城區"
"236032","271-VK","2018/03/05 13:39:31","新北市土城區城林路6巷80號","121.43867","24.9797466666667","6501300","土城區"
"236005","498-BY","2018/03/05 13:39:22","新北市土城區慶祥街8號","121.43801","24.9748566666667","6501300","土城區"
"236060","915-UM","2018/03/05 13:39:25","新北市土城區城林路6巷80號","121.438743333333","24.9796516666667","6501300","土城區"
"236052","AAC-216","2018/03/05 13:39:20","新北市土城區城林路6巷80號","121.438696666667","24.9796816666667","6501300","土城區"
"221032","280-BY","2018/03/05 13:39:27","新北市汐止區仁愛路1-6號","121.658901666667","25.06483","6501100","汐止區"
"220027","145-BY","2018/03/05 13:39:39","新北市板橋區幸福路61號","121.460761666667","25.0198","6500100","板橋區"
"220030","610-BX","2018/03/05 13:39:22","新北市板橋區大觀路二段443-2號","121.43908","24.9952116666667","6500100","板橋區"
"220020","277-BY","2018/03/05 13:39:20","新北市板橋區大觀路二段443-2號","121.439605","24.99519","6500100","板橋區"
"220005","282-UM","2018/03/05 13:39:25","新北市板橋區華東街1-9號","121.448171666667","24.9949316666667","6500100","板橋區"
"220019","283-VK","2018/03/05 13:39:21","新北市板橋區四川路二段140巷16弄13號","121.448711666667","24.9935466666667","6500100","板橋區"
"220001","285-VK","2018/03/05 13:39:26","新北市板橋區民生路二段120號","121.470483333333","25.0197316666667","6500100","板橋區"
"220031","286-VK","2018/03/05 13:39:30","新北市板橋區板城路271號","121.450168333333","24.997945","6500100","板橋區"
"220029","287-VK","2018/03/05 13:39:37","新北市板橋區大觀路二段153巷51號","121.447206666667","25.00093","6500100","板橋區"
"220009","293-UM","2018/03/05 13:39:17","新北市板橋區民生路二段120號","121.47035","25.019625","6500100","板橋區"
"220023","303-R5","2018/03/05 13:39:34","新北市板橋區華東街260號","121.452626666667","25.001745","6500100","板橋區"
"220010","305-R5","2018/03/05 13:39:35","新北市板橋區民生路二段120號","121.470451666667","25.01964","6500100","板橋區"
"220012","486-VK","2018/03/05 13:39:33","新北市板橋區縣民大道一段300號","121.461306666667","25.0105316666667","6500100","板橋區"
"220104","560-BX","2018/03/05 13:39:23","新北市板橋區南雅西路二段145巷10號","121.451601666667","25.011905","6500100","板橋區"
"220052","561-BX","2018/03/05 13:39:31","新北市板橋區民生路二段161巷1號","121.47022","25.0199083333333","6500100","板橋區"
"220003","568-UM","2018/03/05 13:39:18","新北市板橋區華東街1-9號","121.448188333333","24.994985","6500100","板橋區"
"220011","609-BX","2018/03/05 13:39:26","新北市板橋區民生路二段161巷1號","121.469906666667","25.02002","6500100","板橋區"
"220025","687-BX","2018/03/05 13:39:27","新北市板橋區存德街40巷24弄52號","121.430446666667","24.9916","6500100","板橋區"
"220002","741-BX","2018/03/05 13:39:18","新北市板橋區華東街1-10號","121.448715","24.99498","6500100","板橋區"
"220014","829-TW","2018/03/05 13:39:32","新北市板橋區民生路二段161巷1號","121.470288333333","25.019895","6500100","板橋區"
"220045","831-TW","2018/03/05 13:39:31","新北市板橋區民生路二段161巷9號","121.470261666667","25.019565","6500100","板橋區"
"220022","895-R6","2018/03/05 13:39:38","新北市板橋區南雅南路一段84號","121.455268333333","25.00496","6500100","板橋區"
"220021","985-R7","2018/03/05 13:39:19","新北市板橋區南雅南路二段100號","121.453476666667","25.00117","6500100","板橋區"
"220018","AAC-253","2018/03/05 13:39:20","新北市板橋區大觀路二段266號","121.44973","24.9969233333333","6500100","板橋區"
