"lineid","car","time","location","longitude","latitude","cityid","cityname"
"234044","148-BY","2018/03/05 13:49:15","新北市永和區永利路137號","121.524011666667","25.0034433333333","6500400","永和區"
"234005","207-UY","2018/03/05 13:49:19","新北市永和區永和路一段64號","121.513073333333","25.0059066666667","6500400","永和區"
"234078","298-R6","2018/03/05 13:49:07","新北市永和區永亨路106號","121.523528333333","25.0045333333333","6500400","永和區"
"234038","336-UY","2018/03/05 13:49:20","新北市永和區民樂街39巷18弄44號","121.528441666667","24.9989316666667","6500400","永和區"
"234062","337-UY","2018/03/05 13:49:13","新北市永和區中正路368巷2號","121.517903333333","25.0007666666667","6500400","永和區"
"234084","338-UY","2018/03/05 13:49:23","新北市永和區永亨路127號","121.524555","25.0041083333333","6500400","永和區"
"234068","552-UM","2018/03/05 13:49:22","新北市永和區竹林路81號","121.519526666667","25.0125633333333","6500400","永和區"
"234015","745-BX","2018/03/05 13:49:05","新北市永和區文化路11號","121.515221666667","25.0149466666667","6500400","永和區"
"234028","746-BX","2018/03/05 13:49:20","新北市永和區民生路67巷7號","121.523038333333","24.9972466666667","6500400","永和區"
"234052","KEA-2590","2018/03/05 13:49:12","新北市永和區竹林路39巷28弄29號","121.519726666667","25.0143783333333","6500400","永和區"
"234012","KEA-2591","2018/03/05 13:49:23","新北市永和區保安路292號","121.505076666667","25.0118216666667","6500400","永和區"
"234060","AAD-866","2018/03/05 13:49:26","新北市永和區中正路142號","121.51471","24.9962416666667","6500400","永和區"
"234040","862-TW","2018/03/05 13:49:25","新北市永和區中和路389巷8號","121.508145","25.0009516666667","6500400","永和區"
"234048","863-TW","2018/03/05 13:49:17","新北市永和區保安路75號","121.508705","25.0148866666667","6500400","永和區"
"248015","026-BX","2018/03/05 13:49:08","新北市五股區凌雲路一段83巷44號","121.449013333333","25.10124","6501500","五股區"
"248007","095-VK","2018/03/05 13:49:24","新北市五股區中興路一段151巷27號","121.465211666667","25.0723316666667","6501500","五股區"
"248019","225-UY","2018/03/05 13:49:19","新北市五股區凌雲路三段41-2號","121.430066666667","25.1178333333333","6501500","五股區"
"248011","247-BX","2018/03/05 13:49:15","新北市五股區成泰路二段195巷1號","121.440438333333","25.087405","6501500","五股區"
"248009","272-BY","2018/03/05 13:49:19","新北市五股區水碓九路22號","121.42804","25.0717616666667","6501500","五股區"
"248003","677-BX","2018/03/05 13:49:08","新北市五股區民義路二段46-6號","121.413533333333","25.1018083333333","6501500","五股區"
"248001","678-BX","2018/03/05 13:49:29","新北市五股區凌雲路一段47號","121.451583333333","25.100645","6501500","五股區"
"234022","9380-KE","2018/03/05 13:49:21","新北市永和區中正路662巷25號","121.517653333333","25.00883","6500400","永和區"
"234076","969-R7","2018/03/05 13:49:29","新北市永和區民族街41巷15號","121.519215","24.9989733333333","6500400","永和區"
"234072","AAC-211","2018/03/05 13:49:24","新北市永和區豫溪街189巷1號","121.522611666667","25.0102816666667","6500400","永和區"
"234066","AAC-212","2018/03/05 13:49:15","新北市永和區永貞路355巷24號","121.508743333333","25.0073166666667","6500400","永和區"
"234001","AAC-295","2018/03/05 13:49:30","新北市永和區自由街71號","121.513471666667","25.0051083333333","6500400","永和區"
"244001","248-BX","2018/03/05 13:49:30","新北市林口區太平里2-5號","121.361288333333","25.1327716666667","6501700","林口區"
"243004","AAD-798","2018/03/05 13:49:21","新北市泰山區泰林路二段73巷27號","121.434435","25.0578383333333","6501600","泰山區"
"243002","KEA-2215","2018/03/05 13:49:24","新北市泰山區辭修路24號","121.429031666667","25.05815","6501600","泰山區"
"243001","KEA-2216","2018/03/05 13:49:10","新北市泰山區黎明路23-1號","121.42133","25.06139","6501600","泰山區"
"243005","646-TV","2018/03/05 13:49:29","新北市泰山區明志路三段206巷10號","121.423258333333","25.03801","6501600","泰山區"
"243008","680-BX","2018/03/05 13:49:11","新北市泰山區民權街2號","121.427703333333","25.0508583333333","6501600","泰山區"
"231002","002-UM","2018/03/05 13:49:14","新北市新店區溪園路393號","121.524241666667","24.9791066666667","6500600","新店區"
"231025","0293-UT","2018/03/05 13:49:20","新北市新店區中央五街6號","121.529975","24.974095","6500600","新店區"
"231028","046-UY","2018/03/05 13:49:24","新北市新店區安和路三段29-3號","121.51746","24.9812166666667","6500600","新店區"
"231030","047-UY","2018/03/05 13:49:24","新北市新店區安康路一段302-2號","121.517511666667","24.9641566666667","6500600","新店區"
"231029","106-UY","2018/03/05 13:49:09","新北市新店區安康路二段138號","121.512533333333","24.9619366666667","6500600","新店區"
"231018","107-UY","2018/03/05 13:49:11","新北市新店區中正路400巷11號","121.534995","24.9780133333333","6500600","新店區"
"231019","187-VK","2018/03/05 13:49:11","新北市新店區新烏路二段40號","121.544845","24.92832","6500600","新店區"
"231014","KEA-2219","2018/03/05 13:49:28","新北市新店區竹林路71-7號","121.553601666667","24.9513383333333","6500600","新店區"
"231026","256-BX","2018/03/05 13:49:28","新北市新店區三民路159巷19弄2號","121.532753333333","24.9742716666667","6500600","新店區"
"231010","278-BY","2018/03/05 13:49:12","新北市新店區平等街48巷1號","121.535645","24.97299","6500600","新店區"
"231027","3712-VJ","2018/03/05 13:49:18","新北市新店區中興路一段24-2號","121.538603333333","24.9583166666667","6500600","新店區"
"231024","4716-K9","2018/03/05 13:49:07","新北市新店區新生街55號","121.538816666667","24.966925","6500600","新店區"
"231038","4715-K9","2018/03/05 13:49:15","新北市新店區安康路一段222-1號","121.522788333333","24.96371","6500600","新店區"
"231036","512-UM","2018/03/05 13:49:08","新北市新店區安祥路140號","121.47418","24.9560283333333","6500600","新店區"
"231023","513-UM","2018/03/05 13:49:10","新北市新店區國校路45-1號","121.537943333333","24.9550733333333","6500600","新店區"
"231035","515-UM","2018/03/05 13:49:11","新北市新店區安忠路57巷5-6號","121.513196666667","24.9586733333333","6500600","新店區"
"231001","619-UM","2018/03/05 13:49:26","新北市新店區三民路86號","121.534398333333","24.9727216666667","6500600","新店區"
"231003","641-BX","2018/03/05 13:49:14","新北市新店區中興路一段112-1號","121.540738333333","24.9614633333333","6500600","新店區"
"231034","645-TV","2018/03/05 13:49:11","新北市新店區達觀路14巷8號","121.503226666667","24.9432666666667","6500600","新店區"
"231013","719-UM","2018/03/05 13:49:07","新北市新店區二十張路25巷18弄2號","121.53922","24.9817866666667","6500600","新店區"
"231011","719-UY","2018/03/05 13:49:14","新北市新店區德正街25巷3號","121.544401666667","24.97169","6500600","新店區"
"231031","720-UM","2018/03/05 13:49:27","新北市新店區莒光路44巷21弄11-6號","121.518758333333","24.9521433333333","6500600","新店區"
"231005","897-TW","2018/03/05 13:49:24","新北市新店區寶中路121號","121.54962","24.9795666666667","6500600","新店區"
"231006","898-TW","2018/03/05 13:49:27","新北市新店區北宜路一段260號","121.545728333333","24.9527716666667","6500600","新店區"
"231004","899-TW","2018/03/05 13:49:23","新北市新店區寶橋路49號","121.544893333333","24.974685","6500600","新店區"
"231037","AKT-0513","2018/03/05 13:49:19","新北市新店區安康路三段359巷12弄29號","121.483923333333","24.9492733333333","6500600","新店區"
"235030","003-UY","2018/03/05 13:49:09","新北市中和區水源路7巷29號","121.504128333333","25.0039416666667","6500300","中和區"
"235028","005-UY","2018/03/05 13:49:13","新北市中和區泰和街25號","121.499348333333","25.0000533333333","6500300","中和區"
"235001","006-UY","2018/03/05 13:49:17","新北市中和區連城路319巷3弄1號","121.489233333333","24.9956416666667","6500300","中和區"
"235024","031-BX","2018/03/05 13:49:24","新北市中和區中山路三段32號","121.47918","25.00603","6500300","中和區"
"235020","096-UM","2018/03/05 13:49:21","新北市中和區新民街94巷18號","121.481461666667","25.0092233333333","6500300","中和區"
"235003","097-UM","2018/03/05 13:49:12","新北市中和區景平路64巷13弄22號","121.521461666667","24.9914983333333","6500300","中和區"
"235029","098-UM","2018/03/05 13:49:12","新北市中和區中山路二段2巷45弄2號","121.502285","25.0071166666667","6500300","中和區"
"235004","150-BY","2018/03/05 13:48:43","新北市中和區保健路50巷50號","121.5096","24.995845","6500300","中和區"
"235022","151-BY","2018/03/05 13:49:13","新北市中和區連城路518巷8號","121.476458333333","24.99262","6500300","中和區"
"235019","183-VK","2018/03/05 13:49:27","新北市中和區德光路77巷6弄1號","121.469908333333","25.00336","6500300","中和區"
"235002","185-VK","2018/03/05 13:49:09","新北市中和區大勇街48號","121.5175","24.9941083333333","6500300","中和區"
"235013","186-VK","2018/03/05 13:49:25","新北市中和區景安路177巷27號","121.506643333333","24.99451","6500300","中和區"
"235031","255-BX","2018/03/05 13:49:15","新北市中和區新生街242巷1弄1號","121.483405","24.9978566666667","6500300","中和區"
"235008","293-VK","2018/03/05 13:49:21","新北市中和區中興街137號","121.50004","24.9914183333333","6500300","中和區"
"235036","301-VK","2018/03/05 13:49:18","新北市中和區中山路二段41號","121.504586666667","25.0050516666667","6500300","中和區"
"235007","352-BY","2018/03/05 13:49:09","新北市中和區景平路49號","121.521761666667","24.990675","6500300","中和區"
"235032","377-QA","2018/03/05 13:49:27","新北市中和區安邦街132號","121.497348333333","24.9955466666667","6500300","中和區"
"235025","378-QA","2018/03/05 13:49:15","新北市中和區民治街130巷7號","121.474888333333","25.0024533333333","6500300","中和區"
"235035","269-TV","2018/03/05 13:49:20","新北市中和區中山路二段482巷10號","121.48854","25.006155","6500300","中和區"
"235014","4979-A6","2018/03/05 13:49:20","新北市中和區忠孝街62巷9弄8號","121.513196666667","24.9839766666667","6500300","中和區"
"235033","4980-A6","2018/03/05 13:49:23","新北市中和區泰和街2號","121.50001","25.00111","6500300","中和區"
"235006","551-UM","2018/03/05 13:49:25","新北市中和區秀朗路三段70巷40號","121.525348333333","24.994435","6500300","中和區"
"235009","565-BX","2018/03/05 13:49:15","新北市中和區復興路73-3號","121.503841666667","24.9900866666667","6500300","中和區"
"235001","611-BX","2018/03/05 13:49:28","新北市八里區商港路26號","121.396548333333","25.1446433333333","6500300","中和區"
"235018","640-BX","2018/03/05 13:49:18","新北市中和區民享街68巷16號","121.473381666667","25.0018","6500300","中和區"
"235011","732-UM","2018/03/05 13:47:22","新北市中和區興南路二段34巷69號","121.50498","24.985365","6500300","中和區"
"235010","733-UM","2018/03/05 13:49:21","新北市中和區仁愛街36巷24號","121.510928333333","24.9872016666667","6500300","中和區"
"235026","800-TS","2018/03/05 13:49:19","新北市中和區中山路二段342號","121.493758333333","25.00213","6500300","中和區"
"235021","801-TS","2018/03/05 13:49:17","新北市中和區民安街25巷11號","121.480536666667","25.0003366666667","6500300","中和區"
"235016","805-TS","2018/03/05 13:49:22","新北市中和區興南路二段399巷52號","121.499333333333","24.9788383333333","6500300","中和區"
"235012","896-TW","2018/03/05 13:49:11","新北市中和區南山路417號","121.507228333333","24.9895433333333","6500300","中和區"
"235017","900-TW","2018/03/05 13:49:17","新北市中和區華福街16號","121.46578","24.99677","6500300","中和區"
"235034","911-UM","2018/03/05 13:49:21","新北市中和區南山路24號","121.502063333333","24.9982683333333","6500300","中和區"
"235015","157-BY","2018/03/05 13:49:21","新北市中和區華新街109巷11弄5號","121.508768333333","24.9792316666667","6500300","中和區"
"235001","AAC-213","2018/03/05 13:49:20","新北市中和區秀朗路三段175巷10號","121.524945","24.9914516666667","6500300","中和區"
"235023","AAC-215","2018/03/05 13:49:16","新北市中和區圓通路373號","121.490725","24.9894233333333","6500300","中和區"
"220016","013-TV","2018/03/05 13:49:13","新北市板橋區民生路二段56-6號","121.470863333333","25.0190383333333","6500100","板橋區"
"220013","072-UY","2018/03/05 13:49:19","新北市板橋區漢生東路281號","121.471291666667","25.009","6500100","板橋區"
"220034","073-UY","2018/03/05 13:49:10","新北市板橋區大智街71巷3弄1號","121.453508333333","25.01535","6500100","板橋區"
"220017","AAD-861","2018/03/05 13:49:23","新北市板橋區館前西路19號","121.458673333333","25.006965","6500100","板橋區"
"247003","337-TH","2018/03/05 13:49:20","新北市蘆洲區長安街102巷5弄12號","121.461596666667","25.0820016666667","6501400","蘆洲區"
"247005","336-TH","2018/03/05 13:49:08","新北市蘆洲區和平路77號","121.469295","25.0790833333333","6501400","蘆洲區"
"247007","056-VK","2018/03/05 13:49:14","新北市蘆洲區重陽二街22號","121.48229","25.0851083333333","6501400","蘆洲區"
"235005","251-BX","2018/03/05 13:49:08","新北市中和區永貞路249巷10號","121.512575","25.00372","6500300","中和區"
"253003","6232-TK","2018/03/05 13:49:12","新北市石門區尖子鹿8-1號","121.575213333333","25.2799566666667","6502200","石門區"
"253001","6251-TK","2018/03/05 13:49:08","新北市石門區下員坑21-1號","121.511355","25.2769266666667","6502200","石門區"
"253002","637-UY","2018/03/05 13:49:19","新北市石門區九芎林51號","121.566041666667","25.25038","6502200","石門區"
"253004","8270-PC","2018/03/05 13:49:20","新北市石門區五爪崙8-2號","121.606803333333","25.2615066666667","6502200","石門區"
"207001","662-BX","2018/03/05 13:49:16","新北市萬里區磺潭里公館崙58號","121.628585","25.2051033333333","6502800","萬里區"
"252005","AAC-283","2018/03/05 13:48:50","新北市三芝區圓山里二坪頂67號","121.540373333333","25.2328983333333","6502100","三芝區"
"236064","105-UM","2018/03/05 13:49:14","新北市土城區城林路6巷80號","121.438641666667","24.9796516666667","6501300","土城區"
"236040","107-UM","2018/03/05 13:49:20","新北市土城區城林路6巷80號","121.438745","24.9797333333333","6501300","土城區"
"236074","166-UM","2018/03/05 13:49:29","新北市土城區永寧路35號","121.430128333333","24.962155","6501300","土城區"
"236028","253-BX","2018/03/05 13:49:08","新北市土城區城林路6巷80號","121.438793333333","24.97969","6501300","土城區"
"236024","269-VK","2018/03/05 13:49:26","新北市土城區中華路二段128號","121.437715","24.9734016666667","6501300","土城區"
"236012","270-VK","2018/03/05 13:49:12","新北市土城區城林路6巷80號","121.438798333333","24.9796716666667","6501300","土城區"
"236032","271-VK","2018/03/05 13:49:11","新北市土城區城林路6巷80號","121.438675","24.97974","6501300","土城區"
"236016","401-BY","2018/03/05 13:49:24","新北市土城區中華路二段2號","121.438825","24.9797133333333","6501300","土城區"
"236005","498-BY","2018/03/05 13:49:22","新北市土城區員福街50號","121.440653333333","24.9790683333333","6501300","土城區"
"236056","912-UM","2018/03/05 13:49:21","新北市土城區中華路二段122號","121.437815","24.9737233333333","6501300","土城區"
"236060","915-UM","2018/03/05 13:49:25","新北市土城區城林路6巷80號","121.438751666667","24.9796533333333","6501300","土城區"
"236052","AAC-216","2018/03/05 13:49:20","新北市土城區城林路6巷80號","121.438713333333","24.9796716666667","6501300","土城區"
"220027","145-BY","2018/03/05 13:49:21","新北市板橋區中正路6號","121.456398333333","25.0128766666667","6500100","板橋區"
"220028","200-UY","2018/03/05 13:49:22","新北市板橋區大觀路二段265巷66弄26號","121.441616666667","24.9970016666667","6500100","板橋區"
"220105","KEA-2550","2018/03/05 13:49:11","新北市板橋區民生路二段161巷1號","121.470183333333","25.0198733333333","6500100","板橋區"
"220030","610-BX","2018/03/05 13:49:22","新北市板橋區篤行路三段玉平巷51號","121.428543333333","24.9866083333333","6500100","板橋區"
"220004","276-BY","2018/03/05 13:49:11","新北市板橋區四川路二段23-2號","121.454495","24.9955516666667","6500100","板橋區"
"220020","277-BY","2018/03/05 13:49:20","新北市板橋區金門街10號","121.433393333333","24.9947133333333","6500100","板橋區"
"220050","280-UM","2018/03/05 13:49:27","新北市板橋區民生路二段161巷1號","121.470218333333","25.019875","6500100","板橋區"
"220005","282-UM","2018/03/05 13:49:25","新北市板橋區華東街11號","121.450693333333","24.9977916666667","6500100","板橋區"
"220019","283-VK","2018/03/05 13:49:21","新北市板橋區忠孝路196巷27號","121.465566666667","25.0017983333333","6500100","板橋區"
"220043","285-UM","2018/03/05 13:49:12","新北市板橋區民生路二段161巷1號","121.47016","25.01992","6500100","板橋區"
"220001","285-VK","2018/03/05 13:49:26","新北市板橋區民生路二段123號","121.470558333333","25.018555","6500100","板橋區"
"220031","286-VK","2018/03/05 13:49:10","新北市板橋區僑中二街88巷2號","121.446558333333","25.0094033333333","6500100","板橋區"
"220029","287-VK","2018/03/05 13:49:25","新北市板橋區光華街13巷38號","121.45282","25.0112283333333","6500100","板橋區"
"220009","293-UM","2018/03/05 13:49:17","新北市板橋區太和街5巷2號","121.473588333333","25.0201516666667","6500100","板橋區"
"220032","296-UM","2018/03/05 13:49:25","新北市板橋區大觀路二段150巷52號","121.441633333333","25.0001316666667","6500100","板橋區"
"220023","303-R5","2018/03/05 13:49:13","新北市板橋區南雅西路一段174巷1弄6號","121.452976666667","25.00742","6500100","板橋區"
"220010","305-R5","2018/03/05 13:49:17","新北市板橋區中山路二段32號","121.472746666667","25.0151583333333","6500100","板橋區"
"220041","307-R5","2018/03/05 13:49:26","新北市板橋區民生路二段120號","121.470541666667","25.019565","6500100","板橋區"
"220047","317-R6","2018/03/05 13:49:25","新北市板橋區民生路二段120號","121.470513333333","25.01944","6500100","板橋區"
"220012","486-VK","2018/03/05 13:49:13","新北市板橋區民生路二段36-1號","121.472121666667","25.0167733333333","6500100","板橋區"
"220038","487-VK","2018/03/05 13:49:17","新北市板橋區民生路二段120號","121.470335","25.0199316666667","6500100","板橋區"
"220037","491-VK","2018/03/05 13:49:11","新北市板橋區民生路二段192號","121.469861666667","25.020775","6500100","板橋區"
"220104","560-BX","2018/03/05 13:49:23","新北市板橋區中正路325巷41號","121.453461666667","25.0193083333333","6500100","板橋區"
"220052","561-BX","2018/03/05 13:49:11","新北市板橋區民生路二段161巷1號","121.47027","25.0198766666667","6500100","板橋區"
"220003","568-UM","2018/03/05 13:49:18","新北市板橋區縣民大道一段187號","121.458588333333","25.0075433333333","6500100","板橋區"
"220011","609-BX","2018/03/05 13:49:26","新北市板橋區民生路二段56-6號","121.470765","25.0188133333333","6500100","板橋區"
"220040","637-BX","2018/03/05 13:49:18","新北市板橋區民生路二段161巷1號","121.469901666667","25.02012","6500100","板橋區"
"220025","687-BX","2018/03/05 13:49:27","新北市板橋區金門街29號","121.43341","24.9939833333333","6500100","板橋區"
"220042","689-BX","2018/03/05 13:49:21","新北市板橋區民生路二段161巷1號","121.470228333333","25.01992","6500100","板橋區"
"220002","741-BX","2018/03/05 13:49:18","新北市板橋區南雅南路二段144巷46號","121.449913333333","24.9970483333333","6500100","板橋區"
"220051","KEA-2699","2018/03/05 13:49:20","新北市板橋區民生路二段161巷1號","121.470096666667","25.0202066666667","6500100","板橋區"
"220014","829-TW","2018/03/05 13:49:24","新北市板橋區三民路二段正隆巷59號","121.476591666667","25.013305","6500100","板橋區"
"220045","831-TW","2018/03/05 13:49:11","新北市板橋區民生路二段120號","121.470361666667","25.0197083333333","6500100","板橋區"
"220022","895-R6","2018/03/05 13:49:18","新北市板橋區南門街14號","121.457388333333","25.0088716666667","6500100","板橋區"
"220021","985-R7","2018/03/05 13:49:19","新北市板橋區府中路32號","121.458211666667","25.00958","6500100","板橋區"
"220046","AAC-210","2018/03/05 13:32:52","新北市板橋區民生路二段192號","121.469698333333","25.0205833333333","6500100","板橋區"
"220018","AAC-253","2018/03/05 13:49:23","新北市板橋區四川路一段66號","121.459643333333","25.005495","6500100","板橋區"
