"lineid","car","time","location","longitude","latitude","cityid","cityname"
"234025","9371-KE","2018/03/05 14:59:14","新北市永和區中和路605號","121.512411666667","25.0044633333333","6500400","永和區"
"248015","026-BX","2018/03/05 14:59:48","新北市五股區凌雲路一段158巷39弄6號","121.446815","25.1039","6501500","五股區"
"248007","095-VK","2018/03/05 14:59:50","新北市五股區四維路155巷34號","121.4668","25.0744583333333","6501500","五股區"
"248019","225-UY","2018/03/05 14:59:51","新北市五股區凌雲路三段19-1號","121.43066","25.1092416666667","6501500","五股區"
"248011","247-BX","2018/03/05 14:59:35","新北市五股區六合街124號","121.430063333333","25.0908316666667","6501500","五股區"
"248013","261-SL","2018/03/05 14:59:49","新北市五股區成泰路三段189號","121.445586666667","25.0922766666667","6501500","五股區"
"248009","272-BY","2018/03/05 14:59:42","新北市五股區成泰路一段15號","121.433753333333","25.0667316666667","6501500","五股區"
"248003","677-BX","2018/03/05 14:59:47","新北市五股區成泰路一段32巷58號","121.434876666667","25.06698","6501500","五股區"
"234022","9380-KE","2018/03/05 14:59:42","新北市永和區福和路1號","121.526455","25.0097566666667","6500400","永和區"
"243004","AAD-798","2018/03/05 14:59:41","新北市泰山區文化街29號","121.435","25.0636283333333","6501600","泰山區"
"243003","297-R6","2018/03/05 14:59:43","新北市泰山區德安街19-1號","121.418696666667","25.0314633333333","6501600","泰山區"
"243007","380-SR","2018/03/05 14:59:50","新北市泰山區泰林路二段126號","121.43449","25.05945","6501600","泰山區"
"243006","421-VK","2018/03/05 14:59:47","新北市泰山區泰林路二段322號","121.43033","25.06306","6501600","泰山區"
"243002","KEA-2215","2018/03/05 14:59:44","新北市泰山區明志路二段209號","121.427508333333","25.0488383333333","6501600","泰山區"
"243001","KEA-2216","2018/03/05 14:59:50","新北市泰山區泰林路二段116巷5弄1號","121.435296666667","25.059635","6501600","泰山區"
"243005","646-TV","2018/03/05 14:59:41","新北市泰山區新民路14巷1號","121.426521666667","25.0445633333333","6501600","泰山區"
"243008","680-BX","2018/03/05 14:59:51","新北市泰山區明志路三段136號","121.424843333333","25.0401733333333","6501600","泰山區"
"231002","002-UM","2018/03/05 14:59:34","新北市新店區民權路56號","121.53871","24.98293","6500600","新店區"
"231025","0293-UT","2018/03/05 14:59:40","新北市新店區建國路156號","121.53862","24.9793033333333","6500600","新店區"
"231028","046-UY","2018/03/05 14:59:43","新北市新店區安豐路49號","121.500021666667","24.954925","6500600","新店區"
"231030","047-UY","2018/03/05 14:59:44","新北市新店區安民街341-1號","121.516808333333","24.9749033333333","6500600","新店區"
"231029","106-UY","2018/03/05 14:59:49","新北市新店區錦秀路32號","121.47921","24.9439966666667","6500600","新店區"
"231018","107-UY","2018/03/05 14:59:51","新北市新店區中央七街6號","121.530386666667","24.9746433333333","6500600","新店區"
"231019","187-VK","2018/03/05 14:59:50","新北市新店區永福路54號","121.558133333333","24.9286866666667","6500600","新店區"
"231014","KEA-2219","2018/03/05 14:59:47","新北市新店區銀河路66-6號","121.578798333333","24.9582766666667","6500600","新店區"
"231026","256-BX","2018/03/05 14:59:37","新北市新店區博愛街23號","121.541383333333","24.97372","6500600","新店區"
"231027","3712-VJ","2018/03/05 14:59:38","新北市新店區安康路二段414巷2號","121.495846666667","24.9578633333333","6500600","新店區"
"231024","4716-K9","2018/03/05 14:59:47","新北市新店區中華路83巷67號","121.53837","24.9673166666667","6500600","新店區"
"231036","512-UM","2018/03/05 14:59:48","新北市新店區安祥路102巷30弄1號","121.48436","24.96373","6500600","新店區"
"231023","513-UM","2018/03/05 14:59:35","新北市新店區檳榔路109號","121.544456666667","24.961675","6500600","新店區"
"231035","515-UM","2018/03/05 14:59:51","新北市新店區新和街59巷17號","121.519326666667","24.9860633333333","6500600","新店區"
"231001","619-UM","2018/03/05 14:59:46","新北市新店區中正路278號","121.538796666667","24.9738033333333","6500600","新店區"
"231003","641-BX","2018/03/05 14:59:54","新北市新店區中興路二段226號","121.547873333333","24.9751216666667","6500600","新店區"
"231034","645-TV","2018/03/05 14:59:51","新北市新店區玫瑰路4-1號","121.493685","24.9514016666667","6500600","新店區"
"231039","718-UY","2018/03/05 14:59:45","新北市新店區寶安街18號","121.542211666667","24.9819416666667","6500600","新店區"
"231011","719-UY","2018/03/05 14:59:33","新北市新店區寶橋路132號","121.547266666667","24.9762133333333","6500600","新店區"
"231031","720-UM","2018/03/05 14:59:47","新北市新店區安泰路60巷134弄98號","121.483568333333","24.9434633333333","6500600","新店區"
"231005","897-TW","2018/03/05 14:59:44","新北市新店區復興路51-8號","121.536843333333","24.9870866666667","6500600","新店區"
"231006","898-TW","2018/03/05 14:59:47","新北市新店區新坡一街85號","121.549008333333","24.9645483333333","6500600","新店區"
"231004","899-TW","2018/03/05 14:59:43","新北市新店區民族路56號","121.539855","24.9785966666667","6500600","新店區"
"231037","AKT-0513","2018/03/05 14:59:39","新北市新店區安民街365巷1弄8號","121.516345","24.975035","6500600","新店區"
"235030","003-UY","2018/03/05 14:59:49","新北市中和區光華街19號","121.504805","25.004205","6500300","中和區"
"235020","096-UM","2018/03/05 14:59:21","新北市中和區漢民路419號","121.472436666667","25.0068466666667","6500300","中和區"
"235003","097-UM","2018/03/05 14:59:32","新北市中和區安樂路143巷19號","121.51374","24.99703","6500300","中和區"
"235029","098-UM","2018/03/05 14:59:32","新北市中和區永和路90巷2弄13號","121.497856666667","25.0055716666667","6500300","中和區"
"235004","150-BY","2018/03/05 14:59:43","新北市中和區保健路35號","121.50885","24.9976183333333","6500300","中和區"
"235013","186-VK","2018/03/05 14:59:45","新北市中和區景平路522號","121.50319","24.9941916666667","6500300","中和區"
"235031","255-BX","2018/03/05 14:59:35","新北市板橋區民生路一段8號","121.478488333333","25.0112583333333","6500300","中和區"
"235008","293-VK","2018/03/05 14:59:41","新北市中和區中正路59號","121.501575","24.993505","6500300","中和區"
"235007","352-BY","2018/03/05 14:59:48","新北市中和區華新街228號","121.50611","24.9817616666667","6500300","中和區"
"235032","377-QA","2018/03/05 14:59:48","新北市中和區勝利路35巷1弄36號","121.500388333333","25.0080083333333","6500300","中和區"
"235035","269-TV","2018/03/05 14:59:40","新北市中和區建三路66號","121.486098333333","25.0005533333333","6500300","中和區"
"235014","4979-A6","2018/03/05 14:59:40","新北市中和區景平路153號","121.513531666667","24.991895","6500300","中和區"
"235033","4980-A6","2018/03/05 14:59:43","新北市中和區景平路624-1號","121.500406666667","24.9976816666667","6500300","中和區"
"235018","640-BX","2018/03/05 14:59:38","新北市中和區莒光路97-2號","121.472361666667","25.0029966666667","6500300","中和區"
"235010","733-UM","2018/03/05 14:59:41","新北市中和區興南路一段105巷20弄16號","121.510393333333","24.985495","6500300","中和區"
"235016","805-TS","2018/03/05 14:59:42","新北市中和區華新街23號","121.507641666667","24.9850183333333","6500300","中和區"
"235012","896-TW","2018/03/05 14:59:51","新北市中和區忠孝街1巷2-1號","121.509205","24.9831283333333","6500300","中和區"
"235017","900-TW","2018/03/05 14:59:37","新北市中和區民德路212號","121.46823","24.9981866666667","6500300","中和區"
"235034","911-UM","2018/03/05 14:59:41","新北市中和區中山路二段228號","121.499108333333","25.0028616666667","6500300","中和區"
"235015","157-BY","2018/03/05 14:59:41","新北市中和區復興路299號","121.501538333333","24.9902816666667","6500300","中和區"
"235001","AAC-213","2018/03/05 14:59:40","新北市中和區自立路16-1號","121.522033333333","24.9937533333333","6500300","中和區"
"235023","AAC-215","2018/03/05 14:59:44","新北市中和區圓通路367巷14號","121.491636666667","24.98895","6500300","中和區"
"220016","013-TV","2018/03/05 14:59:33","新北市板橋區中山路二段光榮巷30弄28號","121.484916666667","25.0207383333333","6500100","板橋區"
"220013","072-UY","2018/03/05 14:59:39","新北市板橋區長安街6號","121.466711666667","25.0086716666667","6500100","板橋區"
"220034","073-UY","2018/03/05 14:59:50","新北市八里區商港路96號","121.394111666667","25.1483066666667","6500100","板橋區"
"220017","AAD-861","2018/03/05 14:59:43","新北市板橋區貴興路119巷1弄1號","121.455718333333","25.0022033333333","6500100","板橋區"
"247013","546-UM","2018/03/05 14:59:47","新北市蘆洲區中山二路70號","121.473395","25.08219","6501400","蘆洲區"
"247001","002-UY","2018/03/05 14:59:42","新北市蘆洲區長安街313巷24號","121.456133333333","25.086315","6501400","蘆洲區"
"253003","6232-TK","2018/03/05 14:59:32","新北市石門區尖子鹿101-2號","121.581068333333","25.2928683333333","6502200","石門區"
"253001","6251-TK","2018/03/05 14:59:48","新北市石門區崁子腳31-2號","121.537416666667","25.2850083333333","6502200","石門區"
"253002","637-UY","2018/03/05 14:59:39","新北市石門區楓林43號","121.540743333333","25.2821666666667","6502200","石門區"
"253004","8270-PC","2018/03/05 14:59:43","新北市石門區內阿里磅14號","121.593351666667","25.2491983333333","6502200","石門區"
"207001","662-BX","2018/03/05 14:59:43","新北市萬里區雙興里豐稟路6-1號","121.649298333333","25.1852833333333","6502800","萬里區"
"236064","105-UM","2018/03/05 14:59:34","新北市土城區明德路二段96號","121.445563333333","24.9840716666667","6501300","土城區"
"236040","107-UM","2018/03/05 14:59:40","新北市土城區學府路一段222號","121.452176666667","24.9851133333333","6501300","土城區"
"236074","166-UM","2018/03/05 14:59:49","新北市土城區中州路3巷43號","121.413476666667","24.95633","6501300","土城區"
"236028","253-BX","2018/03/05 14:59:48","新北市土城區水源街59號","121.440233333333","24.9759983333333","6501300","土城區"
"236024","269-VK","2018/03/05 14:59:46","新北市土城區中正路74巷1弄1號","121.444673333333","24.9752433333333","6501300","土城區"
"236012","270-VK","2018/03/05 14:59:52","新北市土城區延和路13巷14號","121.463596666667","24.9885216666667","6501300","土城區"
"236032","271-VK","2018/03/05 14:59:51","新北市土城區清水路169號","121.459261666667","24.981545","6501300","土城區"
"236016","401-BY","2018/03/05 14:59:44","新北市土城區延吉街217巷3弄1號","121.468655","24.9848683333333","6501300","土城區"
"236056","912-UM","2018/03/05 14:59:41","新北市土城區金城路二段20號","121.44962","24.9775583333333","6501300","土城區"
"236044","913-UM","2018/03/05 14:59:50","新北市土城區清水路146號","121.459081666667","24.9813833333333","6501300","土城區"
"236060","915-UM","2018/03/05 14:59:45","新北市土城區金城路三段149巷9號","121.468128333333","24.988765","6501300","土城區"
"236052","AAC-216","2018/03/05 14:59:40","新北市土城區學成路179號","121.447875","24.9885516666667","6501300","土城區"
"238006","599-UM","2018/03/05 14:59:45","新北市樹林區育德街78號","121.38758","24.9684733333333","6500700","樹林區"
"238008","KEA-2539","2018/03/05 14:59:55","新北市樹林區育德街78-1號","121.387978333333","24.968215","6500700","樹林區"
"238012","303-VK","2018/03/05 14:59:37","新北市樹林區育德街78號","121.387491666667","24.9684733333333","6500700","樹林區"
"238013","172-UY","2018/03/05 14:59:38","新北市樹林區育德街78號","121.38757","24.9684716666667","6500700","樹林區"
"238003","169-UY","2018/03/05 14:59:35","新北市樹林區育德街78-1號","121.387395","24.9681516666667","6500700","樹林區"
"220027","145-BY","2018/03/05 14:59:55","新北市板橋區中正路135巷12弄2-2號","121.455778333333","25.0156816666667","6500100","板橋區"
"220028","200-UY","2018/03/05 14:59:43","新北市板橋區大觀路二段153巷39弄9號","121.446145","25.0007416666667","6500100","板橋區"
"220105","KEA-2550","2018/03/05 14:59:51","新北市板橋區文聖街11巷24號","121.476101666667","25.0329666666667","6500100","板橋區"
"220030","610-BX","2018/03/05 14:59:41","新北市板橋區溪北路67號","121.428025","24.9896683333333","6500100","板橋區"
"220020","277-BY","2018/03/05 14:59:48","新北市板橋區篤行路二段1巷11號","121.432233333333","24.992645","6500100","板橋區"
"220050","280-UM","2018/03/05 14:59:47","新北市板橋區縣民大道三段103巷18號","121.475311666667","25.0227966666667","6500100","板橋區"
"220005","282-UM","2018/03/05 14:59:45","新北市板橋區四川路二段2號","121.456688333333","24.9966983333333","6500100","板橋區"
"220019","283-VK","2018/03/05 14:59:41","新北市板橋區和平路174巷29號","121.464781666667","24.99437","6500100","板橋區"
"220043","285-UM","2018/03/05 14:59:52","新北市板橋區文德路36號","121.462228333333","25.0242016666667","6500100","板橋區"
"220001","285-VK","2018/03/05 14:59:46","新北市板橋區永豐街23號","121.474643333333","25.017065","6500100","板橋區"
"220031","286-VK","2018/03/05 14:59:50","新北市板橋區僑中二街90巷20號","121.445398333333","25.00934","6500100","板橋區"
"220029","287-VK","2018/03/05 14:59:37","新北市板橋區僑中一街80巷12弄1號","121.448125","25.013235","6500100","板橋區"
"220009","293-UM","2018/03/05 14:59:50","新北市板橋區縣民大道二段200巷11號","121.470008333333","25.01733","6500100","板橋區"
"220032","296-UM","2018/03/05 14:59:36","新北市板橋區滿平街2巷10號","121.425173333333","24.9894366666667","6500100","板橋區"
"220023","303-R5","2018/03/05 14:59:34","新北市板橋區金華街1號","121.455483333333","25.02001","6500100","板橋區"
"220010","305-R5","2018/03/05 14:59:35","新北市板橋區光復街49號","121.482166666667","25.0185666666667","6500100","板橋區"
"220041","307-R5","2018/03/05 14:59:46","新北市板橋區裕民街128巷3號","121.458898333333","25.0276966666667","6500100","板橋區"
"220047","317-R6","2018/03/05 14:59:46","新北市板橋區漢生西路159號","121.462941666667","25.023435","6500100","板橋區"
"220012","486-VK","2018/03/05 14:59:53","新北市板橋區館前東路112號","121.463448333333","25.00766","6500100","板橋區"
"220038","487-VK","2018/03/05 14:59:38","新北市板橋區龍泉街108巷13號","121.456226666667","25.024245","6500100","板橋區"
"220037","491-VK","2018/03/05 14:59:51","新北市板橋區仁化街76號","121.476213333333","25.031885","6500100","板橋區"
"220104","560-BX","2018/03/05 14:59:43","新北市板橋區新生街87巷22號","121.457141666667","25.02213","6500100","板橋區"
"220052","561-BX","2018/03/05 14:59:51","新北市板橋區自由路40號","121.465635","25.0232366666667","6500100","板橋區"
"220003","568-UM","2018/03/05 14:59:51","新北市板橋區重慶路290巷50號","121.461218333333","24.998735","6500100","板橋區"
"220011","609-BX","2018/03/05 14:59:46","新北市板橋區三民路一段31巷89弄8號","121.481728333333","25.0235","6500100","板橋區"
"220040","637-BX","2018/03/05 14:59:39","新北市板橋區懷德街174巷5號","121.478838333333","25.029395","6500100","板橋區"
"220025","687-BX","2018/03/05 14:59:47","新北市板橋區僑中一街104號","121.446556666667","25.0117066666667","6500100","板橋區"
"220042","689-BX","2018/03/05 14:59:42","新北市板橋區長江路二段28號","121.464835","25.0313616666667","6500100","板橋區"
"220002","741-BX","2018/03/05 14:59:50","新北市板橋區實踐路93巷52號","121.466018333333","25.0050683333333","6500100","板橋區"
"220051","KEA-2699","2018/03/05 14:59:51","新北市板橋區文聖街40巷3號","121.476108333333","25.0310783333333","6500100","板橋區"
"220014","829-TW","2018/03/05 14:59:52","新北市板橋區中山路一段206巷4弄11號","121.469846666667","25.0127266666667","6500100","板橋區"
"220039","830-TW","2018/03/05 14:59:40","新北市板橋區龍泉街90巷10號","121.456171666667","25.0252183333333","6500100","板橋區"
"220045","831-TW","2018/03/05 14:59:31","新北市板橋區莊敬路66號","121.471771666667","25.0253816666667","6500100","板橋區"
"220022","895-R6","2018/03/05 14:59:52","新北市板橋區明德街20號","121.460106666667","25.010675","6500100","板橋區"
"220021","985-R7","2018/03/05 14:59:46","新北市板橋區南雅西路二段2-1號","121.453291666667","25.0088933333333","6500100","板橋區"
"220046","AAC-210","2018/03/05 14:59:53","新北市板橋區光正街43號","121.461831666667","25.017105","6500100","板橋區"
"220018","AAC-253","2018/03/05 14:59:40","新北市板橋區民族路63號","121.465265","25.0087666666667","6500100","板橋區"
