"lineid","car","time","location","longitude","latitude","cityid","cityname"
"243011","297-R6","2018/03/05 15:54:53","新北市泰山區黎明路25號","121.421946666667","25.0610516666667","6501600","泰山區"
"231018","107-UY","2018/03/05 16:19:11","新北市新店區中正路694巷15號","121.53538","24.9909033333333","6500600","新店區"
"231046","278-BY","2018/03/05 16:19:20","新北市新店區灣潭路3-3號","121.538235","24.9508183333333","6500600","新店區"
"231034","645-TV","2018/03/05 16:19:11","新北市新店區薏仁坑路自強巷1號","121.496893333333","24.9578716666667","6500600","新店區"
"241011","013-R5","2018/03/05 16:19:14","新北市三重區龍濱路285號","121.50111","25.073335","6500200","三重區"
"241028","022-UY","2018/03/05 16:19:19","新北市三重區正義南路165-1號","121.498873333333","25.0575366666667","6500200","三重區"
"241008","059-VK","2018/03/05 16:19:29","新北市三重區力行路二段136巷45弄12號","121.479186666667","25.0753783333333","6500200","三重區"
"241009","060-VK","2018/03/05 16:19:26","新北市三重區碧華街51號","121.484625","25.081295","6500200","三重區"
"241015","062-VK","2018/03/05 16:19:15","新北市三重區福德北路77號","121.501996666667","25.0658283333333","6500200","三重區"
"241017","063-VK","2018/03/05 16:19:24","新北市三重區大同北路91號","121.494773333333","25.0635866666667","6500200","三重區"
"241024","065-VK","2018/03/05 16:19:21","新北市三重區中正北路145巷1弄12號","121.483593333333","25.0671483333333","6500200","三重區"
"241026","066-VK","2018/03/05 16:19:12","新北市三重區正義南路43號","121.498158333333","25.06088","6500200","三重區"
"241002","090-VK","2018/03/05 16:19:14","新北市三重區仁義街91號","121.499643333333","25.0798183333333","6500200","三重區"
"241003","091-VK","2018/03/05 16:19:21","新北市三重區仁義街220巷35號","121.494125","25.083435","6500200","三重區"
"241005","262-UM","2018/03/05 16:19:12","新北市三重區溪尾街300-2號","121.487473333333","25.083715","6500200","三重區"
"241016","265-UM","2018/03/05 16:19:11","新北市三重區大仁街86號","121.49285","25.0654533333333","6500200","三重區"
"241022","267-UM","2018/03/05 16:19:15","新北市三重區新北大道一段15巷2號","121.488005","25.0607466666667","6500200","三重區"
"241018","268-UM","2018/03/05 16:19:14","新北市三重區重陽路三段5巷1號","121.490561666667","25.0656683333333","6500200","三重區"
"241013","270-UM","2018/03/05 16:19:12","新北市三重區仁愛街63號","121.496196666667","25.0725933333333","6500200","三重區"
"241025","271-UM","2018/03/05 16:19:16","新北市三重區中正北路560巷100弄2號","121.472553333333","25.0682516666667","6500200","三重區"
"241007","398-BY","2018/03/05 16:19:15","新北市三重區三和路四段163巷58號","121.486305","25.07955","6500200","三重區"
"241020","413-TH","2018/03/05 16:19:28","新北市三重區車路頭街17巷18號","121.484368333333","25.0707366666667","6500200","三重區"
"241004","475-VK","2018/03/05 16:19:20","新北市三重區自強路五段65號","121.494805","25.081955","6500200","三重區"
"241001","478-VK","2018/03/05 16:19:21","新北市三重區自強路四段81號","121.490956666667","25.0791333333333","6500200","三重區"
"241014","543-UM","2018/03/05 16:19:28","新北市三重區河邊北街100巷27-1號","121.502761666667","25.070335","6500200","三重區"
"241023","545-UM","2018/03/05 16:19:19","新北市三重區忠孝路三段1號","121.481931666667","25.06777","6500200","三重區"
"241019","KEA-2593","2018/03/05 16:19:23","新北市三重區力行路一段38巷8號","121.485228333333","25.06659","6500200","三重區"
"241006","AAD-863","2018/03/05 16:19:27","新北市三重區永福街46巷41弄41號","121.481373333333","25.07711","6500200","三重區"
"241031","887-TS","2018/03/05 16:19:23","新北市三重區重陽路一段51號","121.486796666667","25.0582833333333","6500200","三重區"
"241012","941-UM","2018/03/05 16:19:16","新北市三重區河邊北街311號","121.502466666667","25.0748366666667","6500200","三重區"
"241029","942-UM","2018/03/05 16:19:23","新北市三重區環河南路220-8號","121.493365","25.0525716666667","6500200","三重區"
"241033","AAC-255","2018/03/05 16:19:22","新北市三重區五谷王南街9號","121.472871666667","25.0447433333333","6500200","三重區"
"235026","800-TS","2018/03/05 16:19:19","新北市中和區建八路125巷6弄6號","121.49001","24.999005","6500300","中和區"
"224007","275-VK","2018/03/05 16:19:14","新北市瑞芳區大埔路108-1號","121.7623","25.1019616666667","6501200","瑞芳區"
"224005","271-BY","2018/03/05 16:19:11","新北市瑞芳區中正路2號","121.80932","25.1070566666667","6501200","瑞芳區"
"227008","642-TC","2018/03/05 16:19:09","新北市雙溪區三港里雙澳路80號","121.88381","25.053875","6502500","雙溪區"
"227001","400-TW","2018/03/05 16:19:19","新北市雙溪區上林里內平林80號","121.828353333333","25.0279666666667","6502500","雙溪區"
"251013","179-VK","2018/03/05 16:19:15","新北市淡水區大溪5號","121.49299","25.1915966666667","6501000","淡水區"
"251008","181-VK","2018/03/05 16:19:12","新北市淡水區民權路97-2號","121.459843333333","25.1380466666667","6501000","淡水區"
"236044","913-UM","2018/03/05 16:19:10","新北市樹林區中山路三段206-2號","121.3834","24.966755","6501300","土城區"
"238002","755-BX","2018/03/05 16:19:15","新北市樹林區文化街116巷1號","121.416183333333","24.9896033333333","6500700","樹林區"
"238010","601-UM","2018/03/05 16:19:15","新北市樹林區忠信街15號","121.407761666667","25.0149666666667","6500700","樹林區"
"238006","599-UM","2018/03/05 16:19:25","新北市樹林區東榮街180號","121.414335","24.9818733333333","6500700","樹林區"
"238001","283-BY","2018/03/05 16:19:22","新北市樹林區中正路433-2號","121.414875","25.00822","6500700","樹林區"
"238001","282-BY","2018/03/05 16:19:28","新北市樹林區千歲街67號","121.427171666667","24.998815","6500700","樹林區"
"238007","268-VK","2018/03/05 16:00:54","新北市樹林區三俊街199巷29-1號","121.420391666667","25.0173183333333","6500700","樹林區"
"238013","172-UY","2018/03/05 16:19:24","新北市樹林區佳園路一段41巷24號","121.394256666667","24.97088","6500700","樹林區"
