"lineid","car","time","location","longitude","latitude","cityid","cityname"
"231018","107-UY","2018/03/05 16:29:11","新北市新店區中正路700巷73號","121.535963333333","24.9933083333333","6500600","新店區"
"231046","278-BY","2018/03/05 16:29:20","新北市新店區灣潭路3-3號","121.538175","24.9507983333333","6500600","新店區"
"241011","013-R5","2018/03/05 16:29:14","新北市三重區龍濱路269號","121.501358333333","25.0729","6500200","三重區"
"241028","022-UY","2018/03/05 16:29:20","新北市三重區中正南路74號","121.494236666667","25.05931","6500200","三重區"
"241008","059-VK","2018/03/05 16:29:09","新北市三重區力行路二段136巷45弄12號","121.479236666667","25.0753883333333","6500200","三重區"
"241009","060-VK","2018/03/05 16:29:26","新北市三重區仁美街96巷8號","121.485303333333","25.08002","6500200","三重區"
"241015","062-VK","2018/03/05 16:29:15","新北市三重區福德北路57號","121.502141666667","25.0653916666667","6500200","三重區"
"241017","063-VK","2018/03/05 16:29:24","新北市三重區大同北路3號","121.495528333333","25.062105","6500200","三重區"
"241024","065-VK","2018/03/05 16:29:21","新北市三重區中正北路253號","121.475563333333","25.070985","6500200","三重區"
"241026","066-VK","2018/03/05 16:29:11","新北市三重區光興街1號","121.500281666667","25.06038","6500200","三重區"
"241002","090-VK","2018/03/05 16:29:14","新北市三重區五華街7巷36號","121.496775","25.0808383333333","6500200","三重區"
"241003","091-VK","2018/03/05 16:29:21","新北市三重區五華街57巷34號","121.494006666667","25.08316","6500200","三重區"
"241030","156-TC","2018/03/05 16:29:29","新北市三重區成功路40-2號","121.48926","25.0505516666667","6500200","三重區"
"241005","262-UM","2018/03/05 16:29:12","新北市三重區溪尾街300-2號","121.487445","25.083755","6500200","三重區"
"241016","265-UM","2018/03/05 16:29:11","新北市三重區大智街23號","121.494235","25.06586","6500200","三重區"
"241022","267-UM","2018/03/05 16:29:15","新北市三重區新北大道一段88號","121.486046666667","25.0616183333333","6500200","三重區"
"241018","268-UM","2018/03/05 16:29:14","新北市三重區重陽路四段19號","121.49118","25.0692683333333","6500200","三重區"
"241032","269-UM","2018/03/05 16:29:24","新北市三重區重陽路一段60巷101號","121.483155","25.0580516666667","6500200","三重區"
"241013","270-UM","2018/03/05 16:29:12","新北市三重區三和路三段83巷148號","121.498421666667","25.073335","6500200","三重區"
"241025","271-UM","2018/03/05 16:29:16","新北市三重區中正北路560巷100弄2號","121.47259","25.0682316666667","6500200","三重區"
"241007","398-BY","2018/03/05 16:29:15","新北市三重區三和路四段167巷165號","121.488401666667","25.0804066666667","6500200","三重區"
"241020","413-TH","2018/03/05 16:29:28","新北市三重區後竹圍街205巷1號","121.485036666667","25.0716933333333","6500200","三重區"
"241004","475-VK","2018/03/05 16:29:20","新北市三重區仁愛街377巷13號","121.492301666667","25.080665","6500200","三重區"
"241001","478-VK","2018/03/05 16:29:27","新北市三重區仁愛街277號","121.49278","25.07882","6500200","三重區"
"241014","543-UM","2018/03/05 16:29:28","新北市三重區河邊北街72-6號","121.50437","25.0684733333333","6500200","三重區"
"241023","545-UM","2018/03/05 16:29:19","新北市三重區忠孝路三段50巷47號","121.48295","25.0644716666667","6500200","三重區"
"241019","KEA-2593","2018/03/05 16:29:23","新北市三重區重陽路三段61號","121.48982","25.0675983333333","6500200","三重區"
"241006","AAD-863","2018/03/05 16:29:27","新北市三重區永福街10巷7-1號","121.483131666667","25.0777416666667","6500200","三重區"
"241031","887-TS","2018/03/05 16:29:23","新北市三重區重陽路一段45號","121.486841666667","25.05807","6500200","三重區"
"241012","941-UM","2018/03/05 16:29:16","新北市三重區河邊北街250號","121.501876666667","25.07605","6500200","三重區"
"241029","942-UM","2018/03/05 16:29:23","新北市三重區集美街126巷25號","121.489941666667","25.0537466666667","6500200","三重區"
"241033","AAC-255","2018/03/05 16:29:22","新北市三重區重新路五段317巷3弄17號","121.47794","25.0497283333333","6500200","三重區"
"247004","336-TH","2018/03/05 16:29:15","新北市五股區中興路三段163號","121.4492","25.0809433333333","6501400","蘆洲區"
"224008","285-BY","2018/03/05 16:29:24","新北市瑞芳區大寮路356-1號","121.785293333333","25.10352","6501200","瑞芳區"
"224007","275-VK","2018/03/05 16:29:14","新北市瑞芳區大埔路23巷62號","121.763501666667","25.1020783333333","6501200","瑞芳區"
"224005","271-BY","2018/03/05 16:29:21","新北市瑞芳區阿美家園34號","121.821418333333","25.1167833333333","6501200","瑞芳區"
"227008","642-TC","2018/03/05 16:29:29","新北市雙溪區三港里雙澳路37-5號","121.872763333333","25.0501966666667","6502500","雙溪區"
"227001","400-TW","2018/03/05 16:29:19","新北市雙溪區上林里內平林120-2號","121.824448333333","25.0262533333333","6502500","雙溪區"
"251013","179-VK","2018/03/05 16:29:15","新北市淡水區大溪5號","121.493018333333","25.191635","6501000","淡水區"
"251008","181-VK","2018/03/05 16:29:12","台北市北投區中央北路四段30巷160號","121.474166666667","25.140465","6501000","淡水區"
"251015","182-VK","2018/03/05 16:29:10","新北市淡水區中正路二段38號","121.419613333333","25.1822916666667","6501000","淡水區"
"236044","913-UM","2018/03/05 16:29:29","新北市樹林區柑園街一段6號","121.407331666667","24.9601966666667","6501300","土城區"
"238002","755-BX","2018/03/05 16:29:15","新北市樹林區中山路三段125-10號","121.397375","24.9736316666667","6500700","樹林區"
"238006","599-UM","2018/03/05 16:29:25","新北市樹林區中華路168號","121.41518","24.9803","6500700","樹林區"
"238001","283-BY","2018/03/05 16:29:22","新北市樹林區中正路433-2號","121.414861666667","25.0082566666667","6500700","樹林區"
"238001","282-BY","2018/03/05 16:29:27","新北市樹林區中正路22-1號","121.427778333333","24.9995483333333","6500700","樹林區"
"238007","268-VK","2018/03/05 16:00:54","新北市樹林區三俊街199巷29-1號","121.420391666667","25.0173183333333","6500700","樹林區"
"238013","172-UY","2018/03/05 16:29:18","新北市樹林區吉祥街3巷1號","121.392093333333","24.9729466666667","6500700","樹林區"
