"lineid","car","time","location","longitude","latitude","cityid","cityname"
"249005","172-UM","2018/03/05 17:29:29","新北市八里區荖阡坑路30號","121.404778333333","25.13044","6502300","八里區"
"249001","173-UM","2018/03/05 17:29:41","新北市八里區中華路一段3號","121.42306","25.1585516666667","6502300","八里區"
"249004","303-UY","2018/03/05 17:29:33","新北市八里區民有街34號","121.415343333333","25.15667","6502300","八里區"
"249002","305-UY","2018/03/05 17:29:42","新北市八里區龍形一街33巷8-3號","121.449383333333","25.1297216666667","6502300","八里區"
"249003","593-UM","2018/03/05 17:29:38","新北市八里區中山路二段398號","121.400601666667","25.1478216666667","6502300","八里區"
"244013","069-UM","2018/03/05 17:29:37","新北市林口區中山路146-1號","121.391331666667","25.0787333333333","6501700","林口區"
"244007","080-UY","2018/03/05 17:29:28","新北市林口區湖子7-8號","121.388676666667","25.0924933333333","6501700","林口區"
"244019","402-UM","2018/03/05 17:29:46","新北市林口區公園路173號","121.371401666667","25.0718633333333","6501700","林口區"
"244025","742-UY","2018/03/05 17:29:30","新北市林口區民族路67-1號","121.365493333333","25.0751866666667","6501700","林口區"
"244023","483-VK","2018/03/05 17:29:42","新北市林口區東明一街55巷2號","121.39172","25.071685","6501700","林口區"
"244009","657-BX","2018/03/05 17:29:38","新北市林口區文化一路二段303號","121.385666666667","25.0857616666667","6501700","林口區"
"244021","838-TS","2018/03/05 17:29:30","新北市林口區粉寮路二段227-1號","121.403858333333","25.091045","6501700","林口區"
"231046","278-BY","2018/03/05 17:29:40","新北市新店區直潭路92號","121.530935","24.93765","6500600","新店區"
"241011","013-R5","2018/03/05 17:29:33","新北市三重區河邊北街110巷67號","121.502468333333","25.0706416666667","6500200","三重區"
"241015","062-VK","2018/03/05 17:29:34","新北市三重區長元街73號","121.503005","25.0666683333333","6500200","三重區"
"241017","063-VK","2018/03/05 17:29:24","新北市三重區重新路三段45-7號","121.493596666667","25.06176","6500200","三重區"
"241024","065-VK","2018/03/05 17:29:41","新北市三重區大勇街82巷15弄23號","121.480921666667","25.07196","6500200","三重區"
"241002","090-VK","2018/03/05 17:29:33","新北市三重區富華街193號","121.494133333333","25.0856616666667","6500200","三重區"
"241003","091-VK","2018/03/05 17:29:42","新北市三重區碧華街372號","121.490856666667","25.0842083333333","6500200","三重區"
"241005","262-UM","2018/03/05 17:29:38","新北市三重區永安北路二段43巷8號","121.482721666667","25.0827633333333","6500200","三重區"
"241016","265-UM","2018/03/05 17:29:31","新北市三重區信義西街148號","121.495396666667","25.0638433333333","6500200","三重區"
"241018","268-UM","2018/03/05 17:29:34","新北市三重區安慶街157號","121.49422","25.0687966666667","6500200","三重區"
"241032","269-UM","2018/03/05 17:29:24","新北市三重區名源街34號","121.482278333333","25.05976","6500200","三重區"
"241025","271-UM","2018/03/05 17:29:36","新北市三重區中正北路211號","121.476325","25.0699916666667","6500200","三重區"
"241007","398-BY","2018/03/05 17:29:34","新北市三重區三和路四段145巷67號","121.485908333333","25.0786616666667","6500200","三重區"
"241020","413-TH","2018/03/05 17:29:28","新北市三重區自強路三段7巷5號","121.48875","25.0723766666667","6500200","三重區"
"241014","543-UM","2018/03/05 17:29:28","新北市三重區安和路17號","121.501428333333","25.068425","6500200","三重區"
"241023","545-UM","2018/03/05 17:29:38","新北市三重區三民街146巷11號","121.481358333333","25.0644366666667","6500200","三重區"
"241019","KEA-2593","2018/03/05 17:29:23","新北市三重區自強路二段49號","121.489176666667","25.0696916666667","6500200","三重區"
"241012","941-UM","2018/03/05 17:29:36","新北市三重區仁福街64巷1號","121.497938333333","25.0747616666667","6500200","三重區"
"241033","AAC-255","2018/03/05 17:29:42","新北市三重區興德路145-2號","121.469155","25.0528316666667","6500200","三重區"
"235061","378-QA","2018/03/05 17:24:21","新北市中和區員山路36巷16-2號","121.485428333333","24.9913983333333","6500300","中和區"
"247024","893-R6","2018/03/05 17:29:33","新北市蘆洲區長興路389號","121.461278333333","25.0916416666667","6501400","蘆洲區"
"247014","546-UM","2018/03/05 17:29:27","新北市蘆洲區復興路56號","121.47286","25.0855216666667","6501400","蘆洲區"
"247022","500-BY","2018/03/05 17:29:37","新北市蘆洲區中正路314號","121.464705","25.0911416666667","6501400","蘆洲區"
"247012","339-TH","2018/03/05 17:29:30","新北市蘆洲區民族路60號","121.477216666667","25.0845333333333","6501400","蘆洲區"
"247004","337-TH","2018/03/05 17:29:35","新北市蘆洲區永安南路二段296號","121.45729","25.0819316666667","6501400","蘆洲區"
"247006","336-TH","2018/03/05 17:29:34","新北市蘆洲區長安街22巷42號","121.465165","25.0802866666667","6501400","蘆洲區"
"247018","335-TH","2018/03/05 17:29:45","新北市蘆洲區民義街13號","121.471541666667","25.0887483333333","6501400","蘆洲區"
"247008","056-VK","2018/03/05 17:29:43","新北市蘆洲區信義路34巷33號","121.474958333333","25.0784783333333","6501400","蘆洲區"
"247010","053-VK","2018/03/05 17:29:32","新北市蘆洲區鷺江街3號","121.47939","25.0826516666667","6501400","蘆洲區"
"247016","007-UY","2018/03/05 17:29:42","新北市蘆洲區光華路46巷53號","121.46733","25.0848483333333","6501400","蘆洲區"
"247002","002-UY","2018/03/05 17:29:30","新北市蘆洲區永樂街38巷67弄1號","121.458278333333","25.0905966666667","6501400","蘆洲區"
"247020","001-UY","2018/03/05 17:29:28","新北市蘆洲區水湳街126號","121.469805","25.0934333333333","6501400","蘆洲區"
"228003","097-TW","2018/03/05 17:29:32","新北市貢寮區仁理村仁和路2-1號","121.923168333333","25.0486816666667","6502600","貢寮區"
"228002","585-TW","2018/03/05 17:29:34","新北市貢寮區福隆里福隆街10號","121.944896666667","25.01622","6502600","貢寮區"
"228001","670-TC","2018/03/05 17:29:31","新北市貢寮區仁理村仁愛路39號","121.924985","25.053305","6502600","貢寮區"
"224011","AGQ-8101","2018/03/05 17:26:59","新北市瑞芳區岳王路9號","121.806951666667","25.1104566666667","6501200","瑞芳區"
"224006","676-BX","2018/03/05 17:29:34","新北市瑞芳區靜安路四段63-1號","121.793433333333","25.1085866666667","6501200","瑞芳區"
"224008","285-BY","2018/03/05 17:29:43","新北市瑞芳區九芎橋路17號","121.832811666667","25.092755","6501200","瑞芳區"
"224009","273-VK","2018/03/05 17:29:31","新北市瑞芳區輕便路39號","121.845541666667","25.11024","6501200","瑞芳區"
"224005","271-BY","2018/03/05 17:29:31","新北市瑞芳區海濱路2巷1號","121.83995","25.1277383333333","6501200","瑞芳區"
"227001","400-TW","2018/03/05 17:29:39","新北市雙溪區平林里梅竹蹊3號","121.862485","25.0386433333333","6502500","雙溪區"
"251009","008-UM","2018/03/05 17:29:34","新北市淡水區新生街92號","121.439546666667","25.174745","6501000","淡水區"
"251004","009-UM","2018/03/05 17:29:06","新北市淡水區中正東路二段88巷15號","121.459311666667","25.1505666666667","6501000","淡水區"
"251005","010-UM","2018/03/05 17:29:38","新北市淡水區鄧公路31巷1號","121.451373333333","25.17084","6501000","淡水區"
"251001","011-UM","2018/03/05 17:29:43","新北市淡水區民權路92巷35-1號","121.4621","25.1266983333333","6501000","淡水區"
"251013","179-VK","2018/03/05 17:29:35","新北市淡水區大竹圍5號","121.46657","25.1951616666667","6501000","淡水區"
"251014","180-VK","2018/03/05 17:29:36","新北市淡水區公埔子20-6號","121.469136666667","25.2276866666667","6501000","淡水區"
"251008","181-VK","2018/03/05 17:29:32","新北市淡水區大同路100巷11號","121.462926666667","25.1396533333333","6501000","淡水區"
"251015","182-VK","2018/03/05 17:29:31","新北市淡水區三空泉16-10號","121.472455","25.1645333333333","6501000","淡水區"
"251010","413-VK","2018/03/05 17:29:45","新北市淡水區中正路二段211號","121.426201666667","25.1891133333333","6501000","淡水區"
"251012","441-VK","2018/03/05 17:29:29","新北市淡水區北新路114號","121.447805","25.1784183333333","6501000","淡水區"
"251016","442-VK","2018/03/05 17:29:33","新北市淡水區社厝坑9-1號","121.466058333333","25.1926266666667","6501000","淡水區"
"251006","561-UM","2018/03/05 17:29:29","新北市淡水區大仁街34號","121.442708333333","25.175365","6501000","淡水區"
"251007","577-R6","2018/03/05 17:29:30","新北市淡水區民生路47-4號","121.462085","25.1380116666667","6501000","淡水區"
"251011","650-BX","2018/03/05 17:29:33","新北市淡水區坪頂路712號","121.482531666667","25.1585266666667","6501000","淡水區"
"251002","672-BX","2018/03/05 17:29:35","新北市淡水區中正路261號","121.431608333333","25.1748716666667","6501000","淡水區"
"251003","766-UM","2018/03/05 17:29:28","新北市淡水區中山路159-1號","121.440703333333","25.17299","6501000","淡水區"
"207003","550-UM","2018/03/05 17:29:31","新北市萬里區龜吼里翡翠路17號","121.6834","25.1871066666667","6502800","萬里區"
"207004","225-TW","2018/03/05 17:29:27","新北市萬里區萬里里景美路9號","121.68487","25.1731","6502800","萬里區"
"252002","178-VK","2018/03/05 17:29:31","新北市三芝區忠孝街1-14號","121.505468333333","25.2540216666667","6502100","三芝區"
"252001","292-VK","2018/03/05 17:29:22","新北市三芝區長安街119號","121.498065","25.259685","6502100","三芝區"
"237011","KEA-2596","2018/03/05 17:29:22","新北市三峽區中山路459巷121號","121.35205","24.93533","6500900","三峽區"
"237016","649-BX","2018/03/05 17:29:27","新北市三峽區中山路459巷163-3號","121.349111666667","24.933335","6500900","三峽區"
"242029","986-R7","2018/03/05 17:29:29","新北市新莊區復興路二段192號","121.459221666667","25.04445","6500500","新莊區"
"242050","751-BX","2018/03/05 17:29:45","新北市新莊區西盛街245巷27弄1號","121.429313333333","25.0162416666667","6500500","新莊區"
"242025","615-BX","2018/03/05 17:29:31","新北市新莊區中港路266號","121.45321","25.04387","6500500","新莊區"
"242023","613-BX","2018/03/05 17:29:27","新北市新莊區公園路150號","121.453153333333","25.0401183333333","6500500","新莊區"
"242027","612-BX","2018/03/05 17:29:39","新北市新莊區思源路32號","121.460198333333","25.04054","6500500","新莊區"
"242039","566-BX","2018/03/05 17:29:46","新北市新莊區民安西路37號","121.427603333333","25.0209483333333","6500500","新莊區"
"242044","497-BY","2018/03/05 17:29:27","新北市新莊區富國路73號","121.419971666667","25.0259916666667","6500500","新莊區"
"242048","441-UM","2018/03/05 17:29:37","新北市新莊區四維路212巷2號","121.421273333333","25.0201866666667","6500500","新莊區"
"242053","440-UM","2018/03/05 17:29:34","新北市新莊區瓊林南路305巷35號","121.435953333333","25.0051716666667","6500500","新莊區"
"242034","415-TV","2018/03/05 17:29:28","新北市新莊區新莊路362號","121.449643333333","25.0334433333333","6500500","新莊區"
"242004","413-TV","2018/03/05 17:29:42","新北市新莊區中港路280號","121.45314","25.0441533333333","6500500","新莊區"
"242042","400-BY","2018/03/05 17:29:28","新北市新莊區建國一路7號","121.433786666667","25.0318566666667","6500500","新莊區"
"242060","362-BY","2018/03/05 17:29:36","新北市新莊區瓊林南路21號","121.43819","25.0205283333333","6500500","新莊區"
"242058","353-BY","2018/03/05 17:29:41","新北市新莊區中正路516-42號","121.432353333333","25.0320666666667","6500500","新莊區"
"242007","132-UY","2018/03/05 17:29:32","新北市新莊區自強街20號","121.45482","25.0459083333333","6500500","新莊區"
"242036","133-UY","2018/03/05 17:29:38","新北市新莊區建國二路5-3號","121.434826666667","25.0237283333333","6500500","新莊區"
"242021","135-UY","2018/03/05 17:29:38","新北市新莊區中正路211號","121.452266666667","25.0361383333333","6500500","新莊區"
"242046","172-VK","2018/03/05 17:29:24","新北市新莊區新樹路65-5號","121.439396666667","25.0308816666667","6500500","新莊區"
"242009","173-VK","2018/03/05 17:29:30","新北市新莊區中原路191號","121.452416666667","25.0541683333333","6500500","新莊區"
"242002","176-VK","2018/03/05 17:29:38","新北市新莊區新莊路154號","121.455265","25.0354416666667","6500500","新莊區"
"242013","346-TH","2018/03/05 17:29:30","新北市新莊區中誠街3號","121.452115","25.04808","6500500","新莊區"
"242019","348-TH","2018/03/05 17:29:41","新北市新莊區中港路72號","121.455505","25.0389416666667","6500500","新莊區"
"242056","349-TH","2018/03/05 17:29:34","新北市新莊區景德路393號","121.445661666667","25.033355","6500500","新莊區"
"242017","350-TH","2018/03/05 17:29:39","新北市新莊區復興路一段212號","121.452868333333","25.0438366666667","6500500","新莊區"
"242011","351-TH","2018/03/05 17:29:39","新北市新莊區中港路404號","121.452203333333","25.0500616666667","6500500","新莊區"
"238015","755-BX","2018/03/05 17:29:36","新北市樹林區東佳路20號","121.407705","24.9811083333333","6500700","樹林區"
"238023","601-UM","2018/03/05 17:29:35","新北市樹林區中正路439-1號","121.414926666667","25.0086533333333","6500700","樹林區"
"238019","599-UM","2018/03/05 17:29:45","新北市樹林區太平路58-2號","121.41901","24.9815966666667","6500700","樹林區"
"238018","571-TV","2018/03/05 17:29:27","新北市樹林區鎮前街281-4號","121.418316666667","24.9851283333333","6500700","樹林區"
"238024","5061-A6","2018/03/05 17:29:38","新北市樹林區水源街13巷2號","121.425006666667","24.98337","6500700","樹林區"
"238022","KEA-2213","2018/03/05 17:29:35","新北市樹林區仁愛街28號","121.422661666667","24.9822316666667","6500700","樹林區"
"238021","KEA-2539","2018/03/05 17:29:35","新北市樹林區民權街20號","121.397746666667","24.95853","6500700","樹林區"
"238025","303-VK","2018/03/05 17:29:33","新北市樹林區保安街一段350號","121.417886666667","24.998265","6500700","樹林區"
"238017","283-BY","2018/03/05 17:29:42","新北市樹林區中正路415號","121.417281666667","25.0075233333333","6500700","樹林區"
"238014","282-BY","2018/03/05 17:29:27","新北市樹林區大安路211號","121.420388333333","24.9952416666667","6500700","樹林區"
"238020","268-VK","2018/03/05 17:28:54","新北市樹林區俊英街88號","121.42781","25.00479","6500700","樹林區"
"238026","172-UY","2018/03/05 17:29:33","新北市樹林區中山路三段41巷11號","121.401621666667","24.9747916666667","6500700","樹林區"
"239007","AAC-297","2018/03/05 17:29:37","新北市鶯歌區中正一路62巷40號","121.354391666667","24.9555583333333","6500800","鶯歌區"
"239006","891-R6","2018/03/05 17:29:37","新北市鶯歌區福安街7巷24弄52號","121.334756666667","24.9661933333333","6500800","鶯歌區"
"239008","527-UM","2018/03/05 17:29:43","新北市鶯歌區大湖路730號","121.332473333333","24.9768133333333","6500800","鶯歌區"
"239005","526-UM","2018/03/05 17:29:42","新北市鶯歌區福隆一街5號","121.325616666667","24.9717716666667","6500800","鶯歌區"
"239001","417-VK","2018/03/05 17:29:43","新北市鶯歌區高職西街101號","121.33601","24.9407366666667","6500800","鶯歌區"
"239003","360-BY","2018/03/05 17:29:30","新北市鶯歌區德昌街21號","121.333385","24.95998","6500800","鶯歌區"
"239004","193-VK","2018/03/05 17:29:28","新北市鶯歌區三鶯路12號","121.356493333333","24.941305","6500800","鶯歌區"
"221008","489-VK","2018/03/05 17:29:30","新北市汐止區康寧街901號","121.651336666667","25.0751166666667","6501100","汐止區"
"221033","647-BX","2018/03/05 17:29:37","新北市汐止區大同路二段271號","121.652225","25.0670216666667","6501100","汐止區"
"242015","281-VK","2018/03/05 17:29:43","新北市新莊區新泰路203號","121.447016666667","25.0382","6500500","新莊區"
"242031","280-VK","2018/03/05 17:29:44","新北市新莊區新泰路401巷8號","121.443118333333","25.0440416666667","6500500","新莊區"
