"lineid","car","time","location","longitude","latitude","cityid","cityname"
"234026","9371-KE","2018/03/05 17:49:48","新北市永和區和平街109巷5-1號","121.510668333333","25.0095733333333","6500400","永和區"
"249005","172-UM","2018/03/05 17:49:49","新北市八里區荖阡里41-1號","121.402366666667","25.1338766666667","6502300","八里區"
"249001","173-UM","2018/03/05 17:49:41","新北市八里區龍米路二段129巷1號","121.445935","25.146675","6502300","八里區"
"249004","303-UY","2018/03/05 17:49:33","新北市八里區中華路一段81巷18號","121.419551666667","25.15557","6502300","八里區"
"249002","305-UY","2018/03/05 17:49:42","新北市八里區頂寮二街121巷20-2號","121.446318333333","25.127545","6502300","八里區"
"249003","593-UM","2018/03/05 17:49:38","新北市八里區中山路二段121號","121.405488333333","25.15195","6502300","八里區"
"248006","077-UY","2018/03/05 17:49:48","新北市五股區中興路二段83巷26-6號","121.460065","25.0749916666667","6501500","五股區"
"248008","095-VK","2018/03/05 17:49:43","新北市五股區中興路二段37巷28號","121.46021","25.0750416666667","6501500","五股區"
"232011","375-UM","2018/03/05 17:49:37","新北市坪林區北宜路八段76號","121.705321666667","24.935155","6502000","坪林區"
"244013","069-UM","2018/03/05 17:49:47","新北市林口區中正路497號","121.38346","25.0777383333333","6501700","林口區"
"244007","080-UY","2018/03/05 17:49:48","新北市林口區佳林路1號","121.387225","25.0824416666667","6501700","林口區"
"244019","402-UM","2018/03/05 17:49:46","新北市林口區文化一路一段89-5號","121.371906666667","25.0704866666667","6501700","林口區"
"244025","742-UY","2018/03/05 17:49:49","新北市林口區文化三路一段249巷65號","121.362725","25.07212","6501700","林口區"
"244023","483-VK","2018/03/05 17:49:42","新北市林口區東湖路12巷62號","121.38849","25.075115","6501700","林口區"
"244016","485-VK","2018/03/05 17:49:51","新北市林口區文化二路一段260巷4號","121.371208333333","25.0731433333333","6501700","林口區"
"244009","657-BX","2018/03/05 17:49:38","新北市林口區寶林路40號","121.385503333333","25.0843883333333","6501700","林口區"
"244011","701-TV","2018/03/05 17:49:47","新北市林口區佳林路257號","121.382728333333","25.0761133333333","6501700","林口區"
"244021","838-TS","2018/03/05 17:49:50","新北市林口區仁愛路一段139巷11號","121.398076666667","25.0716883333333","6501700","林口區"
"222003","436-BY","2018/03/05 17:49:41","新北市深坑區阿柔洋60-1號","121.608253333333","24.9987533333333","6501800","深坑區"
"222002","659-BX","2018/03/05 17:49:33","新北市深坑區平埔街22巷8號","121.614908333333","25.0008916666667","6501800","深坑區"
"221015","KEA-2785","2018/03/05 17:49:46","新北市汐止區長江街286-2號","121.665483333333","25.0805866666667","6501100","汐止區"
"231046","278-BY","2018/03/05 17:49:48","新北市新店區下石厝路11-5號","121.531151666667","24.9294366666667","6500600","新店區"
"231027","3712-VJ","2018/03/05 17:49:42","新北市新店區安華路28-1號","121.519253333333","24.960725","6500600","新店區"
"241005","262-UM","2018/03/05 17:49:32","新北市三重區仁愛街519號","121.48734","25.08231","6500200","三重區"
"241016","265-UM","2018/03/05 17:49:51","新北市三重區新北大道一段7號","121.489456666667","25.0613383333333","6500200","三重區"
"241018","268-UM","2018/03/05 17:49:34","新北市三重區新北大道一段7號","121.489596666667","25.0612983333333","6500200","三重區"
"241019","KEA-2593","2018/03/05 17:49:43","新北市三重區六張街210號","121.48802","25.0684883333333","6500200","三重區"
"241024","743-BX","2018/03/05 17:49:41","新北市三重區車路頭街62巷5號","121.484023333333","25.07252","6500200","三重區"
"241012","941-UM","2018/03/05 17:49:36","新北市三重區龍濱路285號","121.501066666667","25.07338","6500200","三重區"
"241033","AAC-255","2018/03/05 17:49:42","新北市三重區重新路五段547號","121.470716666667","25.0459916666667","6500200","三重區"
"235063","006-UY","2018/03/05 17:49:51","新北市中和區員山路36巷16-3號","121.484998333333","24.9914216666667","6500300","中和區"
"235061","378-QA","2018/03/05 17:24:21","新北市中和區員山路36巷16-2號","121.485428333333","24.9913983333333","6500300","中和區"
"235062","800-TS","2018/03/05 17:49:35","新北市中和區員山路36巷16-2號","121.48526","24.9912966666667","6500300","中和區"
"247024","893-R6","2018/03/05 17:49:33","新北市蘆洲區長樂路118號","121.462201666667","25.0897733333333","6501400","蘆洲區"
"247014","546-UM","2018/03/05 17:49:47","新北市蘆洲區保和街69巷18號","121.469635","25.0853816666667","6501400","蘆洲區"
"247022","500-BY","2018/03/05 17:49:37","新北市蘆洲區中正路377號","121.464546666667","25.090815","6501400","蘆洲區"
"247012","339-TH","2018/03/05 17:49:30","新北市蘆洲區復興路103號","121.4768","25.08767","6501400","蘆洲區"
"247004","337-TH","2018/03/05 17:49:35","新北市蘆洲區長安街267巷31號","121.457156666667","25.0830966666667","6501400","蘆洲區"
"247006","336-TH","2018/03/05 17:49:34","新北市蘆洲區九芎街140號","121.464896666667","25.0789416666667","6501400","蘆洲區"
"247018","335-TH","2018/03/05 17:49:45","新北市蘆洲區復興路227巷2弄2號","121.480013333333","25.0899683333333","6501400","蘆洲區"
"247008","056-VK","2018/03/05 17:49:43","新北市蘆洲區中山一路245-1號","121.473288333333","25.0803433333333","6501400","蘆洲區"
"247010","053-VK","2018/03/05 17:49:52","新北市蘆洲區民族路110號","121.478386666667","25.0852783333333","6501400","蘆洲區"
"247016","007-UY","2018/03/05 17:49:22","新北市蘆洲區中正路185巷68弄31號","121.465848333333","25.0855483333333","6501400","蘆洲區"
"247002","002-UY","2018/03/05 17:49:50","新北市蘆洲區永平街32巷21弄35號","121.457768333333","25.0923966666667","6501400","蘆洲區"
"247020","001-UY","2018/03/05 17:49:48","新北市蘆洲區民義街71巷24號","121.472566666667","25.090745","6501400","蘆洲區"
"228003","097-TW","2018/03/05 17:49:52","新北市貢寮區真理里美艷山街2-2號","121.9275","25.0598916666667","6502600","貢寮區"
"228002","585-TW","2018/03/05 17:49:34","新北市貢寮區福隆里龜壽谷街13號","121.956925","25.0056383333333","6502600","貢寮區"
"228001","670-TC","2018/03/05 17:49:51","新北市貢寮區真理里新港街26巷28-6號","121.927708333333","25.055425","6502600","貢寮區"
"224011","AGQ-8101","2018/03/05 17:49:39","新北市瑞芳區濱二路31號","121.833881666667","25.111275","6501200","瑞芳區"
"224006","676-BX","2018/03/05 17:49:34","新北市瑞芳區傑魚坑路183號","121.788448333333","25.1083066666667","6501200","瑞芳區"
"224008","285-BY","2018/03/05 17:49:52","新北市瑞芳區明燈路一段184號","121.81841","25.10817","6501200","瑞芳區"
"224007","275-VK","2018/03/05 17:49:34","新北市瑞芳區八分寮路12號","121.79518","25.0875316666667","6501200","瑞芳區"
"224009","273-VK","2018/03/05 17:49:35","新北市瑞芳區金光路372號","121.849775","25.1104966666667","6501200","瑞芳區"
"224005","271-BY","2018/03/05 17:49:50","新北市瑞芳區瑞芳街32-9號","121.822768333333","25.1210466666667","6501200","瑞芳區"
"227001","400-TW","2018/03/05 17:39:29","新北市雙溪區三貂里定福路1-2號","121.85072","25.0634433333333","6502500","雙溪區"
"253006","295-VK","2018/03/05 17:49:34","新北市石門區中央路5號","121.566355","25.2915233333333","6502200","石門區"
"208002","KEA-2872","2018/03/05 17:49:51","新北市金山區磺清路135號","121.639373333333","25.2276666666667","6502700","金山區"
"208003","665-BX","2018/03/05 17:49:50","新北市金山區磺清路135號","121.639393333333","25.22775","6502700","金山區"
"208001","761-BX","2018/03/05 17:49:38","新北市金山區磺清路135號","121.639336666667","25.2277983333333","6502700","金山區"
"251009","008-UM","2018/03/05 17:49:34","新北市淡水區長興街31-1號","121.443968333333","25.1712033333333","6501000","淡水區"
"251004","009-UM","2018/03/05 17:49:46","新北市淡水區民權一街33-3號","121.459336666667","25.1363116666667","6501000","淡水區"
"251005","010-UM","2018/03/05 17:49:38","新北市淡水區學府路102巷1號","121.450438333333","25.1720066666667","6501000","淡水區"
"251001","011-UM","2018/03/05 17:49:43","新北市淡水區民權路92巷35-1號","121.462223333333","25.1265916666667","6501000","淡水區"
"251013","179-VK","2018/03/05 17:49:35","新北市淡水區泉洲厝31號","121.479583333333","25.191035","6501000","淡水區"
"251014","180-VK","2018/03/05 17:49:36","新北市淡水區公埔子16-6號","121.481003333333","25.2246033333333","6501000","淡水區"
"251008","181-VK","2018/03/05 17:49:32","新北市淡水區八勢路一段139號","121.467168333333","25.1579133333333","6501000","淡水區"
"251015","182-VK","2018/03/05 17:49:51","新北市淡水區興福寮6號","121.491956666667","25.16545","6501000","淡水區"
"251010","413-VK","2018/03/05 17:49:45","新北市淡水區中正路二段96號","121.417528333333","25.1859","6501000","淡水區"
"251012","441-VK","2018/03/05 17:49:49","新北市淡水區北新路一段3-1號","121.47496","25.18484","6501000","淡水區"
"251016","442-VK","2018/03/05 17:49:33","新北市淡水區埤島39-15號","121.452746666667","25.195895","6501000","淡水區"
"251006","561-UM","2018/03/05 17:49:48","新北市淡水區大信街15巷15號","121.441133333333","25.1766983333333","6501000","淡水區"
"251007","577-R6","2018/03/05 17:49:30","新北市淡水區民生路142號","121.464401666667","25.1383833333333","6501000","淡水區"
"251011","650-BX","2018/03/05 17:47:53","新北市淡水區吳(仔)厝70號","121.479586666667","25.1496333333333","6501000","淡水區"
"251002","672-BX","2018/03/05 17:49:43","新北市淡水區中山路46號","121.44421","25.17011","6501000","淡水區"
"251003","766-UM","2018/03/05 17:49:48","新北市淡水區大忠街5巷2號","121.443183333333","25.1763816666667","6501000","淡水區"
"207003","550-UM","2018/03/05 17:49:31","新北市萬里區野柳里東澳路66號","121.692678333333","25.20094","6502800","萬里區"
"207004","225-TW","2018/03/05 17:49:47","新北市萬里區萬里里瑪鋉頂街100-1號","121.687726666667","25.1804166666667","6502800","萬里區"
"252002","178-VK","2018/03/05 17:49:51","新北市三芝區中山路一段88巷15號","121.502831666667","25.2567733333333","6502100","三芝區"
"252001","292-VK","2018/03/05 17:49:42","新北市三芝區中興街一段12號","121.49747","25.2592616666667","6502100","三芝區"
"237009","210-TH","2018/03/05 17:49:44","新北市三峽區大勇路3巷31號","121.367666666667","24.9367816666667","6500900","三峽區"
"237013","252-BX","2018/03/05 17:49:46","新北市三峽區愛國路33-8號","121.374475","24.9332333333333","6500900","三峽區"
"237012","275-BY","2018/03/05 17:49:45","新北市三峽區文化路158號","121.370048333333","24.9361116666667","6500900","三峽區"
"237014","433-BY","2018/03/05 17:49:38","新北市三峽區文化路120巷3號","121.371036666667","24.9364333333333","6500900","三峽區"
"237006","5529-G3","2018/03/05 17:49:43","新北市三峽區介壽路二段38巷104號","121.39231","24.9333683333333","6500900","三峽區"
"237011","KEA-2596","2018/03/05 17:49:42","新北市三峽區光明路48號","121.37462","24.9297383333333","6500900","三峽區"
"237016","649-BX","2018/03/05 17:49:47","新北市三峽區中山路459巷163-3號","121.349111666667","24.933335","6500900","三峽區"
"237010","706-TV","2018/03/05 17:49:40","新北市三峽區文化路212-5號","121.36844","24.935985","6500900","三峽區"
"237005","AKY-6261","2018/03/05 17:49:42","新北市三峽區中山路459巷70號","121.35441","24.93631","6500900","三峽區"
"236069","105-UM","2018/03/05 17:49:41","新北市土城區城林路6巷80號","121.438531666667","24.9796766666667","6501300","土城區"
"236042","107-UM","2018/03/05 17:49:41","新北市土城區城林路6巷80號","121.438708333333","24.9796733333333","6501300","土城區"
"236078","166-UM","2018/03/05 17:49:48","新北市土城區中華路二段196號","121.43751","24.970535","6501300","土城區"
"236030","253-BX","2018/03/05 17:49:49","新北市土城區城林路6巷80號","121.438748333333","24.9797166666667","6501300","土城區"
"236014","270-VK","2018/03/05 17:49:52","新北市土城區城林路6巷80號","121.438681666667","24.9796716666667","6501300","土城區"
"236036","271-VK","2018/03/05 17:49:48","新北市土城區城林路6巷80號","121.438563333333","24.9796233333333","6501300","土城區"
"236020","401-BY","2018/03/05 17:49:50","新北市土城區城林路6巷80號","121.438556666667","24.9796266666667","6501300","土城區"
"236058","912-UM","2018/03/05 17:49:38","新北市土城區城林路6巷80號","121.438285","24.97992","6501300","土城區"
"236062","915-UM","2018/03/05 17:49:45","新北市土城區城林路6巷80號","121.438496666667","24.9795733333333","6501300","土城區"
"236053","AAC-216","2018/03/05 17:49:53","新北市土城區城林路6巷80號","121.43871","24.9796816666667","6501300","土城區"
"242029","986-R7","2018/03/05 17:49:49","新北市新莊區新泰路308號","121.445426666667","25.0412483333333","6500500","新莊區"
"242050","751-BX","2018/03/05 17:49:45","新北市新莊區西盛街231巷22號","121.428963333333","25.0162433333333","6500500","新莊區"
"242025","615-BX","2018/03/05 17:49:31","新北市三重區新北大道二段27號","121.47121","25.06127","6500500","新莊區"
"242023","613-BX","2018/03/05 17:49:47","新北市新莊區福樂街76號","121.457715","25.0467166666667","6500500","新莊區"
"242027","612-BX","2018/03/05 17:49:39","新北市新莊區福壽街149號","121.458063333333","25.0530416666667","6500500","新莊區"
"242039","566-BX","2018/03/05 17:49:46","新北市新莊區民安路156號","121.424658333333","25.0246633333333","6500500","新莊區"
"242044","497-BY","2018/03/05 17:49:47","新北市新莊區雙鳳路23號","121.416731666667","25.026955","6500500","新莊區"
"242048","441-UM","2018/03/05 17:49:37","新北市新莊區萬安街102巷2號","121.420266666667","25.022575","6500500","新莊區"
"242053","440-UM","2018/03/05 17:49:34","新北市新莊區民安西路468-1號","121.431685","25.00788","6500500","新莊區"
"242034","415-TV","2018/03/05 17:49:48","新北市新莊區新莊路692號","121.440715","25.0327333333333","6500500","新莊區"
"242004","413-TV","2018/03/05 17:49:38","新北市新莊區自立街259號","121.459185","25.0455616666667","6500500","新莊區"
"242042","400-BY","2018/03/05 17:49:48","新北市新莊區中正路618號","121.423703333333","25.0293966666667","6500500","新莊區"
"242060","362-BY","2018/03/05 17:49:49","新北市新莊區新樹路505號","121.432725","25.0108933333333","6500500","新莊區"
"242058","353-BY","2018/03/05 17:49:41","新北市新莊區中正路730-18號","121.414233333333","25.0233016666667","6500500","新莊區"
"242007","132-UY","2018/03/05 17:49:42","新北市新莊區福樂街69號","121.457086666667","25.0477983333333","6500500","新莊區"
"242036","133-UY","2018/03/05 17:49:38","新北市新莊區後港一路89號","121.427675","25.026845","6500500","新莊區"
"242021","135-UY","2018/03/05 17:49:36","新北市新莊區中港路142號","121.455213333333","25.0409683333333","6500500","新莊區"
"242046","172-VK","2018/03/05 17:49:44","新北市新莊區福營路125巷22弄2號","121.433505","25.030945","6500500","新莊區"
"242009","173-VK","2018/03/05 17:49:50","新北市新莊區昌明街38-1號","121.45643","25.0523666666667","6500500","新莊區"
"242002","176-VK","2018/03/05 17:49:38","新北市新莊區景德路164號","121.450561666667","25.0341816666667","6500500","新莊區"
"242013","346-TH","2018/03/05 17:49:50","新北市新莊區中泰街104巷5弄11號","121.448353333333","25.04678","6500500","新莊區"
"242019","348-TH","2018/03/05 17:49:48","新北市新莊區民樂街48號","121.458001666667","25.0415133333333","6500500","新莊區"
"242056","349-TH","2018/03/05 17:49:34","新北市新莊區瓊林路38-9號","121.44806","25.0303566666667","6500500","新莊區"
"242017","350-TH","2018/03/05 17:49:43","新北市新莊區中港路343號","121.452003333333","25.0454633333333","6500500","新莊區"
"242011","351-TH","2018/03/05 17:49:39","新北市新莊區中富街120號","121.44975","25.056715","6500500","新莊區"
"238015","755-BX","2018/03/05 17:49:36","新北市樹林區樹德街136巷39號","121.420091666667","24.9942933333333","6500700","樹林區"
"238023","601-UM","2018/03/05 17:49:44","新北市樹林區龍興街13巷11號","121.403485","25.0165383333333","6500700","樹林區"
"238019","599-UM","2018/03/05 17:49:45","新北市樹林區太平路249號","121.418851666667","24.97498","6500700","樹林區"
"238018","571-TV","2018/03/05 17:47:47","新北市樹林區鎮前街10號","121.426208333333","24.9932316666667","6500700","樹林區"
"238022","KEA-2213","2018/03/05 17:49:35","新北市樹林區太順街62巷3弄35號","121.416468333333","24.97911","6500700","樹林區"
"238021","KEA-2539","2018/03/05 17:49:35","新北市樹林區柑園街一段171號","121.399811666667","24.9572216666667","6500700","樹林區"
"238025","303-VK","2018/03/05 17:49:53","新北市樹林區三俊街50號","121.412351666667","25.015585","6500700","樹林區"
"238017","283-BY","2018/03/05 17:49:42","新北市樹林區三德街30巷33號","121.414781666667","25.0122083333333","6500700","樹林區"
"238014","282-BY","2018/03/05 17:49:48","新北市樹林區保安街一段289巷3號","121.416701666667","24.9961833333333","6500700","樹林區"
"238020","268-VK","2018/03/05 17:49:53","新北市樹林區三俊街205號","121.420323333333","25.0154983333333","6500700","樹林區"
"238026","172-UY","2018/03/05 17:49:33","新北市樹林區中洲街51巷4號","121.396736666667","24.9710633333333","6500700","樹林區"
"239007","AAC-297","2018/03/05 17:49:37","新北市鶯歌區永明街20號","121.33851","24.955235","6500800","鶯歌區"
"239006","891-R6","2018/03/05 17:49:37","新北市鶯歌區永和街115巷66-1號","121.33381","24.9700283333333","6500800","鶯歌區"
"239008","527-UM","2018/03/05 17:49:43","新北市鶯歌區香賓街8巷1號","121.336675","24.9790283333333","6500800","鶯歌區"
"239005","526-UM","2018/03/05 17:49:42","新北市鶯歌區鳳吉四街45號","121.327408333333","24.9731383333333","6500800","鶯歌區"
"239001","417-VK","2018/03/05 17:49:51","新北市鶯歌區中正三路460號","121.32122","24.9342616666667","6500800","鶯歌區"
"239003","360-BY","2018/03/05 17:49:30","新北市鶯歌區鶯桃路262號","121.335716666667","24.9597383333333","6500800","鶯歌區"
"239004","193-VK","2018/03/05 17:49:48","新北市鶯歌區文化路136巷50號","121.351101666667","24.9505666666667","6500800","鶯歌區"
"221008","489-VK","2018/03/05 17:49:49","新北市汐止區康寧街901號","121.651316666667","25.0750383333333","6501100","汐止區"
"221010","269-BY","2018/03/05 17:49:42","新北市汐止區汐萬路二段59號","121.649446666667","25.08201","6501100","汐止區"
"221012","278-VK","2018/03/05 17:49:49","新北市汐止區長江街256巷3號","121.665233333333","25.0802583333333","6501100","汐止區"
"221023","279-VK","2018/03/05 17:49:49","新北市汐止區民族二街9號","121.63499","25.0708216666667","6501100","汐止區"
"221032","280-BY","2018/03/05 17:49:50","新北市汐止區大同路一段106號","121.630023333333","25.054435","6501100","汐止區"
"221027","281-BY","2018/03/05 17:49:48","新北市汐止區汐萬路一段312號","121.650318333333","25.074925","6501100","汐止區"
"221021","299-VK","2018/03/05 17:49:39","新北市汐止區水源路一段21號","121.657198333333","25.0666516666667","6501100","汐止區"
"221031","353-TW","2018/03/05 17:49:36","新北市汐止區中興路96巷1-3號","121.63535","25.06257","6501100","汐止區"
"221035","622-UM","2018/03/05 17:49:50","新北市汐止區汐萬路一段191號","121.65242","25.0717366666667","6501100","汐止區"
"221025","623-UM","2018/03/05 17:49:46","新北市汐止區大同路二段132-2號","121.65182","25.063985","6501100","汐止區"
"221038","646-BX","2018/03/05 17:49:35","新北市汐止區汐萬路一段204號","121.65221","25.0721733333333","6501100","汐止區"
"221033","647-BX","2018/03/05 17:49:37","新北市汐止區林森街78號","121.624151666667","25.04073","6501100","汐止區"
"221018","753-BX","2018/03/05 17:49:52","新北市汐止區忠孝東路341號","121.665373333333","25.0699866666667","6501100","汐止區"
"242015","281-VK","2018/03/05 17:49:52","新北市新莊區新泰路502巷36號","121.44351","25.0465533333333","6500500","新莊區"
"242031","280-VK","2018/03/05 17:49:44","新北市新莊區新泰路357巷3弄17號","121.442383333333","25.0408033333333","6500500","新莊區"
