"lineid","car","time","location","longitude","latitude","cityid","cityname"
"234046","148-BY","2018/03/05 18:39:37","新北市永和區林森路107號","121.523075","25.0034916666667","6500400","永和區"
"234007","207-UY","2018/03/05 18:39:43","新北市永和區環河西路二段179號","121.504106666667","25.0126783333333","6500400","永和區"
"234081","298-R6","2018/03/05 18:39:37","新北市永和區林森路75號","121.524018333333","25.0039083333333","6500400","永和區"
"234038","336-UY","2018/03/05 18:39:30","新北市永和區福和路1號","121.526638333333","25.01018","6500400","永和區"
"234086","338-UY","2018/03/05 18:39:28","新北市永和區安樂路242-16號","121.514741666667","25.0030633333333","6500400","永和區"
"234017","745-BX","2018/03/05 18:39:46","新北市永和區福和路1號","121.525513333333","25.0095433333333","6500400","永和區"
"234030","746-BX","2018/03/05 18:39:42","新北市永和區成功路二段95號","121.526866666667","24.99917","6500400","永和區"
"234013","KEA-2591","2018/03/05 18:39:45","新北市永和區保福路二段105號","121.510203333333","25.0133566666667","6500400","永和區"
"234061","AAD-866","2018/03/05 18:39:26","新北市永和區福和路1號","121.525661666667","25.00948","6500400","永和區"
"234042","862-TW","2018/03/05 18:39:34","新北市永和區福和路143號","121.520875","25.007715","6500400","永和區"
"234050","863-TW","2018/03/05 18:39:42","新北市永和區福和路1號","121.526458333333","25.0098816666667","6500400","永和區"
"234026","9371-KE","2018/03/05 18:39:28","新北市永和區永貞路441號","121.50679","25.0100233333333","6500400","永和區"
"234011","9373-KE","2018/03/05 18:39:27","新北市永和區文化路9巷22弄1號","121.515261666667","25.0145166666667","6500400","永和區"
"249005","172-UM","2018/03/05 18:39:29","新北市八里區中華路三段196號","121.38812","25.1255783333333","6502300","八里區"
"249001","173-UM","2018/03/05 18:39:40","新北市八里區龍米路一段205號","121.451481666667","25.1313916666667","6502300","八里區"
"249004","303-UY","2018/03/05 18:39:33","新北市八里區忠四街9號","121.424961666667","25.1608","6502300","八里區"
"249002","305-UY","2018/03/05 18:39:41","新北市八里區龍形一街18號","121.449743333333","25.13048","6502300","八里區"
"248016","026-BX","2018/03/05 18:39:46","新北市五股區凌雲路一段149巷7號","121.448965","25.1016266666667","6501500","五股區"
"248008","095-VK","2018/03/05 18:39:43","新北市五股區中興路一段150巷2號","121.464696666667","25.0740916666667","6501500","五股區"
"248018","225-UY","2018/03/05 18:39:24","新北市五股區民義路三段1號","121.403133333333","25.1146","6501500","五股區"
"248012","247-BX","2018/03/05 18:39:26","新北市五股區成泰路三段2巷1-20號","121.441158333333","25.0866683333333","6501500","五股區"
"248014","261-SL","2018/03/05 18:39:28","新北市五股區成泰路一段197號","121.435091666667","25.0766383333333","6501500","五股區"
"248010","272-BY","2018/03/05 18:39:31","新北市五股區水碓三路143號","121.431703333333","25.0736183333333","6501500","五股區"
"248004","677-BX","2018/03/05 18:39:39","新北市五股區民義路一段215號","121.430203333333","25.089125","6501500","五股區"
"248002","678-BX","2018/03/05 18:39:41","新北市五股區西雲路213號","121.448741666667","25.0966933333333","6501500","五股區"
"234077","969-R7","2018/03/05 18:39:37","新北市永和區中正路324號","121.517596666667","24.999585","6500400","永和區"
"234067","AAC-212","2018/03/05 18:39:34","新北市永和區永貞路149號","121.515723333333","25.00407","6500400","永和區"
"232011","375-UM","2018/03/05 18:39:37","新北市坪林區坪雙路一段43號","121.711671666667","24.942465","6502000","坪林區"
"244013","069-UM","2018/03/05 18:39:27","新北市林口區佳林路102號","121.385155","25.0791716666667","6501700","林口區"
"244007","080-UY","2018/03/05 18:39:28","新北市林口區後湖2-16號","121.389133333333","25.0969433333333","6501700","林口區"
"244019","402-UM","2018/03/05 18:39:26","新北市林口區忠孝路606號","121.376455","25.068065","6501700","林口區"
"244025","742-UY","2018/03/05 18:39:30","新北市林口區南勢四街319號","121.356521666667","25.0747333333333","6501700","林口區"
"244023","483-VK","2018/03/05 18:39:41","新北市林口區中山路555號","121.380801666667","25.0811516666667","6501700","林口區"
"244017","485-VK","2018/03/05 18:39:31","新北市林口區文化二路一段269號","121.367443333333","25.0707283333333","6501700","林口區"
"244009","657-BX","2018/03/05 18:39:38","新北市林口區竹林路278巷18號","121.390763333333","25.08112","6501700","林口區"
"244011","701-TV","2018/03/05 18:39:27","新北市林口區仁愛路一段356號","121.390325","25.0766083333333","6501700","林口區"
"244021","838-TS","2018/03/05 18:39:39","新北市林口區工六路2號","121.39755","25.0793983333333","6501700","林口區"
"243012","AAD-798","2018/03/05 18:39:38","新北市泰山區福興三街13號","121.434388333333","25.0578016666667","6501600","泰山區"
"243013","646-TV","2018/03/05 18:35:16","新北市泰山區明志路三段206巷10號","121.423256666667","25.0380466666667","6501600","泰山區"
"243016","680-BX","2018/03/05 18:39:28","新北市泰山區泰林路二段587號","121.421935","25.0634483333333","6501600","泰山區"
"222003","436-BY","2018/03/05 18:39:36","新北市深坑區翠谷街34巷10號","121.626793333333","25.0089183333333","6501800","深坑區"
"222002","659-BX","2018/03/05 18:39:34","新北市深坑區雲鄉路2號","121.620961666667","24.9996733333333","6501800","深坑區"
"231041","002-UM","2018/03/05 18:39:34","新北市新店區安華路28-1號","121.51957","24.9609033333333","6500600","新店區"
"231059","046-UY","2018/03/05 18:39:30","新北市新店區安華路28-1號","121.519736666667","24.960845","6500600","新店區"
"231061","047-UY","2018/03/05 18:39:41","新北市新店區安華路28-1號","121.519181666667","24.9608866666667","6500600","新店區"
"231060","106-UY","2018/03/05 18:39:27","新北市新店區安華路28-1號","121.519751666667","24.9610233333333","6500600","新店區"
"231051","107-UY","2018/03/05 18:39:28","新北市新店區中央路173號","121.534101666667","24.9700983333333","6500600","新店區"
"231052","187-VK","2018/03/05 18:39:37","新北市新店區永興路19號","121.544076666667","24.9392316666667","6500600","新店區"
"231050","KEA-2219","2018/03/05 18:39:44","新北市新店區安華路28-1號","121.519833333333","24.96135","6500600","新店區"
"221015","KEA-2785","2018/03/05 18:39:29","新北市汐止區鄉長路二段10-2號","121.668768333333","25.080935","6501100","汐止區"
"231057","256-BX","2018/03/05 18:39:34","新北市新店區新烏路一段215號","121.548825","24.9315633333333","6500600","新店區"
"231046","278-BY","2018/03/05 18:39:40","新北市新店區直潭二街1號","121.535511666667","24.9431983333333","6500600","新店區"
"231058","3712-VJ","2018/03/05 18:39:33","新北市新店區國校路77號","121.538556666667","24.9522666666667","6500600","新店區"
"231056","3713-VJ","2018/03/05 18:39:45","新北市新店區自立街31號","121.53747","24.979575","6500600","新店區"
"231055","4716-K9","2018/03/05 18:39:44","新北市新店區華興街42號","121.536925","24.9691233333333","6500600","新店區"
"231067","4772-VM","2018/03/05 18:39:36","新北市新店區安康路一段82號","121.528136666667","24.961895","6500600","新店區"
"231065","512-UM","2018/03/05 18:39:47","新北市新店區安華路28-1號","121.51912","24.961285","6500600","新店區"
"231054","513-UM","2018/03/05 18:39:30","新北市新店區安華路28-1號","121.519816666667","24.961205","6500600","新店區"
"231064","515-UM","2018/03/05 18:39:28","新北市新店區安華路28-1號","121.519943333333","24.9610983333333","6500600","新店區"
"231040","619-UM","2018/03/05 18:39:27","新北市新店區安華路28-1號","121.51955","24.9608466666667","6500600","新店區"
"231042","641-BX","2018/03/05 18:39:45","新北市新店區安華路28-1號","121.519618333333","24.960635","6500600","新店區"
"231063","645-TV","2018/03/05 18:39:30","新北市新店區安華路28-1號","121.519378333333","24.9606983333333","6500600","新店區"
"231049","719-UM","2018/03/05 18:39:27","新北市新店區安康路一段50號","121.530283333333","24.9611033333333","6500600","新店區"
"231047","719-UY","2018/03/05 18:39:44","新北市新店區安康路一段11號","121.533271666667","24.9603966666667","6500600","新店區"
"231062","720-UM","2018/03/05 18:39:35","新北市新店區安華路28-1號","121.519281666667","24.96124","6500600","新店區"
"231044","897-TW","2018/03/05 18:39:32","新北市新店區北新路二段2號","121.542525","24.9705866666667","6500600","新店區"
"231045","898-TW","2018/03/05 18:39:37","新北市新店區安華路28-1號","121.519258333333","24.960935","6500600","新店區"
"231043","899-TW","2018/03/05 18:39:29","新北市新店區安華路28-1號","121.519025","24.960845","6500600","新店區"
"231066","AKT-0513","2018/03/05 18:39:28","新北市新店區安華路30巷12-1號","121.51852","24.9580316666667","6500600","新店區"
"241013","270-UM","2018/03/05 18:39:35","新北市三重區仁愛街139號","121.495218333333","25.07521","6500200","三重區"
"235066","003-UY","2018/03/05 18:39:29","新北市中和區水源路37號","121.504503333333","25.0036166666667","6500300","中和區"
"235064","005-UY","2018/03/05 18:39:27","新北市中和區圓通路141巷37弄1號","121.498926666667","24.9950016666667","6500300","中和區"
"235063","006-UY","2018/03/05 18:39:31","新北市中和區連城路319巷4弄3號","121.48897","24.9955783333333","6500300","中和區"
"235060","031-BX","2018/03/05 18:39:32","新北市中和區中山路三段33號","121.479093333333","25.0057933333333","6500300","中和區"
"235056","096-UM","2018/03/05 18:39:39","新北市中和區員山路611巷5弄3號","121.478026666667","25.0111883333333","6500300","中和區"
"235039","097-UM","2018/03/05 18:39:43","新北市永和區中正路53號","121.514395","24.996485","6500300","中和區"
"235065","098-UM","2018/03/05 18:39:42","新北市中和區莊敬路33巷34弄7號","121.500306666667","25.0060716666667","6500300","中和區"
"235040","150-BY","2018/03/05 18:39:17","新北市中和區保健路76巷14弄2號","121.511016666667","24.99588","6500300","中和區"
"235058","151-BY","2018/03/05 18:39:30","新北市中和區圓通路459號","121.484178333333","24.985865","6500300","中和區"
"235055","183-VK","2018/03/05 18:39:30","新北市中和區中山路三段229巷49號","121.469283333333","25.005475","6500300","中和區"
"235038","185-VK","2018/03/05 18:39:30","新北市中和區立人街14巷65號","121.518635","24.99561","6500300","中和區"
"235049","186-VK","2018/03/05 18:39:40","新北市中和區景平路480號","121.505086666667","24.9935933333333","6500300","中和區"
"235067","255-BX","2018/03/05 18:39:37","新北市中和區中正路879號","121.484378333333","25.0040833333333","6500300","中和區"
"235044","293-VK","2018/03/05 18:39:31","新北市中和區復興路280巷6號","121.502298333333","24.9911583333333","6500300","中和區"
"235072","301-VK","2018/03/05 18:39:35","新北市中和區連城路8號","121.499106666667","25.0022883333333","6500300","中和區"
"235043","352-BY","2018/03/05 18:39:39","新北市中和區景平路103號","121.517041666667","24.9918083333333","6500300","中和區"
"235068","377-QA","2018/03/05 18:39:36","新北市中和區中正路140號","121.499211666667","24.993685","6500300","中和區"
"235061","378-QA","2018/03/05 18:39:37","新北市中和區民享街92巷13號","121.474228333333","24.9996666666667","6500300","中和區"
"235071","269-TV","2018/03/05 18:39:43","新北市中和區員山路36巷16-3號","121.484975","24.99127","6500300","中和區"
"235050","4979-A6","2018/03/05 18:39:43","新北市中和區忠孝街126號","121.512046666667","24.9863383333333","6500300","中和區"
"235069","4980-A6","2018/03/05 18:39:33","新北市中和區連城路89巷5號","121.497031666667","24.999515","6500300","中和區"
"235042","551-UM","2018/03/05 18:39:31","新北市中和區成功路97巷18弄3號","121.52689","24.991635","6500300","中和區"
"235045","565-BX","2018/03/05 18:39:43","新北市中和區南山路236巷32號","121.505345","24.9885","6500300","中和區"
"235054","640-BX","2018/03/05 18:39:37","新北市中和區莒光路118號","121.472371666667","25.0018966666667","6500300","中和區"
"235047","732-UM","2018/03/05 18:39:24","新北市中和區南山路320巷10弄21號","121.506748333333","24.9866233333333","6500300","中和區"
"235046","733-UM","2018/03/05 18:39:31","新北市中和區仁愛街95號","121.511943333333","24.98681","6500300","中和區"
"235062","800-TS","2018/03/05 18:39:35","新北市中和區中山路二段312巷21號","121.495656666667","25.0035266666667","6500300","中和區"
"235057","801-TS","2018/03/05 18:39:37","新北市中和區員山路327巷70號","121.479811666667","25.0020316666667","6500300","中和區"
"235052","805-TS","2018/03/05 18:39:40","新北市中和區興南路三段52-1號","121.494011666667","24.9756266666667","6500300","中和區"
"235048","896-TW","2018/03/05 18:39:28","新北市中和區南山路305號","121.504788333333","24.99163","6500300","中和區"
"235053","900-TW","2018/03/05 18:39:29","新北市土城區延壽路118-3號","121.469095","24.994225","6500300","中和區"
"235070","911-UM","2018/03/05 18:39:40","新北市中和區景新街129號","121.505755","24.9973116666667","6500300","中和區"
"235051","157-BY","2018/03/05 18:39:40","新北市中和區華新街212號","121.506523333333","24.9818016666667","6500300","中和區"
"235037","AAC-213","2018/03/05 18:39:33","新北市中和區景平路111巷69號","121.515061666667","24.9902933333333","6500300","中和區"
"235059","AAC-215","2018/03/05 18:39:29","新北市中和區錦和路350-1號","121.490541666667","24.9935366666667","6500300","中和區"
"220068","013-TV","2018/03/05 18:39:27","新北市板橋區民生路二段120號","121.470388333333","25.0196483333333","6500100","板橋區"
"220065","072-UY","2018/03/05 18:39:31","新北市板橋區館前東路24號","121.460263333333","25.0071566666667","6500100","板橋區"
"220086","073-UY","2018/03/05 18:39:41","新北市板橋區南雅西路二段177號","121.451798333333","25.0125616666667","6500100","板橋區"
"220069","AAD-861","2018/03/05 18:39:31","新北市板橋區華東街1-10號","121.448265","24.9951133333333","6500100","板橋區"
"226004","205-ST","2018/03/05 18:39:33","新北市平溪區石底里公園街18-3號","121.733376666667","25.0257466666667","6502400","平溪區"
"235041","251-BX","2018/03/05 18:39:36","新北市中和區宜安路161號","121.508871666667","24.998955","6500300","中和區"
"228003","097-TW","2018/03/05 18:39:32","新北市貢寮區和美里龍洞街5-1號","121.918456666667","25.11182","6502600","貢寮區"
"228002","585-TW","2018/03/05 18:39:34","新北市貢寮區福隆里東興街6-11號","121.950738333333","25.0210616666667","6502600","貢寮區"
"228001","670-TC","2018/03/05 18:39:31","新北市貢寮區仁理村研海街12-1號","121.923768333333","25.0517033333333","6502600","貢寮區"
"224011","AGQ-8101","2018/03/05 18:35:19","新北市瑞芳區金光路334號","121.848355","25.1096666666667","6501200","瑞芳區"
"224006","676-BX","2018/03/05 18:39:34","新北市瑞芳區明燈路三段84號","121.805713333333","25.10827","6501200","瑞芳區"
"224002","639-TC","2018/03/05 18:39:41","新北市瑞芳區三爪子坑路29巷60號","121.813848333333","25.1061166666667","6501200","瑞芳區"
"224008","285-BY","2018/03/05 18:39:43","新北市瑞芳區瑞芳街17號","121.806648333333","25.10966","6501200","瑞芳區"
"224007","275-VK","2018/03/05 18:39:34","新北市瑞芳區大埔路83號","121.763836666667","25.10154","6501200","瑞芳區"
"224009","273-VK","2018/03/05 18:39:31","新北市瑞芳區祈堂路8號","121.85911","25.1117966666667","6501200","瑞芳區"
"224005","271-BY","2018/03/05 18:39:31","新北市瑞芳區永龍新村34號","121.818906666667","25.1193966666667","6501200","瑞芳區"
"227008","642-TC","2018/03/05 18:39:30","新北市雙溪區牡丹里下坑11號","121.850946666667","25.05621","6502500","雙溪區"
"227001","400-TW","2018/03/05 18:39:35","新北市雙溪區魚行里坤溪5號","121.874725","25.021865","6502500","雙溪區"
"253005","032-BX","2018/03/05 18:39:40","新北市石門區石門街20號","121.566043333333","25.2906566666667","6502200","石門區"
"253006","295-VK","2018/03/05 18:39:35","新北市石門區崁子腳58-19號","121.531166666667","25.287535","6502200","石門區"
"222001","KEA-2212","2018/03/05 18:39:34","新北市深坑區北深路一段82號","121.636298333333","25.0108916666667","6501800","深坑區"
"208002","KEA-2872","2018/03/05 18:39:31","新北市金山區龜子山路33號","121.63917","25.2173966666667","6502700","金山區"
"208003","665-BX","2018/03/05 18:39:30","新北市金山區中山路395號","121.633305","25.225315","6502700","金山區"
"208001","761-BX","2018/03/05 18:39:38","新北市金山區文化三路26號","121.63574","25.2246016666667","6502700","金山區"
"251004","009-UM","2018/03/05 18:39:26","新北市淡水區民族路56號","121.461825","25.136055","6501000","淡水區"
"251001","011-UM","2018/03/05 18:39:43","新北市淡水區自強路415巷2號","121.46548","25.13424","6501000","淡水區"
"251013","179-VK","2018/03/05 18:39:35","新北市淡水區椿子林8號","121.48681","25.203345","6501000","淡水區"
"251014","180-VK","2018/03/05 18:39:36","新北市淡水區崙頂12-8號","121.495581666667","25.2172416666667","6501000","淡水區"
"251008","181-VK","2018/03/05 18:39:32","新北市淡水區北投子68-2號","121.454246666667","25.18159","6501000","淡水區"
"251015","182-VK","2018/03/05 18:39:30","新北市淡水區興福寮77巷113號","121.48514","25.1628916666667","6501000","淡水區"
"251010","413-VK","2018/03/05 18:39:45","新北市淡水區沙崙路122號","121.423301666667","25.1828466666667","6501000","淡水區"
"251012","441-VK","2018/03/05 18:39:29","新北市淡水區北新路117號","121.448778333333","25.1786333333333","6501000","淡水區"
"251016","442-VK","2018/03/05 18:39:33","新北市淡水區下圭柔山76-3號","121.444415","25.2067616666667","6501000","淡水區"
"251006","561-UM","2018/03/05 18:39:28","新北市淡水區中山北路一段230號","121.444761666667","25.181075","6501000","淡水區"
"251011","650-BX","2018/03/05 18:39:33","新北市淡水區鄧公路50號","121.459743333333","25.1687733333333","6501000","淡水區"
"251002","672-BX","2018/03/05 18:39:43","新北市淡水區中正東路一段3巷14弄1號","121.450876666667","25.1642133333333","6501000","淡水區"
"251003","766-UM","2018/03/05 18:39:27","新北市淡水區北新路69巷30號","121.446866666667","25.1799883333333","6501000","淡水區"
"207003","550-UM","2018/03/05 18:39:31","新北市萬里區野柳里港西路48號","121.682913333333","25.205","6502800","萬里區"
"207004","225-TW","2018/03/05 18:39:27","新北市萬里區萬里里獅頭路10-1號","121.692073333333","25.17875","6502800","萬里區"
"252002","178-VK","2018/03/05 18:39:31","新北市三芝區民生街52號","121.503656666667","25.2558","6502100","三芝區"
"252003","249-BX","2018/03/05 18:39:27","新北市三芝區後厝里土地公坑54-17號","121.46596","25.2495866666667","6502100","三芝區"
"252001","292-VK","2018/03/05 18:39:42","新北市三芝區中興街二段260號","121.501621666667","25.2531266666667","6502100","三芝區"
"237004","KEA-2597","2018/03/05 18:39:30","新北市三峽區金敏17號","121.39194","24.874145","6500900","三峽區"
"237007","153-BY","2018/03/05 18:39:41","新北市三峽區中正路三段170巷34號","121.352735","24.9045483333333","6500900","三峽區"
"237009","210-TH","2018/03/05 18:39:44","新北市三峽區民族街178-1號","121.368483333333","24.9280066666667","6500900","三峽區"
"237013","252-BX","2018/03/05 18:39:45","新北市三峽區光明路69巷24號","121.376511666667","24.9290316666667","6500900","三峽區"
"237012","275-BY","2018/03/05 18:39:45","新北市三峽區三樹路246號","121.379236666667","24.9431733333333","6500900","三峽區"
"237008","302-VK","2018/03/05 18:39:32","新北市三峽區白雞67-1號","121.397966666667","24.9116566666667","6500900","三峽區"
"237014","433-BY","2018/03/05 18:39:38","新北市三峽區和平街69號","121.370131666667","24.9370383333333","6500900","三峽區"
"237006","5529-G3","2018/03/05 18:39:43","新北市三峽區溪東路315巷1弄2號","121.410558333333","24.9306633333333","6500900","三峽區"
"237011","KEA-2596","2018/03/05 18:39:42","新北市三峽區介壽路三段29號","121.395863333333","24.936805","6500900","三峽區"
"237016","649-BX","2018/03/05 18:39:27","新北市三峽區中山路459巷163-3號","121.349111666667","24.933335","6500900","三峽區"
"237010","706-TV","2018/03/05 18:39:40","新北市三峽區復興路361號","121.363693333333","24.9385916666667","6500900","三峽區"
"237005","AKY-6261","2018/03/05 18:39:42","新北市三峽區民生街104巷3號","121.37374","24.93543","6500900","三峽區"
"236069","105-UM","2018/03/05 18:39:41","新北市土城區永豐路157巷29弄6-1號","121.468368333333","24.9814816666667","6501300","土城區"
"236042","107-UM","2018/03/05 18:39:41","新北市土城區學成路132號","121.449106666667","24.9895733333333","6501300","土城區"
"236078","166-UM","2018/03/05 18:39:29","新北市土城區大暖路55號","121.422391666667","24.9586033333333","6501300","土城區"
"236030","253-BX","2018/03/05 18:39:29","新北市土城區中華路二段187號","121.438443333333","24.97465","6501300","土城區"
"236026","269-VK","2018/03/05 18:39:36","新北市土城區忠義路49號","121.440491666667","24.9691016666667","6501300","土城區"
"236014","270-VK","2018/03/05 18:39:32","新北市土城區清水路207巷11號","121.459863333333","24.9823583333333","6501300","土城區"
"236036","271-VK","2018/03/05 18:39:42","新北市土城區明德路一段313巷3弄8號","121.459883333333","24.9764216666667","6501300","土城區"
"236020","401-BY","2018/03/05 18:39:42","新北市土城區延吉街242號","121.466683333333","24.9846716666667","6501300","土城區"
"236058","912-UM","2018/03/05 18:39:38","新北市土城區中央路四段29號","121.423995","24.9622283333333","6501300","土城區"
"236048","913-UM","2018/03/05 18:39:43","新北市土城區明德路一段78號","121.46504","24.9800433333333","6501300","土城區"
"236062","915-UM","2018/03/05 18:39:25","新北市土城區延壽路55巷9弄5號","121.469803333333","24.99144","6501300","土城區"
"236053","AAC-216","2018/03/05 18:39:34","新北市土城區裕民路2號","121.446716666667","24.9892416666667","6501300","土城區"
"242060","362-BY","2018/03/05 18:39:36","新北市新莊區新莊路773號","121.441863333333","25.03288","6500500","新莊區"
"242056","349-TH","2018/03/05 18:39:34","新北市新莊區環漢路三段1號","121.44223","25.02396","6500500","新莊區"
"238015","755-BX","2018/03/05 18:39:36","新北市樹林區備內街121號","121.405918333333","24.989395","6500700","樹林區"
"238023","601-UM","2018/03/05 18:39:35","新北市樹林區三福街114號","121.406425","25.0163566666667","6500700","樹林區"
"238019","599-UM","2018/03/05 18:39:32","新北市樹林區中華路190-16號","121.411673333333","24.9805983333333","6500700","樹林區"
"238018","571-TV","2018/03/05 18:39:27","新北市樹林區樹新路95號","121.428073333333","24.9953983333333","6500700","樹林區"
"238024","5061-A6","2018/03/05 18:39:38","新北市樹林區太順街49巷20弄22號","121.41772","24.9782583333333","6500700","樹林區"
"238025","303-VK","2018/03/05 18:39:35","新北市樹林區中山路三段36號","121.39507","24.9726616666667","6500700","樹林區"
"238020","268-VK","2018/03/05 18:39:14","新北市樹林區三俊街250-1號","121.421341666667","25.0146333333333","6500700","樹林區"
"238026","172-UY","2018/03/05 18:39:33","新北市樹林區信和街90號","121.388865","24.97335","6500700","樹林區"
"239007","AAC-297","2018/03/05 18:39:37","新北市鶯歌區中山路110號","121.350713333333","24.9570066666667","6500800","鶯歌區"
"239008","527-UM","2018/03/05 18:39:43","新北市鶯歌區國際一路179號","121.336201666667","24.9764933333333","6500800","鶯歌區"
"239005","526-UM","2018/03/05 18:39:42","新北市鶯歌區鳳吉二街134號","121.328346666667","24.97453","6500800","鶯歌區"
"239001","417-VK","2018/03/05 18:39:39","新北市鶯歌區中正三路148號","121.336093333333","24.9397483333333","6500800","鶯歌區"
"239003","360-BY","2018/03/05 18:39:30","新北市鶯歌區永和街200號","121.33673","24.9711766666667","6500800","鶯歌區"
"239004","193-VK","2018/03/05 18:39:28","新北市鶯歌區尖山路235號","121.340233333333","24.943535","6500800","鶯歌區"
"221008","489-VK","2018/03/05 18:32:20","新北市汐止區康寧街901號","121.651361666667","25.0750266666667","6501100","汐止區"
"221036","130-UY","2018/03/05 18:39:37","新北市汐止區南昌街31號","121.663106666667","25.0691233333333","6501100","汐止區"
"221010","269-BY","2018/03/05 18:39:36","新北市汐止區瑞松街18巷9號","121.645201666667","25.1047283333333","6501100","汐止區"
"221012","278-VK","2018/03/05 18:39:29","新北市汐止區鄉友街35號","121.668678333333","25.0813066666667","6501100","汐止區"
"221023","279-VK","2018/03/05 18:39:29","新北市汐止區康寧街543號","121.634275","25.06917","6501100","汐止區"
"221032","280-BY","2018/03/05 18:39:30","新北市汐止區福山街60巷11號","121.618173333333","25.0463183333333","6501100","汐止區"
"221027","281-BY","2018/03/05 18:39:28","新北市汐止區和平街86號","121.66125","25.0707366666667","6501100","汐止區"
"221029","298-VK","2018/03/05 18:39:43","新北市汐止區樟樹一路142號","121.642286666667","25.0650166666667","6501100","汐止區"
"221021","299-VK","2018/03/05 18:39:39","新北市汐止區復興路53巷2號","121.656928333333","25.0626133333333","6501100","汐止區"
"221031","353-TW","2018/03/05 18:39:36","新北市汐止區福德一路274號","121.63211","25.0639383333333","6501100","汐止區"
"221035","622-UM","2018/03/05 18:39:35","新北市汐止區大同路二段105號","121.649918333333","25.06345","6501100","汐止區"
"221025","623-UM","2018/03/05 18:39:42","新北市汐止區仁愛路116號","121.662706666667","25.0636683333333","6501100","汐止區"
"221038","646-BX","2018/03/05 18:39:35","新北市汐止區汐萬路一段312號","121.650436666667","25.0750933333333","6501100","汐止區"
"221033","647-BX","2018/03/05 18:39:37","新北市汐止區南勢街1巷1號","121.627076666667","25.0374633333333","6501100","汐止區"
"221002","707-TV","2018/03/05 18:39:36","新北市汐止區中興路25號","121.636905","25.059665","6501100","汐止區"
"221018","753-BX","2018/03/05 18:39:32","新北市汐止區茄苳路250巷26號","121.671716666667","25.06763","6501100","汐止區"
"220079","145-BY","2018/03/05 18:39:41","新北市板橋區館前西路160巷2號","121.452976666667","25.0086566666667","6500100","板橋區"
"220080","200-UY","2018/03/05 18:39:41","新北市板橋區大觀路二段265巷76弄29號","121.4415","24.9967133333333","6500100","板橋區"
"220082","610-BX","2018/03/05 18:39:28","新北市板橋區板城路421號","121.448098333333","24.99623","6500100","板橋區"
"220056","276-BY","2018/03/05 18:39:36","新北市板橋區四川路二段119號","121.451195","24.9943316666667","6500100","板橋區"
"220072","277-BY","2018/03/05 18:39:33","新北市板橋區大觀路三段59巷17弄6-1號","121.43692","24.9954233333333","6500100","板橋區"
"220057","282-UM","2018/03/05 18:39:33","新北市板橋區華東街1-9號","121.448231666667","24.994925","6500100","板橋區"
"220071","283-VK","2018/03/05 18:39:32","新北市板橋區四川路二段140巷16弄23號","121.448403333333","24.9940833333333","6500100","板橋區"
"220053","285-VK","2018/03/05 18:39:44","新北市板橋區民生路二段120號","121.470428333333","25.01992","6500100","板橋區"
"220083","286-VK","2018/03/05 18:39:45","新北市板橋區大觀路二段153巷46弄1號","121.448518333333","24.998735","6500100","板橋區"
"220081","287-VK","2018/03/05 18:39:41","新北市板橋區大觀路二段101巷23號","121.447023333333","25.0013633333333","6500100","板橋區"
"220084","296-UM","2018/03/05 18:39:37","新北市板橋區大觀路二段205號","121.445101666667","24.9992566666667","6500100","板橋區"
"220075","303-R5","2018/03/05 18:39:38","新北市板橋區南雅南路二段120-8號","121.452118333333","24.999545","6500100","板橋區"
"220035","560-BX","2018/03/05 18:39:45","新北市板橋區南雅西路二段145巷10號","121.451503333333","25.0119683333333","6500100","板橋區"
"220055","568-UM","2018/03/05 18:39:43","新北市板橋區板城路421號","121.448085","24.9956816666667","6500100","板橋區"
"220077","687-BX","2018/03/05 18:39:30","新北市板橋區板城路421號","121.447903333333","24.9963983333333","6500100","板橋區"
"220074","895-R6","2018/03/05 18:39:34","新北市板橋區南雅南路二段138號","121.452035","24.99645","6500100","板橋區"
"220073","985-R7","2018/03/05 18:39:28","新北市板橋區南雅南路二段132號","121.452113333333","24.9966633333333","6500100","板橋區"
"220070","AAC-253","2018/03/05 18:39:38","新北市板橋區大觀路2段435-7號","121.447825","24.9954783333333","6500100","板橋區"
