"lineid","car","time","location","longitude","latitude","cityid","cityname"
"234046","148-BY","2018/03/05 19:39:37","新北市永和區秀朗路二段99號","121.523546666667","25.001865","6500400","永和區"
"234007","207-UY","2018/03/05 19:39:43","新北市中和區中和路426號","121.511681666667","25.003315","6500400","永和區"
"234081","298-R6","2018/03/05 19:39:37","新北市永和區林森路20巷7號","121.525866666667","25.0056333333333","6500400","永和區"
"234038","336-UY","2018/03/05 19:39:30","新北市永和區民樂街29號","121.52776","25.00149","6500400","永和區"
"234064","337-UY","2018/03/05 19:39:34","新北市永和區秀朗路一段192巷6弄14號","121.519061666667","25.0022583333333","6500400","永和區"
"234086","338-UY","2018/03/05 19:39:28","新北市永和區永亨路142號","121.525055","25.0039116666667","6500400","永和區"
"234070","552-UM","2018/03/05 19:39:27","新北市永和區永和路二段216號","121.515681666667","25.0140566666667","6500400","永和區"
"234017","745-BX","2018/03/05 19:39:26","新北市永和區永和路二段425巷57弄1號","121.513636666667","25.0171833333333","6500400","永和區"
"234030","746-BX","2018/03/05 19:39:42","新北市永和區民生路37巷20號","121.523695","24.9979216666667","6500400","永和區"
"234054","KEA-2590","2018/03/05 19:39:31","新北市永和區竹林路39巷21號","121.518983333333","25.014805","6500400","永和區"
"234013","KEA-2591","2018/03/05 19:39:36","新北市永和區仁愛路188號","121.509753333333","25.01257","6500400","永和區"
"234061","AAD-866","2018/03/05 19:39:26","新北市永和區中正路474號","121.517378333333","25.003325","6500400","永和區"
"234042","862-TW","2018/03/05 19:39:34","新北市永和區中和路373號","121.508335","24.9997116666667","6500400","永和區"
"234050","863-TW","2018/03/05 19:39:42","新北市永和區保安路39號","121.509735","25.0160983333333","6500400","永和區"
"234026","9371-KE","2018/03/05 19:39:28","新北市永和區中和路501巷5號","121.510426666667","25.0026083333333","6500400","永和區"
"249003","593-UM","2018/03/05 19:39:21","新北市八里區中華路二段540號","121.398995","25.1456566666667","6502300","八里區"
"248016","026-BX","2018/03/05 19:39:27","新北市五股區成泰路三段541號","121.451893333333","25.1016733333333","6501500","五股區"
"248008","095-VK","2018/03/05 19:39:23","新北市五股區四維路118巷11號","121.469076666667","25.0742666666667","6501500","五股區"
"248018","225-UY","2018/03/05 19:31:24","新北市五股區壟路16號","121.415335","25.0856383333333","6501500","五股區"
"248012","247-BX","2018/03/05 19:39:26","新北市五股區成泰路二段97號","121.438066666667","25.084215","6501500","五股區"
"248014","261-SL","2018/03/05 19:39:24","新北市五股區五福路52巷3弄8號","121.433425","25.0900933333333","6501500","五股區"
"248010","272-BY","2018/03/05 19:39:31","新北市五股區自強路113巷1弄2號","121.432433333333","25.070445","6501500","五股區"
"248004","677-BX","2018/03/05 19:39:38","新北市五股區成泰路二段82號","121.437468333333","25.08224","6501500","五股區"
"248002","678-BX","2018/03/05 19:39:41","新北市五股區成泰路三段577巷77號","121.449795","25.1036416666667","6501500","五股區"
"234023","9380-KE","2018/03/05 19:39:39","新北市永和區保生路55-1號","121.504753333333","25.01129","6500400","永和區"
"234077","969-R7","2018/03/05 19:39:36","新北市永和區民族街67巷15號","121.519056666667","24.9971983333333","6500400","永和區"
"234074","AAC-211","2018/03/05 19:39:26","新北市永和區竹林路225巷5-1號","121.521263333333","25.0085016666667","6500400","永和區"
"234067","AAC-212","2018/03/05 19:39:34","新北市永和區中山路一段191巷7弄2號","121.509578333333","25.0082483333333","6500400","永和區"
"234003","AAC-295","2018/03/05 19:39:36","新北市永和區永和路一段42號","121.51303","25.0055533333333","6500400","永和區"
"243012","AAD-798","2018/03/05 19:39:38","新北市泰山區仁愛路100巷56號","121.433776666667","25.05449","6501600","泰山區"
"243011","297-R6","2018/03/05 19:39:37","新北市泰山區明志路三段204巷1號","121.421441666667","25.0382583333333","6501600","泰山區"
"243015","380-SR","2018/03/05 19:39:23","新北市泰山區民權街69號","121.428778333333","25.049975","6501600","泰山區"
"243014","421-VK","2018/03/05 19:39:30","新北市泰山區泰林路二段33-7號","121.43519","25.0564183333333","6501600","泰山區"
"243010","KEA-2215","2018/03/05 19:39:24","新北市泰山區明志路二段47號","121.429483333333","25.052805","6501600","泰山區"
"243009","KEA-2216","2018/03/05 19:39:31","新北市泰山區美寧街60號","121.430948333333","25.0647683333333","6501600","泰山區"
"243013","646-TV","2018/03/05 19:39:32","新北市泰山區應化街13號","121.423868333333","25.0436833333333","6501600","泰山區"
"243016","680-BX","2018/03/05 19:39:32","新北市泰山區明志路三段356號","121.421258333333","25.0346683333333","6501600","泰山區"
"222003","436-BY","2018/03/05 19:32:29","新北市深坑區深南路51-1號","121.621153333333","25.0100583333333","6501800","深坑區"
"222002","659-BX","2018/03/05 19:39:33","新北市深坑區北深路一段177號","121.632443333333","25.0108333333333","6501800","深坑區"
"231041","002-UM","2018/03/05 19:39:34","新北市新店區中正路485號","121.533973333333","24.9820466666667","6500600","新店區"
"231059","046-UY","2018/03/05 19:39:30","新北市新店區安興路141號","121.51667","24.9791883333333","6500600","新店區"
"231061","047-UY","2018/03/05 19:39:20","新北市新店區安民街189號","121.516843333333","24.9709666666667","6500600","新店區"
"231060","106-UY","2018/03/05 19:39:27","新北市新店區安康路二段159巷2號","121.510245","24.9592616666667","6500600","新店區"
"231051","107-UY","2018/03/05 19:39:28","新北市新店區中央四街40號","121.528191666667","24.9746583333333","6500600","新店區"
"231052","187-VK","2018/03/05 19:39:37","新北市新店區新烏路二段482號","121.552918333333","24.9079116666667","6500600","新店區"
"231050","KEA-2219","2018/03/05 19:39:24","新北市新店區秀水路6巷1號","121.555113333333","24.954","6500600","新店區"
"221015","KEA-2785","2018/03/05 19:39:28","新北市汐止區康寧街901號","121.65137","25.0749383333333","6501100","汐止區"
"231057","256-BX","2018/03/05 19:39:27","新北市新店區橘園一路11號","121.547975","24.934065","6500600","新店區"
"231046","278-BY","2018/03/05 19:39:40","新北市新店區中正路329巷9弄2號","121.534948333333","24.97385","6500600","新店區"
"231058","3712-VJ","2018/03/05 19:39:33","新北市新店區中正路102巷8弄2號","121.543371666667","24.9710333333333","6500600","新店區"
"231067","4772-VM","2018/03/05 19:39:36","新北市新店區精忠路2號","121.533041666667","24.9596683333333","6500600","新店區"
"231065","512-UM","2018/03/05 19:39:26","新北市新店區安祥路109巷13號","121.476043333333","24.959135","6500600","新店區"
"231054","513-UM","2018/03/05 19:39:30","新北市新店區文中路40號","121.53974","24.9565833333333","6500600","新店區"
"231064","515-UM","2018/03/05 19:39:28","新北市新店區安和路一段52巷2號","121.517645","24.9662533333333","6500600","新店區"
"231040","619-UM","2018/03/05 19:39:27","新北市新店區中正路75巷71號","121.543103333333","24.9688916666667","6500600","新店區"
"231042","641-BX","2018/03/05 19:39:25","新北市新店區中興路一段216號","121.543911666667","24.9657983333333","6500600","新店區"
"231063","645-TV","2018/03/05 19:39:30","新北市新店區達觀路16號","121.502875","24.9412983333333","6500600","新店區"
"231049","719-UM","2018/03/05 19:39:27","新北市新店區大豐路53號","121.53993","24.97973","6500600","新店區"
"231047","719-UY","2018/03/05 19:39:24","新北市新店區中興路一段288巷10號","121.54634","24.9685216666667","6500600","新店區"
"231062","720-UM","2018/03/05 19:39:35","新北市新店區永業路1號","121.534003333333","24.9562166666667","6500600","新店區"
"231044","897-TW","2018/03/05 19:39:32","新北市新店區北新路三段158號","121.54148","24.98285","6500600","新店區"
"231045","898-TW","2018/03/05 19:39:37","新北市新店區北宜路二段250號","121.560318333333","24.9543533333333","6500600","新店區"
"231043","899-TW","2018/03/05 19:39:29","新北市新店區中正路125號","121.542003333333","24.9712233333333","6500600","新店區"
"241011","013-R5","2018/03/05 19:39:33","新北市三重區秀江街214號","121.497243333333","25.07155","6500200","三重區"
"241028","022-UY","2018/03/05 19:39:43","新北市三重區中正南路196號","121.493866666667","25.0560033333333","6500200","三重區"
"241008","059-VK","2018/03/05 19:39:29","新北市三重區永福街135巷2號","121.47852","25.0767683333333","6500200","三重區"
"241009","060-VK","2018/03/05 19:39:26","新北市三重區三和路四段420號","121.480546666667","25.080065","6500200","三重區"
"241015","062-VK","2018/03/05 19:39:34","新北市三重區福德北路34號","121.502023333333","25.065215","6500200","三重區"
"241017","063-VK","2018/03/05 19:39:24","新北市三重區大仁街20-1號","121.491595","25.0634583333333","6500200","三重區"
"241026","066-VK","2018/03/05 19:39:21","新北市三重區光興街43號","121.499385","25.0602833333333","6500200","三重區"
"241030","156-TC","2018/03/05 19:39:28","新北市三重區新興路32號","121.492038333333","25.0533816666667","6500200","三重區"
"241022","267-UM","2018/03/05 19:39:27","新北市三重區中正北路148號","121.484736666667","25.06572","6500200","三重區"
"241032","269-UM","2018/03/05 19:39:38","新北市三重區重陽路一段60巷76號","121.484243333333","25.05821","6500200","三重區"
"241025","271-UM","2018/03/05 19:39:25","新北市三重區頂崁街204號","121.47722","25.0669966666667","6500200","三重區"
"241007","398-BY","2018/03/05 19:39:34","新北市三重區三和路四段125巷74號","121.487241666667","25.0785916666667","6500200","三重區"
"241020","413-TH","2018/03/05 19:39:27","新北市三重區自強路三段45號","121.487081666667","25.0728183333333","6500200","三重區"
"241035","462-BY","2018/03/05 19:39:23","新北市三重區正義北路61-1號","121.497216666667","25.064455","6500200","三重區"
"241014","543-UM","2018/03/05 19:39:28","新北市三重區河邊北街82號","121.504275","25.0690133333333","6500200","三重區"
"241023","545-UM","2018/03/05 19:39:38","新北市三重區忠孝路三段99巷21號","121.479476666667","25.0643283333333","6500200","三重區"
"241019","KEA-2593","2018/03/05 19:39:30","新北市三重區六張街194巷1弄2號","121.488531666667","25.06806","6500200","三重區"
"241006","AAD-863","2018/03/05 19:39:43","新北市三重區聯華街93號","121.485596666667","25.0753066666667","6500200","三重區"
"241031","887-TS","2018/03/05 19:39:11","新北市三重區重新路四段244巷22號","121.486588333333","25.05362","6500200","三重區"
"241012","941-UM","2018/03/05 19:39:36","新北市三重區河邊北街256巷43號","121.500265","25.0758416666667","6500200","三重區"
"241029","942-UM","2018/03/05 19:39:26","新北市三重區重安街98號","121.492585","25.056295","6500200","三重區"
"235066","003-UY","2018/03/05 19:39:28","新北市中和區中和路196巷11號","121.50514","24.9991183333333","6500300","中和區"
"235064","005-UY","2018/03/05 19:39:27","新北市中和區連城路2號","121.499356666667","25.00243","6500300","中和區"
"235063","006-UY","2018/03/05 19:39:31","新北市中和區連城路219巷22弄1號","121.494848333333","24.996415","6500300","中和區"
"235060","031-BX","2018/03/05 19:39:32","新北市中和區新生街16巷21弄2號","121.482311666667","25.0043433333333","6500300","中和區"
"235056","096-UM","2018/03/05 19:39:39","新北市中和區員山路581巷2弄7-2號","121.477843333333","25.0097033333333","6500300","中和區"
"235039","097-UM","2018/03/05 19:39:23","新北市中和區景平路172號","121.517045","24.992725","6500300","中和區"
"235065","098-UM","2018/03/05 19:39:38","新北市中和區福祥路65號","121.499141666667","25.004785","6500300","中和區"
"235040","150-BY","2018/03/05 19:39:37","新北市中和區宜安路92巷5號","121.51086","24.9977683333333","6500300","中和區"
"235058","151-BY","2018/03/05 19:39:30","新北市中和區連城路467-5號","121.483681666667","24.9960333333333","6500300","中和區"
"235055","183-VK","2018/03/05 19:39:30","新北市中和區民享街2巷8號","121.472973333333","25.00566","6500300","中和區"
"235038","185-VK","2018/03/05 19:39:30","新北市中和區大智街55巷30弄30號","121.521541666667","24.9932316666667","6500300","中和區"
"235049","186-VK","2018/03/05 19:39:40","新北市中和區景新街212號","121.507005","24.9952116666667","6500300","中和區"
"235067","255-BX","2018/03/05 19:39:37","新北市中和區新生街251號","121.483881666667","24.9985266666667","6500300","中和區"
"235044","293-VK","2018/03/05 19:39:29","新北市中和區興南路一段164號","121.508161666667","24.9866016666667","6500300","中和區"
"235043","352-BY","2018/03/05 19:39:39","新北市中和區興南路一段17號","121.511393333333","24.9909766666667","6500300","中和區"
"235068","377-QA","2018/03/05 19:39:36","新北市中和區泰和街4號","121.499911666667","25.0011816666667","6500300","中和區"
"235061","378-QA","2018/03/05 19:39:37","新北市中和區民安街2巷29號","121.48011","25.00155","6500300","中和區"
"235071","269-TV","2018/03/05 19:39:23","新北市中和區新生街49號","121.48352","25.0025566666667","6500300","中和區"
"235050","4979-A6","2018/03/05 19:39:23","新北市中和區中正路637巷60弄61號","121.4854","24.9925116666667","6500300","中和區"
"235042","551-UM","2018/03/05 19:39:31","新北市中和區中和路262巷24弄11號","121.509875","24.9990716666667","6500300","中和區"
"235045","565-BX","2018/03/05 19:39:42","新北市新店區安和路三段175號","121.515716666667","24.9863033333333","6500300","中和區"
"235054","640-BX","2018/03/05 19:39:34","新北市中和區國光街87號","121.470425","25.0001183333333","6500300","中和區"
"235047","732-UM","2018/03/05 19:39:24","新北市中和區景安路172巷2號","121.50439","24.9928166666667","6500300","中和區"
"235046","733-UM","2018/03/05 19:39:31","新北市中和區景新街462號","121.513435","24.987355","6500300","中和區"
"235057","801-TS","2018/03/05 19:39:37","新北市中和區員山路429號","121.48088","25.0036316666667","6500300","中和區"
"235052","805-TS","2018/03/05 19:39:40","新北市中和區華新街206巷7號","121.506351666667","24.9822783333333","6500300","中和區"
"235048","896-TW","2018/03/05 19:39:28","新北市中和區忠孝街1巷2-1號","121.509163333333","24.9830683333333","6500300","中和區"
"235053","900-TW","2018/03/05 19:39:29","新北市中和區國光街184巷12號","121.467246666667","25.0020066666667","6500300","中和區"
"235070","911-UM","2018/03/05 19:39:40","新北市中和區景平路634-3號","121.4994","24.999035","6500300","中和區"
"235051","157-BY","2018/03/05 19:39:40","新北市中和區南山路273號","121.503976666667","24.9924916666667","6500300","中和區"
"235037","AAC-213","2018/03/05 19:39:33","新北市中和區秀朗路三段50巷4弄9號","121.525623333333","24.9957916666667","6500300","中和區"
"235059","AAC-215","2018/03/05 19:39:29","新北市中和區錦和路203巷13號","121.491423333333","24.9905466666667","6500300","中和區"
"220068","013-TV","2018/03/05 19:39:27","新北市板橋區中山路二段505巷2號","121.482606666667","25.0212666666667","6500100","板橋區"
"220065","072-UY","2018/03/05 19:39:31","新北市板橋區國泰街28-1號","121.46848","25.0067816666667","6500100","板橋區"
"220086","073-UY","2018/03/05 19:39:41","新北市板橋區國光路1號","121.456586666667","25.017365","6500100","板橋區"
"220067","075-UY","2018/03/05 19:39:38","新北市板橋區漢生東路313巷2弄2號","121.472191666667","25.0082016666667","6500100","板橋區"
"220069","AAD-861","2018/03/05 19:39:31","新北市板橋區貴興路80號","121.456288333333","25.0028233333333","6500100","板橋區"
"247004","337-TH","2018/03/05 19:39:40","新北市蘆洲區長安街100號","121.461803333333","25.0808566666667","6501400","蘆洲區"
"247008","056-VK","2018/03/05 19:39:43","新北市蘆洲區中山一路101號","121.476755","25.0815333333333","6501400","蘆洲區"
"226004","205-ST","2018/03/05 19:39:33","新北市平溪區靜安路三段392巷3號","121.784255","25.0495116666667","6502400","平溪區"
"235041","251-BX","2018/03/05 19:39:36","新北市中和區永貞路249巷12號","121.512591666667","25.00367","6500300","中和區"
"228003","097-TW","2018/03/05 19:39:32","新北市貢寮區真理里美艷山街15-3號","121.92375","25.0680083333333","6502600","貢寮區"
"228001","670-TC","2018/03/05 19:39:31","新北市貢寮區真理里延平街49號","121.924536666667","25.0556016666667","6502600","貢寮區"
"224011","AGQ-8101","2018/03/05 19:39:39","新北市瑞芳區輕便路348號","121.8396","25.1087083333333","6501200","瑞芳區"
"224005","271-BY","2018/03/05 19:39:30","新北市瑞芳區大寮路356-1號","121.785093333333","25.1033133333333","6501200","瑞芳區"
"227008","642-TC","2018/03/05 19:39:31","新北市雙溪區新基里新基北街18號","121.867178333333","25.0386483333333","6502500","雙溪區"
"227001","400-TW","2018/03/05 19:39:35","新北市雙溪區雙溪里內挖路5號","121.863781666667","25.0354883333333","6502500","雙溪區"
"253005","032-BX","2018/03/05 19:39:40","新北市石門區小坑12號","121.591556666667","25.2899816666667","6502200","石門區"
"222001","KEA-2212","2018/03/05 19:39:34","新北市深坑區北深路二段194號","121.613198333333","25.0017583333333","6501800","深坑區"
"208002","KEA-2872","2018/03/05 19:39:31","新北市金山區中山路313巷25號","121.635061666667","25.2228466666667","6502700","金山區"
"208003","665-BX","2018/03/05 19:39:30","新北市金山區仁愛路1巷1號","121.638595","25.2200966666667","6502700","金山區"
"208001","761-BX","2018/03/05 19:39:38","新北市金山區南勢湖11號","121.621316666667","25.219325","6502700","金山區"
"251009","008-UM","2018/03/05 19:39:33","新北市淡水區中山北路一段198巷11號","121.445303333333","25.1792616666667","6501000","淡水區"
"251004","009-UM","2018/03/05 19:39:24","新北市淡水區民權路13-5號","121.459503333333","25.1419183333333","6501000","淡水區"
"251005","010-UM","2018/03/05 19:39:38","新北市淡水區原德路108巷2號","121.443348333333","25.1735333333333","6501000","淡水區"
"251001","011-UM","2018/03/05 19:39:23","新北市淡水區民權路51號","121.459711666667","25.13904","6501000","淡水區"
"251013","179-VK","2018/03/05 19:39:35","新北市淡水區頂田寮路145號","121.461996666667","25.2161783333333","6501000","淡水區"
"251014","180-VK","2018/03/05 19:39:36","新北市淡水區北勢子21號","121.47777","25.2303433333333","6501000","淡水區"
"251008","181-VK","2018/03/05 19:39:32","新北市淡水區中正路一段8巷1弄11號","121.428323333333","25.1758883333333","6501000","淡水區"
"251015","182-VK","2018/03/05 19:39:30","新北市淡水區大埤頭1號","121.492643333333","25.1947","6501000","淡水區"
"251010","413-VK","2018/03/05 19:39:24","新北市淡水區崁頂93-2號","121.427631666667","25.20249","6501000","淡水區"
"251012","441-VK","2018/03/05 19:39:29","新北市淡水區中山北路三段156號","121.445576666667","25.1957333333333","6501000","淡水區"
"251016","442-VK","2018/03/05 19:39:33","新北市淡水區淡金路三段350巷18號","121.450776666667","25.2083616666667","6501000","淡水區"
"251006","561-UM","2018/03/05 19:39:28","新北市淡水區中山北路一段207巷68號","121.441713333333","25.17924","6501000","淡水區"
"251007","577-R6","2018/03/05 19:39:30","新北市淡水區坪頂路17號","121.45574","25.160495","6501000","淡水區"
"251011","650-BX","2018/03/05 19:39:26","新北市淡水區八勢一街7-16號","121.460511666667","25.15718","6501000","淡水區"
"207003","550-UM","2018/03/05 19:39:31","新北市萬里區大鵬里下社27號","121.648966666667","25.2171916666667","6502800","萬里區"
"207004","225-TW","2018/03/05 19:39:27","新北市萬里區萬里里瑪鋉路21號","121.687273333333","25.1753916666667","6502800","萬里區"
"252002","178-VK","2018/03/05 19:39:31","新北市三芝區中正路一段36巷25號","121.504131666667","25.2587983333333","6502100","三芝區"
"252001","292-VK","2018/03/05 19:39:42","新北市三芝區公正街9號","121.499743333333","25.257545","6502100","三芝區"
"237004","KEA-2597","2018/03/05 19:39:30","新北市三峽區插角225號","121.414976666667","24.8678783333333","6500900","三峽區"
"237007","153-BY","2018/03/05 19:39:21","新北市三峽區二鬮路136巷18弄5號","121.359075","24.9080733333333","6500900","三峽區"
"237009","210-TH","2018/03/05 19:39:24","新北市三峽區中山路18號","121.369406666667","24.9343966666667","6500900","三峽區"
"237013","252-BX","2018/03/05 19:39:26","新北市三峽區介壽路一段383號","121.383848333333","24.931025","6500900","三峽區"
"237012","275-BY","2018/03/05 19:39:25","新北市三峽區民生街3號","121.374565","24.9354183333333","6500900","三峽區"
"237008","302-VK","2018/03/05 19:39:32","新北市三峽區永安街115號","121.374198333333","24.9286533333333","6500900","三峽區"
"237014","433-BY","2018/03/05 19:39:38","新北市三峽區中園街62-4號","121.36803","24.9256116666667","6500900","三峽區"
"237006","5529-G3","2018/03/05 19:39:43","新北市三峽區中正路一段336巷15弄2號","121.369956666667","24.9249816666667","6500900","三峽區"
"237016","649-BX","2018/03/05 19:38:48","新北市三峽區成福路94號","121.420826666667","24.9297133333333","6500900","三峽區"
"237005","AKY-6261","2018/03/05 19:39:42","新北市三峽區文化路137號","121.369765","24.9355483333333","6500900","三峽區"
"236069","105-UM","2018/03/05 19:39:40","新北市土城區學士路72-1號","121.449848333333","24.9793866666667","6501300","土城區"
"236042","107-UM","2018/03/05 19:39:21","新北市土城區學士路12巷2號","121.453613333333","24.9830566666667","6501300","土城區"
"236078","166-UM","2018/03/05 19:39:39","新北市土城區中州路27巷4號","121.413556666667","24.9576116666667","6501300","土城區"
"236030","253-BX","2018/03/05 19:39:34","新北市土城區福祥街56號","121.441536666667","24.9813533333333","6501300","土城區"
"236026","269-VK","2018/03/05 19:39:36","新北市土城區中央路二段61巷26號","121.44328","24.978705","6501300","土城區"
"236036","271-VK","2018/03/05 19:39:28","新北市土城區清水路98巷3弄1號","121.457533333333","24.981315","6501300","土城區"
"236020","401-BY","2018/03/05 19:39:30","新北市土城區明峰街83號","121.468945","24.9873683333333","6501300","土城區"
"236048","913-UM","2018/03/05 19:39:23","新北市土城區明德路一段40號","121.465243333333","24.9844583333333","6501300","土城區"
"236062","915-UM","2018/03/05 19:39:25","新北市土城區延平街58號","121.467908333333","24.992535","6501300","土城區"
"236053","AAC-216","2018/03/05 19:39:33","新北市土城區學府路一段105號","121.455963333333","24.9877083333333","6501300","土城區"
"242027","612-BX","2018/03/05 19:39:40","新北市新莊區新泰路357巷3弄57號","121.442183333333","25.03926","6500500","新莊區"
"242044","497-BY","2018/03/05 19:39:27","新北市新莊區新北大道七段712號","121.412266666667","25.0265966666667","6500500","新莊區"
"242004","413-TV","2018/03/05 19:39:30","新北市新莊區化成路11巷23號","121.463966666667","25.043425","6500500","新莊區"
"242009","173-VK","2018/03/05 19:39:30","新北市新莊區新泰路255巷83號","121.442045","25.0388483333333","6500500","新莊區"
"242013","346-TH","2018/03/05 19:39:33","新北市新莊區中誠街121巷11號","121.449543333333","25.0469933333333","6500500","新莊區"
"242019","348-TH","2018/03/05 19:39:24","新北市新莊區新泰路357巷3弄57號","121.44218","25.0397033333333","6500500","新莊區"
"242056","349-TH","2018/03/05 19:39:34","新北市新莊區環河路462號","121.440218333333","25.0201833333333","6500500","新莊區"
"238015","755-BX","2018/03/05 19:39:33","新北市樹林區育英街62號","121.421128333333","24.9894233333333","6500700","樹林區"
"238023","601-UM","2018/03/05 19:39:35","新北市樹林區三福街73號","121.407538333333","25.0163683333333","6500700","樹林區"
"238018","571-TV","2018/03/05 19:38:47","新北市樹林區中山路三段214號","121.380135","24.9678216666667","6500700","樹林區"
"238024","5061-A6","2018/03/05 19:39:38","新北市樹林區育德街121巷7號","121.389203333333","24.968255","6500700","樹林區"
"238022","KEA-2213","2018/03/05 19:39:35","新北市樹林區太元街110巷1號","121.41951","24.977565","6500700","樹林區"
"238021","KEA-2539","2018/03/05 19:39:35","新北市樹林區佳園路三段217號","121.385111666667","24.9463883333333","6500700","樹林區"
"238025","303-VK","2018/03/05 19:39:33","新北市樹林區中山路一段175號","121.421718333333","24.98843","6500700","樹林區"
"238017","283-BY","2018/03/05 19:39:22","新北市樹林區光榮街79號","121.412085","25.0030533333333","6500700","樹林區"
"238014","282-BY","2018/03/05 19:39:27","新北市樹林區千歲街30巷26弄6號","121.426321666667","24.995935","6500700","樹林區"
"238020","268-VK","2018/03/05 19:39:33","新北市板橋區大觀路三段59巷47號","121.43512","24.9933116666667","6500700","樹林區"
"238026","172-UY","2018/03/05 19:39:33","新北市樹林區佳園路二段15巷23號","121.394576666667","24.963055","6500700","樹林區"
"239007","AAC-297","2018/03/05 19:39:37","新北市鶯歌區大湖路326巷46號","121.345958333333","24.96929","6500800","鶯歌區"
"239006","891-R6","2018/03/05 19:39:37","新北市鶯歌區鶯桃路67巷3號","121.340935","24.9525366666667","6500800","鶯歌區"
"221008","489-VK","2018/03/05 19:39:39","新北市汐止區康寧街61巷51號","121.619866666667","25.0676533333333","6501100","汐止區"
"221036","130-UY","2018/03/05 19:39:29","新北市汐止區康寧街901號","121.651528333333","25.07504","6501100","汐止區"
"221010","269-BY","2018/03/05 19:39:36","新北市汐止區汐萬路二段23巷1號","121.649453333333","25.0807033333333","6501100","汐止區"
"221012","278-VK","2018/03/05 19:39:29","新北市汐止區汐平路一段3號","121.680711666667","25.0712333333333","6501100","汐止區"
"221023","279-VK","2018/03/05 19:39:29","新北市汐止區中興路286巷1號","121.628266666667","25.0696083333333","6501100","汐止區"
"221032","280-BY","2018/03/05 19:39:29","新北市汐止區汐萬路一段312號","121.650651666667","25.07538","6501100","汐止區"
"221027","281-BY","2018/03/05 19:39:36","新北市汐止區忠孝東路9號","121.658251666667","25.0659833333333","6501100","汐止區"
"221029","298-VK","2018/03/05 19:39:22","新北市汐止區康寧街901號","121.651455","25.0748966666667","6501100","汐止區"
"221021","299-VK","2018/03/05 19:39:40","新北市汐止區新台五路一段129號","121.65224","25.0618016666667","6501100","汐止區"
"221031","353-TW","2018/03/05 19:39:36","新北市汐止區康寧街901號","121.65085","25.0752566666667","6501100","汐止區"
"221025","623-UM","2018/03/05 19:39:26","新北市汐止區秀峰路81巷48號","121.661803333333","25.0647233333333","6501100","汐止區"
"221038","646-BX","2018/03/05 19:39:35","新北市汐止區忠孝東路210號","121.662008333333","25.06649","6501100","汐止區"
"221033","647-BX","2018/03/05 19:39:37","台北市南港區舊莊街二段10巷1號","121.626146666667","25.0375433333333","6501100","汐止區"
"221002","707-TV","2018/03/05 19:39:36","新北市汐止區大同路一段225號","121.63412","25.0575733333333","6501100","汐止區"
"220079","145-BY","2018/03/05 19:39:41","新北市板橋區民權路202巷36號","121.460688333333","25.0176066666667","6500100","板橋區"
"220080","200-UY","2018/03/05 19:39:38","新北市板橋區大觀路二段153巷46弄20號","121.449266666667","25.0001133333333","6500100","板橋區"
"220106","KEA-2550","2018/03/05 19:39:42","新北市板橋區文化路二段548巷44號","121.477178333333","25.0335483333333","6500100","板橋區"
"220082","610-BX","2018/03/05 19:39:28","新北市板橋區金門街31巷10號","121.433343333333","24.9937383333333","6500100","板橋區"
"220056","276-BY","2018/03/05 19:39:36","新北市板橋區四川路二段47巷4弄1號","121.454183333333","24.9946133333333","6500100","板橋區"
"220072","277-BY","2018/03/05 19:39:33","新北市板橋區金門街253巷6弄1號","121.43245","24.9885416666667","6500100","板橋區"
"220101","280-UM","2018/03/05 19:39:33","新北市板橋區莊敬路220巷19號","121.472476666667","25.0207183333333","6500100","板橋區"
"220057","282-UM","2018/03/05 19:39:42","新北市板橋區國慶路123號","121.460541666667","24.9959766666667","6500100","板橋區"
"220071","283-VK","2018/03/05 19:39:32","新北市板橋區四川路一段283巷8-2號","121.45959","25.0009633333333","6500100","板橋區"
"220094","285-UM","2018/03/05 19:39:34","新北市板橋區宏國路96號","121.470068333333","25.0319833333333","6500100","板橋區"
"220053","285-VK","2018/03/05 19:39:24","新北市板橋區中山路二段253號","121.477371666667","25.0174916666667","6500100","板橋區"
"220083","286-VK","2018/03/05 19:39:25","新北市板橋區龍興街65巷42號","121.442755","25.0018166666667","6500100","板橋區"
"220081","287-VK","2018/03/05 19:39:21","新北市板橋區大觀路一段29巷20號","121.44914","25.005395","6500100","板橋區"
"220061","293-UM","2018/03/05 19:39:37","新北市板橋區中山路一段265巷11號","121.46866","25.01469","6500100","板橋區"
"220084","296-UM","2018/03/05 19:39:37","新北市板橋區滿平街84巷102號","121.426611666667","24.986695","6500100","板橋區"
"220075","303-R5","2018/03/05 19:39:37","新北市板橋區中正路305巷28弄1號","121.454273333333","25.0185816666667","6500100","板橋區"
"220062","305-R5","2018/03/05 19:39:18","新北市板橋區三民路二段81巷25號","121.480483333333","25.016955","6500100","板橋區"
"220092","307-R5","2018/03/05 19:39:28","新北市板橋區文化路一段387巷25號","121.465891666667","25.0223033333333","6500100","板橋區"
"220098","317-R6","2018/03/05 19:39:28","新北市板橋區四維路259巷2號","121.462926666667","25.0281516666667","6500100","板橋區"
"220064","486-VK","2018/03/05 19:39:25","新北市板橋區民權路45號","121.462","25.0112966666667","6500100","板橋區"
"220089","487-VK","2018/03/05 19:39:35","新北市板橋區新海路330號","121.460538333333","25.02425","6500100","板橋區"
"242031","280-VK","2018/03/05 19:39:31","新北市新莊區新泰路225巷43弄11號","121.444151666667","25.0386066666667","6500500","新莊區"
"220088","491-VK","2018/03/05 19:39:34","新北市板橋區文化路二段367號","121.473116666667","25.0309966666667","6500100","板橋區"
"220035","560-BX","2018/03/05 19:39:24","新北市板橋區新生街89巷18號","121.457455","25.0224333333333","6500100","板橋區"
"220103","561-BX","2018/03/05 19:39:36","新北市板橋區民生路二段229號","121.468491666667","25.02134","6500100","板橋區"
"220055","568-UM","2018/03/05 19:39:24","新北市板橋區國慶路149巷13弄4號","121.460843333333","24.9971283333333","6500100","板橋區"
"220063","609-BX","2018/03/05 19:39:27","新北市板橋區中山路二段531巷30號","121.482946666667","25.0222966666667","6500100","板橋區"
"220091","637-BX","2018/03/05 19:39:26","新北市板橋區懷德街139巷5號","121.479533333333","25.0306366666667","6500100","板橋區"
"220077","687-BX","2018/03/05 19:39:30","新北市板橋區僑中一街82號","121.447381666667","25.0115566666667","6500100","板橋區"
"220093","689-BX","2018/03/05 19:39:38","新北市板橋區長江路一段38號","121.458386666667","25.02903","6500100","板橋區"
"220054","741-BX","2018/03/05 19:39:25","新北市板橋區忠孝路203號","121.465061666667","25.0026966666667","6500100","板橋區"
"220102","KEA-2699","2018/03/05 19:39:32","新北市板橋區文化路二段410巷1弄2號","121.474386666667","25.0311066666667","6500100","板橋區"
"220090","830-TW","2018/03/05 19:39:42","新北市板橋區長江路一段106巷13弄20號","121.46093","25.0293666666667","6500100","板橋區"
"220096","831-TW","2018/03/05 19:39:37","新北市板橋區民生路二段226巷13號","121.470381666667","25.0219066666667","6500100","板橋區"
"220074","895-R6","2018/03/05 19:39:41","新北市板橋區府中路79號","121.457478333333","25.00949","6500100","板橋區"
"220073","985-R7","2018/03/05 19:39:28","新北市板橋區國光路67巷14號","121.458916666667","25.0187","6500100","板橋區"
"220097","AAC-210","2018/03/05 19:39:39","新北市板橋區幸福路30號","121.46177","25.0202733333333","6500100","板橋區"
"220070","AAC-253","2018/03/05 19:39:39","新北市板橋區民族路271號","121.470693333333","25.006825","6500100","板橋區"
