"lineid","car","time","location","longitude","latitude","cityid","cityname"
"234046","148-BY","2018/03/05 19:58:57","新北市永和區林森路107號","121.522935","25.0033483333333","6500400","永和區"
"234007","207-UY","2018/03/05 19:59:03","新北市永和區保生路22巷8號","121.507265","25.00799","6500400","永和區"
"234081","298-R6","2018/03/05 19:58:57","新北市永和區永亨路110號","121.523675","25.0044933333333","6500400","永和區"
"234038","336-UY","2018/03/05 19:58:50","新北市永和區成功路二段185號","121.526598333333","24.9965616666667","6500400","永和區"
"234064","337-UY","2018/03/05 19:59:08","新北市永和區中正路412巷20弄15號","121.518811666667","25.0016383333333","6500400","永和區"
"234086","338-UY","2018/03/05 19:59:10","新北市永和區福和路82-1號","121.522815","25.008","6500400","永和區"
"234070","552-UM","2018/03/05 19:59:07","新北市永和區國光路16號","121.519005","25.0084416666667","6500400","永和區"
"234017","745-BX","2018/03/05 19:59:06","新北市永和區文化路69號","121.513883333333","25.01506","6500400","永和區"
"234030","746-BX","2018/03/05 19:59:03","新北市永和區民生路22巷27號","121.521165","24.99694","6500400","永和區"
"234054","KEA-2590","2018/03/05 19:58:51","新北市永和區環河東路一段122號","121.520608333333","25.0154733333333","6500400","永和區"
"234013","KEA-2591","2018/03/05 19:59:05","新北市永和區保順路11號","121.504671666667","25.0095166666667","6500400","永和區"
"234061","AAD-866","2018/03/05 19:59:06","新北市永和區中正路283巷27號","121.516386666667","24.9999316666667","6500400","永和區"
"234042","862-TW","2018/03/05 19:59:07","新北市永和區雙和街17巷23號","121.508968333333","25.0012283333333","6500400","永和區"
"234050","863-TW","2018/03/05 19:59:02","新北市永和區保安路244號","121.506551666667","25.0126616666667","6500400","永和區"
"234026","9371-KE","2018/03/05 19:59:08","新北市永和區水源街21巷14弄4號","121.511328333333","25.0038833333333","6500400","永和區"
"234011","9373-KE","2018/03/05 19:59:07","新北市永和區仁愛路352巷120號","121.500263333333","25.008435","6500400","永和區"
"249005","172-UM","2018/03/05 19:59:09","新北市八里區楓林路2-2號","121.38316","25.1302933333333","6502300","八里區"
"249001","173-UM","2018/03/05 19:59:00","新北市八里區中華路二段288號","121.404445","25.148845","6502300","八里區"
"249004","303-UY","2018/03/05 19:59:06","新北市八里區中華路一段333-1號","121.412948333333","25.1542033333333","6502300","八里區"
"249003","593-UM","2018/03/05 19:59:01","新北市八里區中華路二段558號","121.398651666667","25.145145","6502300","八里區"
"248016","026-BX","2018/03/05 19:59:06","新北市五股區成泰路三段577巷80弄50號","121.449661666667","25.1048833333333","6501500","五股區"
"248008","095-VK","2018/03/05 19:59:03","新北市五股區四維路30巷18號","121.467973333333","25.071475","6501500","五股區"
"248018","225-UY","2018/03/05 19:59:04","新北市五股區登林路93-20號","121.419138333333","25.0732516666667","6501500","五股區"
"248012","247-BX","2018/03/05 19:59:07","新北市五股區民義路一段84號","121.435983333333","25.0849966666667","6501500","五股區"
"248014","261-SL","2018/03/05 19:59:07","新北市五股區五福路11-6號","121.434186666667","25.0887616666667","6501500","五股區"
"248010","272-BY","2018/03/05 19:58:51","新北市五股區登林路92-5號","121.428526666667","25.069735","6501500","五股區"
"248004","677-BX","2018/03/05 19:59:09","新北市五股區成泰路一段2-12號","121.434668333333","25.0671083333333","6501500","五股區"
"248002","678-BX","2018/03/05 19:59:01","新北市五股區成泰路三段487號","121.450763333333","25.0993566666667","6501500","五股區"
"234023","9380-KE","2018/03/05 19:58:59","新北市永和區中正路700號","121.516311666667","25.0098766666667","6500400","永和區"
"234077","969-R7","2018/03/05 19:59:12","新北市永和區民有街23巷57號","121.517665","24.9974966666667","6500400","永和區"
"234074","AAC-211","2018/03/05 19:59:06","新北市永和區豫溪街162巷1號","121.523763333333","25.009525","6500400","永和區"
"234067","AAC-212","2018/03/05 19:59:11","新北市永和區永貞路331號","121.509731666667","25.006895","6500400","永和區"
"234003","AAC-295","2018/03/05 19:58:56","新北市永和區中正路619號","121.51607","25.0098666666667","6500400","永和區"
"243012","AAD-798","2018/03/05 19:58:58","新北市泰山區全興路87號","121.433213333333","25.057535","6501600","泰山區"
"243011","297-R6","2018/03/05 19:58:57","新北市泰山區明志路三段182巷36號","121.423246666667","25.0394833333333","6501600","泰山區"
"243015","380-SR","2018/03/05 19:59:03","新北市泰山區明志路二段214巷16弄4號","121.426876666667","25.049295","6501600","泰山區"
"243014","421-VK","2018/03/05 19:58:52","新北市泰山區泰林路二段104號","121.434755","25.0590433333333","6501600","泰山區"
"243010","KEA-2215","2018/03/05 19:59:03","新北市泰山區中華街1巷2號","121.428131666667","25.0522933333333","6501600","泰山區"
"243009","KEA-2216","2018/03/05 19:58:51","新北市泰山區泰林路二段164巷37號","121.434178333333","25.0612916666667","6501600","泰山區"
"243013","646-TV","2018/03/05 19:55:16","新北市泰山區應化街13號","121.42382","25.043635","6501600","泰山區"
"243016","680-BX","2018/03/05 19:59:08","新北市泰山區貴鳳街1號","121.421456666667","25.0315266666667","6501600","泰山區"
"222003","436-BY","2018/03/05 19:59:05","新北市深坑區埔新街14號","121.620733333333","25.0039583333333","6501800","深坑區"
"222002","659-BX","2018/03/05 19:58:53","新北市深坑區北深路二段55巷12弄21號","121.618558333333","25.003075","6501800","深坑區"
"231041","002-UM","2018/03/05 19:58:54","新北市新店區中正路416號","121.534265","24.9778283333333","6500600","新店區"
"231059","046-UY","2018/03/05 19:59:10","新北市新店區安康路二段147號","121.511246666667","24.9598283333333","6500600","新店區"
"231061","047-UY","2018/03/05 19:59:01","新北市新店區安興路69號","121.515958333333","24.9750833333333","6500600","新店區"
"231060","106-UY","2018/03/05 19:59:07","新北市新店區安康路二段341巷1號","121.496823333333","24.95525","6500600","新店區"
"231051","107-UY","2018/03/05 19:59:08","新北市新店區中央二街18號","121.528718333333","24.9733866666667","6500600","新店區"
"231052","187-VK","2018/03/05 19:58:56","新北市新店區新烏路三段寶島巷4號","121.551458333333","24.89944","6500600","新店區"
"231050","KEA-2219","2018/03/05 19:59:03","新北市新店區北宜路二段211號","121.553205","24.953345","6500600","新店區"
"221015","KEA-2785","2018/03/05 19:59:08","新北市汐止區橋東街17號","121.666576666667","25.0757216666667","6501100","汐止區"
"231057","256-BX","2018/03/05 19:59:07","新北市新店區花園二路一段11號","121.555486666667","24.9324966666667","6500600","新店區"
"231056","3713-VJ","2018/03/05 19:59:04","新北市新店區民權路28號","121.540948333333","24.9829183333333","6500600","新店區"
"231055","4716-K9","2018/03/05 19:59:04","新北市新店區力行路50號","121.538746666667","24.9654733333333","6500600","新店區"
"231067","4772-VM","2018/03/05 19:58:56","新北市新店區秀山路45巷27號","121.530908333333","24.9597333333333","6500600","新店區"
"231065","512-UM","2018/03/05 19:59:06","新北市新店區安祥路109巷8號","121.475423333333","24.9588266666667","6500600","新店區"
"231054","513-UM","2018/03/05 19:58:50","新北市新店區光明街135號","121.539491666667","24.9619316666667","6500600","新店區"
"231064","515-UM","2018/03/05 19:59:08","新北市新店區碧安街3號","121.516703333333","24.9677283333333","6500600","新店區"
"231040","619-UM","2018/03/05 19:59:07","新北市新店區中正路68號","121.544121666667","24.970155","6500600","新店區"
"231042","641-BX","2018/03/05 19:59:05","新北市新店區中興路二段87號","121.546986666667","24.9713083333333","6500600","新店區"
"231063","645-TV","2018/03/05 19:59:04","新北市新店區黎明路11號","121.50208","24.950005","6500600","新店區"
"231068","718-UY","2018/03/05 19:59:11","新北市新店區安華路28-1號","121.519323333333","24.961035","6500600","新店區"
"231049","719-UM","2018/03/05 19:59:09","新北市新店區明德路38號","121.541471666667","24.9778933333333","6500600","新店區"
"231047","719-UY","2018/03/05 19:59:04","新北市新店區中興路二段196號","121.548576666667","24.97378","6500600","新店區"
"231062","720-UM","2018/03/05 19:58:54","新北市新店區華城路12-1號","121.529155","24.9581416666667","6500600","新店區"
"231044","897-TW","2018/03/05 19:58:52","新北市新店區寶慶街68號","121.541796666667","24.986695","6500600","新店區"
"231045","898-TW","2018/03/05 19:58:57","新北市新店區北宜路二段82-13號","121.554695","24.9535233333333","6500600","新店區"
"231043","899-TW","2018/03/05 19:59:09","新北市新店區中正路263-3號","121.538386666667","24.973795","6500600","新店區"
"231066","AKT-0513","2018/03/05 19:59:08","新北市新店區柴埕路22巷2號","121.513886666667","24.9657666666667","6500600","新店區"
"241011","013-R5","2018/03/05 19:58:53","新北市三重區三和路二段165號","121.498016666667","25.0695616666667","6500200","三重區"
"241028","022-UY","2018/03/05 19:59:03","新北市三重區中正南路40號","121.49379","25.060075","6500200","三重區"
"241008","059-VK","2018/03/05 19:59:09","新北市三重區永福街181號","121.478933333333","25.0750183333333","6500200","三重區"
"241009","060-VK","2018/03/05 19:59:05","新北市三重區三和路四段390巷35號","121.480358333333","25.0786066666667","6500200","三重區"
"241015","062-VK","2018/03/05 19:58:54","新北市三重區三和路二段17號","121.501238333333","25.0668866666667","6500200","三重區"
"241017","063-VK","2018/03/05 19:59:03","新北市三重區重陽路三段99號","121.490435","25.0681866666667","6500200","三重區"
"241024","065-VK","2018/03/05 19:59:01","新北市三重區力行路一段176號","121.482095","25.0714533333333","6500200","三重區"
"241026","066-VK","2018/03/05 19:59:01","新北市三重區中央南路4號","121.501338333333","25.0630116666667","6500200","三重區"
"241002","090-VK","2018/03/05 19:58:53","新北市三重區仁愛街269巷43號","121.494226666667","25.07925","6500200","三重區"
"241003","091-VK","2018/03/05 19:59:09","新北市三重區仁愛街445巷45號","121.491083333333","25.0830666666667","6500200","三重區"
"241030","156-TC","2018/03/05 19:59:09","新北市三重區重新路四段248-1號","121.486198333333","25.053465","6500200","三重區"
"241005","262-UM","2018/03/05 19:58:52","新北市三重區溪尾街327號","121.488206666667","25.0848033333333","6500200","三重區"
"241016","265-UM","2018/03/05 19:58:51","新北市三重區正義北路36巷16號","121.496423333333","25.0633566666667","6500200","三重區"
"241022","267-UM","2018/03/05 19:59:07","新北市三重區過圳街31巷2號","121.489053333333","25.06064","6500200","三重區"
"241018","268-UM","2018/03/05 19:58:51","新北市三重區正義北路244巷93號","121.493565","25.06762","6500200","三重區"
"241032","269-UM","2018/03/05 19:58:58","新北市三重區朝陽街55號","121.483448333333","25.057395","6500200","三重區"
"241025","271-UM","2018/03/05 19:59:05","新北市三重區頂崁街210巷16號","121.476533333333","25.06774","6500200","三重區"
"241007","398-BY","2018/03/05 19:58:54","新北市三重區慈愛街66號","121.487206666667","25.0795266666667","6500200","三重區"
"241020","413-TH","2018/03/05 19:59:07","新北市三重區大智街165巷3號","121.490123333333","25.0725033333333","6500200","三重區"
"241035","462-BY","2018/03/05 19:59:03","新北市三重區大榮街9號","121.498216666667","25.06313","6500200","三重區"
"241001","478-VK","2018/03/05 19:59:07","新北市三重區仁愛街283巷24號","121.493876666667","25.0796733333333","6500200","三重區"
"241014","543-UM","2018/03/05 19:59:08","新北市三重區三和路二段103號","121.499566666667","25.0685133333333","6500200","三重區"
"241023","545-UM","2018/03/05 19:58:58","新北市三重區頂崁街168號","121.47747","25.0658833333333","6500200","三重區"
"241019","KEA-2593","2018/03/05 19:58:59","新北市三重區重陽路四段20-1號","121.491181666667","25.0694583333333","6500200","三重區"
"241006","AAD-863","2018/03/05 19:59:03","新北市三重區力行路二段80號","121.481875","25.07379","6500200","三重區"
"241031","887-TS","2018/03/05 19:59:11","新北市三重區重新路四段184巷16號","121.48708","25.0550083333333","6500200","三重區"
"241012","941-UM","2018/03/05 19:58:56","新北市三重區仁厚街49號","121.500371666667","25.0765533333333","6500200","三重區"
"241029","942-UM","2018/03/05 19:59:06","新北市三重區重新路三段204號","121.490143333333","25.05824","6500200","三重區"
"241033","AAC-255","2018/03/05 19:59:02","新北市三重區中興北街14號","121.469526666667","25.0469966666667","6500200","三重區"
"235066","003-UY","2018/03/05 19:59:08","新北市中和區中山路二段16號","121.504865","25.0055216666667","6500300","中和區"
"235064","005-UY","2018/03/05 19:59:07","新北市中和區南華路41號","121.503633333333","24.9966766666667","6500300","中和區"
"235063","006-UY","2018/03/05 19:58:51","新北市中和區中正路450號","121.490863333333","24.9942416666667","6500300","中和區"
"235056","096-UM","2018/03/05 19:58:59","新北市板橋區漢生東路354號","121.472143333333","25.00719","6500300","中和區"
"235039","097-UM","2018/03/05 19:59:03","新北市中和區大勇街25巷38弄1號","121.515855","24.993715","6500300","中和區"
"235065","098-UM","2018/03/05 19:59:02","新北市中和區福祥路90巷5號","121.499565","25.00586","6500300","中和區"
"235040","150-BY","2018/03/05 19:58:59","新北市中和區保健路8巷3號","121.507863333333","24.9980133333333","6500300","中和區"
"235058","151-BY","2018/03/05 19:58:50","新北市中和區員山路187號","121.481251666667","24.99716","6500300","中和區"
"235055","183-VK","2018/03/05 19:58:51","新北市中和區民生街23巷4弄1號","121.470978333333","25.00503","6500300","中和區"
"235049","186-VK","2018/03/05 19:59:00","新北市中和區景平路516號","121.503426666667","24.9937766666667","6500300","中和區"
"235067","255-BX","2018/03/05 19:58:56","新北市中和區新生街220巷27號","121.48258","24.9985","6500300","中和區"
"235044","293-VK","2018/03/05 19:59:12","新北市中和區中興街106號","121.50029","24.9933316666667","6500300","中和區"
"235043","352-BY","2018/03/05 19:58:59","新北市中和區興南路二段159巷7號","121.505268333333","24.983085","6500300","中和區"
"235068","377-QA","2018/03/05 19:58:56","新北市中和區福美路301巷11號","121.4975","25.00442","6500300","中和區"
"235050","4979-A6","2018/03/05 19:59:03","新北市中和區景平路177號","121.511901666667","24.9924883333333","6500300","中和區"
"235069","4980-A6","2018/03/05 19:58:52","新北市中和區景平路477號","121.500211666667","24.9971183333333","6500300","中和區"
"235054","640-BX","2018/03/05 19:58:54","新北市中和區莒光路160號","121.472678333333","24.99988","6500300","中和區"
"235047","732-UM","2018/03/05 19:59:04","新北市中和區和平街146號","121.506188333333","24.9918466666667","6500300","中和區"
"235046","733-UM","2018/03/05 19:59:10","新北市中和區興南路一段93巷58弄1號","121.510623333333","24.985905","6500300","中和區"
"235057","801-TS","2018/03/05 19:58:57","新北市中和區員山路150-7號","121.481368333333","24.9975","6500300","中和區"
"235052","805-TS","2018/03/05 19:59:00","新北市中和區華新街192巷24號","121.506366666667","24.983135","6500300","中和區"
"235048","896-TW","2018/03/05 19:59:08","新北市中和區景新街378號","121.512328333333","24.9901516666667","6500300","中和區"
"235053","900-TW","2018/03/05 19:59:09","新北市中和區民德路266號","121.46802","24.99664","6500300","中和區"
"235070","911-UM","2018/03/05 19:59:00","新北市中和區景平路634-1號","121.500046666667","24.9980566666667","6500300","中和區"
"235051","157-BY","2018/03/05 19:59:00","新北市中和區復興路337號","121.500041666667","24.9902666666667","6500300","中和區"
"235037","AAC-213","2018/03/05 19:58:53","新北市中和區自立路18號","121.522171666667","24.9935683333333","6500300","中和區"
"235059","AAC-215","2018/03/05 19:59:09","新北市中和區圓通路335巷3弄20號","121.493421666667","24.9902433333333","6500300","中和區"
"220068","013-TV","2018/03/05 19:59:07","新北市板橋區光復街202巷6-1號","121.485975","25.0202516666667","6500100","板橋區"
"220065","072-UY","2018/03/05 19:59:11","新北市板橋區長安街5號","121.466183333333","25.00866","6500100","板橋區"
"220067","075-UY","2018/03/05 19:58:58","新北市板橋區長安街138巷1弄5號","121.473036666667","25.0096966666667","6500100","板橋區"
"220069","AAD-861","2018/03/05 19:59:09","新北市板橋區大明街20巷19弄16號","121.458023333333","25.0032866666667","6500100","板橋區"
"247024","893-R6","2018/03/05 19:58:55","新北市蘆洲區光榮路120巷23號","121.465676666667","25.088235","6501400","蘆洲區"
"247014","546-UM","2018/03/05 19:59:03","新北市蘆洲區成功路123號","121.47234","25.0821516666667","6501400","蘆洲區"
"247012","339-TH","2018/03/05 19:58:50","新北市蘆洲區民族路155號","121.479481666667","25.0880383333333","6501400","蘆洲區"
"247004","337-TH","2018/03/05 19:59:00","新北市蘆洲區中原路85號","121.457996666667","25.0815533333333","6501400","蘆洲區"
"247006","336-TH","2018/03/05 19:59:01","新北市蘆洲區九芎街115號","121.465543333333","25.0795266666667","6501400","蘆洲區"
"247018","335-TH","2018/03/05 19:59:04","新北市蘆洲區民族路278號","121.478243333333","25.0893833333333","6501400","蘆洲區"
"247008","056-VK","2018/03/05 19:59:03","新北市蘆洲區信義路73巷9-1號","121.476058333333","25.0804416666667","6501400","蘆洲區"
"247010","053-VK","2018/03/05 19:58:52","新北市三重區集賢路188號","121.483931666667","25.0881033333333","6501400","蘆洲區"
"247016","007-UY","2018/03/05 19:58:52","新北市蘆洲區中正路107號","121.469693333333","25.0842866666667","6501400","蘆洲區"
"247002","002-UY","2018/03/05 19:59:07","新北市蘆洲區長安街272號","121.457361666667","25.086925","6501400","蘆洲區"
"247020","001-UY","2018/03/05 19:59:09","新北市蘆洲區民義街70號","121.4731","25.0899083333333","6501400","蘆洲區"
"226004","205-ST","2018/03/05 19:58:53","新北市平溪區南山里南山坪94號","121.777105","25.0414133333333","6502400","平溪區"
"235041","251-BX","2018/03/05 19:58:56","新北市中和區中安街166號","121.510871666667","25.000065","6500300","中和區"
"228003","097-TW","2018/03/05 19:58:52","新北市貢寮區仁理村仁和路226號","121.923895","25.0535883333333","6502600","貢寮區"
"224011","AGQ-8101","2018/03/05 19:57:59","新北市瑞芳區烏勢巷137號","121.846828333333","25.107595","6501200","瑞芳區"
"224002","639-TC","2018/03/05 19:59:00","新北市瑞芳區員山子路員山巷20-1號","121.816661666667","25.1039183333333","6501200","瑞芳區"
"227008","642-TC","2018/03/05 19:58:50","新北市雙溪區新基里新基南街25號","121.86626","25.038165","6502500","雙溪區"
"227001","400-TW","2018/03/05 19:58:55","新北市雙溪區雙溪里長安街16號","121.864961666667","25.0347","6502500","雙溪區"
"222001","KEA-2212","2018/03/05 19:58:54","新北市深坑區北深路三段129號","121.604063333333","25.0024383333333","6501800","深坑區"
"208002","KEA-2872","2018/03/05 19:58:51","新北市金山區中華路360號","121.632885","25.22384","6502700","金山區"
"208003","665-BX","2018/03/05 19:59:10","新北市金山區永興里跳石4號","121.633481666667","25.256585","6502700","金山區"
"208001","761-BX","2018/03/05 19:59:06","新北市金山區重和里茅埔頭5-1號","121.60414","25.2169416666667","6502700","金山區"
"251009","008-UM","2018/03/05 19:58:53","新北市淡水區英專路28巷2弄6號","121.44585","25.1698366666667","6501000","淡水區"
"251004","009-UM","2018/03/05 19:59:04","新北市淡水區民權路177巷11號","121.460731666667","25.1352183333333","6501000","淡水區"
"251005","010-UM","2018/03/05 19:58:58","新北市淡水區學府路136巷38號","121.452008333333","25.1726133333333","6501000","淡水區"
"251013","179-VK","2018/03/05 19:58:55","新北市淡水區頂田寮路39號","121.45601","25.2160933333333","6501000","淡水區"
"251014","180-VK","2018/03/05 19:58:56","新北市淡水區石頭厝3-2號","121.459145","25.2351933333333","6501000","淡水區"
"251008","181-VK","2018/03/05 19:59:12","新北市淡水區淡海路63巷10-1號","121.422756666667","25.180795","6501000","淡水區"
"251015","182-VK","2018/03/05 19:59:10","新北市淡水區商工路149號","121.447371666667","25.1888133333333","6501000","淡水區"
"251012","441-VK","2018/03/05 19:59:09","新北市淡水區下圭柔山109-1號","121.444055","25.2110433333333","6501000","淡水區"
"251016","442-VK","2018/03/05 19:58:53","新北市淡水區淡金路552-1號","121.45182","25.227395","6501000","淡水區"
"251006","561-UM","2018/03/05 19:59:08","新北市淡水區水碓街57號","121.444421666667","25.1773616666667","6501000","淡水區"
"251011","650-BX","2018/03/05 19:59:06","新北市淡水區崁頂55-3號","121.442288333333","25.196865","6501000","淡水區"
"251002","672-BX","2018/03/05 19:59:03","新北市淡水區沙崙路129號","121.422536666667","25.1823766666667","6501000","淡水區"
"207003","550-UM","2018/03/05 19:59:11","新北市萬里區大鵬里萬里加投42-3號","121.639675","25.2085933333333","6502800","萬里區"
"207004","225-TW","2018/03/05 19:59:07","新北市萬里區北基里忠二街35號","121.685638333333","25.175715","6502800","萬里區"
"252002","178-VK","2018/03/05 19:58:51","新北市三芝區三民街39巷5號","121.505423333333","25.2576016666667","6502100","三芝區"
"252001","292-VK","2018/03/05 19:59:02","新北市三芝區公正街66號","121.499753333333","25.2574533333333","6502100","三芝區"
"237004","KEA-2597","2018/03/05 19:59:09","新北市三峽區添福15-5號","121.372038333333","24.905855","6500900","三峽區"
"237007","153-BY","2018/03/05 19:59:01","新北市三峽區二鬮路136巷22弄41號","121.357366666667","24.9102116666667","6500900","三峽區"
"237009","210-TH","2018/03/05 19:59:04","新北市三峽區中園街13-1號","121.368615","24.9270783333333","6500900","三峽區"
"237012","275-BY","2018/03/05 19:59:05","新北市三峽區中華路3巷2號","121.37471","24.93253","6500900","三峽區"
"237008","302-VK","2018/03/05 19:59:12","新北市三峽區中華路136號","121.370801666667","24.927205","6500900","三峽區"
"237014","433-BY","2018/03/05 19:58:58","新北市三峽區添福107-18號","121.373741666667","24.9020616666667","6500900","三峽區"
"237006","5529-G3","2018/03/05 19:59:03","新北市三峽區中正路二段176巷24號","121.365271666667","24.91475","6500900","三峽區"
"237016","649-BX","2018/03/05 19:59:08","新北市三峽區介壽路二段138巷1弄21號","121.396563333333","24.9335066666667","6500900","三峽區"
"237005","AKY-6261","2018/03/05 19:59:01","新北市三峽區民生街1巷29號","121.382913333333","24.933455","6500900","三峽區"
"236069","105-UM","2018/03/05 19:59:00","新北市土城區忠義路77-1號","121.442756666667","24.9652883333333","6501300","土城區"
"236042","107-UM","2018/03/05 19:59:01","新北市土城區學府路一段143巷16號","121.454025","24.9856183333333","6501300","土城區"
"236078","166-UM","2018/03/05 19:59:08","新北市土城區中央路四段464號","121.409675","24.9503616666667","6501300","土城區"
"236030","253-BX","2018/03/05 19:59:09","新北市土城區中央路一段250巷1號","121.4442","24.984675","6501300","土城區"
"236026","269-VK","2018/03/05 19:58:56","新北市土城區員林街1號","121.442358333333","24.97822","6501300","土城區"
"236036","271-VK","2018/03/05 19:59:08","新北市土城區國際路139巷52號","121.46837","24.9775133333333","6501300","土城區"
"236020","401-BY","2018/03/05 19:59:03","新北市土城區延吉街137巷2弄24號","121.469996666667","24.9857316666667","6501300","土城區"
"236058","912-UM","2018/03/05 19:58:58","新北市土城區中央路一段205號","121.445841666667","24.986765","6501300","土城區"
"236048","913-UM","2018/03/05 19:59:06","新北市土城區金城路三段269號","121.472591666667","24.9902616666667","6501300","土城區"
"236062","915-UM","2018/03/05 19:59:06","新北市土城區延和路64號","121.465808333333","24.9889383333333","6501300","土城區"
"236053","AAC-216","2018/03/05 19:58:53","新北市土城區金城路三段33巷20號","121.465118333333","24.9874183333333","6501300","土城區"
"242029","986-R7","2018/03/05 19:59:09","新北市新莊區中榮街152巷48號","121.445318333333","25.0537716666667","6500500","新莊區"
"242025","615-BX","2018/03/05 19:59:07","新北市新莊區五工二路86巷35號","121.460535","25.0673333333333","6500500","新莊區"
"242023","613-BX","2018/03/05 19:59:06","新北市新莊區化成路374號","121.465846666667","25.0498266666667","6500500","新莊區"
"242027","612-BX","2018/03/05 19:59:00","新北市新莊區立信一街60號","121.443048333333","25.049785","6500500","新莊區"
"242039","566-BX","2018/03/05 19:59:07","新北市新莊區民安路299巷20號","121.429296666667","25.022985","6500500","新莊區"
"242044","497-BY","2018/03/05 19:59:07","新北市新莊區中正路746巷43-3號","121.412005","25.0242766666667","6500500","新莊區"
"242048","441-UM","2018/03/05 19:58:57","新北市新莊區民安路201號","121.42638","25.0224516666667","6500500","新莊區"
"242053","440-UM","2018/03/05 19:59:04","新北市新莊區民安西路390號","121.428318333333","25.010475","6500500","新莊區"
"242034","415-TV","2018/03/05 19:59:08","新北市新莊區建中街114號","121.445791666667","25.0365416666667","6500500","新莊區"
"242004","413-TV","2018/03/05 19:59:10","新北市新莊區化成路316號","121.465685","25.04837","6500500","新莊區"
"242042","400-BY","2018/03/05 19:58:58","新北市新莊區青山路一段63號","121.406691666667","25.0280866666667","6500500","新莊區"
"242060","362-BY","2018/03/05 19:58:59","新北市新莊區瓊林路72-1號","121.445093333333","25.028645","6500500","新莊區"
"242058","353-BY","2018/03/05 19:58:57","新北市新莊區八德街115號","121.424071666667","25.0208516666667","6500500","新莊區"
"242007","132-UY","2018/03/05 19:58:54","新北市新莊區思源路593巷13號","121.458768333333","25.0595716666667","6500500","新莊區"
"242036","133-UY","2018/03/05 19:58:58","新北市新莊區建安街71巷17號","121.428171666667","25.024535","6500500","新莊區"
"242021","135-UY","2018/03/05 19:59:09","新北市新莊區建中街48巷8弄11號","121.448656666667","25.0383916666667","6500500","新莊區"
"242009","173-VK","2018/03/05 19:58:50","新北市新莊區幸福路786號","121.446733333333","25.049125","6500500","新莊區"
"242002","176-VK","2018/03/05 19:58:58","新北市新莊區中正路219號","121.450923333333","25.035725","6500500","新莊區"
"242013","346-TH","2018/03/05 19:58:53","新北市新莊區幸福路670巷2弄1號","121.45105","25.0495533333333","6500500","新莊區"
"242019","348-TH","2018/03/05 19:59:04","新北市新莊區民生街19號","121.456015","25.0421883333333","6500500","新莊區"
"242056","349-TH","2018/03/05 19:58:54","新北市新莊區新豐街20巷11號","121.447645","25.034385","6500500","新莊區"
"242017","350-TH","2018/03/05 19:59:01","新北市新莊區中港路328號","121.452556666667","25.0458233333333","6500500","新莊區"
"238015","755-BX","2018/03/05 19:59:13","新北市樹林區中山路三段176號","121.388415","24.969705","6500700","樹林區"
"238023","601-UM","2018/03/05 19:59:08","新北市樹林區中正路345-2號","121.420158333333","25.00572","6500700","樹林區"
"238021","KEA-2539","2018/03/05 19:58:55","新北市樹林區田尾街133巷1-28號","121.404888333333","24.9537516666667","6500700","樹林區"
"238025","303-VK","2018/03/05 19:58:53","新北市樹林區中山路三段210-2號","121.380635","24.96614","6500700","樹林區"
"238017","283-BY","2018/03/05 19:59:01","新北市樹林區保安街二段45巷21弄7號","121.414848333333","24.99987","6500700","樹林區"
"239006","891-R6","2018/03/05 19:58:57","新北市鶯歌區尖山埔路146號","121.343385","24.9497816666667","6500800","鶯歌區"
"221008","489-VK","2018/03/05 19:59:00","台北市內湖區康樂街72巷1號","121.618638333333","25.0694083333333","6501100","汐止區"
"221036","130-UY","2018/03/05 19:59:09","新北市汐止區新台五路二段85巷16號","121.664321666667","25.0673916666667","6501100","汐止區"
"221010","269-BY","2018/03/05 19:58:56","新北市汐止區連峰街227號","121.645035","25.0813333333333","6501100","汐止區"
"221012","278-VK","2018/03/05 19:59:09","新北市汐止區大同路三段331號","121.674913333333","25.0737583333333","6501100","汐止區"
"221023","279-VK","2018/03/05 19:59:09","新北市汐止區中興路278號","121.628631666667","25.0692233333333","6501100","汐止區"
"221032","280-BY","2018/03/05 19:58:50","新北市汐止區橫科路4巷1弄10號","121.617868333333","25.0508","6501100","汐止區"
"221027","281-BY","2018/03/05 19:58:56","新北市汐止區中正路76號","121.661531666667","25.069615","6501100","汐止區"
"221029","298-VK","2018/03/05 19:59:02","新北市汐止區樟樹一路137巷26號","121.640995","25.0659966666667","6501100","汐止區"
"221021","299-VK","2018/03/05 19:58:59","新北市汐止區青山路17號","121.656115","25.0620233333333","6501100","汐止區"
"221031","353-TW","2018/03/05 19:58:56","新北市汐止區福德一路181號","121.635805","25.0659766666667","6501100","汐止區"
"221035","622-UM","2018/03/05 19:58:55","新北市汐止區長江街13巷6弄19號","121.6554","25.071885","6501100","汐止區"
"221025","623-UM","2018/03/05 19:59:06","新北市汐止區秀峰路107號","121.660241666667","25.0633616666667","6501100","汐止區"
"221038","646-BX","2018/03/05 19:59:01","新北市汐止區忠孝東路428-3號","121.666045","25.0721266666667","6501100","汐止區"
"221033","647-BX","2018/03/05 19:58:57","新北市汐止區東勢街201巷104號","121.633473333333","25.0429116666667","6501100","汐止區"
"221018","753-BX","2018/03/05 19:59:12","新北市汐止區忠孝東路357號","121.665525","25.0706683333333","6501100","汐止區"
"220079","145-BY","2018/03/05 19:59:01","新北市板橋區南雅西路二段277號","121.451896666667","25.015235","6500100","板橋區"
"220080","200-UY","2018/03/05 19:59:08","新北市板橋區大觀路二段179巷25號","121.446015","24.9997533333333","6500100","板橋區"
"220106","KEA-2550","2018/03/05 19:59:02","新北市板橋區民治街42巷10號","121.478721666667","25.0335483333333","6500100","板橋區"
"220082","610-BX","2018/03/05 19:59:08","新北市板橋區溪崑二街48號","121.428201666667","24.9907633333333","6500100","板橋區"
"220072","277-BY","2018/03/05 19:58:55","新北市板橋區金門街127巷11號","121.433481666667","24.9913","6500100","板橋區"
"220101","280-UM","2018/03/05 19:58:56","新北市板橋區縣民大道三段103巷16號","121.475495","25.022805","6500100","板橋區"
"220057","282-UM","2018/03/05 19:58:53","新北市板橋區信義路13號","121.457035","24.9968433333333","6500100","板橋區"
"220071","283-VK","2018/03/05 19:59:00","新北市板橋區五權街32巷7-4號","121.464588333333","24.9930616666667","6500100","板橋區"
"220094","285-UM","2018/03/05 19:59:04","新北市板橋區文德路11號","121.462671666667","25.0243266666667","6500100","板橋區"
"220053","285-VK","2018/03/05 19:59:04","新北市板橋區中山路二段90巷2號","121.475305","25.0161833333333","6500100","板橋區"
"220083","286-VK","2018/03/05 19:59:05","新北市板橋區僑中二街26號","121.445876666667","25.01074","6500100","板橋區"
"220081","287-VK","2018/03/05 19:59:01","新北市板橋區大觀路一段28巷71號","121.449741666667","25.011015","6500100","板橋區"
"220061","293-UM","2018/03/05 19:59:08","新北市板橋區觀光街5號","121.471761666667","25.0159066666667","6500100","板橋區"
"220084","296-UM","2018/03/05 19:59:09","新北市板橋區溪崑二街103巷7號","121.427065","24.9888416666667","6500100","板橋區"
"242015","281-VK","2018/03/05 19:58:52","新北市新莊區泰順街33巷2號","121.4462","25.0424883333333","6500500","新莊區"
"220075","303-R5","2018/03/05 19:59:10","新北市板橋區大勇街4巷1號","121.454806666667","25.0173833333333","6500100","板橋區"
"220062","305-R5","2018/03/05 19:58:58","新北市板橋區光復街33巷6號","121.481865","25.0189316666667","6500100","板橋區"
"220092","307-R5","2018/03/05 19:59:08","新北市板橋區四維路259巷85號","121.460158333333","25.0264166666667","6500100","板橋區"
"220098","317-R6","2018/03/05 19:59:08","新北市板橋區英士路192-1號","121.458461666667","25.023495","6500100","板橋區"
"220064","486-VK","2018/03/05 19:59:05","新北市板橋區海山路53號","121.466865","25.0103416666667","6500100","板橋區"
"220089","487-VK","2018/03/05 19:58:55","新北市板橋區新海路403巷18號","121.457743333333","25.0264","6500100","板橋區"
"242031","280-VK","2018/03/05 19:59:11","新北市新莊區忠孝街18號","121.443928333333","25.0350283333333","6500500","新莊區"
"220088","491-VK","2018/03/05 19:58:54","新北市板橋區文化路二段382號","121.473253333333","25.0309416666667","6500100","板橋區"
"220035","560-BX","2018/03/05 19:59:04","新北市板橋區新生街23巷10號","121.456193333333","25.0216716666667","6500100","板橋區"
"220103","561-BX","2018/03/05 19:58:56","新北市板橋區陽明街29巷1弄4號","121.4649","25.021475","6500100","板橋區"
"220055","568-UM","2018/03/05 19:59:03","新北市板橋區仁愛路62巷14弄1號","121.459915","24.99844","6500100","板橋區"
"220091","637-BX","2018/03/05 19:59:05","新北市板橋區文聖街101巷10號","121.478125","25.029655","6500100","板橋區"
"220093","689-BX","2018/03/05 19:59:09","新北市板橋區文化路二段505巷7號","121.475831666667","25.03461","6500100","板橋區"
"220054","741-BX","2018/03/05 19:59:05","新北市板橋區忠孝路忠義巷21弄2號","121.466923333333","25.003975","6500100","板橋區"
"220102","KEA-2699","2018/03/05 19:59:08","新北市板橋區仁化街61號","121.47546","25.0317716666667","6500100","板橋區"
"220090","830-TW","2018/03/05 19:59:02","新北市板橋區綠堤街27號","121.455815","25.0264716666667","6500100","板橋區"
"220096","831-TW","2018/03/05 19:59:05","新北市板橋區莒光路16巷20號","121.469476666667","25.02421","6500100","板橋區"
"220074","895-R6","2018/03/05 19:58:56","新北市板橋區文化路一段46巷16號","121.4601","25.0116283333333","6500100","板橋區"
"220073","985-R7","2018/03/05 19:59:08","新北市板橋區南雅西路二段188號","121.451595","25.0143183333333","6500100","板橋區"
"220097","AAC-210","2018/03/05 19:59:07","新北市板橋區光正街11-2號","121.462665","25.017085","6500100","板橋區"
"220070","AAC-253","2018/03/05 19:58:58","新北市板橋區成都街10號","121.460255","25.0046883333333","6500100","板橋區"
