"lineid","car","time","location","longitude","latitude","cityid","cityname"
"234081","298-R6","2018/03/05 20:29:37","新北市永和區永貞路82號","121.520165","25.0050666666667","6500400","永和區"
"234038","336-UY","2018/03/05 20:29:30","新北市永和區民樂街31巷10弄12號","121.528911666667","25.00086","6500400","永和區"
"234064","337-UY","2018/03/05 20:29:34","新北市永和區中正路433號","121.517121666667","25.0050966666667","6500400","永和區"
"234086","338-UY","2018/03/05 20:29:28","新北市永和區光復街21號","121.516511666667","25.01742","6500400","永和區"
"234070","552-UM","2018/03/05 20:29:27","新北市永和區永寧街95號","121.51865","25.0066466666667","6500400","永和區"
"234030","746-BX","2018/03/05 20:29:22","新北市中和區立人街8-4號","121.519575","24.9941666666667","6500400","永和區"
"234054","KEA-2590","2018/03/05 20:29:31","新北市永和區環河東路一段82號","121.519601666667","25.01645","6500400","永和區"
"234061","AAD-866","2018/03/05 20:29:26","新北市永和區安樂路194巷12號","121.516285","25.000835","6500400","永和區"
"234042","862-TW","2018/03/05 20:29:38","新北市永和區安樂路320號","121.514413333333","25.0055933333333","6500400","永和區"
"234050","863-TW","2018/03/05 20:29:42","新北市永和區新生路191號","121.506801666667","25.0142266666667","6500400","永和區"
"249001","173-UM","2018/03/05 20:29:40","新北市八里區中山路三段227號","121.381921666667","25.14052","6502300","八里區"
"249004","303-UY","2018/03/05 20:29:26","新北市八里區中山路一段129巷37號","121.414026666667","25.1584883333333","6502300","八里區"
"249003","593-UM","2018/03/05 20:29:22","新北市八里區舊城路21號","121.399876666667","25.1469233333333","6502300","八里區"
"234023","9380-KE","2018/03/05 20:29:18","新北市永和區博愛街32巷17-1號","121.518953333333","25.015265","6500400","永和區"
"234077","969-R7","2018/03/05 20:29:36","新北市中和區安樂路37號","121.51186","24.99303","6500400","永和區"
"234074","AAC-211","2018/03/05 20:29:26","新北市永和區福和路1號","121.52505","25.008995","6500400","永和區"
"234067","AAC-212","2018/03/05 20:29:36","新北市永和區保平路292巷46弄2號","121.507493333333","25.005305","6500400","永和區"
"243012","AAD-798","2018/03/05 20:29:38","新北市泰山區泰林路二段330號","121.430023333333","25.0632383333333","6501600","泰山區"
"243011","297-R6","2018/03/05 20:29:38","新北市泰山區明志路三段44號","121.42483","25.0425383333333","6501600","泰山區"
"243015","380-SR","2018/03/05 20:29:23","新北市泰山區仁德路105號","121.433111666667","25.0562616666667","6501600","泰山區"
"243014","421-VK","2018/03/05 20:29:30","新北市泰山區泰林路二段2-9號","121.419856666667","25.0650533333333","6501600","泰山區"
"243010","KEA-2215","2018/03/05 20:29:24","新北市泰山區新生路33-9號","121.427726666667","25.04584","6501600","泰山區"
"243009","KEA-2216","2018/03/05 20:29:31","新北市泰山區忠孝街41巷1號","121.428441666667","25.06538","6501600","泰山區"
"243016","680-BX","2018/03/05 20:29:41","新北市泰山區明志路二段308號","121.42641","25.0462383333333","6501600","泰山區"
"222003","436-BY","2018/03/05 20:29:26","新北市深坑區深坑街27號","121.615923333333","25.0023533333333","6501800","深坑區"
"222002","659-BX","2018/03/05 20:27:53","新北市深坑區萬福路18號","121.602431666667","25.0083866666667","6501800","深坑區"
"231041","002-UM","2018/03/05 20:29:34","新北市新店區中正路501-4號","121.533573333333","24.9838166666667","6500600","新店區"
"231059","046-UY","2018/03/05 20:29:30","新北市新店區安豐路49號","121.500031666667","24.95491","6500600","新店區"
"231061","047-UY","2018/03/05 20:29:20","新北市新店區新和街34號","121.519128333333","24.984765","6500600","新店區"
"231060","106-UY","2018/03/05 20:29:27","新北市新店區錦秀路72巷2號","121.478813333333","24.942115","6500600","新店區"
"231051","107-UY","2018/03/05 20:29:28","新北市新店區中央七街73號","121.527458333333","24.9766066666667","6500600","新店區"
"231052","187-VK","2018/03/05 20:29:37","新北市新店區松林路36號","121.546208333333","24.9102433333333","6500600","新店區"
"231050","KEA-2219","2018/03/05 20:29:30","新北市新店區建興街4號","121.540035","24.9764966666667","6500600","新店區"
"221015","KEA-2785","2018/03/05 20:29:28","新北市汐止區建成路142巷19弄17號","121.661825","25.07385","6501100","汐止區"
"231057","256-BX","2018/03/05 20:29:27","新北市新店區花園五路二段3號","121.55358","24.9342416666667","6500600","新店區"
"231058","3712-VJ","2018/03/05 20:29:33","新北市新店區自由街43號","121.534571666667","24.9738516666667","6500600","新店區"
"231056","3713-VJ","2018/03/05 20:29:25","新北市新店區中正路309號","121.536658333333","24.974965","6500600","新店區"
"231065","512-UM","2018/03/05 20:29:27","新北市新店區安祥路102巷46弄80號","121.487275","24.9631266666667","6500600","新店區"
"231054","513-UM","2018/03/05 20:29:30","新北市新店區檳榔路109號","121.544426666667","24.961655","6500600","新店區"
"231064","515-UM","2018/03/05 20:29:28","新北市新店區安和路三段99號","121.517785","24.9843133333333","6500600","新店區"
"231040","619-UM","2018/03/05 20:29:39","新北市新店區中正路282-10號","121.53796","24.9741816666667","6500600","新店區"
"231042","641-BX","2018/03/05 20:29:25","新北市新店區寶高路120巷1號","121.554613333333","24.9760466666667","6500600","新店區"
"231063","645-TV","2018/03/05 20:29:30","新北市新店區安康路三段51號","121.492435","24.9523316666667","6500600","新店區"
"231068","718-UY","2018/03/05 20:29:31","新北市新店區中興路三段221號","121.543221666667","24.98288","6500600","新店區"
"231049","719-UM","2018/03/05 20:29:28","新北市新店區永業路81巷7弄1號","121.530473333333","24.9487666666667","6500600","新店區"
"231047","719-UY","2018/03/05 20:29:24","新北市新店區寶慶街58巷21-1號","121.541991666667","24.987245","6500600","新店區"
"231062","720-UM","2018/03/05 20:29:35","新北市新店區安泰路60巷134弄44號","121.484115","24.9440366666667","6500600","新店區"
"231044","897-TW","2018/03/05 20:29:32","新北市新店區建國路172-2號","121.538266666667","24.97975","6500600","新店區"
"231045","898-TW","2018/03/05 20:29:37","新北市新店區新坡一街18巷6弄36號","121.54849","24.95964","6500600","新店區"
"231043","899-TW","2018/03/05 20:29:33","新北市新店區建國路104號","121.539881666667","24.9778583333333","6500600","新店區"
"231066","AKT-0513","2018/03/05 20:29:28","新北市新店區安民街341-1號","121.516726666667","24.9748466666667","6500600","新店區"
"241011","013-R5","2018/03/05 20:29:33","新北市三重區龍門路52號","121.496485","25.0725383333333","6500200","三重區"
"241028","022-UY","2018/03/05 20:29:23","新北市三重區光興街93號","121.497323333333","25.0598783333333","6500200","三重區"
"241008","059-VK","2018/03/05 20:29:29","新北市三重區下竹圍街42號","121.481041666667","25.0748633333333","6500200","三重區"
"241009","060-VK","2018/03/05 20:29:25","新北市三重區永福街44號","121.482215","25.078165","6500200","三重區"
"241015","062-VK","2018/03/05 20:29:34","新北市三重區文化北路90號","121.498721666667","25.0657983333333","6500200","三重區"
"241017","063-VK","2018/03/05 20:29:24","新北市三重區自強路一段207號","121.49159","25.0684416666667","6500200","三重區"
"241024","065-VK","2018/03/05 20:29:21","新北市三重區三民街259號","121.479486666667","25.0677116666667","6500200","三重區"
"241026","066-VK","2018/03/05 20:29:41","新北市三重區福德南路56號","121.503251666667","25.0619683333333","6500200","三重區"
"241002","090-VK","2018/03/05 20:29:33","新北市三重區仁義街211巷13號","121.49742","25.08206","6500200","三重區"
"241003","091-VK","2018/03/05 20:29:29","新北市三重區富華街176號","121.492798333333","25.0847533333333","6500200","三重區"
"241030","156-TC","2018/03/05 20:29:28","新北市三重區成功路70號","121.488471666667","25.0509716666667","6500200","三重區"
"241005","262-UM","2018/03/05 20:29:32","新北市三重區碧華街317號","121.491066666667","25.0841483333333","6500200","三重區"
"241016","265-UM","2018/03/05 20:29:31","新北市三重區正義北路190巷1號","121.496143333333","25.0668333333333","6500200","三重區"
"241022","267-UM","2018/03/05 20:29:27","新北市三重區中正北路20巷2號","121.488135","25.06284","6500200","三重區"
"241018","268-UM","2018/03/05 20:29:31","新北市三重區自強路一段155-1號","121.493691666667","25.067265","6500200","三重區"
"241032","269-UM","2018/03/05 20:29:38","新北市三重區重陽路一段120巷48號","121.485046666667","25.0601683333333","6500200","三重區"
"241013","270-UM","2018/03/05 20:29:31","新北市三重區三和路三段167巷2號","121.492015","25.0741716666667","6500200","三重區"
"241025","271-UM","2018/03/05 20:29:25","新北市三重區頂崁街210巷23弄1號","121.475871666667","25.0681316666667","6500200","三重區"
"241007","398-BY","2018/03/05 20:29:34","新北市三重區自強路四段46號","121.489495","25.0776133333333","6500200","三重區"
"241020","413-TH","2018/03/05 20:29:27","新北市三重區三和路三段140號","121.493343333333","25.07237","6500200","三重區"
"241035","462-BY","2018/03/05 20:29:23","新北市三重區正義北路104號","121.496948333333","25.0650333333333","6500200","三重區"
"241004","475-VK","2018/03/05 20:29:23","新北市三重區溪尾街165巷24號","121.490026666667","25.0803816666667","6500200","三重區"
"241001","478-VK","2018/03/05 20:29:27","新北市三重區自強路四段28號","121.488816666667","25.0766033333333","6500200","三重區"
"241014","543-UM","2018/03/05 20:29:28","新北市三重區長興街92號","121.501648333333","25.0692033333333","6500200","三重區"
"241023","545-UM","2018/03/05 20:29:38","新北市三重區自由街17巷1號","121.47988","25.0665533333333","6500200","三重區"
"241019","KEA-2593","2018/03/05 20:29:30","新北市三重區忠孝路一段2號","121.492531666667","25.0716916666667","6500200","三重區"
"241031","887-TS","2018/03/05 20:29:30","新北市三重區三寧街18號","121.489413333333","25.0598916666667","6500200","三重區"
"241012","941-UM","2018/03/05 20:29:36","新北市三重區龍濱路172號","121.501398333333","25.07277","6500200","三重區"
"241029","942-UM","2018/03/05 20:29:26","新北市三重區集美街205號","121.491736666667","25.0544683333333","6500200","三重區"
"241033","AAC-255","2018/03/05 20:29:39","新北市三重區五谷王北街151號","121.476126666667","25.0523516666667","6500200","三重區"
"235039","097-UM","2018/03/05 20:29:42","新北市中和區大勇街29巷12號","121.515938333333","24.9945466666667","6500300","中和區"
"235065","098-UM","2018/03/05 20:29:22","新北市中和區永和路128巷9號","121.497608333333","25.0069416666667","6500300","中和區"
"235050","4979-A6","2018/03/05 20:29:03","新北市中和區景新街160巷8-1號","121.505276666667","24.9970483333333","6500300","中和區"
"235069","4980-A6","2018/03/05 20:29:33","新北市中和區中正路432巷24號","121.49106","24.9954116666667","6500300","中和區"
"235026","800-TS","2018/03/05 20:29:35","新北市中和區員山路36巷16-3號","121.48459","24.99119","6500300","中和區"
"235059","AAC-215","2018/03/05 20:29:29","新北市中和區員山路32號","121.48113","24.9876683333333","6500300","中和區"
"220069","AAD-861","2018/03/05 20:29:31","新北市五股區新五路二段129-1號","121.43814","25.07799","6500100","板橋區"
"247024","893-R6","2018/03/05 20:29:35","新北市蘆洲區光復路70巷23號","121.464881666667","25.085055","6501400","蘆洲區"
"247014","546-UM","2018/03/05 20:29:43","新北市蘆洲區中山二路109號","121.472498333333","25.0817366666667","6501400","蘆洲區"
"247022","500-BY","2018/03/05 20:29:31","新北市蘆洲區民族路586號","121.466838333333","25.0884466666667","6501400","蘆洲區"
"247012","339-TH","2018/03/05 20:29:30","新北市蘆洲區復興路239號","121.480353333333","25.0898066666667","6501400","蘆洲區"
"247004","337-TH","2018/03/05 20:29:40","新北市蘆洲區長安街299巷12號","121.457313333333","25.0846766666667","6501400","蘆洲區"
"247006","336-TH","2018/03/05 20:29:40","新北市蘆洲區和平路121巷14弄38號","121.466068333333","25.0801983333333","6501400","蘆洲區"
"247018","335-TH","2018/03/05 20:29:24","新北市蘆洲區民族路327巷46號","121.474648333333","25.0908016666667","6501400","蘆洲區"
"247008","056-VK","2018/03/05 20:29:23","新北市蘆洲區重陽二街21-1號","121.482716666667","25.084635","6501400","蘆洲區"
"247010","053-VK","2018/03/05 20:29:32","新北市蘆洲區信義路222巷34弄2號","121.480675","25.08542","6501400","蘆洲區"
"247016","007-UY","2018/03/05 20:29:32","新北市蘆洲區光華路94號","121.467605","25.0826","6501400","蘆洲區"
"247002","002-UY","2018/03/05 20:29:33","新北市蘆洲區環堤大道122號","121.455428333333","25.087325","6501400","蘆洲區"
"247020","001-UY","2018/03/05 20:29:29","新北市蘆洲區仁愛街122號","121.469488333333","25.0946516666667","6501400","蘆洲區"
"222001","KEA-2212","2018/03/05 20:29:34","新北市深坑區北深路三段327號","121.597475","25.0051583333333","6501800","深坑區"
"251001","011-UM","2018/03/05 20:29:23","新北市淡水區中山北路三段138號","121.444656666667","25.1949416666667","6501000","淡水區"
"251013","179-VK","2018/03/05 20:29:35","新北市淡水區後坑子6號","121.463695","25.2066116666667","6501000","淡水區"
"251014","180-VK","2018/03/05 20:29:36","新北市淡水區石頭厝8-2號","121.459938333333","25.2372816666667","6501000","淡水區"
"251008","181-VK","2018/03/05 20:29:32","新北市淡水區淡海路204號","121.420323333333","25.1855816666667","6501000","淡水區"
"251015","182-VK","2018/03/05 20:29:30","新北市淡水區興仁路162號","121.45158","25.2207466666667","6501000","淡水區"
"251010","413-VK","2018/03/05 20:29:24","新北市淡水區沙崙路181巷15號","121.423966666667","25.1843233333333","6501000","淡水區"
"251012","441-VK","2018/03/05 20:29:29","新北市淡水區興仁路108號","121.451676666667","25.2181316666667","6501000","淡水區"
"251016","442-VK","2018/03/05 20:29:33","新北市淡水區淡金路四段493號","121.451871666667","25.2248833333333","6501000","淡水區"
"251006","561-UM","2018/03/05 20:29:28","新北市淡水區商工路308號","121.462613333333","25.18597","6501000","淡水區"
"251011","650-BX","2018/03/05 20:29:26","新北市淡水區崁頂二路250號","121.43561","25.1980133333333","6501000","淡水區"
"251002","672-BX","2018/03/05 20:29:40","新北市淡水區中正路56號","121.443203333333","25.1695766666667","6501000","淡水區"
"251003","766-UM","2018/03/05 20:29:27","新北市淡水區新生街108巷2號","121.44013","25.1747183333333","6501000","淡水區"
"252002","178-VK","2018/03/05 20:29:31","新北市三芝區淡金路二段18-1號","121.5027","25.25956","6502100","三芝區"
"252001","292-VK","2018/03/05 20:29:22","新北市三芝區中山路一段35號","121.50068","25.2579916666667","6502100","三芝區"
"237012","275-BY","2018/03/05 20:29:25","新北市樹林區柑園街二段237號","121.37505","24.9524716666667","6500900","三峽區"
"236014","270-VK","2018/03/05 20:29:38","新北市土城區廣明街41巷2弄20號","121.454806666667","24.9935066666667","6501300","土城區"
"242029","986-R7","2018/03/05 20:29:29","新北市新莊區昌平街1號","121.454821666667","25.051375","6500500","新莊區"
"242025","615-BX","2018/03/05 20:29:27","新北市新莊區五工三路62巷11號","121.459943333333","25.0648433333333","6500500","新莊區"
"242023","613-BX","2018/03/05 20:29:26","新北市新莊區化成路539-1號","121.465096666667","25.0646416666667","6500500","新莊區"
"242027","612-BX","2018/03/05 20:29:40","新北市新莊區思源路307號","121.459748333333","25.048915","6500500","新莊區"
"242039","566-BX","2018/03/05 20:29:23","新北市新莊區成功街6巷1號","121.425653333333","25.0217416666667","6500500","新莊區"
"242044","497-BY","2018/03/05 20:29:27","新北市新莊區中正路891-44號","121.413835","25.0229433333333","6500500","新莊區"
"242048","441-UM","2018/03/05 20:29:38","新北市新莊區成功街206號","121.421303333333","25.01794","6500500","新莊區"
"242053","440-UM","2018/03/05 20:29:33","新北市新莊區民安西路245巷7號","121.426518333333","25.01377","6500500","新莊區"
"242034","415-TV","2018/03/05 20:29:28","新北市新莊區新泰路199巷8號","121.446563333333","25.03801","6500500","新莊區"
"242004","413-TV","2018/03/05 20:29:30","新北市新莊區化成路746巷50號","121.467005","25.0581633333333","6500500","新莊區"
"242042","400-BY","2018/03/05 20:29:33","新北市新莊區中正路694巷3弄2號","121.418435","25.0283516666667","6500500","新莊區"
"242060","362-BY","2018/03/05 20:29:40","新北市新莊區新樹路244巷82號","121.431025","25.0203133333333","6500500","新莊區"
"242058","353-BY","2018/03/05 20:29:37","新北市新莊區四維路149號","121.422595","25.022135","6500500","新莊區"
"242007","132-UY","2018/03/05 20:29:32","新北市新莊區思源路281號","121.459788333333","25.048135","6500500","新莊區"
"242036","133-UY","2018/03/05 20:29:24","新北市新莊區建安街62巷10號","121.426923333333","25.0250316666667","6500500","新莊區"
"242021","135-UY","2018/03/05 20:29:29","新北市新莊區公園路36號","121.448816666667","25.03926","6500500","新莊區"
"242046","172-VK","2018/03/05 20:29:31","新北市新莊區裕民街72巷17號","121.417905","25.0242883333333","6500500","新莊區"
"242009","173-VK","2018/03/05 20:29:30","新北市新莊區昌隆街76號","121.455513333333","25.0508083333333","6500500","新莊區"
"242002","176-VK","2018/03/05 20:29:38","新北市新莊區中正路147-7號","121.457588333333","25.0372983333333","6500500","新莊區"
"242013","346-TH","2018/03/05 20:29:33","新北市新莊區中平路302巷8號","121.445295","25.0517916666667","6500500","新莊區"
"242019","348-TH","2018/03/05 20:29:32","新北市新莊區民樂街83號","121.45804","25.043135","6500500","新莊區"
"242056","349-TH","2018/03/05 20:29:34","新北市新莊區瓊泰路152號","121.443178333333","25.03238","6500500","新莊區"
"242017","350-TH","2018/03/05 20:29:21","新北市新莊區中港二街45號","121.45054","25.0459166666667","6500500","新莊區"
"221008","489-VK","2018/03/05 20:29:39","新北市汐止區康寧街453號","121.631281666667","25.06826","6501100","汐止區"
"221036","130-UY","2018/03/05 20:29:35","新北市汐止區仁愛路151巷42號","121.663438333333","25.0656633333333","6501100","汐止區"
"221010","269-BY","2018/03/05 20:29:36","新北市汐止區八連路二段376-1號","121.62959","25.1014683333333","6501100","汐止區"
"221012","278-VK","2018/03/05 20:29:29","新北市汐止區大同路三段279號","121.674196666667","25.07508","6501100","汐止區"
"221023","279-VK","2018/03/05 20:29:29","新北市汐止區湖東街5巷24號","121.634738333333","25.0734216666667","6501100","汐止區"
"221032","280-BY","2018/03/05 20:29:29","新北市汐止區民權街二段37號","121.619465","25.0495966666667","6501100","汐止區"
"221027","281-BY","2018/03/05 20:29:36","新北市汐止區中正路235號","121.65773","25.0686883333333","6501100","汐止區"
"221029","298-VK","2018/03/05 20:29:22","新北市汐止區樟樹一路135巷26號","121.641116666667","25.0656183333333","6501100","汐止區"
"221021","299-VK","2018/03/05 20:29:39","新北市汐止區水源路一段284號","121.654236666667","25.058255","6501100","汐止區"
"221031","353-TW","2018/03/05 20:29:36","新北市汐止區中興路110巷10號","121.63377","25.0641366666667","6501100","汐止區"
"221035","622-UM","2018/03/05 20:29:35","新北市汐止區長江街101-5號","121.658673333333","25.0731566666667","6501100","汐止區"
"221025","623-UM","2018/03/05 20:29:26","新北市汐止區水源路二段88巷1弄9號","121.656526666667","25.0554733333333","6501100","汐止區"
"221038","646-BX","2018/03/05 20:29:35","新北市汐止區忠孝東路324號","121.66482","25.0692866666667","6501100","汐止區"
"221033","647-BX","2018/03/05 20:29:37","新北市汐止區林森街73巷5號","121.623536666667","25.0409483333333","6501100","汐止區"
"221018","753-BX","2018/03/05 20:29:32","新北市汐止區茄苳路225巷11弄3號","121.6713","25.0694766666667","6501100","汐止區"
"220083","286-VK","2018/03/05 20:29:39","新北市板橋區僑中二街108巷22號","121.444885","25.0075083333333","6500100","板橋區"
"220061","293-UM","2018/03/05 20:29:37","新北市板橋區四川路一段322號","121.458398333333","25.0000466666667","6500100","板橋區"
"242015","281-VK","2018/03/05 20:29:31","新北市新莊區中平路46巷29號","121.445991666667","25.0438666666667","6500500","新莊區"
"220089","487-VK","2018/03/05 20:29:35","新北市板橋區四維路319號","121.46286","25.0290183333333","6500100","板橋區"
"242031","280-VK","2018/03/05 20:29:36","新北市新莊區中正路497號","121.44074","25.0336416666667","6500500","新莊區"
"220088","491-VK","2018/03/05 20:29:34","新北市板橋區民治街84號","121.479441666667","25.0320416666667","6500100","板橋區"
"220035","560-BX","2018/03/05 20:29:24","新北市八里區荖阡坑路22-4號","121.399193333333","25.1337883333333","6500100","板橋區"
"220103","561-BX","2018/03/05 20:29:36","新北市板橋區漢生東路33巷44號","121.4662","25.0178283333333","6500100","板橋區"
"220054","741-BX","2018/03/05 20:29:25","新北市新莊區中平路377巷17弄56號","121.442375","25.0521933333333","6500100","板橋區"
"220102","KEA-2699","2018/03/05 20:29:32","新北市板橋區文化路一段320號","121.467621666667","25.0221266666667","6500100","板橋區"
"220070","AAC-253","2018/03/05 20:29:38","新北市新莊區新莊路751巷88號","121.442383333333","25.0306633333333","6500100","板橋區"
