"lineid","car","time","location","longitude","latitude","cityid","cityname"
"234023","9380-KE","2018/03/05 21:29:39","新北市永和區福和路1號","121.526303333333","25.0097016666667","6500400","永和區"
"234077","969-R7","2018/03/05 21:28:36","新北市八里區荖阡坑路34號","121.402541666667","25.1283683333333","6500400","永和區"
"231051","107-UY","2018/03/05 21:29:28","新北市新店區安德街60巷9-3號","121.509125","24.9621583333333","6500600","新店區"
"231050","KEA-2219","2018/03/05 21:29:23","新北市新店區中正路448-1號","121.533988333333","24.9787166666667","6500600","新店區"
"231042","641-BX","2018/03/05 21:29:25","新北市新店區薏仁坑路自強巷6號","121.496391666667","24.9582616666667","6500600","新店區"
"231063","645-TV","2018/03/05 21:29:30","新北市新店區吉祥街5巷1號","121.49727","24.9478333333333","6500600","新店區"
"241017","063-VK","2018/03/05 21:29:44","新北市三重區中正北路23號","121.492218333333","25.06139","6500200","三重區"
"241024","065-VK","2018/03/05 21:29:41","新北市三重區中正北路145巷3弄11號","121.483773333333","25.0673116666667","6500200","三重區"
"241003","091-VK","2018/03/05 21:29:29","新北市三重區仁義街337-1號","121.495015","25.0847266666667","6500200","三重區"
"241005","262-UM","2018/03/05 21:29:32","新北市三重區碧華街1號","121.483526666667","25.081115","6500200","三重區"
"241016","265-UM","2018/03/05 21:29:31","新北市三重區正義北路113號","121.496905","25.06576","6500200","三重區"
"241007","398-BY","2018/03/05 21:29:34","新北市三重區正義北路105號","121.496906666667","25.0655383333333","6500200","三重區"
"247024","893-R6","2018/03/05 21:29:15","新北市五股區中直路21號","121.421551666667","25.11182","6501400","蘆洲區"
"247022","500-BY","2018/03/05 21:29:31","新北市蘆洲區永康街75號","121.455785","25.0853283333333","6501400","蘆洲區"
"247010","053-VK","2018/03/05 21:29:32","新北市蘆洲區三民路26巷30號","121.47783","25.083075","6501400","蘆洲區"
"247002","002-UY","2018/03/05 21:29:27","新北市五股區成洲一路25號","121.449578333333","25.0949066666667","6501400","蘆洲區"
"251009","008-UM","2018/03/05 21:29:33","新北市淡水區民族路33巷16-3號","121.463426666667","25.1359916666667","6501000","淡水區"
"251004","009-UM","2018/03/05 21:29:28","新北市淡水區民族路11號","121.460461666667","25.1370766666667","6501000","淡水區"
"251005","010-UM","2018/03/05 21:29:38","新北市淡水區水源街一段34巷9號","121.443205","25.1718033333333","6501000","淡水區"
"251001","011-UM","2018/03/05 21:29:43","新北市淡水區濱海路一段221號","121.43728","25.1898316666667","6501000","淡水區"
"251013","179-VK","2018/03/05 21:29:35","新北市淡水區埤島58-10號","121.457971666667","25.19481","6501000","淡水區"
"251014","180-VK","2018/03/05 21:29:36","新北市淡水區六塊厝2-1號","121.450153333333","25.2404383333333","6501000","淡水區"
"251008","181-VK","2018/03/05 21:29:42","新北市淡水區水源街二段126號","121.453226666667","25.174715","6501000","淡水區"
"251010","413-VK","2018/03/05 21:29:24","新北市淡水區沙崙路25巷21號","121.420616666667","25.1823816666667","6501000","淡水區"
"251012","441-VK","2018/03/05 21:29:29","新北市淡水區石頭埔8號","121.452625","25.23456","6501000","淡水區"
"251016","442-VK","2018/03/05 21:29:33","新北市淡水區牛埔子10-1號","121.449908333333","25.218425","6501000","淡水區"
"251006","561-UM","2018/03/05 21:29:28","新北市淡水區公明街78號","121.44395","25.1683133333333","6501000","淡水區"
"251011","650-BX","2018/03/05 21:29:35","新北市淡水區新民街180-6號","121.436766666667","25.1786983333333","6501000","淡水區"
"251002","672-BX","2018/03/05 21:13:53","新北市淡水區英專路151號","121.448358333333","25.1747716666667","6501000","淡水區"
"251003","766-UM","2018/03/05 21:29:27","新北市淡水區崁頂15-5號","121.438995","25.1859066666667","6501000","淡水區"
"252001","702-TV","2018/03/05 21:07:49","新北市三芝區埔坪里埔頭坑41號","121.504205","25.264365","6502100","三芝區"
"220070","AAC-253","2018/03/05 21:29:38","新北市五股區新五路三段19號","121.445746666667","25.0895533333333","6500100","板橋區"
