"lineid","car","time","location","longitude","latitude","cityid","cityname"
"234023","9380-KE","2018/03/05 21:32:59","新北市永和區福和路1號","121.526306666667","25.0096933333333","6500400","永和區"
"234077","969-R7","2018/03/05 21:39:16","新北市三重區重新路五段326巷25-1號","121.479121666667","25.0427533333333","6500400","永和區"
"231050","KEA-2219","2018/03/05 21:39:23","新北市新店區安德街60巷9-3號","121.509098333333","24.9620866666667","6500600","新店區"
"231042","641-BX","2018/03/05 21:39:25","新北市新店區薏仁坑路自強巷6號","121.496455","24.9583416666667","6500600","新店區"
"231063","645-TV","2018/03/05 21:39:10","新北市新店區玫瑰路6號","121.494225","24.95091","6500600","新店區"
"241017","063-VK","2018/03/05 21:39:24","新北市新莊區五工一路72巷3號","121.462393333333","25.0673533333333","6500200","三重區"
"241003","091-VK","2018/03/05 21:39:29","新北市五股區凌雲路一段21號","121.454718333333","25.0985883333333","6500200","三重區"
"241005","262-UM","2018/03/05 21:39:12","新北市三重區碧華街1號","121.483558333333","25.0811616666667","6500200","三重區"
"235010","733-UM","2018/03/05 21:39:22","新北市中和區員山路36巷13號","121.48419","24.9907983333333","6500300","中和區"
"247010","053-VK","2018/03/05 21:39:12","新北市五股區中興路三段2巷10號","121.448493333333","25.0830083333333","6501400","蘆洲區"
"251009","008-UM","2018/03/05 21:39:13","新北市淡水區民生路52巷22弄5號","121.462678333333","25.1374","6501000","淡水區"
"251004","009-UM","2018/03/05 21:39:28","新北市淡水區民生路60號","121.462053333333","25.13794","6501000","淡水區"
"251005","010-UM","2018/03/05 21:39:18","新北市淡水區水源街一段160號","121.448801666667","25.171195","6501000","淡水區"
"251001","011-UM","2018/03/05 21:39:23","新北市淡水區新市二路三段152號","121.435498333333","25.1949233333333","6501000","淡水區"
"251013","179-VK","2018/03/05 21:39:15","新北市淡水區崁頂145號","121.430745","25.20615","6501000","淡水區"
"251014","180-VK","2018/03/05 21:39:16","新北市淡水區淡金路四段493號","121.451918333333","25.22477","6501000","淡水區"
"251008","181-VK","2018/03/05 21:39:12","新北市淡水區水源街二段76號","121.451188333333","25.1741366666667","6501000","淡水區"
"251010","413-VK","2018/03/05 21:39:24","新北市淡水區沙崙路242號","121.426041666667","25.1846733333333","6501000","淡水區"
"251012","441-VK","2018/03/05 21:39:09","新北市淡水區淡金路四段518號","121.451841666667","25.2262266666667","6501000","淡水區"
"251016","442-VK","2018/03/05 21:39:13","新北市淡水區崁頂59號","121.441041666667","25.19964","6501000","淡水區"
"251006","561-UM","2018/03/05 21:39:08","新北市淡水區中正路11巷4號","121.43887","25.1701883333333","6501000","淡水區"
"251011","650-BX","2018/03/05 21:39:26","新北市淡水區新民街322巷1號","121.435496666667","25.1837283333333","6501000","淡水區"
"251002","672-BX","2018/03/05 21:39:11","新北市淡水區學府路203號","121.446396666667","25.1753633333333","6501000","淡水區"
"251003","766-UM","2018/03/05 21:39:27","新北市淡水區新春街91巷17號","121.438773333333","25.1830316666667","6501000","淡水區"
"220070","AAC-253","2018/03/05 21:39:18","新北市板橋區大觀路一段29巷131弄122號","121.45187","25.0049683333333","6500100","板橋區"
