"lineid","car","time","location","longitude","latitude","cityid","cityname"
"234023","9380-KE","2018/03/05 21:32:59","新北市永和區福和路1號","121.526306666667","25.0096933333333","6500400","永和區"
"234077","969-R7","2018/03/05 21:49:36","新北市永和區環河東路一段122號","121.520611666667","25.015605","6500400","永和區"
"231050","KEA-2219","2018/03/05 21:49:23","新北市新店區薏仁坑路自強巷6號","121.496481666667","24.9584916666667","6500600","新店區"
"231042","641-BX","2018/03/05 21:49:25","新北市新店區安華路3號","121.519066666667","24.959405","6500600","新店區"
"241005","262-UM","2018/03/05 21:49:32","新北市三重區集賢路87-1號","121.49374","25.0869016666667","6500200","三重區"
"235010","733-UM","2018/03/05 21:39:22","新北市中和區員山路36巷13號","121.48419","24.9907983333333","6500300","中和區"
"247010","053-VK","2018/03/05 21:49:32","新北市八里區中山路三段112號","121.386616666667","25.1458616666667","6501400","蘆洲區"
"251009","008-UM","2018/03/05 21:49:33","新北市淡水區民族路35巷21號","121.464993333333","25.137055","6501000","淡水區"
"251004","009-UM","2018/03/05 21:49:28","新北市淡水區民權路92巷35-1號","121.462025","25.126795","6501000","淡水區"
"251005","010-UM","2018/03/05 21:49:38","新北市淡水區鄧公路30巷32弄11號","121.453753333333","25.1701933333333","6501000","淡水區"
"251001","011-UM","2018/03/05 21:49:23","新北市淡水區後洲路一段157號","121.427728333333","25.19856","6501000","淡水區"
"251013","179-VK","2018/03/05 21:49:35","新北市淡水區下圭柔山90-8號","121.431795","25.211925","6501000","淡水區"
"251014","180-VK","2018/03/05 21:49:36","新北市淡水區中山北路三段165-1號","121.444928333333","25.1969166666667","6501000","淡水區"
"251008","181-VK","2018/03/05 21:49:32","新北市淡水區學府路104號","121.449875","25.1717883333333","6501000","淡水區"
"251010","413-VK","2018/03/05 21:49:24","新北市淡水區中正路二段211號","121.426185","25.1890983333333","6501000","淡水區"
"251012","441-VK","2018/03/05 21:49:29","新北市淡水區淡金路三段292號","121.448995","25.207545","6501000","淡水區"
"251006","561-UM","2018/03/05 21:49:28","新北市淡水區中正路11巷3號","121.437808333333","25.170765","6501000","淡水區"
"251011","650-BX","2018/03/05 21:49:26","新北市淡水區新民街322巷5弄3號","121.43647","25.183035","6501000","淡水區"
"251002","672-BX","2018/03/05 21:49:31","新北市淡水區大忠街126號","121.447316666667","25.1767283333333","6501000","淡水區"
"251003","766-UM","2018/03/05 21:49:27","新北市淡水區新民街296-1號","121.43523","25.1825216666667","6501000","淡水區"
"220070","AAC-253","2018/03/05 21:49:38","新北市板橋區華東街1-9號","121.448266666667","24.9948633333333","6500100","板橋區"
