"lineid","car","time","location","longitude","latitude","cityid","cityname"
"247010","053-VK","2018/03/05 22:29:32","新北市八里區中山路三段409號","121.368486666667","25.1346616666667","6501400","蘆洲區"
"251004","009-UM","2018/03/05 22:28:48","新北市淡水區民族路51號","121.4628","25.1352683333333","6501000","淡水區"
"251014","180-VK","2018/03/05 22:15:48","新北市淡水區下圭柔山91-3號","121.43109","25.2095383333333","6501000","淡水區"
"251008","181-VK","2018/03/05 22:29:32","新北市淡水區學府路104號","121.449855","25.1718366666667","6501000","淡水區"
"251010","413-VK","2018/03/05 22:29:44","新北市淡水區沙崙路195號","121.424751666667","25.1842183333333","6501000","淡水區"
"251007","577-R6","2018/03/05 22:29:46","新北市淡水區北新路186-3號","121.449516666667","25.1787716666667","6501000","淡水區"
