"lineid","car","time","location","longitude","latitude","cityid","cityname"
"232001","290-BY","2018/12/03 08:19:42","新北市坪林區大粗坑6-1號","121.73213","24.9481816666667","6502000","坪林區"
"232012","291-BY","2018/12/03 08:19:47","新北市坪林區九芎根10-1號","121.664366666667","24.8811866666667","6502000","坪林區"
"232017","705-BZ","2018/12/03 08:19:50","新北市坪林區柑腳坑20號","121.767355","24.9540133333333","6502000","坪林區"
"232005","758-BX","2018/12/03 08:19:46","新北市坪林區鶯子瀨3-7號","121.705956666667","24.9141083333333","6502000","坪林區"
"244022","069-UM","2018/12/03 08:19:40","新北市林口區隆林街27號","121.388388333333","25.0753766666667","6501700","林口區"
"244006","080-UY","2018/12/03 08:19:48","新北市林口區菁埔10-10號","121.3789","25.096715","6501700","林口區"
"244001","248-BX","2018/12/03 08:19:37","新北市林口區嘉溪雅坑9號","121.333961666667","25.1059466666667","6501700","林口區"
"244018","402-UM","2018/12/03 08:19:35","新北市林口區公園路223巷1號","121.373906666667","25.0748583333333","6501700","林口區"
"244012","KEA-2802","2018/12/03 08:19:38","新北市林口區中正路432號","121.384115","25.0778","6501700","林口區"
"244016","485-VK","2018/12/03 08:19:44","新北市林口區文化一路一段207號","121.378933333333","25.075625","6501700","林口區"
"244008","656-BX","2018/12/03 08:19:35","新北市林口區中北三街196號","121.382878333333","25.08219","6501700","林口區"
"244010","701-TV","2018/12/03 08:19:43","新北市林口區竹林路35號","121.386525","25.0776716666667","6501700","林口區"
"244024","837-TS","2018/12/03 08:19:51","新北市林口區文化三路一段449號","121.36821","25.0745","6501700","林口區"
"244020","838-TS","2018/12/03 08:19:45","新北市林口區粉寮路1號","121.397761666667","25.0802183333333","6501700","林口區"
"222005","289-BY","2018/12/03 08:19:52","新北市深坑區萬福路83號","121.601553333333","25.0094983333333","6501800","深坑區"
"231007","189-VK","2018/12/03 08:19:50","新北市新店區新潭路一段158-1號","121.529233333333","24.9339266666667","6500600","新店區"
"231008","192-VK","2018/12/03 08:19:47","新北市新店區新烏路二段401號","121.551425","24.9095016666667","6500600","新店區"
"235001","611-BX","2018/12/03 08:19:35","新北市中和區錦和路350-1號","121.49076","24.99328","6500300","中和區"
"235010","733-UM","2018/12/03 08:19:42","新北市中和區圓通路435巷2-2號","121.486561666667","24.98669","6500300","中和區"
"226005","5620-A6","2018/12/03 08:19:46","新北市平溪區南山里南山坪126號","121.785891666667","25.0462083333333","6502400","平溪區"
"226001","7418-A5","2018/12/03 08:19:42","新北市平溪區望古里灰3-1號","121.754325","25.0282516666667","6502400","平溪區"
"226003","AGD-0702","2018/12/03 08:19:42","新北市平溪區靜安路三段398號","121.783998333333","25.0514283333333","6502400","平溪區"
"223006","022-BY","2018/12/03 08:19:34","新北市石碇區靜安路一段262號","121.681138333333","25.0103566666667","6501900","石碇區"
"223003","205-TH","2018/12/03 08:19:36","新北市石碇區小粗坑(格頭里)1號","121.65123","24.9521983333333","6501900","石碇區"
"223008","406-TH","2018/12/03 08:19:31","新北市石碇區靜安路一段218號","121.672748333333","25.0075616666667","6501900","石碇區"
"223004","437-BY","2018/12/03 08:19:52","新北市石碇區碇坪路一段39號","121.658246666667","24.9914916666667","6501900","石碇區"
"223001","592-UM","2018/12/03 08:19:35","新北市石碇區小粗坑(格頭里)1號","121.651101666667","24.9520816666667","6501900","石碇區"
"223005","677-TV","2018/12/03 08:19:46","新北市石碇區碇坪路一段39號","121.658093333333","24.9914416666667","6501900","石碇區"
"227005","282-VK","2018/12/03 08:19:37","新北市雙溪區上林里大瀨10號","121.822363333333","25.0221683333333","6502500","雙溪區"
"252006","073-UM","2018/12/03 08:19:45","新北市三芝區後厝里大片頭81-1號","121.459028333333","25.2447516666667","6502100","三芝區"
"252004","249-BX","2018/12/03 08:19:42","新北市三芝區興華里車埕60號","121.498598333333","25.1969483333333","6502100","三芝區"
"237001","361-BY","2018/12/03 08:10:45","新北市三峽區大學路49號","121.376505","24.94072","6500900","三峽區"
"242057","986-R7","2018/12/03 08:19:42","新北市新莊區壽山路162號","121.415198333333","25.0311733333333","6500500","新莊區"
"242055","751-BX","2018/12/03 08:19:45","新北市新莊區瓊林路40巷26號","121.446918333333","25.0302566666667","6500500","新莊區"
"242026","705-TV","2018/12/03 08:19:36","新北市新莊區中原路1號","121.459538333333","25.0542766666667","6500500","新莊區"
"242024","613-BX","2018/12/03 08:18:52","新北市三重區新北大道二段226-1號","121.467123333333","25.06177","6500500","新莊區"
"242028","612-BX","2018/12/03 08:19:43","新北市新莊區中平路108號","121.44489","25.0459483333333","6500500","新莊區"
"242043","566-BX","2018/12/03 08:19:41","新北市新莊區雙鳳路11號","121.417108333333","25.0267983333333","6500500","新莊區"
"242047","497-BY","2018/12/03 08:19:50","新北市新莊區萬安街73號","121.42128","25.0238733333333","6500500","新莊區"
"242010","442-UM","2018/12/03 08:19:49","新北市新莊區中港路679號","121.450786666667","25.0563416666667","6500500","新莊區"
"242052","441-UM","2018/12/03 08:19:48","新北市新莊區新樹路659號","121.432628333333","25.00305","6500500","新莊區"
"242001","440-UM","2018/12/03 08:19:44","新北市新莊區大觀街42巷5號","121.454138333333","25.035765","6500500","新莊區"
"242038","415-TV","2018/12/03 08:19:48","新北市新莊區民安路144巷3號","121.424366666667","25.0250816666667","6500500","新莊區"
"242008","413-TV","2018/12/03 08:19:37","新北市新莊區昌平街59巷12號","121.454318333333","25.0533233333333","6500500","新莊區"
"242045","400-BY","2018/12/03 08:19:42","新北市新莊區建國一路50號","121.434111666667","25.0311016666667","6500500","新莊區"
"242022","362-BY","2018/12/03 08:19:52","新北市新莊區福壽街18號","121.458058333333","25.047895","6500500","新莊區"
"242059","353-BY","2018/12/03 08:19:49","新北市新莊區新樹路359-1號","121.432916666667","25.0181583333333","6500500","新莊區"
"242033","135-UY","2018/12/03 08:19:49","新北市新莊區中正路439巷29號","121.443468333333","25.033185","6500500","新莊區"
"242049","172-VK","2018/12/03 08:19:44","新北市新莊區西盛街153巷2號","121.428383333333","25.018055","6500500","新莊區"
"242012","173-VK","2018/12/03 08:19:47","新北市新莊區中和街104號","121.448238333333","25.0467533333333","6500500","新莊區"
"242018","175-VK","2018/12/03 08:19:47","新北市新莊區明中街51巷1號","121.456765","25.03962","6500500","新莊區"
"242016","346-TH","2018/12/03 08:19:48","新北市新莊區中和街60巷47號","121.449998333333","25.0450983333333","6500500","新莊區"
"242030","348-TH","2018/12/03 08:19:46","新北市新莊區新泰路312號","121.445321666667","25.0413783333333","6500500","新莊區"
"242003","349-TH","2018/12/03 08:19:42","新北市新莊區福樂街56巷17號","121.458615","25.0461683333333","6500500","新莊區"
"242020","350-TH","2018/12/03 08:19:41","新北市新莊區中華路一段66巷14號","121.452481666667","25.03868","6500500","新莊區"
"242014","351-TH","2018/12/03 08:19:49","新北市新莊區中平路87巷8號","121.444281666667","25.0458316666667","6500500","新莊區"
"242040","281-VK","2018/12/03 08:19:48","新北市新莊區中正路614巷26號","121.424595","25.0314783333333","6500500","新莊區"
"220022","461-BY","2018/12/03 08:19:49","新北市板橋區大觀路288號","121.449376666667","24.9983416666667","6500100","板橋區"
"242006","280-VK","2018/12/03 08:19:47","新北市新莊區自治街2號","121.453201666667","25.04781","6500500","新莊區"
