"lineid","car","time","location","longitude","latitude","cityid","cityname"
"232001","290-BY","2018/12/03 08:29:42","新北市坪林區大粗坑6-1號","121.732128333333","24.94817","6502000","坪林區"
"232012","291-BY","2018/12/03 08:29:47","新北市坪林區金瓜寮35號","121.673488333333","24.900065","6502000","坪林區"
"232017","705-BZ","2018/12/03 08:29:50","新北市坪林區柑腳坑14號","121.773785","24.9485783333333","6502000","坪林區"
"232005","758-BX","2018/12/03 08:29:52","新北市坪林區石1號","121.710375","24.9087883333333","6502000","坪林區"
"244022","069-UM","2018/12/03 08:29:40","新北市林口區興林一街109巷16號","121.39204","25.072745","6501700","林口區"
"244006","080-UY","2018/12/03 08:29:48","新北市林口區湖子15-1號","121.386688333333","25.09062","6501700","林口區"
"244001","248-BX","2018/12/03 08:29:37","新北市林口區下福里18鄰26號","121.310556666667","25.1118333333333","6501700","林口區"
"244018","402-UM","2018/12/03 08:29:35","新北市林口區公園路173號","121.371333333333","25.07172","6501700","林口區"
"244012","KEA-2802","2018/12/03 08:29:38","新北市林口區中山路42號","121.395393333333","25.0783466666667","6501700","林口區"
"244016","485-VK","2018/12/03 08:29:43","新北市林口區文化一路一段57-2號","121.371323333333","25.0698416666667","6501700","林口區"
"244008","656-BX","2018/12/03 08:29:35","新北市林口區文化一路二段217-2號","121.384353333333","25.08336","6501700","林口區"
"244010","701-TV","2018/12/03 08:29:43","新北市林口區中正路182號","121.391931666667","25.07754","6501700","林口區"
"244024","837-TS","2018/12/03 08:29:51","新北市林口區文化三路一段171號","121.361851666667","25.0693016666667","6501700","林口區"
"244020","838-TS","2018/12/03 08:29:45","新北市林口區自強五街3號","121.398653333333","25.0766133333333","6501700","林口區"
"222005","289-BY","2018/12/03 08:29:52","新北市深坑區萬福路147號","121.61103","25.0163383333333","6501800","深坑區"
"231007","189-VK","2018/12/03 08:29:50","新北市新店區新潭路二段61號","121.52179","24.92629","6500600","新店區"
"231008","192-VK","2018/12/03 08:29:47","新北市新店區新烏路三段99巷8號","121.55319","24.9020966666667","6500600","新店區"
"235001","611-BX","2018/12/03 08:29:36","新北市中和區中山路二段523巷41號","121.48219","25.0031833333333","6500300","中和區"
"226005","5620-A6","2018/12/03 08:29:26","新北市平溪區南山里六分11號","121.797635","25.0498183333333","6502400","平溪區"
"226001","7418-A5","2018/12/03 08:29:42","新北市平溪區東勢里芊蓁林59號","121.75177","25.0065166666667","6502400","平溪區"
"226003","AGD-0702","2018/12/03 08:29:42","新北市平溪區新寮里新寮路1號","121.792985","25.05933","6502400","平溪區"
"223006","022-BY","2018/12/03 08:29:38","新北市石碇區靜安路一段252號","121.677025","25.0107116666667","6501900","石碇區"
"223003","205-TH","2018/12/03 08:28:35","新北市石碇區北宜路六段十三股巷1號","121.648991666667","24.9476666666667","6501900","石碇區"
"223008","406-TH","2018/12/03 08:29:51","新北市石碇區串空湖7-1號","121.670683333333","25.0016316666667","6501900","石碇區"
"223004","437-BY","2018/12/03 08:29:52","新北市石碇區碇坪路一段208號","121.671573333333","24.98206","6501900","石碇區"
"223001","592-UM","2018/12/03 08:28:35","新北市石碇區北宜路六段十三股巷1-1號","121.646385","24.944165","6501900","石碇區"
"223005","677-TV","2018/12/03 08:29:46","新北市石碇區小粗坑(潭邊里)2號","121.671113333333","24.9827366666667","6501900","石碇區"
"227005","282-VK","2018/12/03 08:29:37","新北市雙溪區外柑里三叉坑4-2號","121.826286666667","25.014405","6502500","雙溪區"
"252006","073-UM","2018/12/03 08:29:45","新北市三芝區後厝里大片頭66號","121.465525","25.2440283333333","6502100","三芝區"
"252004","249-BX","2018/12/03 08:29:36","新北市三芝區興華里車埕2號","121.501135","25.20205","6502100","三芝區"
"237001","361-BY","2018/12/03 08:10:45","新北市三峽區大學路49號","121.376505","24.94072","6500900","三峽區"
"242057","986-R7","2018/12/03 08:29:37","新北市新莊區中正路742-2號","121.413543333333","25.022855","6500500","新莊區"
"242055","751-BX","2018/12/03 08:29:39","新北市新莊區豐年街124巷6弄2號","121.44614","25.0298516666667","6500500","新莊區"
"242026","705-TV","2018/12/03 08:29:36","新北市新莊區幸福路69號","121.457066666667","25.0493866666667","6500500","新莊區"
"242024","613-BX","2018/12/03 08:29:52","新北市新莊區五權一路5-9號","121.45824","25.066515","6500500","新莊區"
"242028","612-BX","2018/12/03 08:29:43","新北市新莊區中平路202號","121.444838333333","25.0487466666667","6500500","新莊區"
"242043","566-BX","2018/12/03 08:29:41","新北市新莊區雙鳳路170號","121.41272","25.0268866666667","6500500","新莊區"
"242047","497-BY","2018/12/03 08:29:50","新北市新莊區富國路134號","121.422701666667","25.0250816666667","6500500","新莊區"
"242010","442-UM","2018/12/03 08:29:46","新北市新莊區中港路中慶巷33號","121.449586666667","25.0537316666667","6500500","新莊區"
"242052","441-UM","2018/12/03 08:29:49","新北市新莊區民安西路416-1號","121.429331666667","25.0098","6500500","新莊區"
"242001","440-UM","2018/12/03 08:29:44","新北市新莊區新莊路86號","121.456831666667","25.03637","6500500","新莊區"
"242038","415-TV","2018/12/03 08:29:48","新北市新莊區民安西路78巷8弄1號","121.426468333333","25.0200283333333","6500500","新莊區"
"242008","413-TV","2018/12/03 08:29:39","新北市新莊區昌平街59巷11弄21號","121.453736666667","25.0525183333333","6500500","新莊區"
"242045","400-BY","2018/12/03 08:29:43","新北市新莊區福營路167號","121.431761666667","25.0311866666667","6500500","新莊區"
"242022","362-BY","2018/12/03 08:29:32","新北市新莊區化成路45號","121.465238333333","25.044645","6500500","新莊區"
"242059","353-BY","2018/12/03 08:29:51","新北市新莊區新樹路181-2號","121.436145","25.024345","6500500","新莊區"
"242033","135-UY","2018/12/03 08:29:42","新北市新莊區福海街24巷12號","121.445836666667","25.0340783333333","6500500","新莊區"
"242049","172-VK","2018/12/03 08:29:39","新北市新莊區民本街11巷2弄30號","121.429201666667","25.0199133333333","6500500","新莊區"
"242012","173-VK","2018/12/03 08:29:47","新北市新莊區中和街84號","121.447651666667","25.046355","6500500","新莊區"
"242018","175-VK","2018/12/03 08:29:47","新北市新莊區長青街37巷22弄1號","121.456291666667","25.041315","6500500","新莊區"
"242016","346-TH","2018/12/03 08:29:53","新北市新莊區中華路二段3巷7號","121.453331666667","25.0456233333333","6500500","新莊區"
"242030","348-TH","2018/12/03 08:29:46","新北市新莊區新泰路277巷63號","121.44325","25.04","6500500","新莊區"
"242003","349-TH","2018/12/03 08:29:42","新北市新莊區自由街24號","121.455846666667","25.04699","6500500","新莊區"
"242020","350-TH","2018/12/03 08:29:52","新北市新莊區建興街85號","121.44991","25.038785","6500500","新莊區"
"242014","351-TH","2018/12/03 08:29:49","新北市新莊區中平路152巷49號","121.446803333333","25.0473983333333","6500500","新莊區"
"242040","281-VK","2018/12/03 08:29:48","新北市泰山區壽山路54號","121.420163333333","25.0291516666667","6500500","新莊區"
"220022","461-BY","2018/12/03 08:29:49","新北市板橋區民權路182號","121.459215","25.0134383333333","6500100","板橋區"
"242006","280-VK","2018/12/03 08:29:47","新北市新莊區中華路三段88號","121.452211666667","25.0571466666667","6500500","新莊區"
"220055","630-UY","2018/12/03 08:29:31","新北市板橋區僑中一街124巷72-3號","121.449403333333","25.017535","6500100","板橋區"
