"lineid","car","time","location","longitude","latitude","cityid","cityname"
"244022","069-UM","2018/12/03 10:29:19","新北市林口區文化三路一段617巷16號","121.370991666667","25.0776566666667","6501700","林口區"
"244019","402-UM","2018/12/03 10:29:15","新北市林口區粉寮69號","121.405078333333","25.0908183333333","6501700","林口區"
"231007","189-VK","2018/12/03 10:29:10","新北市新店區新潭路三段130-1號","121.509373333333","24.910035","6500600","新店區"
"231008","192-VK","2018/12/03 10:29:07","新北市新店區松林路16巷41號","121.546423333333","24.9073766666667","6500600","新店區"
"227005","282-VK","2018/12/03 10:17:57","新北市雙溪區泰平里灣潭路35-1號","121.812741666667","24.9290783333333","6502500","雙溪區"
"252006","AAC-283","2018/12/03 10:29:20","新北市三芝區新庄里番社后1-1號","121.50142","25.2643916666667","6502100","三芝區"
"237001","159-UY","2018/12/03 10:29:10","新北市三峽區國慶路301-1號","121.373888333333","24.9409466666667","6500900","三峽區"
"242026","705-TV","2018/12/03 10:29:16","新北市新莊區新泰路255巷83號","121.44218","25.0389083333333","6500500","新莊區"
"220003","630-UY","2018/12/03 10:07:18","新北市板橋區華東街1-9號","121.448148333333","24.9947733333333","6500100","板橋區"
