"lineid","car","time","location","longitude","latitude","cityid","cityname"
"244022","069-UM","2018/12/03 10:39:20","新北市林口區仁愛路二段516號","121.373553333333","25.0775516666667","6501700","林口區"
"244019","402-UM","2018/12/03 10:39:15","新北市林口區粉寮69號","121.405096666667","25.090805","6501700","林口區"
"231007","189-VK","2018/12/03 10:39:10","新北市新店區新潭路三段116號","121.50675","24.9098516666667","6500600","新店區"
"231008","192-VK","2018/12/03 10:35:49","新北市新店區成功路50巷1號","121.54044","24.9002166666667","6500600","新店區"
"227005","282-VK","2018/12/03 10:17:57","新北市雙溪區泰平里灣潭路35-1號","121.812741666667","24.9290783333333","6502500","雙溪區"
"237001","159-UY","2018/12/03 10:39:10","新北市三峽區中山路459巷163-1號","121.349268333333","24.9334016666667","6500900","三峽區"
