"lineid","car","time","location","longitude","latitude","cityid","cityname"
"234044","148-BY","2018/12/03 13:19:25","新北市永和區得和路326號","121.523228333333","24.9995633333333","6500400","永和區"
"234078","298-R6","2018/12/03 13:19:11","新北市永和區福和路7巷7-1號","121.525341666667","25.007755","6500400","永和區"
"234036","336-UY","2018/12/03 13:19:25","新北市永和區民樂街59巷2號","121.527488333333","24.998275","6500400","永和區"
"234062","337-UY","2018/12/03 13:19:09","新北市永和區永元路17巷6弄2號","121.521396666667","25.0007283333333","6500400","永和區"
"234068","552-UM","2018/12/03 13:19:15","新北市永和區豫溪街72-1號","121.517101666667","25.0098383333333","6500400","永和區"
"234005","693-BX","2018/12/03 13:19:22","新北市永和區中山路一段211號","121.508725","25.0084333333333","6500400","永和區"
"234015","745-BX","2018/12/03 13:19:27","新北市永和區環河西路一段95巷13號","121.511733333333","25.0172983333333","6500400","永和區"
"234028","746-BX","2018/12/03 13:19:21","新北市永和區厚德街100號","121.523373333333","24.9989516666667","6500400","永和區"
"234052","KEA-2590","2018/12/03 13:19:28","新北市永和區中興街61號","121.516613333333","25.0116983333333","6500400","永和區"
"234012","KEA-2591","2018/12/03 13:19:21","新北市永和區信義路55巷2號","121.512713333333","25.0126583333333","6500400","永和區"
"234060","AAD-866","2018/12/03 13:19:15","新北市永和區秀朗路一段175號","121.517041666667","25.003655","6500400","永和區"
"234084","847-RS","2018/12/03 13:19:24","新北市永和區永利路2號","121.51737","25.005835","6500400","永和區"
"234040","862-TW","2018/12/03 13:19:20","新北市永和區水源街56號","121.509535","25.004295","6500400","永和區"
"234048","863-TW","2018/12/03 13:19:09","新北市永和區保福路二段88巷1號","121.510638333333","25.013475","6500400","永和區"
"234025","9372-KE","2018/12/03 13:19:09","新北市永和區中正路629號","121.515543333333","25.0099233333333","6500400","永和區"
"234010","9373-KE","2018/12/03 13:19:21","新北市永和區忠孝街34巷1弄1號","121.514771666667","25.0159616666667","6500400","永和區"
"248013","025-BX","2018/12/03 13:19:12","新北市五股區自強路56號","121.43332","25.0737566666667","6501500","五股區"
"248015","026-BX","2018/12/03 13:19:29","新北市五股區西雲路293號","121.449431666667","25.0992033333333","6501500","五股區"
"248005","077-UY","2018/12/03 13:19:17","新北市五股區中興路一段137號","121.465428333333","25.0734983333333","6501500","五股區"
"248007","095-VK","2018/12/03 13:19:11","新北市五股區更洲路32巷8弄14號","121.45924","25.079515","6501500","五股區"
"248019","225-UY","2018/12/03 13:19:01","新北市五股區孝義路47巷23號","121.449851666667","25.109635","6501500","五股區"
"248011","247-BX","2018/12/03 13:19:24","新北市五股區御成路35號","121.441055","25.0912733333333","6501500","五股區"
"248003","677-BX","2018/12/03 13:19:18","新北市五股區成泰路二段129號","121.438645","25.08483","6501500","五股區"
"248001","678-BX","2018/12/03 13:19:19","新北市五股區西雲路66號","121.443648333333","25.091555","6501500","五股區"
"248009","682-TV","2018/12/03 13:19:28","新北市五股區成泰路一段173-1號","121.435141666667","25.0747566666667","6501500","五股區"
"234022","9380-KE","2018/12/03 13:19:15","新北市永和區竹林路109巷3號","121.520076666667","25.0119466666667","6500400","永和區"
"234076","969-R7","2018/12/03 13:19:11","新北市永和區民有街69號","121.517835","24.9956866666667","6500400","永和區"
"234072","AAC-211","2018/12/03 13:19:19","新北市永和區竹林路90號","121.519413333333","25.01239","6500400","永和區"
"234066","AAC-212","2018/12/03 13:19:15","新北市永和區保平路39號","121.51201","25.0072233333333","6500400","永和區"
"234001","AAC-295","2018/12/03 13:19:17","新北市永和區中山路一段106號","121.511015","25.010495","6500400","永和區"
"244001","248-BX","2018/12/03 13:19:10","新北市林口區嘉寶里57號","121.341121666667","25.1165116666667","6501700","林口區"
"243005","AAD-798","2018/12/03 13:19:25","新北市泰山區明志路三段206巷3號","121.423286666667","25.0379233333333","6501600","泰山區"
"231002","002-UM","2018/12/03 13:19:16","新北市新店區安華路28-1號","121.519653333333","24.9608483333333","6500600","新店區"
"231027","0293-UT","2018/12/03 13:19:11","新北市新店區安康路一段222-2號","121.52294","24.963685","6500600","新店區"
"231028","046-UY","2018/12/03 13:19:14","新北市新店區安華路28-1號","121.519571666667","24.9608533333333","6500600","新店區"
"231001","047-UY","2018/12/03 13:19:21","新北市新店區安華路28-1號","121.51917","24.96092","6500600","新店區"
"231005","106-UY","2018/12/03 13:19:25","新北市新店區安華路28-1號","121.519663333333","24.9608616666667","6500600","新店區"
"231010","107-UY","2018/12/03 13:19:23","新北市新店區安康路一段105號","121.528995","24.961545","6500600","新店區"
"231019","108-UY","2018/12/03 13:19:21","新北市新店區安康路一段65號","121.530393333333","24.9610633333333","6500600","新店區"
"231031","110-UY","2018/12/03 13:19:20","新北市新店區安一路一段1-1號","121.519003333333","24.9613066666667","6500600","新店區"
"231011","187-VK","2018/12/03 13:19:12","新北市新店區安一路一段1-1號","121.519806666667","24.96204","6500600","新店區"
"231018","188-VK","2018/12/03 13:19:16","新北市新店區環河路111號","121.530668333333","24.9705366666667","6500600","新店區"
"231023","KEA-2219","2018/12/03 13:19:14","新北市新店區安一路一段1-1號","121.51961","24.96123","6500600","新店區"
"231026","256-BX","2018/12/03 13:19:13","新北市新店區安華路3號","121.519248333333","24.959705","6500600","新店區"
"231003","268-BY","2018/12/03 13:19:19","新北市新店區安一路一段1-1號","121.519821666667","24.9611816666667","6500600","新店區"
"231014","AAD-862","2018/12/03 13:19:18","新北市新店區安華路30巷3號","121.519235","24.9587833333333","6500600","新店區"
"231037","4716-K9","2018/12/03 13:19:26","新北市新店區安華路28-1號","121.519663333333","24.960695","6500600","新店區"
"231025","4715-K9","2018/12/03 13:19:09","新北市新店區中央六街61號","121.527746666667","24.9759866666667","6500600","新店區"
"231036","512-UM","2018/12/03 13:19:14","新北市新店區車子路10-4號","121.504836666667","24.954565","6500600","新店區"
"231013","513-UM","2018/12/03 13:19:16","新北市新店區安一路一段1-1號","121.51957","24.9611033333333","6500600","新店區"
"231034","616-UM","2018/12/03 13:19:28","新北市新店區安華路28-1號","121.519428333333","24.960545","6500600","新店區"
"231006","617-UM","2018/12/03 13:19:15","新北市新店區安華路28-1號","121.519438333333","24.9608833333333","6500600","新店區"
"231030","619-UM","2018/12/03 13:19:20","新北市新店區安華路28-1號","121.519746666667","24.9607783333333","6500600","新店區"
"231035","719-UM","2018/12/03 13:19:25","新北市新店區安一路一段1-1號","121.519533333333","24.96115","6500600","新店區"
"231029","897-TW","2018/12/03 13:19:26","新北市新店區安華路28-1號","121.519718333333","24.9607466666667","6500600","新店區"
"231004","898-TW","2018/12/03 13:19:23","新北市新店區安華路28-1號","121.519428333333","24.9609183333333","6500600","新店區"
"231024","AKT-0513","2018/12/03 13:19:14","新北市新店區環河路6號","121.53815","24.9618783333333","6500600","新店區"
"235030","003-UY","2018/12/03 13:19:27","新北市中和區中山路二段120號","121.5027","25.0038116666667","6500300","中和區"
"235028","005-UY","2018/12/03 13:19:25","新北市中和區圓通路172號","121.497195","24.99459","6500300","中和區"
"235027","006-UY","2018/12/03 13:19:20","新北市中和區中正路589巷7號","121.485841666667","24.994095","6500300","中和區"
"235020","096-UM","2018/12/03 13:19:30","新北市中和區員山路36巷13號","121.484358333333","24.991395","6500300","中和區"
"235003","097-UM","2018/12/03 13:19:21","新北市中和區安平路38號","121.509676666667","24.9949383333333","6500300","中和區"
"235029","098-UM","2018/12/03 13:19:20","新北市中和區莊敬路49巷20弄22號","121.502696666667","25.0058116666667","6500300","中和區"
"235004","150-BY","2018/12/03 13:14:49","新北市中和區中正路271號","121.495763333333","24.9937683333333","6500300","中和區"
"235022","151-BY","2018/12/03 13:19:08","新北市中和區圓通路369巷38弄19號","121.490036666667","24.982545","6500300","中和區"
"235019","183-VK","2018/12/03 13:19:29","新北市土城區金城路三段257號","121.471821666667","24.99005","6500300","中和區"
"235002","185-VK","2018/12/03 13:19:13","新北市中和區大智街111號","121.523483333333","24.9924733333333","6500300","中和區"
"235013","186-VK","2018/12/03 13:19:08","新北市中和區中正路571巷2弄11號","121.486198333333","24.9936116666667","6500300","中和區"
"235031","255-BX","2018/12/03 13:19:10","新北市中和區員山路148巷42號","121.482531666667","24.9971033333333","6500300","中和區"
"235036","301-VK","2018/12/03 13:19:17","新北市中和區連城路265號","121.49132","24.9964133333333","6500300","中和區"
"235007","352-BY","2018/12/03 13:19:15","新北市中和區景平路379號","121.504066666667","24.993345","6500300","中和區"
"235006","KEA-2878","2018/12/03 13:19:14","新北市中和區景平路159巷56號","121.512783333333","24.9911566666667","6500300","中和區"
"235014","4979-A6","2018/12/03 13:19:21","新北市中和區捷運路61巷7號","121.50896","24.98935","6500300","中和區"
"235033","4980-A6","2018/12/03 13:19:15","新北市中和區中正路510號","121.488461666667","24.9944383333333","6500300","中和區"
"235034","558-UM","2018/12/03 13:19:16","新北市中和區景平路477號","121.500138333333","24.9971066666667","6500300","中和區"
"235009","565-BX","2018/12/03 13:19:13","新北市中和區景安路200巷5號","121.503438333333","24.9915966666667","6500300","中和區"
"235018","640-BX","2018/12/03 13:19:27","新北市中和區民享街86巷23號","121.473261666667","25.0005083333333","6500300","中和區"
"235024","647-TV","2018/12/03 13:19:09","新北市中和區員山路84號","121.480876666667","24.99409","6500300","中和區"
"235011","732-UM","2018/12/03 13:19:11","新北市中和區連城路220號","121.491316666667","24.9965466666667","6500300","中和區"
"235035","783-BX","2018/12/03 13:19:25","新北市中和區中板路18巷1弄32號","121.483323333333","25.0125983333333","6500300","中和區"
"235026","800-TS","2018/12/03 13:19:31","新北市中和區景平路999巷2號","121.49538","25.0060133333333","6500300","中和區"
"235021","801-TS","2018/12/03 13:19:11","新北市中和區民享街97巷14號","121.475286666667","24.9996066666667","6500300","中和區"
"235005","802-TS","2018/12/03 13:19:22","新北市中和區中和路260-1號","121.508088333333","24.9993683333333","6500300","中和區"
"235016","805-TS","2018/12/03 13:19:16","新北市中和區南山路176-3號","121.505168333333","24.99113","6500300","中和區"
"235012","896-TW","2018/12/03 13:19:28","新北市中和區員山路36巷16-2號","121.485026666667","24.991895","6500300","中和區"
"235017","900-TW","2018/12/03 13:19:16","新北市中和區員山路36巷16-3號","121.485035","24.9917283333333","6500300","中和區"
"235015","157-BY","2018/12/03 13:19:17","新北市中和區忠孝街2-6號","121.509086666667","24.9827883333333","6500300","中和區"
"235001","AAC-213","2018/12/03 13:19:28","新北市中和區景德街78號","121.516575","24.991495","6500300","中和區"
"235023","AAC-215","2018/12/03 13:19:15","新北市中和區員山路36巷16-3號","121.485098333333","24.991335","6500300","中和區"
"247005","337-TH","2018/12/03 13:19:18","新北市五股區中興路三段163號","121.449241666667","25.08063","6501400","蘆洲區"
"247009","056-VK","2018/12/03 13:19:19","新北市五股區中興路三段2巷10號","121.449111666667","25.0808916666667","6501400","蘆洲區"
"253003","6232-TK","2018/12/03 13:19:12","新北市石門區內石門81-10號","121.56665","25.265415","6502200","石門區"
"253004","6251-TK","2018/12/03 13:19:28","新北市石門區阿里荖69號","121.611873333333","25.2701383333333","6502200","石門區"
"253002","637-UY","2018/12/03 13:19:18","新北市石門區大溪墘10-3號","121.552973333333","25.2739666666667","6502200","石門區"
"253001","KEC-0718","2018/12/03 13:19:28","新北市石門區楓林17-2號","121.537496666667","25.2938366666667","6502200","石門區"
"207002","749-BX","2018/12/03 13:19:07","新北市萬里區崁腳里崁腳路166號","121.645073333333","25.1557933333333","6502800","萬里區"
"252005","073-UM","2018/12/03 13:19:29","新北市三芝區福德里土地公埔67-6號","121.518671666667","25.227565","6502100","三芝區"
"207001","662-BX","2018/12/03 13:19:27","新北市萬里區龜吼里玉田路53號","121.680943333333","25.19362","6502800","萬里區"
"221010","269-BY","2018/12/03 13:19:31","新北市汐止區忠三街8號","121.624791666667","25.0782983333333","6501100","汐止區"
"221032","280-BY","2018/12/03 13:19:15","新北市汐止區龍安路202巷14號","121.652891666667","25.0631433333333","6501100","汐止區"
"221033","647-BX","2018/12/03 13:19:28","新北市汐止區仁愛路1號","121.658783333333","25.06457","6501100","汐止區"
"220037","491-VK","2018/12/03 13:19:23","新北市板橋區民生路二段120號","121.470485","25.0200283333333","6500100","板橋區"
"220025","687-BX","2018/12/03 13:19:17","新北市板橋區華東街1-10號","121.44832","24.9949233333333","6500100","板橋區"
"220022","895-R6","2018/12/03 13:19:26","新北市板橋區華東街1-10號","121.448605","24.994875","6500100","板橋區"
"220021","985-R7","2018/12/03 13:19:25","新北市板橋區華東街1-10號","121.448278333333","24.994925","6500100","板橋區"
"220012","AAC-253","2018/12/03 13:19:08","新北市板橋區華東街1-10號","121.448365","24.994935","6500100","板橋區"
"235032","KEA-2873","2018/12/03 13:19:14","新北市中和區員山路36巷16-3號","121.484971666667","24.9912683333333","6500300","中和區"
"235025","KEA-2875","2018/12/03 13:19:02","新北市中和區民德路187號","121.468378333333","24.9992583333333","6500300","中和區"
