"lineid","car","time","location","longitude","latitude","cityid","cityname"
"234044","148-BY","2018/12/03 13:39:25","新北市永和區永元路116號","121.522693333333","25.0024916666667","6500400","永和區"
"234078","298-R6","2018/12/03 13:39:28","新北市永和區國中路104巷8弄14號","121.525141666667","25.0065566666667","6500400","永和區"
"234036","336-UY","2018/12/03 13:39:25","新北市永和區民樂街39巷16號","121.52833","25.0002266666667","6500400","永和區"
"234062","337-UY","2018/12/03 13:39:29","新北市永和區秀朗路二段24巷28弄2號","121.519658333333","25.001765","6500400","永和區"
"234068","552-UM","2018/12/03 13:39:15","新北市永和區永和路二段237-1號","121.515658333333","25.01438","6500400","永和區"
"234005","693-BX","2018/12/03 13:39:22","新北市永和區中山路一段193號","121.509216666667","25.0088516666667","6500400","永和區"
"234015","745-BX","2018/12/03 13:39:26","新北市永和區永和路二段411號","121.51513","25.0174566666667","6500400","永和區"
"234028","746-BX","2018/12/03 13:39:21","新北市永和區民權路33號","121.519943333333","24.9977333333333","6500400","永和區"
"234052","KEA-2590","2018/12/03 13:39:28","新北市永和區竹林路39巷26號","121.519048333333","25.0147583333333","6500400","永和區"
"234012","KEA-2591","2018/12/03 13:39:21","新北市永和區永平路236號","121.508736666667","25.0109916666667","6500400","永和區"
"234060","AAD-866","2018/12/03 13:39:16","新北市永和區中正路476號","121.517358333333","25.0033566666667","6500400","永和區"
"234084","847-RS","2018/12/03 13:39:24","新北市永和區成功路一段38巷12號","121.526296666667","25.0045983333333","6500400","永和區"
"234040","862-TW","2018/12/03 13:39:19","新北市永和區永貞路302號","121.512095","25.0046666666667","6500400","永和區"
"234048","863-TW","2018/12/03 13:39:09","新北市永和區保福路二段158巷5號","121.509175","25.0152416666667","6500400","永和區"
"234025","9372-KE","2018/12/03 13:39:29","新北市永和區永和路一段155-4號","121.514303333333","25.0094483333333","6500400","永和區"
"234010","9373-KE","2018/12/03 13:39:11","新北市永和區保福路二段42號","121.51103","25.0120083333333","6500400","永和區"
"248013","025-BX","2018/12/03 13:39:12","新北市五股區中興路四段70號","121.436983333333","25.0833766666667","6501500","五股區"
"248015","026-BX","2018/12/03 13:39:09","新北市五股區凌雲路一段149巷42號","121.44858","25.1008983333333","6501500","五股區"
"248005","077-UY","2018/12/03 13:39:17","新北市五股區中興路一段52號","121.467995","25.07258","6501500","五股區"
"248007","095-VK","2018/12/03 13:39:10","新北市五股區中興路一段148號","121.464651666667","25.0740033333333","6501500","五股區"
"248019","225-UY","2018/12/03 13:37:01","新北市五股區孝義路87號","121.444411666667","25.1199283333333","6501500","五股區"
"248011","247-BX","2018/12/03 13:39:24","新北市五股區成泰路三段2巷1-20號","121.441218333333","25.0866533333333","6501500","五股區"
"248003","677-BX","2018/12/03 13:39:18","新北市五股區民義路一段226號","121.428921666667","25.0905783333333","6501500","五股區"
"248001","678-BX","2018/12/03 13:39:19","新北市五股區成泰路三段435巷11號","121.449385","25.0977983333333","6501500","五股區"
"248009","682-TV","2018/12/03 13:39:28","新北市五股區水碓七路168號","121.430871666667","25.0739416666667","6501500","五股區"
"234022","9380-KE","2018/12/03 13:39:25","新北市永和區豫溪街66號","121.517","25.0098533333333","6500400","永和區"
"234076","969-R7","2018/12/03 13:39:11","新北市永和區民權路3號","121.52032","24.998525","6500400","永和區"
"234072","AAC-211","2018/12/03 13:39:19","新北市永和區豫溪街217巷1號","121.524813333333","25.0093783333333","6500400","永和區"
"234066","AAC-212","2018/12/03 13:39:15","新北市永和區中山路一段191巷9弄6號","121.509773333333","25.008005","6500400","永和區"
"234001","AAC-295","2018/12/03 13:39:17","新北市永和區永和路一段114號","121.513823333333","25.0072933333333","6500400","永和區"
"244001","248-BX","2018/12/03 13:39:10","新北市林口區後坑34號","121.35254","25.1300533333333","6501700","林口區"
"243005","AAD-798","2018/12/03 13:21:26","新北市泰山區明志路三段206巷3號","121.42328","25.0379133333333","6501600","泰山區"
"243008","KEA-2801","2018/12/03 13:39:09","新北市泰山區泰林路二段574號","121.422495","25.0636966666667","6501600","泰山區"
"243003","KEA-2215","2018/12/03 13:39:10","新北市泰山區犁頭窠3-1號","121.422066666667","25.0605733333333","6501600","泰山區"
"243004","646-TV","2018/12/03 13:39:20","新北市泰山區黎明路25號","121.421691666667","25.0610666666667","6501600","泰山區"
"231002","002-UM","2018/12/03 13:39:16","新北市新店區中央三街127號","121.524046666667","24.9768216666667","6500600","新店區"
"231027","0293-UT","2018/12/03 13:39:11","新北市新店區新店後街15號","121.537798333333","24.9538333333333","6500600","新店區"
"231028","046-UY","2018/12/03 13:39:23","新北市新店區安和路一段39號","121.51715","24.9652683333333","6500600","新店區"
"231001","047-UY","2018/12/03 13:39:21","新北市新店區中央路13號","121.533306666667","24.97848","6500600","新店區"
"231005","106-UY","2018/12/03 13:39:25","新北市新店區寶中路72號","121.547883333333","24.9806166666667","6500600","新店區"
"231010","107-UY","2018/12/03 13:39:23","新北市新店區中正路307巷17號","121.535813333333","24.9735366666667","6500600","新店區"
"231019","108-UY","2018/12/03 13:39:21","新北市新店區永興路88-1號","121.544018333333","24.9337016666667","6500600","新店區"
"231031","110-UY","2018/12/03 13:39:20","新北市新店區安忠路102-1號","121.51047","24.9554283333333","6500600","新店區"
"231011","187-VK","2018/12/03 13:39:12","","121.544655","24.9721866666667","6500600","新店區"
"231018","188-VK","2018/12/03 13:39:16","新北市新店區百忍街7號","121.534781666667","24.9755616666667","6500600","新店區"
"231023","KEA-2219","2018/12/03 13:39:14","新北市新店區新店路79號","121.537401666667","24.9533016666667","6500600","新店區"
"231026","256-BX","2018/12/03 13:39:13","新北市新店區北新路一段319號","121.541655","24.9681416666667","6500600","新店區"
"231003","268-BY","2018/12/03 13:39:19","新北市新店區中正路74號","121.543951666667","24.9701933333333","6500600","新店區"
"231014","AAD-862","2018/12/03 13:39:18","新北市新店區竹林路2巷7號","121.550986666667","24.951745","6500600","新店區"
"231038","3712-VJ","2018/12/03 13:39:20","新北市新店區安華路28-1號","121.519295","24.96062","6500600","新店區"
"231037","4716-K9","2018/12/03 13:39:06","新北市新店區薏仁坑路35號","121.493463333333","24.962905","6500600","新店區"
"231025","4715-K9","2018/12/03 13:39:09","新北市新店區中央五街37號","121.528575","24.975025","6500600","新店區"
"231036","512-UM","2018/12/03 13:39:14","新北市新店區安祥路156巷10號","121.473255","24.9544183333333","6500600","新店區"
"231013","513-UM","2018/12/03 13:39:16","新北市新店區中正路454-5號","121.534453333333","24.979125","6500600","新店區"
"231034","616-UM","2018/12/03 13:39:28","新北市新店區車子路121號","121.505381666667","24.9513233333333","6500600","新店區"
"231006","617-UM","2018/12/03 13:39:14","新北市新店區光明街1-1號","121.538193333333","24.959165","6500600","新店區"
"231030","619-UM","2018/12/03 13:39:26","新北市新店區安康路一段355-10號","121.520821666667","24.9638416666667","6500600","新店區"
"231035","719-UM","2018/12/03 13:39:26","新北市新店區安忠路56巷6號","121.513018333333","24.95949","6500600","新店區"
"231029","897-TW","2018/12/03 13:39:26","新北市新店區安康路二段330號","121.503911666667","24.9577933333333","6500600","新店區"
"231004","898-TW","2018/12/03 13:39:23","新北市新店區北新路二段18號","121.542851666667","24.971335","6500600","新店區"
"231024","AKT-0513","2018/12/03 13:39:14","新北市新店區中華路47巷2弄1號","121.539706666667","24.9675816666667","6500600","新店區"
"235030","003-UY","2018/12/03 13:39:27","新北市中和區水源路43號","121.504716666667","25.0035783333333","6500300","中和區"
"235028","005-UY","2018/12/03 13:39:25","新北市中和區連城路107號","121.496431666667","24.99948","6500300","中和區"
"235027","006-UY","2018/12/03 13:39:29","新北市中和區連城路403巷2弄2號","121.486163333333","24.9959283333333","6500300","中和區"
"235020","096-UM","2018/12/03 13:39:10","新北市中和區員山路466巷21弄58號","121.48099","25.0077766666667","6500300","中和區"
"235003","097-UM","2018/12/03 13:39:21","新北市中和區景平路278巷10號","121.514111666667","24.9928816666667","6500300","中和區"
"235029","098-UM","2018/12/03 13:39:20","新北市中和區中山路二段2巷81弄1號","121.501143333333","25.0075083333333","6500300","中和區"
"235004","150-BY","2018/12/03 13:14:49","新北市中和區中正路271號","121.495763333333","24.9937683333333","6500300","中和區"
"235022","151-BY","2018/12/03 13:39:28","新北市中和區員山路66-3號","121.482216666667","24.9913083333333","6500300","中和區"
"235019","183-VK","2018/12/03 13:39:09","新北市中和區國光街87號","121.470465","25.0002316666667","6500300","中和區"
"235002","185-VK","2018/12/03 13:39:13","新北市中和區立人街14巷52號","121.518398333333","24.9957583333333","6500300","中和區"
"235013","186-VK","2018/12/03 13:39:28","新北市中和區明義街8號","121.504928333333","24.9949466666667","6500300","中和區"
"235031","255-BX","2018/12/03 13:39:10","新北市中和區新生街220巷4號","121.482931666667","24.9986116666667","6500300","中和區"
"235008","293-VK","2018/12/03 13:39:27","新北市中和區復興路265號","121.5028","24.9903583333333","6500300","中和區"
"235036","301-VK","2018/12/03 13:39:17","新北市中和區連城路145號","121.495695","24.9986216666667","6500300","中和區"
"235007","352-BY","2018/12/03 13:39:15","新北市中和區景平路123號","121.515185","24.99189","6500300","中和區"
"235006","KEA-2878","2018/12/03 13:39:14","新北市中和區成功路107巷2號","121.52619","24.9912566666667","6500300","中和區"
"235014","4979-A6","2018/12/03 13:39:21","新北市中和區景新街496巷30弄35號","121.512536666667","24.98556","6500300","中和區"
"235033","4980-A6","2018/12/03 13:39:15","新北市中和區連城路87號","121.496708333333","25.0003","6500300","中和區"
"235034","558-UM","2018/12/03 13:39:16","新北市中和區南華路2號","121.502161666667","24.9954283333333","6500300","中和區"
"235009","565-BX","2018/12/03 13:39:13","新北市中和區南山路236巷1號","121.506073333333","24.98918","6500300","中和區"
"235018","640-BX","2018/12/03 13:39:27","新北市中和區莒光路93號","121.472348333333","25.00321","6500300","中和區"
"235024","647-TV","2018/12/03 13:39:29","新北市中和區中山路三段7號","121.479725","25.0059416666667","6500300","中和區"
"235011","732-UM","2018/12/03 13:39:11","新北市中和區南山路320巷10弄13號","121.506763333333","24.9865966666667","6500300","中和區"
"235035","783-BX","2018/12/03 13:39:25","新北市中和區中山路二段480號","121.487696666667","25.0050516666667","6500300","中和區"
"235026","800-TS","2018/12/03 13:39:11","新北市中和區中山路二段284號","121.496233333333","25.002545","6500300","中和區"
"235021","801-TS","2018/12/03 13:39:11","新北市中和區員山路327巷10號","121.480875","25.0012183333333","6500300","中和區"
"235005","802-TS","2018/12/03 13:39:22","新北市永和區中和路575號","121.511971666667","25.003735","6500300","中和區"
"235016","805-TS","2018/12/03 13:39:15","新北市中和區興南路三段42號","121.49608","24.9773966666667","6500300","中和區"
"235012","896-TW","2018/12/03 13:39:28","新北市中和區中正路57號","121.501641666667","24.9934716666667","6500300","中和區"
"235017","900-TW","2018/12/03 13:39:16","新北市中和區華安街96號","121.468556666667","24.9957083333333","6500300","中和區"
"235015","157-BY","2018/12/03 13:39:17","新北市中和區華新街143巷106弄28號","121.506058333333","24.9786766666667","6500300","中和區"
"235001","AAC-213","2018/12/03 13:39:13","新北市中和區景德街53號","121.517593333333","24.991435","6500300","中和區"
"235023","AAC-215","2018/12/03 13:39:15","新北市中和區中正路571巷1弄4號","121.48676","24.993525","6500300","中和區"
"220013","072-UY","2018/12/03 13:39:24","新北市板橋區成都街69號","121.46239","25.0049633333333","6500100","板橋區"
"220034","073-UY","2018/12/03 13:39:08","新北市板橋區大仁街114號","121.452705","25.0158366666667","6500100","板橋區"
"220105","075-UY","2018/12/03 13:39:17","新北市板橋區民生路二段161巷1號","121.470285","25.0198683333333","6500100","板橋區"
"220017","AAD-861","2018/12/03 13:39:24","新北市板橋區南雅南路一段1巷35號","121.457706666667","25.00644","6500100","板橋區"
"247005","337-TH","2018/12/03 13:39:18","新北市蘆洲區中山二路320號","121.468413333333","25.0764916666667","6501400","蘆洲區"
"247009","056-VK","2018/12/03 13:39:19","新北市五股區中興路三段163號","121.449258333333","25.0806766666667","6501400","蘆洲區"
"253003","6232-TK","2018/12/03 13:39:12","新北市石門區內石門17-1號","121.573821666667","25.275575","6502200","石門區"
"253004","6251-TK","2018/12/03 13:39:08","新北市石門區五爪崙8-11號","121.607766666667","25.262185","6502200","石門區"
"253002","637-UY","2018/12/03 13:39:18","新北市石門區內石門78-1號","121.569273333333","25.2567733333333","6502200","石門區"
"253001","KEC-0718","2018/12/03 13:39:27","新北市石門區下員坑16號","121.507911666667","25.2794533333333","6502200","石門區"
"207002","749-BX","2018/12/03 13:39:27","新北市萬里區崁腳里崁腳路166號","121.64505","25.1558683333333","6502800","萬里區"
"252005","073-UM","2018/12/03 13:39:29","新北市三芝區圓山里內柑宅25號","121.539111666667","25.218215","6502100","三芝區"
"207001","662-BX","2018/12/03 13:39:27","新北市萬里區大鵬里萬里加投46-1號","121.641886666667","25.2110933333333","6502800","萬里區"
"236074","166-UM","2018/12/03 13:39:17","新北市土城區城林路6巷80號","121.438796666667","24.9797016666667","6501300","土城區"
"236032","271-VK","2018/12/03 13:39:10","新北市土城區城林路6巷80號","121.438501666667","24.9797833333333","6501300","土城區"
"236016","401-BY","2018/12/03 13:39:27","新北市土城區城林路6巷80號","121.438673333333","24.9796783333333","6501300","土城區"
"236057","912-UM","2018/12/03 13:39:11","新北市土城區城林路6巷80號","121.438506666667","24.979775","6501300","土城區"
"221010","269-BY","2018/12/03 13:39:11","新北市汐止區康寧街469號","121.631835","25.0684716666667","6501100","汐止區"
"221032","280-BY","2018/12/03 13:39:15","新北市汐止區秀峰路60號","121.659421666667","25.0655933333333","6501100","汐止區"
"221033","647-BX","2018/12/03 13:39:07","新北市新店區安華路30巷3號","121.51906","24.9588933333333","6501100","汐止區"
"220027","145-BY","2018/12/03 13:39:23","新北市板橋區南雅西路二段145巷4號","121.451733333333","25.01176","6500100","板橋區"
"220028","200-UY","2018/12/03 13:39:14","新北市板橋區大觀路二段265巷76弄30號","121.441335","24.9968083333333","6500100","板橋區"
"220030","610-BX","2018/12/03 13:39:26","新北市板橋區篤行路一段33號","121.432043333333","24.994265","6500100","板橋區"
"220004","276-BY","2018/12/03 13:39:15","新北市板橋區四川路一段51號","121.459673333333","25.006335","6500100","板橋區"
"220020","277-BY","2018/12/03 13:39:29","新北市板橋區大觀路三段89號","121.433101666667","24.9948966666667","6500100","板橋區"
"220043","283-UM","2018/12/03 13:39:15","新北市板橋區民生路二段161巷3號","121.470043333333","25.0197666666667","6500100","板橋區"
"220019","283-VK","2018/12/03 13:39:20","新北市板橋區四川路一段373號","121.45825","24.999535","6500100","板橋區"
"220031","286-VK","2018/12/03 13:39:23","新北市板橋區大觀路二段22號","121.446723333333","25.003225","6500100","板橋區"
"220029","287-VK","2018/12/03 13:39:14","新北市板橋區大觀路二段103號","121.446228333333","25.0018083333333","6500100","板橋區"
"220039","288-VK","2018/12/03 13:39:22","新北市板橋區民生路二段120號","121.470431666667","25.0198283333333","6500100","板橋區"
"220009","293-UM","2018/12/03 13:39:12","新北市板橋區民生路二段120號","121.470651666667","25.019385","6500100","板橋區"
"220032","296-UM","2018/12/03 13:39:28","新北市板橋區大觀路二段146-4號","121.44193","24.9987816666667","6500100","板橋區"
"220023","303-R5","2018/12/03 13:39:19","新北市板橋區華東街298號","121.452745","25.0027433333333","6500100","板橋區"
"220010","305-R5","2018/12/03 13:39:14","新北市板橋區民生路二段120號","121.470373333333","25.0197233333333","6500100","板橋區"
"220041","307-R5","2018/12/03 13:39:29","新北市板橋區民生路二段120號","121.470553333333","25.019535","6500100","板橋區"
"220047","317-R6","2018/12/03 13:39:14","新北市板橋區民生路二段161巷1號","121.470148333333","25.0198716666667","6500100","板橋區"
"220038","487-VK","2018/12/03 13:39:11","新北市板橋區民生路二段148號","121.471346666667","25.0199333333333","6500100","板橋區"
"242006","280-VK","2018/12/03 13:39:26","新北市新莊區中港路250號","121.45378","25.0433866666667","6500500","新莊區"
"220037","491-VK","2018/12/03 13:39:23","新北市板橋區民生路二段120號","121.470451666667","25.0197666666667","6500100","板橋區"
"220104","560-BX","2018/12/03 13:39:13","新北市板橋區南雅西路二段145巷3號","121.451676666667","25.01151","6500100","板橋區"
"220052","561-BX","2018/12/03 13:39:14","新北市板橋區民生路二段89-6號","121.470773333333","25.0191983333333","6500100","板橋區"
"220011","609-BX","2018/12/03 13:39:27","新北市板橋區民生路二段120號","121.470413333333","25.0197533333333","6500100","板橋區"
"220040","637-BX","2018/12/03 13:39:09","新北市板橋區民生路二段161巷9號","121.470278333333","25.0197","6500100","板橋區"
"220005","686-BX","2018/12/03 13:39:16","新北市板橋區南雅南路二段144巷60號","121.450273333333","24.9974133333333","6500100","板橋區"
"220025","687-BX","2018/12/03 13:39:17","新北市板橋區大觀路三段212巷70號","121.429828333333","24.99353","6500100","板橋區"
"220002","741-BX","2018/12/03 13:39:24","新北市板橋區南雅南路二段116號","121.452451666667","25.0004033333333","6500100","板橋區"
"220051","KEA-2699","2018/12/03 13:39:24","新北市板橋區民生路二段120號","121.47069","25.01958","6500100","板橋區"
"220003","827-TW","2018/12/03 13:39:22","新北市板橋區忠孝路40號","121.460385","25.0018466666667","6500100","板橋區"
"220022","895-R6","2018/12/03 13:39:26","新北市板橋區南雅南路一段8號","121.455863333333","25.0063933333333","6500100","板橋區"
"220021","985-R7","2018/12/03 13:39:25","新北市板橋區四川路二段23-3號","121.454733333333","24.99568","6500100","板橋區"
"220012","AAC-253","2018/12/03 13:39:28","新北市板橋區民生路二段36-1號","121.472001666667","25.0169433333333","6500100","板橋區"
"235032","KEA-2873","2018/12/03 13:39:14","新北市中和區中正路211巷13弄50號","121.498011666667","24.9929516666667","6500300","中和區"
"235025","KEA-2875","2018/12/03 13:39:02","新北市中和區民享街114巷7號","121.474216666667","24.9992716666667","6500300","中和區"
