"lineid","car","time","location","longitude","latitude","cityid","cityname"
"234044","148-BY","2018/12/03 13:59:07","新北市永和區成功路一段26號","121.527016666667","25.0048016666667","6500400","永和區"
"234078","298-R6","2018/12/03 13:59:11","新北市永和區永利路81巷3號","121.521496666667","25.0038716666667","6500400","永和區"
"234036","336-UY","2018/12/03 13:59:25","新北市永和區成功路二段120號","121.526528333333","24.9977483333333","6500400","永和區"
"234062","337-UY","2018/12/03 13:59:29","新北市永和區中正路412巷20弄32號","121.519145","25.001205","6500400","永和區"
"234068","552-UM","2018/12/03 13:59:15","新北市永和區福和路222號","121.519203333333","25.0079466666667","6500400","永和區"
"234005","693-BX","2018/12/03 13:59:22","新北市中和區中和路382號","121.510748333333","25.002255","6500400","永和區"
"234015","745-BX","2018/12/03 13:59:26","新北市永和區文化路94號","121.513738333333","25.0152566666667","6500400","永和區"
"234028","746-BX","2018/12/03 13:59:21","新北市永和區民生路47巷54號","121.525435","24.9978183333333","6500400","永和區"
"234052","KEA-2590","2018/12/03 13:59:28","新北市永和區竹林路37號","121.517953333333","25.0142316666667","6500400","永和區"
"234012","KEA-2591","2018/12/03 13:59:21","新北市永和區保生路55號","121.50472","25.0106016666667","6500400","永和區"
"234060","AAD-866","2018/12/03 13:59:27","新北市永和區中正路283巷57號","121.515541666667","24.998925","6500400","永和區"
"234084","847-RS","2018/12/03 13:59:24","新北市永和區福和路272號","121.51801","25.0075366666667","6500400","永和區"
"234040","862-TW","2018/12/03 13:59:20","新北市永和區中和路335巷18弄30號","121.508158333333","25.0004033333333","6500400","永和區"
"234048","863-TW","2018/12/03 13:59:29","新北市永和區新生路193巷6弄16號","121.507013333333","25.0136583333333","6500400","永和區"
"248015","026-BX","2018/12/03 13:59:29","新北市五股區成泰路三段543巷16號","121.450941666667","25.1021966666667","6501500","五股區"
"248007","095-VK","2018/12/03 13:59:11","新北市五股區中興路一段118巷6弄9號","121.466313333333","25.07449","6501500","五股區"
"248019","225-UY","2018/12/03 13:57:01","新北市五股區凌雲路三段57號","121.425305","25.12499","6501500","五股區"
"248011","247-BX","2018/12/03 13:59:24","新北市五股區成泰路二段195巷1號","121.4403","25.0873483333333","6501500","五股區"
"248003","677-BX","2018/12/03 13:59:18","新北市五股區民義路三段1號","121.402513333333","25.114415","6501500","五股區"
"248001","678-BX","2018/12/03 13:59:19","新北市五股區凌雲路一段158巷6號","121.448011666667","25.10276","6501500","五股區"
"248009","682-TV","2018/12/03 13:59:28","新北市五股區水碓一路23號","121.430588333333","25.0712916666667","6501500","五股區"
"234022","9380-KE","2018/12/03 13:59:25","新北市永和區復興街29號","121.516363333333","25.0131433333333","6500400","永和區"
"234076","969-R7","2018/12/03 13:59:31","新北市永和區民族街43巷6號","121.518731666667","24.998415","6500400","永和區"
"234072","AAC-211","2018/12/03 13:59:18","新北市永和區豫溪街185號","121.522501666667","25.0103566666667","6500400","永和區"
"234066","AAC-212","2018/12/03 13:59:15","新北市永和區永貞路374號","121.509878333333","25.0068266666667","6500400","永和區"
"234001","AAC-295","2018/12/03 13:59:17","新北市永和區福和路316號","121.516041666667","25.0074316666667","6500400","永和區"
"244001","248-BX","2018/12/03 13:59:30","新北市林口區太平里180號","121.366486666667","25.1344766666667","6501700","林口區"
"243001","297-R6","2018/12/03 13:59:27","新北市泰山區福德街18號","121.432078333333","25.0627466666667","6501600","泰山區"
"243008","KEA-2801","2018/12/03 13:59:09","新北市泰山區明志路二段137號","121.427685","25.0506633333333","6501600","泰山區"
"243007","421-VK","2018/12/03 13:59:21","新北市泰山區泰林路二段245號","121.431943333333","25.0621516666667","6501600","泰山區"
"243003","KEA-2215","2018/12/03 13:59:10","新北市泰山區明志路二段254號","121.42695","25.0476933333333","6501600","泰山區"
"243002","KEA-2216","2018/12/03 13:59:26","新北市泰山區辭修路24號","121.42904","25.058195","6501600","泰山區"
"243004","646-TV","2018/12/03 13:59:21","新北市泰山區福興三街170號","121.43235","25.0570333333333","6501600","泰山區"
"243006","680-BX","2018/12/03 13:59:21","新北市泰山區黎明路23號","121.4209","25.0625833333333","6501600","泰山區"
"231002","002-UM","2018/12/03 13:59:16","新北市新店區復興路108號","121.532081666667","24.9899033333333","6500600","新店區"
"231027","0293-UT","2018/12/03 13:59:11","新北市新店區中興路一段24-2號","121.538516666667","24.9583366666667","6500600","新店區"
"231028","046-UY","2018/12/03 13:59:14","新北市新店區安和路三段7號","121.518046666667","24.98059","6500600","新店區"
"231001","047-UY","2018/12/03 13:59:21","新北市新店區三民路43號","121.537125","24.9708516666667","6500600","新店區"
"231005","106-UY","2018/12/03 13:59:25","新北市新店區中興路三段221-3號","121.543398333333","24.9825","6500600","新店區"
"231010","107-UY","2018/12/03 13:59:23","新北市新店區環河路88號","121.536768333333","24.96366","6500600","新店區"
"231019","108-UY","2018/12/03 13:59:21","新北市新店區新烏路二段40號","121.544828333333","24.9282683333333","6500600","新店區"
"231031","110-UY","2018/12/03 13:59:20","新北市新店區莒光路44巷21弄11-3號","121.518368333333","24.9521566666667","6500600","新店區"
"231011","187-VK","2018/12/03 13:59:28","新北市新店區中正路54巷25號","121.544976666667","24.9709466666667","6500600","新店區"
"231018","188-VK","2018/12/03 13:59:16","新北市新店區中央路133巷29號","121.531791666667","24.9731566666667","6500600","新店區"
"231023","KEA-2219","2018/12/03 13:59:14","新北市新店區文中路54號","121.540085","24.9564733333333","6500600","新店區"
"231026","256-BX","2018/12/03 13:59:13","新北市新店區環河路88號","121.536808333333","24.9637033333333","6500600","新店區"
"231003","268-BY","2018/12/03 13:59:19","新北市新店區中興路一段81號","121.5408","24.9617333333333","6500600","新店區"
"231014","AAD-862","2018/12/03 13:59:18","新北市新店區郵政路4巷12號","121.55609","24.9517716666667","6500600","新店區"
"231038","3712-VJ","2018/12/03 13:59:20","新北市新店區安華路30巷1號","121.519556666667","24.9592466666667","6500600","新店區"
"231037","4716-K9","2018/12/03 13:59:26","新北市新店區安康路三段359巷12弄2號","121.484488333333","24.9500933333333","6500600","新店區"
"231025","4715-K9","2018/12/03 13:59:29","新北市新店區中正路328巷41號","121.53793","24.9763033333333","6500600","新店區"
"231036","512-UM","2018/12/03 13:59:14","新北市新店區安祥路110巷30弄1號","121.473956666667","24.9564083333333","6500600","新店區"
"231013","513-UM","2018/12/03 13:59:16","新北市新店區明德路111號","121.541518333333","24.9794216666667","6500600","新店區"
"231034","616-UM","2018/12/03 13:57:10","新北市新店區達觀路24號","121.501786666667","24.9408133333333","6500600","新店區"
"231006","617-UM","2018/12/03 13:59:14","新北市新店區北宜路二段209號","121.553176666667","24.9534133333333","6500600","新店區"
"231030","619-UM","2018/12/03 13:59:20","新北市新店區安康路一段267號","121.524186666667","24.963405","6500600","新店區"
"231035","719-UM","2018/12/03 13:59:25","新北市新店區安忠路36號","121.514388333333","24.9612866666667","6500600","新店區"
"231029","897-TW","2018/12/03 13:59:26","新北市新店區安康路二段71號","121.513778333333","24.963115","6500600","新店區"
"231004","898-TW","2018/12/03 13:59:23","新北市新店區北新路二段167號","121.542795","24.97639","6500600","新店區"
"231024","AKT-0513","2018/12/03 13:59:14","新北市新店區新生街13巷18號","121.539118333333","24.9660766666667","6500600","新店區"
"235030","003-UY","2018/12/03 13:59:27","新北市中和區中山路二段131巷5弄3號","121.502826666667","25.0028666666667","6500300","中和區"
"235028","005-UY","2018/12/03 13:59:25","新北市中和區泰和街30巷19號","121.498976666667","25.001035","6500300","中和區"
"235027","006-UY","2018/12/03 13:59:20","新北市中和區中正路578號","121.486166666667","24.9947283333333","6500300","中和區"
"235020","096-UM","2018/12/03 13:59:10","新北市中和區中正路1184號","121.481128333333","25.010175","6500300","中和區"
"235003","097-UM","2018/12/03 13:59:21","新北市中和區秀朗路三段179號","121.524381666667","24.99079","6500300","中和區"
"235029","098-UM","2018/12/03 13:59:20","新北市中和區福祥路135號","121.498393333333","25.0073283333333","6500300","中和區"
"235004","150-BY","2018/12/03 13:59:29","新北市中和區保健路46巷18號","121.509065","24.9963033333333","6500300","中和區"
"235022","151-BY","2018/12/03 13:59:28","新北市中和區連城路428巷13號","121.47977","24.9955616666667","6500300","中和區"
"235019","183-VK","2018/12/03 13:59:29","新北市中和區德光路22號","121.47099","25.0044666666667","6500300","中和區"
"235002","185-VK","2018/12/03 13:59:13","新北市中和區立人街24-5號","121.518828333333","24.9942116666667","6500300","中和區"
"235013","186-VK","2018/12/03 13:59:28","新北市中和區景安路167巷5號","121.505748333333","24.9946316666667","6500300","中和區"
"235031","255-BX","2018/12/03 13:59:09","新北市中和區新生街164號","121.483686666667","25.0002533333333","6500300","中和區"
"235008","293-VK","2018/12/03 13:59:27","新北市中和區中興街161巷5弄22號","121.500855","24.9913966666667","6500300","中和區"
"235036","301-VK","2018/12/03 13:59:17","新北市中和區中山路二段101號","121.503288333333","25.0040083333333","6500300","中和區"
"235007","352-BY","2018/12/03 13:59:15","新北市中和區秀朗路三段103號","121.526513333333","24.9947516666667","6500300","中和區"
"235006","KEA-2878","2018/12/03 13:59:13","新北市中和區秀朗路三段24號","121.52646","24.9963733333333","6500300","中和區"
"235014","4979-A6","2018/12/03 13:59:21","新北市中和區華新街50巷7號","121.507616666667","24.9839116666667","6500300","中和區"
"235033","4980-A6","2018/12/03 13:59:16","新北市中和區圓通路109巷11號","121.500098333333","24.99628","6500300","中和區"
"235034","558-UM","2018/12/03 13:59:16","新北市中和區安和路163號","121.506151666667","24.9974516666667","6500300","中和區"
"235009","565-BX","2018/12/03 13:59:13","新北市中和區景新街467巷20弄29號","121.514706666667","24.9875683333333","6500300","中和區"
"235018","640-BX","2018/12/03 13:59:27","新北市中和區民享街4號","121.47399","25.0051416666667","6500300","中和區"
"235024","647-TV","2018/12/03 13:59:29","新北市中和區民治街23巷1號","121.475351666667","25.002235","6500300","中和區"
"235011","732-UM","2018/12/03 13:59:11","新北市中和區興南路二段54巷11弄2號","121.50567","24.9855633333333","6500300","中和區"
"235010","733-UM","2018/12/03 13:59:11","新北市中和區興南路二段5號","121.508151666667","24.9862333333333","6500300","中和區"
"235035","783-BX","2018/12/03 13:59:25","新北市中和區立德街49號","121.488181666667","25.00752","6500300","中和區"
"235026","800-TS","2018/12/03 13:59:11","新北市中和區中山路二段340巷42號","121.493228333333","25.0039833333333","6500300","中和區"
"235021","801-TS","2018/12/03 13:59:11","新北市中和區民利街89號","121.478031666667","24.9979733333333","6500300","中和區"
"235005","802-TS","2018/12/03 13:59:23","新北市中和區中安街54號","121.512805","25.0024233333333","6500300","中和區"
"235016","805-TS","2018/12/03 13:59:16","新北市中和區興南路二段131-6號","121.50378","24.9815316666667","6500300","中和區"
"235012","896-TW","2018/12/03 13:59:28","新北市中和區華新街79號","121.50836","24.9837016666667","6500300","中和區"
"235017","900-TW","2018/12/03 13:59:24","新北市中和區和平路200巷35弄1號","121.465331666667","24.99459","6500300","中和區"
"235015","157-BY","2018/12/03 13:59:17","新北市中和區忠孝街31巷33弄2號","121.509753333333","24.9845683333333","6500300","中和區"
"235001","AAC-213","2018/12/03 13:59:13","新北市中和區自立路99巷11號","121.522545","24.9948066666667","6500300","中和區"
"235023","AAC-215","2018/12/03 13:59:15","新北市中和區圓通路369巷31號","121.490733333333","24.9881566666667","6500300","中和區"
"220013","072-UY","2018/12/03 13:59:24","新北市板橋區漢生東路337號","121.47202","25.007535","6500100","板橋區"
"220034","073-UY","2018/12/03 13:59:28","新北市板橋區中正路236巷39號","121.457561666667","25.0193366666667","6500100","板橋區"
"220105","075-UY","2018/12/03 13:59:17","新北市板橋區雙十路三段9號","121.471658333333","25.0302733333333","6500100","板橋區"
"220017","AAD-861","2018/12/03 13:59:25","新北市板橋區華興街43號","121.457865","25.0046783333333","6500100","板橋區"
"247001","893-R6","2018/12/03 13:59:25","新北市蘆洲區永平街32巷62弄2號","121.460006666667","25.09284","6501400","蘆洲區"
"247015","546-UM","2018/12/03 13:59:23","新北市蘆洲區光華路28號","121.469413333333","25.0833083333333","6501400","蘆洲區"
"247005","337-TH","2018/12/03 13:59:18","新北市蘆洲區永安南路二段50號","121.466098333333","25.0776333333333","6501400","蘆洲區"
"247019","057-VK","2018/12/03 13:59:17","新北市蘆洲區民族路422巷17號","121.473898333333","25.0928083333333","6501400","蘆洲區"
"247009","056-VK","2018/12/03 13:59:19","新北市蘆洲區集賢路224巷27號","121.48176","25.0870983333333","6501400","蘆洲區"
"247013","053-VK","2018/12/03 13:59:19","新北市蘆洲區中正路187號","121.468531666667","25.085685","6501400","蘆洲區"
"247017","007-UY","2018/12/03 13:59:22","新北市蘆洲區民族路327巷77號","121.475353333333","25.089575","6501400","蘆洲區"
"247003","002-UY","2018/12/03 13:59:22","新北市蘆洲區中華街6巷2號","121.463301666667","25.0818166666667","6501400","蘆洲區"
"247021","001-UY","2018/12/03 13:59:16","新北市蘆洲區中正路263巷2號","121.467356666667","25.087415","6501400","蘆洲區"
"253003","6232-TK","2018/12/03 13:59:12","新北市石門區尖子鹿51號","121.57959","25.2716766666667","6502200","石門區"
"253004","6251-TK","2018/12/03 13:59:28","新北市石門區草埔尾19-3號","121.602683333333","25.2634183333333","6502200","石門區"
"253002","637-UY","2018/12/03 13:58:18","新北市石門區七股59號","121.552906666667","25.2534966666667","6502200","石門區"
"253001","KEC-0718","2018/12/03 13:59:27","新北市石門區八甲78號","121.529928333333","25.263115","6502200","石門區"
"207002","749-BX","2018/12/03 13:59:07","新北市萬里區溪底里烏塗炭9號","121.636993333333","25.1514916666667","6502800","萬里區"
"252005","073-UM","2018/12/03 13:59:09","新北市三芝區橫山里大坑70-3號","121.533785","25.2544","6502100","三芝區"
"207001","662-BX","2018/12/03 13:59:27","新北市萬里區磺潭里清水18-3號","121.638743333333","25.198725","6502800","萬里區"
"236040","KED-0685","2018/12/03 13:59:20","新北市土城區城林路6巷80號","121.438491666667","24.9797616666667","6501300","土城區"
"236074","166-UM","2018/12/03 13:59:17","新北市土城區永寧路32巷10弄3號","121.428855","24.9610316666667","6501300","土城區"
"236024","269-VK","2018/12/03 13:59:16","新北市土城區承天路23號","121.436438333333","24.965615","6501300","土城區"
"236012","270-VK","2018/12/03 13:59:14","新北市土城區城林路6巷80號","121.43849","24.9797716666667","6501300","土城區"
"236032","271-VK","2018/12/03 13:59:30","新北市土城區城林路6巷80號","121.438503333333","24.9798033333333","6501300","土城區"
"247007","KED-0683","2018/12/03 13:59:24","新北市蘆洲區集賢路237號","121.481978333333","25.0851583333333","6501400","蘆洲區"
"236016","401-BY","2018/12/03 13:59:27","新北市土城區城林路6巷80號","121.438708333333","24.9796716666667","6501300","土城區"
"236054","752-BX","2018/12/03 13:59:27","新北市土城區城林路6巷80號","121.438825","24.9796833333333","6501300","土城區"
"236057","912-UM","2018/12/03 13:59:11","新北市土城區中央路三段266號","121.427043333333","24.963855","6501300","土城區"
"236045","913-UM","2018/12/03 13:59:11","新北市土城區城林路6巷80號","121.438503333333","24.9797216666667","6501300","土城區"
"236060","915-UM","2018/12/03 13:59:24","新北市土城區中華路一段301號","121.440016666667","24.97931","6501300","土城區"
"221010","269-BY","2018/12/03 13:59:11","新北市汐止區康寧街901號","121.651","25.0752466666667","6501100","汐止區"
"221033","647-BX","2018/12/03 13:59:28","新北市新店區車子路10-2號","121.504618333333","24.9547566666667","6501100","汐止區"
"220027","145-BY","2018/12/03 13:59:23","新北市板橋區中正路183巷15號","121.455551666667","25.0160516666667","6500100","板橋區"
"220028","200-UY","2018/12/03 13:59:13","新北市板橋區大觀路二段265巷20弄2號","121.442878333333","24.9982616666667","6500100","板橋區"
"220030","610-BX","2018/12/03 13:59:26","新北市板橋區滿平街81巷120弄22號","121.427931666667","24.988965","6500100","板橋區"
"220050","245-BX","2018/12/03 13:59:09","新北市板橋區萬板路13號","121.470526666667","25.0209316666667","6500100","板橋區"
"220004","276-BY","2018/12/03 13:59:15","新北市板橋區信義路148號","121.45891","24.9917416666667","6500100","板橋區"
"220020","277-BY","2018/12/03 13:59:25","新北市板橋區篤行路二段135號","121.430276666667","24.989005","6500100","板橋區"
"220043","283-UM","2018/12/03 13:59:17","新北市板橋區光武街163號","121.46527","25.0297833333333","6500100","板橋區"
"220019","283-VK","2018/12/03 13:59:20","新北市板橋區重慶路253-2號","121.463753333333","25.0003766666667","6500100","板橋區"
"220001","285-VK","2018/12/03 13:59:27","新北市板橋區中山路二段89巷44號","121.473736666667","25.01711","6500100","板橋區"
"220031","286-VK","2018/12/03 13:59:23","新北市板橋區龍興街101巷3號","121.44419","25.0032216666667","6500100","板橋區"
"220029","287-VK","2018/12/03 13:59:14","新北市板橋區光華街19巷1號","121.45368","25.01208","6500100","板橋區"
"220039","288-VK","2018/12/03 13:59:22","新北市板橋區裕民街52號","121.461461666667","25.0287683333333","6500100","板橋區"
"220009","293-UM","2018/12/03 13:59:12","新北市板橋區中山路二段273號","121.477718333333","25.0179716666667","6500100","板橋區"
"220032","296-UM","2018/12/03 13:59:27","新北市板橋區大觀路三段36巷5-2號","121.433176666667","24.9958216666667","6500100","板橋區"
"220023","303-R5","2018/12/03 13:59:19","新北市板橋區大智街90號","121.453426666667","25.01576","6500100","板橋區"
"220010","305-R5","2018/12/03 13:59:21","新北市板橋區三民路二段245巷73號","121.481171666667","25.0125966666667","6500100","板橋區"
"220041","307-R5","2018/12/03 13:59:18","新北市板橋區文化路二段225巷56號","121.469388333333","25.02846","6500100","板橋區"
"220047","317-R6","2018/12/03 13:59:29","新北市板橋區民生路二段240巷13號","121.46886","25.0231516666667","6500100","板橋區"
"220038","487-VK","2018/12/03 13:59:30","新北市板橋區文化路二段353號","121.472845","25.0306633333333","6500100","板橋區"
"220037","491-VK","2018/12/03 13:59:23","新北市板橋區莒光路158號","121.473741666667","25.0239683333333","6500100","板橋區"
"220104","560-BX","2018/12/03 13:59:13","新北市板橋區中正路341巷6號","121.454608333333","25.0203533333333","6500100","板橋區"
"220052","561-BX","2018/12/03 13:59:14","新北市板橋區介壽街84巷2號","121.470033333333","25.0186233333333","6500100","板橋區"
"220011","609-BX","2018/12/03 13:59:27","新北市板橋區三民路二段33號","121.479501666667","25.01752","6500100","板橋區"
"220040","637-BX","2018/12/03 13:59:31","新北市板橋區大同街8巷43號","121.47784","25.026255","6500100","板橋區"
"220005","686-BX","2018/12/03 13:59:23","新北市板橋區重慶路265號","121.463285","24.9999733333333","6500100","板橋區"
"220025","687-BX","2018/12/03 13:59:17","新北市板橋區大觀路二段174巷149號","121.441496666667","25.002655","6500100","板橋區"
"220042","689-BX","2018/12/03 13:59:27","新北市板橋區民生路三段119號","121.466286666667","25.0256483333333","6500100","板橋區"
"220002","741-BX","2018/12/03 13:59:24","新北市板橋區重慶路127巷11號","121.463123333333","25.0049016666667","6500100","板橋區"
"220051","KEA-2699","2018/12/03 13:59:24","新北市板橋區田單街2巷38號","121.482273333333","25.027685","6500100","板橋區"
"220003","827-TW","2018/12/03 13:59:23","新北市板橋區新站路3號","121.467023333333","25.011415","6500100","板橋區"
"220016","830-TW","2018/12/03 13:59:26","新北市板橋區中山路二段465巷9號","121.481593333333","25.02089","6500100","板橋區"
"220014","831-TW","2018/12/03 13:59:29","新北市板橋區三民路2段正泰3巷18-1號","121.477861666667","25.0142016666667","6500100","板橋區"
"220022","895-R6","2018/12/03 13:59:26","新北市板橋區館前西路123號","121.456646666667","25.007475","6500100","板橋區"
"220021","985-R7","2018/12/03 13:59:25","新北市板橋區館前西路195號","121.455276666667","25.0083566666667","6500100","板橋區"
"220046","AAC-210","2018/12/03 13:59:27","新北市板橋區新海路135巷33號","121.459936666667","25.0227966666667","6500100","板橋區"
"220012","AAC-253","2018/12/03 13:59:28","新北市板橋區板新路89號","121.47314","25.0137683333333","6500100","板橋區"
"235032","KEA-2873","2018/12/03 13:59:14","新北市中和區連勝街38巷2號","121.497913333333","24.9978366666667","6500300","中和區"
"235025","KEA-2875","2018/12/03 13:59:02","新北市中和區民享街59巷8號","121.474565","25.00247","6500300","中和區"
