"lineid","car","time","location","longitude","latitude","cityid","cityname"
"234044","148-BY","2018/12/03 14:09:25","新北市永和區得和路352號","121.523826666667","24.9994483333333","6500400","永和區"
"234078","298-R6","2018/12/03 14:09:31","新北市永和區國中路86巷1號","121.524595","25.006185","6500400","永和區"
"234036","336-UY","2018/12/03 14:09:25","新北市永和區環河東路三段96號","121.528053333333","25.0040233333333","6500400","永和區"
"234062","337-UY","2018/12/03 14:09:09","新北市永和區永利路122號","121.52159","25.00295","6500400","永和區"
"234068","552-UM","2018/12/03 14:09:21","新北市永和區永貞路8號","121.520746666667","25.0073","6500400","永和區"
"234005","693-BX","2018/12/03 14:09:22","新北市永和區中和路381號","121.508611666667","24.9999466666667","6500400","永和區"
"234015","745-BX","2018/12/03 14:09:26","新北市永和區仁愛路45號","121.513905","25.0132016666667","6500400","永和區"
"234028","746-BX","2018/12/03 14:09:21","新北市永和區民權路49巷8號","121.52057","24.9970183333333","6500400","永和區"
"234052","KEA-2590","2018/12/03 14:09:28","新北市永和區環河東路一段122號","121.520658333333","25.0154983333333","6500400","永和區"
"234012","KEA-2591","2018/12/03 14:09:21","新北市永和區仁愛路287號","121.505583333333","25.0094566666667","6500400","永和區"
"234060","AAD-866","2018/12/03 14:09:15","新北市永和區安樂路100巷11號","121.514475","24.9991933333333","6500400","永和區"
"234084","847-RS","2018/12/03 14:09:24","新北市永和區福和路70號","121.523221666667","25.00812","6500400","永和區"
"234040","862-TW","2018/12/03 14:09:19","新北市永和區雙和街64巷25號","121.509695","25.0032983333333","6500400","永和區"
"234048","863-TW","2018/12/03 14:09:29","新北市永和區環河西路二段147號","121.505715","25.0141233333333","6500400","永和區"
"234025","9372-KE","2018/12/03 14:09:29","新北市永和區安樂路304巷2號","121.514441666667","25.0049683333333","6500400","永和區"
"234010","9373-KE","2018/12/03 14:09:31","新北市永和區仁愛路352巷116號","121.500428333333","25.0083716666667","6500400","永和區"
"248015","026-BX","2018/12/03 14:09:29","新北市五股區成泰路三段543巷41-1號","121.449603333333","25.1030383333333","6501500","五股區"
"248007","095-VK","2018/12/03 14:09:31","新北市五股區中興路二段1號","121.463076666667","25.0739816666667","6501500","五股區"
"248019","225-UY","2018/12/03 13:57:01","新北市五股區凌雲路三段57號","121.425305","25.12499","6501500","五股區"
"248011","247-BX","2018/12/03 14:09:24","新北市五股區工商路38號","121.439511666667","25.0838016666667","6501500","五股區"
"248003","677-BX","2018/12/03 14:09:18","新北市五股區六合街3號","121.431785","25.0885033333333","6501500","五股區"
"248001","678-BX","2018/12/03 14:09:19","新北市五股區成泰路三段577巷50號","121.450793333333","25.10318","6501500","五股區"
"248009","682-TV","2018/12/03 14:09:28","新北市五股區水碓一路23號","121.43063","25.071305","6501500","五股區"
"234022","9380-KE","2018/12/03 14:09:13","新北市永和區博愛街32巷17-1號","121.518838333333","25.01525","6500400","永和區"
"234076","969-R7","2018/12/03 14:09:11","新北市永和區民族街81巷62號","121.520286666667","24.9964633333333","6500400","永和區"
"234072","AAC-211","2018/12/03 14:09:18","新北市永和區豫溪街156號","121.522971666667","25.0097816666667","6500400","永和區"
"234066","AAC-212","2018/12/03 14:09:15","新北市永和區保平路214巷12弄1號","121.508985","25.0067683333333","6500400","永和區"
"234001","AAC-295","2018/12/03 14:09:17","新北市永和區中正路708號","121.516015","25.0099816666667","6500400","永和區"
"244001","248-BX","2018/12/03 14:08:30","新北市林口區寶斗厝坑79號","121.332411666667","25.119235","6501700","林口區"
"243005","AAD-798","2018/12/03 14:09:12","新北市泰山區台麗街6巷11號","121.424123333333","25.0376783333333","6501600","泰山區"
"243001","297-R6","2018/12/03 14:09:27","新北市泰山區楓江路25巷3號","121.434433333333","25.063115","6501600","泰山區"
"243008","KEA-2801","2018/12/03 14:09:29","新北市泰山區明志路二段341號","121.425511666667","25.044665","6501600","泰山區"
"243007","421-VK","2018/12/03 14:09:24","新北市泰山區明志路一段509號","121.430501666667","25.0543233333333","6501600","泰山區"
"243003","KEA-2215","2018/12/03 14:09:30","新北市泰山區明志路二段372巷2號","121.425396666667","25.04501","6501600","泰山區"
"243002","KEA-2216","2018/12/03 14:09:26","新北市泰山區明志路一段481號","121.43104","25.0553416666667","6501600","泰山區"
"243004","646-TV","2018/12/03 14:09:21","新北市泰山區辭修路2號","121.430475","25.0577316666667","6501600","泰山區"
"243006","680-BX","2018/12/03 14:09:21","新北市泰山區泰林路二段444號","121.426406666667","25.0643316666667","6501600","泰山區"
"231002","002-UM","2018/12/03 14:09:25","新北市新店區中正路547號","121.533783333333","24.9877316666667","6500600","新店區"
"231027","0293-UT","2018/12/03 14:09:11","新北市新店區北宜路一段7號","121.538466666667","24.958265","6500600","新店區"
"231028","046-UY","2018/12/03 14:09:29","新北市新店區安和路三段89號","121.517745","24.984005","6500600","新店區"
"231001","047-UY","2018/12/03 14:09:21","新北市新店區中華路50號","121.53962","24.9684466666667","6500600","新店區"
"231005","106-UY","2018/12/03 14:09:25","新北市新店區中興路三段297號","121.542225","24.9851966666667","6500600","新店區"
"231010","107-UY","2018/12/03 14:09:23","新北市新店區安華路28-1號","121.519625","24.9607916666667","6500600","新店區"
"231019","108-UY","2018/12/03 14:09:21","新北市新店區屈尺路75號","121.545535","24.9226583333333","6500600","新店區"
"231031","110-UY","2018/12/03 14:09:20","新北市新店區太平路44號","121.533055","24.959245","6500600","新店區"
"231011","187-VK","2018/12/03 14:09:24","新北市新店區五峰路66號","121.546048333333","24.968125","6500600","新店區"
"231018","188-VK","2018/12/03 14:09:16","新北市新店區中央五街86號","121.526305","24.97622","6500600","新店區"
"231023","KEA-2219","2018/12/03 14:09:14","新北市新店區文中路39巷2號","121.53944","24.9568133333333","6500600","新店區"
"231003","268-BY","2018/12/03 14:09:19","新北市新店區中興路一段72號","121.539466666667","24.959895","6500600","新店區"
"231014","AAD-862","2018/12/03 14:09:18","新北市新店區北宜路三段51-1號","121.569451666667","24.9499566666667","6500600","新店區"
"231038","3712-VJ","2018/12/03 14:09:20","新北市新店區安康路一段92-1號","121.527878333333","24.9620016666667","6500600","新店區"
"231037","4716-K9","2018/12/03 14:09:26","新北市新店區安康路三段207巷19號","121.48851","24.950795","6500600","新店區"
"231025","4715-K9","2018/12/03 14:09:09","新北市新店區二十張路129巷5弄3號","121.536551666667","24.9787333333333","6500600","新店區"
"231036","512-UM","2018/12/03 14:09:19","新北市新店區安祥路109巷3弄32號","121.476316666667","24.9603116666667","6500600","新店區"
"231013","513-UM","2018/12/03 14:09:16","新北市新店區北新路三段65巷34弄26號","121.540023333333","24.9817416666667","6500600","新店區"
"231034","616-UM","2018/12/03 14:09:28","新北市新店區車子路22號","121.504708333333","24.9537733333333","6500600","新店區"
"231006","617-UM","2018/12/03 14:09:14","新北市新店區北宜路二段317號","121.556821666667","24.95398","6500600","新店區"
"231030","619-UM","2018/12/03 14:09:20","新北市新店區安興路7-1號","121.514953333333","24.96856","6500600","新店區"
"231035","719-UM","2018/12/03 14:09:25","新北市新店區安和路一段52巷2-1號","121.517678333333","24.9663033333333","6500600","新店區"
"231029","897-TW","2018/12/03 14:09:26","新北市新店區安康路二段109號","121.512568333333","24.96199","6500600","新店區"
"231004","898-TW","2018/12/03 14:09:30","新北市新店區北新路二段108號","121.543053333333","24.9744216666667","6500600","新店區"
"231024","AKT-0513","2018/12/03 14:09:14","新北市新店區安康路二段320巷15弄18號","121.50196","24.9588783333333","6500600","新店區"
"235030","003-UY","2018/12/03 14:09:27","新北市中和區廣福路20號","121.505051666667","25.0026216666667","6500300","中和區"
"235028","005-UY","2018/12/03 14:09:25","新北市中和區中和路30號","121.499836666667","25.0017866666667","6500300","中和區"
"235027","006-UY","2018/12/03 14:09:20","新北市中和區連城路249巷21弄2號","121.494036666667","24.9957916666667","6500300","中和區"
"235020","096-UM","2018/12/03 14:09:10","新北市中和區中正路1230號","121.479176666667","25.0110866666667","6500300","中和區"
"235003","097-UM","2018/12/03 14:09:21","新北市中和區秀峰街119巷4弄1號","121.519776666667","24.990195","6500300","中和區"
"235029","098-UM","2018/12/03 14:09:20","新北市中和區中山路二段136巷4號","121.502026666667","25.00378","6500300","中和區"
"235004","150-BY","2018/12/03 14:06:09","新北市中和區保健路46巷22弄10號","121.508558333333","24.996185","6500300","中和區"
"235022","151-BY","2018/12/03 14:09:28","新北市中和區連城路477巷6弄17-3號","121.482373333333","24.99502","6500300","中和區"
"235019","183-VK","2018/12/03 14:09:29","新北市中和區德光路32號","121.470523333333","25.0042466666667","6500300","中和區"
"235002","185-VK","2018/12/03 14:09:13","新北市中和區大仁街10巷9弄27號","121.519181666667","24.9928183333333","6500300","中和區"
"235013","186-VK","2018/12/03 14:09:28","新北市中和區南華路46號","121.503963333333","24.9965266666667","6500300","中和區"
"235031","255-BX","2018/12/03 14:09:29","新北市中和區新生街233巷10號","121.484363333333","24.9985283333333","6500300","中和區"
"235008","293-VK","2018/12/03 14:09:27","新北市中和區中興街202巷2號","121.499448333333","24.9900166666667","6500300","中和區"
"235036","301-VK","2018/12/03 14:09:16","新北市中和區中山路二段189號","121.500236666667","25.0026066666667","6500300","中和區"
"235007","352-BY","2018/12/03 14:09:15","新北市中和區景平路116號","121.519468333333","24.9916983333333","6500300","中和區"
"235006","KEA-2878","2018/12/03 14:09:13","新北市中和區自強路15巷7號","121.5213","24.9936133333333","6500300","中和區"
"247011","KEA-2869","2018/12/03 14:09:26","新北市蘆洲區信義路329號","121.47815","25.0866283333333","6501400","蘆洲區"
"235014","4979-A6","2018/12/03 14:09:21","新北市中和區復興路274巷14號","121.502696666667","24.990995","6500300","中和區"
"235033","4980-A6","2018/12/03 14:09:14","新北市中和區中和路217巷1弄9號","121.503786666667","25.0004416666667","6500300","中和區"
"235034","558-UM","2018/12/03 14:09:16","新北市中和區中和路49號","121.50014","25.0013816666667","6500300","中和區"
"235009","565-BX","2018/12/03 14:09:18","新北市中和區景新街435號","121.5132","24.98902","6500300","中和區"
"235018","640-BX","2018/12/03 14:09:27","新北市中和區國光街107巷2弄29號","121.46934","24.99899","6500300","中和區"
"235024","647-TV","2018/12/03 14:09:09","新北市中和區民治街120號","121.475236666667","25.003485","6500300","中和區"
"235011","732-UM","2018/12/03 14:09:31","新北市中和區興南路一段58號","121.510913333333","24.990495","6500300","中和區"
"235010","733-UM","2018/12/03 14:09:11","新北市中和區忠孝街1巷63號","121.508245","24.9845916666667","6500300","中和區"
"235035","783-BX","2018/12/03 14:09:25","新北市中和區建康路1號","121.485418333333","25.0002166666667","6500300","中和區"
"235026","800-TS","2018/12/03 14:09:11","新北市中和區中山路二段366巷25號","121.4916","25.0051833333333","6500300","中和區"
"235021","801-TS","2018/12/03 14:09:11","新北市中和區民利街48號","121.479386666667","24.9988016666667","6500300","中和區"
"235005","802-TS","2018/12/03 14:09:22","新北市中和區宜安路118巷14號","121.510691666667","24.9984716666667","6500300","中和區"
"235016","805-TS","2018/12/03 14:08:56","新北市中和區興南路二段116號","121.504738333333","24.9839116666667","6500300","中和區"
"235012","896-TW","2018/12/03 14:09:28","新北市中和區工專路129號","121.50861","24.9792883333333","6500300","中和區"
"235017","900-TW","2018/12/03 14:09:16","新北市中和區民德路260號","121.467758333333","24.9969483333333","6500300","中和區"
"235015","157-BY","2018/12/03 14:09:17","新北市中和區和平街2巷4弄1號","121.509995","24.99082","6500300","中和區"
"235001","AAC-213","2018/12/03 14:09:12","新北市中和區秀朗路三段60巷42號","121.524943333333","24.9949483333333","6500300","中和區"
"235023","AAC-215","2018/12/03 14:09:15","新北市中和區圓通路294巷1號","121.488861666667","24.9896183333333","6500300","中和區"
"220013","072-UY","2018/12/03 14:09:24","新北市板橋區民族路219巷5號","121.469448333333","25.0078333333333","6500100","板橋區"
"220034","073-UY","2018/12/03 14:09:28","新北市板橋區國光路31巷18號","121.45684","25.0182483333333","6500100","板橋區"
"220105","075-UY","2018/12/03 14:09:17","新北市板橋區雙十路三段66巷1號","121.47055","25.0319516666667","6500100","板橋區"
"220017","AAD-861","2018/12/03 14:09:24","新北市板橋區四川路一段106號","121.459795","25.0046366666667","6500100","板橋區"
"247001","893-R6","2018/12/03 14:09:25","新北市蘆洲區永平街53號","121.457725","25.0912866666667","6501400","蘆洲區"
"247015","546-UM","2018/12/03 14:09:20","新北市蘆洲區光華路46巷38號","121.467841666667","25.0843416666667","6501400","蘆洲區"
"247005","337-TH","2018/12/03 14:09:18","新北市蘆洲區九芎街11號","121.468268333333","25.078595","6501400","蘆洲區"
"247019","057-VK","2018/12/03 14:09:24","新北市蘆洲區仁愛街36巷15號","121.472733333333","25.0936416666667","6501400","蘆洲區"
"247009","056-VK","2018/12/03 14:09:19","新北市蘆洲區民族路42號","121.476738333333","25.0845133333333","6501400","蘆洲區"
"247013","053-VK","2018/12/03 14:09:19","新北市蘆洲區復興路3號","121.471733333333","25.0851433333333","6501400","蘆洲區"
"247017","007-UY","2018/12/03 14:09:22","新北市蘆洲區民族路227巷24弄2號","121.476596666667","25.089005","6501400","蘆洲區"
"247003","002-UY","2018/12/03 14:09:22","新北市蘆洲區中華街6巷50號","121.462456666667","25.0825766666667","6501400","蘆洲區"
"247021","001-UY","2018/12/03 14:09:17","新北市蘆洲區三民路165號","121.47139","25.08706","6501400","蘆洲區"
"253003","6232-TK","2018/12/03 14:09:12","新北市石門區尖子鹿45號","121.582073333333","25.2683633333333","6502200","石門區"
"253004","6251-TK","2018/12/03 14:09:28","新北市石門區坪林21號","121.59321","25.2686666666667","6502200","石門區"
"253002","637-UY","2018/12/03 14:09:18","新北市石門區七股33-1號","121.552701666667","25.2612483333333","6502200","石門區"
"253001","KEC-0718","2018/12/03 14:09:27","新北市石門區八甲66-2號","121.527375","25.2748183333333","6502200","石門區"
"207002","749-BX","2018/12/03 14:09:27","新北市萬里區溪底里瑞泉路8-2號","121.60799","25.14417","6502800","萬里區"
"252005","073-UM","2018/12/03 14:09:29","新北市三芝區橫山里橫山23-6號","121.541185","25.2602283333333","6502100","三芝區"
"207001","662-BX","2018/12/03 14:09:27","新北市萬里區磺潭里清水18號","121.637846666667","25.197755","6502800","萬里區"
"236064","105-UM","2018/12/03 14:09:10","新北市土城區青雲路318號","121.45878","24.97704","6501300","土城區"
"236040","KED-0685","2018/12/03 14:09:20","新北市土城區城林路6巷80號","121.438486666667","24.979785","6501300","土城區"
"236074","166-UM","2018/12/03 14:09:17","新北市土城區永和街5號","121.434598333333","24.96505","6501300","土城區"
"236029","253-BX","2018/12/03 14:09:18","新北市土城區城林路6巷80號","121.438395","24.9797333333333","6501300","土城區"
"236024","269-VK","2018/12/03 14:09:16","新北市土城區承天路43巷6號","121.4394","24.9638983333333","6501300","土城區"
"236012","270-VK","2018/12/03 14:09:14","新北市土城區學府路一段236號","121.451816666667","24.9847816666667","6501300","土城區"
"236032","271-VK","2018/12/03 14:09:10","新北市土城區中正路82號","121.444965","24.9756333333333","6501300","土城區"
"247007","KED-0683","2018/12/03 14:09:24","新北市蘆洲區永安南路一段142巷66號","121.471811666667","25.0777166666667","6501400","蘆洲區"
"236016","401-BY","2018/12/03 14:09:27","新北市土城區城林路6巷80號","121.438716666667","24.979685","6501300","土城區"
"236054","752-BX","2018/12/03 14:09:27","新北市土城區中華路二段108號","121.437995","24.9741616666667","6501300","土城區"
"236057","912-UM","2018/12/03 14:09:11","新北市土城區中央路四段208號","121.415951666667","24.9574416666667","6501300","土城區"
"236045","913-UM","2018/12/03 14:09:11","新北市土城區明德路一段385-1號","121.45274","24.979725","6501300","土城區"
"236060","915-UM","2018/12/03 14:09:24","新北市土城區金城路三段202-3號","121.469455","24.98856","6501300","土城區"
"221010","269-BY","2018/12/03 14:09:31","新北市汐止區八連路二段161號","121.63446","25.0950416666667","6501100","汐止區"
"221033","647-BX","2018/12/03 14:09:08","台北市文山區老泉街45巷18-1號","121.574391666667","24.97601","6501100","汐止區"
"220027","145-BY","2018/12/03 14:09:24","新北市板橋區民權路202巷6弄1號","121.4599","25.0144516666667","6500100","板橋區"
"220028","200-UY","2018/12/03 14:09:16","新北市板橋區大觀路二段9號","121.446961666667","25.00357","6500100","板橋區"
"220030","610-BX","2018/12/03 14:09:26","新北市板橋區溪崑二街63號","121.428033333333","24.9904366666667","6500100","板橋區"
"220050","245-BX","2018/12/03 14:09:29","新北市板橋區莊敬路6-1號","121.473715","25.0280816666667","6500100","板橋區"
"220004","276-BY","2018/12/03 14:09:15","新北市板橋區信義路152號","121.459065","24.991785","6500100","板橋區"
"220020","277-BY","2018/12/03 14:09:25","新北市板橋區金門街372巷33號","121.427413333333","24.9850083333333","6500100","板橋區"
"220043","283-UM","2018/12/03 14:09:15","新北市板橋區吳鳳路19巷28號","121.466193333333","25.030435","6500100","板橋區"
"220019","283-VK","2018/12/03 14:09:28","新北市板橋區重慶路353巷5號","121.464698333333","24.9980666666667","6500100","板橋區"
"220001","285-VK","2018/12/03 14:09:15","新北市板橋區懷仁街24巷23號","121.47564","25.0191966666667","6500100","板橋區"
"220031","286-VK","2018/12/03 14:09:23","新北市板橋區大觀路二段174巷196弄2號","121.442511666667","25.00385","6500100","板橋區"
"220029","287-VK","2018/12/03 14:09:14","新北市板橋區南雅西路二段156巷2號","121.451751666667","25.0133483333333","6500100","板橋區"
"220039","288-VK","2018/12/03 14:09:31","新北市板橋區長江路一段106巷13弄12號","121.46059","25.029285","6500100","板橋區"
"220009","293-UM","2018/12/03 14:09:12","新北市板橋區中山路二段318巷20弄37號","121.481138333333","25.0188566666667","6500100","板橋區"
"220032","296-UM","2018/12/03 14:09:28","新北市板橋區溪崑二街22巷24號","121.42834","24.9918733333333","6500100","板橋區"
"220023","303-R5","2018/12/03 14:09:19","新北市板橋區倉後街1號","121.455528333333","25.0087433333333","6500100","板橋區"
"220010","305-R5","2018/12/03 14:09:14","新北市板橋區三民路二段居仁巷2弄23號","121.479943333333","25.0129616666667","6500100","板橋區"
"220041","307-R5","2018/12/03 14:09:29","新北市板橋區光武街48巷34號","121.468391666667","25.0270316666667","6500100","板橋區"
"220047","317-R6","2018/12/03 14:09:14","新北市板橋區文化路二段76號","121.469398333333","25.0249416666667","6500100","板橋區"
"220038","487-VK","2018/12/03 14:09:10","新北市板橋區文化路一段351號","121.46671","25.0209566666667","6500100","板橋區"
"220037","491-VK","2018/12/03 14:09:23","新北市板橋區莊敬路48-2號","121.472713333333","25.0271083333333","6500100","板橋區"
"220104","560-BX","2018/12/03 14:09:13","新北市板橋區中正路377-3號","121.45423","25.02158","6500100","板橋區"
"220052","561-BX","2018/12/03 14:09:14","新北市板橋區文化路一段188巷1弄6號","121.466631666667","25.019795","6500100","板橋區"
"220011","609-BX","2018/12/03 14:09:28","新北市板橋區三民路二段169號","121.479181666667","25.0144","6500100","板橋區"
"220040","637-BX","2018/12/03 14:09:14","新北市板橋區文聖街207-2號","121.479615","25.0267416666667","6500100","板橋區"
"220005","686-BX","2018/12/03 14:09:16","新北市板橋區國慶路199-2號","121.463293333333","24.99676","6500100","板橋區"
"220025","687-BX","2018/12/03 14:09:22","新北市板橋區龍興街71巷1號","121.443755","25.0018316666667","6500100","板橋區"
"220042","689-BX","2018/12/03 14:09:26","新北市板橋區新海路69號","121.461736666667","25.0216266666667","6500100","板橋區"
"220002","741-BX","2018/12/03 14:09:24","新北市板橋區重慶路69巷3號","121.462185","25.0070383333333","6500100","板橋區"
"220051","KEA-2699","2018/12/03 14:09:24","新北市板橋區田單街9號","121.481871666667","25.0291766666667","6500100","板橋區"
"220003","827-TW","2018/12/03 14:09:22","新北市板橋區新民街9號","121.463876666667","25.0097533333333","6500100","板橋區"
"220016","830-TW","2018/12/03 14:09:21","新北市板橋區三民路一段1巷56號","121.480771666667","25.0247316666667","6500100","板橋區"
"220014","831-TW","2018/12/03 14:09:09","新北市板橋區三民路二段正隆巷75號","121.476055","25.0130433333333","6500100","板橋區"
"220022","895-R6","2018/12/03 14:09:26","新北市板橋區府中路126-8號","121.454608333333","25.009335","6500100","板橋區"
"220021","985-R7","2018/12/03 14:09:25","新北市板橋區中正路163-1號","121.456515","25.0160583333333","6500100","板橋區"
"220046","AAC-210","2018/12/03 14:09:27","新北市板橋區漢生西路89巷3弄9號","121.461291666667","25.019485","6500100","板橋區"
"220012","AAC-253","2018/12/03 14:09:28","新北市板橋區板新路200巷2號","121.469203333333","25.0161","6500100","板橋區"
"235032","KEA-2873","2018/12/03 14:09:14","新北市中和區連勝街57巷20號","121.498095","24.9964316666667","6500300","中和區"
"235025","KEA-2875","2018/12/03 14:09:02","新北市中和區員山路358號","121.481128333333","25.0036866666667","6500300","中和區"
