"lineid","car","time","location","longitude","latitude","cityid","cityname"
"234078","298-R6","2018/12/03 14:29:14","新北市永和區永貞路68號","121.520543333333","25.0054816666667","6500400","永和區"
"234036","336-UY","2018/12/03 14:29:25","新北市永和區環河東路四段40號","121.528631666667","24.9988966666667","6500400","永和區"
"234062","337-UY","2018/12/03 14:29:29","新北市永和區中正路433號","121.51712","25.0050233333333","6500400","永和區"
"234068","552-UM","2018/12/03 14:29:15","新北市永和區永亨路7號","121.519331666667","25.0056666666667","6500400","永和區"
"234005","693-BX","2018/12/03 14:29:22","新北市永和區中正路748號","121.514896666667","25.010365","6500400","永和區"
"234028","746-BX","2018/12/03 14:29:21","新北市永和區民權路84號","121.519853333333","24.9970716666667","6500400","永和區"
"234052","KEA-2590","2018/12/03 14:29:28","新北市永和區光復街31-1號","121.516393333333","25.0178616666667","6500400","永和區"
"234012","KEA-2591","2018/12/03 14:29:21","新北市永和區保生路55號","121.50474","25.0103366666667","6500400","永和區"
"234060","AAD-866","2018/12/03 14:29:15","新北市永和區秀安街13巷1號","121.515863333333","25.00349","6500400","永和區"
"234084","847-RS","2018/12/03 14:29:24","新北市永和區永和路二段91號","121.514768333333","25.0115016666667","6500400","永和區"
"234040","862-TW","2018/12/03 14:29:19","新北市永和區自由街26號","121.514391666667","25.0064483333333","6500400","永和區"
"234048","863-TW","2018/12/03 14:29:29","新北市永和區新生路157號","121.507253333333","25.014725","6500400","永和區"
"234025","9372-KE","2018/12/03 14:29:09","新北市永和區安樂路144巷16號","121.514868333333","24.9998966666667","6500400","永和區"
"248013","025-BX","2018/12/03 14:29:20","新北市五股區民義路一段161-14號","121.432128333333","25.0872483333333","6501500","五股區"
"248015","026-BX","2018/12/03 14:29:29","新北市五股區成泰路四段26號","121.454938333333","25.108235","6501500","五股區"
"248007","095-VK","2018/12/03 14:29:10","新北市五股區中興路一段95巷15號","121.466558333333","25.0723033333333","6501500","五股區"
"248011","247-BX","2018/12/03 14:29:24","新北市五股區蓬萊路6巷2號","121.43557","25.0796283333333","6501500","五股區"
"248003","677-BX","2018/12/03 14:29:18","新北市五股區五福路34號","121.434011666667","25.0891616666667","6501500","五股區"
"248001","678-BX","2018/12/03 14:29:19","新北市五股區成泰路三段487號","121.450731666667","25.0993183333333","6501500","五股區"
"248009","682-TV","2018/12/03 14:29:08","新北市五股區水碓一路23號","121.430643333333","25.0713033333333","6501500","五股區"
"234076","969-R7","2018/12/03 14:29:31","新北市永和區民族街81巷58號","121.520026666667","24.9965866666667","6500400","永和區"
"234072","AAC-211","2018/12/03 14:29:18","新北市永和區環河東路一段126號","121.520691666667","25.0153666666667","6500400","永和區"
"234066","AAC-212","2018/12/03 14:29:15","新北市中和區保平路231號","121.508006666667","25.0044366666667","6500400","永和區"
"234001","AAC-295","2018/12/03 14:29:17","新北市永和區自強街4號","121.514296666667","25.0080033333333","6500400","永和區"
"244001","248-BX","2018/12/03 14:29:10","新北市林口區竹林路267號","121.3896","25.0808116666667","6501700","林口區"
"243005","AAD-798","2018/12/03 14:29:12","新北市泰山區民國街21號","121.425581666667","25.0434416666667","6501600","泰山區"
"243001","297-R6","2018/12/03 14:29:27","新北市五股區成泰路一段7巷4號","121.433395","25.0667433333333","6501600","泰山區"
"243008","KEA-2801","2018/12/03 14:29:29","新北市泰山區明志路三段237號","121.42354","25.0377616666667","6501600","泰山區"
"243007","421-VK","2018/12/03 14:29:21","新北市泰山區文程路16號","121.428231666667","25.0491533333333","6501600","泰山區"
"243003","KEA-2215","2018/12/03 14:29:10","新北市泰山區貴子路65號","121.430486666667","25.0396433333333","6501600","泰山區"
"243002","KEA-2216","2018/12/03 14:29:26","新北市泰山區明志路二段51號","121.429465","25.0527183333333","6501600","泰山區"
"243004","646-TV","2018/12/03 14:29:21","新北市泰山區全興路24號","121.432481666667","25.0585966666667","6501600","泰山區"
"243006","680-BX","2018/12/03 14:29:21","新北市泰山區仁義路220巷53號","121.432133333333","25.0527083333333","6501600","泰山區"
"231002","002-UM","2018/12/03 14:29:16","新北市新店區中央路226號","121.529608333333","24.972755","6500600","新店區"
"231027","0293-UT","2018/12/03 14:29:11","新北市新店區北新路二段228巷1號","121.542843333333","24.9774516666667","6500600","新店區"
"231028","046-UY","2018/12/03 14:29:14","新北市新店區安和路一段39號","121.517223333333","24.9653033333333","6500600","新店區"
"231001","047-UY","2018/12/03 14:29:21","新北市新店區中正路75巷71號","121.543228333333","24.9687333333333","6500600","新店區"
"231005","106-UY","2018/12/03 14:29:25","新北市新店區寶強路6號","121.543326666667","24.9788816666667","6500600","新店區"
"231019","108-UY","2018/12/03 14:29:21","新北市新店區桂山路81巷1號","121.567431666667","24.8993116666667","6500600","新店區"
"231031","110-UY","2018/12/03 14:29:20","新北市新店區溪洲路202-6號","121.528866666667","24.96823","6500600","新店區"
"231011","187-VK","2018/12/03 14:29:12","新北市新店區中興路二段22-1號","121.547103333333","24.9703566666667","6500600","新店區"
"231018","188-VK","2018/12/03 14:29:16","新北市新店區中央三街31號","121.528268333333","24.974195","6500600","新店區"
"231023","KEA-2219","2018/12/03 14:29:24","新北市新店區光明街179-1號","121.539858333333","24.9628916666667","6500600","新店區"
"231003","268-BY","2018/12/03 14:29:19","新北市新店區中興路一段266-6號","121.545038333333","24.9676283333333","6500600","新店區"
"231038","3712-VJ","2018/12/03 14:29:21","新北市新店區溪洲路8-1號","121.53365","24.96085","6500600","新店區"
"231037","4716-K9","2018/12/03 14:29:26","新北市新店區車子路25號","121.504473333333","24.95233","6500600","新店區"
"231036","512-UM","2018/12/03 14:29:14","新北市新店區安祥路109巷90弄98號","121.475911666667","24.957445","6500600","新店區"
"231013","513-UM","2018/12/03 14:29:16","新北市新店區民權路108-2號","121.536096666667","24.9835033333333","6500600","新店區"
"231034","616-UM","2018/12/03 14:29:28","新北市新店區車子路11號","121.503078333333","24.9521083333333","6500600","新店區"
"231006","617-UM","2018/12/03 14:29:15","新北市新店區北宜路二段483號","121.562175","24.953905","6500600","新店區"
"231030","619-UM","2018/12/03 14:29:20","新北市新店區安民街71號","121.516548333333","24.9670366666667","6500600","新店區"
"231035","719-UM","2018/12/03 14:29:25","新北市新店區安和路二段11號","121.517915","24.9673716666667","6500600","新店區"
"231029","897-TW","2018/12/03 14:29:26","新北市新店區安康路二段383號","121.494996666667","24.9545916666667","6500600","新店區"
"231004","898-TW","2018/12/03 14:29:23","新北市新店區中正路282-3號","121.53856","24.974175","6500600","新店區"
"235030","003-UY","2018/12/03 14:29:27","新北市中和區景新街51號","121.504363333333","24.999025","6500300","中和區"
"235028","005-UY","2018/12/03 14:29:25","新北市中和區南華路48號","121.503953333333","24.9967216666667","6500300","中和區"
"235027","006-UY","2018/12/03 14:29:20","新北市中和區安邦街35號","121.4962","24.9977216666667","6500300","中和區"
"235020","096-UM","2018/12/03 14:29:10","新北市中和區員山路501號","121.479926666667","25.0062466666667","6500300","中和區"
"235003","097-UM","2018/12/03 14:29:21","新北市中和區秀峰街119巷8弄1號","121.519398333333","24.989","6500300","中和區"
"235029","098-UM","2018/12/03 14:29:20","新北市中和區永和路60-2號","121.49892","25.0043883333333","6500300","中和區"
"235004","150-BY","2018/12/03 14:29:15","新北市中和區安樂路51巷28號","121.511196666667","24.9941116666667","6500300","中和區"
"235022","151-BY","2018/12/03 14:29:28","新北市中和區員山路124巷17號","121.48216","24.99605","6500300","中和區"
"235019","183-VK","2018/12/03 14:29:09","新北市中和區莒光路35號","121.472211666667","25.0051566666667","6500300","中和區"
"235002","185-VK","2018/12/03 14:29:13","新北市中和區自立路109號","121.521926666667","24.9946483333333","6500300","中和區"
"235013","186-VK","2018/12/03 14:29:28","新北市中和區安和路11號","121.511395","24.9937916666667","6500300","中和區"
"235031","255-BX","2018/12/03 14:29:29","新北市中和區新生街220巷15弄11-2號","121.482956666667","24.99787","6500300","中和區"
"235008","293-VK","2018/12/03 14:29:27","新北市中和區捷運路185號","121.50551","24.991485","6500300","中和區"
"235036","301-VK","2018/12/03 14:29:16","新北市中和區中山路二段3巷18號","121.506176666667","25.0054233333333","6500300","中和區"
"235007","352-BY","2018/12/03 14:29:15","新北市中和區景平路332號","121.512111666667","24.992855","6500300","中和區"
"235006","KEA-2878","2018/12/03 14:29:13","新北市中和區中和路262巷45號","121.510015","24.9998133333333","6500300","中和區"
"247011","KEA-2869","2018/12/03 14:29:26","新北市蘆洲區中興街132號","121.48216","25.089425","6501400","蘆洲區"
"235033","4980-A6","2018/12/03 14:29:14","新北市中和區連城路134巷15號","121.495171666667","25.0000833333333","6500300","中和區"
"235034","558-UM","2018/12/03 14:29:16","新北市中和區景平路632-8號","121.499788333333","24.9985333333333","6500300","中和區"
"235009","565-BX","2018/12/03 14:29:13","新北市中和區景新街483號","121.513645","24.9875433333333","6500300","中和區"
"235018","640-BX","2018/12/03 14:29:27","新北市中和區國光街112巷22弄2-2號","121.469831666667","25.002315","6500300","中和區"
"235024","647-TV","2018/12/03 14:29:09","新北市中和區民樂路41號","121.48329","25.00163","6500300","中和區"
"235011","732-UM","2018/12/03 14:29:11","新北市中和區景平路259巷18號","121.507823333333","24.9926433333333","6500300","中和區"
"235010","733-UM","2018/12/03 14:29:31","新北市中和區忠孝街37巷20號","121.510973333333","24.98396","6500300","中和區"
"235035","783-BX","2018/12/03 14:29:25","新北市中和區連城路469巷2號","121.483575","24.9956333333333","6500300","中和區"
"235026","800-TS","2018/12/03 14:29:11","新北市中和區中山路二段488-1號","121.487485","25.0049316666667","6500300","中和區"
"235021","801-TS","2018/12/03 14:29:31","新北市中和區員山路332號","121.481163333333","25.003215","6500300","中和區"
"235005","802-TS","2018/12/03 14:29:22","新北市中和區景安路50號","121.506538333333","24.9983066666667","6500300","中和區"
"235016","805-TS","2018/12/03 14:29:15","新北市中和區華新街143巷71弄31號","121.507861666667","24.9791333333333","6500300","中和區"
"235012","896-TW","2018/12/03 14:29:28","新北市中和區忠孝街39-2號","121.51166","24.9838366666667","6500300","中和區"
"235017","900-TW","2018/12/03 14:29:16","新北市中和區民德路197-2號","121.46891","24.9985933333333","6500300","中和區"
"235015","157-BY","2018/12/03 14:29:17","新北市中和區中興街134號","121.499836666667","24.9921383333333","6500300","中和區"
"235001","AAC-213","2018/12/03 14:29:12","新北市中和區秀朗路三段10巷14弄2號","121.525298333333","24.9965033333333","6500300","中和區"
"235023","AAC-215","2018/12/03 14:29:29","新北市中和區圓通路252巷1號","121.493561666667","24.9910883333333","6500300","中和區"
"220013","072-UY","2018/12/03 14:29:24","新北市板橋區國泰街75巷28弄19號","121.467786666667","25.0049133333333","6500100","板橋區"
"220034","073-UY","2018/12/03 14:29:28","新北市板橋區國光路167號","121.460288333333","25.0183033333333","6500100","板橋區"
"220105","075-UY","2018/12/03 14:29:17","新北市板橋區文化路二段548巷21-1號","121.476628333333","25.0338116666667","6500100","板橋區"
"220017","AAD-861","2018/12/03 14:29:24","新北市板橋區縣民大道一段64巷22號","121.455511666667","25.0036533333333","6500100","板橋區"
"247001","893-R6","2018/12/03 14:29:25","新北市蘆洲區永樂街38巷33弄25號","121.457086666667","25.0896933333333","6501400","蘆洲區"
"247015","546-UM","2018/12/03 14:29:23","新北市蘆洲區中正路185巷78弄19號","121.465591666667","25.0849933333333","6501400","蘆洲區"
"247024","500-BY","2018/12/03 14:29:25","新北市蘆洲區中正路263巷2號","121.467203333333","25.0875433333333","6501400","蘆洲區"
"247005","337-TH","2018/12/03 14:29:18","新北市蘆洲區長安街74號","121.462573333333","25.0803033333333","6501400","蘆洲區"
"247019","057-VK","2018/12/03 14:29:17","新北市蘆洲區仁愛街102-7號","121.46986","25.094925","6501400","蘆洲區"
"247009","056-VK","2018/12/03 14:29:19","新北市蘆洲區鷺江街1號","121.479491666667","25.08279","6501400","蘆洲區"
"247013","053-VK","2018/12/03 14:29:19","新北市蘆洲區中山二路144號","121.471223333333","25.0813066666667","6501400","蘆洲區"
"247017","007-UY","2018/12/03 14:29:22","新北市蘆洲區民族路336巷28號","121.4775","25.0911166666667","6501400","蘆洲區"
"247003","002-UY","2018/12/03 14:29:22","新北市蘆洲區長安街220巷1號","121.459096666667","25.0849666666667","6501400","蘆洲區"
"247021","001-UY","2018/12/03 14:29:16","新北市蘆洲區三民路128巷35號","121.469921666667","25.089615","6501400","蘆洲區"
"253003","6232-TK","2018/12/03 14:29:12","新北市石門區尖子鹿33-1號","121.581746666667","25.26502","6502200","石門區"
"253004","6251-TK","2018/12/03 14:29:08","新北市石門區內阿里磅31-4號","121.588575","25.24122","6502200","石門區"
"253002","637-UY","2018/12/03 14:29:18","新北市石門區七股14號","121.545988333333","25.265115","6502200","石門區"
"253001","KEC-0718","2018/12/03 14:29:27","新北市石門區崁子腳84號","121.53267","25.2776216666667","6502200","石門區"
"207002","749-BX","2018/12/03 14:29:27","新北市萬里區溪底里溪底路2號","121.619001666667","25.1517883333333","6502800","萬里區"
"252005","073-UM","2018/12/03 14:29:29","新北市三芝區埔坪里埔頭坑85號","121.507445","25.2544","6502100","三芝區"
"207001","662-BX","2018/12/03 14:29:27","新北市萬里區磺潭里清水18號","121.637841666667","25.19771","6502800","萬里區"
"236064","105-UM","2018/12/03 14:29:10","新北市土城區永豐路255巷27弄43號","121.477001666667","24.9736966666667","6501300","土城區"
"236040","KED-0685","2018/12/03 14:29:20","新北市土城區裕民路61巷4號","121.449383333333","24.9879883333333","6501300","土城區"
"236074","166-UM","2018/12/03 14:29:20","新北市土城區大暖路36號","121.423348333333","24.9595133333333","6501300","土城區"
"236029","253-BX","2018/12/03 14:29:18","新北市土城區水源街46號","121.44065","24.975875","6501300","土城區"
"236024","269-VK","2018/12/03 14:29:16","新北市土城區承天路18號","121.439365","24.963745","6501300","土城區"
"236012","270-VK","2018/12/03 14:29:14","新北市土城區青雲路39巷7號","121.460385","24.987495","6501300","土城區"
"236032","271-VK","2018/12/03 14:26:50","新北市土城區青雲路451巷13號","121.459583333333","24.9747916666667","6501300","土城區"
"247007","KED-0683","2018/12/03 14:29:24","新北市蘆洲區信義路83號","121.476868333333","25.079615","6501400","蘆洲區"
"236016","401-BY","2018/12/03 14:29:27","新北市土城區永豐路202巷14號","121.466346666667","24.9834716666667","6501300","土城區"
"236054","752-BX","2018/12/03 14:29:27","新北市土城區中華路一段243號","121.44116","24.9821933333333","6501300","土城區"
"236057","912-UM","2018/12/03 14:29:11","新北市土城區中央路四段139-1號","121.415743333333","24.9572916666667","6501300","土城區"
"236045","913-UM","2018/12/03 14:29:11","新北市土城區青雲路449號","121.458683333333","24.9749966666667","6501300","土城區"
"236060","915-UM","2018/12/03 14:29:24","新北市土城區延和路125巷55號","121.468986666667","24.9917366666667","6501300","土城區"
"221010","269-BY","2018/12/03 14:29:31","新北市汐止區長青路210巷6弄2號","121.613008333333","25.112845","6501100","汐止區"
"221033","647-BX","2018/12/03 14:29:28","新北市汐止區大同路一段398-1號","121.639946666667","25.0599383333333","6501100","汐止區"
"220027","145-BY","2018/12/03 14:29:23","新北市板橋區民權路260巷5號","121.458288333333","25.0153833333333","6500100","板橋區"
"220028","200-UY","2018/12/03 14:29:13","新北市板橋區大觀路二段37巷140號","121.449306666667","25.001645","6500100","板橋區"
"220030","610-BX","2018/12/03 14:29:26","新北市板橋區金門街378號","121.42693","24.9837766666667","6500100","板橋區"
"220050","245-BX","2018/12/03 14:29:09","新北市板橋區縣民大道三段33巷11號","121.473841666667","25.0209333333333","6500100","板橋區"
"220004","276-BY","2018/12/03 14:29:28","新北市板橋區干城路10號","121.459678333333","24.993845","6500100","板橋區"
"220020","277-BY","2018/12/03 14:29:25","新北市板橋區金門街253巷12號","121.432908333333","24.9883283333333","6500100","板橋區"
"220043","283-UM","2018/12/03 14:29:23","新北市板橋區松江街122號","121.46936","25.03068","6500100","板橋區"
"220019","283-VK","2018/12/03 14:29:20","新北市板橋區忠孝路26號","121.460141666667","25.0017433333333","6500100","板橋區"
"220001","285-VK","2018/12/03 14:29:15","新北市板橋區富山街79號","121.476871666667","25.0218216666667","6500100","板橋區"
"220031","286-VK","2018/12/03 14:29:23","新北市板橋區龍興街71巷19號","121.442898333333","25.002065","6500100","板橋區"
"220029","287-VK","2018/12/03 14:29:15","新北市板橋區大觀路一段75巷31號","121.448565","25.0042516666667","6500100","板橋區"
"220039","288-VK","2018/12/03 14:29:22","新北市板橋區長江路一段48巷9號","121.459201666667","25.0284733333333","6500100","板橋區"
"220009","293-UM","2018/12/03 14:29:11","新北市板橋區漢生東路117號","121.467255","25.01485","6500100","板橋區"
"220032","296-UM","2018/12/03 14:29:28","新北市板橋區滿平街84巷100弄15號","121.425971666667","24.98616","6500100","板橋區"
"220023","303-R5","2018/12/03 14:29:19","新北市板橋區中正路275巷93號","121.450895","25.0181216666667","6500100","板橋區"
"220010","305-R5","2018/12/03 14:29:14","新北市板橋區三民路二段153巷2弄12-5號","121.479515","25.0143816666667","6500100","板橋區"
"220041","307-R5","2018/12/03 14:29:20","新北市板橋區陽明街22號","121.466383333333","25.0218783333333","6500100","板橋區"
"220047","317-R6","2018/12/03 14:29:14","新北市板橋區民有街83號","121.46491","25.0274316666667","6500100","板橋區"
"220038","487-VK","2018/12/03 14:29:10","新北市板橋區英士路41號","121.46141","25.0248983333333","6500100","板橋區"
"220037","491-VK","2018/12/03 14:29:23","新北市板橋區雙十路二段10-3號","121.476406666667","25.0268166666667","6500100","板橋區"
"220104","560-BX","2018/12/03 14:29:30","新北市板橋區中正路391號","121.454333333333","25.02185","6500100","板橋區"
"220052","561-BX","2018/12/03 14:29:14","新北市板橋區陽明街29巷36號","121.463536666667","25.022735","6500100","板橋區"
"220011","609-BX","2018/12/03 14:29:28","新北市板橋區三民路二段203-9號","121.479023333333","25.0132916666667","6500100","板橋區"
"220040","637-BX","2018/12/03 14:29:29","新北市板橋區文聖街77號","121.477298333333","25.0303833333333","6500100","板橋區"
"220005","686-BX","2018/12/03 14:29:16","新北市板橋區和平路45號","121.460221666667","24.9946016666667","6500100","板橋區"
"220025","687-BX","2018/12/03 14:29:17","新北市板橋區大觀路二段73號","121.446476666667","25.00228","6500100","板橋區"
"220042","689-BX","2018/12/03 14:29:26","新北市板橋區新海路434號","121.458038333333","25.0276716666667","6500100","板橋區"
"220002","741-BX","2018/12/03 14:29:24","新北市板橋區四川路一段257號","121.459736666667","25.0023883333333","6500100","板橋區"
"220051","KEA-2699","2018/12/03 14:29:24","新北市板橋區松柏街36巷27號","121.475721666667","25.02924","6500100","板橋區"
"220003","827-TW","2018/12/03 14:29:22","新北市板橋區重慶路278巷10號","121.462536666667","24.999695","6500100","板橋區"
"220016","830-TW","2018/12/03 14:29:24","新北市板橋區萬安街14號","121.484681666667","25.022565","6500100","板橋區"
"220014","831-TW","2018/12/03 14:29:29","新北市板橋區漢生東路279巷10弄9號","121.472161666667","25.0088016666667","6500100","板橋區"
"220022","895-R6","2018/12/03 14:29:28","新北市板橋區大東街36號","121.456515","25.0085933333333","6500100","板橋區"
"220021","985-R7","2018/12/03 14:29:24","新北市板橋區中正路332-11號","121.454246666667","25.0233033333333","6500100","板橋區"
"220046","AAC-210","2018/12/03 14:29:27","新北市板橋區文化路一段285巷26號","121.463768333333","25.0194","6500100","板橋區"
"220012","AAC-253","2018/12/03 14:29:28","新北市板橋區重慶路17號","121.460873333333","25.00798","6500100","板橋區"
"235032","KEA-2873","2018/12/03 14:29:14","新北市中和區中山路二段136巷3弄4號","121.501453333333","25.003685","6500300","中和區"
"235025","KEA-2875","2018/12/03 14:29:30","新北市中和區民利街13號","121.480566666667","24.9990016666667","6500300","中和區"
