"lineid","car","time","location","longitude","latitude","cityid","cityname"
"234025","9372-KE","2018/12/03 15:19:29","新北市永和區中山路一段75號","121.512395","25.0106333333333","6500400","永和區"
"234072","AAC-211","2018/12/03 15:19:18","新北市林口區汕頭32號","121.366343333333","25.1349416666667","6500400","永和區"
"244001","248-BX","2018/12/03 15:19:29","新北市林口區東林街29號","121.39557","25.0792383333333","6501700","林口區"
"243008","KEA-2801","2018/12/03 15:19:29","新北市泰山區文程路36-1號","121.429541666667","25.048655","6501600","泰山區"
"231002","002-UM","2018/12/03 15:19:16","新北市新店區中正路700巷3號","121.533895","24.9913683333333","6500600","新店區"
"231028","046-UY","2018/12/03 15:19:23","新北市新店區僑信路126巷15號","121.499645","24.945605","6500600","新店區"
"231001","047-UY","2018/12/03 15:19:21","新北市新店區北新路一段263號","121.540991666667","24.9663866666667","6500600","新店區"
"231005","106-UY","2018/12/03 15:19:25","新北市新店區建國路187號","121.538106666667","24.9796233333333","6500600","新店區"
"231019","108-UY","2018/12/03 15:19:21","新北市新店區永福路54號","121.55812","24.9286766666667","6500600","新店區"
"231031","110-UY","2018/12/03 15:19:20","新北市新店區安泰路157號","121.488071666667","24.938445","6500600","新店區"
"231011","187-VK","2018/12/03 15:19:12","新北市新店區中興路三段330號","121.542083333333","24.9865216666667","6500600","新店區"
"231018","188-VK","2018/12/03 15:19:16","新北市新店區中央八街70號","121.527785","24.976685","6500600","新店區"
"231023","KEA-2219","2018/12/03 15:19:14","新北市新店區北新路一段64巷35號","121.54226","24.9658716666667","6500600","新店區"
"231026","256-BX","2018/12/03 15:19:21","新北市新店區中正路263巷2號","121.538463333333","24.97345","6500600","新店區"
"231003","268-BY","2018/12/03 15:19:19","新北市新店區寶橋路238號","121.55157","24.9789166666667","6500600","新店區"
"231014","AAD-862","2018/12/03 15:19:18","新北市新店區明山路45號","121.56379","24.9559466666667","6500600","新店區"
"231038","3712-VJ","2018/12/03 15:17:36","新北市新店區安一路一段1-1號","121.519701666667","24.9610916666667","6500600","新店區"
"231025","4715-K9","2018/12/03 15:19:29","新北市新店區環河路105-12號","121.531863333333","24.970045","6500600","新店區"
"231036","512-UM","2018/12/03 15:19:28","新北市新店區安祥路104巷10號","121.481321666667","24.9631066666667","6500600","新店區"
"231034","616-UM","2018/12/03 15:19:28","新北市新店區如意街1巷2號","121.495705","24.94947","6500600","新店區"
"231006","617-UM","2018/12/03 15:19:14","新北市新店區中興路一段216號","121.543973333333","24.9657283333333","6500600","新店區"
"231030","619-UM","2018/12/03 15:19:20","新北市新店區安民街341-1號","121.516721666667","24.9748466666667","6500600","新店區"
"231039","718-UY","2018/12/03 15:19:29","新北市新店區中興路三段328號","121.542135","24.9863733333333","6500600","新店區"
"231035","719-UM","2018/12/03 15:19:25","新北市新店區永平街23巷12號","121.516665","24.9829133333333","6500600","新店區"
"231029","897-TW","2018/12/03 15:19:26","新北市新店區安康路三段740號","121.47385","24.9419583333333","6500600","新店區"
"231004","898-TW","2018/12/03 15:19:23","新北市新店區博愛街13巷23號","121.540301666667","24.974105","6500600","新店區"
"231024","AKT-0513","2018/12/03 15:19:14","新北市新店區北新路一段113號","121.539241666667","24.962345","6500600","新店區"
"241028","022-UY","2018/12/03 15:19:15","新北市三重區重新路四段121號","121.484791666667","25.0525833333333","6500200","三重區"
"241017","063-VK","2018/12/03 15:19:30","新北市三重區重新路四段121號","121.484773333333","25.0519966666667","6500200","三重區"
"241013","270-UM","2018/12/03 15:19:28","新北市三重區重新路四段121號","121.485026666667","25.0520583333333","6500200","三重區"
"235030","003-UY","2018/12/03 15:19:27","新北市中和區光華街69號","121.506636666667","25.002845","6500300","中和區"
"235014","4979-A6","2018/12/03 15:19:26","新北市中和區景平路462號","121.50576","24.993745","6500300","中和區"
"235033","4980-A6","2018/12/03 15:19:14","新北市中和區圓通路198巷2弄3號","121.496183333333","24.9947416666667","6500300","中和區"
"235018","640-BX","2018/12/03 15:19:27","新北市三重區頂崁街23號","121.476163333333","25.0574966666667","6500300","中和區"
"235012","896-TW","2018/12/03 15:19:28","新北市中和區景新街368號","121.512181666667","24.99038","6500300","中和區"
"235023","AAC-215","2018/12/03 15:19:15","新北市中和區圓通路435巷3-3號","121.488053333333","24.9862866666667","6500300","中和區"
"220013","072-UY","2018/12/03 15:19:24","新北市板橋區縣民大道418-1號","121.482303333333","25.0260533333333","6500100","板橋區"
"253003","6232-TK","2018/12/03 15:19:12","新北市石門區小坑9號","121.594276666667","25.288705","6502200","石門區"
"253004","6251-TK","2018/12/03 15:19:28","新北市石門區小坑9號","121.594478333333","25.2891866666667","6502200","石門區"
"253002","637-UY","2018/12/03 15:16:38","新北市石門區尖子鹿79號","121.571983333333","25.2959916666667","6502200","石門區"
"253001","KEC-0718","2018/12/03 15:19:27","新北市石門區小坑9號","121.594396666667","25.2884033333333","6502200","石門區"
"207002","749-BX","2018/12/03 15:19:27","新北市萬里區崁腳里內中福路2-1號","121.66932","25.1654483333333","6502800","萬里區"
"207001","662-BX","2018/12/03 15:19:27","新北市萬里區野柳里八斗60號","121.66593","25.205045","6502800","萬里區"
"236064","105-UM","2018/12/03 15:19:30","新北市土城區裕民路185巷36弄10號","121.454271666667","24.98447","6501300","土城區"
"236040","KED-0685","2018/12/03 15:19:19","新北市土城區裕民路259巷6號","121.454855","24.9833633333333","6501300","土城區"
"236074","166-UM","2018/12/03 15:19:26","新北市土城區溪頭路29號","121.412436666667","24.9552733333333","6501300","土城區"
"236029","253-BX","2018/12/03 15:19:18","新北市土城區中央路一段262巷33號","121.442463333333","24.9843133333333","6501300","土城區"
"236024","269-VK","2018/12/03 15:19:16","新北市土城區中央路二段61巷32號","121.443528333333","24.97857","6501300","土城區"
"236012","270-VK","2018/12/03 15:19:20","新北市土城區廣福街32-1號","121.456998333333","24.9900533333333","6501300","土城區"
"236032","271-VK","2018/12/03 15:19:30","新北市土城區國際路79號","121.467026666667","24.97607","6501300","土城區"
"236016","401-BY","2018/12/03 15:19:26","新北市土城區金城路三段192號","121.46847","24.9878816666667","6501300","土城區"
"236054","752-BX","2018/12/03 15:18:27","新北市土城區青雲路42號","121.459685","24.9883533333333","6501300","土城區"
"236057","912-UM","2018/12/03 15:19:11","新北市土城區中央路二段258號","121.441633333333","24.974515","6501300","土城區"
"236045","913-UM","2018/12/03 15:19:12","新北市土城區明德路一段51號","121.46522","24.9847483333333","6501300","土城區"
"236060","915-UM","2018/12/03 15:19:33","新北市土城區金城路三段149巷4弄10號","121.468801666667","24.9891766666667","6501300","土城區"
"238002","755-BX","2018/12/03 15:19:18","新北市樹林區復興路188號","121.420061666667","24.9911283333333","6500700","樹林區"
"238010","601-UM","2018/12/03 15:19:24","新北市樹林區中正路433-2號","121.414953333333","25.008355","6500700","樹林區"
"238006","599-UM","2018/12/03 15:19:31","新北市樹林區太平路1-7號","121.418646666667","24.9845116666667","6500700","樹林區"
"238005","571-TV","2018/12/03 15:19:23","新北市樹林區樹新路211-1號","121.430881666667","24.9999966666667","6500700","樹林區"
"238011","5061-A6","2018/12/03 15:19:23","新北市樹林區四德街7巷2號","121.426553333333","24.9920416666667","6500700","樹林區"
"238009","KEA-2213","2018/12/03 15:19:27","新北市樹林區仁愛街44號","121.42371","24.98273","6500700","樹林區"
"238008","KEA-2539","2018/12/03 15:19:19","新北市樹林區西圳街一段165巷20弄11號","121.395566666667","24.960175","6500700","樹林區"
"238012","303-VK","2018/12/03 15:19:18","新北市樹林區保安二街31號","121.424781666667","24.99389","6500700","樹林區"
"238004","283-BY","2018/12/03 15:19:12","新北市樹林區大安路251號","121.419325","24.994225","6500700","樹林區"
"238001","282-BY","2018/12/03 15:19:30","新北市樹林區保安街一段220號","121.420581666667","24.99631","6500700","樹林區"
"238007","268-VK","2018/12/03 15:19:24","新北市樹林區俊英街90號","121.427746666667","25.00491","6500700","樹林區"
"238013","172-UY","2018/12/03 15:19:21","新北市樹林區新興街2巷1號","121.400218333333","24.9743916666667","6500700","樹林區"
"238003","169-UY","2018/12/03 15:19:16","新北市樹林區中山路二段10號","121.417573333333","24.9850383333333","6500700","樹林區"
"220027","145-BY","2018/12/03 15:19:23","新北市板橋區大觀路三段45號","121.434193333333","24.9954266666667","6500100","板橋區"
"220050","245-BX","2018/12/03 15:19:09","新北市板橋區莊敬路75巷2號","121.473065","25.02659","6500100","板橋區"
"220031","286-VK","2018/12/03 15:19:25","新北市板橋區僑中二街102巷47號","121.44417","25.00847","6500100","板橋區"
"220047","317-R6","2018/12/03 15:19:17","新北市三重區重新路5段221巷6弄11-1號","121.47911","25.0509633333333","6500100","板橋區"
"220038","487-VK","2018/12/03 15:19:30","新北市板橋區長江路一段188號","121.46211","25.030365","6500100","板橋區"
"220037","491-VK","2018/12/03 15:19:22","新北市板橋區民治街53號","121.47935","25.033505","6500100","板橋區"
"220011","609-BX","2018/12/03 15:19:27","新北市板橋區三民路一段147號","121.479266666667","25.0196883333333","6500100","板橋區"
"220025","687-BX","2018/12/03 15:19:17","新北市板橋區僑中一街124巷61-61號","121.446825","25.0187016666667","6500100","板橋區"
"220012","AAC-253","2018/12/03 15:19:28","新北市板橋區民族路63號","121.465266666667","25.008725","6500100","板橋區"
