"lineid","car","time","location","longitude","latitude","cityid","cityname"
"234025","9372-KE","2018/12/03 15:39:09","新北市永和區中山路一段142號","121.509938333333","25.0097366666667","6500400","永和區"
"248010","682-TV","2018/12/03 15:27:08","新北市五股區中興路二段83巷26-3號","121.460153333333","25.0753616666667","6501500","五股區"
"234072","AAC-211","2018/12/03 15:39:18","新北市八里區中山路三段132號","121.385336666667","25.1415833333333","6500400","永和區"
"244001","248-BX","2018/12/03 15:39:29","新北市林口區粉寮路二段160巷28號","121.405163333333","25.0906583333333","6501700","林口區"
"243012","646-TV","2018/12/03 15:39:28","新北市泰山區黎明路25號","121.421968333333","25.0607216666667","6501600","泰山區"
"243014","680-BX","2018/12/03 15:33:41","新北市泰山區犁頭窠3-1號","121.422128333333","25.0603516666667","6501600","泰山區"
"231028","046-UY","2018/12/03 15:39:14","新北市新店區僑義路12號","121.500433333333","24.9507233333333","6500600","新店區"
"231005","106-UY","2018/12/03 15:39:25","新北市新店區中正路374號","121.534955","24.9764966666667","6500600","新店區"
"231019","108-UY","2018/12/03 15:39:21","新北市新店區金興路1號","121.548633333333","24.9296383333333","6500600","新店區"
"231031","110-UY","2018/12/03 15:39:20","新北市新店區裕合街143號","121.48914","24.9491083333333","6500600","新店區"
"231011","187-VK","2018/12/03 15:39:12","新北市新店區寶元路一段109號","121.545716666667","24.9831383333333","6500600","新店區"
"231018","188-VK","2018/12/03 15:39:16","新北市新店區復興路131-2號","121.531305","24.988635","6500600","新店區"
"231023","KEA-2219","2018/12/03 15:39:13","新北市新店區中興路一段285號","121.54542","24.9685266666667","6500600","新店區"
"231026","256-BX","2018/12/03 15:39:21","新北市新店區三民路77號","121.53595","24.9714366666667","6500600","新店區"
"231003","268-BY","2018/12/03 15:39:19","新北市新店區寶高路102巷20號","121.552543333333","24.974015","6500600","新店區"
"231014","AAD-862","2018/12/03 15:39:18","新北市新店區北宜路一段170號","121.54066","24.95302","6500600","新店區"
"231038","3712-VJ","2018/12/03 15:39:26","新北市新店區安康路二段14號","121.516136666667","24.9639566666667","6500600","新店區"
"231037","4716-K9","2018/12/03 15:39:26","新北市新店區安興路105號","121.514721666667","24.9778116666667","6500600","新店區"
"231036","512-UM","2018/12/03 15:39:14","新北市新店區安祥路67巷43號","121.486228333333","24.9599083333333","6500600","新店區"
"231013","513-UM","2018/12/03 15:39:16","新北市新店區永業路81巷1弄8號","121.530033333333","24.9498733333333","6500600","新店區"
"231034","616-UM","2018/12/03 15:39:28","新北市新店區如意街62號","121.494145","24.947085","6500600","新店區"
"231030","619-UM","2018/12/03 15:39:26","新北市新店區新和街109號","121.521625","24.987075","6500600","新店區"
"231039","718-UY","2018/12/03 15:39:29","新北市新店區寶元路二段16巷1號","121.546083333333","24.982345","6500600","新店區"
"231035","719-UM","2018/12/03 15:39:25","新北市新店區安興路83-8號","121.515311666667","24.97562","6500600","新店區"
"231029","897-TW","2018/12/03 15:39:26","新北市新店區安康路三段2-1號","121.493485","24.953585","6500600","新店區"
"241011","013-R5","2018/12/03 15:39:27","新北市三重區文化北路248號","121.497446666667","25.0700666666667","6500200","三重區"
"241028","022-UY","2018/12/03 15:39:15","新北市三重區成功路6號","121.490155","25.0499666666667","6500200","三重區"
"241022","060-VK","2018/12/03 15:39:12","新北市三重區重新路四段121號","121.485325","25.0521133333333","6500200","三重區"
"241015","062-VK","2018/12/03 15:39:18","新北市三重區重新路四段121號","121.484946666667","25.0520733333333","6500200","三重區"
"241017","063-VK","2018/12/03 15:39:30","新北市三重區大仁街1號","121.491658333333","25.0635583333333","6500200","三重區"
"241024","065-VK","2018/12/03 15:39:17","新北市三重區重新路四段121號","121.484698333333","25.0525183333333","6500200","三重區"
"241002","090-VK","2018/12/03 15:39:25","新北市三重區重新路四段121號","121.484843333333","25.0519366666667","6500200","三重區"
"241003","091-VK","2018/12/03 15:39:25","新北市三重區重新路四段121號","121.484865","25.0519333333333","6500200","三重區"
"241005","262-UM","2018/12/03 15:39:20","新北市三重區重新路四段121號","121.484438333333","25.0520533333333","6500200","三重區"
"241009","267-UM","2018/12/03 15:39:25","新北市三重區重新路四段121號","121.484873333333","25.0519766666667","6500200","三重區"
"241018","268-UM","2018/12/03 15:39:29","新北市三重區重新路四段121號","121.484761666667","25.0519733333333","6500200","三重區"
"241032","269-UM","2018/12/03 15:39:13","新北市三重區重新路四段101號","121.485765","25.0546566666667","6500200","三重區"
"241013","270-UM","2018/12/03 15:39:28","新北市三重區正義北路291號","121.494893333333","25.07065","6500200","三重區"
"241025","271-UM","2018/12/03 15:39:34","新北市三重區重新路四段121號","121.48475","25.0525183333333","6500200","三重區"
"241007","398-BY","2018/12/03 15:39:20","新北市三重區重新路四段121號","121.484641666667","25.0519766666667","6500200","三重區"
"241004","475-VK","2018/12/03 15:39:27","新北市三重區重新路四段121號","121.484638333333","25.052005","6500200","三重區"
"241020","478-VK","2018/12/03 15:39:18","新北市三重區忠孝路二段99號","121.484206666667","25.0699283333333","6500200","三重區"
"241014","543-UM","2018/12/03 15:39:25","新北市三重區重新路四段121號","121.484846666667","25.05197","6500200","三重區"
"241023","545-UM","2018/12/03 15:39:25","新北市三重區重新路四段121號","121.48485","25.0525333333333","6500200","三重區"
"241033","557-UM","2018/12/03 15:39:21","新北市三重區五谷王南街1號","121.474655","25.0468466666667","6500200","三重區"
"241019","KEA-2593","2018/12/03 15:39:13","新北市三重區重新路四段121號","121.484825","25.052025","6500200","三重區"
"241026","743-BX","2018/12/03 15:39:29","新北市三重區重新路四段121號","121.48486","25.0525116666667","6500200","三重區"
"241012","941-UM","2018/12/03 15:39:12","新北市三重區自強路一段66號","121.49712","25.0666633333333","6500200","三重區"
"241029","942-UM","2018/12/03 15:39:18","新北市三重區環河南路220-8號","121.493388333333","25.0527","6500200","三重區"
"235033","4980-A6","2018/12/03 15:39:14","新北市中和區員山路381巷1弄2號","121.480928333333","25.00232","6500300","中和區"
"235023","AAC-215","2018/12/03 15:39:15","新北市中和區員山路32號","121.480958333333","24.98766","6500300","中和區"
"220013","072-UY","2018/12/03 15:39:24","新北市八里區中山路三段387號","121.371636666667","25.13756","6500100","板橋區"
"227001","642-TC","2018/12/03 15:39:11","新北市雙溪區牡丹里中正路67號","121.86493","25.0437316666667","6502500","雙溪區"
"227008","400-TW","2018/12/03 15:39:10","新北市雙溪區三貂里政光路3-1號","121.850868333333","25.062945","6502500","雙溪區"
"236064","105-UM","2018/12/03 15:39:10","新北市土城區中央路三段38號","121.438395","24.9688016666667","6501300","土城區"
"236040","KED-0685","2018/12/03 15:39:19","新北市土城區學成路8號","121.453401666667","24.9864766666667","6501300","土城區"
"236074","166-UM","2018/12/03 15:39:31","新北市土城區福安街73號","121.416858333333","24.96368","6501300","土城區"
"236029","253-BX","2018/12/03 15:39:22","新北市土城區中央路一段45巷2弄28號","121.448105","24.9896783333333","6501300","土城區"
"236024","269-VK","2018/12/03 15:39:28","新北市土城區裕生路71-1號","121.446986666667","24.984495","6501300","土城區"
"236012","270-VK","2018/12/03 15:39:14","新北市土城區廣明街90巷5號","121.4551","24.99444","6501300","土城區"
"236016","401-BY","2018/12/03 15:39:26","新北市土城區延吉街137巷25弄5號","121.471448333333","24.985245","6501300","土城區"
"236054","752-BX","2018/12/03 15:39:08","新北市土城區學府路一段72號","121.456678333333","24.9882333333333","6501300","土城區"
"236057","912-UM","2018/12/03 15:39:31","新北市土城區中央路一段186-3號","121.445456666667","24.98626","6501300","土城區"
"236045","913-UM","2018/12/03 15:39:23","新北市土城區金城路三段260號","121.47406","24.99085","6501300","土城區"
"238002","755-BX","2018/12/03 15:39:18","新北市樹林區長壽街4號","121.423771666667","24.9932916666667","6500700","樹林區"
"238010","601-UM","2018/12/03 15:39:28","新北市樹林區龍興街13巷7號","121.403411666667","25.0164616666667","6500700","樹林區"
"238006","599-UM","2018/12/03 15:39:31","新北市樹林區忠孝街11號","121.423325","24.9827666666667","6500700","樹林區"
"238005","571-TV","2018/12/03 15:39:23","新北市樹林區中華路138號","121.417021666667","24.9803","6500700","樹林區"
"238011","5061-A6","2018/12/03 15:39:30","新北市樹林區中山路二段189巷5號","121.40517","24.9766933333333","6500700","樹林區"
"238009","KEA-2213","2018/12/03 15:39:27","新北市樹林區中華路185-1號","121.42047","24.9816116666667","6500700","樹林區"
"238008","KEA-2539","2018/12/03 15:39:19","新北市樹林區柑園街一段345號","121.390536666667","24.9564266666667","6500700","樹林區"
"238012","303-VK","2018/12/03 15:39:18","新北市樹林區中山路一段248號","121.421016666667","24.9874516666667","6500700","樹林區"
"238004","283-BY","2018/12/03 15:39:12","新北市樹林區保安街二段277-1號","121.412805","25.0058333333333","6500700","樹林區"
"238001","282-BY","2018/12/03 15:39:30","新北市樹林區大安路47號","121.423866666667","24.99904","6500700","樹林區"
"238007","268-VK","2018/12/03 15:39:15","新北市樹林區三俊街289號","121.423385","25.0140816666667","6500700","樹林區"
"238013","172-UY","2018/12/03 15:39:18","新北市樹林區八德街584號","121.398453333333","24.969955","6500700","樹林區"
"238003","169-UY","2018/12/03 15:39:16","新北市樹林區育英街156號","121.418736666667","24.989505","6500700","樹林區"
"220027","145-BY","2018/12/03 15:39:23","新北市樹林區八德街491-8號","121.402873333333","24.969325","6500100","板橋區"
"220050","245-BX","2018/12/03 15:38:09","新北市五股區中直路13-7號","121.423986666667","25.110755","6500100","板橋區"
"220047","317-R6","2018/12/03 15:39:17","新北市林口區汕頭32號","121.366361666667","25.1346966666667","6500100","板橋區"
"220012","AAC-253","2018/12/03 15:39:28","新北市板橋區民族路247巷7弄50號","121.470623333333","25.008675","6500100","板橋區"
"234001","TL-1","2018/12/03 15:33:06","新北市永和區警光街5號","121.519393333333","25.0092516666667","6500400","永和區"
