"lineid","car","time","location","longitude","latitude","cityid","cityname"
"234042","862-TW","2018/12/03 16:06:21","新北市永和區福和路1號","121.526501666667","25.0096233333333","6500400","永和區"
"244001","248-BX","2018/12/03 15:56:37","新北市林口區粉寮路二段160巷28號","121.40515","25.0906933333333","6501700","林口區"
"243009","297-R6","2018/12/03 15:52:10","新北市泰山區黎明路25號","121.421953333333","25.0608966666667","6501600","泰山區"
"231046","107-UY","2018/12/03 16:19:24","新北市新店區灣潭路3-3號","121.53823","24.950865","6500600","新店區"
"231018","188-VK","2018/12/03 16:19:16","新北市新店區溪園路87號","121.52869","24.9866766666667","6500600","新店區"
"241011","013-R5","2018/12/03 16:19:27","新北市三重區龍濱路190號","121.501101666667","25.0733033333333","6500200","三重區"
"241028","022-UY","2018/12/03 16:19:15","新北市三重區同安東街56號","121.49811","25.05731","6500200","三重區"
"241008","059-VK","2018/12/03 16:19:17","新北市三重區力行路二段136巷45弄12號","121.479003333333","25.0753383333333","6500200","三重區"
"241022","060-VK","2018/12/03 16:19:12","新北市三重區過圳街31巷2號","121.489085","25.0606","6500200","三重區"
"241031","061-VK","2018/12/03 16:19:16","新北市三重區捷運路36號","121.482788333333","25.0551783333333","6500200","三重區"
"241015","062-VK","2018/12/03 16:19:18","新北市三重區福德北路58號","121.50186","25.0658583333333","6500200","三重區"
"241017","063-VK","2018/12/03 16:19:30","新北市三重區大同北路85號","121.494811666667","25.0636066666667","6500200","三重區"
"241024","065-VK","2018/12/03 16:19:17","新北市三重區中正北路115巷2號","121.483953333333","25.0675183333333","6500200","三重區"
"241002","090-VK","2018/12/03 16:19:25","新北市三重區仁義街91號","121.499746666667","25.0795233333333","6500200","三重區"
"241003","091-VK","2018/12/03 16:19:25","新北市三重區五華街57巷4號","121.493","25.0827683333333","6500200","三重區"
"241005","262-UM","2018/12/03 16:19:20","新北市三重區溪尾街305號","121.487565","25.0837216666667","6500200","三重區"
"241016","265-UM","2018/12/03 16:19:31","新北市三重區大仁街39號","121.492971666667","25.0654283333333","6500200","三重區"
"241009","267-UM","2018/12/03 16:19:30","新北市三重區溪尾街196巷2號","121.487896666667","25.0808166666667","6500200","三重區"
"241018","268-UM","2018/12/03 16:19:29","新北市三重區重陽路三段132號","121.48923","25.066955","6500200","三重區"
"241032","269-UM","2018/12/03 16:19:33","新北市三重區三陽路100巷3弄13號","121.482991666667","25.0581666666667","6500200","三重區"
"241013","270-UM","2018/12/03 16:19:28","新北市三重區仁和街97號","121.498021666667","25.0741116666667","6500200","三重區"
"241025","271-UM","2018/12/03 16:19:14","新北市三重區中正北路560巷100弄2號","121.47261","25.0682383333333","6500200","三重區"
"241007","398-BY","2018/12/03 16:19:20","新北市三重區三和路四段163巷107號","121.486955","25.0796933333333","6500200","三重區"
"241004","475-VK","2018/12/03 16:19:27","新北市三重區五華街74號","121.493491666667","25.0819583333333","6500200","三重區"
"241020","478-VK","2018/12/03 16:19:18","新北市三重區車路頭街17巷9號","121.48434","25.0705266666667","6500200","三重區"
"241030","480-VK","2018/12/03 16:19:17","新北市三重區重新路四段121號","121.48521","25.051875","6500200","三重區"
"241014","543-UM","2018/12/03 16:19:25","新北市三重區河邊北街96-1號","121.504008333333","25.06987","6500200","三重區"
"241023","545-UM","2018/12/03 16:19:25","新北市三重區忠孝路二段124巷1弄13號","121.482706666667","25.068155","6500200","三重區"
"241001","547-UM","2018/12/03 16:19:24","新北市三重區仁政街159號","121.49133","25.0796383333333","6500200","三重區"
"241033","557-UM","2018/12/03 16:19:01","新北市三重區重新路五段406-1號","121.476106666667","25.0475233333333","6500200","三重區"
"241019","KEA-2593","2018/12/03 16:19:13","新北市三重區自強路二段88號","121.48778","25.0706283333333","6500200","三重區"
"241026","743-BX","2018/12/03 16:19:29","新北市三重區正義南路105巷7號","121.49806","25.0591116666667","6500200","三重區"
"241006","887-TS","2018/12/03 16:19:27","新北市三重區永福街46巷41弄3號","121.482055","25.0771966666667","6500200","三重區"
"241012","941-UM","2018/12/03 16:19:32","新北市三重區河邊北街313號","121.502423333333","25.07485","6500200","三重區"
"241029","942-UM","2018/12/03 16:19:18","新北市三重區環河南路220-8號","121.493338333333","25.0526766666667","6500200","三重區"
"235026","800-TS","2018/12/03 16:19:31","新北市中和區中山路二段342號","121.493803333333","25.0022016666667","6500300","中和區"
"224007","275-VK","2018/12/03 16:19:27","新北市瑞芳區大埔路182號","121.761793333333","25.1021833333333","6501200","瑞芳區"
"224005","271-BY","2018/12/03 16:19:13","新北市瑞芳區三爪子坑路106巷1-11號","121.80774","25.1050283333333","6501200","瑞芳區"
"227001","642-TC","2018/12/03 16:19:31","新北市雙溪區上林里內平林81號","121.82828","25.0279133333333","6502500","雙溪區"
"227008","400-TW","2018/12/03 16:19:30","新北市雙溪區三港里雙澳路86號","121.88514","25.05435","6502500","雙溪區"
"251013","KEA-2871","2018/12/03 16:19:17","新北市淡水區北投子55號","121.457758333333","25.1820983333333","6501000","淡水區"
"251008","181-VK","2018/12/03 16:19:15","新北市淡水區中正東路二段48巷20號","121.45706","25.1585733333333","6501000","淡水區"
"236057","912-UM","2018/12/03 16:19:31","新北市土城區永平街72號","121.427305","24.9591366666667","6501300","土城區"
"238006","599-UM","2018/12/03 16:19:31","新北市樹林區東華街73號","121.415631666667","24.98086","6500700","樹林區"
"238025","303-VK","2018/12/03 16:15:48","新北市樹林區中正路22-1號","121.427975","24.9993833333333","6500700","樹林區"
"238004","283-BY","2018/12/03 16:19:12","新北市樹林區中正路433-1號","121.414728333333","25.0081766666667","6500700","樹林區"
"238001","282-BY","2018/12/03 16:19:30","新北市樹林區千歲街136號","121.427296666667","24.9987866666667","6500700","樹林區"
"220047","317-R6","2018/12/03 16:19:17","新北市三重區五谷王北街181-1號","121.47731","25.05503","6500100","板橋區"
"220012","AAC-253","2018/12/03 16:19:28","新北市樹林區八德街1022號","121.391043333333","24.9684616666667","6500100","板橋區"
"234001","TL-1","2018/12/03 16:03:51","","0","0","6500400","永和區"
