"lineid","car","time","location","longitude","latitude","cityid","cityname"
"249005","172-UM","2018/12/03 16:39:15","新北市八里區博物館路29號","121.413923333333","25.16272","6502300","八里區"
"249003","593-UM","2018/12/03 16:39:30","新北市八里區挖子尾街6號","121.415485","25.1641666666667","6502300","八里區"
"244019","402-UM","2018/12/03 16:39:13","新北市林口區粉寮69號","121.405031666667","25.09079","6501700","林口區"
"231046","107-UY","2018/12/03 16:39:24","新北市新店區灣潭路17-6號","121.538916666667","24.94112","6500600","新店區"
"241011","013-R5","2018/12/03 16:39:27","新北市三重區仁愛街51號","121.496603333333","25.0718916666667","6500200","三重區"
"241028","022-UY","2018/12/03 16:39:15","新北市三重區中正南路41巷1號","121.493903333333","25.05989","6500200","三重區"
"241008","059-VK","2018/12/03 16:39:17","新北市三重區永安北路一段27巷24號","121.477285","25.0755283333333","6500200","三重區"
"241022","060-VK","2018/12/03 16:39:32","新北市三重區新北大道一段140號","121.484613333333","25.0615966666667","6500200","三重區"
"241031","061-VK","2018/12/03 16:39:16","新北市三重區重新路四段41巷24號","121.487351666667","25.05839","6500200","三重區"
"241015","062-VK","2018/12/03 16:39:18","新北市三重區文化北路37號","121.498995","25.0649766666667","6500200","三重區"
"241017","063-VK","2018/12/03 16:39:30","新北市三重區中正北路25巷7號","121.492673333333","25.0620916666667","6500200","三重區"
"241024","065-VK","2018/12/03 16:39:21","新北市三重區中正北路315巷6弄5號","121.474785","25.0718366666667","6500200","三重區"
"241002","090-VK","2018/12/03 16:39:25","新北市三重區仁義街243號","121.496276666667","25.0826316666667","6500200","三重區"
"241003","091-VK","2018/12/03 16:39:25","新北市三重區五華街71巷20號","121.49289","25.0830683333333","6500200","三重區"
"251014","742-BX","2018/12/03 16:39:16","新北市淡水區淡金路三段316號","121.449068333333","25.20812","6501000","淡水區"
"241005","262-UM","2018/12/03 16:39:20","新北市三重區仁華街107號","121.486266666667","25.0828166666667","6500200","三重區"
"241016","265-UM","2018/12/03 16:39:31","新北市三重區大智街5號","121.494766666667","25.064975","6500200","三重區"
"241009","267-UM","2018/12/03 16:39:25","新北市三重區三和路四段203巷84號","121.483933333333","25.0799683333333","6500200","三重區"
"241018","268-UM","2018/12/03 16:39:29","新北市三重區六張街81號","121.493266666667","25.0700983333333","6500200","三重區"
"241032","269-UM","2018/12/03 16:39:33","新北市三重區三民街28號","121.48559","25.0613233333333","6500200","三重區"
"241013","270-UM","2018/12/03 16:39:28","新北市三重區仁愛街73號","121.49615","25.07295","6500200","三重區"
"241025","271-UM","2018/12/03 16:39:34","新北市三重區中正北路295號","121.474521666667","25.071195","6500200","三重區"
"241007","398-BY","2018/12/03 16:39:20","新北市三重區三和路四段167巷51號","121.485388333333","25.0794866666667","6500200","三重區"
"241004","475-VK","2018/12/03 16:39:27","新北市三重區五福街28號","121.49251","25.0812666666667","6500200","三重區"
"241020","478-VK","2018/12/03 16:39:18","新北市三重區國道路一段23號","121.485406666667","25.0732566666667","6500200","三重區"
"241030","480-VK","2018/12/03 16:39:18","新北市三重區成功路50巷56號","121.487925","25.049575","6500200","三重區"
"241014","543-UM","2018/12/03 16:39:25","新北市三重區龍濱路28號","121.502886666667","25.0680233333333","6500200","三重區"
"241023","545-UM","2018/12/03 16:39:25","新北市三重區忠孝路三段50巷45號","121.482961666667","25.0643366666667","6500200","三重區"
"241001","547-UM","2018/12/03 16:39:24","新北市三重區仁政街95號","121.492491666667","25.0778666666667","6500200","三重區"
"241033","557-UM","2018/12/03 16:38:21","新北市三重區光復路二段87巷2號","121.472541666667","25.0581283333333","6500200","三重區"
"241019","KEA-2593","2018/12/03 16:39:33","新北市三重區力行路一段63號","121.487301666667","25.06739","6500200","三重區"
"241026","743-BX","2018/12/03 16:39:29","新北市三重區中央南路17號","121.501236666667","25.06252","6500200","三重區"
"241006","887-TS","2018/12/03 16:39:27","新北市三重區車路頭街138-2號","121.483558333333","25.07544","6500200","三重區"
"241012","941-UM","2018/12/03 16:39:32","新北市三重區仁興街4巷37號","121.499086666667","25.0736216666667","6500200","三重區"
"241029","942-UM","2018/12/03 16:39:18","新北市三重區集美街112巷13號","121.489471666667","25.0540683333333","6500200","三重區"
"235054","640-BX","2018/12/03 16:39:27","新北市中和區員山路36巷16-3號","121.485011666667","24.9917233333333","6500300","中和區"
"247006","337-TH","2018/12/03 16:39:16","新北市蘆洲區永安南路二段132-1號","121.462598333333","25.0785483333333","6501400","蘆洲區"
"247010","056-VK","2018/12/03 16:39:16","新北市五股區成泰路三段320號","121.450666666667","25.0968816666667","6501400","蘆洲區"
"247022","001-UY","2018/12/03 16:39:21","新北市五股區中興路三段2巷10號","121.449603333333","25.0809316666667","6501400","蘆洲區"
"224007","275-VK","2018/12/03 16:39:27","新北市瑞芳區瑞竹路151號","121.760475","25.104195","6501200","瑞芳區"
"224009","273-VK","2018/12/03 16:39:14","新北市瑞芳區大寮路356-1號","121.784816666667","25.1032033333333","6501200","瑞芳區"
"224005","271-BY","2018/12/03 16:39:33","新北市瑞芳區籠山路214-1號","121.850611666667","25.1257616666667","6501200","瑞芳區"
"227001","642-TC","2018/12/03 16:39:31","新北市雙溪區外柑里外柑腳58號","121.807943333333","25.0178333333333","6502500","雙溪區"
"227008","400-TW","2018/12/03 16:39:30","新北市雙溪區牡丹里中正路65號","121.865295","25.0436716666667","6502500","雙溪區"
"251013","KEA-2871","2018/12/03 16:38:57","新北市淡水區楓樹湖12-6號","121.497906666667","25.1881416666667","6501000","淡水區"
"251016","179-VK","2018/12/03 16:39:18","新北市淡水區新春街149號","121.44258","25.1814233333333","6501000","淡水區"
"251008","181-VK","2018/12/03 16:39:15","新北市淡水區民生路169號","121.469813333333","25.1420416666667","6501000","淡水區"
"251015","182-VK","2018/12/03 16:39:23","新北市淡水區建設街1巷1號","121.438971666667","25.17281","6501000","淡水區"
"252002","178-VK","2018/12/03 16:39:24","新北市三芝區芝柏路59號","121.511286666667","25.2565216666667","6502100","三芝區"
"247008","KED-0683","2018/12/03 16:39:27","新北市五股區中興路三段190號","121.443705","25.0814466666667","6501400","蘆洲區"
"236057","912-UM","2018/12/03 16:39:31","新北市土城區城林路6巷80號","121.43851","24.9798183333333","6501300","土城區"
"238025","303-VK","2018/12/03 16:15:48","新北市樹林區中正路22-1號","121.427975","24.9993833333333","6500700","樹林區"
"238004","283-BY","2018/12/03 16:39:32","新北市樹林區中正路433-2號","121.414476666667","25.0083816666667","6500700","樹林區"
"238001","282-BY","2018/12/03 16:39:30","新北市樹林區中正路22-1號","121.427803333333","24.999685","6500700","樹林區"
"239007","AAC-297","2018/12/03 16:39:16","新北市鶯歌區二甲路13-16號","121.34503","24.935115","6500800","鶯歌區"
"220012","AAC-253","2018/12/03 16:39:28","新北市板橋區華東街1-10號","121.448378333333","24.9949333333333","6500100","板橋區"
