"lineid","car","time","location","longitude","latitude","cityid","cityname"
"249005","172-UM","2018/12/03 16:49:15","新北市八里區大堀湖1-5號","121.422828333333","25.1549766666667","6502300","八里區"
"249004","303-UY","2018/12/03 16:49:29","新北市八里區博物館路202巷38號","121.405416666667","25.1596516666667","6502300","八里區"
"249002","305-UY","2018/12/03 16:49:26","新北市八里區牛寮埔33號","121.429915","25.1457383333333","6502300","八里區"
"249003","593-UM","2018/12/03 16:49:30","新北市八里區中山路二段338號","121.402746666667","25.152055","6502300","八里區"
"248008","095-VK","2018/12/03 16:47:07","新北市五股區中興路二段83巷26-6號","121.460116666667","25.07511","6501500","五股區"
"244019","402-UM","2018/12/03 16:49:13","新北市林口區粉寮69號","121.405028333333","25.0908066666667","6501700","林口區"
"244011","701-TV","2018/12/03 16:49:25","新北市林口區粉寮69號","121.405023333333","25.09079","6501700","林口區"
"231046","107-UY","2018/12/03 16:49:24","新北市新店區灣潭路15-15號","121.542556666667","24.9435666666667","6500600","新店區"
"241011","013-R5","2018/12/03 16:49:27","新北市三重區仁愛街53巷189號","121.500526666667","25.0728966666667","6500200","三重區"
"241028","022-UY","2018/12/03 16:49:15","新北市三重區正義南路67號","121.498335","25.0602033333333","6500200","三重區"
"241008","059-VK","2018/12/03 16:49:17","新北市三重區永福街179巷28號","121.47796","25.07484","6500200","三重區"
"241022","060-VK","2018/12/03 16:49:32","新北市三重區貴陽街47巷2號","121.484853333333","25.0628216666667","6500200","三重區"
"241031","061-VK","2018/12/03 16:49:16","新北市三重區過圳街16號","121.488873333333","25.05878","6500200","三重區"
"241015","062-VK","2018/12/03 16:49:18","新北市三重區文化北路45號","121.498991666667","25.0654866666667","6500200","三重區"
"241017","063-VK","2018/12/03 16:49:30","新北市三重區國隆路8巷43號","121.492485","25.0634216666667","6500200","三重區"
"241024","065-VK","2018/12/03 16:49:17","新北市三重區中正北路315巷6弄10號","121.475571666667","25.0720316666667","6500200","三重區"
"241002","090-VK","2018/12/03 16:49:25","新北市三重區仁義街161-2號","121.497023333333","25.0812866666667","6500200","三重區"
"241003","091-VK","2018/12/03 16:49:27","新北市三重區五華街71巷62號","121.493478333333","25.0836866666667","6500200","三重區"
"251014","742-BX","2018/12/03 16:49:16","新北市淡水區淡金路四段476號","121.452353333333","25.2238516666667","6501000","淡水區"
"241005","262-UM","2018/12/03 16:49:20","新北市三重區碧華街148巷17號","121.485236666667","25.08237","6500200","三重區"
"241016","265-UM","2018/12/03 16:49:31","新北市三重區大同北路115巷10號","121.494021666667","25.0644816666667","6500200","三重區"
"241009","267-UM","2018/12/03 16:49:25","新北市三重區三和路四段203巷264號","121.487565","25.0810416666667","6500200","三重區"
"241018","268-UM","2018/12/03 16:49:29","新北市三重區安慶街149巷13號","121.494366666667","25.0692716666667","6500200","三重區"
"241032","269-UM","2018/12/03 16:49:33","新北市三重區重陽路一段120巷37號","121.48501","25.0602266666667","6500200","三重區"
"241013","270-UM","2018/12/03 16:49:28","新北市三重區仁壽街36號","121.497301666667","25.0735716666667","6500200","三重區"
"241025","271-UM","2018/12/03 16:49:14","新北市三重區中正北路530巷27號","121.47204","25.07018","6500200","三重區"
"241007","398-BY","2018/12/03 16:49:20","新北市三重區三和路四段181巷101號","121.484993333333","25.0796733333333","6500200","三重區"
"241004","475-VK","2018/12/03 16:49:27","新北市三重區仁愛街397巷17號","121.492048333333","25.0814016666667","6500200","三重區"
"241020","478-VK","2018/12/03 16:49:18","新北市三重區忠孝路二段34號","121.485741666667","25.070915","6500200","三重區"
"241030","480-VK","2018/12/03 16:49:17","新北市三重區新興路4號","121.492775","25.0527783333333","6500200","三重區"
"241014","543-UM","2018/12/03 16:49:25","新北市三重區長壽街120巷11號","121.502453333333","25.069145","6500200","三重區"
"241023","545-UM","2018/12/03 16:49:25","新北市三重區中華路76巷37號","121.482113333333","25.0626716666667","6500200","三重區"
"241001","547-UM","2018/12/03 16:49:24","新北市三重區仁政街54巷30號","121.49225","25.076715","6500200","三重區"
"241033","557-UM","2018/12/03 16:49:24","新北市三重區中興北街275號","121.469268333333","25.0608516666667","6500200","三重區"
"241019","KEA-2593","2018/12/03 16:49:13","新北市三重區力行路一段179巷17弄2號","121.485388333333","25.0699866666667","6500200","三重區"
"241026","743-BX","2018/12/03 16:49:29","新北市三重區文化南路10巷12號","121.50056","25.0621033333333","6500200","三重區"
"241006","887-TS","2018/12/03 16:49:27","新北市三重區車路頭街140-1號","121.48401","25.075705","6500200","三重區"
"241012","941-UM","2018/12/03 16:49:32","新北市三重區河邊北街212號","121.502175","25.0748616666667","6500200","三重區"
"241029","942-UM","2018/12/03 16:49:18","新北市三重區新興路29號","121.492088333333","25.0534283333333","6500200","三重區"
"235054","640-BX","2018/12/03 16:49:27","新北市中和區員山路36巷16-2號","121.485118333333","24.9917333333333","6500300","中和區"
"235062","800-TS","2018/12/03 16:48:11","新北市中和區員山路36巷16-3號","121.484831666667","24.9916733333333","6500300","中和區"
"247016","546-UM","2018/12/03 16:49:28","新北市蘆洲區正和街3號","121.470491666667","25.08266","6501400","蘆洲區"
"247006","337-TH","2018/12/03 16:49:15","新北市蘆洲區永安南路二段132-1號","121.46257","25.0785483333333","6501400","蘆洲區"
"247020","057-VK","2018/12/03 16:49:18","新北市蘆洲區民族路422巷8號","121.474151666667","25.092105","6501400","蘆洲區"
"247010","056-VK","2018/12/03 16:49:15","新北市蘆洲區復興路357號","121.487851666667","25.09272","6501400","蘆洲區"
"247022","001-UY","2018/12/03 16:49:21","新北市蘆洲區中正路507號","121.461055","25.0972233333333","6501400","蘆洲區"
"228002","585-TW","2018/12/03 16:49:31","新北市貢寮區貢寮里朝陽街120巷3號","121.907905","25.0229766666667","6502600","貢寮區"
"224006","676-BX","2018/12/03 16:49:31","新北市瑞芳區大寮路356-1號","121.784726666667","25.10311","6501200","瑞芳區"
"224008","285-BY","2018/12/03 16:49:34","新北市瑞芳區中山路225號","121.800446666667","25.1068666666667","6501200","瑞芳區"
"224007","275-VK","2018/12/03 16:49:27","新北市瑞芳區中央路48巷吉祥園8號","121.759513333333","25.1035783333333","6501200","瑞芳區"
"224009","273-VK","2018/12/03 16:49:28","新北市瑞芳區三爪子坑路106巷1-11號","121.807986666667","25.105105","6501200","瑞芳區"
"224005","271-BY","2018/12/03 16:49:13","新北市瑞芳區洞頂路99號","121.861735","25.1208616666667","6501200","瑞芳區"
"227001","642-TC","2018/12/03 16:49:31","新北市雙溪區外柑里外柑腳71號","121.807108333333","25.01754","6502500","雙溪區"
"227008","400-TW","2018/12/03 16:49:30","新北市雙溪區牡丹里石5-2號","121.863421666667","25.0510316666667","6502500","雙溪區"
"251013","KEA-2871","2018/12/03 16:49:17","新北市淡水區泉洲厝32號","121.489258333333","25.1925616666667","6501000","淡水區"
"251016","179-VK","2018/12/03 16:49:18","新北市淡水區水頭42號","121.478183333333","25.18507","6501000","淡水區"
"251008","181-VK","2018/12/03 16:49:15","新北市淡水區樹梅坑45號","121.474715","25.14455","6501000","淡水區"
"251015","182-VK","2018/12/03 16:49:23","新北市淡水區忠愛街4號","121.459488333333","25.1713183333333","6501000","淡水區"
"251012","441-VK","2018/12/03 16:49:21","新北市淡水區中正路二段31號","121.41964","25.1815033333333","6501000","淡水區"
"251007","577-R6","2018/12/03 16:49:17","新北市淡水區中正路二段31號","121.41931","25.1816216666667","6501000","淡水區"
"251011","650-BX","2018/12/03 16:49:20","新北市淡水區中正路二段31號","121.41926","25.1816366666667","6501000","淡水區"
"252002","178-VK","2018/12/03 16:49:24","新北市三芝區茂長里陳厝坑15-1號","121.516305","25.25469","6502100","三芝區"
"252001","292-VK","2018/12/03 16:49:24","新北市三芝區淡金路二段76-1號","121.50387","25.2608216666667","6502100","三芝區"
"247008","KED-0683","2018/12/03 16:49:27","新北市蘆洲區永安南路二段32號","121.467091666667","25.0771683333333","6501400","蘆洲區"
"242009","413-TV","2018/12/03 16:49:13","新北市新莊區新泰路357巷3弄57號","121.441823333333","25.0393716666667","6500500","新莊區"
"242017","346-TH","2018/12/03 16:49:23","新北市新莊區三和路12-21號","121.442188333333","25.03818","6500500","新莊區"
"238023","601-UM","2018/12/03 16:49:24","新北市樹林區大安路455號","121.415013333333","24.987995","6500700","樹林區"
"238004","283-BY","2018/12/03 16:49:12","新北市樹林區三多路123號","121.414478333333","25.00836","6500700","樹林區"
"238001","282-BY","2018/12/03 16:49:30","新北市樹林區中正路22-1號","121.427835","24.9996933333333","6500700","樹林區"
"239007","AAC-297","2018/12/03 16:49:16","新北市鶯歌區二甲路13-16號","121.34486","24.9351716666667","6500800","鶯歌區"
"220012","AAC-253","2018/12/03 16:49:28","新北市板橋區華東街1-10號","121.448373333333","24.9949333333333","6500100","板橋區"
