"lineid","car","time","location","longitude","latitude","cityid","cityname"
"249005","172-UM","2018/12/03 17:09:35","新北市八里區華富山3-1號","121.41591","25.1464516666667","6502300","八里區"
"249001","173-UM","2018/12/03 17:09:18","新北市八里區中華路二段249-3號","121.40424","25.1484983333333","6502300","八里區"
"249004","303-UY","2018/12/03 17:09:29","新北市八里區忠孝路423號","121.414735","25.161315","6502300","八里區"
"249002","305-UY","2018/12/03 17:09:26","新北市八里區龍米路二段147巷6-1號","121.44168","25.1495433333333","6502300","八里區"
"249003","593-UM","2018/12/03 17:09:30","新北市八里區中山路二段407號","121.397723333333","25.1465833333333","6502300","八里區"
"248008","095-VK","2018/12/03 16:47:07","新北市五股區中興路二段83巷26-6號","121.460116666667","25.07511","6501500","五股區"
"244023","069-UM","2018/12/03 17:09:34","新北市林口區仁愛路一段665號","121.387745","25.0764283333333","6501700","林口區"
"244007","080-UY","2018/12/03 17:09:31","新北市林口區菁埔5-1號","121.379456666667","25.0965283333333","6501700","林口區"
"244019","402-UM","2018/12/03 17:09:13","新北市林口區公園路231-3號","121.375381666667","25.0752033333333","6501700","林口區"
"244013","KEA-2802","2018/12/03 17:09:17","新北市林口區粉寮69號","121.404776666667","25.09078","6501700","林口區"
"244009","656-BX","2018/12/03 17:09:33","新北市林口區中北二街19巷18號","121.383608333333","25.0881216666667","6501700","林口區"
"244011","701-TV","2018/12/03 17:09:25","新北市林口區粉寮69號","121.405025","25.0908","6501700","林口區"
"244025","837-TS","2018/12/03 17:09:28","新北市林口區中山路6號","121.396705","25.0782116666667","6501700","林口區"
"244021","838-TS","2018/12/03 17:09:18","新北市林口區粉寮路二段88巷22-1號","121.406593333333","25.08847","6501700","林口區"
"231046","107-UY","2018/12/03 17:09:24","新北市新店區直潭路92號","121.530913333333","24.9375766666667","6500600","新店區"
"241011","013-R5","2018/12/03 17:09:27","新北市三重區龍門路199號","121.499783333333","25.0734033333333","6500200","三重區"
"241028","022-UY","2018/12/03 17:09:15","新北市三重區重新路三段108號","121.492231666667","25.0604183333333","6500200","三重區"
"241008","059-VK","2018/12/03 17:09:17","新北市三重區力行路二段136巷17弄2號","121.481595","25.075565","6500200","三重區"
"241022","060-VK","2018/12/03 17:09:32","新北市三重區重陽路二段18巷3號","121.486493333333","25.0624183333333","6500200","三重區"
"241015","062-VK","2018/12/03 17:09:18","新北市三重區長生街15號","121.499278333333","25.066345","6500200","三重區"
"241017","063-VK","2018/12/03 17:09:30","新北市三重區國隆路2巷1號","121.49363","25.0635383333333","6500200","三重區"
"241024","065-VK","2018/12/03 17:09:16","新北市三重區大勇街82巷26弄41號","121.478223333333","25.0719733333333","6500200","三重區"
"241002","090-VK","2018/12/03 17:09:25","新北市三重區五華街60號","121.494028333333","25.0813566666667","6500200","三重區"
"241003","091-VK","2018/12/03 17:09:25","新北市三重區富福街115號","121.493621666667","25.0856983333333","6500200","三重區"
"251014","742-BX","2018/12/03 17:09:16","新北市淡水區八里堆9-2號","121.462961666667","25.2239433333333","6501000","淡水區"
"241005","262-UM","2018/12/03 17:09:20","新北市三重區碧華街54號","121.483816666667","25.0813716666667","6500200","三重區"
"241016","265-UM","2018/12/03 17:09:31","新北市三重區大同北路130號","121.492733333333","25.064655","6500200","三重區"
"241009","267-UM","2018/12/03 17:09:25","新北市三重區三和路四段215巷2號","121.481863333333","25.07981","6500200","三重區"
"241018","268-UM","2018/12/03 17:09:29","新北市三重區六張街99號","121.492286666667","25.0698216666667","6500200","三重區"
"241032","269-UM","2018/12/03 17:09:13","新北市三重區三陽路13巷1號","121.486051666667","25.0594866666667","6500200","三重區"
"241013","270-UM","2018/12/03 17:09:28","新北市三重區仁愛街88號","121.495476666667","25.0738516666667","6500200","三重區"
"241025","271-UM","2018/12/03 17:09:34","新北市三重區中正北路560巷38號","121.471428333333","25.0682016666667","6500200","三重區"
"241007","398-BY","2018/12/03 17:09:20","新北市三重區三和路四段163巷30號","121.485206666667","25.0792216666667","6500200","三重區"
"241004","475-VK","2018/12/03 17:09:27","新北市三重區五華街122巷1號","121.491728333333","25.0831266666667","6500200","三重區"
"241020","478-VK","2018/12/03 17:09:18","新北市三重區自強路三段34巷27號","121.485933333333","25.072315","6500200","三重區"
"241030","480-VK","2018/12/03 17:09:17","新北市三重區集成路11號","121.488655","25.0520616666667","6500200","三重區"
"241014","543-UM","2018/12/03 17:09:25","新北市三重區龍濱路120-2號","121.501948333333","25.0710616666667","6500200","三重區"
"241023","545-UM","2018/12/03 17:09:25","新北市三重區忠孝路三段84巷1號","121.480215","25.0645616666667","6500200","三重區"
"241001","547-UM","2018/12/03 17:09:24","新北市三重區五華街1巷2號","121.49549","25.079615","6500200","三重區"
"241033","557-UM","2018/12/03 16:49:24","新北市三重區中興北街275號","121.469268333333","25.0608516666667","6500200","三重區"
"241019","KEA-2593","2018/12/03 17:09:13","新北市三重區自強路二段74巷37號","121.487331666667","25.06955","6500200","三重區"
"241026","743-BX","2018/12/03 17:09:29","新北市三重區重新路一段51號","121.501996666667","25.06388","6500200","三重區"
"241006","887-TS","2018/12/03 17:09:27","新北市三重區三和路四段264巷2弄13號","121.485125","25.0767733333333","6500200","三重區"
"241012","941-UM","2018/12/03 17:09:32","新北市三重區仁信街6號","121.501333333333","25.0755416666667","6500200","三重區"
"241029","942-UM","2018/12/03 17:09:18","新北市三重區重新路三段174-1號","121.49082","25.0592366666667","6500200","三重區"
"235054","640-BX","2018/12/03 17:00:36","新北市中和區員山路36巷16-3號","121.48494","24.9917916666667","6500300","中和區"
"235062","800-TS","2018/12/03 16:48:11","新北市中和區員山路36巷16-3號","121.484831666667","24.9916733333333","6500300","中和區"
"247002","893-R6","2018/12/03 17:09:31","新北市蘆洲區永樂街62號","121.457243333333","25.0885133333333","6501400","蘆洲區"
"247016","546-UM","2018/12/03 17:09:28","新北市蘆洲區光華路71號","121.468111666667","25.0825983333333","6501400","蘆洲區"
"247024","500-BY","2018/12/03 17:09:13","新北市蘆洲區光復路13號","121.462635","25.084415","6501400","蘆洲區"
"247006","337-TH","2018/12/03 17:09:27","新北市蘆洲區中華街6巷40號","121.46263","25.0824633333333","6501400","蘆洲區"
"247020","057-VK","2018/12/03 17:09:18","新北市蘆洲區民族路422巷57弄8號","121.472078333333","25.0942916666667","6501400","蘆洲區"
"247010","056-VK","2018/12/03 17:09:16","新北市蘆洲區民族路42號","121.476736666667","25.0842783333333","6501400","蘆洲區"
"247014","053-VK","2018/12/03 17:09:30","新北市蘆洲區中央路58號","121.473473333333","25.0838516666667","6501400","蘆洲區"
"247018","007-UY","2018/12/03 17:09:28","新北市蘆洲區復興路132號","121.476645","25.0875383333333","6501400","蘆洲區"
"247004","002-UY","2018/12/03 17:09:26","新北市蘆洲區長安街193巷1弄1號","121.460165","25.081715","6501400","蘆洲區"
"247022","001-UY","2018/12/03 17:09:21","新北市蘆洲區民族路516號","121.46917","25.090075","6501400","蘆洲區"
"228003","097-TW","2018/12/03 17:09:21","新北市貢寮區福隆里東興街31號","121.94955","25.018025","6502600","貢寮區"
"228002","585-TW","2018/12/03 17:09:31","新北市貢寮區龍崗里泮宮路6號","121.907663333333","25.01817","6502600","貢寮區"
"228001","670-TC","2018/12/03 17:09:13","新北市貢寮區仁理村研海街45號","121.926051666667","25.0417366666667","6502600","貢寮區"
"224006","676-BX","2018/12/03 17:09:33","新北市瑞芳區大寮路91號","121.78083","25.0975916666667","6501200","瑞芳區"
"224008","285-BY","2018/12/03 17:09:21","新北市瑞芳區侯硐路113-1號","121.831188333333","25.0898","6501200","瑞芳區"
"224007","275-VK","2018/12/03 17:09:27","新北市瑞芳區楓子瀨路76號","121.763386666667","25.0983616666667","6501200","瑞芳區"
"224009","273-VK","2018/12/03 17:09:28","新北市瑞芳區豎崎路57號","121.842881666667","25.1105183333333","6501200","瑞芳區"
"224005","271-BY","2018/12/03 17:09:33","新北市瑞芳區鼻頭路227-5號","121.913971666667","25.1241183333333","6501200","瑞芳區"
"227001","642-TC","2018/12/03 17:09:31","新北市雙溪區外柑里田寮5號","121.806036666667","25.0165516666667","6502500","雙溪區"
"227008","400-TW","2018/12/03 17:09:30","新北市雙溪區牡丹里下坑29號","121.85008","25.05691","6502500","雙溪區"
"251009","008-UM","2018/12/03 17:09:17","新北市淡水區三民街20號","121.439058333333","25.1717316666667","6501000","淡水區"
"251005","010-UM","2018/12/03 17:09:24","新北市淡水區學府路88號","121.449053333333","25.1710583333333","6501000","淡水區"
"251013","KEA-2871","2018/12/03 17:09:17","新北市淡水區大埤頭4號","121.487935","25.1955883333333","6501000","淡水區"
"251016","179-VK","2018/12/03 17:09:20","新北市淡水區口湖子3號","121.475443333333","25.1891033333333","6501000","淡水區"
"251008","181-VK","2018/12/03 17:09:33","新北市淡水區民生路169號","121.469686666667","25.1421183333333","6501000","淡水區"
"251015","182-VK","2018/12/03 17:09:23","新北市淡水區學府路102巷68號","121.453635","25.1712916666667","6501000","淡水區"
"251010","413-VK","2018/12/03 17:09:24","新北市淡水區中正路二段31號","121.419423333333","25.181495","6501000","淡水區"
"251012","441-VK","2018/12/03 17:09:21","新北市淡水區中山北路一段158號","121.444278333333","25.1778866666667","6501000","淡水區"
"251004","443-VK","2018/12/03 17:09:27","新北市淡水區中正東路一段135-5號","121.456688333333","25.1587366666667","6501000","淡水區"
"251006","561-UM","2018/12/03 17:09:26","新北市淡水區真理街6號","121.43841","25.174485","6501000","淡水區"
"251007","577-R6","2018/12/03 17:09:17","新北市淡水區民權路20號","121.459851666667","25.1378816666667","6501000","淡水區"
"251011","650-BX","2018/12/03 17:09:20","新北市淡水區坪頂路49號","121.457793333333","25.1625633333333","6501000","淡水區"
"252002","178-VK","2018/12/03 17:09:24","新北市三芝區忠孝街1-40號","121.505875","25.25318","6502100","三芝區"
"252001","292-VK","2018/12/03 17:09:23","新北市三芝區埔頭里埔頭39-3號","121.499211666667","25.2608366666667","6502100","三芝區"
"247008","KED-0683","2018/12/03 17:09:27","新北市蘆洲區民生街31號","121.47551","25.079015","6501400","蘆洲區"
"242058","986-R7","2018/12/03 17:09:30","新北市新莊區新泰路255巷83號","121.442441666667","25.0393466666667","6500500","新莊區"
"242056","751-BX","2018/12/03 17:09:23","新北市新莊區新泰路357巷2-2號","121.441973333333","25.0414483333333","6500500","新莊區"
"242027","705-TV","2018/12/03 17:09:34","新北市新莊區三和路12-17號","121.442288333333","25.0375516666667","6500500","新莊區"
"242029","612-BX","2018/12/03 17:09:28","新北市新莊區三和路12-18號","121.442158333333","25.037605","6500500","新莊區"
"242044","566-BX","2018/12/03 17:09:31","新北市新莊區三和路12-21號","121.442315","25.0382116666667","6500500","新莊區"
"242048","497-BY","2018/12/03 17:09:20","新北市新莊區中正路513-1號","121.439998333333","25.03349","6500500","新莊區"
"242050","442-UM","2018/12/03 17:09:16","新北市新莊區中正路471號","121.441988333333","25.033525","6500500","新莊區"
"242053","441-UM","2018/12/03 17:09:29","新北市新莊區新莊路773號","121.442101666667","25.0325566666667","6500500","新莊區"
"242002","440-UM","2018/12/03 17:09:20","新北市新莊區新泰路357巷1弄49號","121.442563333333","25.0398116666667","6500500","新莊區"
"242039","415-TV","2018/12/03 17:09:23","新北市新莊區新泰路401巷29-1號","121.441778333333","25.0436616666667","6500500","新莊區"
"242009","413-TV","2018/12/03 17:09:13","新北市新莊區新泰路357巷3弄57號","121.442006666667","25.03941","6500500","新莊區"
"242046","400-BY","2018/12/03 17:09:20","新北市新莊區新泰路357巷3弄57號","121.44198","25.0396383333333","6500500","新莊區"
"242060","353-BY","2018/12/03 17:09:15","新北市新莊區新泰路357巷3弄57號","121.442063333333","25.0391933333333","6500500","新莊區"
"242034","135-UY","2018/12/03 17:09:30","新北市新莊區三和路12-21號","121.441916666667","25.0387116666667","6500500","新莊區"
"242019","175-VK","2018/12/03 17:09:12","新北市新莊區三和路12-21號","121.441891666667","25.0386116666667","6500500","新莊區"
"242017","346-TH","2018/12/03 17:09:23","新北市新莊區三和路12-21號","121.442203333333","25.038135","6500500","新莊區"
"242031","348-TH","2018/12/03 17:09:15","新北市新莊區新泰路357巷3弄57號","121.441816666667","25.03929","6500500","新莊區"
"242021","350-TH","2018/12/03 17:09:24","新北市新莊區新泰路357巷3弄55號","121.44195","25.0397966666667","6500500","新莊區"
"238015","755-BX","2018/12/03 17:09:25","新北市樹林區八德街648號","121.396543333333","24.9691116666667","6500700","樹林區"
"238023","601-UM","2018/12/03 17:09:24","新北市樹林區中正路433-2號","121.414941666667","25.0081533333333","6500700","樹林區"
"238019","599-UM","2018/12/03 17:09:31","新北市樹林區八德街272號","121.41145","24.9701666666667","6500700","樹林區"
"238005","571-TV","2018/12/03 17:09:13","新北市樹林區水源街27號","121.425263333333","24.9827083333333","6500700","樹林區"
"238022","KEA-2213","2018/12/03 17:09:26","新北市樹林區國凱街138巷10號","121.42356","24.9804933333333","6500700","樹林區"
"238025","303-VK","2018/12/03 17:09:24","新北市樹林區中正路22-1號","121.42787","24.9992566666667","6500700","樹林區"
"238017","283-BY","2018/12/03 17:09:32","新北市樹林區光武街7-3號","121.415775","25.005235","6500700","樹林區"
"238001","282-BY","2018/12/03 17:09:30","新北市樹林區大慶街99-1號","121.427765","24.9997366666667","6500700","樹林區"
"238020","268-VK","2018/12/03 17:09:15","新北市樹林區中正路22-2號","121.428105","24.9991583333333","6500700","樹林區"
"238026","172-UY","2018/12/03 17:09:16","新北市樹林區環河路600號","121.40447","24.9692883333333","6500700","樹林區"
"238016","169-UY","2018/12/03 17:09:15","新北市樹林區中山路二段10號","121.417605","24.9850333333333","6500700","樹林區"
"239007","AAC-297","2018/12/03 17:09:36","新北市鶯歌區信義街48號","121.353336666667","24.9552983333333","6500800","鶯歌區"
"239006","891-R6","2018/12/03 17:09:22","新北市鶯歌區八德路2巷37弄3號","121.336968333333","24.946535","6500800","鶯歌區"
"239008","527-UM","2018/12/03 17:09:22","新北市鶯歌區尖山路57-1號","121.350031666667","24.94972","6500800","鶯歌區"
"239005","526-UM","2018/12/03 17:08:38","新北市鶯歌區德昌二街3巷1-1號","121.333386666667","24.9595216666667","6500800","鶯歌區"
"239002","359-BY","2018/12/03 17:09:25","新北市鶯歌區建國路208號","121.349058333333","24.9534566666667","6500800","鶯歌區"
"239004","193-VK","2018/12/03 17:09:35","新北市鶯歌區文化路324巷11弄1號","121.350476666667","24.945165","6500800","鶯歌區"
"242042","281-VK","2018/12/03 17:09:22","新北市新莊區新泰路369巷27號","121.44205","25.0432333333333","6500500","新莊區"
"242007","280-VK","2018/12/03 17:09:24","新北市新莊區三和路12-21號","121.441886666667","25.03832","6500500","新莊區"
