"lineid","car","time","location","longitude","latitude","cityid","cityname"
"249005","172-UM","2018/12/03 17:29:15","新北市八里區荖阡里40-1號","121.409853333333","25.1253033333333","6502300","八里區"
"249001","173-UM","2018/12/03 17:29:23","新北市八里區中華路一段5-6號","121.42219","25.1580766666667","6502300","八里區"
"249004","303-UY","2018/12/03 17:29:29","新北市八里區埤頭二街6號","121.41437","25.1552483333333","6502300","八里區"
"249002","305-UY","2018/12/03 17:29:26","新北市八里區龍米路一段432號","121.450795","25.13388","6502300","八里區"
"249003","593-UM","2018/12/03 17:29:30","新北市八里區中山路二段398號","121.400631666667","25.1478483333333","6502300","八里區"
"232011","375-UM","2018/12/03 17:29:15","新北市坪林區九芎林14-1號","121.707208333333","24.931165","6502000","坪林區"
"244023","069-UM","2018/12/03 17:29:14","新北市林口區興林一街113號","121.39182","25.0723633333333","6501700","林口區"
"244007","080-UY","2018/12/03 17:29:31","新北市林口區菁埔46-2號","121.38391","25.0948933333333","6501700","林口區"
"244019","402-UM","2018/12/03 17:29:33","新北市林口區文化一路一段83巷14弄58號","121.372476666667","25.0720383333333","6501700","林口區"
"244013","KEA-2802","2018/12/03 17:29:17","新北市林口區粉寮路二段27號","121.400868333333","25.084655","6501700","林口區"
"244017","485-VK","2018/12/03 17:29:29","新北市林口區文化一路二段202號","121.383275","25.0807033333333","6501700","林口區"
"244009","656-BX","2018/12/03 17:29:33","新北市林口區竹林一路111號","121.385203333333","25.0858933333333","6501700","林口區"
"244011","701-TV","2018/12/03 17:29:25","新北市林口區仁愛路一段386巷2號","121.387943333333","25.0772233333333","6501700","林口區"
"244025","837-TS","2018/12/03 17:29:28","新北市林口區南勢街120-1號","121.363223333333","25.074215","6501700","林口區"
"244021","838-TS","2018/12/03 17:29:18","新北市林口區粉寮路一段105號","121.398113333333","25.0804266666667","6501700","林口區"
"243014","680-BX","2018/12/03 17:22:18","新北市泰山區黎明路33號","121.421768333333","25.0604983333333","6501600","泰山區"
"231046","107-UY","2018/12/03 17:29:24","新北市新店區直潭路92號","121.530903333333","24.9375783333333","6500600","新店區"
"241015","062-VK","2018/12/03 17:29:18","新北市三重區長元街65巷16弄15號","121.503541666667","25.066165","6500200","三重區"
"241017","063-VK","2018/12/03 17:29:30","新北市三重區大同北路34巷48號","121.493741666667","25.0620166666667","6500200","三重區"
"241024","065-VK","2018/12/03 17:29:16","新北市三重區後竹圍街295號","121.478753333333","25.06976","6500200","三重區"
"241003","091-VK","2018/12/03 17:29:25","新北市三重區碧華街347號","121.491991666667","25.0848766666667","6500200","三重區"
"251014","742-BX","2018/12/03 17:29:16","新北市淡水區公埔子20-6號","121.472236666667","25.2265966666667","6501000","淡水區"
"241005","262-UM","2018/12/03 17:29:25","新北市三重區永安北路二段35巷36號","121.483236666667","25.0825333333333","6500200","三重區"
"241016","265-UM","2018/12/03 17:29:31","新北市三重區信義西街148號","121.495375","25.063935","6500200","三重區"
"241018","268-UM","2018/12/03 17:29:29","新北市三重區新北大道一段3-1號","121.490346666667","25.0613833333333","6500200","三重區"
"241032","269-UM","2018/12/03 17:29:13","新北市三重區名源街49號","121.482101666667","25.0598966666667","6500200","三重區"
"241013","270-UM","2018/12/03 17:29:28","新北市三重區仁愛街112巷10號","121.494591666667","25.0741883333333","6500200","三重區"
"241025","271-UM","2018/12/03 17:29:34","新北市三重區中正北路422號","121.47479","25.07095","6500200","三重區"
"241007","398-BY","2018/12/03 17:29:20","新北市三重區三和路四段145巷176號","121.488561666667","25.0795216666667","6500200","三重區"
"241020","478-VK","2018/12/03 17:29:18","新北市三重區忠孝路一段159號","121.487928333333","25.071835","6500200","三重區"
"241030","480-VK","2018/12/03 17:29:17","新北市三重區集美街149號","121.490615","25.0531683333333","6500200","三重區"
"241014","543-UM","2018/12/03 17:29:25","新北市三重區安和路13號","121.501241666667","25.0683183333333","6500200","三重區"
"241023","545-UM","2018/12/03 17:29:25","新北市三重區三民街146巷3弄2號","121.481668333333","25.0646666666667","6500200","三重區"
"241019","KEA-2593","2018/12/03 17:29:13","新北市三重區自強路二段26巷40號","121.488375","25.0688933333333","6500200","三重區"
"241012","941-UM","2018/12/03 17:29:32","新北市三重區仁興街32號","121.499086666667","25.07554","6500200","三重區"
"235054","640-BX","2018/12/03 17:00:36","新北市中和區員山路36巷16-3號","121.48494","24.9917916666667","6500300","中和區"
"247002","893-R6","2018/12/03 17:29:31","新北市蘆洲區永樂街38巷67弄18號","121.457721666667","25.0909783333333","6501400","蘆洲區"
"247016","546-UM","2018/12/03 17:29:28","新北市蘆洲區光華路22巷29號","121.468533333333","25.0843783333333","6501400","蘆洲區"
"247024","500-BY","2018/12/03 17:29:13","新北市蘆洲區長榮路703號","121.461001666667","25.0928416666667","6501400","蘆洲區"
"247006","337-TH","2018/12/03 17:29:15","新北市蘆洲區光華路185-1號","121.464876666667","25.0812916666667","6501400","蘆洲區"
"247020","057-VK","2018/12/03 17:29:18","新北市蘆洲區水湳街126號","121.469675","25.0934516666667","6501400","蘆洲區"
"247010","056-VK","2018/12/03 17:29:18","新北市蘆洲區信義路183號","121.479708333333","25.0825166666667","6501400","蘆洲區"
"247014","053-VK","2018/12/03 17:29:30","新北市蘆洲區復興路40號","121.472541666667","25.085415","6501400","蘆洲區"
"247018","007-UY","2018/12/03 17:29:28","新北市蘆洲區民權路99號","121.472738333333","25.089135","6501400","蘆洲區"
"247004","002-UY","2018/12/03 17:29:26","新北市蘆洲區長安街152號","121.459836666667","25.0825833333333","6501400","蘆洲區"
"247022","001-UY","2018/12/03 17:29:21","新北市蘆洲區三民路293-2號","121.465915","25.090625","6501400","蘆洲區"
"228003","097-TW","2018/12/03 17:29:21","新北市貢寮區仁理村研海街62-2號","121.925395","25.0459416666667","6502600","貢寮區"
"228002","585-TW","2018/12/03 17:29:31","新北市貢寮區福隆里興隆街36號","121.94249","25.0165583333333","6502600","貢寮區"
"228001","670-TC","2018/12/03 17:29:33","新北市貢寮區仁理村仁愛路39號","121.925068333333","25.0532766666667","6502600","貢寮區"
"224010","AGQ-8101","2018/12/03 17:29:26","新北市瑞芳區逢甲路79號","121.807513333333","25.1094116666667","6501200","瑞芳區"
"224006","676-BX","2018/12/03 17:29:31","新北市瑞芳區靜安路四段91號","121.793251666667","25.1091666666667","6501200","瑞芳區"
"224008","285-BY","2018/12/03 17:29:24","新北市瑞芳區侯硐路214號","121.830603333333","25.0882883333333","6501200","瑞芳區"
"224009","273-VK","2018/12/03 17:29:28","新北市瑞芳區山尖路209號","121.849235","25.1115716666667","6501200","瑞芳區"
"224005","271-BY","2018/12/03 17:29:33","新北市瑞芳區哩咾路1號","121.875073333333","25.1235833333333","6501200","瑞芳區"
"227001","642-TC","2018/12/03 17:29:31","新北市雙溪區平林里外平林72號","121.84417","25.0330366666667","6502500","雙溪區"
"251009","008-UM","2018/12/03 17:29:17","新北市淡水區新生街30巷65號","121.439758333333","25.1732033333333","6501000","淡水區"
"251005","010-UM","2018/12/03 17:29:24","新北市淡水區鄧公路31巷5號","121.451538333333","25.1707783333333","6501000","淡水區"
"251013","KEA-2871","2018/12/03 17:29:17","新北市淡水區大竹圍5-1號","121.466465","25.1948283333333","6501000","淡水區"
"251016","179-VK","2018/12/03 17:29:18","新北市淡水區埤島63-3號","121.461175","25.1915533333333","6501000","淡水區"
"251008","181-VK","2018/12/03 17:29:35","新北市淡水區大同路8號","121.46231","25.1405883333333","6501000","淡水區"
"251015","182-VK","2018/12/03 17:29:23","新北市淡水區三空泉20號","121.469145","25.1656216666667","6501000","淡水區"
"251010","413-VK","2018/12/03 17:29:24","新北市淡水區中正路二段211號","121.426208333333","25.1891016666667","6501000","淡水區"
"251012","441-VK","2018/12/03 17:29:21","新北市淡水區北新路113號","121.448266666667","25.1784366666667","6501000","淡水區"
"251004","443-VK","2018/12/03 17:29:35","新北市淡水區中正東路二段88巷15號","121.458931666667","25.1504666666667","6501000","淡水區"
"251006","561-UM","2018/12/03 17:29:26","新北市淡水區大仁街13號","121.442335","25.17496","6501000","淡水區"
"251007","577-R6","2018/12/03 17:29:17","新北市淡水區民生路56號","121.462038333333","25.137915","6501000","淡水區"
"251011","650-BX","2018/12/03 17:29:20","新北市淡水區坪頂路718號","121.482541666667","25.1584766666667","6501000","淡水區"
"251002","672-BX","2018/12/03 17:29:27","新北市淡水區中正路259號","121.432323333333","25.1746633333333","6501000","淡水區"
"251003","766-UM","2018/12/03 17:29:17","新北市淡水區文化路61號","121.438331666667","25.1728683333333","6501000","淡水區"
"207003","550-UM","2018/12/03 17:29:30","新北市萬里區龜吼里翡翠路17號","121.68338","25.1872116666667","6502800","萬里區"
"207004","225-TW","2018/12/03 17:29:15","新北市萬里區萬里里景美路11-3號","121.686055","25.173055","6502800","萬里區"
"252002","178-VK","2018/12/03 17:29:24","新北市三芝區忠孝街1-15號","121.505551666667","25.253915","6502100","三芝區"
"252001","292-VK","2018/12/03 17:29:23","新北市三芝區長安街119號","121.498068333333","25.2596383333333","6502100","三芝區"
"237015","649-BX","2018/12/03 17:29:24","新北市三峽區仁愛街35號","121.368453333333","24.9331833333333","6500900","三峽區"
"236078","166-UM","2018/12/03 17:29:17","新北市土城區城林路6巷80號","121.438581666667","24.9797233333333","6501300","土城區"
"247008","KED-0683","2018/12/03 17:29:27","新北市蘆洲區信義路34巷120號","121.4757","25.076755","6501400","蘆洲區"
"242036","AAC-296","2018/12/03 17:29:24","新北市新莊區民安路430號","121.433715","25.0226116666667","6500500","新莊區"
"242058","986-R7","2018/12/03 17:29:30","新北市新莊區中正路597號","121.432835","25.0321383333333","6500500","新莊區"
"242056","751-BX","2018/12/03 17:29:23","新北市新莊區新泰路14號","121.449726666667","25.0330383333333","6500500","新莊區"
"242027","705-TV","2018/12/03 17:29:14","新北市新莊區思源路59號","121.46015","25.0403316666667","6500500","新莊區"
"242029","612-BX","2018/12/03 17:29:32","新北市新莊區復興路二段168號","121.458081666667","25.044315","6500500","新莊區"
"242044","566-BX","2018/12/03 17:29:31","新北市新莊區富國路101-1號","121.421345","25.0255316666667","6500500","新莊區"
"242048","497-BY","2018/12/03 17:29:20","新北市新莊區四維路210號","121.421486666667","25.0200333333333","6500500","新莊區"
"242050","442-UM","2018/12/03 17:29:16","新北市新莊區新樹路449巷8弄2號","121.433078333333","25.013605","6500500","新莊區"
"242053","441-UM","2018/12/03 17:29:29","新北市新莊區瓊林南路220號","121.433468333333","25.0056266666667","6500500","新莊區"
"242002","440-UM","2018/12/03 17:29:20","新北市新莊區新莊路239號","121.454735","25.035055","6500500","新莊區"
"242039","415-TV","2018/12/03 17:29:23","新北市新莊區民安路268號","121.427538333333","25.0213216666667","6500500","新莊區"
"242009","413-TV","2018/12/03 17:29:13","新北市新莊區中原路84號","121.455946666667","25.05453","6500500","新莊區"
"242046","400-BY","2018/12/03 17:29:20","新北市新莊區新樹路67巷2-11號","121.439513333333","25.0300916666667","6500500","新莊區"
"242023","362-BY","2018/12/03 17:29:18","新北市新莊區公園路148號","121.4531","25.04005","6500500","新莊區"
"242060","353-BY","2018/12/03 17:29:36","新北市新莊區瓊林南路12-2號","121.436268333333","25.0189166666667","6500500","新莊區"
"242011","132-UY","2018/12/03 17:29:18","新北市新莊區中華路二段83號","121.452615","25.0479966666667","6500500","新莊區"
"242034","135-UY","2018/12/03 17:29:30","新北市新莊區新莊路467號","121.449241666667","25.03342","6500500","新莊區"
"242013","173-VK","2018/12/03 17:29:32","新北市新莊區中誠街97號","121.449968333333","25.0477483333333","6500500","新莊區"
"242019","175-VK","2018/12/03 17:29:32","新北市新莊區中港路116號","121.455301666667","25.0400666666667","6500500","新莊區"
"242017","346-TH","2018/12/03 17:29:23","新北市新莊區復興路一段199號","121.452073333333","25.0435433333333","6500500","新莊區"
"242031","348-TH","2018/12/03 17:29:28","新北市新莊區新泰路401巷29-1號","121.442348333333","25.04386","6500500","新莊區"
"242004","349-TH","2018/12/03 17:29:21","新北市新莊區中港路289號","121.452896666667","25.0440583333333","6500500","新莊區"
"242021","350-TH","2018/12/03 17:29:24","新北市新莊區中華路一段28號","121.452015","25.0373983333333","6500500","新莊區"
"242015","351-TH","2018/12/03 17:29:15","新北市新莊區新泰路179號","121.447566666667","25.0374066666667","6500500","新莊區"
"238015","755-BX","2018/12/03 17:29:25","新北市樹林區保安街一段193-1號","121.420786666667","24.9957583333333","6500700","樹林區"
"238023","601-UM","2018/12/03 17:29:24","新北市樹林區三福街4號","121.409096666667","25.01693","6500700","樹林區"
"238019","599-UM","2018/12/03 17:29:31","新北市樹林區太平路13號","121.419056666667","24.9836133333333","6500700","樹林區"
"238005","571-TV","2018/12/03 17:29:33","新北市樹林區鎮前街165號","121.422338333333","24.987265","6500700","樹林區"
"238024","5061-A6","2018/12/03 17:29:27","新北市樹林區鎮前街160號","121.424478333333","24.990145","6500700","樹林區"
"238022","KEA-2213","2018/12/03 17:29:26","新北市樹林區仁愛街3號","121.42144","24.9816183333333","6500700","樹林區"
"238021","KEA-2539","2018/12/03 17:29:31","新北市樹林區民權街5巷17號","121.39569","24.9582983333333","6500700","樹林區"
"238025","303-VK","2018/12/03 17:29:24","新北市樹林區保安街一段348號","121.417821666667","24.998215","6500700","樹林區"
"238017","283-BY","2018/12/03 17:29:33","新北市樹林區三德街8號","121.413283333333","25.0126566666667","6500700","樹林區"
"238014","282-BY","2018/12/03 17:29:30","新北市樹林區長壽街86號","121.419971666667","24.995975","6500700","樹林區"
"238020","268-VK","2018/12/03 17:29:35","新北市樹林區俊英街27號","121.428626666667","25.0030233333333","6500700","樹林區"
"238026","172-UY","2018/12/03 17:29:15","新北市樹林區味王街6號","121.40283","24.9761816666667","6500700","樹林區"
"238016","169-UY","2018/12/03 17:29:36","新北市樹林區中山路一段2巷13號","121.424096666667","24.9940433333333","6500700","樹林區"
"239007","AAC-297","2018/12/03 17:29:15","新北市鶯歌區國華路1-1號","121.343195","24.9569766666667","6500800","鶯歌區"
"239006","891-R6","2018/12/03 17:29:22","新北市鶯歌區鳳鳴路105號","121.334443333333","24.9663266666667","6500800","鶯歌區"
"239008","527-UM","2018/12/03 17:29:22","新北市鶯歌區大湖路590巷11號","121.33606","24.9742366666667","6500800","鶯歌區"
"239005","526-UM","2018/12/03 17:28:58","新北市鶯歌區福德一路24號","121.3298","24.96674","6500800","鶯歌區"
"239001","417-VK","2018/12/03 17:16:35","新北市鶯歌區尖山路173巷1號","121.345073333333","24.9476583333333","6500800","鶯歌區"
"239003","360-BY","2018/12/03 17:29:29","新北市鶯歌區德昌街205-1號","121.329983333333","24.960355","6500800","鶯歌區"
"239002","359-BY","2018/12/03 17:29:25","新北市鶯歌區國慶街60號","121.34982","24.955075","6500800","鶯歌區"
"239004","193-VK","2018/12/03 17:29:35","新北市三峽區復興路557號","121.356448333333","24.9405216666667","6500800","鶯歌區"
"221010","269-BY","2018/12/03 17:29:27","新北市汐止區汐萬路一段256巷3號","121.652136666667","25.0748166666667","6501100","汐止區"
"242042","281-VK","2018/12/03 17:29:22","新北市新莊區新樹路115號","121.437425","25.026635","6500500","新莊區"
"242007","280-VK","2018/12/03 17:29:24","新北市新莊區自強街50號","121.454725","25.046665","6500500","新莊區"
