"lineid","car","time","location","longitude","latitude","cityid","cityname"
"234042","862-TW","2018/12/03 17:49:32","新北市永和區福和路1號","121.52632","25.009715","6500400","永和區"
"234026","9372-KE","2018/12/03 17:49:33","新北市永和區和平街93巷2號","121.511368333333","25.009675","6500400","永和區"
"249005","172-UM","2018/12/03 17:49:15","新北市八里區荖阡坑路34-3號","121.402293333333","25.13125","6502300","八里區"
"249001","173-UM","2018/12/03 17:49:18","新北市八里區龍米路二段133-1號","121.445028333333","25.147735","6502300","八里區"
"249004","303-UY","2018/12/03 17:49:29","新北市八里區中華路一段81巷22號","121.419561666667","25.15548","6502300","八里區"
"249002","305-UY","2018/12/03 17:49:26","新北市八里區龍形三街9巷2號","121.4506","25.13178","6502300","八里區"
"249003","593-UM","2018/12/03 17:49:30","新北市八里區中山路二段8號","121.410081666667","25.1570383333333","6502300","八里區"
"248018","225-UY","2018/12/03 17:49:21","新北市五股區中興路二段83巷26-6號","121.460056666667","25.0752266666667","6501500","五股區"
"248004","677-BX","2018/12/03 17:49:19","新北市五股區中興路二段37巷28號","121.460115","25.074905","6501500","五股區"
"232011","375-UM","2018/12/03 17:49:35","新北市坪林區北宜路八段186號","121.707893333333","24.934585","6502000","坪林區"
"244023","069-UM","2018/12/03 17:49:15","新北市林口區興林路148號","121.388745","25.071675","6501700","林口區"
"244007","080-UY","2018/12/03 17:49:31","新北市林口區林口路80號","121.389118333333","25.0806683333333","6501700","林口區"
"244019","402-UM","2018/12/03 17:49:33","新北市林口區麗園路121號","121.371463333333","25.06759","6501700","林口區"
"244013","KEA-2802","2018/12/03 17:49:17","新北市林口區中正路499號","121.38347","25.0776966666667","6501700","林口區"
"244017","485-VK","2018/12/03 17:49:29","新北市林口區文化二路一段230巷5-1號","121.369953333333","25.07217","6501700","林口區"
"244009","656-BX","2018/12/03 17:49:13","新北市林口區林口路297巷11號","121.385585","25.084485","6501700","林口區"
"244011","701-TV","2018/12/03 17:49:25","新北市林口區中正路266號","121.389311666667","25.0776833333333","6501700","林口區"
"244025","837-TS","2018/12/03 17:49:28","新北市林口區文化三路一段181號","121.362233333333","25.0700233333333","6501700","林口區"
"244021","838-TS","2018/12/03 17:49:18","新北市林口區新寮23號","121.398585","25.0697216666667","6501700","林口區"
"243014","680-BX","2018/12/03 17:22:18","新北市泰山區黎明路33號","121.421768333333","25.0604983333333","6501600","泰山區"
"222002","016-RS","2018/12/03 17:49:24","新北市深坑區平埔街22巷17弄1號","121.614881666667","25.0008483333333","6501800","深坑區"
"222003","436-BY","2018/12/03 17:49:14","新北市深坑區文山路三段110號","121.608258333333","24.9988","6501800","深坑區"
"231046","107-UY","2018/12/03 17:49:24","新北市新店區下石厝路19-2號","121.531958333333","24.92751","6500600","新店區"
"251014","742-BX","2018/12/03 17:49:16","新北市淡水區公埔子16-6號","121.481006666667","25.22459","6501000","淡水區"
"241005","262-UM","2018/12/03 17:49:20","新北市三重區碧華街171號","121.487096666667","25.08214","6500200","三重區"
"241016","265-UM","2018/12/03 17:49:31","新北市三重區新北大道一段7號","121.489675","25.0612283333333","6500200","三重區"
"241024","462-BY","2018/12/03 17:49:31","新北市三重區車路頭街60號","121.483701666667","25.0724783333333","6500200","三重區"
"241033","557-UM","2018/12/03 17:48:01","新北市三重區重新路五段527號","121.471238333333","25.0457716666667","6500200","三重區"
"235064","005-UY","2018/12/03 17:49:31","新北市中和區員山路36巷16-3號","121.485056666667","24.9912733333333","6500300","中和區"
"235063","006-UY","2018/12/03 17:49:14","新北市中和區員山路36巷16-3號","121.485043333333","24.9914233333333","6500300","中和區"
"235065","098-UM","2018/12/03 17:49:20","新北市中和區連城路469巷79弄2號","121.483475","24.993675","6500300","中和區"
"235058","151-BY","2018/12/03 17:49:20","新北市中和區員山路36巷16-2號","121.48525","24.99166","6500300","中和區"
"235054","640-BX","2018/12/03 17:49:25","新北市中和區員山路36巷16-2號","121.485076666667","24.99184","6500300","中和區"
"247002","893-R6","2018/12/03 17:49:31","新北市蘆洲區永平街32巷33弄8號","121.459035","25.09222","6501400","蘆洲區"
"247016","546-UM","2018/12/03 17:49:08","新北市蘆洲區中正路185巷25弄18號","121.467186666667","25.0838733333333","6501400","蘆洲區"
"247024","500-BY","2018/12/03 17:49:13","新北市蘆洲區長樂路118號","121.462068333333","25.0898766666667","6501400","蘆洲區"
"247006","337-TH","2018/12/03 17:49:15","新北市蘆洲區九芎街126號","121.465198333333","25.079165","6501400","蘆洲區"
"247020","057-VK","2018/12/03 17:49:18","新北市蘆洲區民權路186號","121.471853333333","25.0905716666667","6501400","蘆洲區"
"247010","056-VK","2018/12/03 17:49:37","新北市蘆洲區民族路60號","121.477213333333","25.0846566666667","6501400","蘆洲區"
"247014","053-VK","2018/12/03 17:49:30","新北市蘆洲區保和街69巷18號","121.469593333333","25.085285","6501400","蘆洲區"
"247018","007-UY","2018/12/03 17:49:28","新北市蘆洲區民族路193號","121.478431666667","25.089015","6501400","蘆洲區"
"247004","002-UY","2018/12/03 17:49:26","新北市蘆洲區長榮路211巷8號","121.460396666667","25.084765","6501400","蘆洲區"
"247022","001-UY","2018/12/03 17:49:21","新北市蘆洲區中正路264巷28號","121.466183333333","25.0900716666667","6501400","蘆洲區"
"228003","097-TW","2018/12/03 17:49:21","新北市貢寮區真理里延平街72-5號","121.925191666667","25.0581483333333","6502600","貢寮區"
"228002","585-TW","2018/12/03 17:49:31","新北市貢寮區福隆里外隆林街16-4號","121.957956666667","25.0050866666667","6502600","貢寮區"
"228001","670-TC","2018/12/03 17:49:33","新北市貢寮區真理里新港街26巷28-6號","121.927695","25.05539","6502600","貢寮區"
"224006","676-BX","2018/12/03 17:49:31","新北市瑞芳區傑魚坑路183號","121.788473333333","25.108255","6501200","瑞芳區"
"224008","285-BY","2018/12/03 17:49:21","新北市瑞芳區明燈路一段182號","121.818131666667","25.10827","6501200","瑞芳區"
"224009","273-VK","2018/12/03 17:49:28","新北市瑞芳區山尖路163-1號","121.853281666667","25.11306","6501200","瑞芳區"
"224005","271-BY","2018/12/03 17:49:33","新北市瑞芳區海濱路153號","121.830018333333","25.1220783333333","6501200","瑞芳區"
"227001","642-TC","2018/12/03 17:49:31","新北市雙溪區共和里東榮街52號","121.866283333333","25.03365","6502500","雙溪區"
"253006","032-BX","2018/12/03 17:49:35","新北市石門區中央路6號","121.566633333333","25.291305","6502200","石門區"
"208002","KEA-2872","2018/12/03 17:49:17","新北市金山區磺清路135號","121.639311666667","25.2278066666667","6502700","金山區"
"208001","761-BX","2018/12/03 17:49:22","新北市金山區磺清路135號","121.639416666667","25.2277616666667","6502700","金山區"
"251009","008-UM","2018/12/03 17:49:17","新北市淡水區長興街44號","121.444206666667","25.171535","6501000","淡水區"
"251005","010-UM","2018/12/03 17:49:24","新北市淡水區學府路102巷10號","121.450645","25.1718566666667","6501000","淡水區"
"251001","011-UM","2018/12/03 17:49:27","新北市淡水區民權路92巷35-1號","121.462176666667","25.1266483333333","6501000","淡水區"
"251013","KEA-2871","2018/12/03 17:49:17","新北市淡水區泉洲厝30-3號","121.478775","25.19069","6501000","淡水區"
"251016","179-VK","2018/12/03 17:49:18","新北市淡水區埤島39-15號","121.45273","25.1958433333333","6501000","淡水區"
"251008","181-VK","2018/12/03 17:49:35","新北市淡水區八勢路一段120號","121.467093333333","25.15664","6501000","淡水區"
"251015","182-VK","2018/12/03 17:49:23","新北市淡水區興福寮1-8號","121.489815","25.164925","6501000","淡水區"
"251010","413-VK","2018/12/03 17:49:24","新北市淡水區淡海路280巷33弄34-2號","121.418748333333","25.1885966666667","6501000","淡水區"
"251012","441-VK","2018/12/03 17:49:21","新北市淡水區北新路一段3-1號","121.47544","25.185095","6501000","淡水區"
"251004","443-VK","2018/12/03 17:49:35","新北市淡水區民權一街60號","121.45929","25.1361616666667","6501000","淡水區"
"251006","561-UM","2018/12/03 17:49:26","新北市淡水區大信街1巷1號","121.441128333333","25.17662","6501000","淡水區"
"251007","577-R6","2018/12/03 17:49:17","新北市淡水區民生路14號","121.460985","25.1377633333333","6501000","淡水區"
"251011","650-BX","2018/12/03 17:46:00","新北市淡水區吳(仔)厝9號","121.47916","25.146765","6501000","淡水區"
"251002","672-BX","2018/12/03 17:49:34","新北市淡水區中山路52號","121.444075","25.17043","6501000","淡水區"
"251003","766-UM","2018/12/03 17:49:17","新北市淡水區大忠街5巷2號","121.44312","25.1763383333333","6501000","淡水區"
"207003","550-UM","2018/12/03 17:49:30","新北市萬里區野柳里東澳路55號","121.692016666667","25.2032666666667","6502800","萬里區"
"207004","225-TW","2018/12/03 17:49:15","新北市萬里區萬里里瑪鋉頂街61號","121.688363333333","25.18045","6502800","萬里區"
"252002","178-VK","2018/12/03 17:49:24","新北市三芝區民生街30號","121.503705","25.2566383333333","6502100","三芝區"
"252001","292-VK","2018/12/03 17:49:23","新北市三芝區中興街一段12號","121.497453333333","25.2592333333333","6502100","三芝區"
"237009","210-TH","2018/12/03 17:49:28","新北市三峽區大勇路3巷39號","121.36748","24.9367516666667","6500900","三峽區"
"237013","252-BX","2018/12/03 17:49:30","新北市三峽區愛國路34巷1號","121.374595","24.9328133333333","6500900","三峽區"
"237012","275-BY","2018/12/03 17:49:27","新北市三峽區民生街119號","121.373703333333","24.9353016666667","6500900","三峽區"
"237006","5529-G3","2018/12/03 17:49:28","新北市三峽區介壽路二段38巷10-3號","121.391588333333","24.9350366666667","6500900","三峽區"
"237011","KEA-2596","2018/12/03 17:49:17","新北市三峽區大同路190號","121.371563333333","24.92707","6500900","三峽區"
"237015","649-BX","2018/12/03 17:49:24","新北市三峽區白雞149-2號","121.400148333333","24.9055566666667","6500900","三峽區"
"237010","706-TV","2018/12/03 17:49:15","新北市三峽區文化路152號","121.370285","24.936205","6500900","三峽區"
"237005","AKY-6261","2018/12/03 17:49:21","新北市三峽區中山路459巷52-1號","121.357005","24.9362016666667","6500900","三峽區"
"236069","105-UM","2018/12/03 17:49:25","新北市土城區城林路6巷80號","121.438471666667","24.9796983333333","6501300","土城區"
"236042","KED-0685","2018/12/03 17:49:20","新北市土城區城林路6巷80號","121.438465","24.9796566666667","6501300","土城區"
"236078","166-UM","2018/12/03 17:49:32","新北市土城區中央路三段38號","121.438348333333","24.96881","6501300","土城區"
"236030","253-BX","2018/12/03 17:49:27","新北市土城區城林路6巷80號","121.43865","24.9796683333333","6501300","土城區"
"236026","269-VK","2018/12/03 17:49:20","新北市土城區城林路6巷80號","121.438481666667","24.97961","6501300","土城區"
"236014","270-VK","2018/12/03 17:49:13","新北市土城區城林路6巷80號","121.43845","24.9795816666667","6501300","土城區"
"236039","271-VK","2018/12/03 17:49:34","新北市土城區城林路6巷80號","121.438491666667","24.9797583333333","6501300","土城區"
"247008","KED-0683","2018/12/03 17:49:27","新北市蘆洲區中山一路285號","121.471886666667","25.0795183333333","6501400","蘆洲區"
"236020","401-BY","2018/12/03 17:49:15","新北市土城區城林路6巷80號","121.438788333333","24.97965","6501300","土城區"
"236055","752-BX","2018/12/03 17:49:33","新北市土城區城林路6巷80號","121.438553333333","24.979585","6501300","土城區"
"236059","912-UM","2018/12/03 17:49:24","新北市土城區中華路二段221號","121.43753","24.9729033333333","6501300","土城區"
"236063","915-UM","2018/12/03 17:49:23","新北市土城區城林路6巷80號","121.438673333333","24.9796166666667","6501300","土城區"
"242036","AAC-296","2018/12/03 17:49:24","新北市新莊區後港一路79號","121.427246666667","25.026845","6500500","新莊區"
"242058","986-R7","2018/12/03 17:49:30","新北市新莊區中正路708號","121.416168333333","25.02477","6500500","新莊區"
"242056","751-BX","2018/12/03 17:49:23","新北市新莊區瓊林路40巷13號","121.447236666667","25.0301583333333","6500500","新莊區"
"242027","705-TV","2018/12/03 17:49:34","新北市新莊區福壽街171號","121.458041666667","25.0538083333333","6500500","新莊區"
"242025","613-BX","2018/12/03 17:49:17","新北市三重區新北大道二段41號","121.470433333333","25.0612616666667","6500500","新莊區"
"242029","612-BX","2018/12/03 17:49:28","新北市新莊區中平路30號","121.444748333333","25.0434","6500500","新莊區"
"242044","566-BX","2018/12/03 17:49:31","新北市新莊區中正路855巷21號","121.420231666667","25.0269416666667","6500500","新莊區"
"242048","497-BY","2018/12/03 17:49:20","新北市新莊區萬安街102巷9號","121.420086666667","25.02222","6500500","新莊區"
"242050","442-UM","2018/12/03 17:49:36","新北市新莊區西盛街257巷20號","121.428835","25.0158016666667","6500500","新莊區"
"242053","441-UM","2018/12/03 17:49:29","新北市新莊區民安西路411號","121.430615","25.00881","6500500","新莊區"
"242002","440-UM","2018/12/03 17:49:27","新北市新莊區景德路106號","121.451535","25.03435","6500500","新莊區"
"242039","415-TV","2018/12/03 17:49:23","新北市新莊區民安路160號","121.424646666667","25.0245616666667","6500500","新莊區"
"242009","413-TV","2018/12/03 17:49:33","新北市新莊區昌平街57號","121.45475","25.053145","6500500","新莊區"
"242046","400-BY","2018/12/03 17:49:20","新北市新莊區建國一路72號","121.434398333333","25.030525","6500500","新莊區"
"242023","362-BY","2018/12/03 17:49:18","新北市新莊區福樂街35號","121.457681666667","25.0468966666667","6500500","新莊區"
"242060","353-BY","2018/12/03 17:49:36","新北市新莊區新樹路559號","121.432963333333","25.007345","6500500","新莊區"
"242011","132-UY","2018/12/03 17:49:34","新北市新莊區中港路746號","121.4503","25.058395","6500500","新莊區"
"242034","135-UY","2018/12/03 17:49:30","新北市新莊區新莊路773號","121.441888333333","25.0328666666667","6500500","新莊區"
"242013","173-VK","2018/12/03 17:49:33","新北市新莊區中泰街104巷5弄8號","121.448251666667","25.0469016666667","6500500","新莊區"
"242019","175-VK","2018/12/03 17:49:32","新北市新莊區明中街51巷1號","121.456748333333","25.0396483333333","6500500","新莊區"
"242017","346-TH","2018/12/03 17:49:23","新北市新莊區永安街23號","121.451986666667","25.044755","6500500","新莊區"
"242031","348-TH","2018/12/03 17:49:15","新北市新莊區新泰路357巷1弄15號","121.44291","25.0407266666667","6500500","新莊區"
"242004","349-TH","2018/12/03 17:49:21","新北市新莊區自立街246號","121.458678333333","25.0455066666667","6500500","新莊區"
"242021","350-TH","2018/12/03 17:49:24","新北市新莊區永寧街28巷2號","121.45269","25.0386083333333","6500500","新莊區"
"242015","351-TH","2018/12/03 17:49:34","新北市新莊區新泰路502巷42弄3號","121.44373","25.0463166666667","6500500","新莊區"
"238015","755-BX","2018/12/03 17:49:25","新北市樹林區復興路139號","121.421425","24.9928383333333","6500700","樹林區"
"238023","601-UM","2018/12/03 17:49:24","新北市樹林區龍興街33號","121.403026666667","25.015825","6500700","樹林區"
"238019","599-UM","2018/12/03 17:49:31","新北市樹林區太平路110號","121.418476666667","24.9787766666667","6500700","樹林區"
"238005","571-TV","2018/12/03 17:49:33","新北市樹林區鎮前街59號","121.425105","24.9912733333333","6500700","樹林區"
"238022","KEA-2213","2018/12/03 17:49:26","新北市樹林區太順街86巷11號","121.416608333333","24.97853","6500700","樹林區"
"238021","KEA-2539","2018/12/03 17:49:31","新北市樹林區柑園街一段67-1號","121.402293333333","24.9602466666667","6500700","樹林區"
"238025","303-VK","2018/12/03 17:49:23","新北市樹林區三俊街130號","121.415628333333","25.01531","6500700","樹林區"
"238017","283-BY","2018/12/03 17:49:32","新北市樹林區俊德街51號","121.415545","25.0132116666667","6500700","樹林區"
"238014","282-BY","2018/12/03 17:49:30","新北市樹林區保安街一段289巷1-2號","121.417991666667","24.9971933333333","6500700","樹林區"
"238020","268-VK","2018/12/03 17:49:15","新北市樹林區三俊街279號","121.423106666667","25.0140966666667","6500700","樹林區"
"238026","172-UY","2018/12/03 17:49:15","新北市樹林區新興街19巷36弄1號","121.402376666667","24.973455","6500700","樹林區"
"238016","169-UY","2018/12/03 17:49:16","新北市樹林區大安路493號","121.41465","24.9866","6500700","樹林區"
"239007","AAC-297","2018/12/03 17:49:35","新北市鶯歌區永利街22號","121.339251666667","24.95479","6500800","鶯歌區"
"239006","891-R6","2018/12/03 17:49:22","新北市鶯歌區鳳鳴路11號","121.333311666667","24.964905","6500800","鶯歌區"
"239008","527-UM","2018/12/03 17:49:22","新北市鶯歌區國際一路68號","121.335395","24.9781416666667","6500800","鶯歌區"
"239005","526-UM","2018/12/03 17:40:18","新北市鶯歌區福隆二街63號","121.324221666667","24.9715683333333","6500800","鶯歌區"
"239001","417-VK","2018/12/03 17:49:15","新北市鶯歌區中正三路328號","121.327783333333","24.9350233333333","6500800","鶯歌區"
"239003","360-BY","2018/12/03 17:49:29","新北市鶯歌區鶯桃路206巷42-1號","121.337978333333","24.9599683333333","6500800","鶯歌區"
"239002","359-BY","2018/12/03 17:49:25","新北市鶯歌區國華路41號","121.34284","24.9553933333333","6500800","鶯歌區"
"239004","193-VK","2018/12/03 17:49:35","新北市鶯歌區文化路206號","121.352768333333","24.949475","6500800","鶯歌區"
"221008","489-VK","2018/12/03 17:49:25","新北市汐止區康寧街901號","121.651413333333","25.0749783333333","6501100","汐止區"
"221036","130-UY","2018/12/03 17:49:22","新北市汐止區汐萬路一段81號","121.654556666667","25.070345","6501100","汐止區"
"221015","131-UY","2018/12/03 17:49:28","新北市汐止區長江街249-1號","121.662855","25.0792616666667","6501100","汐止區"
"221010","269-BY","2018/12/03 17:49:27","新北市汐止區汐萬路二段126號","121.648206666667","25.0852866666667","6501100","汐止區"
"221012","278-VK","2018/12/03 17:49:15","新北市汐止區長江街23號","121.655255","25.0711533333333","6501100","汐止區"
"221023","279-VK","2018/12/03 17:49:18","新北市汐止區民族一街18號","121.635003333333","25.0710433333333","6501100","汐止區"
"221032","280-BY","2018/12/03 17:49:34","新北市汐止區大同路一段209號","121.633686666667","25.0573166666667","6501100","汐止區"
"221027","281-BY","2018/12/03 17:49:14","新北市汐止區汐萬路一段312號","121.650571666667","25.07538","6501100","汐止區"
"221021","299-VK","2018/12/03 17:49:25","新北市汐止區汐萬路一段7號","121.655985","25.0674266666667","6501100","汐止區"
"221031","353-TW","2018/12/03 17:49:24","新北市汐止區中興路96巷1-3號","121.635321666667","25.062545","6501100","汐止區"
"221002","129-UY","2018/12/03 17:49:16","新北市汐止區康寧街901號","121.65145","25.0749833333333","6501100","汐止區"
"221035","622-UM","2018/12/03 17:49:31","新北市汐止區汐萬路一段211巷12-1號","121.651535","25.0722116666667","6501100","汐止區"
"221025","623-UM","2018/12/03 17:49:29","新北市汐止區大同路二段175號","121.65162","25.06434","6501100","汐止區"
"221038","646-BX","2018/12/03 17:49:14","新北市汐止區大同路二段187巷53號","121.652103333333","25.0661233333333","6501100","汐止區"
"221033","647-BX","2018/12/03 17:49:31","新北市汐止區林森街78號","121.624126666667","25.040675","6501100","汐止區"
"221018","753-BX","2018/12/03 17:49:31","新北市汐止區大同路二段341-1號","121.656103333333","25.06728","6501100","汐止區"
"242042","281-VK","2018/12/03 17:49:22","新北市泰山區貴陽街29號","121.42224","25.0329966666667","6500500","新莊區"
"242007","280-VK","2018/12/03 17:49:24","新北市新莊區福樂街132巷1號","121.456701666667","25.0481983333333","6500500","新莊區"
