"lineid","car","time","location","longitude","latitude","cityid","cityname"
"234042","862-TW","2018/12/03 18:19:32","新北市永和區福和路1號","121.52638","25.0097416666667","6500400","永和區"
"234026","9372-KE","2018/12/03 18:19:20","新北市永和區豫溪街28巷22號","121.514996666667","25.008935","6500400","永和區"
"234011","9373-KE","2018/12/03 18:19:16","新北市永和區保福路二段158巷1號","121.509148333333","25.0150583333333","6500400","永和區"
"249005","172-UM","2018/12/03 18:19:35","新北市八里區荖阡坑路15-2號","121.4007","25.1400916666667","6502300","八里區"
"249001","173-UM","2018/12/03 18:19:17","新北市八里區龍米路一段135號","121.45207","25.1270066666667","6502300","八里區"
"249004","303-UY","2018/12/03 18:19:29","新北市八里區龍米路二段232巷1弄1號","121.430785","25.1593633333333","6502300","八里區"
"249002","305-UY","2018/12/03 18:19:26","新北市八里區龍形二街50號","121.450341666667","25.1331016666667","6502300","八里區"
"248014","025-BX","2018/12/03 18:19:30","新北市五股區成泰路一段171巷13號","121.434405","25.074355","6501500","五股區"
"248016","026-BX","2018/12/03 18:19:32","新北市五股區成泰路三段477巷18號","121.449893333333","25.0989833333333","6501500","五股區"
"248006","077-UY","2018/12/03 18:19:26","新北市五股區中興路一段132號","121.465285","25.0735833333333","6501500","五股區"
"248008","095-VK","2018/12/03 18:19:34","新北市五股區更洲路32巷8弄17號","121.459278333333","25.07959","6501500","五股區"
"248018","225-UY","2018/12/03 18:19:21","新北市五股區御史路160號","121.429768333333","25.1029316666667","6501500","五股區"
"248012","247-BX","2018/12/03 18:19:34","新北市五股區御史路1巷101弄2號","121.441023333333","25.0911733333333","6501500","五股區"
"248004","677-BX","2018/12/03 18:19:19","新北市五股區成泰路二段149號","121.439061666667","25.0854983333333","6501500","五股區"
"248002","678-BX","2018/12/03 18:19:24","新北市五股區西雲路46號","121.443476666667","25.0909266666667","6501500","五股區"
"248010","682-TV","2018/12/03 18:19:35","新北市五股區成泰路一段139巷2弄3號","121.435041666667","25.073045","6501500","五股區"
"232011","375-UM","2018/12/03 18:19:15","新北市坪林區坪雙路一段43號","121.7117","24.9425816666667","6502000","坪林區"
"244023","069-UM","2018/12/03 18:19:14","新北市林口區東湖路155號","121.383108333333","25.073125","6501700","林口區"
"244007","080-UY","2018/12/03 18:19:31","新北市林口區湖子18-3號","121.385446666667","25.0919283333333","6501700","林口區"
"244019","402-UM","2018/12/03 18:19:33","新北市林口區忠孝路606號","121.376473333333","25.0681366666667","6501700","林口區"
"244013","KEA-2802","2018/12/03 18:19:17","新北市林口區中山路202-6號","121.388005","25.079115","6501700","林口區"
"244017","485-VK","2018/12/03 18:19:29","新北市林口區八德路78號","121.365578333333","25.065675","6501700","林口區"
"244009","656-BX","2018/12/03 18:19:33","新北市林口區民生路148號","121.379208333333","25.087945","6501700","林口區"
"244011","701-TV","2018/12/03 18:19:25","新北市林口區仁愛路一段274號","121.393511666667","25.0760016666667","6501700","林口區"
"244025","837-TS","2018/12/03 18:19:27","新北市林口區南勢二街85巷3號","121.355336666667","25.06991","6501700","林口區"
"244021","838-TS","2018/12/03 18:19:18","新北市林口區自強一街27號","121.39846","25.0781483333333","6501700","林口區"
"243013","AAD-798","2018/12/03 18:19:06","新北市泰山區南林路100號","121.414275","25.04246","6501600","泰山區"
"222002","016-RS","2018/12/03 18:19:24","新北市深坑區雲鄉路120號","121.622773333333","24.9984466666667","6501800","深坑區"
"222003","436-BY","2018/12/03 18:19:34","新北市深坑區旺耽路67號","121.626253333333","25.0030066666667","6501800","深坑區"
"231041","002-UM","2018/12/03 18:19:24","新北市新店區安華路28-1號","121.51978","24.9608566666667","6500600","新店區"
"231059","046-UY","2018/12/03 18:19:23","新北市新店區安華路28-1號","121.519531666667","24.9606116666667","6500600","新店區"
"231040","047-UY","2018/12/03 18:19:30","新北市新店區安華路28-1號","121.519163333333","24.9609583333333","6500600","新店區"
"231044","106-UY","2018/12/03 18:19:30","新北市新店區安華路28-1號","121.519586666667","24.9608133333333","6500600","新店區"
"231046","107-UY","2018/12/03 18:19:24","新北市新店區直潭七街60號","121.532268333333","24.9397833333333","6500600","新店區"
"231052","108-UY","2018/12/03 18:19:19","新北市新店區安康路一段355號","121.51994","24.9636116666667","6500600","新店區"
"231062","110-UY","2018/12/03 18:19:21","新北市新店區安一路一段1-1號","121.519266666667","24.9613033333333","6500600","新店區"
"231047","187-VK","2018/12/03 18:19:21","新北市新店區安一路一段1-1號","121.519635","24.9612083333333","6500600","新店區"
"231051","188-VK","2018/12/03 18:19:15","新北市新店區安一路一段1-1號","121.519671666667","24.961085","6500600","新店區"
"231054","KEA-2219","2018/12/03 18:19:33","新北市新店區安華路28-1號","121.519996666667","24.9609466666667","6500600","新店區"
"231057","256-BX","2018/12/03 18:19:26","新北市新店區安一路一段1-1號","121.519573333333","24.961135","6500600","新店區"
"231042","268-BY","2018/12/03 18:19:32","新北市新店區安華路1-1號","121.519445","24.9604616666667","6500600","新店區"
"231050","AAD-862","2018/12/03 18:19:18","新北市新店區安華路28-1號","121.520098333333","24.9610316666667","6500600","新店區"
"231058","3713-VJ","2018/12/03 18:19:30","新北市新店區安康路一段222號","121.523701666667","24.9635366666667","6500600","新店區"
"231066","4716-K9","2018/12/03 18:19:32","新北市新店區安一路一段1-1號","121.519398333333","24.9613266666667","6500600","新店區"
"231056","4715-K9","2018/12/03 18:19:32","新北市新店區中央路3號","121.533843333333","24.9787283333333","6500600","新店區"
"231065","512-UM","2018/12/03 18:19:29","新北市新店區安一路一段1-1號","121.51932","24.9611883333333","6500600","新店區"
"231049","513-UM","2018/12/03 18:19:31","新北市新店區安一路一段1-1號","121.519656666667","24.9611383333333","6500600","新店區"
"231063","616-UM","2018/12/03 18:19:25","新北市新店區安華路1-1號","121.519508333333","24.9603983333333","6500600","新店區"
"231045","617-UM","2018/12/03 18:07:59","新北市新店區安華路28-1號","121.51936","24.9606133333333","6500600","新店區"
"231061","619-UM","2018/12/03 18:19:25","新北市新店區安華路28-1號","121.519586666667","24.9605783333333","6500600","新店區"
"231064","719-UM","2018/12/03 18:19:14","新北市新店區安一路一段1-1號","121.519473333333","24.9615883333333","6500600","新店區"
"231060","897-TW","2018/12/03 18:19:25","新北市新店區安華路28-1號","121.519575","24.960755","6500600","新店區"
"231043","898-TW","2018/12/03 18:19:21","新北市新店區安華路28-1號","121.51922","24.960855","6500600","新店區"
"231055","AKT-0513","2018/12/03 18:19:19","新北市新店區環河路1-2號","121.538148333333","24.961615","6500600","新店區"
"251014","742-BX","2018/12/03 18:19:36","新北市淡水區崙頂16號","121.491988333333","25.221225","6501000","淡水區"
"241033","557-UM","2018/12/03 18:12:21","新北市三重區中興北街137號","121.469761666667","25.0516466666667","6500200","三重區"
"235066","003-UY","2018/12/03 18:19:16","新北市中和區中山路二段119號","121.502856666667","25.003715","6500300","中和區"
"235064","005-UY","2018/12/03 18:19:31","新北市中和區圓通路165-1號","121.497791666667","24.9953266666667","6500300","中和區"
"235063","006-UY","2018/12/03 18:19:34","新北市中和區中正路589巷1號","121.485828333333","24.9944616666667","6500300","中和區"
"235056","096-UM","2018/12/03 18:19:20","新北市中和區員山路568號","121.478746666667","25.0107383333333","6500300","中和區"
"235039","097-UM","2018/12/03 18:19:24","新北市中和區景平路406號","121.5089","24.9930966666667","6500300","中和區"
"235065","098-UM","2018/12/03 18:19:20","新北市中和區莊敬路49巷18號","121.501593333333","25.006095","6500300","中和區"
"235040","150-BY","2018/12/03 18:19:23","新北市中和區安和路59號","121.508783333333","24.9950116666667","6500300","中和區"
"235058","151-BY","2018/12/03 18:19:28","新北市中和區圓通路369巷35號","121.489193333333","24.986555","6500300","中和區"
"235055","183-VK","2018/12/03 18:19:30","新北市中和區員山路72號","121.481","24.9935933333333","6500300","中和區"
"235038","185-VK","2018/12/03 18:19:33","新北市中和區大智街42巷5號","121.522303333333","24.9919883333333","6500300","中和區"
"235049","186-VK","2018/12/03 18:19:33","新北市中和區中正路395號","121.489828333333","24.9935633333333","6500300","中和區"
"235067","255-BX","2018/12/03 18:19:34","新北市中和區和城路一段271巷1號","121.485655","24.99174","6500300","中和區"
"235072","301-VK","2018/12/03 18:19:29","新北市中和區連城路263巷2-1號","121.491908333333","24.9963916666667","6500300","中和區"
"235043","352-BY","2018/12/03 18:19:27","新北市中和區景平路502號","121.504316666667","24.993555","6500300","中和區"
"235042","KEA-2878","2018/12/03 18:18:44","新北市中和區景平路274-1號","121.514396666667","24.9924166666667","6500300","中和區"
"235050","4979-A6","2018/12/03 18:19:15","新北市中和區捷運路61巷16號","121.508926666667","24.9892833333333","6500300","中和區"
"235069","4980-A6","2018/12/03 18:19:18","新北市中和區錦和路174號","121.489943333333","24.995665","6500300","中和區"
"235070","558-UM","2018/12/03 18:19:16","新北市中和區圓通路83號","121.499846666667","24.9969233333333","6500300","中和區"
"235045","565-BX","2018/12/03 18:19:20","新北市中和區景安路200巷9號","121.503196666667","24.9918516666667","6500300","中和區"
"235054","640-BX","2018/12/03 18:19:25","新北市土城區延壽路119號","121.469026666667","24.9943666666667","6500300","中和區"
"235060","647-TV","2018/12/03 18:19:28","新北市中和區員山路287號","121.481278333333","24.9997966666667","6500300","中和區"
"235047","732-UM","2018/12/03 18:19:17","新北市中和區南山路250巷2號","121.507693333333","24.9890266666667","6500300","中和區"
"235046","733-UM","2018/12/03 18:19:27","新北市中和區中正路637巷52弄1號","121.485463333333","24.993525","6500300","中和區"
"235062","800-TS","2018/12/03 18:19:17","新北市中和區景平路999巷1號","121.495418333333","25.0059416666667","6500300","中和區"
"235057","801-TS","2018/12/03 18:19:16","新北市中和區民享街97巷19號","121.475311666667","24.9995766666667","6500300","中和區"
"235041","802-TS","2018/12/03 18:19:28","新北市中和區錦和路350-1號","121.490321666667","24.99353","6500300","中和區"
"235052","805-TS","2018/12/03 18:19:20","新北市中和區興南路二段96號","121.505191666667","24.98416","6500300","中和區"
"235048","896-TW","2018/12/03 18:19:31","新北市中和區中正路395號","121.489941666667","24.9935316666667","6500300","中和區"
"235053","900-TW","2018/12/03 18:19:32","新北市中和區員山路36巷16-3號","121.484825","24.9916383333333","6500300","中和區"
"235051","157-BY","2018/12/03 18:19:21","新北市中和區忠孝街118號","121.512193333333","24.9856766666667","6500300","中和區"
"235037","AAC-213","2018/12/03 18:19:19","新北市中和區景德街67號","121.516905","24.99138","6500300","中和區"
"235059","AAC-215","2018/12/03 18:19:31","新北市中和區員山路36巷16-3號","121.484975","24.9913216666667","6500300","中和區"
"226004","312-R5","2018/12/03 18:19:16","新北市平溪區靜安路二段7巷8號","121.708325","25.0187433333333","6502400","平溪區"
"228003","097-TW","2018/12/03 18:19:21","新北市貢寮區真理里美艷山街49號","121.923195","25.069605","6502600","貢寮區"
"228002","585-TW","2018/12/03 18:19:31","新北市貢寮區福連里馬崗街1號","121.998151666667","25.0155683333333","6502600","貢寮區"
"228001","670-TC","2018/12/03 18:19:33","新北市貢寮區真理里新港街26巷55弄2-1號","121.927348333333","25.052865","6502600","貢寮區"
"224006","676-BX","2018/12/03 18:19:31","新北市瑞芳區三爪子坑路64-36號","121.809045","25.1059166666667","6501200","瑞芳區"
"224008","285-BY","2018/12/03 18:19:33","新北市瑞芳區逢甲路29號","121.809235","25.1088283333333","6501200","瑞芳區"
"224007","275-VK","2018/12/03 18:19:35","新北市瑞芳區大埔路67巷5-1號","121.76429","25.101665","6501200","瑞芳區"
"224009","273-VK","2018/12/03 18:19:29","新北市瑞芳區五號路4號","121.854686666667","25.1103133333333","6501200","瑞芳區"
"224005","271-BY","2018/12/03 18:19:33","新北市瑞芳區建基路二段7號","121.807513333333","25.1328316666667","6501200","瑞芳區"
"227001","642-TC","2018/12/03 18:19:31","新北市雙溪區共和里中山路2號","121.86379","25.0337933333333","6502500","雙溪區"
"227008","400-TW","2018/12/03 18:19:30","新北市雙溪區牡丹里牡丹73號","121.851698333333","25.0593216666667","6502500","雙溪區"
"253006","032-BX","2018/12/03 18:19:35","新北市石門區老梅路76號","121.546973333333","25.28914","6502200","石門區"
"253005","295-VK","2018/12/03 18:19:17","新北市石門區中央路22-2號","121.567923333333","25.292655","6502200","石門區"
"222001","KEA-2212","2018/12/03 18:19:37","新北市深坑區北深路二段51-1號","121.61911","25.003995","6501800","深坑區"
"208002","KEA-2872","2018/12/03 18:19:38","新北市金山區清泉里清水路60巷20號","121.634931666667","25.2326733333333","6502700","金山區"
"208003","665-BX","2018/12/03 18:19:31","新北市金山區民生路160號","121.64684","25.2230333333333","6502700","金山區"
"208001","761-BX","2018/12/03 18:19:22","新北市金山區中山路16號","121.641385","25.2176966666667","6502700","金山區"
"251005","010-UM","2018/12/03 18:19:24","新北市淡水區水源街一段122巷39號","121.44713","25.1704033333333","6501000","淡水區"
"251001","011-UM","2018/12/03 18:19:27","新北市淡水區自強路110-8號","121.461708333333","25.1313666666667","6501000","淡水區"
"251013","KEA-2871","2018/12/03 18:19:17","新北市淡水區行忠路786號","121.473136666667","25.1996416666667","6501000","淡水區"
"251016","179-VK","2018/12/03 18:19:18","新北市淡水區淡金路三段228巷35號","121.45006","25.204815","6501000","淡水區"
"251008","181-VK","2018/12/03 18:19:14","新北市淡水區水源街二段194號","121.457131666667","25.1755666666667","6501000","淡水區"
"251015","182-VK","2018/12/03 18:19:23","新北市淡水區興福寮88巷1號","121.485278333333","25.1647333333333","6501000","淡水區"
"251010","413-VK","2018/12/03 18:19:24","新北市淡水區淡海路202號","121.420253333333","25.18544","6501000","淡水區"
"251012","441-VK","2018/12/03 18:19:21","新北市淡水區北新路二段77-5號","121.480518333333","25.1855166666667","6501000","淡水區"
"251004","443-VK","2018/12/03 18:19:35","新北市淡水區民族路134號","121.462911666667","25.1346516666667","6501000","淡水區"
"251006","561-UM","2018/12/03 18:19:26","新北市淡水區新民街76巷36弄1號","121.439411666667","25.1780216666667","6501000","淡水區"
"251011","650-BX","2018/12/03 18:19:20","新北市淡水區坪頂路49號","121.457715","25.1624866666667","6501000","淡水區"
"251002","672-BX","2018/12/03 18:19:27","新北市淡水區中正東路一段38號","121.452618333333","25.162205","6501000","淡水區"
"251003","766-UM","2018/12/03 18:19:17","新北市淡水區北新路180號","121.449413333333","25.1787733333333","6501000","淡水區"
"207003","550-UM","2018/12/03 18:19:30","新北市萬里區野柳里港東路14號","121.68725","25.2036266666667","6502800","萬里區"
"207004","225-TW","2018/12/03 18:19:34","新北市萬里區中幅里中福路123號","121.67624","25.165905","6502800","萬里區"
"252002","178-VK","2018/12/03 18:19:24","新北市三芝區中山路二段39號","121.502926666667","25.2550783333333","6502100","三芝區"
"252003","249-BX","2018/12/03 18:19:16","新北市三芝區錫板里南勢崗2號","121.481216666667","25.2634766666667","6502100","三芝區"
"252001","292-VK","2018/12/03 18:19:23","新北市三芝區公正街三段12號","121.498581666667","25.2566816666667","6502100","三芝區"
"237007","153-BY","2018/12/03 18:19:29","新北市三峽區中正路二段586號","121.359246666667","24.9059316666667","6500900","三峽區"
"237009","210-TH","2018/12/03 18:19:28","新北市三峽區中山路106巷24號","121.366288333333","24.9371","6500900","三峽區"
"237013","252-BX","2018/12/03 18:19:30","新北市三峽區永安街37號","121.376448333333","24.9304033333333","6500900","三峽區"
"237012","275-BY","2018/12/03 18:19:15","新北市三峽區民生街19巷7弄15號","121.376968333333","24.9359366666667","6500900","三峽區"
"237008","302-VK","2018/12/03 18:19:31","新北市三峽區白雞68-303號","121.391576666667","24.9096633333333","6500900","三峽區"
"237006","5529-G3","2018/12/03 18:19:28","新北市三峽區溪東路235號","121.406551666667","24.9326116666667","6500900","三峽區"
"237011","KEA-2596","2018/12/03 18:19:17","新北市三峽區溪東路140號","121.40496","24.9331916666667","6500900","三峽區"
"237015","649-BX","2018/12/03 18:19:24","新北市三峽區紫微路42-1號","121.422328333333","24.91984","6500900","三峽區"
"237010","706-TV","2018/12/03 18:19:15","新北市三峽區民族街83號","121.369505","24.9292683333333","6500900","三峽區"
"237005","AKY-6261","2018/12/03 18:19:21","新北市三峽區秀川街26巷6號","121.371545","24.93441","6500900","三峽區"
"236069","105-UM","2018/12/03 18:19:25","新北市土城區永豐路202巷5號","121.466465","24.9833066666667","6501300","土城區"
"236042","KED-0685","2018/12/03 18:19:28","新北市土城區裕生路21巷6弄16號","121.448586666667","24.9867733333333","6501300","土城區"
"236078","166-UM","2018/12/03 18:19:32","新北市土城區中央路三段281巷15弄2號","121.42612","24.9626066666667","6501300","土城區"
"236030","253-BX","2018/12/03 18:19:27","新北市土城區順風路41號","121.440636666667","24.9767833333333","6501300","土城區"
"236026","269-VK","2018/12/03 18:19:20","新北市土城區承天路18號","121.439441666667","24.9635916666667","6501300","土城區"
"236014","270-VK","2018/12/03 18:19:33","新北市土城區青雲路39巷7號","121.460288333333","24.9873816666667","6501300","土城區"
"236039","271-VK","2018/12/03 18:19:34","新北市土城區青雲路483巷9號","121.459358333333","24.9736183333333","6501300","土城區"
"236020","401-BY","2018/12/03 18:19:34","新北市土城區明德路一段215號","121.463323333333","24.9786266666667","6501300","土城區"
"236055","752-BX","2018/12/03 18:19:33","新北市土城區中華路二段136號","121.437481666667","24.9729433333333","6501300","土城區"
"236059","912-UM","2018/12/03 18:19:24","新北市土城區中央路四段464號","121.409908333333","24.9505416666667","6501300","土城區"
"236048","913-UM","2018/12/03 18:19:34","新北市土城區明德路一段369號","121.456053333333","24.97778","6501300","土城區"
"236063","915-UM","2018/12/03 18:19:23","新北市中和區民享街494號","121.469743333333","24.992195","6501300","土城區"
"242058","986-R7","2018/12/03 18:19:30","新北市新莊區新北大道七段726號","121.412573333333","25.0258916666667","6500500","新莊區"
"242056","751-BX","2018/12/03 18:19:36","新北市新莊區瓊林路47-1號","121.445686666667","25.0281583333333","6500500","新莊區"
"242027","705-TV","2018/12/03 18:19:34","新北市新莊區新泰路528號","121.442026666667","25.0475483333333","6500500","新莊區"
"242025","613-BX","2018/12/03 18:19:17","新北市新莊區五權一路12巷9弄14號","121.457888333333","25.0649133333333","6500500","新莊區"
"242044","566-BX","2018/12/03 18:19:31","新北市新莊區新北大道七段339號","121.412958333333","25.0276233333333","6500500","新莊區"
"242050","442-UM","2018/12/03 18:19:16","新北市新莊區民安東路15號","121.427966666667","25.0210333333333","6500500","新莊區"
"242053","441-UM","2018/12/03 18:19:29","新北市新莊區樹新路120巷27號","121.430375","24.996345","6500500","新莊區"
"242002","440-UM","2018/12/03 18:19:20","新北市新莊區環漢路二段385號","121.451165","25.032625","6500500","新莊區"
"242046","400-BY","2018/12/03 18:19:20","新北市新莊區福營路336號","121.421676666667","25.026735","6500500","新莊區"
"242060","353-BY","2018/12/03 18:19:35","新北市新莊區後港一路160號","121.430751666667","25.0275466666667","6500500","新莊區"
"242011","132-UY","2018/12/03 18:19:18","新北市新莊區中榮街47號","121.449466666667","25.0526616666667","6500500","新莊區"
"242031","348-TH","2018/12/03 18:19:15","新北市新莊區新泰路277巷43弄10號","121.443686666667","25.039865","6500500","新莊區"
"242004","349-TH","2018/12/03 18:19:21","新北市新莊區新泰路368號","121.444408333333","25.0426666666667","6500500","新莊區"
"242021","350-TH","2018/12/03 18:19:23","新北市新莊區新泰路275號","121.445781666667","25.04041","6500500","新莊區"
"242015","351-TH","2018/12/03 18:19:34","新北市新莊區中平路88號","121.444856666667","25.0451166666667","6500500","新莊區"
"238015","755-BX","2018/12/03 18:19:25","新北市樹林區啟智街131號","121.417393333333","24.9886583333333","6500700","樹林區"
"238023","601-UM","2018/12/03 18:19:24","新北市樹林區忠義街25號","121.409623333333","25.0149466666667","6500700","樹林區"
"238019","599-UM","2018/12/03 18:19:31","新北市樹林區國凱街134號","121.423388333333","24.9801733333333","6500700","樹林區"
"238005","571-TV","2018/12/03 18:18:53","新北市樹林區保安街一段16巷17號","121.428166666667","24.9938733333333","6500700","樹林區"
"238024","5061-A6","2018/12/03 18:19:32","新北市樹林區中山路一段141號","121.422345","24.9896083333333","6500700","樹林區"
"238021","KEA-2539","2018/12/03 18:19:31","新北市鶯歌區中正一路113-1號","121.37035","24.9587616666667","6500700","樹林區"
"238025","303-VK","2018/12/03 18:19:24","新北市樹林區保安街一段122號","121.423386666667","24.994925","6500700","樹林區"
"238017","283-BY","2018/12/03 18:19:32","新北市樹林區保安街二段337巷39號","121.410886666667","25.00815","6500700","樹林區"
"238014","282-BY","2018/12/03 18:19:30","新北市樹林區大安路436號","121.415131666667","24.9883233333333","6500700","樹林區"
"238020","268-VK","2018/12/03 18:19:15","新北市樹林區三俊街65巷2-1號","121.413476666667","25.01632","6500700","樹林區"
"238026","172-UY","2018/12/03 18:19:15","新北市樹林區育德街57號","121.39135","24.9701166666667","6500700","樹林區"
"238016","169-UY","2018/12/03 18:19:35","新北市樹林區中山路二段10號","121.417535","24.9850066666667","6500700","樹林區"
"239007","AAC-297","2018/12/03 18:19:15","新北市鶯歌區尖山埔路64號","121.348361666667","24.9510083333333","6500800","鶯歌區"
"239006","891-R6","2018/12/03 18:19:22","新北市鶯歌區德昌街140巷6號","121.332056666667","24.9607633333333","6500800","鶯歌區"
"239008","527-UM","2018/12/03 18:19:22","新北市鶯歌區國際一路179號","121.33625","24.9765116666667","6500800","鶯歌區"
"239005","526-UM","2018/12/03 18:19:18","新北市鶯歌區鶯桃路668巷73號","121.329905","24.9717533333333","6500800","鶯歌區"
"239001","417-VK","2018/12/03 18:19:35","新北市鶯歌區中正三路福德巷2弄19號","121.3391","24.9407866666667","6500800","鶯歌區"
"239003","360-BY","2018/12/03 18:19:29","新北市鶯歌區福安街30號","121.334428333333","24.9641983333333","6500800","鶯歌區"
"239002","359-BY","2018/12/03 18:19:25","新北市鶯歌區文化路333號","121.35211","24.9519916666667","6500800","鶯歌區"
"239004","193-VK","2018/12/03 18:19:35","新北市鶯歌區尖山路168巷29號","121.344603333333","24.9487633333333","6500800","鶯歌區"
"221008","489-VK","2018/12/03 18:19:25","新北市汐止區汐萬路一段312號","121.650211666667","25.0755133333333","6501100","汐止區"
"221036","130-UY","2018/12/03 18:19:22","新北市汐止區長興街一段50號","121.67086","25.0798283333333","6501100","汐止區"
"221015","131-UY","2018/12/03 18:19:28","新北市汐止區鄉長路二段23巷5號","121.667351666667","25.082575","6501100","汐止區"
"221010","269-BY","2018/12/03 18:19:27","新北市汐止區祥雲街18巷9號","121.646851666667","25.0897683333333","6501100","汐止區"
"221012","278-VK","2018/12/03 18:19:15","新北市汐止區保長路35巷15弄8號","121.673058333333","25.0803383333333","6501100","汐止區"
"221023","279-VK","2018/12/03 18:19:18","新北市汐止區中興路201號","121.629196666667","25.0684416666667","6501100","汐止區"
"221032","280-BY","2018/12/03 18:19:14","新北市汐止區力行街54號","121.616753333333","25.049595","6501100","汐止區"
"221027","281-BY","2018/12/03 18:19:14","新北市汐止區和平街9號","121.663175","25.0707216666667","6501100","汐止區"
"221029","298-VK","2018/12/03 18:19:28","新北市汐止區汐萬路一段329號","121.649985","25.0756283333333","6501100","汐止區"
"221021","299-VK","2018/12/03 18:19:25","新北市汐止區大同路二段184巷6號","121.653076666667","25.0639166666667","6501100","汐止區"
"221031","353-TW","2018/12/03 18:19:24","新北市汐止區大同路一段203號","121.633411666667","25.057185","6501100","汐止區"
"221002","129-UY","2018/12/03 18:19:16","新北市汐止區福德一路201巷32號","121.63585","25.064825","6501100","汐止區"
"221035","622-UM","2018/12/03 18:19:31","新北市汐止區大同路二段187巷4弄1號","121.652346666667","25.0651416666667","6501100","汐止區"
"221025","623-UM","2018/12/03 18:19:29","新北市汐止區勤進路12巷46號","121.65914","25.0629266666667","6501100","汐止區"
"221038","646-BX","2018/12/03 18:19:14","新北市汐止區仁愛路320號","121.664723333333","25.0676","6501100","汐止區"
"221033","647-BX","2018/12/03 18:19:31","新北市汐止區宜興街92號","121.622643333333","25.04283","6501100","汐止區"
"221018","753-BX","2018/12/03 18:19:31","新北市汐止區茄苳路118號","121.668136666667","25.0703833333333","6501100","汐止區"
"224002","257-TC","2018/12/03 18:19:15","新北市瑞芳區三爪子坑路91巷17號","121.811736666667","25.1068933333333","6501200","瑞芳區"
"242042","281-VK","2018/12/03 18:19:27","新北市新莊區天祥街96號","121.415038333333","25.0295966666667","6500500","新莊區"
"220073","985-R7","2018/12/03 18:19:30","新北市板橋區華東街1-10號","121.448233333333","24.9949983333333","6500100","板橋區"
"235068","KEA-2873","2018/12/03 18:19:12","新北市中和區員山路36巷16-2號","121.485348333333","24.9913816666667","6500300","中和區"
"235061","KEA-2875","2018/12/03 18:19:15","新北市土城區延壽路109巷2號","121.46906","24.9934283333333","6500300","中和區"
