"lineid","car","time","location","longitude","latitude","cityid","cityname"
"234046","148-BY","2018/12/03 18:29:22","新北市永和區福和路1號","121.525553333333","25.0094633333333","6500400","永和區"
"234081","298-R6","2018/12/03 18:29:26","新北市永和區環河東路三段12號","121.525683333333","25.0081066666667","6500400","永和區"
"234013","KEA-2591","2018/12/03 18:29:31","新北市永和區環河西路一段99號","121.511373333333","25.0178533333333","6500400","永和區"
"234042","862-TW","2018/12/03 18:29:32","新北市永和區福和路175號","121.519885","25.007565","6500400","永和區"
"234026","9372-KE","2018/12/03 18:29:22","新北市永和區豫溪街52巷16號","121.5157","25.0091916666667","6500400","永和區"
"234011","9373-KE","2018/12/03 18:29:16","新北市永和區保福路二段158巷1號","121.509123333333","25.01502","6500400","永和區"
"249005","172-UM","2018/12/03 18:29:35","新北市八里區中華路三段128號","121.392401666667","25.1359416666667","6502300","八里區"
"249001","173-UM","2018/12/03 18:29:17","新北市八里區龍米路一段136號","121.452945","25.1255316666667","6502300","八里區"
"249004","303-UY","2018/12/03 18:29:29","新北市八里區忠孝路56號","121.4264","25.1603516666667","6502300","八里區"
"249002","305-UY","2018/12/03 18:29:26","新北市八里區龍形三街26號","121.448026666667","25.1316866666667","6502300","八里區"
"248014","025-BX","2018/12/03 18:29:30","新北市五股區自強路109號","121.432273333333","25.07068","6501500","五股區"
"248016","026-BX","2018/12/03 18:29:32","新北市五股區凌雲路一段83巷7弄2號","121.449835","25.1007333333333","6501500","五股區"
"248008","095-VK","2018/12/03 18:29:34","新北市五股區四維路185巷26號","121.465495","25.0774033333333","6501500","五股區"
"248018","225-UY","2018/12/03 18:29:21","新北市五股區民義路二段52巷22號","121.415383333333","25.1117983333333","6501500","五股區"
"248012","247-BX","2018/12/03 18:29:34","新北市五股區御成路145號","121.440986666667","25.0943133333333","6501500","五股區"
"248004","677-BX","2018/12/03 18:29:19","新北市五股區民義路一段152號","121.43304","25.0875","6501500","五股區"
"248002","678-BX","2018/12/03 18:29:24","新北市五股區西雲路116-3號","121.444591666667","25.0935633333333","6501500","五股區"
"248010","682-TV","2018/12/03 18:29:35","新北市五股區自強路85號","121.432533333333","25.07188","6501500","五股區"
"234067","AAC-212","2018/12/03 18:29:35","新北市永和區福和路1號","121.525991666667","25.0096633333333","6500400","永和區"
"244023","069-UM","2018/12/03 18:29:14","新北市林口區仁愛路二段50號","121.38485","25.0757416666667","6501700","林口區"
"244007","080-UY","2018/12/03 18:29:31","新北市林口區後湖17號","121.386931666667","25.0974","6501700","林口區"
"244019","402-UM","2018/12/03 18:29:33","新北市林口區忠孝路646巷35號","121.379388333333","25.0670816666667","6501700","林口區"
"244013","KEA-2802","2018/12/03 18:29:37","新北市林口區中山路297巷86號","121.383143333333","25.0795933333333","6501700","林口區"
"244017","485-VK","2018/12/03 18:29:29","新北市林口區八德路78號","121.365518333333","25.065535","6501700","林口區"
"244009","656-BX","2018/12/03 18:29:13","新北市林口區民生路158號","121.379436666667","25.0879183333333","6501700","林口區"
"244011","701-TV","2018/12/03 18:29:25","新北市林口區興林路17巷10號","121.390598333333","25.076955","6501700","林口區"
"244025","837-TS","2018/12/03 18:29:28","新北市林口區源泉街68號","121.356888333333","25.072975","6501700","林口區"
"244021","838-TS","2018/12/03 18:29:18","新北市林口區自強二街46號","121.399115","25.0771883333333","6501700","林口區"
"243013","AAD-798","2018/12/03 18:27:50","新北市泰山區明志路三段206巷3號","121.4233","25.0379233333333","6501600","泰山區"
"222002","016-RS","2018/12/03 18:29:33","新北市深坑區雲鄉路115號","121.623551666667","24.99821","6501800","深坑區"
"222003","436-BY","2018/12/03 18:29:34","新北市深坑區翠谷街21巷1號","121.627028333333","25.0083366666667","6501800","深坑區"
"231041","002-UM","2018/12/03 18:29:24","新北市新店區安華路28-1號","121.5198","24.9606916666667","6500600","新店區"
"231059","046-UY","2018/12/03 18:29:23","新北市新店區安華路28-1號","121.519563333333","24.9606483333333","6500600","新店區"
"231040","047-UY","2018/12/03 18:29:30","新北市新店區安華路28-1號","121.519158333333","24.9609466666667","6500600","新店區"
"231044","106-UY","2018/12/03 18:29:29","新北市新店區安華路28-1號","121.519548333333","24.9607583333333","6500600","新店區"
"231046","107-UY","2018/12/03 18:29:31","新北市新店區直潭八街46號","121.532665","24.93933","6500600","新店區"
"231052","108-UY","2018/12/03 18:29:19","新北市新店區新烏路一段17巷2號","121.546336666667","24.9509616666667","6500600","新店區"
"231062","110-UY","2018/12/03 18:29:21","新北市新店區安一路一段1-1號","121.519345","24.96112","6500600","新店區"
"231047","187-VK","2018/12/03 18:29:21","新北市新店區安一路一段1-1號","121.519575","24.9613816666667","6500600","新店區"
"231051","188-VK","2018/12/03 18:29:35","新北市新店區安一路一段1-1號","121.519668333333","24.9611033333333","6500600","新店區"
"231054","KEA-2219","2018/12/03 18:29:33","新北市新店區安一路一段1-1號","121.519878333333","24.9611766666667","6500600","新店區"
"231057","256-BX","2018/12/03 18:29:26","新北市新店區環河路1-1號","121.537835","24.961515","6500600","新店區"
"231042","268-BY","2018/12/03 18:29:32","新北市新店區安華路1-1號","121.51941","24.9604116666667","6500600","新店區"
"231050","AAD-862","2018/12/03 18:29:18","新北市新店區安一路一段1-1號","121.519908333333","24.9611316666667","6500600","新店區"
"231058","3713-VJ","2018/12/03 18:29:30","新北市新店區環河路19巷25號","121.537618333333","24.9597383333333","6500600","新店區"
"231066","4716-K9","2018/12/03 18:29:32","新北市新店區安一路一段1-1號","121.519381666667","24.96114","6500600","新店區"
"231056","4715-K9","2018/12/03 18:29:32","新北市新店區二十張路91號","121.536833333333","24.9801316666667","6500600","新店區"
"231065","512-UM","2018/12/03 18:29:29","新北市新店區安一路一段1-1號","121.51932","24.9612066666667","6500600","新店區"
"231049","513-UM","2018/12/03 18:29:31","新北市新店區安一路一段1-1號","121.51964","24.9611716666667","6500600","新店區"
"231063","616-UM","2018/12/03 18:29:25","新北市新店區安華路1-1號","121.519476666667","24.960085","6500600","新店區"
"231045","617-UM","2018/12/03 18:07:59","新北市新店區安華路28-1號","121.51936","24.9606133333333","6500600","新店區"
"231061","619-UM","2018/12/03 18:29:25","新北市新店區安華路28-1號","121.519416666667","24.9605566666667","6500600","新店區"
"231064","719-UM","2018/12/03 18:29:34","新北市新店區安一路一段1-1號","121.519363333333","24.9612733333333","6500600","新店區"
"231060","897-TW","2018/12/03 18:29:25","新北市新店區安華路28-1號","121.5195","24.9606916666667","6500600","新店區"
"231043","898-TW","2018/12/03 18:29:21","新北市新店區安華路28-1號","121.51926","24.9608433333333","6500600","新店區"
"231055","AKT-0513","2018/12/03 18:29:19","新北市新店區中正路211號","121.539916666667","24.9727216666667","6500600","新店區"
"251014","742-BX","2018/12/03 18:29:36","新北市淡水區南平20號","121.493971666667","25.21663","6501000","淡水區"
"235066","003-UY","2018/12/03 18:29:21","新北市中和區中山路二段119號","121.502953333333","25.0036683333333","6500300","中和區"
"235064","005-UY","2018/12/03 18:29:31","新北市中和區連城路139巷65號","121.496968333333","24.9971083333333","6500300","中和區"
"235063","006-UY","2018/12/03 18:29:14","新北市中和區連城路347巷16弄29號","121.48749","24.9950366666667","6500300","中和區"
"235056","096-UM","2018/12/03 18:29:20","新北市中和區員山路611巷5弄1號","121.47795","25.0111683333333","6500300","中和區"
"235039","097-UM","2018/12/03 18:29:24","新北市中和區安平路192號","121.513153333333","24.9992666666667","6500300","中和區"
"235065","098-UM","2018/12/03 18:29:20","新北市中和區中山路二段64巷8號","121.503526666667","25.005135","6500300","中和區"
"235040","150-BY","2018/12/03 18:29:23","新北市中和區安平路59號","121.509515","24.994975","6500300","中和區"
"235058","151-BY","2018/12/03 18:29:20","新北市中和區圓通路369巷30弄34號","121.488896666667","24.9846616666667","6500300","中和區"
"235055","183-VK","2018/12/03 18:29:30","新北市中和區莒光路42號","121.472238333333","25.0037566666667","6500300","中和區"
"235038","185-VK","2018/12/03 18:29:33","新北市中和區秀朗路三段128巷17弄43號","121.522866666667","24.9931533333333","6500300","中和區"
"235049","186-VK","2018/12/03 18:29:33","新北市中和區景安路128號","121.505201666667","24.9946333333333","6500300","中和區"
"235067","255-BX","2018/12/03 18:29:34","新北市中和區新生街113號","121.483491666667","25.0019433333333","6500300","中和區"
"235072","301-VK","2018/12/03 18:29:29","新北市中和區連城路133-1號","121.495831666667","24.9989733333333","6500300","中和區"
"235043","352-BY","2018/12/03 18:29:27","新北市中和區景平路293號","121.507128333333","24.9930416666667","6500300","中和區"
"235042","KEA-2878","2018/12/03 18:29:24","新北市中和區景平路38號","121.523165","24.9906733333333","6500300","中和區"
"235050","4979-A6","2018/12/03 18:29:15","新北市中和區景新街362巷5號","121.511958333333","24.9900566666667","6500300","中和區"
"235069","4980-A6","2018/12/03 18:29:18","新北市中和區連城路127巷27號","121.4971","24.9976166666667","6500300","中和區"
"235070","558-UM","2018/12/03 18:29:36","新北市中和區景新街133號","121.50596","24.99725","6500300","中和區"
"235045","565-BX","2018/12/03 18:29:20","新北市中和區南山路236巷36弄5號","121.504085","24.9882833333333","6500300","中和區"
"235054","640-BX","2018/12/03 18:29:27","新北市中和區民享街91-9號","121.474528333333","25.0008866666667","6500300","中和區"
"235060","647-TV","2018/12/03 18:29:31","新北市中和區中山路二段585號","121.480123333333","25.00577","6500300","中和區"
"235047","732-UM","2018/12/03 18:29:17","新北市中和區南山路250巷2號","121.507743333333","24.9889816666667","6500300","中和區"
"235046","733-UM","2018/12/03 18:29:27","新北市中和區中正路169號","121.497995","24.9936566666667","6500300","中和區"
"235071","783-BX","2018/12/03 18:29:30","新北市中和區員山路36巷16-3號","121.485168333333","24.9911783333333","6500300","中和區"
"235062","800-TS","2018/12/03 18:29:17","新北市中和區景平路754號","121.496466666667","25.00455","6500300","中和區"
"235057","801-TS","2018/12/03 18:29:36","新北市中和區民安街42巷14號","121.479753333333","25.0007616666667","6500300","中和區"
"235041","802-TS","2018/12/03 18:29:28","新北市中和區景安路36號","121.50711","24.99826","6500300","中和區"
"235052","805-TS","2018/12/03 18:29:20","新北市中和區興南路二段100號","121.504855","24.9840433333333","6500300","中和區"
"235048","896-TW","2018/12/03 18:29:31","新北市中和區中正路67號","121.501276666667","24.9934116666667","6500300","中和區"
"235053","900-TW","2018/12/03 18:29:32","新北市中和區員山路82巷10弄7號","121.481546666667","24.9935683333333","6500300","中和區"
"235051","157-BY","2018/12/03 18:29:21","新北市中和區興南路二段114巷21弄2號","121.503671666667","24.9844766666667","6500300","中和區"
"235037","AAC-213","2018/12/03 18:29:18","新北市中和區景德街95-1號","121.515641666667","24.99127","6500300","中和區"
"235059","AAC-215","2018/12/03 18:29:31","新北市中和區員山路36巷16-3號","121.484908333333","24.9913483333333","6500300","中和區"
"220065","072-UY","2018/12/03 18:29:26","新北市板橋區華東街270號","121.452701666667","25.0016883333333","6500100","板橋區"
"220086","073-UY","2018/12/03 18:29:19","新北市板橋區南雅南路二段11-4號","121.454113333333","25.0024833333333","6500100","板橋區"
"226004","312-R5","2018/12/03 18:29:36","新北市平溪區靜安路二段266號","121.72564","25.0220183333333","6502400","平溪區"
"228003","097-TW","2018/12/03 18:29:21","新北市貢寮區和美里和美街38號","121.912253333333","25.0892383333333","6502600","貢寮區"
"228002","585-TW","2018/12/03 18:29:31","新北市貢寮區福連里福連街1號","121.988266666667","25.0175183333333","6502600","貢寮區"
"228001","670-TC","2018/12/03 18:29:33","新北市貢寮區仁理村仁和路164號","121.923253333333","25.0520566666667","6502600","貢寮區"
"224006","676-BX","2018/12/03 18:29:31","新北市瑞芳區明燈路二段27號","121.811283333333","25.107945","6501200","瑞芳區"
"224008","285-BY","2018/12/03 18:29:33","新北市瑞芳區岳王路1巷41號","121.805613333333","25.1102933333333","6501200","瑞芳區"
"224007","275-VK","2018/12/03 18:29:27","新北市瑞芳區大埔路吉慶公園城10號","121.76524","25.1002283333333","6501200","瑞芳區"
"224009","273-VK","2018/12/03 18:29:28","新北市瑞芳區五號路114號","121.854855","25.1109516666667","6501200","瑞芳區"
"224005","271-BY","2018/12/03 18:29:33","新北市瑞芳區台電新村54號","121.812191666667","25.1274833333333","6501200","瑞芳區"
"227001","642-TC","2018/12/03 18:29:31","新北市雙溪區魚行里坤溪25號","121.870466666667","25.02986","6502500","雙溪區"
"227008","400-TW","2018/12/03 18:29:35","新北市雙溪區牡丹里牡丹137號","121.85114","25.0590316666667","6502500","雙溪區"
"253006","032-BX","2018/12/03 18:29:35","新北市石門區公地47-1號","121.545551666667","25.2901383333333","6502200","石門區"
"253005","295-VK","2018/12/03 18:29:17","新北市石門區老崩山11-13號","121.551891666667","25.2905983333333","6502200","石門區"
"222001","KEA-2212","2018/12/03 18:29:17","新北市深坑區北深路一段185號","121.631485","25.0101566666667","6501800","深坑區"
"208002","KEA-2872","2018/12/03 18:29:17","新北市金山區民生路69號","121.640091666667","25.219675","6502700","金山區"
"208003","665-BX","2018/12/03 18:29:31","新北市金山區中山路175號","121.638578333333","25.2207816666667","6502700","金山區"
"208001","761-BX","2018/12/03 18:29:29","新北市金山區金包里街158號","121.637676666667","25.2230133333333","6502700","金山區"
"251005","010-UM","2018/12/03 18:29:24","新北市淡水區中正東路35巷10號","121.446408333333","25.1685666666667","6501000","淡水區"
"251001","011-UM","2018/12/03 18:29:28","新北市淡水區自強路122-9號","121.46465","25.1333133333333","6501000","淡水區"
"251013","KEA-2871","2018/12/03 18:29:36","新北市淡水區椿子林20號","121.480038333333","25.20376","6501000","淡水區"
"251016","179-VK","2018/12/03 18:29:18","新北市淡水區下圭柔山115-13號","121.446511666667","25.21142","6501000","淡水區"
"251008","181-VK","2018/12/03 18:29:35","新北市淡水區北投子87-3號","121.46915","25.178625","6501000","淡水區"
"251015","182-VK","2018/12/03 18:29:23","新北市淡水區興福寮88巷216號","121.485958333333","25.166585","6501000","淡水區"
"251010","413-VK","2018/12/03 18:29:24","新北市淡水區沙崙路181巷1號","121.424146666667","25.1841766666667","6501000","淡水區"
"251012","441-VK","2018/12/03 18:29:21","新北市淡水區北新路一段129-1號","121.457656666667","25.18211","6501000","淡水區"
"251004","443-VK","2018/12/03 18:29:15","新北市淡水區民族路31巷31號","121.462336666667","25.1364833333333","6501000","淡水區"
"251006","561-UM","2018/12/03 18:29:26","新北市淡水區新生街49號","121.440506666667","25.1749383333333","6501000","淡水區"
"251007","577-R6","2018/12/03 18:29:37","新北市淡水區淡金路二段270-1號","121.446838333333","25.18865","6501000","淡水區"
"251011","650-BX","2018/12/03 18:29:20","新北市淡水區中正東路8-8號","121.44785","25.166685","6501000","淡水區"
"251002","672-BX","2018/12/03 18:29:27","新北市淡水區竿蓁二街19巷7弄1號","121.453175","25.163435","6501000","淡水區"
"251003","766-UM","2018/12/03 18:29:37","新北市淡水區北新路169巷16號","121.449868333333","25.1801116666667","6501000","淡水區"
"207003","550-UM","2018/12/03 18:29:30","新北市萬里區野柳里港東路70號","121.687918333333","25.20462","6502800","萬里區"
"207004","225-TW","2018/12/03 18:29:34","新北市萬里區萬里里瑪鋉路12-2號","121.687686666667","25.1754666666667","6502800","萬里區"
"252002","178-VK","2018/12/03 18:29:24","新北市三芝區中山路二段39號","121.502916666667","25.25508","6502100","三芝區"
"252003","249-BX","2018/12/03 18:29:36","新北市三芝區後厝里北勢子41-7號","121.47242","25.2529833333333","6502100","三芝區"
"252001","292-VK","2018/12/03 18:29:23","新北市三芝區中興街二段12號","121.498615","25.2563816666667","6502100","三芝區"
"237007","153-BY","2018/12/03 18:29:29","新北市三峽區中正路三段170巷34號","121.352728333333","24.9045433333333","6500900","三峽區"
"237009","210-TH","2018/12/03 18:29:28","新北市三峽區民權街235號","121.368061666667","24.9278333333333","6500900","三峽區"
"237013","252-BX","2018/12/03 18:29:30","新北市三峽區光明路69巷24號","121.376566666667","24.9291133333333","6500900","三峽區"
"237012","275-BY","2018/12/03 18:29:15","新北市三峽區三樹路112號","121.378351666667","24.9392866666667","6500900","三峽區"
"237008","302-VK","2018/12/03 18:29:31","新北市三峽區白雞68-143號","121.39148","24.9082416666667","6500900","三峽區"
"237006","5529-G3","2018/12/03 18:29:28","新北市三峽區溪東路473巷74號","121.415365","24.92935","6500900","三峽區"
"237011","KEA-2596","2018/12/03 18:29:37","新北市三峽區溪東路352號","121.412093333333","24.92881","6500900","三峽區"
"237015","649-BX","2018/12/03 18:29:24","新北市三峽區竹崙路152號","121.434425","24.9082266666667","6500900","三峽區"
"237010","706-TV","2018/12/03 18:29:15","新北市三峽區中山路127號","121.36536","24.936005","6500900","三峽區"
"237005","AKY-6261","2018/12/03 18:29:21","新北市三峽區民族街5巷42號","121.369703333333","24.931625","6500900","三峽區"
"236069","105-UM","2018/12/03 18:29:27","新北市土城區永豐路255巷27弄37號","121.476673333333","24.9736633333333","6501300","土城區"
"236042","KED-0685","2018/12/03 18:29:20","新北市土城區裕民路67巷4弄10號","121.450081666667","24.9877183333333","6501300","土城區"
"236078","166-UM","2018/12/03 18:29:32","新北市土城區中央路四段27巷10弄2號","121.424728333333","24.9618333333333","6501300","土城區"
"236030","253-BX","2018/12/03 18:29:27","新北市土城區水源街81巷6號","121.439471666667","24.9763033333333","6501300","土城區"
"236026","269-VK","2018/12/03 18:29:23","新北市土城區南天母路135巷14號","121.448215","24.9545566666667","6501300","土城區"
"236014","270-VK","2018/12/03 18:29:33","新北市土城區青雲路39巷7號","121.460273333333","24.9873816666667","6501300","土城區"
"236039","271-VK","2018/12/03 18:29:33","新北市土城區明德路一段315號","121.45935","24.9771083333333","6501300","土城區"
"236020","401-BY","2018/12/03 18:29:15","新北市土城區永豐路202巷7號","121.466271666667","24.9833233333333","6501300","土城區"
"236055","752-BX","2018/12/03 18:29:33","新北市土城區中華路一段245號","121.440986666667","24.9818716666667","6501300","土城區"
"236059","912-UM","2018/12/03 18:29:24","新北市土城區中央路四段127號","121.41622","24.957545","6501300","土城區"
"236048","913-UM","2018/12/03 18:29:18","新北市土城區明德路一段293號","121.460143333333","24.97728","6501300","土城區"
"236063","915-UM","2018/12/03 18:29:25","新北市中和區民享街486號","121.469468333333","24.9923583333333","6501300","土城區"
"242058","986-R7","2018/12/03 18:29:30","新北市新莊區中正路814號","121.409943333333","25.020855","6500500","新莊區"
"242025","613-BX","2018/12/03 18:29:17","新北市新莊區昌平街346號","121.454645","25.0606083333333","6500500","新莊區"
"242044","566-BX","2018/12/03 18:29:31","新北市新莊區中正路新旺巷6號","121.41572","25.023525","6500500","新莊區"
"242053","441-UM","2018/12/03 18:29:29","新北市樹林區環河路10號","121.427546666667","24.9785566666667","6500500","新莊區"
"242046","400-BY","2018/12/03 18:29:23","新北市新莊區中正路793號","121.421455","25.0281633333333","6500500","新莊區"
"242060","353-BY","2018/12/03 18:29:15","新北市新莊區四維路97巷22號","121.424111666667","25.0233383333333","6500500","新莊區"
"242011","132-UY","2018/12/03 18:29:18","新北市新莊區中榮街75-2號","121.445855","25.0527533333333","6500500","新莊區"
"242004","349-TH","2018/12/03 18:29:21","新北市新莊區三和路12-21號","121.442248333333","25.0383716666667","6500500","新莊區"
"238015","755-BX","2018/12/03 18:29:25","新北市樹林區備內街3號","121.413046666667","24.9868066666667","6500700","樹林區"
"238023","601-UM","2018/12/03 18:29:24","新北市樹林區三福街114號","121.406498333333","25.016255","6500700","樹林區"
"238019","599-UM","2018/12/03 18:29:31","新北市樹林區中華路190-16號","121.411738333333","24.9806016666667","6500700","樹林區"
"238005","571-TV","2018/12/03 18:29:33","新北市樹林區樹新路86號","121.429348333333","24.9975","6500700","樹林區"
"238024","5061-A6","2018/12/03 18:29:27","新北市樹林區中山路一段256號","121.4209","24.9872483333333","6500700","樹林區"
"238021","KEA-2539","2018/12/03 18:29:31","新北市樹林區八德街1156號","121.390673333333","24.968415","6500700","樹林區"
"238025","303-VK","2018/12/03 18:29:03","新北市樹林區大安路553號","121.412266666667","24.9839283333333","6500700","樹林區"
"238017","283-BY","2018/12/03 18:29:32","新北市樹林區光榮街79號","121.412095","25.0029766666667","6500700","樹林區"
"238014","282-BY","2018/12/03 18:29:30","新北市樹林區中山路三段212號","121.382485","24.96613","6500700","樹林區"
"238020","268-VK","2018/12/03 18:29:35","新北市樹林區俊興街275號","121.41801","25.0182133333333","6500700","樹林區"
"238026","172-UY","2018/12/03 18:29:35","新北市樹林區佳園路一段75巷14弄10號","121.395211666667","24.9699683333333","6500700","樹林區"
"238016","169-UY","2018/12/03 18:29:35","新北市樹林區中山路二段10號","121.417555","24.9850216666667","6500700","樹林區"
"239007","AAC-297","2018/12/03 18:29:15","新北市鶯歌區重慶街101號","121.347618333333","24.952305","6500800","鶯歌區"
"239008","527-UM","2018/12/03 18:29:22","新北市鶯歌區國際一路179號","121.336268333333","24.97651","6500800","鶯歌區"
"239005","526-UM","2018/12/03 18:29:18","新北市鶯歌區鶯桃路668巷25號","121.328956666667","24.9703616666667","6500800","鶯歌區"
"239001","417-VK","2018/12/03 18:29:35","新北市鶯歌區國中街197號","121.338203333333","24.9391716666667","6500800","鶯歌區"
"239003","360-BY","2018/12/03 18:29:29","新北市鶯歌區鶯桃路443號","121.332373333333","24.9654516666667","6500800","鶯歌區"
"239002","359-BY","2018/12/03 18:29:25","新北市鶯歌區中正一路460號","121.364296666667","24.9564","6500800","鶯歌區"
"239004","193-VK","2018/12/03 18:29:35","新北市鶯歌區尖山路258巷23號","121.341955","24.946885","6500800","鶯歌區"
"221008","489-VK","2018/12/03 18:29:25","新北市汐止區康寧街901號","121.651371666667","25.0750216666667","6501100","汐止區"
"221036","130-UY","2018/12/03 18:29:22","新北市汐止區南昌街31號","121.663128333333","25.069175","6501100","汐止區"
"221015","131-UY","2018/12/03 18:29:29","新北市汐止區鄉長路二段23巷1號","121.667141666667","25.08251","6501100","汐止區"
"221010","269-BY","2018/12/03 18:29:29","新北市汐止區汐萬路三段252巷3號","121.64411","25.1046233333333","6501100","汐止區"
"221012","278-VK","2018/12/03 18:29:35","新北市汐止區保長路51巷1號","121.67321","25.0789183333333","6501100","汐止區"
"221023","279-VK","2018/12/03 18:29:18","新北市汐止區康寧街418-1號","121.630501666667","25.0680283333333","6501100","汐止區"
"221032","280-BY","2018/12/03 18:29:34","新北市汐止區民權街二段109巷18號","121.619658333333","25.046625","6501100","汐止區"
"221027","281-BY","2018/12/03 18:29:14","新北市汐止區和平街46巷24號","121.662541666667","25.0719816666667","6501100","汐止區"
"221029","298-VK","2018/12/03 18:29:28","新北市汐止區樟樹一路272-4號","121.642673333333","25.0687183333333","6501100","汐止區"
"221021","299-VK","2018/12/03 18:29:25","新北市汐止區新台五路一段91-2號","121.650161666667","25.06138","6501100","汐止區"
"221031","353-TW","2018/12/03 18:29:24","新北市汐止區光復街7巷29號","121.640105","25.0595433333333","6501100","汐止區"
"221002","129-UY","2018/12/03 18:29:36","新北市汐止區福德一路149號","121.63656","25.0667316666667","6501100","汐止區"
"221035","622-UM","2018/12/03 18:29:31","新北市汐止區大同路二段91號","121.649151666667","25.0628333333333","6501100","汐止區"
"221025","623-UM","2018/12/03 18:29:29","新北市汐止區仁愛路122巷18號","121.663388333333","25.0632183333333","6501100","汐止區"
"221038","646-BX","2018/12/03 18:29:34","新北市汐止區忠孝東路254號","121.662951666667","25.0674366666667","6501100","汐止區"
"221033","647-BX","2018/12/03 18:29:31","新北市汐止區宜興街8號","121.621181666667","25.041405","6501100","汐止區"
"221018","753-BX","2018/12/03 18:29:31","新北市汐止區茄苳路212號","121.670696666667","25.0688083333333","6501100","汐止區"
"220079","145-BY","2018/12/03 18:29:22","新北市板橋區華東街1-9號","121.447965","24.9949733333333","6500100","板橋區"
"220082","610-BX","2018/12/03 18:29:27","新北市板橋區華東街1-9號","121.44824","24.9948866666667","6500100","板橋區"
"224002","257-TC","2018/12/03 18:29:35","新北市瑞芳區三爪子坑路29巷27號","121.813715","25.1067933333333","6501200","瑞芳區"
"220056","276-BY","2018/12/03 18:29:21","新北市板橋區華東街1-10號","121.448533333333","24.9949116666667","6500100","板橋區"
"220094","283-UM","2018/12/03 18:29:15","新北市板橋區民生路二段161巷1號","121.470151666667","25.01983","6500100","板橋區"
"220071","283-VK","2018/12/03 18:29:25","新北市板橋區華東街1-9號","121.448081666667","24.994875","6500100","板橋區"
"220083","286-VK","2018/12/03 18:29:23","新北市板橋區華東街1-10號","121.448335","24.9950716666667","6500100","板橋區"
"220081","287-VK","2018/12/03 18:29:22","新北市板橋區華東街1-10號","121.448271666667","24.99498","6500100","板橋區"
"220084","296-UM","2018/12/03 18:29:35","新北市板橋區華東街1-9號","121.44813","24.9949616666667","6500100","板橋區"
"242042","281-VK","2018/12/03 18:29:22","新北市新莊區天祥街53號","121.414821666667","25.03044","6500500","新莊區"
"220062","305-R5","2018/12/03 18:29:33","新北市板橋區民生路二段120號","121.470393333333","25.019645","6500100","板橋區"
"220035","560-BX","2018/12/03 18:29:14","新北市板橋區南雅南路二段1-1號","121.454688333333","25.0038266666667","6500100","板橋區"
"220077","687-BX","2018/12/03 18:29:33","新北市板橋區華東街1-10號","121.448333333333","24.9950083333333","6500100","板橋區"
"220054","741-BX","2018/12/03 18:29:23","新北市板橋區華東街1-9號","121.44809","24.9948766666667","6500100","板橋區"
"220055","827-TW","2018/12/03 18:29:37","新北市板橋區南雅南路二段144巷1號","121.451511666667","24.9961083333333","6500100","板橋區"
"220074","895-R6","2018/12/03 18:29:23","新北市板橋區華東街1-10號","121.448231666667","24.9949833333333","6500100","板橋區"
"220073","985-R7","2018/12/03 18:29:30","新北市板橋區四川路二段橋頭6號","121.44831","24.9940033333333","6500100","板橋區"
"220064","AAC-253","2018/12/03 18:29:22","新北市板橋區華東街330號","121.453061666667","25.00364","6500100","板橋區"
"235068","KEA-2873","2018/12/03 18:29:12","新北市中和區錦和路203巷15號","121.491431666667","24.9906616666667","6500300","中和區"
"235061","KEA-2875","2018/12/03 18:29:15","新北市中和區莒光路175-3號","121.472766666667","24.9994716666667","6500300","中和區"
