"lineid","car","time","location","longitude","latitude","cityid","cityname"
"234046","148-BY","2018/12/03 19:09:22","新北市永和區永元路18巷12弄2號","121.523033333333","25.0002383333333","6500400","永和區"
"234007","207-UY","2018/12/03 19:09:28","新北市永和區中山路一段271號","121.507158333333","25.0072416666667","6500400","永和區"
"234081","298-R6","2018/12/03 19:09:36","新北市永和區永亨路61號","121.52106","25.0060816666667","6500400","永和區"
"234038","336-UY","2018/12/03 19:09:24","新北市永和區民樂街71巷1號","121.527431666667","24.9975416666667","6500400","永和區"
"234064","337-UY","2018/12/03 19:09:24","新北市永和區秀朗路二段28號","121.52096","25.002645","6500400","永和區"
"234070","552-UM","2018/12/03 19:09:34","新北市永和區豫溪街137巷1弄11號","121.519173333333","25.0104433333333","6500400","永和區"
"234017","745-BX","2018/12/03 19:09:19","新北市永和區忠孝街27號","121.513923333333","25.0155766666667","6500400","永和區"
"234030","746-BX","2018/12/03 19:09:26","新北市永和區民生路29號","121.522825","24.9984266666667","6500400","永和區"
"234054","KEA-2590","2018/12/03 19:09:24","新北市永和區竹林路86號","121.519395","25.0127033333333","6500400","永和區"
"234013","KEA-2591","2018/12/03 19:09:31","新北市永和區中山路一段50號","121.513225","25.0106216666667","6500400","永和區"
"234061","AAD-866","2018/12/03 19:09:23","新北市永和區安樂路306號","121.514413333333","25.0053383333333","6500400","永和區"
"234086","748-BX","2018/12/03 19:09:15","新北市永和區永貞路140號","121.518205","25.00448","6500400","永和區"
"234042","862-TW","2018/12/03 19:09:32","新北市永和區保平路210號","121.509983333333","25.0060033333333","6500400","永和區"
"234050","863-TW","2018/12/03 19:09:33","新北市永和區文化路135巷8號","121.51087","25.0156583333333","6500400","永和區"
"234026","9372-KE","2018/12/03 19:09:20","新北市永和區安樂路272巷11號","121.514935","25.0042666666667","6500400","永和區"
"234011","9373-KE","2018/12/03 19:09:16","新北市永和區仁愛路141巷30弄22號","121.51227","25.0114716666667","6500400","永和區"
"249005","172-UM","2018/12/03 19:09:15","新北市八里區中華路三段101號","121.39316","25.138835","6502300","八里區"
"249001","173-UM","2018/12/03 19:09:17","新北市八里區龍米路二段236-3號","121.431513333333","25.1585816666667","6502300","八里區"
"249003","593-UM","2018/12/03 19:09:24","新北市八里區博物館路90號","121.409638333333","25.1598416666667","6502300","八里區"
"248016","026-BX","2018/12/03 19:09:32","新北市五股區成泰路三段543巷54號","121.449633333333","25.1030566666667","6501500","五股區"
"248008","095-VK","2018/12/03 19:09:34","新北市五股區中興路二段37巷26號","121.46059","25.0750366666667","6501500","五股區"
"248018","225-UY","2018/12/03 19:09:21","新北市五股區民義路一段287巷2-6號","121.423518333333","25.090435","6501500","五股區"
"248012","247-BX","2018/12/03 19:09:34","新北市五股區中興路四段48巷16號","121.438618333333","25.0834416666667","6501500","五股區"
"248004","677-BX","2018/12/03 19:09:22","新北市五股區工商路148-2號","121.433611666667","25.0871433333333","6501500","五股區"
"248002","678-BX","2018/12/03 19:09:24","新北市五股區凌雲路一段158巷6號","121.447783333333","25.10271","6501500","五股區"
"248010","682-TV","2018/12/03 19:09:35","新北市五股區自強路90巷72號","121.430705","25.0712683333333","6501500","五股區"
"234023","9380-KE","2018/12/03 19:09:33","新北市永和區中興街10巷17號","121.515826666667","25.0111683333333","6500400","永和區"
"234077","969-R7","2018/12/03 19:09:18","新北市永和區民權路34號","121.520188333333","24.9988833333333","6500400","永和區"
"234074","AAC-211","2018/12/03 19:09:23","新北市永和區福和路71號","121.522643333333","25.0078633333333","6500400","永和區"
"234067","AAC-212","2018/12/03 19:09:34","新北市永和區保平路33號","121.5121","25.0072083333333","6500400","永和區"
"234003","AAC-295","2018/12/03 19:09:26","新北市永和區保福路一段72號","121.512465","25.01008","6500400","永和區"
"244023","069-UM","2018/12/03 19:09:14","新北市林口區文林六街62巷46號","121.371435","25.0820833333333","6501700","林口區"
"244019","402-UM","2018/12/03 19:09:33","新北市林口區文化一路二段2號","121.380076666667","25.0765783333333","6501700","林口區"
"244013","KEA-2802","2018/12/03 19:09:17","新北市林口區麗園一街4巷1號","121.376478333333","25.0712983333333","6501700","林口區"
"244017","485-VK","2018/12/03 19:09:29","新北市林口區公園路94號","121.369645","25.0705283333333","6501700","林口區"
"244011","701-TV","2018/12/03 19:09:25","新北市林口區中正路264巷11號","121.389031666667","25.0781","6501700","林口區"
"244025","837-TS","2018/12/03 19:09:28","新北市林口區民族路181號","121.36725","25.0766283333333","6501700","林口區"
"243013","AAD-798","2018/12/03 19:09:30","新北市泰山區明志路三段277號","121.423201666667","25.0367783333333","6501600","泰山區"
"243009","297-R6","2018/12/03 19:09:21","新北市泰山區明志路一段117巷7號","121.434","25.0634166666667","6501600","泰山區"
"243016","KEA-2801","2018/12/03 19:09:24","新北市泰山區明志路二段341號","121.425538333333","25.04474","6501600","泰山區"
"243015","421-VK","2018/12/03 19:09:36","新北市泰山區明志路一段487號","121.430628333333","25.0553333333333","6501600","泰山區"
"243011","KEA-2215","2018/12/03 19:09:37","新北市泰山區明志路二段374號","121.425363333333","25.0449183333333","6501600","泰山區"
"243010","KEA-2216","2018/12/03 19:09:26","新北市泰山區明志路一段483巷1弄2號","121.43114","25.0553333333333","6501600","泰山區"
"243012","646-TV","2018/12/03 19:09:32","新北市泰山區辭修路36巷1弄7號","121.428253333333","25.0581383333333","6501600","泰山區"
"243014","680-BX","2018/12/03 19:09:32","新北市泰山區泰林路二段282號","121.431265","25.06253","6501600","泰山區"
"222002","016-RS","2018/12/03 19:09:24","新北市深坑區北深路一段199號","121.63086","25.0094916666667","6501800","深坑區"
"222003","436-BY","2018/12/03 19:09:14","新北市深坑區深南路162號","121.626091666667","25.0149783333333","6501800","深坑區"
"231041","002-UM","2018/12/03 19:09:24","新北市新店區溪園路393號","121.524313333333","24.9790166666667","6500600","新店區"
"231059","046-UY","2018/12/03 19:09:23","新北市新店區安康路一段351-1號","121.519421666667","24.9640233333333","6500600","新店區"
"231040","047-UY","2018/12/03 19:09:30","新北市新店區三民路155-1號","121.533883333333","24.9734016666667","6500600","新店區"
"231044","106-UY","2018/12/03 19:09:29","新北市新店區中興路三段176號","121.544163333333","24.9810516666667","6500600","新店區"
"231046","107-UY","2018/12/03 19:09:24","新北市新店區華潭街20號","121.529385","24.9524716666667","6500600","新店區"
"231052","108-UY","2018/12/03 19:09:19","新北市新店區屈尺路168號","121.545111666667","24.9236216666667","6500600","新店區"
"231062","110-UY","2018/12/03 19:09:21","新北市新店區吉安街9號","121.516748333333","24.96569","6500600","新店區"
"231047","187-VK","2018/12/03 19:09:21","新北市新店區德正街27巷29弄76號","121.545826666667","24.9732566666667","6500600","新店區"
"231051","188-VK","2018/12/03 19:09:35","新北市新店區中正路382巷11號","121.535265","24.9777216666667","6500600","新店區"
"231054","KEA-2219","2018/12/03 19:09:33","新北市新店區新店路144號","121.537136666667","24.9553066666667","6500600","新店區"
"231042","268-BY","2018/12/03 19:09:31","新北市新店區中興路一段203號","121.54364","24.9656516666667","6500600","新店區"
"231050","AAD-862","2018/12/03 19:09:17","新北市新店區竹林路26巷50號","121.551675","24.95046","6500600","新店區"
"231058","3713-VJ","2018/12/03 19:09:30","新北市新店區光明街94號","121.538958333333","24.9603083333333","6500600","新店區"
"231066","4716-K9","2018/12/03 19:09:32","新北市新店區安康路二段406號","121.49682","24.9553016666667","6500600","新店區"
"231056","4715-K9","2018/12/03 19:09:32","新北市新店區民權路107-2號","121.536398333333","24.9821616666667","6500600","新店區"
"231067","4772-VM","2018/12/03 19:09:25","新北市新店區安康路一段263巷23號","121.523963333333","24.9616866666667","6500600","新店區"
"231065","512-UM","2018/12/03 19:09:29","新北市新店區安祥路111號","121.475565","24.9567783333333","6500600","新店區"
"231049","513-UM","2018/12/03 19:09:31","新北市新店區二十張路25巷16號","121.539116666667","24.9821066666667","6500600","新店區"
"231063","616-UM","2018/12/03 19:09:24","新北市新店區車子路121號","121.50538","24.9511983333333","6500600","新店區"
"231045","617-UM","2018/12/03 19:09:23","新北市新店區北宜路一段123-1號","121.54054","24.9535266666667","6500600","新店區"
"231061","619-UM","2018/12/03 19:09:25","新北市新店區安康路一段226號","121.523463333333","24.9635916666667","6500600","新店區"
"231064","719-UM","2018/12/03 19:09:34","新北市新店區安忠路56巷6號","121.512968333333","24.9593916666667","6500600","新店區"
"231060","897-TW","2018/12/03 19:09:25","新北市新店區安康路二段356號","121.50221","24.95743","6500600","新店區"
"231043","898-TW","2018/12/03 19:09:21","新北市新店區寶橋路98號","121.546793333333","24.9758166666667","6500600","新店區"
"231055","AKT-0513","2018/12/03 19:09:19","新北市新店區溪園路365-8號","121.521705","24.9807916666667","6500600","新店區"
"241011","013-R5","2018/12/03 19:09:27","新北市三重區河邊北街100巷26號","121.502796666667","25.0701616666667","6500200","三重區"
"241022","060-VK","2018/12/03 19:09:32","新北市三重區三民街155巷9號","121.484418333333","25.0648066666667","6500200","三重區"
"251014","742-BX","2018/12/03 19:09:36","新北市淡水區小中寮19-7號","121.48476","25.2295366666667","6501000","淡水區"
"241035","KEA-2210","2018/12/03 19:09:30","新北市三重區信義西街138號","121.495458333333","25.0643533333333","6500200","三重區"
"241029","942-UM","2018/12/03 19:09:18","新北市三重區集美街263號","121.492448333333","25.0557183333333","6500200","三重區"
"235066","003-UY","2018/12/03 19:09:36","新北市中和區廣福路14號","121.505311666667","25.00265","6500300","中和區"
"235064","005-UY","2018/12/03 19:09:31","新北市中和區泰和街38巷30號","121.498548333333","25.0012383333333","6500300","中和區"
"235063","006-UY","2018/12/03 19:09:34","新北市中和區連城路249巷19弄1號","121.49389","24.9963616666667","6500300","中和區"
"235056","096-UM","2018/12/03 19:09:20","新北市中和區員山路534號","121.478926666667","25.0099083333333","6500300","中和區"
"235039","097-UM","2018/12/03 19:09:24","新北市中和區秀朗路三段177號","121.524315","24.9909266666667","6500300","中和區"
"235065","098-UM","2018/12/03 19:09:20","新北市中和區勝利路11號","121.499678333333","25.0080416666667","6500300","中和區"
"235040","150-BY","2018/12/03 19:09:23","新北市中和區宜安路63號","121.511471666667","24.996985","6500300","中和區"
"235058","151-BY","2018/12/03 19:09:20","新北市中和區連城路374巷9號","121.48137","24.9957283333333","6500300","中和區"
"235055","183-VK","2018/12/03 19:09:30","新北市中和區德光路26號","121.47075","25.0043116666667","6500300","中和區"
"235038","185-VK","2018/12/03 19:09:33","新北市中和區大仁街10巷27弄4號","121.519215","24.9927183333333","6500300","中和區"
"235049","186-VK","2018/12/03 19:09:33","新北市中和區明禮街45號","121.504021666667","24.996495","6500300","中和區"
"235067","255-BX","2018/12/03 19:09:34","新北市中和區新生街176巷8號","121.48324","24.999935","6500300","中和區"
"235008","293-VK","2018/12/03 19:09:26","新北市中和區中興街228巷6號","121.500571666667","24.9898516666667","6500300","中和區"
"235072","301-VK","2018/12/03 19:09:29","新北市中和區永和路39巷2號","121.498018333333","25.00499","6500300","中和區"
"235043","352-BY","2018/12/03 19:09:27","新北市中和區景平路148號","121.518301666667","24.9919633333333","6500300","中和區"
"235042","KEA-2878","2018/12/03 19:09:24","新北市中和區自強路15巷8號","121.52077","24.9935066666667","6500300","中和區"
"235050","4979-A6","2018/12/03 19:09:15","新北市中和區南山路415號","121.507138333333","24.9896833333333","6500300","中和區"
"235069","4980-A6","2018/12/03 19:09:24","新北市中和區中和路217巷20號","121.50475","25.00048","6500300","中和區"
"235070","558-UM","2018/12/03 19:09:16","新北市中和區中和路33號","121.499986666667","25.0016266666667","6500300","中和區"
"235045","565-BX","2018/12/03 19:09:20","新北市中和區景新街437巷5號","121.513535","24.9891183333333","6500300","中和區"
"235054","640-BX","2018/12/03 19:09:25","新北市中和區民德路137號","121.468751666667","25.000615","6500300","中和區"
"235060","647-TV","2018/12/03 19:09:28","新北市中和區民有街82號","121.476106666667","25.004155","6500300","中和區"
"235047","732-UM","2018/12/03 19:09:37","新北市中和區興南路一段113號","121.509181666667","24.9879983333333","6500300","中和區"
"235046","733-UM","2018/12/03 19:09:27","新北市中和區忠孝街1巷82號","121.508236666667","24.9849233333333","6500300","中和區"
"235071","783-BX","2018/12/03 19:09:30","新北市中和區連城路316號","121.483493333333","24.9961116666667","6500300","中和區"
"235062","800-TS","2018/12/03 19:09:17","新北市中和區中山路二段526巷15弄3號","121.48547","25.0053466666667","6500300","中和區"
"235057","801-TS","2018/12/03 19:09:15","新北市中和區民利街87號","121.478206666667","24.9981","6500300","中和區"
"235041","802-TS","2018/12/03 19:09:28","新北市中和區景安路2號","121.507793333333","24.9990183333333","6500300","中和區"
"235052","805-TS","2018/12/03 19:09:20","新北市中和區興南路二段142巷23號","121.503133333333","24.9837883333333","6500300","中和區"
"235048","896-TW","2018/12/03 19:09:31","新北市中和區忠孝街28號","121.510588333333","24.983075","6500300","中和區"
"235053","900-TW","2018/12/03 19:09:32","新北市中和區華福街86號","121.467463333333","24.9964733333333","6500300","中和區"
"235051","157-BY","2018/12/03 19:09:21","新北市中和區忠孝街31巷56號","121.509746666667","24.98565","6500300","中和區"
"235037","AAC-213","2018/12/03 19:09:18","新北市中和區秀朗路三段60巷42號","121.524966666667","24.9948933333333","6500300","中和區"
"235059","AAC-215","2018/12/03 19:09:31","新北市中和區圓通路294巷17-5號","121.488588333333","24.9904033333333","6500300","中和區"
"220065","072-UY","2018/12/03 19:09:29","新北市板橋區民族路273巷20號","121.470635","25.0074483333333","6500100","板橋區"
"220086","073-UY","2018/12/03 19:09:28","新北市板橋區中正路216巷150弄8號","121.460738333333","25.01911","6500100","板橋區"
"220106","075-UY","2018/12/03 19:09:34","新北市板橋區雙十路三段15號","121.471","25.0312333333333","6500100","板橋區"
"220069","AAD-861","2018/12/03 19:09:21","新北市板橋區華興街29號","121.458446666667","25.0045066666667","6500100","板橋區"
"226004","312-R5","2018/12/03 19:09:36","新北市平溪區嶺腳里嶺腳寮13號","121.747948333333","25.0299","6502400","平溪區"
"228003","097-TW","2018/12/03 19:09:21","新北市貢寮區和美里和美街37號","121.912286666667","25.0870183333333","6502600","貢寮區"
"228002","585-TW","2018/12/03 19:09:31","新北市貢寮區福隆里福隆街36號","121.945151666667","25.01744","6502600","貢寮區"
"228001","670-TC","2018/12/03 19:09:32","新北市貢寮區真理里新港街10號","121.925533333333","25.0543733333333","6502600","貢寮區"
"224010","AGQ-8101","2018/12/03 19:09:26","新北市瑞芳區金光路334號","121.848391666667","25.1097666666667","6501200","瑞芳區"
"224006","676-BX","2018/12/03 19:09:31","新北市瑞芳區中山路78號","121.80259","25.10646","6501200","瑞芳區"
"224008","285-BY","2018/12/03 19:09:20","新北市瑞芳區逢甲路357-1號","121.797216666667","25.1124616666667","6501200","瑞芳區"
"224007","275-VK","2018/12/03 19:09:27","新北市瑞芳區瑞竹路46號","121.763465","25.1033433333333","6501200","瑞芳區"
"224009","273-VK","2018/12/03 19:09:27","新北市瑞芳區洞頂路124號","121.86043","25.11879","6501200","瑞芳區"
"227001","642-TC","2018/12/03 19:09:31","新北市雙溪區平林里外平林9-5號","121.859166666667","25.0380183333333","6502500","雙溪區"
"227008","400-TW","2018/12/03 19:09:30","新北市雙溪區牡丹里中正路38號","121.864731666667","25.0384166666667","6502500","雙溪區"
"253006","032-BX","2018/12/03 19:09:35","新北市石門區八甲3-2號","121.521211666667","25.283755","6502200","石門區"
"253005","295-VK","2018/12/03 19:09:17","新北市石門區阿里荖42-1號","121.602625","25.2858416666667","6502200","石門區"
"222001","KEA-2212","2018/12/03 19:09:37","新北市深坑區北深路一段300號","121.624221666667","25.00587","6501800","深坑區"
"208002","KEA-2872","2018/12/03 19:09:17","新北市金山區中正路67號","121.633895","25.2216966666667","6502700","金山區"
"208003","665-BX","2018/12/03 19:09:30","新北市金山區中正路59號","121.634233333333","25.2219016666667","6502700","金山區"
"208001","761-BX","2018/12/03 19:09:22","新北市金山區金包里街68號","121.639026666667","25.22143","6502700","金山區"
"251009","008-UM","2018/12/03 19:09:17","新北市淡水區清水街147-2號","121.440218333333","25.1716216666667","6501000","淡水區"
"251005","010-UM","2018/12/03 19:09:24","新北市淡水區原德路11號","121.44211","25.1712666666667","6501000","淡水區"
"251001","011-UM","2018/12/03 19:09:27","新北市淡水區自強路201巷39號","121.462135","25.126795","6501000","淡水區"
"251013","KEA-2871","2018/12/03 19:09:36","新北市淡水區安子內12-1號","121.4815","25.2191116666667","6501000","淡水區"
"251016","179-VK","2018/12/03 19:09:18","新北市淡水區淡金路三段348號","121.449793333333","25.2088616666667","6501000","淡水區"
"251015","182-VK","2018/12/03 19:09:23","新北市淡水區南勢埔14-1號","121.48217","25.180275","6501000","淡水區"
"251010","413-VK","2018/12/03 19:09:24","新北市淡水區中正路一段156巷3號","121.421253333333","25.180255","6501000","淡水區"
"251004","443-VK","2018/12/03 18:55:09","新北市淡水區中正東路二段143巷2弄1號","121.46057","25.1472566666667","6501000","淡水區"
"251007","577-R6","2018/12/03 19:09:17","新北市淡水區民生路145巷58號","121.468003333333","25.1387616666667","6501000","淡水區"
"251002","672-BX","2018/12/03 19:09:27","新北市淡水區中山路95巷2-3號","121.441993333333","25.1705666666667","6501000","淡水區"
"251003","766-UM","2018/12/03 19:09:22","新北市淡水區中山北路一段96號","121.442528333333","25.1764366666667","6501000","淡水區"
"207003","550-UM","2018/12/03 19:09:30","新北市萬里區大鵬里萬里加投15-2號","121.650461666667","25.209285","6502800","萬里區"
"207004","225-TW","2018/12/03 19:09:34","新北市萬里區萬里里瑪鋉下街50-1號","121.691551666667","25.1793983333333","6502800","萬里區"
"252002","178-VK","2018/12/03 19:09:24","新北市三芝區埔坪里埔頭坑77號","121.509308333333","25.2544216666667","6502100","三芝區"
"252003","249-BX","2018/12/03 19:09:16","新北市三芝區錫板里南勢崗7號","121.47942","25.2618283333333","6502100","三芝區"
"252001","292-VK","2018/12/03 19:09:23","新北市三芝區長勤街82號","121.500268333333","25.2551033333333","6502100","三芝區"
"237007","153-BY","2018/12/03 19:09:29","新北市三峽區中正路二段42巷12-1號","121.364101666667","24.92069","6500900","三峽區"
"237013","252-BX","2018/12/03 19:09:30","新北市三峽區光明路69巷25號","121.376813333333","24.9291933333333","6500900","三峽區"
"237012","275-BY","2018/12/03 19:09:35","新北市三峽區三樹路222巷236弄23號","121.391378333333","24.9430766666667","6500900","三峽區"
"237008","302-VK","2018/12/03 19:09:31","新北市三峽區大同路93號","121.374751666667","24.9270816666667","6500900","三峽區"
"237006","5529-G3","2018/12/03 19:09:28","新北市三峽區溪東路102號","121.403143333333","24.9340233333333","6500900","三峽區"
"237011","KEA-2596","2018/12/03 19:09:17","新北市三峽區介壽路三段132號","121.400001666667","24.9426583333333","6500900","三峽區"
"237015","649-BX","2018/12/03 19:09:24","新北市三峽區建安80-2號","121.451478333333","24.92309","6500900","三峽區"
"237010","706-TV","2018/12/03 19:09:35","新北市三峽區國光街362號","121.370993333333","24.9398333333333","6500900","三峽區"
"237005","AKY-6261","2018/12/03 19:09:21","新北市三峽區中山路459巷163-3號","121.348646666667","24.9328883333333","6500900","三峽區"
"236069","105-UM","2018/12/03 19:09:25","新北市土城區裕生路84巷2號","121.447305","24.9853916666667","6501300","土城區"
"236042","KED-0685","2018/12/03 19:09:20","新北市土城區學府路一段239號","121.450415","24.9833716666667","6501300","土城區"
"236078","166-UM","2018/12/03 19:09:31","新北市土城區龍泉路43-2號","121.418431666667","24.9434083333333","6501300","土城區"
"236026","269-VK","2018/12/03 19:09:20","新北市土城區中央路二段214號","121.441963333333","24.97553","6501300","土城區"
"236014","270-VK","2018/12/03 19:09:33","新北市土城區學府路一段73號","121.45697","24.9880966666667","6501300","土城區"
"236020","401-BY","2018/12/03 19:09:34","新北市土城區延峰街34巷2號","121.469495","24.9849566666667","6501300","土城區"
"236059","912-UM","2018/12/03 19:09:24","新北市土城區金城路一段49號","121.44118","24.9697416666667","6501300","土城區"
"236048","913-UM","2018/12/03 19:09:18","新北市土城區明德路一段365-1號","121.453683333333","24.9790733333333","6501300","土城區"
"242013","173-VK","2018/12/03 19:09:32","新北市新莊區三和路12-21號","121.44193","25.0387666666667","6500500","新莊區"
"238023","601-UM","2018/12/03 19:09:33","新北市樹林區三興路50號","121.39453","25.0144366666667","6500700","樹林區"
"238019","599-UM","2018/12/03 19:09:31","新北市樹林區東華街83號","121.415743333333","24.98082","6500700","樹林區"
"238024","5061-A6","2018/12/03 19:09:27","新北市樹林區中山路二段249巷21號","121.402783333333","24.975605","6500700","樹林區"
"238022","KEA-2213","2018/12/03 19:08:46","新北市樹林區中山路二段151巷6弄1號","121.406791666667","24.97839","6500700","樹林區"
"238021","KEA-2539","2018/12/03 19:09:31","新北市樹林區柑園街二段371號","121.368498333333","24.94884","6500700","樹林區"
"238025","303-VK","2018/12/03 19:09:23","新北市樹林區中山路三段166號","121.389196666667","24.97021","6500700","樹林區"
"238017","283-BY","2018/12/03 19:09:32","新北市樹林區保安街一段265號","121.419456666667","24.9969916666667","6500700","樹林區"
"238014","282-BY","2018/12/03 19:09:30","新北市樹林區千歲街63-14號","121.427025","24.9986666666667","6500700","樹林區"
"238020","268-VK","2018/12/03 19:09:35","新北市樹林區俊英街133巷18號","121.42363","25.01113","6500700","樹林區"
"238026","172-UY","2018/12/03 19:09:15","新北市樹林區德和街46號","121.389745","24.9796683333333","6500700","樹林區"
"238016","169-UY","2018/12/03 19:09:24","新北市樹林區復興路308巷2弄2號","121.416715","24.9873466666667","6500700","樹林區"
"239006","891-R6","2018/12/03 19:09:22","新北市鶯歌區鶯桃路296巷102號","121.33709","24.9622416666667","6500800","鶯歌區"
"239008","527-UM","2018/12/03 19:09:22","新北市鶯歌區國際二路8巷15號","121.33862","24.97421","6500800","鶯歌區"
"239005","526-UM","2018/12/03 19:09:17","新北市鶯歌區鳳吉一街101號","121.327368333333","24.97449","6500800","鶯歌區"
"239001","417-VK","2018/12/03 19:09:15","新北市鶯歌區永安街27號","121.337696666667","24.9558966666667","6500800","鶯歌區"
"239003","360-BY","2018/12/03 19:09:29","新北市鶯歌區德昌二街127號","121.332883333333","24.955965","6500800","鶯歌區"
"239002","359-BY","2018/12/03 19:09:25","新北市鶯歌區大湖路351號","121.338676666667","24.971325","6500800","鶯歌區"
"239004","193-VK","2018/12/03 19:09:35","新北市鶯歌區二甲路106巷2號","121.333901666667","24.9313166666667","6500800","鶯歌區"
"221008","489-VK","2018/12/03 19:09:25","新北市汐止區康寧街426號","121.63077","25.0680816666667","6501100","汐止區"
"221036","130-UY","2018/12/03 19:09:22","新北市汐止區康寧街901號","121.651721666667","25.0749316666667","6501100","汐止區"
"221015","131-UY","2018/12/03 19:09:28","新北市汐止區鄉長路一段37號","121.665288333333","25.0749416666667","6501100","汐止區"
"221010","269-BY","2018/12/03 19:09:26","新北市汐止區康寧街901號","121.651296666667","25.07515","6501100","汐止區"
"221012","278-VK","2018/12/03 19:09:35","新北市汐止區康寧街901號","121.650746666667","25.0752283333333","6501100","汐止區"
"221023","279-VK","2018/12/03 19:09:18","新北市汐止區康寧街901號","121.651716666667","25.0749466666667","6501100","汐止區"
"221032","280-BY","2018/12/03 19:09:34","新北市汐止區橫科路403巷18號","121.625095","25.0474883333333","6501100","汐止區"
"221027","281-BY","2018/12/03 19:09:34","新北市汐止區康寧街901號","121.650796666667","25.0752466666667","6501100","汐止區"
"221029","298-VK","2018/12/03 19:09:28","新北市汐止區汐萬路一段256巷1號","121.65186","25.0747833333333","6501100","汐止區"
"221021","299-VK","2018/12/03 19:09:25","新北市汐止區康寧街901號","121.651505","25.0750283333333","6501100","汐止區"
"221031","353-TW","2018/12/03 19:09:24","新北市汐止區福德一路2巷1號","121.638906666667","25.069925","6501100","汐止區"
"221002","129-UY","2018/12/03 19:09:36","新北市汐止區大同路一段282號","121.634651666667","25.0576016666667","6501100","汐止區"
"221025","623-UM","2018/12/03 19:09:29","新北市汐止區康寧街901號","121.65159","25.07497","6501100","汐止區"
"221038","646-BX","2018/12/03 19:09:34","新北市汐止區汐萬路一段312號","121.65062","25.07537","6501100","汐止區"
"220079","145-BY","2018/12/03 19:09:20","新北市板橋區民權路202巷1弄2號","121.459498333333","25.014195","6500100","板橋區"
"220080","200-UY","2018/12/03 19:09:29","新北市板橋區大觀路二段3巷21號","121.44814","25.00385","6500100","板橋區"
"220082","610-BX","2018/12/03 19:09:27","新北市板橋區溪崑二街63號","121.4281","24.9904","6500100","板橋區"
"220101","245-BX","2018/12/03 19:09:32","新北市板橋區雙十路二段47巷37號","121.474975","25.0254016666667","6500100","板橋區"
"220056","276-BY","2018/12/03 19:09:21","新北市土城區廣福街106號","121.456666666667","24.992355","6500100","板橋區"
"220072","277-BY","2018/12/03 19:09:26","新北市板橋區金門街258-1號","121.430015","24.9866866666667","6500100","板橋區"
"220094","283-UM","2018/12/03 19:09:36","新北市板橋區光武街136巷7號","121.465646666667","25.030115","6500100","板橋區"
"220071","283-VK","2018/12/03 19:09:25","新北市板橋區忠孝路154巷46號","121.464136666667","25.00143","6500100","板橋區"
"220053","285-VK","2018/12/03 19:09:18","新北市板橋區懷仁街35巷2弄1號","121.4769","25.0196733333333","6500100","板橋區"
"220083","286-VK","2018/12/03 19:09:23","新北市板橋區大觀路二段174巷176弄8號","121.442485","25.00333","6500100","板橋區"
"220081","287-VK","2018/12/03 19:09:22","新北市板橋區南雅西路二段156巷2號","121.451725","25.013385","6500100","板橋區"
"220090","288-VK","2018/12/03 19:09:37","新北市板橋區長江路一段106巷13弄26號","121.461045","25.0295633333333","6500100","板橋區"
"220061","293-UM","2018/12/03 19:09:33","新北市板橋區三民路二段21巷45號","121.48057","25.01835","6500100","板橋區"
"220084","296-UM","2018/12/03 19:09:35","新北市板橋區溪崑二街16巷6號","121.428515","24.9918166666667","6500100","板橋區"
"220075","303-R5","2018/12/03 19:09:30","新北市板橋區南雅西路一段10巷7弄2號","121.454565","25.0047033333333","6500100","板橋區"
"220062","305-R5","2018/12/03 19:09:33","新北市板橋區三民路二段居仁巷1弄20號","121.479845","25.0135766666667","6500100","板橋區"
"220092","307-R5","2018/12/03 19:09:21","新北市板橋區松江街58號","121.468625","25.0274783333333","6500100","板橋區"
"220098","317-R6","2018/12/03 19:09:34","新北市板橋區民有街8號","121.466458333333","25.0246166666667","6500100","板橋區"
"220089","487-VK","2018/12/03 19:09:38","新北市板橋區文化路一段106號","121.464705","25.0182583333333","6500100","板橋區"
"220088","491-VK","2018/12/03 19:09:31","新北市板橋區雙十路二段189號","121.47375","25.02882","6500100","板橋區"
"220035","560-BX","2018/12/03 19:09:34","新北市板橋區中正路326巷4弄1號","121.454783333333","25.021705","6500100","板橋區"
"220103","561-BX","2018/12/03 19:09:37","新北市板橋區文化路一段188巷11號","121.46649","25.0194416666667","6500100","板橋區"
"220063","609-BX","2018/12/03 19:09:31","新北市板橋區三民路二段161號","121.479236666667","25.0147433333333","6500100","板橋區"
"220091","637-BX","2018/12/03 19:09:27","新北市板橋區縣民大道三段185號","121.47949","25.02473","6500100","板橋區"
"220057","686-BX","2018/12/03 19:09:05","新北市板橋區重慶路346巷8-2號","121.46375","24.99732","6500100","板橋區"
"220077","687-BX","2018/12/03 19:09:33","新北市板橋區大觀路二段183號","121.444868333333","25.0000033333333","6500100","板橋區"
"220093","689-BX","2018/12/03 19:09:31","新北市板橋區文化路一段241號","121.464128333333","25.0178083333333","6500100","板橋區"
"220054","741-BX","2018/12/03 19:09:34","新北市板橋區重慶路62巷5號","121.46143","25.006735","6500100","板橋區"
"220102","KEA-2699","2018/12/03 19:09:25","新北市板橋區田單街51號","121.482688333333","25.0278716666667","6500100","板橋區"
"220055","827-TW","2018/12/03 19:09:37","新北市板橋區新民街13號","121.464005","25.00987","6500100","板橋區"
"220068","830-TW","2018/12/03 19:09:20","新北市板橋區中山路二段443巷52弄2號","121.481151666667","25.0214333333333","6500100","板橋區"
"220067","831-TW","2018/12/03 19:09:36","新北市板橋區長安街222-2號","121.474976666667","25.0122933333333","6500100","板橋區"
"220074","895-R6","2018/12/03 19:09:23","新北市板橋區中正路自強新村44號","121.454883333333","25.013825","6500100","板橋區"
"220073","985-R7","2018/12/03 19:09:30","新北市板橋區中正路185-1號","121.456523333333","25.0167866666667","6500100","板橋區"
"220097","AAC-210","2018/12/03 19:09:23","新北市板橋區幸福路60巷27號","121.460655","25.02093","6500100","板橋區"
"220064","AAC-253","2018/12/03 19:09:25","新北市板橋區板新路82號","121.472776666667","25.014425","6500100","板橋區"
"235068","KEA-2873","2018/12/03 19:09:11","新北市中和區圓通路189號","121.497335","24.9945583333333","6500300","中和區"
"235061","KEA-2875","2018/12/03 19:09:15","新北市中和區中山路三段179巷10號","121.473511666667","25.00567","6500300","中和區"
