"lineid","car","time","location","longitude","latitude","cityid","cityname"
"234046","148-BY","2018/12/03 19:39:23","新北市永和區秀朗路二段90號","121.52349","25.0016383333333","6500400","永和區"
"234007","207-UY","2018/12/03 19:39:28","新北市中和區中和路402-3號","121.511305","25.00279","6500400","永和區"
"234081","298-R6","2018/12/03 19:39:26","新北市永和區林森路20巷7號","121.525873333333","25.0056333333333","6500400","永和區"
"234038","336-UY","2018/12/03 19:39:24","新北市永和區民樂街20號","121.527596666667","25.0019683333333","6500400","永和區"
"234064","337-UY","2018/12/03 19:39:24","新北市永和區秀朗路一段192巷6弄12號","121.519046666667","25.0023016666667","6500400","永和區"
"234070","552-UM","2018/12/03 19:39:34","新北市永和區永和路二段234號","121.515813333333","25.0145183333333","6500400","永和區"
"234017","745-BX","2018/12/03 19:39:20","新北市永和區永和路二段425巷64號","121.513595","25.0172466666667","6500400","永和區"
"234030","746-BX","2018/12/03 19:39:27","新北市永和區民生路37巷18號","121.523675","24.9980066666667","6500400","永和區"
"234054","KEA-2590","2018/12/03 19:39:34","新北市永和區竹林路41號","121.518041666667","25.01429","6500400","永和區"
"234013","KEA-2591","2018/12/03 19:39:31","新北市永和區永平路220號","121.509083333333","25.010515","6500400","永和區"
"234061","AAD-866","2018/12/03 19:39:23","新北市永和區中正路291號","121.517531666667","25.001465","6500400","永和區"
"234086","748-BX","2018/12/03 19:39:35","新北市永和區成功路一段38巷11號","121.526331666667","25.00441","6500400","永和區"
"234042","862-TW","2018/12/03 19:39:32","新北市永和區中和路309號","121.506705","24.9996383333333","6500400","永和區"
"234050","863-TW","2018/12/03 19:39:33","新北市永和區保福路二段148號","121.50946","25.0147666666667","6500400","永和區"
"234026","9372-KE","2018/12/03 19:39:19","新北市中和區中和路390號","121.511285","25.00245","6500400","永和區"
"234011","9373-KE","2018/12/03 19:39:36","新北市永和區保生路55-1號","121.504468333333","25.0109066666667","6500400","永和區"
"249004","303-UY","2018/12/03 19:39:25","新北市八里區仁愛路37號","121.41345","25.1606366666667","6502300","八里區"
"249002","305-UY","2018/12/03 19:39:26","新北市八里區頂寮二街35號","121.450213333333","25.1251683333333","6502300","八里區"
"249003","593-UM","2018/12/03 19:39:24","新北市八里區中華路二段540號","121.399013333333","25.1457133333333","6502300","八里區"
"248014","025-BX","2018/12/03 19:39:31","新北市五股區五福路52巷3弄6號","121.433426666667","25.0900783333333","6501500","五股區"
"248016","026-BX","2018/12/03 19:39:32","新北市五股區成泰路四段22巷29-3號","121.455721666667","25.108375","6501500","五股區"
"248008","095-VK","2018/12/03 19:39:34","新北市五股區四維路116-6號","121.468286666667","25.0744533333333","6501500","五股區"
"248018","225-UY","2018/12/03 19:39:21","新北市五股區外寮路3號","121.424816666667","25.0767966666667","6501500","五股區"
"248012","247-BX","2018/12/03 19:39:22","新北市五股區成泰路一段241巷5號","121.436145","25.0809516666667","6501500","五股區"
"248004","677-BX","2018/12/03 19:39:19","新北市五股區成泰路二段78號","121.437365","25.082215","6501500","五股區"
"248002","678-BX","2018/12/03 19:39:24","新北市五股區成泰路三段577巷50號","121.450805","25.1031383333333","6501500","五股區"
"234077","969-R7","2018/12/03 19:39:18","新北市永和區民族街67巷11號","121.51899","24.9972116666667","6500400","永和區"
"234074","AAC-211","2018/12/03 19:39:23","新北市永和區竹林路225巷9號","121.521398333333","25.0085683333333","6500400","永和區"
"234067","AAC-212","2018/12/03 19:39:34","新北市永和區中山路一段191巷9弄10號","121.509966666667","25.00802","6500400","永和區"
"234003","AAC-295","2018/12/03 19:39:26","新北市永和區永和路一段42號","121.513075","25.0055933333333","6500400","永和區"
"244023","069-UM","2018/12/03 19:39:34","新北市林口區仁愛路二段700號","121.369171666667","25.081","6501700","林口區"
"243013","AAD-798","2018/12/03 19:39:30","新北市泰山區應化街7號","121.423888333333","25.0437033333333","6501600","泰山區"
"243009","297-R6","2018/12/03 19:39:20","新北市泰山區美寧街69號","121.430985","25.0647366666667","6501600","泰山區"
"243016","KEA-2801","2018/12/03 19:39:24","新北市泰山區明志路三段427號","121.420876666667","25.0332766666667","6501600","泰山區"
"243015","421-VK","2018/12/03 19:39:23","新北市泰山區明志路二段235號","121.427338333333","25.04821","6501600","泰山區"
"243011","KEA-2215","2018/12/03 19:39:17","新北市泰山區中山路二段566號","121.42837","25.03887","6501600","泰山區"
"243010","KEA-2216","2018/12/03 19:39:26","新北市泰山區民生路33號","121.430856666667","25.0521666666667","6501600","泰山區"
"243012","646-TV","2018/12/03 19:39:32","新北市泰山區仁愛路112號","121.433575","25.05563","6501600","泰山區"
"243014","680-BX","2018/12/03 19:39:32","新北市泰山區泰林路二段33-9號","121.43503","25.0566983333333","6501600","泰山區"
"222002","016-RS","2018/12/03 19:39:24","新北市深坑區北深路一段177號","121.63257","25.0108833333333","6501800","深坑區"
"222003","436-BY","2018/12/03 19:39:34","新北市深坑區深南路51-1號","121.6213","25.0097333333333","6501800","深坑區"
"231041","002-UM","2018/12/03 19:39:24","新北市新店區中正路500-1號","121.53436","24.9819366666667","6500600","新店區"
"231059","046-UY","2018/12/03 19:39:30","新北市新店區安和路三段89號","121.517916666667","24.9839783333333","6500600","新店區"
"231040","047-UY","2018/12/03 19:39:30","新北市新店區中正路75巷71號","121.543078333333","24.9688466666667","6500600","新店區"
"231044","106-UY","2018/12/03 19:39:29","新北市新店區北新路三段175號","121.541113333333","24.9841616666667","6500600","新店區"
"231046","107-UY","2018/12/03 19:39:32","新北市新店區中正路329巷1弄2號","121.535565","24.9748483333333","6500600","新店區"
"231052","108-UY","2018/12/03 19:39:19","新北市新店區新烏路二段495號","121.552478333333","24.9084683333333","6500600","新店區"
"231062","110-UY","2018/12/03 19:39:21","新北市新店區太平路57號","121.532761666667","24.9590266666667","6500600","新店區"
"231047","187-VK","2018/12/03 19:39:21","新北市新店區五峰路63巷8弄6號","121.54678","24.9686866666667","6500600","新店區"
"231051","188-VK","2018/12/03 19:39:35","新北市新店區中央四街47號","121.52781","24.974935","6500600","新店區"
"231054","KEA-2219","2018/12/03 19:39:33","新北市新店區文中路45號","121.539605","24.9566116666667","6500600","新店區"
"231057","256-BX","2018/12/03 19:39:27","新北市新店區橘園一路11號","121.54792","24.9340016666667","6500600","新店區"
"231042","268-BY","2018/12/03 19:39:31","新北市新店區中興路一段188號","121.543346666667","24.9649466666667","6500600","新店區"
"231050","AAD-862","2018/12/03 19:39:17","新北市新店區郵政路1號","121.557678333333","24.952585","6500600","新店區"
"231058","3713-VJ","2018/12/03 19:39:30","新北市新店區寶橋路77號","121.545766666667","24.9752933333333","6500600","新店區"
"231066","4716-K9","2018/12/03 19:39:32","新北市新店區安康路三段195號","121.487966666667","24.9517333333333","6500600","新店區"
"231056","4715-K9","2018/12/03 19:39:32","新北市新店區薏仁坑路2-1號","121.500388333333","24.9578433333333","6500600","新店區"
"231067","4772-VM","2018/12/03 19:39:25","新北市新店區安德街60巷35號","121.511068333333","24.9637583333333","6500600","新店區"
"231065","512-UM","2018/12/03 19:39:29","新北市新店區安祥路109巷77號","121.477688333333","24.9601816666667","6500600","新店區"
"231049","513-UM","2018/12/03 19:39:31","新北市新店區大豐路53號","121.539948333333","24.97979","6500600","新店區"
"231063","616-UM","2018/12/03 19:39:25","新北市新店區達觀路43號","121.503188333333","24.93784","6500600","新店區"
"231045","617-UM","2018/12/03 19:39:23","新北市新店區北宜路二段196-1號","121.559008333333","24.95429","6500600","新店區"
"231061","619-UM","2018/12/03 19:39:25","新北市新店區安民街80號","121.516595","24.9670583333333","6500600","新店區"
"231064","719-UM","2018/12/03 19:39:14","新北市新店區安和路一段52巷2-1號","121.517685","24.96629","6500600","新店區"
"231060","897-TW","2018/12/03 19:39:25","新北市新店區安康路二段196號","121.510793333333","24.9597133333333","6500600","新店區"
"231043","898-TW","2018/12/03 19:39:21","新北市新店區中正路132號","121.542","24.9713583333333","6500600","新店區"
"241011","013-R5","2018/12/03 19:39:27","新北市三重區秀江街213號","121.497456666667","25.0716466666667","6500200","三重區"
"241028","022-UY","2018/12/03 19:39:35","新北市三重區中正南路196號","121.493913333333","25.0559883333333","6500200","三重區"
"241008","059-VK","2018/12/03 19:39:24","新北市三重區永福街123號","121.478973333333","25.0770783333333","6500200","三重區"
"241022","060-VK","2018/12/03 19:39:32","新北市三重區中正北路111-1號","121.485365","25.0654733333333","6500200","三重區"
"241031","061-VK","2018/12/03 19:39:36","新北市三重區重新路四段248號","121.486101666667","25.05346","6500200","三重區"
"241015","062-VK","2018/12/03 19:39:38","新北市三重區福德北路34號","121.50215","25.0651866666667","6500200","三重區"
"241017","063-VK","2018/12/03 19:39:29","新北市三重區大同北路182號","121.49153","25.0658116666667","6500200","三重區"
"241024","065-VK","2018/12/03 19:39:36","新北市三重區大勇街82巷15弄30號","121.481273333333","25.0719666666667","6500200","三重區"
"241003","091-VK","2018/12/03 19:39:18","新北市三重區五華街93巷101號","121.494318333333","25.08524","6500200","三重區"
"251014","742-BX","2018/12/03 19:39:36","新北市淡水區北勢子12號","121.479166666667","25.2318916666667","6501000","淡水區"
"241009","267-UM","2018/12/03 19:39:28","新北市三重區三和路四段400巷34號","121.47982","25.0791616666667","6500200","三重區"
"241032","269-UM","2018/12/03 19:39:28","新北市三重區重陽路一段60巷76號","121.484221666667","25.0581733333333","6500200","三重區"
"241013","270-UM","2018/12/03 19:39:29","新北市三重區仁賢街8號","121.495803333333","25.074625","6500200","三重區"
"241025","271-UM","2018/12/03 19:39:38","新北市三重區忠孝路三段99巷11號","121.479993333333","25.0645933333333","6500200","三重區"
"241007","398-BY","2018/12/03 19:39:20","新北市三重區三和路四段125巷72號","121.48716","25.078595","6500200","三重區"
"241035","KEA-2210","2018/12/03 19:39:30","新北市三重區正義北路61-2號","121.497476666667","25.0645283333333","6500200","三重區"
"241020","478-VK","2018/12/03 19:39:37","新北市三重區自強路三段43巷16號","121.487726666667","25.0730333333333","6500200","三重區"
"241030","480-VK","2018/12/03 19:39:37","新北市三重區新興路30-1號","121.49187","25.0530816666667","6500200","三重區"
"241014","543-UM","2018/12/03 19:39:25","新北市三重區河邊北街82號","121.504211666667","25.0689533333333","6500200","三重區"
"241023","545-UM","2018/12/03 19:39:25","新北市三重區忠孝路三段99巷22號","121.47946","25.06426","6500200","三重區"
"241001","547-UM","2018/12/03 19:39:33","新北市三重區仁愛街315巷18號","121.493296666667","25.0796983333333","6500200","三重區"
"241019","KEA-2593","2018/12/03 19:39:33","新北市三重區六張街194巷1弄13號","121.488111666667","25.06819","6500200","三重區"
"241026","743-BX","2018/12/03 19:39:29","新北市三重區光興街57號","121.498885","25.0601583333333","6500200","三重區"
"241006","887-TS","2018/12/03 19:39:23","新北市三重區聯華街140號","121.484543333333","25.0749216666667","6500200","三重區"
"241012","941-UM","2018/12/03 19:39:34","新北市三重區仁興街33巷15號","121.499536666667","25.07557","6500200","三重區"
"241029","942-UM","2018/12/03 19:39:38","新北市三重區同安街141號","121.4932","25.056045","6500200","三重區"
"235066","003-UY","2018/12/03 19:39:16","新北市中和區中和路196巷11號","121.505086666667","24.99912","6500300","中和區"
"235064","005-UY","2018/12/03 19:39:31","新北市中和區南山路127巷35號","121.503875","24.9976733333333","6500300","中和區"
"235063","006-UY","2018/12/03 19:39:34","新北市中和區連城路263巷7弄2號","121.492271666667","24.9957583333333","6500300","中和區"
"235056","096-UM","2018/12/03 19:39:20","新北市中和區民富街94號","121.476873333333","25.0085616666667","6500300","中和區"
"235039","097-UM","2018/12/03 19:39:24","新北市中和區景平路148號","121.518251666667","24.9919516666667","6500300","中和區"
"235065","098-UM","2018/12/03 19:39:20","新北市中和區中山路二段2巷13弄13號","121.503461666667","25.0065016666667","6500300","中和區"
"235040","150-BY","2018/12/03 19:39:23","新北市中和區宜安路66號","121.511415","24.9971366666667","6500300","中和區"
"235058","151-BY","2018/12/03 19:39:20","新北市中和區員山路124巷7號","121.481741666667","24.996105","6500300","中和區"
"235055","183-VK","2018/12/03 19:39:30","新北市中和區莒光路3巷1號","121.471896666667","25.0061733333333","6500300","中和區"
"235038","185-VK","2018/12/03 19:39:33","新北市中和區自立路20巷1號","121.52224","24.993475","6500300","中和區"
"235049","186-VK","2018/12/03 19:39:33","新北市中和區景新街212號","121.507036666667","24.9951983333333","6500300","中和區"
"235067","255-BX","2018/12/03 19:39:34","新北市中和區新生街231號","121.483826666667","24.9991383333333","6500300","中和區"
"235008","293-VK","2018/12/03 19:39:24","新北市中和區興南路一段103號","121.509458333333","24.9882933333333","6500300","中和區"
"235072","301-VK","2018/12/03 19:39:29","新北市中和區中正路432巷36號","121.490853333333","24.9958233333333","6500300","中和區"
"235043","352-BY","2018/12/03 19:39:27","新北市中和區興南路一段83號","121.509948333333","24.9889866666667","6500300","中和區"
"235042","KEA-2878","2018/12/03 19:39:24","新北市中和區景安路79巷37弄4號","121.507728333333","24.99628","6500300","中和區"
"247012","KEA-2869","2018/12/03 19:39:30","新北市五股區中興路三段163號","121.449373333333","25.0804133333333","6501400","蘆洲區"
"235070","558-UM","2018/12/03 19:39:16","新北市中和區連勝街31號","121.49838","24.997845","6500300","中和區"
"235045","565-BX","2018/12/03 19:39:20","新北市中和區景新街338號","121.512045","24.9906416666667","6500300","中和區"
"235054","640-BX","2018/12/03 19:39:25","新北市中和區民德路62號","121.468728333333","25.0018566666667","6500300","中和區"
"235060","647-TV","2018/12/03 19:39:28","新北市中和區中山路二段580號","121.482673333333","25.00509","6500300","中和區"
"235047","732-UM","2018/12/03 19:39:37","新北市中和區景安路172巷2號","121.504371666667","24.9929516666667","6500300","中和區"
"235046","733-UM","2018/12/03 19:39:27","新北市中和區忠孝街39-15號","121.511898333333","24.9846516666667","6500300","中和區"
"235071","783-BX","2018/12/03 19:39:30","新北市中和區中正路839巷29號","121.48357","25.0024333333333","6500300","中和區"
"235057","801-TS","2018/12/03 19:39:35","新北市中和區員山路168號","121.481331666667","24.99982","6500300","中和區"
"235041","802-TS","2018/12/03 19:39:28","新北市中和區永貞路274-5號","121.513255","25.00387","6500300","中和區"
"235052","805-TS","2018/12/03 19:39:20","新北市中和區華新街143巷100號","121.506746666667","24.9788166666667","6500300","中和區"
"235048","896-TW","2018/12/03 19:39:32","新北市中和區忠孝街1號","121.50893","24.9829916666667","6500300","中和區"
"235053","900-TW","2018/12/03 19:39:32","新北市中和區國光街205巷2號","121.466858333333","25.0019433333333","6500300","中和區"
"235051","157-BY","2018/12/03 19:39:21","新北市中和區南山路253號","121.503745","24.9927983333333","6500300","中和區"
"235037","AAC-213","2018/12/03 19:39:39","新北市中和區秀朗路三段22巷15號","121.525535","24.9959883333333","6500300","中和區"
"235059","AAC-215","2018/12/03 19:39:31","新北市中和區錦和路350號","121.490745","24.992495","6500300","中和區"
"220065","072-UY","2018/12/03 19:39:36","新北市板橋區國泰街61號","121.467873333333","25.0065716666667","6500100","板橋區"
"220086","073-UY","2018/12/03 19:39:19","新北市板橋區中正路9號","121.45607","25.012035","6500100","板橋區"
"220106","075-UY","2018/12/03 19:39:38","新北市板橋區文化路二段620號","121.478311666667","25.035675","6500100","板橋區"
"220069","AAD-861","2018/12/03 19:39:21","新北市板橋區貴興路119巷4號","121.455656666667","25.002235","6500100","板橋區"
"247004","002-UY","2018/12/03 19:39:26","新北市蘆洲區中華街6巷12號","121.463075","25.081955","6501400","蘆洲區"
"226004","312-R5","2018/12/03 19:39:35","新北市平溪區靜安路三段392巷3號","121.784346666667","25.04957","6502400","平溪區"
"228003","097-TW","2018/12/03 19:39:21","新北市貢寮區真理里美艷山街25號","121.923318333333","25.0687766666667","6502600","貢寮區"
"228001","670-TC","2018/12/03 19:39:32","新北市貢寮區真理里大澳街5號","121.924688333333","25.0557483333333","6502600","貢寮區"
"224010","AGQ-8101","2018/12/03 19:38:26","新北市瑞芳區烏勢巷145號","121.847711666667","25.1089583333333","6501200","瑞芳區"
"227001","642-TC","2018/12/03 19:39:31","新北市雙溪區雙溪里太平路77號","121.865193333333","25.0359816666667","6502500","雙溪區"
"227008","400-TW","2018/12/03 19:39:30","新北市雙溪區新基里新基北街22號","121.867226666667","25.0389283333333","6502500","雙溪區"
"253006","032-BX","2018/12/03 19:39:35","新北市石門區中央路37-5號","121.570321666667","25.2966966666667","6502200","石門區"
"222001","KEA-2212","2018/12/03 19:39:37","新北市深坑區深坑街142號","121.613026666667","25.00153","6501800","深坑區"
"208002","KEA-2872","2018/12/03 19:39:17","新北市金山區三民街34號","121.634908333333","25.223605","6502700","金山區"
"208003","665-BX","2018/12/03 19:39:30","新北市金山區仁愛路1巷1號","121.63858","25.2200583333333","6502700","金山區"
"208001","761-BX","2018/12/03 19:39:36","新北市金山區重和里牛埔仔1-4號","121.607525","25.2230416666667","6502700","金山區"
"251009","008-UM","2018/12/03 19:39:37","新北市淡水區中山北路一段186巷11號","121.445415","25.178935","6501000","淡水區"
"251005","010-UM","2018/12/03 19:39:24","新北市淡水區原德路108巷1號","121.443533333333","25.1737116666667","6501000","淡水區"
"251001","011-UM","2018/12/03 19:39:27","新北市淡水區民權路51號","121.459743333333","25.1390466666667","6501000","淡水區"
"251013","KEA-2871","2018/12/03 19:39:36","新北市淡水區店子後9號","121.459935","25.2188083333333","6501000","淡水區"
"251016","179-VK","2018/12/03 19:39:18","新北市淡水區下圭柔山119-51號","121.450725","25.2084833333333","6501000","淡水區"
"251008","181-VK","2018/12/03 19:39:34","新北市淡水區中正路32巷2號","121.430925","25.1753283333333","6501000","淡水區"
"251015","182-VK","2018/12/03 19:39:23","新北市淡水區泉洲厝27-1號","121.48369","25.1910933333333","6501000","淡水區"
"251010","413-VK","2018/12/03 19:39:24","新北市淡水區新市二路三段152號","121.435166666667","25.1934433333333","6501000","淡水區"
"251012","441-VK","2018/12/03 19:39:21","新北市淡水區淡金路二段605號","121.446156666667","25.1934283333333","6501000","淡水區"
"251004","443-VK","2018/12/03 19:39:26","新北市淡水區中正東路二段88巷41號","121.459576666667","25.1421883333333","6501000","淡水區"
"251006","561-UM","2018/12/03 19:39:26","新北市淡水區中山北路一段207巷68號","121.441716666667","25.179245","6501000","淡水區"
"251007","577-R6","2018/12/03 19:39:37","新北市淡水區中正東路一段111巷18號","121.454996666667","25.1609666666667","6501000","淡水區"
"251011","650-BX","2018/12/03 19:39:33","新北市淡水區八勢路20號","121.460991666667","25.1536916666667","6501000","淡水區"
"207003","550-UM","2018/12/03 19:39:30","新北市萬里區大鵬里下社1號","121.647985","25.2152666666667","6502800","萬里區"
"207004","225-TW","2018/12/03 19:39:34","新北市萬里區萬里里瑪鋉路21號","121.687276666667","25.1753666666667","6502800","萬里區"
"252002","178-VK","2018/12/03 19:39:23","新北市三芝區中正路一段18巷52號","121.504233333333","25.258895","6502100","三芝區"
"252001","292-VK","2018/12/03 19:39:23","新北市三芝區公正街9號","121.499765","25.257505","6502100","三芝區"
"237007","153-BY","2018/12/03 19:39:29","新北市三峽區二鬮路136巷24弄13號","121.35604","24.9103216666667","6500900","三峽區"
"237009","210-TH","2018/12/03 19:39:28","新北市三峽區中園街20-1號","121.368193333333","24.926785","6500900","三峽區"
"237013","252-BX","2018/12/03 19:39:30","新北市三峽區介壽路二段12-1號","121.390211666667","24.9349283333333","6500900","三峽區"
"237012","275-BY","2018/12/03 19:39:35","新北市三峽區光明路33號","121.37361","24.9308183333333","6500900","三峽區"
"237008","302-VK","2018/12/03 19:39:31","新北市三峽區永安街180號","121.373513333333","24.9281716666667","6500900","三峽區"
"237006","5529-G3","2018/12/03 19:39:28","新北市三峽區中正路一段336巷15弄2號","121.369916666667","24.9249566666667","6500900","三峽區"
"237011","KEA-2596","2018/12/03 19:39:22","新北市三峽區介壽路一段191號","121.37757","24.9308683333333","6500900","三峽區"
"237015","649-BX","2018/12/03 19:39:24","新北市三峽區成福路119號","121.41994","24.929835","6500900","三峽區"
"237010","706-TV","2018/12/03 19:39:35","新北市三峽區復興路77號","121.372675","24.937445","6500900","三峽區"
"237005","AKY-6261","2018/12/03 19:39:21","新北市三峽區文化路296號","121.364891666667","24.935525","6500900","三峽區"
"236069","105-UM","2018/12/03 19:39:25","新北市土城區金城路一段150-1號","121.44596","24.9747983333333","6501300","土城區"
"236042","KED-0685","2018/12/03 19:39:20","新北市土城區裕民路255號","121.454843333333","24.982985","6501300","土城區"
"236078","166-UM","2018/12/03 19:39:31","新北市土城區中州路27巷5-1號","121.413561666667","24.9575816666667","6501300","土城區"
"236030","253-BX","2018/12/03 19:39:27","新北市土城區福祥街40號","121.441275","24.98091","6501300","土城區"
"236026","269-VK","2018/12/03 19:39:20","新北市土城區中央路二段61巷26號","121.44327","24.978785","6501300","土城區"
"236039","271-VK","2018/12/03 19:39:33","新北市土城區青雲路281巷13弄6號","121.459841666667","24.9804316666667","6501300","土城區"
"247008","KED-0683","2018/12/03 19:39:27","新北市蘆洲區中山二路45巷30號","121.474231666667","25.0812516666667","6501400","蘆洲區"
"236020","401-BY","2018/12/03 19:39:34","新北市土城區峰廷街3號","121.469031666667","24.9873016666667","6501300","土城區"
"236055","752-BX","2018/12/03 19:39:37","新北市土城區學府路一段52號","121.45745","24.9885033333333","6501300","土城區"
"236059","912-UM","2018/12/03 19:39:24","新北市土城區中央路二段63號","121.442638333333","24.9789233333333","6501300","土城區"
"236048","913-UM","2018/12/03 19:39:18","新北市土城區明德路一段71號","121.465641666667","24.9834783333333","6501300","土城區"
"236063","915-UM","2018/12/03 19:39:23","新北市土城區延平街33巷1號","121.467808333333","24.9917433333333","6501300","土城區"
"242029","612-BX","2018/12/03 19:39:26","新北市新莊區三和路12-16號","121.44212","25.037365","6500500","新莊區"
"242048","497-BY","2018/12/03 19:39:35","新北市新莊區民安路104號","121.424123333333","25.0257516666667","6500500","新莊區"
"242023","362-BY","2018/12/03 19:39:20","新北市新莊區復興路三段68號","121.464085","25.04454","6500500","新莊區"
"242034","135-UY","2018/12/03 19:39:30","新北市新莊區仁愛街37號","121.444243333333","25.0365633333333","6500500","新莊區"
"242013","173-VK","2018/12/03 19:39:32","新北市新莊區中誠街145號","121.448798333333","25.0474033333333","6500500","新莊區"
"242031","348-TH","2018/12/03 19:39:27","新北市新莊區公園一路126號","121.445726666667","25.0381066666667","6500500","新莊區"
"242004","349-TH","2018/12/03 19:39:31","新北市新莊區化成路29巷80號","121.462185","25.0440066666667","6500500","新莊區"
"238015","755-BX","2018/12/03 19:39:25","新北市樹林區日新街79號","121.421916666667","24.9905133333333","6500700","樹林區"
"238023","601-UM","2018/12/03 19:39:24","新北市樹林區三寶街14號","121.406408333333","25.0153766666667","6500700","樹林區"
"238019","599-UM","2018/12/03 19:39:31","新北市樹林區八德街3號","121.417825","24.9845883333333","6500700","樹林區"
"238022","KEA-2213","2018/12/03 19:39:26","新北市樹林區名園街54號","121.419808333333","24.9783","6500700","樹林區"
"238021","KEA-2539","2018/12/03 19:39:31","新北市樹林區佳園路三段141號","121.386021666667","24.9497933333333","6500700","樹林區"
"238025","303-VK","2018/12/03 19:39:36","新北市樹林區中山路一段181-1號","121.421496666667","24.98814","6500700","樹林區"
"238017","283-BY","2018/12/03 19:39:32","新北市樹林區保安街二段167巷32號","121.413973333333","25.0027616666667","6500700","樹林區"
"238014","282-BY","2018/12/03 19:39:30","新北市樹林區千歲街34號","121.425691666667","24.9965916666667","6500700","樹林區"
"238020","268-VK","2018/12/03 19:39:35","新北市樹林區俊英街3號","121.429821666667","24.999765","6500700","樹林區"
"238026","172-UY","2018/12/03 19:39:35","新北市樹林區佳園路三段79號","121.387688333333","24.952615","6500700","樹林區"
"238016","169-UY","2018/12/03 19:39:35","新北市樹林區東和街20號","121.404076666667","24.9809316666667","6500700","樹林區"
"239006","891-R6","2018/12/03 19:39:22","新北市鶯歌區永昌街105號","121.340216666667","24.9500933333333","6500800","鶯歌區"
"239005","526-UM","2018/12/03 19:39:18","新北市鶯歌區東湖路30號","121.355815","24.9720583333333","6500800","鶯歌區"
"239001","417-VK","2018/12/03 19:39:37","新北市鶯歌區尖山埔路116號","121.34418","24.9499916666667","6500800","鶯歌區"
"239002","359-BY","2018/12/03 19:39:25","新北市鶯歌區大湖路159號","121.3442","24.9669","6500800","鶯歌區"
"221008","489-VK","2018/12/03 19:39:25","新北市汐止區康寧街61巷31號","121.61953","25.067515","6501100","汐止區"
"221036","130-UY","2018/12/03 19:39:22","新北市汐止區康寧街901號","121.651171666667","25.07518","6501100","汐止區"
"221015","131-UY","2018/12/03 19:39:28","新北市汐止區康寧街901號","121.651563333333","25.074925","6501100","汐止區"
"221010","269-BY","2018/12/03 19:39:26","新北市汐止區汐萬路二段23巷2號","121.649535","25.0812116666667","6501100","汐止區"
"221012","278-VK","2018/12/03 19:39:15","新北市汐止區大同路三段334號","121.679548333333","25.0709766666667","6501100","汐止區"
"221023","279-VK","2018/12/03 19:39:18","新北市汐止區中興路270號","121.628935","25.0688566666667","6501100","汐止區"
"221032","280-BY","2018/12/03 19:39:34","新北市汐止區汐萬路一段273號","121.65044","25.074565","6501100","汐止區"
"221027","281-BY","2018/12/03 19:39:34","新北市汐止區忠孝東路9號","121.658276666667","25.0659566666667","6501100","汐止區"
"221029","298-VK","2018/12/03 19:39:28","新北市汐止區康寧街901號","121.651403333333","25.07505","6501100","汐止區"
"221021","299-VK","2018/12/03 19:39:25","新北市汐止區新台五路一段131號","121.65214","25.06209","6501100","汐止區"
"221031","353-TW","2018/12/03 19:39:24","新北市汐止區康寧街901號","121.650848333333","25.0752716666667","6501100","汐止區"
"221002","129-UY","2018/12/03 19:39:16","新北市汐止區工建路504號","121.633196666667","25.0583566666667","6501100","汐止區"
"221025","623-UM","2018/12/03 19:39:28","新北市汐止區福安街20巷1號","121.66259","25.0649883333333","6501100","汐止區"
"221038","646-BX","2018/12/03 19:39:34","新北市汐止區忠孝東路241號","121.662786666667","25.0673533333333","6501100","汐止區"
"221033","647-BX","2018/12/03 19:39:31","新北市汐止區南勢街3號","121.627078333333","25.0373966666667","6501100","汐止區"
"220079","145-BY","2018/12/03 19:39:20","新北市板橋區民權路202巷17弄43號","121.45915","25.0164983333333","6500100","板橋區"
"220080","200-UY","2018/12/03 19:39:26","新北市板橋區大觀路二段153巷46弄10號","121.44904","24.9996083333333","6500100","板橋區"
"220082","610-BX","2018/12/03 19:39:27","新北市板橋區金門街63號","121.433263333333","24.9930083333333","6500100","板橋區"
"220101","245-BX","2018/12/03 19:39:34","新北市板橋區莊敬路256號","121.474018333333","25.0216383333333","6500100","板橋區"
"224002","257-TC","2018/12/03 19:39:35","新北市瑞芳區民享新村13號","121.816626666667","25.10578","6501200","瑞芳區"
"220056","276-BY","2018/12/03 19:39:31","新北市板橋區國慶路39號","121.459096666667","24.995595","6500100","板橋區"
"220072","277-BY","2018/12/03 19:39:29","新北市板橋區金門街151巷42弄2號","121.433858333333","24.99026","6500100","板橋區"
"220094","283-UM","2018/12/03 19:39:16","新北市板橋區長江路一段156巷9弄19號","121.462086666667","25.03033","6500100","板橋區"
"220071","283-VK","2018/12/03 19:39:25","新北市板橋區四川路一段325巷16號","121.45905","25.000345","6500100","板橋區"
"220053","285-VK","2018/12/03 19:39:18","新北市板橋區民享街97號","121.477161666667","25.0160233333333","6500100","板橋區"
"220083","286-VK","2018/12/03 19:39:23","新北市板橋區龍興街65巷3號","121.443315","25.001425","6500100","板橋區"
"220081","287-VK","2018/12/03 19:39:22","新北市板橋區大觀路一段29巷179弄20號","121.44901","25.0047033333333","6500100","板橋區"
"220090","288-VK","2018/12/03 19:39:35","新北市板橋區龍泉街54巷7弄2號","121.456851666667","25.0266316666667","6500100","板橋區"
"220061","293-UM","2018/12/03 19:39:33","新北市板橋區漢生東路113巷6弄2號","121.46769","25.0152433333333","6500100","板橋區"
"220084","296-UM","2018/12/03 19:39:35","新北市板橋區滿平二街10巷2弄13號","121.425343333333","24.9874666666667","6500100","板橋區"
"220075","303-R5","2018/12/03 19:39:30","新北市板橋區大勇街36號","121.453386666667","25.0168366666667","6500100","板橋區"
"220062","305-R5","2018/12/03 19:39:33","新北市板橋區三民路二段29巷9號","121.481678333333","25.018115","6500100","板橋區"
"220092","307-R5","2018/12/03 19:39:21","新北市板橋區陽明街164巷15號","121.464041666667","25.0244416666667","6500100","板橋區"
"220098","317-R6","2018/12/03 19:39:34","新北市板橋區民生路三段263巷4弄2號","121.463781666667","25.0296416666667","6500100","板橋區"
"220089","487-VK","2018/12/03 19:39:16","新北市板橋區新海路401號","121.45847","25.026715","6500100","板橋區"
"242007","280-VK","2018/12/03 19:39:24","新北市新莊區思源路593巷6弄23號","121.457631666667","25.0598416666667","6500500","新莊區"
"220088","491-VK","2018/12/03 19:39:31","新北市板橋區仁化街93號","121.476316666667","25.03203","6500100","板橋區"
"220035","560-BX","2018/12/03 19:39:34","新北市板橋區金華街85巷42號","121.45919","25.0213433333333","6500100","板橋區"
"220103","561-BX","2018/12/03 19:39:34","新北市板橋區自由路40號","121.465638333333","25.023175","6500100","板橋區"
"220063","609-BX","2018/12/03 19:39:31","新北市板橋區中山路二段459號","121.481801666667","25.02036","6500100","板橋區"
"220091","637-BX","2018/12/03 19:39:27","新北市板橋區懷德街133號","121.479226666667","25.0304316666667","6500100","板橋區"
"220057","686-BX","2018/12/03 19:39:20","新北市板橋區和平路安樂巷39-4號","121.461848333333","24.9932616666667","6500100","板橋區"
"220077","687-BX","2018/12/03 19:39:33","新北市板橋區僑中二街124巷2號","121.445423333333","25.0056333333333","6500100","板橋區"
"220093","689-BX","2018/12/03 19:39:31","新北市板橋區長江路二段305號","121.470926666667","25.0332733333333","6500100","板橋區"
"220054","741-BX","2018/12/03 19:39:23","新北市板橋區忠孝路196-2號","121.465468333333","25.0026533333333","6500100","板橋區"
"220102","KEA-2699","2018/12/03 19:39:25","新北市板橋區松柏街31-2號","121.475206666667","25.0302683333333","6500100","板橋區"
"220055","827-TW","2018/12/03 19:39:29","新北市板橋區國慶路149巷3弄1號","121.461185","24.9968533333333","6500100","板橋區"
"220068","830-TW","2018/12/03 19:39:19","新北市板橋區中山路二段531巷43號","121.48222","25.0231233333333","6500100","板橋區"
"220067","831-TW","2018/12/03 19:39:36","新北市板橋區長安街255巷39號","121.472296666667","25.0111016666667","6500100","板橋區"
"220074","895-R6","2018/12/03 19:39:23","新北市板橋區福德街2巷2號","121.456071666667","25.0093666666667","6500100","板橋區"
"220073","985-R7","2018/12/03 19:39:30","新北市板橋區國光路49巷15號","121.458851666667","25.0188016666667","6500100","板橋區"
"220097","AAC-210","2018/12/03 19:39:23","新北市板橋區文化路一段219-7號","121.463665","25.017455","6500100","板橋區"
"220064","AAC-253","2018/12/03 19:39:22","新北市板橋區民權路45號","121.46209","25.0112866666667","6500100","板橋區"
"235068","KEA-2873","2018/12/03 19:39:11","新北市中和區泰和街25號","121.49938","25.0000466666667","6500300","中和區"
"235061","KEA-2875","2018/12/03 19:39:15","新北市中和區民利街71號","121.47866","24.9982333333333","6500300","中和區"
