"lineid","car","time","location","longitude","latitude","cityid","cityname"
"234046","148-BY","2018/12/03 19:59:22","新北市永和區永元路124號","121.522793333333","25.0028816666667","6500400","永和區"
"234007","207-UY","2018/12/03 19:59:28","新北市永和區保生路22巷23號","121.507415","25.0083983333333","6500400","永和區"
"234081","298-R6","2018/12/03 19:59:26","新北市永和區林森路112巷12弄34號","121.52287","25.0046333333333","6500400","永和區"
"234038","336-UY","2018/12/03 19:59:24","新北市永和區成功路二段185號","121.52659","24.99657","6500400","永和區"
"234064","337-UY","2018/12/03 19:59:24","新北市永和區中正路412巷2弄11號","121.518516666667","25.00187","6500400","永和區"
"234070","552-UM","2018/12/03 19:59:34","新北市永和區大新街108號","121.518398333333","25.007955","6500400","永和區"
"234017","745-BX","2018/12/03 19:59:33","新北市永和區文化路65號","121.51397","25.01501","6500400","永和區"
"234030","746-BX","2018/12/03 19:59:22","新北市永和區民生路24號","121.522405","24.9973333333333","6500400","永和區"
"234054","KEA-2590","2018/12/03 19:59:24","新北市永和區環河東路一段122號","121.520558333333","25.015495","6500400","永和區"
"234013","KEA-2591","2018/12/03 19:59:11","新北市永和區保生路55號","121.504743333333","25.0105833333333","6500400","永和區"
"234061","AAD-866","2018/12/03 19:59:37","新北市永和區中正路283巷33號","121.516223333333","24.9997333333333","6500400","永和區"
"234086","748-BX","2018/12/03 19:59:35","新北市永和區中正路513號","121.516945","25.007195","6500400","永和區"
"234042","862-TW","2018/12/03 19:59:32","新北市永和區雙和街17巷21號","121.508971666667","25.0013166666667","6500400","永和區"
"234050","863-TW","2018/12/03 19:59:34","新北市永和區保安路123號","121.507645","25.0137883333333","6500400","永和區"
"234026","9372-KE","2018/12/03 19:59:19","新北市永和區水源街33巷1號","121.510843333333","25.004445","6500400","永和區"
"234011","9373-KE","2018/12/03 19:59:16","新北市永和區仁愛路352巷112弄17號","121.501148333333","25.0086133333333","6500400","永和區"
"249005","172-UM","2018/12/03 19:59:35","新北市八里區楓林路3-4號","121.382153333333","25.1293416666667","6502300","八里區"
"249001","173-UM","2018/12/03 19:59:18","新北市八里區中華路二段310號","121.403881666667","25.148305","6502300","八里區"
"249004","303-UY","2018/12/03 19:59:25","新北市八里區中山路一段217巷76號","121.412203333333","25.15772","6502300","八里區"
"249002","305-UY","2018/12/03 19:59:26","新北市八里區頂寮二街3號","121.450945","25.1239033333333","6502300","八里區"
"249003","593-UM","2018/12/03 19:59:23","新北市八里區中華路二段560巷3號","121.398701666667","25.145085","6502300","八里區"
"248014","025-BX","2018/12/03 19:59:31","新北市五股區五福路6巷23號","121.43546","25.0885133333333","6501500","五股區"
"248016","026-BX","2018/12/03 19:59:32","新北市五股區成泰路三段577巷80弄60號","121.449185","25.105035","6501500","五股區"
"248008","095-VK","2018/12/03 19:59:17","新北市五股區四維路155巷2號","121.467656666667","25.07461","6501500","五股區"
"248018","225-UY","2018/12/03 19:59:21","新北市五股區登林路118號","121.418448333333","25.0737733333333","6501500","五股區"
"248012","247-BX","2018/12/03 19:59:34","新北市五股區民義路一段109號","121.434071666667","25.0864683333333","6501500","五股區"
"248004","677-BX","2018/12/03 19:59:19","新北市五股區成泰路一段32巷60號","121.434935","25.0669883333333","6501500","五股區"
"248002","678-BX","2018/12/03 19:59:24","新北市五股區成洲三路2號","121.45079","25.0992066666667","6501500","五股區"
"234023","9380-KE","2018/12/03 19:59:33","新北市永和區中正路702巷18號","121.516408333333","25.0105316666667","6500400","永和區"
"234077","969-R7","2018/12/03 19:59:18","新北市永和區民有街23巷25號","121.517301666667","24.9968283333333","6500400","永和區"
"234074","AAC-211","2018/12/03 19:59:33","新北市永和區豫溪街160巷3號","121.523441666667","25.00971","6500400","永和區"
"234067","AAC-212","2018/12/03 19:59:34","新北市永和區永貞路313號","121.510096666667","25.00653","6500400","永和區"
"234003","AAC-295","2018/12/03 19:59:26","新北市永和區中正路730號","121.515511666667","25.010175","6500400","永和區"
"243013","AAD-798","2018/12/03 19:59:29","新北市泰山區應化街7號","121.423903333333","25.04368","6501600","泰山區"
"243009","297-R6","2018/12/03 19:59:21","新北市泰山區楓江路16巷13號","121.433933333333","25.0617766666667","6501600","泰山區"
"243016","KEA-2801","2018/12/03 19:59:24","新北市泰山區中山路二段760號","121.424595","25.0346216666667","6501600","泰山區"
"243015","421-VK","2018/12/03 19:59:23","新北市泰山區明志路二段71號","121.42902","25.0524216666667","6501600","泰山區"
"243011","KEA-2215","2018/12/03 19:59:17","新北市泰山區明志路三段182巷56號","121.422801666667","25.0398283333333","6501600","泰山區"
"243010","KEA-2216","2018/12/03 19:59:31","新北市泰山區中華街9號","121.427715","25.052405","6501600","泰山區"
"243012","646-TV","2018/12/03 19:59:38","新北市泰山區全興路103號","121.43361","25.0569733333333","6501600","泰山區"
"243014","680-BX","2018/12/03 19:59:32","新北市泰山區泰林路二段211號","121.432991666667","25.0615983333333","6501600","泰山區"
"222002","016-RS","2018/12/03 19:59:24","新北市深坑區北深路二段81巷8弄2號","121.61835","25.0031483333333","6501800","深坑區"
"222003","436-BY","2018/12/03 19:59:34","新北市深坑區埔新街10號","121.620641666667","25.0039833333333","6501800","深坑區"
"231041","002-UM","2018/12/03 19:59:24","新北市新店區民族路192號","121.536046666667","24.9754933333333","6500600","新店區"
"231059","046-UY","2018/12/03 19:59:23","新北市新店區吉安街2號","121.517366666667","24.9656516666667","6500600","新店區"
"231040","047-UY","2018/12/03 19:59:30","新北市新店區中正路60號","121.544346666667","24.9701833333333","6500600","新店區"
"231044","106-UY","2018/12/03 19:59:29","新北市新店區復興路27號","121.539041666667","24.986735","6500600","新店區"
"231052","108-UY","2018/12/03 19:59:19","新北市新店區新烏路三段寶島巷2弄1號","121.552043333333","24.8986783333333","6500600","新店區"
"231062","110-UY","2018/12/03 19:59:26","新北市新店區華潭街26巷1弄11號","121.529655","24.9541216666667","6500600","新店區"
"231047","187-VK","2018/12/03 19:59:21","新北市新店區寶宏路38號","121.549391666667","24.97548","6500600","新店區"
"231051","188-VK","2018/12/03 19:59:35","新北市新店區中央二街1號","121.529276666667","24.9729216666667","6500600","新店區"
"231054","KEA-2219","2018/12/03 19:59:33","新北市新店區光明街111號","121.53915","24.961385","6500600","新店區"
"231057","256-BX","2018/12/03 19:59:27","新北市新店區花園二路一段11號","121.555473333333","24.932515","6500600","新店區"
"231042","268-BY","2018/12/03 19:59:31","新北市新店區中興路一段283號","121.545206666667","24.9685583333333","6500600","新店區"
"231050","AAD-862","2018/12/03 19:59:17","新北市新店區北宜路二段12號","121.547896666667","24.9517583333333","6500600","新店區"
"231066","4716-K9","2018/12/03 19:59:32","新北市新店區安康路二段400號","121.497141666667","24.9554133333333","6500600","新店區"
"231056","4715-K9","2018/12/03 19:59:32","新北市新店區明德路7號","121.542488333333","24.9766783333333","6500600","新店區"
"231067","4772-VM","2018/12/03 19:59:25","新北市新店區秀山路11巷12弄2號","121.531555","24.9594966666667","6500600","新店區"
"231065","512-UM","2018/12/03 19:59:37","新北市新店區安祥路106巷2號","121.478861666667","24.9620633333333","6500600","新店區"
"231049","513-UM","2018/12/03 19:59:31","新北市新店區明德路42號","121.541396666667","24.9781916666667","6500600","新店區"
"231063","616-UM","2018/12/03 19:59:24","新北市新店區車子路11號","121.50302","24.951995","6500600","新店區"
"231045","617-UM","2018/12/03 19:59:23","新北市新店區北宜路二段126號","121.55679","24.953805","6500600","新店區"
"231061","619-UM","2018/12/03 19:59:24","新北市新店區安民街325號","121.517376666667","24.9745933333333","6500600","新店區"
"231068","718-UY","2018/12/03 19:59:35","新北市新店區安一路一段1-1號","121.519361666667","24.9613433333333","6500600","新店區"
"231064","719-UM","2018/12/03 19:59:34","新北市新店區安民街7號","121.515286666667","24.964375","6500600","新店區"
"231060","897-TW","2018/12/03 19:59:25","新北市新店區安康路二段416號","121.496511666667","24.955205","6500600","新店區"
"231043","898-TW","2018/12/03 19:59:21","新北市新店區中正路263-4號","121.5383","24.9739433333333","6500600","新店區"
"231055","AKT-0513","2018/12/03 19:59:19","新北市新店區中華路83巷61號","121.538455","24.9674433333333","6500600","新店區"
"241011","013-R5","2018/12/03 19:59:27","新北市三重區三和路二段165號","121.497923333333","25.0696183333333","6500200","三重區"
"241028","022-UY","2018/12/03 19:59:35","新北市三重區中正南路108號","121.494371666667","25.0584583333333","6500200","三重區"
"241008","059-VK","2018/12/03 19:59:24","新北市三重區永福街179巷23號","121.47812","25.074925","6500200","三重區"
"241022","060-VK","2018/12/03 19:59:32","新北市三重區新北大道一段11號","121.488578333333","25.0606083333333","6500200","三重區"
"241031","061-VK","2018/12/03 19:59:16","新北市三重區重新路四段144巷16號","121.48706","25.05549","6500200","三重區"
"241015","062-VK","2018/12/03 19:59:18","新北市三重區三和路二段17號","121.501221666667","25.0668716666667","6500200","三重區"
"241017","063-VK","2018/12/03 19:59:29","新北市三重區自強路一段219號","121.491233333333","25.0685566666667","6500200","三重區"
"241024","065-VK","2018/12/03 19:59:16","新北市三重區大勇街49號","121.481395","25.07179","6500200","三重區"
"241002","090-VK","2018/12/03 19:59:25","新北市三重區仁愛街284號","121.492515","25.0790333333333","6500200","三重區"
"241003","091-VK","2018/12/03 19:59:18","新北市三重區仁愛街451號","121.490125","25.0820383333333","6500200","三重區"
"251014","742-BX","2018/12/03 19:59:36","新北市淡水區石頭厝1號","121.458716666667","25.2355233333333","6501000","淡水區"
"241005","262-UM","2018/12/03 19:59:20","新北市三重區溪尾街325巷32號","121.488656666667","25.083355","6500200","三重區"
"241016","265-UM","2018/12/03 19:59:31","新北市三重區正義北路48巷14號","121.496853333333","25.06365","6500200","三重區"
"241009","267-UM","2018/12/03 19:59:25","新北市三重區三和路四段390巷18號","121.481243333333","25.0788416666667","6500200","三重區"
"241018","268-UM","2018/12/03 19:59:29","新北市三重區正義北路244巷71號","121.493875","25.0676566666667","6500200","三重區"
"241032","269-UM","2018/12/03 19:59:28","新北市三重區朝陽街26巷1弄3號","121.483165","25.0566","6500200","三重區"
"241013","270-UM","2018/12/03 19:59:29","新北市三重區三和路三段125巷33號","121.49379","25.0736816666667","6500200","三重區"
"241025","271-UM","2018/12/03 19:59:38","新北市三重區頂崁街210巷26號","121.475955","25.0679883333333","6500200","三重區"
"241007","398-BY","2018/12/03 19:59:20","新北市三重區溪尾街100號","121.489533333333","25.0786516666667","6500200","三重區"
"241035","KEA-2210","2018/12/03 19:59:30","新北市三重區大榮街9號","121.498226666667","25.063095","6500200","三重區"
"241004","475-VK","2018/12/03 19:59:27","新北市三重區五華街110號","121.492435","25.0828233333333","6500200","三重區"
"241020","478-VK","2018/12/03 19:59:25","新北市三重區忠孝路一段101號","121.489488333333","25.0721733333333","6500200","三重區"
"241030","480-VK","2018/12/03 19:59:17","新北市三重區成功路187號","121.485808333333","25.0528233333333","6500200","三重區"
"241014","543-UM","2018/12/03 19:59:25","新北市三重區長樂街1號","121.499423333333","25.0689816666667","6500200","三重區"
"241023","545-UM","2018/12/03 19:59:25","新北市三重區頂崁街166號","121.477676666667","25.0658766666667","6500200","三重區"
"241001","547-UM","2018/12/03 19:59:34","新北市三重區仁愛街269巷50號","121.494376666667","25.0795916666667","6500200","三重區"
"241033","557-UM","2018/12/03 19:59:21","新北市三重區中興北街22號","121.46963","25.048565","6500200","三重區"
"241019","KEA-2593","2018/12/03 19:59:33","新北市三重區重陽路四段4號","121.490588333333","25.0687","6500200","三重區"
"241026","743-BX","2018/12/03 19:59:29","新北市三重區仁慈街26號","121.502136666667","25.0631433333333","6500200","三重區"
"241006","887-TS","2018/12/03 19:59:23","新北市三重區力行路二段33巷8號","121.482481666667","25.07364","6500200","三重區"
"241012","941-UM","2018/12/03 19:59:34","新北市三重區仁厚街7號","121.499275","25.076085","6500200","三重區"
"241029","942-UM","2018/12/03 19:59:18","新北市三重區重新路三段204號","121.490156666667","25.0583366666667","6500200","三重區"
"235066","003-UY","2018/12/03 19:59:16","新北市中和區光華街10號","121.50425","25.0042033333333","6500300","中和區"
"235056","096-UM","2018/12/03 19:59:20","新北市中和區中山路三段170巷8弄24號","121.473061666667","25.0076566666667","6500300","中和區"
"235039","097-UM","2018/12/03 19:59:24","新北市中和區景平路276-1號","121.51402","24.99243","6500300","中和區"
"235065","098-UM","2018/12/03 19:59:20","新北市中和區莊敬路2號","121.499491666667","25.004275","6500300","中和區"
"235040","150-BY","2018/12/03 19:59:23","新北市中和區保健路10巷9號","121.507591666667","24.9973866666667","6500300","中和區"
"235058","151-BY","2018/12/03 19:59:20","新北市中和區員山路146-4號","121.481248333333","24.997115","6500300","中和區"
"235049","186-VK","2018/12/03 19:59:33","新北市中和區景平路572號","121.501691666667","24.9953266666667","6500300","中和區"
"235067","255-BX","2018/12/03 19:59:34","新北市中和區新生街220巷8號","121.482228333333","24.9983633333333","6500300","中和區"
"235008","293-VK","2018/12/03 19:59:36","新北市中和區中正路69號","121.501133333333","24.9934983333333","6500300","中和區"
"247012","KEA-2869","2018/12/03 19:59:30","新北市蘆洲區民族路226號","121.479555","25.08807","6501400","蘆洲區"
"235050","4979-A6","2018/12/03 19:59:35","新北市中和區景平路241巷82弄21號","121.506831666667","24.99221","6500300","中和區"
"235069","4980-A6","2018/12/03 19:59:18","新北市中和區景平路477號","121.500191666667","24.99712","6500300","中和區"
"235070","558-UM","2018/12/03 19:59:30","新北市中和區圓通路208號","121.495976666667","24.993975","6500300","中和區"
"235054","640-BX","2018/12/03 19:59:25","新北市中和區中山路三段190號","121.472121666667","25.0064966666667","6500300","中和區"
"235046","733-UM","2018/12/03 19:59:27","新北市中和區興南路一段93巷41號","121.510086666667","24.98762","6500300","中和區"
"235052","805-TS","2018/12/03 19:59:20","新北市中和區華新街144巷4號","121.507821666667","24.9827883333333","6500300","中和區"
"235048","896-TW","2018/12/03 19:59:31","新北市中和區景新街426號","121.513001666667","24.9887416666667","6500300","中和區"
"235053","900-TW","2018/12/03 19:59:31","新北市中和區莒光路213號","121.468993333333","24.9947116666667","6500300","中和區"
"235051","157-BY","2018/12/03 19:59:21","新北市中和區復興路301巷16號","121.501435","24.9895816666667","6500300","中和區"
"235037","AAC-213","2018/12/03 19:59:18","新北市中和區自立路26號","121.522495","24.992975","6500300","中和區"
"235059","AAC-215","2018/12/03 19:59:31","新北市中和區圓通路367巷13弄19號","121.492945","24.98841","6500300","中和區"
"220065","072-UY","2018/12/03 19:59:37","新北市板橋區海山路35號","121.467451666667","25.00935","6500100","板橋區"
"220106","075-UY","2018/12/03 19:59:34","新北市板橋區懷德街11號","121.476751666667","25.0330433333333","6500100","板橋區"
"220069","AAD-861","2018/12/03 19:59:21","新北市板橋區貴興路92號","121.455926666667","25.0027016666667","6500100","板橋區"
"247002","893-R6","2018/12/03 19:59:24","新北市蘆洲區長安街274巷11號","121.45805","25.0871866666667","6501400","蘆洲區"
"247016","546-UM","2018/12/03 19:59:35","新北市蘆洲區光華路44號","121.468773333333","25.0830366666667","6501400","蘆洲區"
"247024","500-BY","2018/12/03 19:59:27","新北市蘆洲區光榮路120巷20號","121.465711666667","25.0881166666667","6501400","蘆洲區"
"247006","337-TH","2018/12/03 19:59:19","新北市蘆洲區九芎街108號","121.465446666667","25.0795966666667","6501400","蘆洲區"
"247020","057-VK","2018/12/03 19:59:22","新北市蘆洲區民權路113號","121.472446666667","25.0893916666667","6501400","蘆洲區"
"247014","053-VK","2018/12/03 19:59:25","新北市蘆洲區成功路132號","121.472176666667","25.082645","6501400","蘆洲區"
"247018","007-UY","2018/12/03 19:59:28","新北市蘆洲區民族路290巷11號","121.478448333333","25.0898816666667","6501400","蘆洲區"
"247004","002-UY","2018/12/03 19:59:26","新北市蘆洲區永康街49號","121.456925","25.0853283333333","6501400","蘆洲區"
"226004","312-R5","2018/12/03 19:59:16","新北市平溪區十分里十分街116號","121.776921666667","25.0431433333333","6502400","平溪區"
"228003","097-TW","2018/12/03 19:59:21","新北市貢寮區真理里延平街7號","121.924255","25.0546016666667","6502600","貢寮區"
"224010","AGQ-8101","2018/12/03 19:59:26","新北市瑞芳區石崁巷1號","121.839521666667","25.1087633333333","6501200","瑞芳區"
"227001","642-TC","2018/12/03 19:59:31","新北市雙溪區雙溪里長安街16號","121.865025","25.03469","6502500","雙溪區"
"227008","400-TW","2018/12/03 19:59:30","新北市雙溪區新基里新基南街25號","121.866266666667","25.038145","6502500","雙溪區"
"222001","KEA-2212","2018/12/03 19:59:37","新北市深坑區北深路三段165-1號","121.602196666667","25.0034066666667","6501800","深坑區"
"208002","KEA-2872","2018/12/03 19:59:37","新北市金山區中山路16號","121.641623333333","25.2174666666667","6502700","金山區"
"208003","665-BX","2018/12/03 19:59:30","新北市金山區永興里濆水路7-2號","121.62887","25.266015","6502700","金山區"
"208001","761-BX","2018/12/03 19:59:21","新北市金山區南勢湖3號","121.622291666667","25.2194383333333","6502700","金山區"
"251009","008-UM","2018/12/03 19:59:17","新北市淡水區英專路28巷18號","121.445888333333","25.16988","6501000","淡水區"
"251005","010-UM","2018/12/03 19:59:24","新北市淡水區學府路136巷29號","121.451508333333","25.1727766666667","6501000","淡水區"
"251001","011-UM","2018/12/03 19:59:27","新北市淡水區北投子14-6號","121.447645","25.184475","6501000","淡水區"
"251013","KEA-2871","2018/12/03 19:59:36","新北市淡水區下圭柔山63-7號","121.451765","25.2062033333333","6501000","淡水區"
"251016","179-VK","2018/12/03 19:59:38","新北市淡水區番子田16-13號","121.45372","25.231715","6501000","淡水區"
"251008","181-VK","2018/12/03 19:59:34","新北市淡水區淡海路70號","121.423115","25.1809433333333","6501000","淡水區"
"251015","182-VK","2018/12/03 19:59:23","新北市淡水區埤島80-2號","121.449091666667","25.1892816666667","6501000","淡水區"
"251010","413-VK","2018/12/03 19:59:24","新北市淡水區崁頂133號","121.431273333333","25.2054016666667","6501000","淡水區"
"251012","441-VK","2018/12/03 19:59:32","新北市淡水區下圭柔山93-4號","121.43627","25.209165","6501000","淡水區"
"251004","443-VK","2018/12/03 19:59:25","新北市淡水區民權路177巷43號","121.460705","25.134625","6501000","淡水區"
"251006","561-UM","2018/12/03 19:59:26","新北市淡水區水碓街28號","121.444131666667","25.1773433333333","6501000","淡水區"
"251011","650-BX","2018/12/03 19:59:33","新北市淡水區崁頂55-3號","121.442171666667","25.1966816666667","6501000","淡水區"
"251003","766-UM","2018/12/03 19:59:17","新北市淡水區中山北路二段189巷15弄29號","121.443415","25.1841983333333","6501000","淡水區"
"207003","550-UM","2018/12/03 19:59:30","新北市萬里區大鵬里萬里加投44-3號","121.640481666667","25.2091933333333","6502800","萬里區"
"207004","225-TW","2018/12/03 19:59:34","新北市萬里區北基里忠二街37號","121.685678333333","25.175765","6502800","萬里區"
"252002","178-VK","2018/12/03 19:59:23","新北市三芝區忠孝街116-3號","121.505468333333","25.257605","6502100","三芝區"
"252001","292-VK","2018/12/03 19:59:23","新北市三芝區公正街9號","121.499763333333","25.2575033333333","6502100","三芝區"
"237009","210-TH","2018/12/03 19:59:28","新北市三峽區民族街78巷45號","121.368265","24.92951","6500900","三峽區"
"237012","275-BY","2018/12/03 19:59:35","新北市三峽區中華路91號","121.371635","24.9294933333333","6500900","三峽區"
"237008","302-VK","2018/12/03 19:59:31","新北市三峽區中華路63巷11號","121.37268","24.9301633333333","6500900","三峽區"
"237006","5529-G3","2018/12/03 19:59:28","新北市三峽區中正路二段168號","121.366036666667","24.915575","6500900","三峽區"
"237015","649-BX","2018/12/03 19:59:24","新北市三峽區橫溪路73號","121.397615","24.93538","6500900","三峽區"
"237005","AKY-6261","2018/12/03 19:59:21","新北市三峽區民生街1巷1號","121.382741666667","24.9324283333333","6500900","三峽區"
"236069","105-UM","2018/12/03 19:59:25","新北市土城區忠義路92號","121.444311666667","24.962305","6501300","土城區"
"236042","KED-0685","2018/12/03 19:59:20","新北市土城區學府路一段98巷16號","121.455825","24.98853","6501300","土城區"
"236078","166-UM","2018/12/03 19:59:31","新北市土城區福安街66號","121.418405","24.9645733333333","6501300","土城區"
"236030","253-BX","2018/12/03 19:59:27","新北市土城區中央路一段252號","121.444238333333","24.98466","6501300","土城區"
"236026","269-VK","2018/12/03 19:59:20","新北市土城區中央路二段101號","121.442506666667","24.9779083333333","6501300","土城區"
"236014","270-VK","2018/12/03 19:59:33","新北市土城區廣福街128號","121.456316666667","24.9928333333333","6501300","土城區"
"236039","271-VK","2018/12/03 19:59:33","新北市土城區國際路52號","121.466421666667","24.9784033333333","6501300","土城區"
"247008","KED-0683","2018/12/03 19:59:27","新北市蘆洲區信義路119巷1號","121.478425","25.0803033333333","6501400","蘆洲區"
"236020","401-BY","2018/12/03 19:59:34","新北市土城區延吉街107號","121.47144","24.9867533333333","6501300","土城區"
"236055","752-BX","2018/12/03 19:59:33","新北市土城區學府路一段51號","121.457528333333","24.9884016666667","6501300","土城區"
"236059","912-UM","2018/12/03 19:59:24","新北市土城區中央路一段283號","121.444523333333","24.9846266666667","6501300","土城區"
"236048","913-UM","2018/12/03 19:59:18","新北市土城區金城路三段313-3號","121.474718333333","24.9910833333333","6501300","土城區"
"236063","915-UM","2018/12/03 19:59:23","新北市土城區金城路三段33巷37號","121.464948333333","24.987525","6501300","土城區"
"242036","AAC-296","2018/12/03 19:59:35","新北市新莊區建安街43號","121.428803333333","25.02542","6500500","新莊區"
"242058","986-R7","2018/12/03 19:59:20","新北市新莊區八德街60號","121.424938333333","25.02239","6500500","新莊區"
"242056","751-BX","2018/12/03 19:59:22","新北市新莊區中正路347巷17-1號","121.447426666667","25.0344283333333","6500500","新莊區"
"242025","613-BX","2018/12/03 19:59:03","新北市新莊區五工一路86號","121.461368333333","25.067445","6500500","新莊區"
"242029","612-BX","2018/12/03 19:59:26","新北市新莊區中榮街152巷18號","121.445943333333","25.0534683333333","6500500","新莊區"
"242048","497-BY","2018/12/03 19:59:19","新北市新莊區四維路10號","121.423803333333","25.0251866666667","6500500","新莊區"
"242050","442-UM","2018/12/03 19:59:36","新北市新莊區西盛街212號","121.42814","25.0178233333333","6500500","新莊區"
"242002","440-UM","2018/12/03 19:59:35","新北市新莊區中正路170號","121.450845","25.0358533333333","6500500","新莊區"
"242039","415-TV","2018/12/03 19:59:23","新北市新莊區民安路287-2號","121.428918333333","25.0228766666667","6500500","新莊區"
"242023","362-BY","2018/12/03 19:59:20","新北市新莊區化成路406號","121.465961666667","25.0506616666667","6500500","新莊區"
"242060","353-BY","2018/12/03 19:59:20","新北市新莊區瓊泰路50號","121.443726666667","25.0286216666667","6500500","新莊區"
"242011","132-UY","2018/12/03 19:59:36","新北市新莊區中港路531巷122號","121.449923333333","25.05149","6500500","新莊區"
"242034","135-UY","2018/12/03 19:59:34","新北市新莊區建中街81巷10弄1號","121.447191666667","25.0361316666667","6500500","新莊區"
"242013","173-VK","2018/12/03 19:59:32","新北市新莊區中港路471號","121.452368333333","25.0491216666667","6500500","新莊區"
"242019","175-VK","2018/12/03 19:59:32","新北市新莊區長青街35巷7號","121.456841666667","25.04184","6500500","新莊區"
"242017","346-TH","2018/12/03 19:59:21","新北市新莊區中港路320號","121.452613333333","25.0458283333333","6500500","新莊區"
"242031","348-TH","2018/12/03 19:59:36","新北市新莊區忠孝街29巷36號","121.44364","25.0370433333333","6500500","新莊區"
"242004","349-TH","2018/12/03 19:59:20","新北市新莊區化成路213-1號","121.466076666667","25.05174","6500500","新莊區"
"242015","351-TH","2018/12/03 19:59:34","新北市新莊區復興路一段39號","121.446743333333","25.0420466666667","6500500","新莊區"
"238015","755-BX","2018/12/03 19:58:05","新北市樹林區中山路三段214號","121.380256666667","24.9680433333333","6500700","樹林區"
"238021","KEA-2539","2018/12/03 19:59:31","新北市樹林區佳園路三段101巷38弄8號","121.391611666667","24.95085","6500700","樹林區"
"238017","283-BY","2018/12/03 19:59:32","新北市樹林區保安街一段276號","121.419588333333","24.9969183333333","6500700","樹林區"
"239006","891-R6","2018/12/03 19:59:22","新北市鶯歌區文化路62號","121.356246666667","24.954595","6500800","鶯歌區"
"221008","489-VK","2018/12/03 19:59:25","台北市內湖區康樂街88號","121.619005","25.07048","6501100","汐止區"
"221036","130-UY","2018/12/03 19:59:22","新北市汐止區忠孝東路258巷9號","121.663728333333","25.0672516666667","6501100","汐止區"
"221015","131-UY","2018/12/03 19:59:28","新北市汐止區橋東街46號","121.665768333333","25.0752166666667","6501100","汐止區"
"221010","269-BY","2018/12/03 19:59:26","新北市汐止區連峰街225巷3號","121.644715","25.0809516666667","6501100","汐止區"
"221012","278-VK","2018/12/03 19:59:35","新北市汐止區大同路三段373號","121.675671666667","25.0726083333333","6501100","汐止區"
"221023","279-VK","2018/12/03 19:59:38","新北市汐止區明峰街162號","121.629258333333","25.0704833333333","6501100","汐止區"
"221032","280-BY","2018/12/03 19:59:34","新北市汐止區橫科路18巷10號","121.61777","25.0505466666667","6501100","汐止區"
"221027","281-BY","2018/12/03 19:59:34","新北市汐止區中正路90號","121.661348333333","25.0694733333333","6501100","汐止區"
"221029","298-VK","2018/12/03 19:59:27","新北市汐止區樟樹一路137巷24號","121.641078333333","25.0659816666667","6501100","汐止區"
"221021","299-VK","2018/12/03 19:59:34","新北市汐止區水源路一段138號","121.65609","25.0624916666667","6501100","汐止區"
"221031","353-TW","2018/12/03 19:59:24","新北市汐止區福德一路243號","121.633876666667","25.0648083333333","6501100","汐止區"
"221002","129-UY","2018/12/03 19:59:16","新北市汐止區大同路一段219巷27號","121.633241666667","25.0583583333333","6501100","汐止區"
"221035","622-UM","2018/12/03 19:59:31","新北市汐止區長江街43號","121.655725","25.07125","6501100","汐止區"
"221025","623-UM","2018/12/03 19:59:28","新北市汐止區秀峰路109巷26弄8號","121.661081666667","25.06344","6501100","汐止區"
"221038","646-BX","2018/12/03 19:59:34","新北市汐止區忠孝東路487-3號","121.66606","25.0739883333333","6501100","汐止區"
"221033","647-BX","2018/12/03 19:59:31","新北市汐止區東勢街190巷3號","121.633888333333","25.0415933333333","6501100","汐止區"
"221018","753-BX","2018/12/03 19:59:31","新北市汐止區忠孝東路397號","121.66572","25.0708683333333","6501100","汐止區"
"220079","145-BY","2018/12/03 19:59:20","新北市板橋區建國街110號","121.460185","25.0174966666667","6500100","板橋區"
"220080","200-UY","2018/12/03 19:59:26","新北市板橋區大觀路二段153巷21號","121.446481666667","25.000445","6500100","板橋區"
"220082","610-BX","2018/12/03 19:59:27","新北市板橋區存德街9號","121.429961666667","24.991935","6500100","板橋區"
"220101","245-BX","2018/12/03 19:59:32","新北市板橋區莒光路171巷1弄16號","121.474488333333","25.0246283333333","6500100","板橋區"
"224002","257-TC","2018/12/03 19:59:15","新北市瑞芳區三爪子坑路333號","121.81861","25.1044933333333","6501200","瑞芳區"
"220056","276-BY","2018/12/03 19:59:21","新北市板橋區德興街24號","121.453416666667","24.9940766666667","6500100","板橋區"
"220072","277-BY","2018/12/03 19:59:26","新北市板橋區金門街307號","121.429891666667","24.98641","6500100","板橋區"
"220094","283-UM","2018/12/03 19:59:16","新北市板橋區文化路一段371號","121.466796666667","25.0215966666667","6500100","板橋區"
"220071","283-VK","2018/12/03 19:59:25","新北市板橋區廣權路101號","121.464538333333","24.99276","6500100","板橋區"
"220053","285-VK","2018/12/03 19:59:18","新北市板橋區永豐街155號","121.475278333333","25.020235","6500100","板橋區"
"220083","286-VK","2018/12/03 19:59:23","新北市板橋區僑中二街10巷8號","121.446716666667","25.0110366666667","6500100","板橋區"
"220081","287-VK","2018/12/03 19:59:22","新北市板橋區僑中一街80巷5弄2-4號","121.44787","25.012595","6500100","板橋區"
"220090","288-VK","2018/12/03 19:59:15","新北市板橋區新海路72巷5弄34號","121.461608333333","25.0230066666667","6500100","板橋區"
"220061","293-UM","2018/12/03 19:59:33","新北市板橋區觀光街79巷2號","121.469326666667","25.0169283333333","6500100","板橋區"
"220084","296-UM","2018/12/03 19:59:21","新北市板橋區滿平街2巷10號","121.425361666667","24.9895","6500100","板橋區"
"220075","303-R5","2018/12/03 19:59:32","新北市板橋區金華街10巷99號","121.458795","25.0205283333333","6500100","板橋區"
"220062","305-R5","2018/12/03 19:59:33","新北市板橋區中山路二段318巷2弄2號","121.480366666667","25.0192533333333","6500100","板橋區"
"220092","307-R5","2018/12/03 19:59:21","新北市板橋區幸福路32巷2弄22號","121.461088333333","25.0216166666667","6500100","板橋區"
"220098","317-R6","2018/12/03 19:59:34","新北市板橋區新海路385巷12號","121.458516666667","25.0258666666667","6500100","板橋區"
"220089","487-VK","2018/12/03 19:59:20","新北市板橋區四維路347號","121.462318333333","25.0299316666667","6500100","板橋區"
"242007","280-VK","2018/12/03 19:59:24","新北市新莊區福壽街204號","121.458136666667","25.05372","6500500","新莊區"
"220088","491-VK","2018/12/03 19:59:31","新北市板橋區民治街63號","121.479605","25.033175","6500100","板橋區"
"220035","560-BX","2018/12/03 19:59:34","新北市板橋區新生街87巷22號","121.457093333333","25.022025","6500100","板橋區"
"220103","561-BX","2018/12/03 19:59:36","新北市板橋區漢生西路75號","121.462931666667","25.01889","6500100","板橋區"
"220063","609-BX","2018/12/03 19:59:31","新北市板橋區中山路二段87號","121.474148333333","25.01587","6500100","板橋區"
"220091","637-BX","2018/12/03 19:59:27","新北市板橋區民治街119巷7號","121.47854","25.030615","6500100","板橋區"
"220057","686-BX","2018/12/03 19:59:30","新北市板橋區四川路二段245巷37弄12號","121.452315","24.99255","6500100","板橋區"
"220077","687-BX","2018/12/03 19:59:33","新北市板橋區僑中一街150號","121.444768333333","25.0120983333333","6500100","板橋區"
"220093","689-BX","2018/12/03 19:59:31","新北市板橋區長江路一段158號","121.461158333333","25.0302983333333","6500100","板橋區"
"220054","741-BX","2018/12/03 19:59:23","新北市板橋區忠孝路忠義巷3弄20號","121.46537","25.0040366666667","6500100","板橋區"
"220102","KEA-2699","2018/12/03 19:59:28","新北市板橋區莒光路15巷34號","121.470586666667","25.02549","6500100","板橋區"
"220055","827-TW","2018/12/03 19:59:36","新北市板橋區仁愛路62巷15弄2號","121.460013333333","24.9984633333333","6500100","板橋區"
"220068","830-TW","2018/12/03 19:59:19","新北市板橋區中山路二段326-2號","121.481183333333","25.01954","6500100","板橋區"
"220067","831-TW","2018/12/03 19:59:16","新北市板橋區中山路一段282-1號","121.468903333333","25.01329","6500100","板橋區"
"220074","895-R6","2018/12/03 19:59:32","新北市板橋區縣民大道一段295號","121.461118333333","25.0105666666667","6500100","板橋區"
"220073","985-R7","2018/12/03 19:59:30","新北市板橋區南雅西路二段206號","121.451885","25.0149783333333","6500100","板橋區"
"220097","AAC-210","2018/12/03 19:59:23","新北市板橋區光正街45巷2弄18號","121.461033333333","25.017295","6500100","板橋區"
"220064","AAC-253","2018/12/03 19:59:22","新北市板橋區民族路300號","121.47054","25.0067666666667","6500100","板橋區"
"235068","KEA-2873","2018/12/03 19:59:17","新北市中和區福美路301巷16號","121.497493333333","25.00421","6500300","中和區"
"235061","KEA-2875","2018/12/03 19:59:15","新北市中和區民樂路17號","121.482148333333","25.0012533333333","6500300","中和區"
