"lineid","car","time","location","longitude","latitude","cityid","cityname"
"235010","733-UM","2018/12/03 21:45:58","新北市中和區員山路36巷13號","121.484173333333","24.9908266666667","6500300","中和區"
"251009","008-UM","2018/12/03 21:49:37","新北市淡水區民族路35巷13號","121.464628333333","25.1366433333333","6501000","淡水區"
"251005","010-UM","2018/12/03 21:49:38","新北市淡水區鄧公路30巷22號","121.453338333333","25.1697083333333","6501000","淡水區"
"251008","181-VK","2018/12/03 21:49:34","新北市淡水區學府路104號","121.449863333333","25.17176","6501000","淡水區"
"251010","413-VK","2018/12/03 21:49:23","新北市淡水區中正路二段215號","121.426273333333","25.18928","6501000","淡水區"
"251012","441-VK","2018/12/03 21:49:21","新北市淡水區淡金路三段329號","121.448988333333","25.2061833333333","6501000","淡水區"
"251004","443-VK","2018/12/03 21:49:25","新北市淡水區民權路14號","121.463065","25.12455","6501000","淡水區"
"251006","561-UM","2018/12/03 21:49:26","新北市淡水區中正路11巷3號","121.437823333333","25.1707783333333","6501000","淡水區"
"251007","577-R6","2018/12/03 21:49:36","新北市淡水區水源街二段177巷77號","121.452435","25.1769833333333","6501000","淡水區"
"251011","650-BX","2018/12/03 21:49:33","新北市淡水區新民街322巷5弄1-1號","121.436331666667","25.1830133333333","6501000","淡水區"
"251002","672-BX","2018/12/03 21:49:25","新北市淡水區學府路196號","121.44702","25.1762433333333","6501000","淡水區"
"251003","766-UM","2018/12/03 21:49:37","新北市淡水區新春街88號","121.438845","25.1822966666667","6501000","淡水區"
"220064","AAC-253","2018/12/03 21:49:21","新北市林口區太平里180號","121.366553333333","25.134455","6500100","板橋區"
