"lineid","car","time","location","longitude","latitude","cityid","cityname"
"235010","733-UM","2018/12/03 21:45:58","新北市中和區員山路36巷13號","121.484173333333","24.9908266666667","6500300","中和區"
"251005","010-UM","2018/12/03 22:09:23","新北市淡水區鄧公路19號","121.451391666667","25.170005","6501000","淡水區"
"251008","181-VK","2018/12/03 22:09:34","新北市淡水區學府路104號","121.44983","25.1717816666667","6501000","淡水區"
"251010","413-VK","2018/12/03 22:09:24","新北市淡水區沙崙路200號","121.42469","25.1839233333333","6501000","淡水區"
"251004","443-VK","2018/12/03 22:09:25","新北市淡水區民族路33號","121.462275","25.1358133333333","6501000","淡水區"
"251007","577-R6","2018/12/03 22:09:36","新北市淡水區北新路180號","121.449423333333","25.1787983333333","6501000","淡水區"
"251011","650-BX","2018/12/03 22:09:33","新北市淡水區水碓街7號","121.443201666667","25.17709","6501000","淡水區"
"220064","AAC-253","2018/12/03 22:09:41","新北市五股區成泰路一段8巷9-9號","121.43755","25.0684683333333","6500100","板橋區"
