"lineid","car","time","location","longitude","latitude","cityid","cityname"
"251008","181-VK","2018/12/03 22:19:34","新北市淡水區學府路104號","121.44982","25.1717916666667","6501000","淡水區"
"251010","413-VK","2018/12/03 22:19:23","新北市淡水區沙崙路200號","121.42467","25.183945","6501000","淡水區"
"251004","443-VK","2018/12/03 22:19:25","新北市淡水區民族路33號","121.462268333333","25.1357933333333","6501000","淡水區"
"251007","577-R6","2018/12/03 22:19:36","新北市淡水區北新路180號","121.449365","25.1788033333333","6501000","淡水區"
"251011","650-BX","2018/12/03 22:19:33","新北市淡水區水碓街7號","121.443203333333","25.1770933333333","6501000","淡水區"
"220064","AAC-253","2018/12/03 22:19:21","新北市板橋區板城路421號","121.448148333333","24.9957766666667","6500100","板橋區"
