"lineid","car","time","location","longitude","latitude","cityid","cityname"
"232002","290-BY","2018/12/04 06:39:20","新北市坪林區北宜路八段558號","121.718118333333","24.909325","6502000","坪林區"
"232013","291-BY","2018/12/04 06:39:04","新北市坪林區北宜路八段558號","121.717985","24.9092666666667","6502000","坪林區"
"232006","758-BX","2018/12/04 06:39:06","新北市坪林區北宜路八段558號","121.718238333333","24.9093816666667","6502000","坪林區"
"235001","611-BX","2018/12/04 06:39:06","新北市中和區圓通路294-4號","121.488715","24.9891516666667","6500300","中和區"
"235001","157-BY","2018/12/04 06:39:04","新北市中和區捷運路58-9號","121.507395","24.9909466666667","6500300","中和區"
"223006","022-BY","2018/12/04 06:39:11","新北市石碇區碇坪路一段87號","121.662195","24.99068","6501900","石碇區"
"223002","KEA-2673","2018/12/04 06:39:07","新北市石碇區碇坪路一段130號","121.65944","24.9911683333333","6501900","石碇區"
"223003","205-TH","2018/12/04 06:39:12","新北市石碇區碇坪路一段196號","121.671211666667","24.9823766666667","6501900","石碇區"
"223001","592-UM","2018/12/04 06:39:15","新北市石碇區碇坪路一段186號","121.66777","24.98396","6501900","石碇區"
"223007","661-BX","2018/12/04 06:39:16","新北市石碇區石崁1號","121.651931666667","25.0010433333333","6501900","石碇區"
"227006","282-VK","2018/12/04 06:39:21","新北市雙溪區牡丹里聖南1-1號","121.860341666667","25.0503366666667","6502500","雙溪區"
