"lineid","car","time","location","longitude","latitude","cityid","cityname"
"232002","290-BY","2018/12/04 07:19:00","新北市坪林區大粗坑27-5號","121.708238333333","24.96219","6502000","坪林區"
"232013","291-BY","2018/12/04 07:19:04","新北市坪林區粗窟1-1號","121.683335","24.9366616666667","6502000","坪林區"
"244002","248-BX","2018/12/04 07:19:15","新北市林口區南勢里59-18號","121.361285","25.078985","6501700","林口區"
"222004","289-BY","2018/12/04 07:19:15","新北市深坑區平埔街22巷19號","121.614621666667","25.0010716666667","6501800","深坑區"
"235001","611-BX","2018/12/04 07:19:06","新北市中和區圓通路367巷6號","121.491428333333","24.9892433333333","6500300","中和區"
"235001","157-BY","2018/12/04 07:19:04","新北市中和區和平街88號","121.507473333333","24.991155","6500300","中和區"
"226005","5620-A6","2018/12/04 07:19:08","新北市平溪區菁桐里二坑路18號","121.721318333333","25.0245533333333","6502400","平溪區"
"226002","7418-A5","2018/12/04 07:19:17","新北市平溪區南山里南山坪11-2號","121.764711666667","25.0326583333333","6502400","平溪區"
"226006","AGD-0702","2018/12/04 07:19:14","新北市平溪區嶺腳里嶺腳寮32-1號","121.748528333333","25.0304716666667","6502400","平溪區"
"223006","022-BY","2018/12/04 07:19:02","新北市石碇區崩山15-1號","121.673693333333","24.97191","6501900","石碇區"
"223002","KEA-2673","2018/12/04 07:19:07","新北市石碇區北宜路五段74-1號","121.644275","24.9529166666667","6501900","石碇區"
"223003","205-TH","2018/12/04 07:18:55","新北市石碇區蓬菜寮7號","121.65345","24.9760416666667","6501900","石碇區"
"223004","437-BY","2018/12/04 07:19:17","新北市石碇區新興坑6-3號","121.653946666667","25.017955","6501900","石碇區"
"223001","592-UM","2018/12/04 07:19:15","新北市石碇區蓬菜寮7-2號","121.653398333333","24.9750833333333","6501900","石碇區"
"223007","661-BX","2018/12/04 07:19:16","新北市石碇區靜安路一段304號","121.692455","25.0064683333333","6501900","石碇區"
"223005","677-TV","2018/12/04 07:19:17","新北市石碇區新興坑1號","121.654828333333","25.01608","6501900","石碇區"
"227006","282-VK","2018/12/04 07:19:20","新北市雙溪區新基里自強路5-1號","121.866413333333","25.0390883333333","6502500","雙溪區"
"252004","249-BX","2018/12/04 07:19:05","新北市三芝區錫板里棟板頭32號","121.5043","25.2250716666667","6502100","三芝區"
"252007","AAC-283","2018/12/04 07:19:13","新北市三芝區錫板里海尾17號","121.478858333333","25.256935","6502100","三芝區"
