"lineid","car","time","location","longitude","latitude","cityid","cityname"
"248005","653-BX","2018/10/16 09:57:50","新北市五股區成泰路一段237-2號","121.435973333333","25.0804883333333","6501500","五股區"
"231007","189-VK","2018/10/16 09:57:48","新北市新店區新潭路三段215巷25號","121.50815","24.904025","6500600","新店區"
"231009","192-VK","2018/10/16 09:56:45","新北市新店區小坑一路88-1號","121.53005","24.906555","6500600","新店區"
"227006","282-VK","2018/10/16 09:57:58","新北市雙溪區長源里柑腳48號","121.798886666667","25.0101683333333","6502500","雙溪區"
"227012","030-BX","2018/10/16 09:56:55","新北市雙溪區泰平里烏山路13-1號","121.793358333333","24.9486066666667","6502500","雙溪區"
"252007","AAC-283","2018/10/16 09:58:04","新北市三芝區新庄里新庄子51-13號","121.507385","25.277255","6502100","三芝區"
"237001","159-UY","2018/10/16 09:58:00","新北市三峽區大觀路7號","121.375601666667","24.9438616666667","6500900","三峽區"
