"lineid","car","time","location","longitude","latitude","cityid","cityname"
"234078","298-R6","2018/10/16 12:27:38","新北市永和區福和路1號","121.526375","25.0099283333333","6500400","永和區"
"234084","338-UY","2018/10/16 12:27:38","新北市永和區環河東路二段90號","121.524355","25.0106733333333","6500400","永和區"
"234022","9380-KE","2018/10/16 12:27:23","新北市永和區福和路1號","121.525643333333","25.0095","6500400","永和區"
"234076","969-R7","2018/10/16 12:27:39","新北市永和區福和路1號","121.526435","25.00986","6500400","永和區"
"228004","212-TW","2018/10/16 12:27:32","新北市貢寮區貢寮里長泰路1號","121.906325","25.01922","6502600","貢寮區"
"228005","828-UM","2018/10/16 12:27:39","新北市貢寮區福連里蓬萊街15號","121.994296666667","25.0023416666667","6502600","貢寮區"
"221002","707-TV","2018/10/16 12:27:43","新北市汐止區康寧街901號","121.651501666667","25.0750933333333","6501100","汐止區"
