"lineid","car","time","location","longitude","latitude","cityid","cityname"
"234044","148-BY","2018/10/16 13:37:44","新北市永和區永元路122號","121.522988333333","25.0027166666667","6500400","永和區"
"234005","207-UY","2018/10/16 13:37:35","新北市永和區中山路一段6號","121.514253333333","25.010475","6500400","永和區"
"234078","298-R6","2018/10/16 13:37:38","新北市永和區國中路104巷8弄19號","121.525386666667","25.0063333333333","6500400","永和區"
"234036","336-UY","2018/10/16 13:37:32","新北市永和區民樂街39巷13號","121.52827","25.000395","6500400","永和區"
"234062","337-UY","2018/10/16 13:37:38","新北市永和區秀朗路二段24巷43號","121.520028333333","25.001925","6500400","永和區"
"234084","338-UY","2018/10/16 13:37:38","新北市永和區永亨路147號","121.525553333333","25.0039433333333","6500400","永和區"
"234068","552-UM","2018/10/16 13:37:30","新北市永和區永和路二段234號","121.515738333333","25.0145366666667","6500400","永和區"
"234048","553-UM","2018/10/16 13:37:22","新北市永和區保安路120號","121.509105","25.0156733333333","6500400","永和區"
"234015","745-BX","2018/10/16 13:37:42","新北市永和區忠孝街26巷8號","121.51531","25.016895","6500400","永和區"
"234028","746-BX","2018/10/16 13:37:30","新北市永和區民權路1巷8號","121.520651666667","24.9983683333333","6500400","永和區"
"234052","KEA-2590","2018/10/16 13:37:27","新北市永和區竹林路39巷26號","121.519038333333","25.014765","6500400","永和區"
"234012","KEA-2591","2018/10/16 13:37:32","新北市永和區永平路258號","121.508248333333","25.0113166666667","6500400","永和區"
"234060","AAD-866","2018/10/16 13:37:34","新北市永和區中正路338號","121.517715","24.999975","6500400","永和區"
"234040","862-TW","2018/10/16 13:37:28","新北市永和區中和路601號","121.512335","25.00449","6500400","永和區"
"234025","9371-KE","2018/10/16 13:37:31","新北市永和區永平路28號","121.513268333333","25.0088016666667","6500400","永和區"
"234010","9373-KE","2018/10/16 13:37:37","新北市永和區保福路二段15巷21號","121.510328333333","25.0109733333333","6500400","永和區"
"248017","225-UY","2018/10/16 13:37:39","新北市五股區民義路二段54-1號","121.406478333333","25.1075533333333","6501500","五股區"
"234022","9380-KE","2018/10/16 13:37:43","新北市永和區中正路702巷20弄1號","121.51652","25.01059","6500400","永和區"
"234076","969-R7","2018/10/16 13:37:39","新北市永和區民權路26號","121.520331666667","24.9991633333333","6500400","永和區"
"234072","AAC-211","2018/10/16 13:37:32","新北市永和區竹林路213巷41號","121.52332","25.00916","6500400","永和區"
"234066","AAC-212","2018/10/16 13:37:41","新北市永和區中山路一段191巷7弄1號","121.509593333333","25.0083966666667","6500400","永和區"
"234001","AAC-295","2018/10/16 13:37:33","新北市永和區秀朗路一段7號","121.514001666667","25.0074633333333","6500400","永和區"
"244002","248-BX","2018/10/16 13:37:40","新北市林口區源泉街164號","121.354788333333","25.0712966666667","6501700","林口區"
"231002","002-UM","2018/10/16 13:37:37","新北市新店區溪園路403號","121.523996666667","24.9781733333333","6500600","新店區"
"231027","0293-UT","2018/10/16 13:37:23","新北市新店區新店後街20-9號","121.538293333333","24.9532183333333","6500600","新店區"
"231028","046-UY","2018/10/16 13:37:43","新北市新店區安康路一段351-1號","121.519565","24.96413","6500600","新店區"
"231001","047-UY","2018/10/16 13:37:30","新北市新店區中央路45號","121.532895","24.9775733333333","6500600","新店區"
"231010","107-UY","2018/10/16 13:37:38","新北市新店區平等街46巷15號","121.535781666667","24.9734833333333","6500600","新店區"
"231020","108-UY","2018/10/16 13:37:37","新北市新店區永興路88-1號","121.544113333333","24.933625","6500600","新店區"
"231012","187-VK","2018/10/16 13:37:39","新北市新店區德正街23巷2號","121.544208333333","24.9719416666667","6500600","新店區"
"231023","KEA-2219","2018/10/16 13:37:27","新北市新店區新店路104號","121.537153333333","24.9545916666667","6500600","新店區"
"231026","256-BX","2018/10/16 13:37:44","新北市新店區中正路146號","121.541746666667","24.9715466666667","6500600","新店區"
"231003","268-BY","2018/10/16 13:37:33","新北市新店區中正路71號","121.5435","24.9697016666667","6500600","新店區"
"231018","278-BY","2018/10/16 13:37:28","新北市新店區百忍街12號","121.53469","24.97565","6500600","新店區"
"231015","AAD-862","2018/10/16 13:37:44","新北市新店區竹林路28號","121.552081666667","24.9513116666667","6500600","新店區"
"231030","355-BY","2018/10/16 13:37:42","新北市新店區安康路一段351-1號","121.519306666667","24.9639333333333","6500600","新店區"
"231038","3712-VJ","2018/10/16 13:37:39","新北市新店區安華路28-1號","121.519148333333","24.9607183333333","6500600","新店區"
"231037","4716-K9","2018/10/16 13:37:31","新北市新店區薏仁坑路57號","121.4908","24.9639783333333","6500600","新店區"
"231025","4715-K9","2018/10/16 13:37:29","新北市新店區中央六街56號","121.527901666667","24.9757616666667","6500600","新店區"
"231036","512-UM","2018/10/16 13:37:37","新北市新店區安祥路147巷12號","121.47539","24.9557983333333","6500600","新店區"
"231013","513-UM","2018/10/16 13:37:36","新北市新店區中正路454-5號","121.534475","24.979075","6500600","新店區"
"231034","616-UM","2018/10/16 13:37:41","新北市新店區車子路109號","121.505231666667","24.9521433333333","6500600","新店區"
"231005","618-UM","2018/10/16 13:37:27","新北市新店區中興路三段88號","121.545461666667","24.9787166666667","6500600","新店區"
"231035","719-UM","2018/10/16 13:36:30","新北市新店區安忠路56巷6號","121.513038333333","24.9594633333333","6500600","新店區"
"231032","720-UM","2018/10/16 13:37:33","新北市新店區安豐路49號","121.500253333333","24.9538766666667","6500600","新店區"
"231029","897-TW","2018/10/16 13:37:34","新北市新店區車子路1-1號","121.504536666667","24.95795","6500600","新店區"
"231006","898-TW","2018/10/16 13:37:41","新北市新店區光明街9號","121.53825","24.9593666666667","6500600","新店區"
"231004","899-TW","2018/10/16 13:37:36","新北市新店區北新路二段2號","121.542576666667","24.9706533333333","6500600","新店區"
"231024","AKT-0513","2018/10/16 13:37:37","新北市新店區北新路一段271巷36號","121.539818333333","24.9672533333333","6500600","新店區"
"235030","003-UY","2018/10/16 13:37:31","新北市中和區水源路7巷2號","121.503935","25.0036183333333","6500300","中和區"
"235028","005-UY","2018/10/16 13:37:28","新北市中和區連城路90號","121.496763333333","25.0006733333333","6500300","中和區"
"235027","006-UY","2018/10/16 13:37:24","新北市中和區連城路347巷16弄29號","121.487475","24.9950633333333","6500300","中和區"
"235020","096-UM","2018/10/16 13:37:34","新北市中和區員山路466巷21弄62號","121.48094","25.0078866666667","6500300","中和區"
"235003","097-UM","2018/10/16 13:37:25","新北市中和區大勇街25巷29弄2號","121.515223333333","24.9940066666667","6500300","中和區"
"235029","098-UM","2018/10/16 13:37:36","新北市中和區莊敬路33巷15號","121.500258333333","25.0070033333333","6500300","中和區"
"235004","150-BY","2018/10/16 13:37:23","新北市中和區保健路50巷66號","121.509331666667","24.995155","6500300","中和區"
"235022","151-BY","2018/10/16 13:37:30","新北市中和區圓通路369巷36-1號","121.490923333333","24.9845533333333","6500300","中和區"
"235019","183-VK","2018/10/16 13:37:39","新北市中和區莒光路120巷12號","121.471621666667","25.0017816666667","6500300","中和區"
"235002","185-VK","2018/10/16 13:37:32","新北市中和區立人街14巷27號","121.519463333333","24.995235","6500300","中和區"
"235013","186-VK","2018/10/16 13:37:26","新北市中和區景平路480號","121.50511","24.9937066666667","6500300","中和區"
"235031","255-BX","2018/10/16 13:37:33","新北市中和區新生街186巷5弄27號","121.482868333333","24.9986916666667","6500300","中和區"
"235008","293-VK","2018/10/16 13:37:27","新北市中和區景安路220巷1弄4號","121.503171666667","24.9909183333333","6500300","中和區"
"235036","301-VK","2018/10/16 13:37:44","新北市中和區安邦街61號","121.496678333333","24.9970883333333","6500300","中和區"
"235043","352-BY","2018/10/16 13:37:33","新北市中和區景平路189號","121.511495","24.9925483333333","6500300","中和區"
"235014","4979-A6","2018/10/16 13:37:45","新北市中和區景新街496巷28弄12號","121.512993333333","24.9858933333333","6500300","中和區"
"235033","4980-A6","2018/10/16 13:37:29","新北市中和區連城路89巷4號","121.496935","24.9996383333333","6500300","中和區"
"235034","558-UM","2018/10/16 13:37:44","新北市中和區南華路9號","121.50215","24.99551","6500300","中和區"
"235009","565-BX","2018/10/16 13:37:39","新北市中和區南山路236巷63弄5號","121.503946666667","24.9877433333333","6500300","中和區"
"235018","640-BX","2018/10/16 13:37:41","新北市中和區莒光路132號","121.472505","25.0015283333333","6500300","中和區"
"235011","732-UM","2018/10/16 13:37:44","新北市中和區南山路320巷10弄6號","121.507253333333","24.9864183333333","6500300","中和區"
"235035","783-BX","2018/10/16 13:37:30","新北市中和區永和路356巷51號","121.487228333333","25.01429","6500300","中和區"
"235026","800-TS","2018/10/16 13:37:36","新北市中和區中山路二段312巷12號","121.495286666667","25.0037566666667","6500300","中和區"
"235021","801-TS","2018/10/16 13:37:43","新北市中和區民安街41號","121.479916666667","25.0002916666667","6500300","中和區"
"235005","802-TS","2018/10/16 13:37:25","新北市中和區中和路400巷17號","121.511605","25.0023266666667","6500300","中和區"
"235016","805-TS","2018/10/16 13:37:35","新北市中和區興南路三段21號","121.496901666667","24.97925","6500300","中和區"
"235012","896-TW","2018/10/16 13:37:26","新北市中和區中正路135號","121.499533333333","24.9934483333333","6500300","中和區"
"235017","900-TW","2018/10/16 13:37:35","新北市中和區莒光路211-39號","121.470275","24.9931266666667","6500300","中和區"
"235024","911-UM","2018/10/16 13:37:27","新北市中和區新生街3號","121.483176666667","25.004675","6500300","中和區"
"235015","157-BY","2018/10/16 13:37:39","新北市中和區華新街143巷106弄11號","121.50626","24.97878","6500300","中和區"
"235001","AAC-213","2018/10/16 13:37:27","新北市中和區景平路111巷70號","121.514931666667","24.990325","6500300","中和區"
"235023","AAC-215","2018/10/16 13:37:13","新北市中和區員山路36巷16-3號","121.484963333333","24.9914766666667","6500300","中和區"
"220104","015-TV","2018/10/16 13:37:42","新北市板橋區南雅西路二段145巷10號","121.451533333333","25.0120533333333","6500100","板橋區"
"220013","072-UY","2018/10/16 13:37:44","新北市板橋區南雅南路二段120-24號","121.451758333333","24.998895","6500100","板橋區"
"220034","073-UY","2018/10/16 13:37:29","新北市板橋區南雅西路二段177號","121.451843333333","25.01257","6500100","板橋區"
"220017","AAD-861","2018/10/16 13:37:28","新北市板橋區華東街1-10號","121.448371666667","24.9951066666667","6500100","板橋區"
"247009","056-VK","2018/10/16 13:37:36","新北市五股區中興路三段2巷10號","121.449128333333","25.0809566666667","6501400","蘆洲區"
"247021","001-UY","2018/10/16 13:37:27","新北市五股區中興路三段2巷10號","121.44916","25.0808633333333","6501400","蘆洲區"
"228004","212-TW","2018/10/16 13:35:52","新北市貢寮區龍崗里石壁坑街36號","121.91031","25.0001783333333","6502600","貢寮區"
"228005","828-UM","2018/10/16 13:37:39","新北市貢寮區美豐里文秀坑5-1號","121.90276","25.0506616666667","6502600","貢寮區"
"207002","749-BX","2018/10/16 13:37:41","新北市萬里區崁腳里崁腳路166號","121.645043333333","25.1558133333333","6502800","萬里區"
"207001","662-BX","2018/10/16 13:37:36","新北市萬里區大鵬里萬里加投32-3號","121.646301666667","25.2109766666667","6502800","萬里區"
"252005","AAC-283","2018/10/16 13:37:18","新北市三芝區圓山里二坪頂67號","121.540261666667","25.2329566666667","6502100","三芝區"
"236065","105-UM","2018/10/16 13:37:29","新北市土城區城林路6巷80號","121.438623333333","24.9797066666667","6501300","土城區"
"236032","271-VK","2018/10/16 13:37:31","新北市土城區城林路6巷80號","121.438446666667","24.97981","6501300","土城區"
"236017","401-BY","2018/10/16 13:37:37","新北市土城區城林路6巷80號","121.438538333333","24.9798133333333","6501300","土城區"
"236057","912-UM","2018/10/16 13:37:39","新北市土城區城林路6巷80號","121.438741666667","24.9796983333333","6501300","土城區"
"236045","913-UM","2018/10/16 13:37:29","新北市土城區城林路6巷80號","121.43844","24.979805","6501300","土城區"
"242050","172-VK","2018/10/16 13:37:39","新北市新莊區民安西路287號","121.426586666667","25.0121133333333","6500500","新莊區"
"221010","269-BY","2018/10/16 13:37:34","新北市汐止區八連路三段226-1號","121.611296666667","25.1169216666667","6501100","汐止區"
"221032","280-BY","2018/10/16 13:37:41","新北市汐止區新台五路一段260-1號","121.657831666667","25.0639116666667","6501100","汐止區"
"221031","353-TW","2018/10/16 13:37:23","新北市汐止區水源路二段24號","121.654723333333","25.0575766666667","6501100","汐止區"
"221002","707-TV","2018/10/16 13:37:43","台北市文山區老泉街27號","121.5608","24.9772566666667","6501100","汐止區"
"220027","145-BY","2018/10/16 13:37:32","新北市板橋區大觀路二段39號","121.446693333333","25.00291","6500100","板橋區"
"220028","200-UY","2018/10/16 13:36:45","新北市板橋區大觀路二段431-1號","121.441105","24.9944883333333","6500100","板橋區"
"220030","610-BX","2018/10/16 13:37:39","新北市板橋區大觀路二段443-2號","121.44058","24.9951","6500100","板橋區"
"220004","276-BY","2018/10/16 13:37:27","新北市板橋區四川路二段橋頭6號","121.4483","24.9940533333333","6500100","板橋區"
"220020","277-BY","2018/10/16 13:37:26","新北市板橋區大觀路二段265巷9-2號","121.442181666667","24.99483","6500100","板橋區"
"220043","283-UM","2018/10/16 13:37:28","新北市板橋區民生路二段161巷1號","121.469986666667","25.01987","6500100","板橋區"
"220019","283-VK","2018/10/16 13:37:36","新北市板橋區四川路二段243號","121.450451666667","24.99358","6500100","板橋區"
"220031","286-VK","2018/10/16 13:37:37","新北市板橋區大觀路288號","121.449501666667","24.9982933333333","6500100","板橋區"
"220081","287-VK","2018/10/16 13:37:34","新北市板橋區大觀路二段153巷24號","121.446833333333","25.0001583333333","6500100","板橋區"
"220039","288-VK","2018/10/16 13:37:38","新北市板橋區民生路二段201號","121.46921","25.02071","6500100","板橋區"
"220009","293-UM","2018/10/16 13:37:36","新北市板橋區民生路二段161巷1號","121.470171666667","25.0198783333333","6500100","板橋區"
"220032","296-UM","2018/10/16 13:37:33","新北市板橋區大觀路二段153巷46弄1號","121.44852","24.9986933333333","6500100","板橋區"
"220023","303-R5","2018/10/16 13:37:42","新北市板橋區大觀路二段14號","121.446826666667","25.0035766666667","6500100","板橋區"
"220012","486-VK","2018/10/16 13:37:40","新北市板橋區民生路二段36-1號","121.472126666667","25.0168216666667","6500100","板橋區"
"220005","686-BX","2018/10/16 13:37:29","新北市板橋區華東街1-9號","121.448188333333","24.99493","6500100","板橋區"
"220025","687-BX","2018/10/16 13:37:42","新北市板橋區大觀路三段180巷30號","121.429726666667","24.9936316666667","6500100","板橋區"
"220002","741-BX","2018/10/16 13:37:32","新北市板橋區華東街1-9號","121.448103333333","24.99495","6500100","板橋區"
"220003","827-TW","2018/10/16 13:37:26","新北市板橋區華東街1-9號","121.448206666667","24.99496","6500100","板橋區"
"220014","829-TW","2018/10/16 13:37:30","新北市板橋區民生路二段120號","121.470315","25.0198833333333","6500100","板橋區"
"220022","895-R6","2018/10/16 13:37:39","新北市板橋區南雅南路二段11-2號","121.454296666667","25.0024733333333","6500100","板橋區"
"220021","985-R7","2018/10/16 13:37:45","新北市板橋區南雅南路二段120-16號","121.452016666667","24.999255","6500100","板橋區"
"220018","AAC-253","2018/10/16 13:37:29","新北市板橋區華東街1-10號","121.448273333333","24.9949","6500100","板橋區"
"235032","KEA-2873","2018/10/16 13:37:37","新北市中和區中正路211巷13弄5號","121.497171666667","24.9930916666667","6500300","中和區"
"235025","KEA-2875","2018/10/16 13:37:19","新北市新莊區中正路508巷35弄80號","121.434858333333","25.0381616666667","6500300","中和區"
