"lineid","car","time","location","longitude","latitude","cityid","cityname"
"234044","148-BY","2018/10/16 13:57:39","新北市永和區成功路一段2號","121.526958333333","25.0056166666667","6500400","永和區"
"234005","207-UY","2018/10/16 13:57:35","新北市永和區中和路431-1號","121.50938","25.000925","6500400","永和區"
"234078","298-R6","2018/10/16 13:57:38","新北市永和區林森路112巷9弄7號","121.52191","25.0042733333333","6500400","永和區"
"234036","336-UY","2018/10/16 13:57:32","新北市永和區成功路二段135號","121.526713333333","24.9980216666667","6500400","永和區"
"234062","337-UY","2018/10/16 13:57:39","新北市永和區中正路368巷1弄43號","121.519033333333","25.001","6500400","永和區"
"234084","338-UY","2018/10/16 13:57:38","新北市永和區福和路80號","121.522901666667","25.0081583333333","6500400","永和區"
"234068","552-UM","2018/10/16 13:57:30","新北市永和區國光路6號","121.519695","25.0085783333333","6500400","永和區"
"234048","553-UM","2018/10/16 13:57:42","新北市永和區保安路264號","121.50592","25.0123533333333","6500400","永和區"
"234015","745-BX","2018/10/16 13:57:31","新北市永和區文化路14號","121.515375","25.0151","6500400","永和區"
"234028","746-BX","2018/10/16 13:57:25","新北市永和區民生路67巷57號","121.52572","24.9976616666667","6500400","永和區"
"234052","KEA-2590","2018/10/16 13:57:27","新北市永和區竹林路39巷35-1號","121.520123333333","25.0153183333333","6500400","永和區"
"234012","KEA-2591","2018/10/16 13:57:32","新北市永和區保生路55號","121.504711666667","25.0106266666667","6500400","永和區"
"234060","AAD-866","2018/10/16 13:57:27","新北市永和區中正路151巷5弄2號","121.515836666667","24.998675","6500400","永和區"
"234040","862-TW","2018/10/16 13:57:43","新北市永和區中和路335巷12號","121.507566666667","25.000205","6500400","永和區"
"234010","9373-KE","2018/10/16 13:57:37","新北市永和區仁愛路352巷92弄9號","121.501298333333","25.00834","6500400","永和區"
"248017","225-UY","2018/10/16 13:57:39","新北市五股區民義路一段287巷2-8號","121.423458333333","25.0902683333333","6501500","五股區"
"234022","9380-KE","2018/10/16 13:57:43","新北市永和區永和路二段215號","121.515456666667","25.013965","6500400","永和區"
"234076","969-R7","2018/10/16 13:57:39","新北市永和區民權路58巷3號","121.519685","24.9982666666667","6500400","永和區"
"234072","AAC-211","2018/10/16 13:57:32","新北市永和區豫溪街185號","121.522511666667","25.0103583333333","6500400","永和區"
"234066","AAC-212","2018/10/16 13:57:41","新北市永和區永貞路358號","121.510175","25.0065566666667","6500400","永和區"
"234001","AAC-295","2018/10/16 13:57:33","新北市永和區福和路346號","121.514998333333","25.0072283333333","6500400","永和區"
"244002","248-BX","2018/10/16 13:53:03","新北市林口區竹林路267號","121.389598333333","25.08081","6501700","林口區"
"231002","002-UM","2018/10/16 13:57:37","新北市新店區中正路627號","121.533855","24.9890733333333","6500600","新店區"
"231027","0293-UT","2018/10/16 13:57:44","新北市新店區中興路一段24-2號","121.538608333333","24.9584416666667","6500600","新店區"
"231028","046-UY","2018/10/16 13:57:43","新北市新店區安和路三段22-4號","121.51795","24.981655","6500600","新店區"
"231001","047-UY","2018/10/16 13:57:30","新北市新店區三民路45號","121.537115","24.9708916666667","6500600","新店區"
"231010","107-UY","2018/10/16 13:57:37","新北市新店區環河路182-3號","121.534286666667","24.9698266666667","6500600","新店區"
"231020","108-UY","2018/10/16 13:57:37","新北市新店區湖子內路22號","121.542288333333","24.9309316666667","6500600","新店區"
"231012","187-VK","2018/10/16 13:57:28","新北市新店區中興路二段57巷2號","121.546268333333","24.9705633333333","6500600","新店區"
"231023","KEA-2219","2018/10/16 13:57:27","新北市新店區文中路45號","121.539575","24.956675","6500600","新店區"
"231026","256-BX","2018/10/16 13:57:24","新北市新店區環河路22號","121.536895","24.961765","6500600","新店區"
"231003","268-BY","2018/10/16 13:57:33","新北市新店區中興路一段81號","121.540695","24.96158","6500600","新店區"
"231018","278-BY","2018/10/16 13:57:28","新北市新店區中央路192號","121.530908333333","24.97482","6500600","新店區"
"231015","AAD-862","2018/10/16 13:57:24","新北市新店區郵政路81號","121.555208333333","24.95167","6500600","新店區"
"231030","355-BY","2018/10/16 13:57:42","新北市新店區安康路一段302-6號","121.517903333333","24.96412","6500600","新店區"
"231038","3712-VJ","2018/10/16 13:57:39","新北市新店區安華路30巷1號","121.519585","24.9592733333333","6500600","新店區"
"231037","4716-K9","2018/10/16 13:57:31","新北市新店區安康路三段359巷12弄16號","121.484171666667","24.9496166666667","6500600","新店區"
"231025","4715-K9","2018/10/16 13:57:29","新北市新店區中正路328巷19號","121.53744","24.975665","6500600","新店區"
"231036","512-UM","2018/10/16 13:57:41","新北市新店區安祥路109巷5號","121.475725","24.9589166666667","6500600","新店區"
"231013","513-UM","2018/10/16 13:57:36","新北市新店區明德路64號","121.541575","24.979425","6500600","新店區"
"231034","616-UM","2018/10/16 13:57:41","新北市新店區達觀路16號","121.50355","24.94037","6500600","新店區"
"231005","618-UM","2018/10/16 13:57:27","新北市新店區寶中路45-3號","121.544905","24.97938","6500600","新店區"
"231035","719-UM","2018/10/16 13:57:30","新北市新店區安康路二段1-5號","121.51706","24.96391","6500600","新店區"
"231032","720-UM","2018/10/16 13:57:33","新北市新店區莒光路44巷21弄11-6號","121.518431666667","24.952255","6500600","新店區"
"231029","897-TW","2018/10/16 13:57:34","新北市新店區安和路一段1號","121.516705","24.96382","6500600","新店區"
"231006","898-TW","2018/10/16 13:57:41","新北市新店區北宜路二段209號","121.553143333333","24.9533266666667","6500600","新店區"
"231004","899-TW","2018/10/16 13:57:45","新北市新店區北新路二段106號","121.543005","24.9739516666667","6500600","新店區"
"231024","AKT-0513","2018/10/16 13:57:37","新北市新店區中央二街77號","121.525943333333","24.97483","6500600","新店區"
"235030","003-UY","2018/10/16 13:57:31","新北市中和區中山路二段131巷5弄3號","121.502868333333","25.0028816666667","6500300","中和區"
"235028","005-UY","2018/10/16 13:57:28","新北市中和區泰和街36號","121.49928","25.0001566666667","6500300","中和區"
"235027","006-UY","2018/10/16 13:57:25","新北市中和區中正路578號","121.486108333333","24.994735","6500300","中和區"
"235020","096-UM","2018/10/16 13:57:34","新北市中和區中正路1218號","121.47979","25.01091","6500300","中和區"
"235003","097-UM","2018/10/16 13:57:45","新北市中和區自立路58巷8號","121.523265","24.9915616666667","6500300","中和區"
"235029","098-UM","2018/10/16 13:57:35","新北市中和區莊敬路47號","121.50112","25.0051283333333","6500300","中和區"
"235004","150-BY","2018/10/16 13:57:43","新北市中和區保健路65號","121.509665","24.9971516666667","6500300","中和區"
"235022","151-BY","2018/10/16 13:57:33","新北市中和區連城路532號","121.475628333333","24.9915166666667","6500300","中和區"
"235019","183-VK","2018/10/16 13:57:39","新北市中和區中山路三段204號","121.471655","25.0065016666667","6500300","中和區"
"235002","185-VK","2018/10/16 13:57:32","新北市中和區立人街24-5號","121.518848333333","24.9941633333333","6500300","中和區"
"235013","186-VK","2018/10/16 13:57:23","新北市中和區景新街216號","121.507026666667","24.99504","6500300","中和區"
"235031","255-BX","2018/10/16 13:57:33","新北市中和區新生街266號","121.483451666667","24.9972183333333","6500300","中和區"
"235008","293-VK","2018/10/16 13:57:27","新北市中和區復興路280巷33弄6號","121.501205","24.991475","6500300","中和區"
"235036","301-VK","2018/10/16 13:57:24","新北市中和區中山路二段97號","121.503393333333","25.0040283333333","6500300","中和區"
"235043","352-BY","2018/10/16 13:57:34","新北市中和區成功路1巷4號","121.526408333333","24.99446","6500300","中和區"
"235006","KEA-2878","2018/10/16 13:57:41","新北市中和區秀朗路三段70巷38號","121.525411666667","24.994515","6500300","中和區"
"235014","4979-A6","2018/10/16 13:57:24","新北市中和區忠孝街58巷7號","121.512065","24.9833183333333","6500300","中和區"
"235033","4980-A6","2018/10/16 13:57:29","新北市中和區圓通路109巷3號","121.500026666667","24.996345","6500300","中和區"
"235034","558-UM","2018/10/16 13:57:44","新北市中和區安和路159號","121.50628","24.99727","6500300","中和區"
"235009","565-BX","2018/10/16 13:57:39","新北市中和區景新街467巷20弄11號","121.514506666667","24.987585","6500300","中和區"
"235018","640-BX","2018/10/16 13:57:41","新北市中和區民享街91-6號","121.47449","25.0010933333333","6500300","中和區"
"235011","732-UM","2018/10/16 13:57:44","新北市中和區興南路二段52號","121.506538333333","24.9850616666667","6500300","中和區"
"235010","733-UM","2018/10/16 13:57:28","新北市中和區興南路一段156號","121.508318333333","24.9868266666667","6500300","中和區"
"235035","783-BX","2018/10/16 13:57:30","新北市中和區立德街98巷79號","121.488276666667","25.0089566666667","6500300","中和區"
"235026","800-TS","2018/10/16 13:57:37","新北市中和區中山路二段366巷13-1號","121.49179","25.004485","6500300","中和區"
"235021","801-TS","2018/10/16 13:57:43","新北市中和區民利街40巷3弄11號","121.47889","24.9991933333333","6500300","中和區"
"235005","802-TS","2018/10/16 13:57:25","新北市中和區永貞路239巷11號","121.512711666667","25.003215","6500300","中和區"
"235016","805-TS","2018/10/16 13:57:35","新北市中和區興南路二段131號","121.503665","24.9819933333333","6500300","中和區"
"235012","896-TW","2018/10/16 13:57:26","新北市中和區華新街31號","121.50773","24.9848016666667","6500300","中和區"
"235017","900-TW","2018/10/16 13:57:35","新北市中和區壽德街20-1號","121.466276666667","24.9948016666667","6500300","中和區"
"235024","911-UM","2018/10/16 13:57:27","新北市中和區民治街9巷1號","121.47514","25.00458","6500300","中和區"
"235015","157-BY","2018/10/16 13:57:39","新北市中和區忠孝街19巷12號","121.510206666667","24.98324","6500300","中和區"
"235001","AAC-213","2018/10/16 13:57:27","新北市中和區自立路99巷30號","121.523678333333","24.9946083333333","6500300","中和區"
"235023","AAC-215","2018/10/16 13:57:33","新北市中和區圓通路367巷40號","121.492015","24.9886016666667","6500300","中和區"
"220104","015-TV","2018/10/16 13:57:42","新北市板橋區中正路375巷27號","121.453835","25.0201633333333","6500100","板橋區"
"220013","072-UY","2018/10/16 13:57:44","新北市板橋區民族路247巷9弄46號","121.4709","25.0086416666667","6500100","板橋區"
"220034","073-UY","2018/10/16 13:57:29","新北市板橋區中正路236巷3號","121.456056666667","25.019155","6500100","板橋區"
"220105","075-UY","2018/10/16 13:57:30","新北市板橋區文化路二段124巷36號","121.471543333333","25.0255516666667","6500100","板橋區"
"220017","AAD-861","2018/10/16 13:57:28","新北市板橋區大華街106號","121.459365","25.0053866666667","6500100","板橋區"
"247015","546-UM","2018/10/16 13:57:40","新北市蘆洲區光華路44號","121.468816666667","25.0830466666667","6501400","蘆洲區"
"247013","339-TH","2018/10/16 13:57:38","新北市蘆洲區中正路156-1號","121.468845","25.08545","6501400","蘆洲區"
"247005","337-TH","2018/10/16 13:57:27","新北市蘆洲區中山一路298號","121.470498333333","25.0781116666667","6501400","蘆洲區"
"247007","336-TH","2018/10/16 13:57:41","新北市三重區仁愛街747號","121.481285","25.08065","6501400","蘆洲區"
"247019","057-VK","2018/10/16 13:57:29","新北市蘆洲區民族路422巷16號","121.474151666667","25.09231","6501400","蘆洲區"
"247009","056-VK","2018/10/16 13:57:36","新北市蘆洲區集賢路224巷20號","121.48177","25.0871683333333","6501400","蘆洲區"
"247017","007-UY","2018/10/16 13:57:29","新北市蘆洲區民族路257巷2號","121.476541666667","25.0904266666667","6501400","蘆洲區"
"247003","002-UY","2018/10/16 13:57:24","新北市蘆洲區長榮路19號","121.463616666667","25.0822083333333","6501400","蘆洲區"
"247021","001-UY","2018/10/16 13:57:27","新北市蘆洲區中正路261號","121.46746","25.087405","6501400","蘆洲區"
"228004","212-TW","2018/10/16 13:57:32","新北市貢寮區龍崗里嵩陽街40號","121.905446666667","25.01501","6502600","貢寮區"
"228005","828-UM","2018/10/16 13:57:39","新北市貢寮區美豐里雞母嶺街52號","121.88939","25.068205","6502600","貢寮區"
"207002","749-BX","2018/10/16 13:57:41","新北市萬里區溪底里富士坪路1號","121.63174","25.1503916666667","6502800","萬里區"
"207001","662-BX","2018/10/16 13:57:25","新北市萬里區磺潭里公館崙49號","121.629146666667","25.2067216666667","6502800","萬里區"
"252005","AAC-283","2018/10/16 13:57:38","新北市三芝區橫山里橫山51-1號","121.533665","25.2558166666667","6502100","三芝區"
"236065","105-UM","2018/10/16 13:57:29","新北市土城區金城路一段78號","121.443966666667","24.972645","6501300","土城區"
"236040","107-UM","2018/10/16 13:57:27","新北市土城區城林路6巷80號","121.438473333333","24.9797933333333","6501300","土城區"
"236074","166-UM","2018/10/16 13:57:40","新北市土城區大安路2號","121.4325","24.96552","6501300","土城區"
"236029","253-BX","2018/10/16 13:57:21","新北市土城區中央路二段280號","121.44077","24.9741183333333","6501300","土城區"
"236024","269-VK","2018/10/16 13:57:34","新北市土城區中華路二段82-1號","121.438783333333","24.9760266666667","6501300","土城區"
"236013","270-VK","2018/10/16 13:57:23","新北市土城區城林路6巷80號","121.438513333333","24.97978","6501300","土城區"
"236032","271-VK","2018/10/16 13:57:31","新北市土城區城林路6巷80號","121.438455","24.9797883333333","6501300","土城區"
"236017","401-BY","2018/10/16 13:57:37","新北市土城區城林路6巷80號","121.438533333333","24.9798016666667","6501300","土城區"
"236054","752-BX","2018/10/16 13:56:14","新北市土城區中央路二段280號","121.440695","24.97394","6501300","土城區"
"236057","912-UM","2018/10/16 13:57:39","新北市土城區中央路三段212號","121.42949","24.964675","6501300","土城區"
"236045","913-UM","2018/10/16 13:57:29","新北市土城區城林路6巷80號","121.43844","24.9798283333333","6501300","土城區"
"236060","915-UM","2018/10/16 13:57:35","新北市土城區城林路6巷80號","121.43851","24.979725","6501300","土城區"
"221010","269-BY","2018/10/16 13:57:34","新北市汐止區長青路210巷188號","121.616265","25.1132833333333","6501100","汐止區"
"221031","353-TW","2018/10/16 13:57:42","新北市汐止區和平街8號","121.663303333333","25.0707883333333","6501100","汐止區"
"221002","707-TV","2018/10/16 13:57:43","新北市新店區薏仁坑路自強巷1號","121.497655","24.957735","6501100","汐止區"
"220027","145-BY","2018/10/16 13:57:11","新北市板橋區民權路202巷7弄24號","121.459133333333","25.015035","6500100","板橋區"
"220028","200-UY","2018/10/16 13:57:25","新北市板橋區合宜一路39-1號","121.443606666667","24.99619","6500100","板橋區"
"220030","610-BX","2018/10/16 13:57:44","新北市板橋區滿平街65號","121.427581666667","24.98922","6500100","板橋區"
"220050","245-BX","2018/10/16 13:57:34","新北市板橋區文化路二段182巷11號","121.472065","25.02681","6500100","板橋區"
"220040","267-BY","2018/10/16 13:57:39","新北市板橋區雙十路二段47巷25號","121.475335","25.0256116666667","6500100","板橋區"
"220004","276-BY","2018/10/16 13:57:27","新北市板橋區信義路165號","121.458711666667","24.9922833333333","6500100","板橋區"
"220020","277-BY","2018/10/16 13:57:26","新北市板橋區金門街293號","121.430308333333","24.986725","6500100","板橋區"
"220043","283-UM","2018/10/16 13:57:28","新北市板橋區文化路二段22號","121.469001666667","25.02434","6500100","板橋區"
"220019","283-VK","2018/10/16 13:57:43","新北市板橋區重慶路245巷50弄55號","121.465238333333","24.9992966666667","6500100","板橋區"
"220001","285-VK","2018/10/16 13:57:35","新北市板橋區中山路二段157號","121.475638333333","25.0166083333333","6500100","板橋區"
"220031","286-VK","2018/10/16 13:57:37","新北市板橋區大觀路一段38巷170弄1號","121.44194","25.0046033333333","6500100","板橋區"
"220081","287-VK","2018/10/16 13:57:41","新北市板橋區光華街19巷8號","121.453616666667","25.0121816666667","6500100","板橋區"
"220039","288-VK","2018/10/16 13:57:38","新北市板橋區四維路177巷2弄1號","121.464013333333","25.026265","6500100","板橋區"
"220009","293-UM","2018/10/16 13:57:36","新北市板橋區富山街109巷28弄6號","121.47571","25.0216833333333","6500100","板橋區"
"220010","295-UM","2018/10/16 13:57:44","新北市板橋區三民路二段245巷5號","121.479635","25.012555","6500100","板橋區"
"220032","296-UM","2018/10/16 13:57:33","新北市板橋區龍興街4號","121.442798333333","24.9994416666667","6500100","板橋區"
"220023","303-R5","2018/10/16 13:57:42","新北市板橋區大智街25巷29號","121.454291666667","25.014815","6500100","板橋區"
"220041","307-R5","2018/10/16 13:57:29","新北市板橋區文化路一段247號","121.464261666667","25.0180833333333","6500100","板橋區"
"220047","317-R6","2018/10/16 13:57:36","新北市板橋區民有街32號","121.466006666667","25.0253783333333","6500100","板橋區"
"220012","486-VK","2018/10/16 13:57:40","新北市板橋區板新路219號","121.4683","25.0159133333333","6500100","板橋區"
"220038","487-VK","2018/10/16 13:57:45","新北市板橋區文化路二段37號","121.468973333333","25.024915","6500100","板橋區"
"220037","491-VK","2018/10/16 13:57:37","新北市板橋區民生路二段208號","121.469583333333","25.02115","6500100","板橋區"
"220011","609-BX","2018/10/16 13:57:31","新北市板橋區中山路二段179號","121.476225","25.0169183333333","6500100","板橋區"
"220005","686-BX","2018/10/16 13:57:42","新北市板橋區館前東路15號","121.460036666667","25.0072716666667","6500100","板橋區"
"220025","687-BX","2018/10/16 13:57:42","新北市板橋區大觀路二段174巷171號","121.44192","25.0035316666667","6500100","板橋區"
"220042","689-BX","2018/10/16 13:57:26","新北市板橋區民生路三段42號","121.467328333333","25.0250033333333","6500100","板橋區"
"220002","741-BX","2018/10/16 13:57:32","新北市板橋區後埔街41號","121.460595","25.006055","6500100","板橋區"
"220051","KEA-2699","2018/10/16 13:57:27","新北市板橋區雙十路一段44巷36號","121.477398333333","25.02473","6500100","板橋區"
"220003","827-TW","2018/10/16 13:57:26","新北市板橋區民安街3號","121.46658","25.0119466666667","6500100","板橋區"
"220014","829-TW","2018/10/16 13:57:31","新北市板橋區三民路二段正隆巷12弄2號","121.477968333333","25.0127966666667","6500100","板橋區"
"220016","830-TW","2018/10/16 13:57:26","新北市板橋區三民路一段31巷42號","121.481141666667","25.0230283333333","6500100","板橋區"
"220045","831-TW","2018/10/16 13:57:25","新北市板橋區莒光路79巷2號","121.47185","25.0243516666667","6500100","板橋區"
"220022","895-R6","2018/10/16 13:57:39","新北市板橋區南雅南路一段106號","121.454931666667","25.00429","6500100","板橋區"
"220021","985-R7","2018/10/16 13:57:25","新北市板橋區館前西路269號","121.453486666667","25.0087033333333","6500100","板橋區"
"220046","AAC-210","2018/10/16 13:57:43","新北市板橋區國光路219號","121.462318333333","25.0185966666667","6500100","板橋區"
"220018","AAC-253","2018/10/16 13:57:32","新北市板橋區四川路一段223號","121.46007","25.003265","6500100","板橋區"
"235032","KEA-2873","2018/10/16 13:57:37","新北市中和區連勝街52號","121.497698333333","24.9972583333333","6500300","中和區"
"235025","KEA-2875","2018/10/16 13:51:20","新北市八里區長道坑25-3號","121.396098333333","25.10327","6500300","中和區"
