"lineid","car","time","location","longitude","latitude","cityid","cityname"
"234078","298-R6","2018/10/16 14:20:38","新北市永和區國中路132巷6弄1號","121.523741666667","25.00725","6500400","永和區"
"234036","336-UY","2018/10/16 14:24:52","新北市永和區民樂街31巷6弄15號","121.528871666667","25.0016383333333","6500400","永和區"
"234062","337-UY","2018/10/16 14:28:38","新北市永和區中正路419號","121.51703","25.0049583333333","6500400","永和區"
"234084","338-UY","2018/10/16 14:23:17","新北市永和區永和路二段330號","121.516206666667","25.0165416666667","6500400","永和區"
"234068","552-UM","2018/10/16 14:28:38","新北市永和區永亨路6-1號","121.51934","25.00557","6500400","永和區"
"234048","553-UM","2018/10/16 14:29:27","新北市永和區保安路132號","121.50889","25.0152433333333","6500400","永和區"
"234028","746-BX","2018/10/16 14:29:04","新北市永和區民權路51號","121.519991666667","24.9969616666667","6500400","永和區"
"234052","KEA-2590","2018/10/16 14:29:06","新北市永和區環河東路一段66號","121.519351666667","25.0167433333333","6500400","永和區"
"234060","AAD-866","2018/10/16 14:27:47","新北市永和區秀安街15巷1號","121.516078333333","25.00361","6500400","永和區"
"234040","862-TW","2018/10/16 14:29:08","新北市永和區安樂路336號","121.514495","25.0059183333333","6500400","永和區"
"234025","9371-KE","2018/10/16 14:29:11","新北市中和區安樂路161-1號","121.514776666667","24.9974666666667","6500400","永和區"
"248017","225-UY","2018/10/16 14:26:59","新北市五股區壟路16號","121.415446666667","25.0855833333333","6501500","五股區"
"234072","AAC-211","2018/10/16 14:28:32","新北市永和區環河東路一段124號","121.520661666667","25.01541","6500400","永和區"
"234001","AAC-295","2018/10/16 14:27:44","新北市永和區大新街31號","121.515168333333","25.00853","6500400","永和區"
"244002","248-BX","2018/10/16 14:24:48","新北市林口區竹林路266號","121.38963","25.0808566666667","6501700","林口區"
"231002","002-UM","2018/10/16 14:28:58","新北市新店區中正路407號","121.534348333333","24.977595","6500600","新店區"
"231027","0293-UT","2018/10/16 14:28:44","新北市新店區寶橋路85巷5弄3號","121.54602","24.9756866666667","6500600","新店區"
"231028","046-UY","2018/10/16 14:29:03","新北市新店區安和路一段6-1號","121.517113333333","24.9649166666667","6500600","新店區"
"231001","047-UY","2018/10/16 14:29:30","新北市新店區北新路一段96巷23號","121.543038333333","24.968805","6500600","新店區"
"231020","108-UY","2018/10/16 14:28:37","新北市新店區桂山路81巷1號","121.5675","24.8993416666667","6500600","新店區"
"231012","187-VK","2018/10/16 14:28:08","新北市新店區五峰路61巷2-2號","121.547448333333","24.97006","6500600","新店區"
"231023","KEA-2219","2018/10/16 14:28:35","新北市新店區光明街123號","121.53937","24.9616416666667","6500600","新店區"
"231003","268-BY","2018/10/16 14:26:33","新北市新店區中興路一段222號","121.544315","24.9663433333333","6500600","新店區"
"231018","278-BY","2018/10/16 14:29:08","新北市新店區中央路216-1號","121.529928333333","24.973245","6500600","新店區"
"231015","AAD-862","2018/10/16 14:29:24","新北市新店區北宜路三段221號","121.592416666667","24.953255","6500600","新店區"
"231030","355-BY","2018/10/16 14:29:02","新北市新店區安民街65巷17號","121.515941666667","24.9669516666667","6500600","新店區"
"231038","3712-VJ","2018/10/16 14:28:37","新北市新店區溪洲路8巷2-2號","121.533545","24.9613033333333","6500600","新店區"
"231037","4716-K9","2018/10/16 14:29:11","新北市新店區車子路30號","121.50424","24.9521816666667","6500600","新店區"
"231036","512-UM","2018/10/16 14:29:18","新北市新店區安祥路106巷143號","121.473351666667","24.9587266666667","6500600","新店區"
"231013","513-UM","2018/10/16 14:29:15","新北市新店區民權路90巷20號","121.536058333333","24.9837033333333","6500600","新店區"
"231034","616-UM","2018/10/16 14:29:21","新北市新店區車子路11號","121.503041666667","24.95204","6500600","新店區"
"231005","618-UM","2018/10/16 14:25:47","新北市新店區北新路二段268號","121.54269","24.9787833333333","6500600","新店區"
"231035","719-UM","2018/10/16 14:18:10","新北市新店區安和路二段113巷3弄5號","121.517986666667","24.9699933333333","6500600","新店區"
"231032","720-UM","2018/10/16 14:28:33","新北市新店區溪洲路123號","121.530471666667","24.9638883333333","6500600","新店區"
"231029","897-TW","2018/10/16 14:28:54","新北市新店區安康路二段458號","121.494351666667","24.954235","6500600","新店區"
"231006","898-TW","2018/10/16 14:29:20","新北市新店區北宜路二段417號","121.560131666667","24.9544466666667","6500600","新店區"
"231004","899-TW","2018/10/16 14:28:36","新北市新店區中正路263-4號","121.538275","24.97388","6500600","新店區"
"231024","AKT-0513","2018/10/16 14:29:17","新北市新店區中華路83巷61號","121.53838","24.9674883333333","6500600","新店區"
"235030","003-UY","2018/10/16 14:28:51","新北市中和區中和路132號","121.503621666667","24.9993633333333","6500300","中和區"
"235028","005-UY","2018/10/16 14:29:08","新北市中和區南山路123號","121.502148333333","24.9971816666667","6500300","中和區"
"235027","006-UY","2018/10/16 14:29:04","新北市中和區連城路164號","121.493855","24.997545","6500300","中和區"
"235020","096-UM","2018/10/16 14:29:14","新北市中和區員山路514巷1號","121.47929","25.009635","6500300","中和區"
"235003","097-UM","2018/10/16 14:28:45","新北市中和區秀峰街84號","121.519738333333","24.9909883333333","6500300","中和區"
"235029","098-UM","2018/10/16 14:28:50","新北市中和區福祥路46號","121.499418333333","25.0039966666667","6500300","中和區"
"235004","150-BY","2018/10/16 14:28:03","新北市中和區宜安路23巷14號","121.512375","24.99537","6500300","中和區"
"235022","151-BY","2018/10/16 14:28:33","新北市中和區中正路637巷52弄1號","121.48534","24.9937616666667","6500300","中和區"
"235019","183-VK","2018/10/16 14:26:40","新北市中和區德光路27巷1弄1號","121.470825","25.0040983333333","6500300","中和區"
"235002","185-VK","2018/10/16 14:28:32","新北市中和區自立路99巷1號","121.52207","24.9949783333333","6500300","中和區"
"235013","186-VK","2018/10/16 14:27:47","新北市中和區景新街277號","121.509455","24.9936166666667","6500300","中和區"
"235031","255-BX","2018/10/16 14:29:13","新北市中和區新生街226號","121.483881666667","24.9983383333333","6500300","中和區"
"235008","293-VK","2018/10/16 14:28:42","新北市中和區復興路262號","121.50338","24.9904383333333","6500300","中和區"
"235036","301-VK","2018/10/16 14:28:24","新北市中和區福祥路8號","121.499523333333","25.0029533333333","6500300","中和區"
"235043","352-BY","2018/10/16 14:28:53","新北市中和區景平路161-1號","121.51259","24.9924666666667","6500300","中和區"
"235006","KEA-2878","2018/10/16 14:29:01","新北市中和區中和路262巷45號","121.510015","24.999825","6500300","中和區"
"247011","KEA-2869","2018/10/16 14:28:58","新北市蘆洲區復興路289號","121.48168","25.0902333333333","6501400","蘆洲區"
"235014","4979-A6","2018/10/16 14:28:44","新北市中和區中正路406號","121.492486666667","24.9943116666667","6500300","中和區"
"235033","4980-A6","2018/10/16 14:28:09","新北市中和區連城路134巷4號","121.495703333333","24.9993066666667","6500300","中和區"
"235034","558-UM","2018/10/16 14:29:03","新北市中和區南山路7號","121.502095","24.999495","6500300","中和區"
"235009","565-BX","2018/10/16 14:27:39","新北市中和區景新街568-1號","121.514636666667","24.9866433333333","6500300","中和區"
"235018","640-BX","2018/10/16 14:28:33","新北市中和區國光街102巷8號","121.47043","25.0004333333333","6500300","中和區"
"235011","732-UM","2018/10/16 14:29:04","新北市中和區景平路241巷60號","121.507861666667","24.9922816666667","6500300","中和區"
"235010","733-UM","2018/10/16 14:29:28","新北市中和區忠孝街37巷52號","121.511136666667","24.9849583333333","6500300","中和區"
"235035","783-BX","2018/10/16 14:29:21","新北市中和區連城路467-5號","121.483585","24.9959816666667","6500300","中和區"
"235026","800-TS","2018/10/16 14:29:17","新北市中和區中山路二段488-1號","121.487423333333","25.0049033333333","6500300","中和區"
"235021","801-TS","2018/10/16 14:29:03","新北市中和區員山路400號","121.480456666667","25.0047816666667","6500300","中和區"
"235005","802-TS","2018/10/16 14:28:44","新北市中和區景安路33號","121.507628333333","24.9985916666667","6500300","中和區"
"235016","805-TS","2018/10/16 14:28:35","新北市中和區華新街143巷67弄19號","121.507193333333","24.9790933333333","6500300","中和區"
"235012","896-TW","2018/10/16 14:28:46","新北市中和區忠孝街39-2號","121.51165","24.9838183333333","6500300","中和區"
"235017","900-TW","2018/10/16 14:28:35","新北市中和區民德路197-1號","121.468475","24.99887","6500300","中和區"
"235024","911-UM","2018/10/16 14:28:27","新北市中和區新生街112巷2號","121.482991666667","25.0029816666667","6500300","中和區"
"235015","157-BY","2018/10/16 14:29:20","新北市中和區中興街132巷6號","121.499361666667","24.9920416666667","6500300","中和區"
"235001","AAC-213","2018/10/16 14:29:27","新北市中和區秀朗路三段10巷14弄18號","121.524941666667","24.9966416666667","6500300","中和區"
"235023","AAC-215","2018/10/16 14:27:53","新北市中和區圓通路274-7號","121.492216666667","24.990825","6500300","中和區"
"220104","015-TV","2018/10/16 14:22:42","新北市板橋區中正路375巷21號","121.454071666667","25.02053","6500100","板橋區"
"220013","072-UY","2018/10/16 14:27:24","新北市板橋區國泰街75巷28弄27號","121.467816666667","25.00462","6500100","板橋區"
"220034","073-UY","2018/10/16 14:25:49","新北市板橋區中正路250巷91號","121.45945","25.0200716666667","6500100","板橋區"
"220105","075-UY","2018/10/16 14:26:30","新北市板橋區江寧路三段69號","121.472123333333","25.03233","6500100","板橋區"
"220017","AAD-861","2018/10/16 14:26:28","新北市板橋區大明街20巷29弄10號","121.457756666667","25.0035366666667","6500100","板橋區"
"247001","893-R6","2018/10/16 14:29:12","新北市蘆洲區永樂街38巷33弄6號","121.457883333333","25.0895566666667","6501400","蘆洲區"
"247015","546-UM","2018/10/16 14:29:00","新北市蘆洲區中正路185巷78弄16號","121.465923333333","25.0846166666667","6501400","蘆洲區"
"247023","500-BY","2018/10/16 14:29:00","新北市蘆洲區中正路263巷2號","121.467215","25.0875566666667","6501400","蘆洲區"
"247013","339-TH","2018/10/16 14:29:18","新北市蘆洲區成功路193號","121.471226666667","25.0838183333333","6501400","蘆洲區"
"247005","337-TH","2018/10/16 14:28:28","新北市蘆洲區中華街73號","121.462191666667","25.0804133333333","6501400","蘆洲區"
"247007","336-TH","2018/10/16 14:29:21","新北市蘆洲區民生街105號","121.473503333333","25.0787733333333","6501400","蘆洲區"
"247019","057-VK","2018/10/16 14:28:49","新北市蘆洲區仁愛街74號","121.470851666667","25.0943166666667","6501400","蘆洲區"
"247009","056-VK","2018/10/16 14:28:32","新北市蘆洲區鷺江街16-1號","121.4789","25.082515","6501400","蘆洲區"
"247017","007-UY","2018/10/16 14:29:09","新北市蘆洲區復興路231號","121.48005","25.08984","6501400","蘆洲區"
"247003","002-UY","2018/10/16 14:29:04","新北市蘆洲區永康街116號","121.458348333333","25.0854566666667","6501400","蘆洲區"
"228004","212-TW","2018/10/16 14:28:12","新北市貢寮區雙玉里田寮洋街33-1號","121.932906666667","25.0137983333333","6502600","貢寮區"
"228005","828-UM","2018/10/16 14:29:19","新北市貢寮區美豐里巫里岸9-1號","121.901935","25.0701033333333","6502600","貢寮區"
"207002","749-BX","2018/10/16 14:27:09","新北市萬里區溪底里溪底路6-2號","121.616356666667","25.150885","6502800","萬里區"
"207001","662-BX","2018/10/16 14:29:16","新北市萬里區磺潭里清水18-2號","121.638498333333","25.1983866666667","6502800","萬里區"
"252005","AAC-283","2018/10/16 14:29:18","新北市三芝區橫山里大坑10-1號","121.521211666667","25.2565433333333","6502100","三芝區"
"236065","105-UM","2018/10/16 14:28:09","新北市土城區永豐路205-5號","121.474655","24.9778533333333","6501300","土城區"
"236040","107-UM","2018/10/16 14:25:47","新北市土城區裕民路61巷4號","121.449431666667","24.988","6501300","土城區"
"236074","166-UM","2018/10/16 14:28:55","新北市土城區大暖路20巷2號","121.423525","24.95991","6501300","土城區"
"236029","253-BX","2018/10/16 14:27:01","新北市土城區水源街81巷1弄1號","121.439566666667","24.976245","6501300","土城區"
"236024","269-VK","2018/10/16 14:28:54","新北市土城區承天路18號","121.439515","24.96345","6501300","土城區"
"236013","270-VK","2018/10/16 14:29:03","新北市土城區青雲路39巷7號","121.460333333333","24.987595","6501300","土城區"
"236032","271-VK","2018/10/16 14:24:51","新北市土城區青雲路483巷13弄40號","121.460345","24.9744516666667","6501300","土城區"
"236017","401-BY","2018/10/16 14:28:17","新北市土城區永豐路202巷14號","121.466251666667","24.983505","6501300","土城區"
"236054","752-BX","2018/10/16 14:27:47","新北市土城區中華路二段145號","121.43894","24.9761083333333","6501300","土城區"
"236057","912-UM","2018/10/16 14:29:20","新北市土城區中央路四段71號","121.417263333333","24.9583066666667","6501300","土城區"
"236045","913-UM","2018/10/16 14:25:29","新北市土城區青雲路545號","121.458923333333","24.9724716666667","6501300","土城區"
"236060","915-UM","2018/10/16 14:26:15","新北市土城區延壽路1-9號","121.469238333333","24.9938866666667","6501300","土城區"
"221010","269-BY","2018/10/16 14:28:34","新北市汐止區長青路210巷121號","121.615058333333","25.1139883333333","6501100","汐止區"
"221031","353-TW","2018/10/16 14:28:42","新北市汐止區汐萬路一段256巷3號","121.653358333333","25.0746983333333","6501100","汐止區"
"221002","707-TV","2018/10/16 14:27:23","台北市文山區老泉街45巷11-1號","121.572408333333","24.9759966666667","6501100","汐止區"
"220027","145-BY","2018/10/16 14:12:32","新北市板橋區民權路260巷18號","121.458463333333","25.0152466666667","6500100","板橋區"
"220028","200-UY","2018/10/16 14:17:45","新北市板橋區大觀路二段37巷320號","121.449628333333","25.0022133333333","6500100","板橋區"
"220030","610-BX","2018/10/16 14:19:59","新北市板橋區金門街338號","121.42824","24.98463","6500100","板橋區"
"220050","245-BX","2018/10/16 14:24:14","新北市板橋區縣民大道三段133巷1號","121.47759","25.023155","6500100","板橋區"
"220052","257-TC","2018/10/16 14:22:01","新北市板橋區文化路一段188巷9弄68號","121.468118333333","25.01917","6500100","板橋區"
"220040","267-BY","2018/10/16 14:25:19","新北市板橋區文聖街149巷16號","121.479316666667","25.02825","6500100","板橋區"
"220004","276-BY","2018/10/16 14:28:48","新北市板橋區國慶路49巷19弄1號","121.459253333333","24.9961833333333","6500100","板橋區"
"220020","277-BY","2018/10/16 14:29:26","新北市板橋區金門街215巷2弄1號","121.432601666667","24.98899","6500100","板橋區"
"220043","283-UM","2018/10/16 14:17:28","新北市板橋區吳鳳路70號","121.467416666667","25.0308933333333","6500100","板橋區"
"220019","283-VK","2018/10/16 14:25:56","新北市板橋區四川路一段325巷1弄2號","121.45916","25.0002916666667","6500100","板橋區"
"220001","285-VK","2018/10/16 14:18:15","新北市板橋區富山街7巷2號","121.478486666667","25.0217433333333","6500100","板橋區"
"220031","286-VK","2018/10/16 14:19:37","新北市板橋區龍興街95巷2號","121.444063333333","25.0023683333333","6500100","板橋區"
"220081","287-VK","2018/10/16 14:27:39","新北市板橋區大觀路一段75巷35號","121.448748333333","25.0042583333333","6500100","板橋區"
"220039","288-VK","2018/10/16 14:25:58","新北市板橋區長江路一段48巷3弄1號","121.459111666667","25.0286666666667","6500100","板橋區"
"220009","293-UM","2018/10/16 14:29:18","新北市板橋區中山路一段265巷36弄1號","121.469146666667","25.0152083333333","6500100","板橋區"
"220010","295-UM","2018/10/16 14:28:24","新北市板橋區三民路二段181巷5號","121.479785","25.0143916666667","6500100","板橋區"
"220032","296-UM","2018/10/16 14:22:33","新北市板橋區滿平街136巷2弄1號","121.428641666667","24.9880533333333","6500100","板橋區"
"220023","303-R5","2018/10/16 14:27:42","新北市板橋區中正路253巷62號","121.453268333333","25.0174933333333","6500100","板橋區"
"220041","307-R5","2018/10/16 14:24:29","新北市板橋區光武街10號","121.468008333333","25.02513","6500100","板橋區"
"220047","317-R6","2018/10/16 14:28:36","新北市板橋區四維路318號","121.462408333333","25.0299783333333","6500100","板橋區"
"220012","486-VK","2018/10/16 14:22:39","新北市板橋區中山路一段26號","121.460356666667","25.0084933333333","6500100","板橋區"
"220038","487-VK","2018/10/16 14:24:25","新北市板橋區文化路一段201號","121.4633","25.0164933333333","6500100","板橋區"
"220037","491-VK","2018/10/16 14:21:17","新北市板橋區雙十路二段26號","121.47626","25.02705","6500100","板橋區"
"220011","609-BX","2018/10/16 14:29:03","新北市板橋區三民路二段203號","121.479151666667","25.0137283333333","6500100","板橋區"
"220005","686-BX","2018/10/16 14:29:13","新北市中和區和平路226-3號","121.464121666667","24.996335","6500100","板橋區"
"220025","687-BX","2018/10/16 14:10:02","新北市板橋區龍興街44號","121.443183333333","25.0008266666667","6500100","板橋區"
"220042","689-BX","2018/10/16 14:19:46","新北市板橋區漢生西路79巷2號","121.462741666667","25.0193233333333","6500100","板橋區"
"220002","741-BX","2018/10/16 14:28:52","新北市板橋區四川路一段281號","121.459376666667","25.0018216666667","6500100","板橋區"
"220051","KEA-2699","2018/10/16 14:27:06","新北市板橋區雙十路二段130巷2弄19號","121.474613333333","25.0288333333333","6500100","板橋區"
"220003","827-TW","2018/10/16 14:28:26","新北市板橋區重慶路278巷4號","121.46267","24.99971","6500100","板橋區"
"220014","829-TW","2018/10/16 14:20:11","新北市板橋區長安街138巷7弄64號","121.474265","25.0093383333333","6500100","板橋區"
"220016","830-TW","2018/10/16 14:23:07","新北市板橋區翠華街12巷1號","121.482866666667","25.0246766666667","6500100","板橋區"
"220045","831-TW","2018/10/16 14:28:45","新北市板橋區民生路二段240巷74號","121.470088333333","25.0228016666667","6500100","板橋區"
"220022","895-R6","2018/10/16 14:24:19","新北市板橋區館前西路146號","121.456126666667","25.008085","6500100","板橋區"
"220021","985-R7","2018/10/16 14:20:25","新北市板橋區中正路352號","121.454298333333","25.0237316666667","6500100","板橋區"
"220046","AAC-210","2018/10/16 14:16:55","新北市板橋區幸福路60巷8號","121.460611666667","25.021075","6500100","板橋區"
"220018","AAC-253","2018/10/16 14:21:49","新北市板橋區忠孝路86號","121.461465","25.0020383333333","6500100","板橋區"
"235032","KEA-2873","2018/10/16 14:29:13","新北市中和區莊敬路16巷9號","121.50006","25.0039933333333","6500300","中和區"
"235025","KEA-2875","2018/10/16 14:28:50","新北市中和區員山路150號","121.48127","24.9972083333333","6500300","中和區"
