"lineid","car","time","location","longitude","latitude","cityid","cityname"
"234078","298-R6","2018/10/16 14:36:58","新北市永和區永貞路82號","121.520173333333","25.0050533333333","6500400","永和區"
"234062","337-UY","2018/10/16 14:36:58","新北市永和區永利路45號","121.519045","25.0055","6500400","永和區"
"234084","338-UY","2018/10/16 14:37:17","新北市永和區光復街27號","121.516555","25.017525","6500400","永和區"
"234068","552-UM","2018/10/16 14:37:30","新北市新店區安興路119號","121.515418333333","24.9789566666667","6500400","永和區"
"234028","746-BX","2018/10/16 14:37:24","新北市中和區大智街6號","121.520113333333","24.99191","6500400","永和區"
"234040","862-TW","2018/10/16 14:37:28","新北市永和區永貞路45號","121.519913333333","25.0045783333333","6500400","永和區"
"234025","9371-KE","2018/10/16 14:37:11","新北市永和區中和路501巷5號","121.51043","25.0026916666667","6500400","永和區"
"248017","225-UY","2018/10/16 14:37:19","新北市五股區外寮路2號","121.42584","25.07726","6501500","五股區"
"234072","AAC-211","2018/10/16 14:36:12","新北市永和區環河東路一段162號","121.521393333333","25.0145116666667","6500400","永和區"
"234001","AAC-295","2018/10/16 14:36:33","新北市永和區中正路618-1號","121.517013333333","25.0077466666667","6500400","永和區"
"244002","248-BX","2018/10/16 14:36:28","新北市林口區竹林路269號","121.389605","25.08089","6501700","林口區"
"231002","002-UM","2018/10/16 14:35:18","新北市新店區中正路468號","121.53403","24.9794283333333","6500600","新店區"
"231027","0293-UT","2018/10/16 14:37:04","新北市新店區中正路139號","121.541663333333","24.971485","6500600","新店區"
"231028","046-UY","2018/10/16 14:37:03","新北市新店區安康路二段192號","121.511261666667","24.9600183333333","6500600","新店區"
"231001","047-UY","2018/10/16 14:37:09","新北市新店區中正路56-1號","121.544656666667","24.970105","6500600","新店區"
"231020","108-UY","2018/10/16 14:36:57","新北市新店區新烏路三段57號","121.554183333333","24.9041516666667","6500600","新店區"
"231012","187-VK","2018/10/16 14:37:08","新北市新店區中興路二段202-2號","121.548423333333","24.9743816666667","6500600","新店區"
"231023","KEA-2219","2018/10/16 14:33:47","新北市新店區光明街231號","121.540353333333","24.9643833333333","6500600","新店區"
"231003","268-BY","2018/10/16 14:33:53","新北市新店區中興路一段271號","121.545113333333","24.9680866666667","6500600","新店區"
"231018","278-BY","2018/10/16 14:36:39","新北市新店區中央一街41號","121.527431666667","24.9737733333333","6500600","新店區"
"231015","AAD-862","2018/10/16 14:37:24","新北市新店區北宜路三段221號","121.592418333333","24.9532483333333","6500600","新店區"
"231030","355-BY","2018/10/16 14:36:22","新北市新店區安民街158號","121.516768333333","24.970295","6500600","新店區"
"231038","3712-VJ","2018/10/16 14:36:39","新北市新店區溪洲路192號","121.528706666667","24.9662716666667","6500600","新店區"
"231037","4716-K9","2018/10/16 14:37:11","新北市新店區安康路二段318-1號","121.504868333333","24.9580983333333","6500600","新店區"
"231036","512-UM","2018/10/16 14:36:58","新北市新店區安祥路106巷66號","121.474973333333","24.96031","6500600","新店區"
"231013","513-UM","2018/10/16 14:37:00","新北市新店區明德路38號","121.54147","24.97788","6500600","新店區"
"231034","616-UM","2018/10/16 14:37:21","新北市新店區黎明路53巷1號","121.502368333333","24.94873","6500600","新店區"
"231005","618-UM","2018/10/16 14:34:07","新北市新店區北新路三段250號","121.540193333333","24.9867583333333","6500600","新店區"
"231035","719-UM","2018/10/16 14:18:10","新北市新店區安和路二段113巷3弄5號","121.517986666667","24.9699933333333","6500600","新店區"
"231032","720-UM","2018/10/16 14:37:13","新北市新店區安業街231-2號","121.526126666667","24.9698266666667","6500600","新店區"
"231029","897-TW","2018/10/16 14:37:14","新北市新店區安康路三段391號","121.483481666667","24.95023","6500600","新店區"
"231006","898-TW","2018/10/16 14:36:41","新北市新店區北宜路二段149號","121.551686666667","24.9532166666667","6500600","新店區"
"231004","899-TW","2018/10/16 14:36:36","新北市新店區中正路263-4號","121.53828","24.9738666666667","6500600","新店區"
"231024","AKT-0513","2018/10/16 14:33:17","新北市新店區力行路14巷14弄1號","121.539255","24.96532","6500600","新店區"
"235030","003-UY","2018/10/16 14:37:31","新北市中和區景新街133號","121.505818333333","24.9972466666667","6500300","中和區"
"235028","005-UY","2018/10/16 14:37:28","新北市中和區圓通路40號","121.50097","24.9978416666667","6500300","中和區"
"235027","006-UY","2018/10/16 14:36:44","新北市中和區連城路174巷12號","121.492571666667","24.9981916666667","6500300","中和區"
"235020","096-UM","2018/10/16 14:37:08","新北市中和區員山路581巷2弄20號","121.477666666667","25.00981","6500300","中和區"
"235003","097-UM","2018/10/16 14:37:05","新北市中和區安平路147號","121.511986666667","24.9980483333333","6500300","中和區"
"235029","098-UM","2018/10/16 14:37:14","新北市中和區永和路39巷4號","121.497966666667","25.0050566666667","6500300","中和區"
"235004","150-BY","2018/10/16 14:36:03","新北市中和區安平路78號","121.511176666667","24.99657","6500300","中和區"
"235022","151-BY","2018/10/16 14:37:12","新北市中和區員山路122號","121.481245","24.9959416666667","6500300","中和區"
"235019","183-VK","2018/10/16 14:37:00","新北市中和區民生街15號","121.47132","25.005935","6500300","中和區"
"235002","185-VK","2018/10/16 14:37:12","新北市中和區自立路18號","121.522076666667","24.99342","6500300","中和區"
"235013","186-VK","2018/10/16 14:36:42","新北市中和區安和路25號","121.510661666667","24.9943083333333","6500300","中和區"
"235031","255-BX","2018/10/16 14:36:53","新北市中和區新生街235號","121.48388","24.99906","6500300","中和區"
"235008","293-VK","2018/10/16 14:36:47","新北市中和區捷運路52-9號","121.507806666667","24.990635","6500300","中和區"
"235036","301-VK","2018/10/16 14:37:24","新北市中和區中和路115號","121.50154","25.00033","6500300","中和區"
"235043","352-BY","2018/10/16 14:37:13","新北市中和區景平路480號","121.505205","24.9935683333333","6500300","中和區"
"235006","KEA-2878","2018/10/16 14:36:21","新北市中和區保健路2巷32號","121.5069","24.997355","6500300","中和區"
"247011","KEA-2869","2018/10/16 14:37:18","新北市蘆洲區集賢路224巷37弄10-1號","121.48058","25.088075","6501400","蘆洲區"
"235014","4979-A6","2018/10/16 14:37:04","新北市中和區員山路36巷13號","121.484453333333","24.99122","6500300","中和區"
"235034","558-UM","2018/10/16 14:36:44","新北市中和區景平路634-13號","121.498368333333","24.9999483333333","6500300","中和區"
"235009","565-BX","2018/10/16 14:36:39","新北市中和區景平路276-1號","121.513898333333","24.9923616666667","6500300","中和區"
"235018","640-BX","2018/10/16 14:37:01","新北市中和區莒光路93-4號","121.472468333333","25.0031416666667","6500300","中和區"
"235011","732-UM","2018/10/16 14:37:24","新北市中和區景平路329巷2弄11號","121.505298333333","24.9927966666667","6500300","中和區"
"235010","733-UM","2018/10/16 14:36:28","新北市中和區忠孝街37巷30號","121.510835","24.9842066666667","6500300","中和區"
"235035","783-BX","2018/10/16 14:37:17","新北市中和區建一路180號","121.487973333333","24.99705","6500300","中和區"
"235026","800-TS","2018/10/16 14:37:17","新北市中和區中山路二段538號","121.485263333333","25.005135","6500300","中和區"
"235021","801-TS","2018/10/16 14:36:24","新北市中和區員山路259號","121.481381666667","24.99902","6500300","中和區"
"235005","802-TS","2018/10/16 14:37:25","新北市中和區中和路252巷1號","121.507545","24.99929","6500300","中和區"
"235016","805-TS","2018/10/16 14:37:15","新北市中和區華新街206巷21弄2號","121.505903333333","24.9827683333333","6500300","中和區"
"235012","896-TW","2018/10/16 14:37:13","新北市中和區四維街32號","121.512655","24.9870233333333","6500300","中和區"
"235017","900-TW","2018/10/16 14:37:15","新北市中和區民德路197-1號","121.468453333333","24.9990966666667","6500300","中和區"
"235024","911-UM","2018/10/16 14:37:26","新北市中和區新生街7號","121.483245","25.0045133333333","6500300","中和區"
"235015","157-BY","2018/10/16 14:37:00","新北市中和區中興街202巷37號","121.498813333333","24.9896616666667","6500300","中和區"
"235001","AAC-213","2018/10/16 14:37:07","新北市中和區秀朗路三段10巷29弄5號","121.525065","24.9960066666667","6500300","中和區"
"235023","AAC-215","2018/10/16 14:36:53","新北市中和區圓通路305巷3弄1號","121.49354","24.9904966666667","6500300","中和區"
"220104","015-TV","2018/10/16 14:34:42","新北市板橋區金華街86號","121.457995","25.0207066666667","6500100","板橋區"
"220013","072-UY","2018/10/16 14:34:24","新北市板橋區國泰街111巷4-2號","121.465703333333","25.00617","6500100","板橋區"
"220034","073-UY","2018/10/16 14:29:49","新北市板橋區國光路171號","121.46047","25.0184316666667","6500100","板橋區"
"220105","075-UY","2018/10/16 14:33:30","新北市板橋區文化路二段554號","121.476201666667","25.0341516666667","6500100","板橋區"
"220017","AAD-861","2018/10/16 14:33:28","新北市板橋區縣民大道一段64巷2號","121.45518","25.0040066666667","6500100","板橋區"
"247001","893-R6","2018/10/16 14:37:12","新北市蘆洲區永樂街38巷8號","121.458135","25.0887233333333","6501400","蘆洲區"
"247015","546-UM","2018/10/16 14:35:40","新北市蘆洲區正和街36號","121.46954","25.0819416666667","6501400","蘆洲區"
"247023","500-BY","2018/10/16 14:37:20","新北市蘆洲區中山二路194號","121.470323333333","25.08038","6501400","蘆洲區"
"247013","339-TH","2018/10/16 14:37:18","新北市蘆洲區成功路132號","121.47209","25.082735","6501400","蘆洲區"
"247005","337-TH","2018/10/16 14:37:07","新北市蘆洲區長安街68巷7號","121.463026666667","25.080445","6501400","蘆洲區"
"247007","336-TH","2018/10/16 14:36:21","新北市蘆洲區中山一路197巷30號","121.474915","25.0796816666667","6501400","蘆洲區"
"247019","057-VK","2018/10/16 14:37:29","新北市蘆洲區民權路186號","121.471705","25.0905583333333","6501400","蘆洲區"
"247009","056-VK","2018/10/16 14:36:35","新北市蘆洲區信義路222巷45號","121.480426666667","25.0856066666667","6501400","蘆洲區"
"247003","002-UY","2018/10/16 14:36:04","新北市蘆洲區長安街285巷5弄1號","121.457918333333","25.0842333333333","6501400","蘆洲區"
"228004","212-TW","2018/10/16 14:36:12","新北市貢寮區福隆里虎子山街19-3號","121.942305","25.0156766666667","6502600","貢寮區"
"228005","828-UM","2018/10/16 14:37:19","新北市貢寮區美豐里雞母嶺街6-6號","121.902086666667","25.0642433333333","6502600","貢寮區"
"207002","749-BX","2018/10/16 14:36:47","新北市萬里區溪底里香員林路11號","121.629071666667","25.160655","6502800","萬里區"
"207001","662-BX","2018/10/16 14:36:56","新北市萬里區磺潭里員潭路32號","121.644445","25.1954433333333","6502800","萬里區"
"252005","AAC-283","2018/10/16 14:37:18","新北市三芝區埔坪里埔頭坑80號","121.510261666667","25.2541016666667","6502100","三芝區"
"236065","105-UM","2018/10/16 14:35:09","新北市土城區永豐路255巷21弄2-1號","121.475073333333","24.97378","6501300","土城區"
"236040","107-UM","2018/10/16 14:31:07","新北市土城區學成路78巷5號","121.451148333333","24.9887766666667","6501300","土城區"
"236074","166-UM","2018/10/16 14:34:50","新北市土城區中央路四段46巷3號","121.420343333333","24.961025","6501300","土城區"
"236029","253-BX","2018/10/16 14:35:41","新北市土城區福仁街72號","121.439155","24.9742366666667","6501300","土城區"
"236024","269-VK","2018/10/16 14:31:34","新北市土城區承天路83號","121.441095","24.9624533333333","6501300","土城區"
"236013","270-VK","2018/10/16 14:34:43","新北市土城區青雲路151巷21號","121.459933333333","24.9845016666667","6501300","土城區"
"236032","271-VK","2018/10/16 14:35:31","新北市土城區明德路一段313巷11弄7號","121.460153333333","24.9759216666667","6501300","土城區"
"236017","401-BY","2018/10/16 14:34:53","新北市土城區延吉街263號","121.467006666667","24.9846833333333","6501300","土城區"
"236054","752-BX","2018/10/16 14:37:25","新北市土城區中華路一段95號","121.444743333333","24.9872533333333","6501300","土城區"
"236057","912-UM","2018/10/16 14:37:19","新北市土城區中央路三段213號","121.429695","24.9645016666667","6501300","土城區"
"236045","913-UM","2018/10/16 14:32:49","新北市土城區明德路一段226號","121.46066","24.97747","6501300","土城區"
"236060","915-UM","2018/10/16 14:33:55","新北市土城區延壽路25號","121.471173333333","24.990925","6501300","土城區"
"221010","269-BY","2018/10/16 14:36:14","新北市汐止區八連路二段625-3號","121.622401666667","25.1156183333333","6501100","汐止區"
"221031","353-TW","2018/10/16 14:37:03","新北市汐止區汐萬路一段256巷3號","121.653056666667","25.0744716666667","6501100","汐止區"
"221002","707-TV","2018/10/16 14:37:03","新北市汐止區大同路一段302巷42號","121.63729","25.0550483333333","6501100","汐止區"
"220027","145-BY","2018/10/16 14:18:32","新北市板橋區民權路302巷23號","121.457973333333","25.0164783333333","6500100","板橋區"
"220028","200-UY","2018/10/16 14:32:05","新北市板橋區大觀路二段37巷340號","121.450341666667","25.0022966666667","6500100","板橋區"
"220030","610-BX","2018/10/16 14:28:59","新北市板橋區金門街100-2號","121.433078333333","24.9922566666667","6500100","板橋區"
"220050","245-BX","2018/10/16 14:32:14","新北市板橋區縣民大道三段33巷11號","121.473931666667","25.020995","6500100","板橋區"
"220052","257-TC","2018/10/16 14:36:41","新北市板橋區民生路二段235號","121.468473333333","25.0215333333333","6500100","板橋區"
"220040","267-BY","2018/10/16 14:34:59","新北市板橋區懷德街191巷26弄2-3號","121.480593333333","25.0295833333333","6500100","板橋區"
"220004","276-BY","2018/10/16 14:34:08","新北市板橋區四川路一段487號","121.457235","24.9971","6500100","板橋區"
"220020","277-BY","2018/10/16 14:35:26","新北市板橋區金門街151巷42弄2號","121.433943333333","24.9902416666667","6500100","板橋區"
"220043","283-UM","2018/10/16 14:30:08","新北市板橋區吳鳳路38號","121.468571666667","25.0303916666667","6500100","板橋區"
"220019","283-VK","2018/10/16 14:34:16","新北市板橋區信義路279巷23號","121.465","24.9904216666667","6500100","板橋區"
"220001","285-VK","2018/10/16 14:25:15","新北市板橋區富山街29號","121.477716666667","25.021745","6500100","板橋區"
"220031","286-VK","2018/10/16 14:26:37","新北市板橋區大觀路二段174巷163弄9號","121.441256666667","25.0032866666667","6500100","板橋區"
"220081","287-VK","2018/10/16 14:33:54","新北市板橋區大觀路一段29巷127號","121.450613333333","25.0054016666667","6500100","板橋區"
"220039","288-VK","2018/10/16 14:35:18","新北市板橋區龍泉街72巷13號","121.456098333333","25.0263483333333","6500100","板橋區"
"220009","293-UM","2018/10/16 14:37:17","新北市板橋區縣民大道二段172號","121.468755","25.0164933333333","6500100","板橋區"
"220010","295-UM","2018/10/16 14:34:04","新北市板橋區三民路二段109巷29號","121.480631666667","25.0161316666667","6500100","板橋區"
"220032","296-UM","2018/10/16 14:31:33","新北市板橋區滿平街84巷110弄26號","121.425905","24.9857433333333","6500100","板橋區"
"220023","303-R5","2018/10/16 14:32:02","新北市板橋區大勇街10巷4號","121.453786666667","25.017085","6500100","板橋區"
"220041","307-R5","2018/10/16 14:37:31","新北市板橋區陽明街164巷10弄1號","121.464063333333","25.02438","6500100","板橋區"
"220047","317-R6","2018/10/16 14:37:16","新北市板橋區裕民街110號","121.45965","25.02772","6500100","板橋區"
"220012","486-VK","2018/10/16 14:33:20","新北市板橋區中山路一段137號","121.462676666667","25.0107016666667","6500100","板橋區"
"220038","487-VK","2018/10/16 14:37:25","新北市板橋區英士路49-1號","121.46111","25.0245416666667","6500100","板橋區"
"220037","491-VK","2018/10/16 14:29:17","新北市板橋區雙十路二段6號","121.476911666667","25.0259","6500100","板橋區"
"220011","609-BX","2018/10/16 14:34:20","新北市板橋區三民路二段72號","121.479285","25.017175","6500100","板橋區"
"220005","686-BX","2018/10/16 14:36:23","新北市板橋區國慶路139號","121.46107","24.996065","6500100","板橋區"
"220025","687-BX","2018/10/16 14:13:42","新北市板橋區大觀路二段142-4號","121.442386666667","24.9989283333333","6500100","板橋區"
"220042","689-BX","2018/10/16 14:29:06","新北市板橋區雨農路50號","121.461138333333","25.0242433333333","6500100","板橋區"
"220002","741-BX","2018/10/16 14:36:12","新北市板橋區忠孝路233號","121.465868333333","25.002835","6500100","板橋區"
"220051","KEA-2699","2018/10/16 14:35:47","新北市板橋區松柏街36巷5號","121.475361666667","25.0296766666667","6500100","板橋區"
"220003","827-TW","2018/10/16 14:35:46","新北市板橋區重慶路290巷3號","121.461576666667","24.9986083333333","6500100","板橋區"
"220014","829-TW","2018/10/16 14:28:11","新北市板橋區長安街138巷5弄4號","121.473106666667","25.008675","6500100","板橋區"
"220016","830-TW","2018/10/16 14:37:07","新北市板橋區中山路二段553巷6號","121.483703333333","25.0219666666667","6500100","板橋區"
"220045","831-TW","2018/10/16 14:32:05","新北市板橋區民生路二段234巷53號","121.469731666667","25.0226683333333","6500100","板橋區"
"220022","895-R6","2018/10/16 14:30:19","新北市板橋區東門街15號","121.45814","25.0083516666667","6500100","板橋區"
"220021","985-R7","2018/10/16 14:27:25","新北市板橋區新生街45號","121.457106666667","25.0209966666667","6500100","板橋區"
"220046","AAC-210","2018/10/16 14:30:55","新北市板橋區幸福路32巷4弄2號","121.461035","25.0211733333333","6500100","板橋區"
"220018","AAC-253","2018/10/16 14:26:09","新北市板橋區四川路一段223號","121.460091666667","25.0034","6500100","板橋區"
"235032","KEA-2873","2018/10/16 14:37:29","新北市中和區中山路二段250巷24號","121.497396666667","25.00339","6500300","中和區"
"235025","KEA-2875","2018/10/16 14:37:20","新北市中和區民安街27號","121.480301666667","25.0004433333333","6500300","中和區"
