"lineid","car","time","location","longitude","latitude","cityid","cityname"
"234062","337-UY","2018/10/16 14:47:18","新北市永和區成功路一段108號","121.526786666667","25.0028883333333","6500400","永和區"
"234068","552-UM","2018/10/16 14:47:30","新北市新店區薏仁坑路自強巷1號","121.497518333333","24.9577183333333","6500400","永和區"
"234028","746-BX","2018/10/16 14:46:44","新北市新店區安興路81號","121.51549","24.9755433333333","6500400","永和區"
"234040","862-TW","2018/10/16 14:47:28","新北市新店區柴埕路38-8號","121.513391666667","24.9649833333333","6500400","永和區"
"234025","9371-KE","2018/10/16 14:46:51","新北市永和區雙和街20巷1號","121.50915","25.0022733333333","6500400","永和區"
"248017","225-UY","2018/10/16 14:41:59","新北市五股區外寮路13-1號","121.424808333333","25.08127","6501500","五股區"
"234001","AAC-295","2018/10/16 14:46:33","新北市永和區福和路294號","121.517186666667","25.0076566666667","6500400","永和區"
"244002","248-BX","2018/10/16 14:47:28","新北市林口區竹林路266號","121.389618333333","25.0809","6501700","林口區"
"231002","002-UM","2018/10/16 14:46:58","新北市新店區民權路72號","121.538088333333","24.983025","6500600","新店區"
"231027","0293-UT","2018/10/16 14:47:23","新北市新店區中央路133巷15弄64號","121.532078333333","24.97468","6500600","新店區"
"231028","046-UY","2018/10/16 14:46:55","新北市新店區安德街60巷27號","121.511125","24.9632466666667","6500600","新店區"
"231001","047-UY","2018/10/16 14:47:09","新北市新店區三民路21巷1號","121.53911","24.9714333333333","6500600","新店區"
"231020","108-UY","2018/10/16 14:46:57","新北市新店區新烏路二段198巷2弄2號","121.547805","24.917005","6500600","新店區"
"231012","187-VK","2018/10/16 14:47:08","新北市新店區寶橋路160號","121.5491","24.9769833333333","6500600","新店區"
"231023","KEA-2219","2018/10/16 14:47:07","新北市新店區檳榔路109號","121.54449","24.9617033333333","6500600","新店區"
"231026","256-BX","2018/10/16 14:47:21","新北市新店區安康路一段20號","121.531321666667","24.96107","6500600","新店區"
"231003","268-BY","2018/10/16 14:47:33","新北市新店區中興路二段196號","121.548586666667","24.97383","6500600","新店區"
"231018","278-BY","2018/10/16 14:47:28","新北市新店區中央七街8號","121.530316666667","24.97471","6500600","新店區"
"231015","AAD-862","2018/10/16 14:46:44","新北市新店區北宜路三段214-1號","121.590585","24.95252","6500600","新店區"
"231030","355-BY","2018/10/16 14:47:22","新北市新店區安民街337號","121.517161666667","24.97497","6500600","新店區"
"231038","3712-VJ","2018/10/16 14:47:23","新北市新店區安康路一段258號","121.520588333333","24.9639483333333","6500600","新店區"
"231037","4716-K9","2018/10/16 14:47:31","新北市新店區柴埕路52巷16號","121.511078333333","24.9654516666667","6500600","新店區"
"231025","4715-K9","2018/10/16 14:47:09","新北市新店區建國路131號","121.539393333333","24.9781783333333","6500600","新店區"
"231036","512-UM","2018/10/16 14:47:18","新北市新店區安祥路104巷6弄36號","121.483076666667","24.963035","6500600","新店區"
"231013","513-UM","2018/10/16 14:47:15","新北市新店區北新路二段97巷9弄17號","121.542246666667","24.97375","6500600","新店區"
"231034","616-UM","2018/10/16 14:46:41","新北市新店區玫瑰路4-1號","121.493615","24.951445","6500600","新店區"
"231005","618-UM","2018/10/16 14:46:27","新北市新店區復興路2號","121.532398333333","24.9883183333333","6500600","新店區"
"231035","719-UM","2018/10/16 14:19:30","新北市新店區光華街8巷12號","121.518048333333","24.9694","6500600","新店區"
"231039","719-UY","2018/10/16 14:47:04","新北市新店區安華路28-1號","121.519705","24.9610466666667","6500600","新店區"
"231029","897-TW","2018/10/16 14:47:14","新北市新店區錦秀路51號","121.479178333333","24.94345","6500600","新店區"
"231006","898-TW","2018/10/16 14:46:41","新北市新店區北宜路一段143號","121.541186666667","24.9529783333333","6500600","新店區"
"231004","899-TW","2018/10/16 14:45:56","新北市新店區民族路81號","121.538981666667","24.9779433333333","6500600","新店區"
"231024","AKT-0513","2018/10/16 14:46:57","新北市新店區中華路83巷67號","121.538363333333","24.9673166666667","6500600","新店區"
"235030","003-UY","2018/10/16 14:47:31","新北市中和區南工路40號","121.505768333333","25.0012366666667","6500300","中和區"
"235020","096-UM","2018/10/16 14:46:34","新北市中和區中山路三段114巷35號","121.475466666667","25.0084916666667","6500300","中和區"
"235003","097-UM","2018/10/16 14:47:25","新北市中和區安樂路139號","121.514538333333","24.9967766666667","6500300","中和區"
"235029","098-UM","2018/10/16 14:47:30","新北市中和區永和路88號","121.49738","25.0052683333333","6500300","中和區"
"235004","150-BY","2018/10/16 14:47:23","新北市中和區安平路59號","121.509641666667","24.994955","6500300","中和區"
"235022","151-BY","2018/10/16 14:47:16","新北市中和區員山路146巷20號","121.482263333333","24.996795","6500300","中和區"
"235002","185-VK","2018/10/16 14:47:12","新北市中和區自立路11號","121.522521666667","24.9964033333333","6500300","中和區"
"235013","186-VK","2018/10/16 14:45:42","新北市中和區景平路558號","121.502166666667","24.995015","6500300","中和區"
"235031","255-BX","2018/10/16 14:47:33","新北市中和區中正路751巷3弄12號","121.484276666667","24.9993816666667","6500300","中和區"
"235008","293-VK","2018/10/16 14:47:07","新北市中和區南山路405號","121.506911666667","24.9899133333333","6500300","中和區"
"235036","301-VK","2018/10/16 14:47:24","新北市中和區中山路二段3巷22弄24號","121.505968333333","25.004535","6500300","中和區"
"235043","352-BY","2018/10/16 14:47:13","新北市中和區安和路51號","121.509073333333","24.9948983333333","6500300","中和區"
"235006","KEA-2878","2018/10/16 14:47:01","新北市中和區景平路63-1號","121.52017","24.9911766666667","6500300","中和區"
"235014","4979-A6","2018/10/16 14:46:24","新北市中和區中正路246號","121.49585","24.99393","6500300","中和區"
"235034","558-UM","2018/10/16 14:47:24","新北市中和區連勝街66號","121.49712","24.9969533333333","6500300","中和區"
"235018","640-BX","2018/10/16 14:47:25","新北市中和區莒光路132號","121.47249","25.00147","6500300","中和區"
"235011","732-UM","2018/10/16 14:47:24","新北市中和區和平街5-2號","121.509426666667","24.9901716666667","6500300","中和區"
"235010","733-UM","2018/10/16 14:46:08","新北市中和區仁愛街114號","121.511681666667","24.98694","6500300","中和區"
"235035","783-BX","2018/10/16 14:47:30","新北市中和區建康路79號","121.487185","25.0001433333333","6500300","中和區"
"235026","800-TS","2018/10/16 14:47:17","新北市中和區錦和路13號","121.486505","25.0030716666667","6500300","中和區"
"235005","802-TS","2018/10/16 14:47:05","新北市中和區永貞路288號","121.513016666667","25.0040683333333","6500300","中和區"
"235016","805-TS","2018/10/16 14:47:15","新北市中和區華新街30巷13號","121.507273333333","24.9842866666667","6500300","中和區"
"235012","896-TW","2018/10/16 14:46:26","新北市中和區忠孝街154號","121.512776666667","24.987625","6500300","中和區"
"235017","900-TW","2018/10/16 14:46:54","新北市中和區國光街184-2號","121.466688333333","25.0020566666667","6500300","中和區"
"235024","911-UM","2018/10/16 14:47:27","新北市中和區新生街49號","121.483491666667","25.0026016666667","6500300","中和區"
"235015","157-BY","2018/10/16 14:47:33","新北市中和區景安路231號","121.504223333333","24.9911216666667","6500300","中和區"
"235001","AAC-213","2018/10/16 14:46:47","新北市中和區秀朗路三段141號","121.525055","24.992385","6500300","中和區"
"235023","AAC-215","2018/10/16 14:47:33","新北市中和區圓通路305巷5弄7號","121.493796666667","24.990375","6500300","中和區"
"220104","015-TV","2018/10/16 14:42:02","新北市板橋區新生街53巷3弄12號","121.457126666667","25.0218366666667","6500100","板橋區"
"220013","072-UY","2018/10/16 14:46:44","新北市中和區中山路三段229巷49號","121.469201666667","25.0054933333333","6500100","板橋區"
"220034","073-UY","2018/10/16 14:34:49","新北市板橋區國光路31號","121.457115","25.017645","6500100","板橋區"
"220105","075-UY","2018/10/16 14:41:30","新北市板橋區仁化街221號","121.478748333333","25.034695","6500100","板橋區"
"220017","AAD-861","2018/10/16 14:46:31","新北市板橋區貴興路119巷3號","121.455906666667","25.00228","6500100","板橋區"
"247001","893-R6","2018/10/16 14:47:12","新北市蘆洲區永康街58號","121.459261666667","25.0861466666667","6501400","蘆洲區"
"247015","546-UM","2018/10/16 14:47:00","新北市蘆洲區和平路209號","121.465838333333","25.0817816666667","6501400","蘆洲區"
"247023","500-BY","2018/10/16 14:45:00","新北市蘆洲區和平路100號","121.468416666667","25.0792983333333","6501400","蘆洲區"
"247013","339-TH","2018/10/16 14:45:58","新北市蘆洲區中山二路79號","121.473151666667","25.0819583333333","6501400","蘆洲區"
"247007","336-TH","2018/10/16 14:47:21","新北市五股區中興路一段122號","121.465833333333","25.07337","6501400","蘆洲區"
"228004","212-TW","2018/10/16 14:47:12","新北市貢寮區福隆里龜壽谷街31號","121.94751","25.0155866666667","6502600","貢寮區"
"228005","828-UM","2018/10/16 14:47:19","新北市貢寮區美豐里丹裡街54號","121.906035","25.0598266666667","6502600","貢寮區"
"207002","749-BX","2018/10/16 14:47:21","新北市萬里區崁腳里崁腳路73號","121.647625","25.1596083333333","6502800","萬里區"
"207001","662-BX","2018/10/16 14:45:36","新北市萬里區雙興里豐稟路39號","121.642571666667","25.182055","6502800","萬里區"
"252005","AAC-283","2018/10/16 14:46:18","新北市三芝區埔坪里埔頭坑143號","121.5123","25.2482083333333","6502100","三芝區"
"236065","105-UM","2018/10/16 14:47:29","新北市土城區明德路二段77-8號","121.450831666667","24.9806866666667","6501300","土城區"
"236040","107-UM","2018/10/16 14:41:07","新北市土城區裕民路92巷25弄1號","121.449653333333","24.9859183333333","6501300","土城區"
"236074","166-UM","2018/10/16 14:47:00","新北市土城區中央路四段69號","121.417603333333","24.9579116666667","6501300","土城區"
"236029","253-BX","2018/10/16 14:47:21","新北市土城區忠義路26巷10號","121.439806666667","24.96991","6501300","土城區"
"236024","269-VK","2018/10/16 14:44:54","新北市土城區興城路38號","121.441863333333","24.9728666666667","6501300","土城區"
"236013","270-VK","2018/10/16 14:44:23","新北市土城區清水路278巷26號","121.462665","24.9827283333333","6501300","土城區"
"236032","271-VK","2018/10/16 14:47:30","新北市土城區明德路一段130號","121.46374","24.9790133333333","6501300","土城區"
"236017","401-BY","2018/10/16 14:44:37","新北市土城區延吉街253巷31號","121.468125","24.9836816666667","6501300","土城區"
"236054","752-BX","2018/10/16 14:45:05","新北市土城區裕民路85號","121.450175","24.9873716666667","6501300","土城區"
"236057","912-UM","2018/10/16 14:46:20","新北市土城區忠義路45巷2號","121.441148333333","24.9695366666667","6501300","土城區"
"236045","913-UM","2018/10/16 14:46:09","新北市土城區青雲路113號","121.458976666667","24.9849766666667","6501300","土城區"
"236060","915-UM","2018/10/16 14:40:15","新北市土城區延和路177巷11弄2號","121.46997","24.99076","6501300","土城區"
"221010","269-BY","2018/10/16 14:44:12","新北市汐止區八連路二段435號","121.62865","25.1034633333333","6501100","汐止區"
"221002","707-TV","2018/10/16 14:47:23","新北市汐止區新興路112號","121.657856666667","25.0610516666667","6501100","汐止區"
"220027","145-BY","2018/10/16 14:23:32","新北市板橋區民權路202巷17弄22號","121.45994","25.01664","6500100","板橋區"
"220028","200-UY","2018/10/16 14:47:07","新北市板橋區大觀路二段153巷24號","121.446788333333","25.0002266666667","6500100","板橋區"
"220030","610-BX","2018/10/16 14:36:39","新北市板橋區大觀路三段212巷36號","121.429571666667","24.99314","6500100","板橋區"
"220050","245-BX","2018/10/16 14:38:14","新北市板橋區莒光路200巷25號","121.473105","25.0220133333333","6500100","板橋區"
"220052","257-TC","2018/10/16 14:46:50","新北市板橋區陽明街29巷2號","121.46529","25.0217466666667","6500100","板橋區"
"220040","267-BY","2018/10/16 14:42:19","新北市板橋區懷德街127巷14弄1號","121.479413333333","25.03117","6500100","板橋區"
"220004","276-BY","2018/10/16 14:46:47","新北市板橋區四川路二段99巷2弄2號","121.45269","24.99448","6500100","板橋區"
"220020","277-BY","2018/10/16 14:45:45","新北市板橋區篤行路二段1巷11號","121.432301666667","24.99266","6500100","板橋區"
"220043","283-UM","2018/10/16 14:39:08","新北市板橋區銘傳街78號","121.469116666667","25.0313666666667","6500100","板橋區"
"220019","283-VK","2018/10/16 14:45:16","新北市板橋區五權街1-9號","121.463731666667","24.9952916666667","6500100","板橋區"
"220001","285-VK","2018/10/16 14:34:35","新北市板橋區懷仁街77巷22號","121.477575","25.0189616666667","6500100","板橋區"
"220031","286-VK","2018/10/16 14:40:17","新北市板橋區龍興街63巷64號","121.441683333333","25.0019833333333","6500100","板橋區"
"220081","287-VK","2018/10/16 14:41:34","新北市板橋區大觀路一段28巷91-1號","121.450141666667","25.011505","6500100","板橋區"
"220039","288-VK","2018/10/16 14:46:58","新北市板橋區幸福路32巷4弄9號","121.46118","25.02154","6500100","板橋區"
"220009","293-UM","2018/10/16 14:45:57","新北市板橋區觀光街26號","121.47144","25.016265","6500100","板橋區"
"220010","295-UM","2018/10/16 14:47:24","新北市板橋區中山路二段416巷54弄13號","121.482308333333","25.0193033333333","6500100","板橋區"
"220032","296-UM","2018/10/16 14:40:13","新北市板橋區滿平二街6號","121.42548","24.9864616666667","6500100","板橋區"
"220023","303-R5","2018/10/16 14:44:22","新北市板橋區金華街10巷48弄41號","121.458425","25.020105","6500100","板橋區"
"220041","307-R5","2018/10/16 14:46:29","新北市板橋區四維路259巷48號","121.461148333333","25.027105","6500100","板橋區"
"220047","317-R6","2018/10/16 14:47:16","新北市板橋區雨農路27巷9號","121.461535","25.02383","6500100","板橋區"
"220012","486-VK","2018/10/16 14:46:00","新北市板橋區館前東路82號","121.462115","25.0074316666667","6500100","板橋區"
"220038","487-VK","2018/10/16 14:47:25","新北市板橋區龍泉街137號","121.45774","25.0239083333333","6500100","板橋區"
"220037","491-VK","2018/10/16 14:36:57","新北市板橋區文化路二段351號","121.472835","25.0306666666667","6500100","板橋區"
"220011","609-BX","2018/10/16 14:36:40","新北市板橋區三民路二段1號","121.479338333333","25.0187133333333","6500100","板橋區"
"220005","686-BX","2018/10/16 14:46:29","新北市板橋區廣權路23號","121.461885","24.9915366666667","6500100","板橋區"
"220025","687-BX","2018/10/16 14:27:02","新北市板橋區大觀路一段28巷40號","121.449935","25.0098083333333","6500100","板橋區"
"220042","689-BX","2018/10/16 14:42:26","新北市板橋區長江路一段93-3號","121.459168333333","25.0294783333333","6500100","板橋區"
"220002","741-BX","2018/10/16 14:45:12","新北市板橋區忠孝路忠義巷16弄1號","121.466015","25.0037466666667","6500100","板橋區"
"220051","KEA-2699","2018/10/16 14:47:27","新北市板橋區文化路二段410巷23號","121.474751666667","25.0307983333333","6500100","板橋區"
"220003","827-TW","2018/10/16 14:46:55","新北市板橋區國慶路149巷29弄12號","121.460436666667","24.9976983333333","6500100","板橋區"
"220014","829-TW","2018/10/16 14:37:11","新北市板橋區長安街251巷34號","121.472028333333","25.0111866666667","6500100","板橋區"
"220016","830-TW","2018/10/16 14:45:07","新北市板橋區光復街133巷13號","121.484751666667","25.019755","6500100","板橋區"
"220045","831-TW","2018/10/16 14:39:05","新北市板橋區民生路二段226巷21號","121.470863333333","25.0219316666667","6500100","板橋區"
"220022","895-R6","2018/10/16 14:39:19","新北市板橋區文化路一段46巷21號","121.460491666667","25.0118366666667","6500100","板橋區"
"220021","985-R7","2018/10/16 14:35:26","新北市板橋區中正路276號","121.455198333333","25.0199483333333","6500100","板橋區"
"220046","AAC-210","2018/10/16 14:41:55","新北市板橋區文化路一段285巷2弄25號","121.4641","25.0195216666667","6500100","板橋區"
"220018","AAC-253","2018/10/16 14:36:09","新北市板橋區民族路67號","121.465321666667","25.008705","6500100","板橋區"
"235032","KEA-2873","2018/10/16 14:46:37","新北市中和區福祥路85巷2弄1號","121.498663333333","25.0057216666667","6500300","中和區"
"235025","KEA-2875","2018/10/16 14:44:49","新北市中和區員山路226巷7弄2號","121.481873333333","25.0004683333333","6500300","中和區"
