"lineid","car","time","location","longitude","latitude","cityid","cityname"
"249005","172-UM","2018/10/16 17:29:40","新北市八里區荖阡坑路65-3號","121.40427","25.1309983333333","6502300","八里區"
"249004","303-UY","2018/10/16 17:29:38","新北市八里區民治街173號","121.413425","25.1566533333333","6502300","八里區"
"249002","305-UY","2018/10/16 17:29:35","新北市八里區龍米路二段39號","121.448378333333","25.140205","6502300","八里區"
"249003","593-UM","2018/10/16 17:29:31","新北市八里區中山路二段378號","121.400708333333","25.1479533333333","6502300","八里區"
"249001","759-BX","2018/10/16 17:29:36","新北市八里區龍米路三段48-3號","121.426703333333","25.1594666666667","6502300","八里區"
"244023","069-UM","2018/10/16 17:29:35","新北市林口區東明一街36號","121.392758333333","25.0725233333333","6501700","林口區"
"244007","080-UY","2018/10/16 17:29:37","新北市林口區湖北里5鄰24號","121.386475","25.0932233333333","6501700","林口區"
"244019","403-UM","2018/10/16 17:29:43","新北市林口區文化一路一段83巷14弄41號","121.371721666667","25.071035","6501700","林口區"
"244013","KEA-2802","2018/10/16 17:29:43","新北市林口區粉寮路二段88巷22-1號","121.406213333333","25.0884933333333","6501700","林口區"
"244017","485-VK","2018/10/16 17:29:35","新北市林口區文化一路一段201號","121.378358333333","25.0750316666667","6501700","林口區"
"244009","656-BX","2018/10/16 17:29:40","新北市林口區中北三街209號","121.382385","25.0819833333333","6501700","林口區"
"244021","657-BX","2018/10/16 17:29:34","新北市林口區中山路1號","121.396761666667","25.0780133333333","6501700","林口區"
"244011","701-TV","2018/10/16 17:29:40","新北市林口區中正路345巷1弄1號","121.387983333333","25.0772466666667","6501700","林口區"
"244025","837-TS","2018/10/16 17:29:41","新北市林口區忠孝一路78巷2號","121.362905","25.0739583333333","6501700","林口區"
"231046","107-UY","2018/10/16 17:29:45","新北市新店區直潭路92號","121.530926666667","24.9376216666667","6500600","新店區"
"241011","013-R5","2018/10/16 17:29:43","新北市三重區河邊北街124巷35號","121.502896666667","25.0712766666667","6500200","三重區"
"241015","062-VK","2018/10/16 17:29:29","新北市三重區長元街65巷22弄20號","121.503731666667","25.065905","6500200","三重區"
"241017","063-VK","2018/10/16 17:29:44","新北市三重區重新路三段45-3號","121.493248333333","25.0617633333333","6500200","三重區"
"241024","065-VK","2018/10/16 17:29:47","新北市三重區大勇街82巷15弄5號","121.479945","25.0717916666667","6500200","三重區"
"241003","091-VK","2018/10/16 17:29:35","新北市三重區集賢路71-1號","121.494525","25.0864233333333","6500200","三重區"
"251014","742-BX","2018/10/16 17:28:00","新北市淡水區公埔子18號","121.473376666667","25.227015","6501000","淡水區"
"241005","262-UM","2018/10/16 17:29:30","新北市三重區永安北路二段5巷22號","121.482413333333","25.0812","6500200","三重區"
"241012","265-UM","2018/10/16 17:29:47","新北市三重區仁興街39巷32號","121.500636666667","25.0764483333333","6500200","三重區"
"241016","266-UM","2018/10/16 17:29:39","新北市三重區信義西街41號","121.495355","25.064105","6500200","三重區"
"241032","269-UM","2018/10/16 17:29:32","新北市三重區名源街59號","121.482333333333","25.0592733333333","6500200","三重區"
"241013","270-UM","2018/10/16 17:29:32","新北市三重區仁愛街141巷21號","121.496678333333","25.0757933333333","6500200","三重區"
"241025","271-UM","2018/10/16 17:29:46","新北市三重區中正北路311號","121.474028333333","25.0714883333333","6500200","三重區"
"241007","398-BY","2018/10/16 17:29:37","新北市三重區三和路四段145巷170號","121.488418333333","25.079515","6500200","三重區"
"241020","478-VK","2018/10/16 17:29:29","新北市三重區三民街206號","121.480906666667","25.066235","6500200","三重區"
"241030","480-VK","2018/10/16 17:29:44","新北市三重區中正南路281號","121.493003333333","25.0522116666667","6500200","三重區"
"241014","543-UM","2018/10/16 17:29:46","新北市三重區安和路17號","121.50147","25.0685166666667","6500200","三重區"
"241023","545-UM","2018/10/16 17:29:40","新北市三重區忠孝路三段84巷28號","121.481515","25.06422","6500200","三重區"
"241019","KEA-2593","2018/10/16 17:29:47","新北市三重區六張街201號","121.488771666667","25.0687166666667","6500200","三重區"
"241008","743-BX","2018/10/16 17:19:12","新北市三重區下竹圍街14號","121.480946666667","25.0757833333333","6500200","三重區"
"241033","AAC-255","2018/10/16 17:29:32","新北市三重區興德路145-2號","121.4691","25.0528233333333","6500200","三重區"
"235064","005-UY","2018/10/16 17:21:28","新北市中和區員山路36巷16-3號","121.485153333333","24.9914183333333","6500300","中和區"
"247012","KEA-2869","2018/10/16 17:29:47","新北市蘆洲區民族路31-12號","121.477808333333","25.0850566666667","6501400","蘆洲區"
"247002","893-R6","2018/10/16 17:29:43","新北市蘆洲區永樂街38巷67弄3號","121.458158333333","25.0906033333333","6501400","蘆洲區"
"247016","546-UM","2018/10/16 17:29:41","新北市蘆洲區光華路22巷36號","121.468445","25.0847133333333","6501400","蘆洲區"
"247024","500-BY","2018/10/16 17:29:32","新北市蘆洲區長興路353號","121.460908333333","25.0910883333333","6501400","蘆洲區"
"247014","339-TH","2018/10/16 17:29:35","新北市蘆洲區三民路33號","121.475418333333","25.0830266666667","6501400","蘆洲區"
"247006","337-TH","2018/10/16 17:29:44","新北市蘆洲區長安街68巷35號","121.46395","25.081125","6501400","蘆洲區"
"247008","336-TH","2018/10/16 17:29:46","新北市蘆洲區成功路3號","121.473768333333","25.077965","6501400","蘆洲區"
"247020","057-VK","2018/10/16 17:29:30","新北市蘆洲區水湳街102號","121.469551666667","25.092715","6501400","蘆洲區"
"247010","056-VK","2018/10/16 17:29:35","新北市蘆洲區集賢路402號","121.47992","25.082035","6501400","蘆洲區"
"247018","007-UY","2018/10/16 17:29:40","新北市蘆洲區水湳街49號","121.472091666667","25.0873016666667","6501400","蘆洲區"
"247004","002-UY","2018/10/16 17:29:36","新北市蘆洲區長安街233巷12號","121.458981666667","25.0827333333333","6501400","蘆洲區"
"247022","001-UY","2018/10/16 17:29:40","新北市蘆洲區三民路289號","121.466871666667","25.0903616666667","6501400","蘆洲區"
"228001","212-TW","2018/10/16 17:29:48","新北市貢寮區仁理村仁愛路46號","121.92524","25.053345","6502600","貢寮區"
"228002","585-TW","2018/10/16 17:29:34","新北市貢寮區福隆里福隆街2巷27號","121.946188333333","25.0155116666667","6502600","貢寮區"
"228003","828-UM","2018/10/16 17:29:43","新北市貢寮區仁理村仁和路2-1號","121.92317","25.0486733333333","6502600","貢寮區"
"224010","AGQ-8101","2018/10/16 17:29:38","新北市瑞芳區逢甲路91號","121.807375","25.1096366666667","6501200","瑞芳區"
"224006","676-BX","2018/10/16 17:29:31","新北市瑞芳區靜安路四段92號","121.793153333333","25.1100366666667","6501200","瑞芳區"
"224008","285-BY","2018/10/16 17:29:48","新北市瑞芳區侯硐路204號","121.83045","25.0882366666667","6501200","瑞芳區"
"224009","273-VK","2018/10/16 17:29:35","新北市瑞芳區汽車路101-2號","121.841203333333","25.1086583333333","6501200","瑞芳區"
"224005","271-BY","2018/10/16 17:29:50","新北市瑞芳區長仁路1號","121.871713333333","25.123405","6501200","瑞芳區"
"227003","642-TC","2018/10/16 17:29:36","新北市雙溪區上林里內平林13號","121.836686666667","25.028605","6502500","雙溪區"
"227009","400-TW","2018/10/16 17:29:32","新北市雙溪區三貂里十三層5-3號","121.852333333333","25.0767166666667","6502500","雙溪區"
"251005","010-UM","2018/10/16 17:29:37","新北市淡水區鄧公路19號","121.451406666667","25.1700566666667","6501000","淡水區"
"251002","012-UM","2018/10/16 17:29:38","新北市淡水區中正路437號","121.432015","25.17477","6501000","淡水區"
"251013","KEA-2871","2018/10/16 17:29:32","新北市淡水區大竹圍5-1號","121.466345","25.19454","6501000","淡水區"
"251016","179-VK","2018/10/16 17:29:43","新北市淡水區埤島74號","121.454756666667","25.193455","6501000","淡水區"
"251015","180-VK","2018/10/16 17:29:30","新北市淡水區三空泉16-10號","121.472463333333","25.1650266666667","6501000","淡水區"
"251008","181-VK","2018/10/16 17:29:42","新北市淡水區大同路113巷6號","121.463495","25.14163","6501000","淡水區"
"251010","413-VK","2018/10/16 17:29:32","新北市淡水區中正路二段215號","121.426231666667","25.1891716666667","6501000","淡水區"
"251012","441-VK","2018/10/16 17:29:38","新北市淡水區北新路121號","121.449008333333","25.1786866666667","6501000","淡水區"
"251004","443-VK","2018/10/16 17:17:14","新北市淡水區中正東路二段88巷15號","121.459053333333","25.1504916666667","6501000","淡水區"
"251006","561-UM","2018/10/16 17:29:46","新北市淡水區大仁街13號","121.442333333333","25.174975","6501000","淡水區"
"251009","575-R6","2018/10/16 17:29:31","新北市淡水區建設街1巷1號","121.438903333333","25.1730583333333","6501000","淡水區"
"251007","577-R6","2018/10/16 17:29:29","新北市淡水區民生路47-4號","121.462035","25.138125","6501000","淡水區"
"251011","650-BX","2018/10/16 17:29:44","新北市淡水區坪頂路712號","121.48252","25.1585233333333","6501000","淡水區"
"251003","673-BX","2018/10/16 17:29:41","新北市淡水區中山路159-1號","121.440776666667","25.1729333333333","6501000","淡水區"
"207003","550-UM","2018/10/16 17:29:32","新北市萬里區龜吼里翡翠路17號","121.683395","25.1872616666667","6502800","萬里區"
"207004","225-TW","2018/10/16 17:29:36","新北市萬里區萬里里景美路11-2號","121.685555","25.17277","6502800","萬里區"
"252002","178-VK","2018/10/16 17:29:34","新北市三芝區忠孝街1-15號","121.505566666667","25.2539383333333","6502100","三芝區"
"252001","292-VK","2018/10/16 17:29:47","新北市三芝區淡金路一段4-5號","121.498101666667","25.2596933333333","6502100","三芝區"
"237004","KEA-2597","2018/10/16 17:26:14","新北市三峽區中山路459巷163-3號","121.349061666667","24.9332333333333","6500900","三峽區"
"237013","252-BX","2018/10/16 17:29:38","新北市三峽區中山路459巷163-3號","121.348705","24.93293","6500900","三峽區"
"237012","275-BY","2018/10/16 17:29:36","新北市三峽區中山路459巷137號","121.34995","24.93398","6500900","三峽區"
"237016","649-BX","2018/10/16 17:29:33","新北市三峽區中山路365號","121.358846666667","24.937185","6500900","三峽區"
"242037","AAC-296","2018/10/16 17:29:34","新北市新莊區建國二路1號","121.434963333333","25.0236833333333","6500500","新莊區"
"242058","986-R7","2018/10/16 17:29:50","新北市新莊區中正路530號","121.430955","25.0316216666667","6500500","新莊區"
"242027","705-TV","2018/10/16 17:29:48","新北市新莊區思源路32號","121.460218333333","25.0412583333333","6500500","新莊區"
"242025","613-BX","2018/10/16 17:29:33","新北市新莊區復興路二段29號","121.454056666667","25.0440416666667","6500500","新莊區"
"242029","612-BX","2018/10/16 17:29:32","新北市新莊區復興路二段192號","121.459233333333","25.0444183333333","6500500","新莊區"
"242044","566-BX","2018/10/16 17:29:48","新北市新莊區富國路73號","121.419975","25.0260066666667","6500500","新莊區"
"242048","497-BY","2018/10/16 17:29:42","新北市新莊區四維路210號","121.421365","25.0201616666667","6500500","新莊區"
"242015","442-UM","2018/10/16 17:29:44","新北市新莊區新泰路195號","121.447193333333","25.0379366666667","6500500","新莊區"
"242054","441-UM","2018/10/16 17:27:20","新北市新莊區環河路636-1號","121.436748333333","25.0107516666667","6500500","新莊區"
"242009","413-TV","2018/10/16 17:29:48","新北市新莊區中原路171號","121.453721666667","25.0542966666667","6500500","新莊區"
"242046","400-BY","2018/10/16 17:29:43","新北市新莊區福營路4號","121.440411666667","25.032555","6500500","新莊區"
"242023","362-BY","2018/10/16 17:29:36","新北市新莊區公園路150號","121.45316","25.0401183333333","6500500","新莊區"
"242061","353-BY","2018/10/16 17:29:31","新北市新莊區瓊林南路42巷1-2號","121.435998333333","25.01803","6500500","新莊區"
"242011","132-UY","2018/10/16 17:29:44","新北市新莊區中港路451號","121.45257","25.0485883333333","6500500","新莊區"
"242042","133-UY","2018/10/16 17:29:39","新北市新莊區新樹路113巷15號","121.438373333333","25.0267466666667","6500500","新莊區"
"242034","135-UY","2018/10/16 17:29:47","新北市新莊區新莊路372號","121.449315","25.0334516666667","6500500","新莊區"
"242051","172-VK","2018/10/16 17:29:42","新北市新莊區新樹路447號","121.432668333333","25.0135483333333","6500500","新莊區"
"242013","173-VK","2018/10/16 17:29:37","新北市新莊區中誠街78號","121.45042","25.04797","6500500","新莊區"
"242019","175-VK","2018/10/16 17:29:41","新北市新莊區中港路100號","121.455426666667","25.0395433333333","6500500","新莊區"
"242007","176-VK","2018/10/16 17:29:48","新北市新莊區自強街30號","121.454785","25.0461883333333","6500500","新莊區"
"242017","346-TH","2018/10/16 17:29:42","新北市新莊區建豐街26號","121.451613333333","25.0439516666667","6500500","新莊區"
"242002","347-TH","2018/10/16 17:29:36","新北市新莊區新莊路154號","121.455241666667","25.035475","6500500","新莊區"
"242032","348-TH","2018/10/16 17:29:37","新北市新莊區新泰路401巷12號","121.44305","25.0440366666667","6500500","新莊區"
"242005","349-TH","2018/10/16 17:29:39","新北市新莊區中港路288巷14號","121.453448333333","25.0445466666667","6500500","新莊區"
"242021","350-TH","2018/10/16 17:29:31","新北市新莊區中華路一段18號","121.451953333333","25.0371933333333","6500500","新莊區"
"238015","755-BX","2018/10/16 17:29:43","新北市樹林區大安路265號","121.41905","24.993795","6500700","樹林區"
"238023","601-UM","2018/10/16 17:29:29","新北市樹林區三福街48巷4號","121.407493333333","25.016575","6500700","樹林區"
"238019","599-UM","2018/10/16 17:29:45","新北市樹林區太平路13號","121.419048333333","24.9837516666667","6500700","樹林區"
"238018","571-TV","2018/10/16 17:29:38","新北市樹林區鎮前街165號","121.422368333333","24.98735","6500700","樹林區"
"238024","5061-A6","2018/10/16 17:29:34","新北市樹林區鎮前街152號","121.424566666667","24.9903266666667","6500700","樹林區"
"238022","KEA-2213","2018/10/16 17:29:35","新北市樹林區忠孝街12號","121.42332","24.9826216666667","6500700","樹林區"
"238021","KEA-2539","2018/10/16 17:29:32","新北市樹林區佳園路二段47號","121.392083333333","24.962235","6500700","樹林區"
"238025","303-VK","2018/10/16 17:29:34","新北市樹林區保安街二段2號","121.41677","24.9995816666667","6500700","樹林區"
"238017","283-BY","2018/10/16 17:29:12","新北市樹林區中正路246號","121.418023333333","25.00757","6500700","樹林區"
"238014","282-BY","2018/10/16 17:29:39","新北市樹林區保安街一段294巷3號","121.419256666667","24.9975783333333","6500700","樹林區"
"238020","268-VK","2018/10/16 17:29:39","新北市樹林區俊英街48-2號","121.42854","25.0033133333333","6500700","樹林區"
"238026","172-UY","2018/10/16 17:29:49","新北市樹林區味王街14號","121.40308","24.9760266666667","6500700","樹林區"
"238016","169-UY","2018/10/16 17:29:43","新北市樹林區長壽街15-7號","121.42276","24.99344","6500700","樹林區"
"239007","AAC-297","2018/10/16 17:29:35","新北市鶯歌區國華路18號","121.34284","24.9561866666667","6500800","鶯歌區"
"239006","891-R6","2018/10/16 17:29:28","新北市鶯歌區鳳鳴路105號","121.334298333333","24.9662566666667","6500800","鶯歌區"
"239008","527-UM","2018/10/16 17:29:41","新北市鶯歌區大湖路614號","121.334825","24.9746933333333","6500800","鶯歌區"
"239005","526-UM","2018/10/16 17:29:45","新北市鶯歌區福隆一街35號","121.325031666667","24.97151","6500800","鶯歌區"
"239001","417-VK","2018/10/16 17:29:39","新北市鶯歌區中正三路171號","121.336375","24.94001","6500800","鶯歌區"
"239003","360-BY","2018/10/16 17:29:40","新北市鶯歌區鶯桃路270號","121.33551","24.9598783333333","6500800","鶯歌區"
"239002","359-BY","2018/10/16 17:29:45","新北市鶯歌區育才街49號","121.348151666667","24.9549666666667","6500800","鶯歌區"
"239004","193-VK","2018/10/16 17:29:45","新北市鶯歌區文化路501號","121.352911666667","24.948755","6500800","鶯歌區"
"221008","489-VK","2018/10/16 17:29:40","新北市汐止區康寧街901號","121.65138","25.07505","6501100","汐止區"
"221010","269-BY","2018/10/16 17:29:31","新北市汐止區汐萬路一段256巷3號","121.65216","25.0748266666667","6501100","汐止區"
"242039","281-VK","2018/10/16 17:29:42","新北市新莊區民安西路37號","121.427625","25.020955","6500500","新莊區"
"242056","280-VK","2018/10/16 17:29:40","新北市新莊區新泰路2-1號","121.449726666667","25.0325433333333","6500500","新莊區"
