"lineid","car","time","location","longitude","latitude","cityid","cityname"
"234026","9371-KE","2018/10/16 17:49:45","新北市永和區中山路一段117巷2號","121.510858333333","25.0101666666667","6500400","永和區"
"249005","172-UM","2018/10/16 17:49:40","新北市八里區荖阡坑路34-3號","121.4023","25.1316766666667","6502300","八里區"
"249004","303-UY","2018/10/16 17:49:38","新北市八里區中華路一段305號","121.415771666667","25.155125","6502300","八里區"
"249002","305-UY","2018/10/16 17:49:35","新北市八里區龍形五街37巷3-1號","121.448591666667","25.1326216666667","6502300","八里區"
"249003","593-UM","2018/10/16 17:49:31","新北市八里區中山路一段217巷38號","121.41183","25.1551416666667","6502300","八里區"
"249001","759-BX","2018/10/16 17:49:36","新北市八里區龍米路二段131號","121.445851666667","25.1468666666667","6502300","八里區"
"248020","225-UY","2018/10/16 17:49:42","新北市五股區中興路二段83巷26-6號","121.46007","25.07528","6501500","五股區"
"248012","247-BX","2018/10/16 17:49:47","新北市五股區中興路二段37巷28號","121.46013","25.0749866666667","6501500","五股區"
"248002","678-BX","2018/10/16 17:49:49","新北市五股區中興路二段37巷28號","121.460128333333","25.074935","6501500","五股區"
"232011","375-UM","2018/10/16 17:49:37","新北市坪林區北宜路八段186號","121.70786","24.9346333333333","6502000","坪林區"
"244023","069-UM","2018/10/16 17:49:36","新北市林口區東湖路52號","121.38792","25.07413","6501700","林口區"
"244007","080-UY","2018/10/16 17:49:37","新北市林口區林口路199號","121.387286666667","25.0825316666667","6501700","林口區"
"244019","403-UM","2018/10/16 17:49:43","新北市林口區忠孝路528號","121.372288333333","25.0684316666667","6501700","林口區"
"244013","KEA-2802","2018/10/16 17:49:43","新北市林口區中正路446號","121.383788333333","25.077765","6501700","林口區"
"244017","485-VK","2018/10/16 17:49:35","新北市林口區公園路167號","121.370676666667","25.071965","6501700","林口區"
"244009","656-BX","2018/10/16 17:49:40","新北市林口區竹林路582巷16-1號","121.386065","25.0833466666667","6501700","林口區"
"244021","657-BX","2018/10/16 17:49:35","新北市林口區仁愛路一段2-1號","121.397373333333","25.0680816666667","6501700","林口區"
"244011","701-TV","2018/10/16 17:49:39","新北市林口區仁愛路一段663號","121.387956666667","25.076645","6501700","林口區"
"244025","837-TS","2018/10/16 17:49:41","新北市林口區忠孝三路42號","121.360168333333","25.070295","6501700","林口區"
"222003","436-BY","2018/10/16 17:49:49","新北市深坑區阿柔洋60-1號","121.608603333333","24.99852","6501800","深坑區"
"222002","659-BX","2018/10/16 17:49:39","新北市深坑區平埔街22巷17弄1號","121.61489","25.0008683333333","6501800","深坑區"
"231046","107-UY","2018/10/16 17:49:48","新北市新店區康雅崙路70號","121.533558333333","24.9268783333333","6500600","新店區"
"231058","3713-VJ","2018/10/16 17:49:31","新北市新店區安華路28-1號","121.519141666667","24.9607016666667","6500600","新店區"
"231055","AKT-0513","2018/10/16 17:49:34","新北市新店區安華路28-1號","121.51948","24.960685","6500600","新店區"
"241024","065-VK","2018/10/16 17:49:47","新北市三重區車路頭街62巷37號","121.483263333333","25.0725116666667","6500200","三重區"
"251014","742-BX","2018/10/16 17:49:40","新北市淡水區公埔子16-6號","121.48101","25.22461","6501000","淡水區"
"241005","262-UM","2018/10/16 17:49:30","新北市三重區三和路四段233號","121.481083333333","25.07985","6500200","三重區"
"241016","266-UM","2018/10/16 17:49:39","新北市三重區市前街2號","121.489235","25.06159","6500200","三重區"
"241033","AAC-255","2018/10/16 17:49:32","新北市三重區重新路五段523號","121.47124","25.04621","6500200","三重區"
"235064","005-UY","2018/10/16 17:38:38","新北市中和區員山路36巷16-3號","121.48513","24.9913316666667","6500300","中和區"
"235065","098-UM","2018/10/16 17:49:30","新北市中和區中正路637巷52弄1號","121.48537","24.9937","6500300","中和區"
"247012","KEA-2869","2018/10/16 17:49:47","新北市蘆洲區復興路85號","121.476521666667","25.087535","6501400","蘆洲區"
"247002","893-R6","2018/10/16 17:49:36","新北市蘆洲區永平街32巷33弄12號","121.458916666667","25.0922466666667","6501400","蘆洲區"
"247016","546-UM","2018/10/16 17:49:41","新北市蘆洲區中正路185巷23弄19號","121.4675","25.08411","6501400","蘆洲區"
"247024","500-BY","2018/10/16 17:49:32","新北市蘆洲區長樂路233巷3號","121.461213333333","25.0899583333333","6501400","蘆洲區"
"247014","339-TH","2018/10/16 17:49:35","新北市蘆洲區保和街69巷16號","121.469605","25.0854833333333","6501400","蘆洲區"
"247006","337-TH","2018/10/16 17:49:44","新北市蘆洲區九芎街140號","121.46483","25.0788683333333","6501400","蘆洲區"
"247008","336-TH","2018/10/16 17:49:46","新北市蘆洲區信義路35號","121.474378333333","25.0794716666667","6501400","蘆洲區"
"247020","057-VK","2018/10/16 17:49:30","新北市蘆洲區民權路180號","121.471836666667","25.0905","6501400","蘆洲區"
"247010","056-VK","2018/10/16 17:49:42","新北市蘆洲區信義路214號","121.479055","25.08504","6501400","蘆洲區"
"247018","007-UY","2018/10/16 17:49:40","新北市蘆洲區復興路293號","121.481761666667","25.0902483333333","6501400","蘆洲區"
"247004","002-UY","2018/10/16 17:49:38","新北市蘆洲區長安街196號","121.458748333333","25.084005","6501400","蘆洲區"
"247022","001-UY","2018/10/16 17:49:20","新北市蘆洲區中正路516巷10-1號","121.462125","25.097965","6501400","蘆洲區"
"228001","212-TW","2018/10/16 17:49:48","新北市貢寮區仁理村仁愛路95-1號","121.927693333333","25.055485","6502600","貢寮區"
"228002","585-TW","2018/10/16 17:49:34","新北市貢寮區福隆里龜壽谷街12號","121.955485","25.006495","6502600","貢寮區"
"228003","828-UM","2018/10/16 17:49:43","新北市貢寮區真理里美艷山街6-2號","121.92885","25.06076","6502600","貢寮區"
"224006","676-BX","2018/10/16 17:49:31","新北市瑞芳區傑魚坑路183號","121.788435","25.10818","6501200","瑞芳區"
"224008","285-BY","2018/10/16 17:49:48","新北市瑞芳區明燈路一段222號","121.818146666667","25.1083566666667","6501200","瑞芳區"
"224009","273-VK","2018/10/16 17:49:41","新北市瑞芳區金光路338號","121.84984","25.11001","6501200","瑞芳區"
"224005","271-BY","2018/10/16 17:49:30","新北市瑞芳區瑞濱路32號","121.826236666667","25.1215666666667","6501200","瑞芳區"
"227009","400-TW","2018/10/16 17:49:32","新北市雙溪區三貂里定福路1-2號","121.850736666667","25.063515","6502500","雙溪區"
"253006","032-BX","2018/10/16 17:49:48","新北市石門區中山路64-1號","121.567388333333","25.2902666666667","6502200","石門區"
"208002","KEA-2872","2018/10/16 17:49:42","新北市金山區磺清路135號","121.639393333333","25.22778","6502700","金山區"
"251005","010-UM","2018/10/16 17:49:37","新北市淡水區鄧公路35巷7號","121.451968333333","25.1712616666667","6501000","淡水區"
"251002","012-UM","2018/10/16 17:49:38","新北市淡水區中山路60號","121.443888333333","25.17049","6501000","淡水區"
"251013","KEA-2871","2018/10/16 17:49:33","新北市淡水區泉洲厝31號","121.479606666667","25.19107","6501000","淡水區"
"251016","179-VK","2018/10/16 17:49:43","新北市淡水區埤島39-15號","121.452733333333","25.1959","6501000","淡水區"
"251015","180-VK","2018/10/16 17:49:49","新北市淡水區興福寮25號","121.493311666667","25.16415","6501000","淡水區"
"251008","181-VK","2018/10/16 17:49:42","新北市淡水區八勢路一段98-3號","121.467535","25.1556816666667","6501000","淡水區"
"251010","413-VK","2018/10/16 17:49:32","新北市淡水區淡海路280巷33弄34-2號","121.418725","25.188615","6501000","淡水區"
"251012","441-VK","2018/10/16 17:49:38","新北市淡水區水頭44號","121.47653","25.1856783333333","6501000","淡水區"
"251004","443-VK","2018/10/16 17:49:49","新北市淡水區民權一街46號","121.459195","25.1362466666667","6501000","淡水區"
"251001","559-UM","2018/10/16 17:49:45","新北市淡水區民權路92巷35-1號","121.462216666667","25.12664","6501000","淡水區"
"251006","561-UM","2018/10/16 17:49:40","新北市淡水區新生街51巷45號","121.441206666667","25.17609","6501000","淡水區"
"251009","575-R6","2018/10/16 17:49:40","新北市淡水區長興街61號","121.444225","25.172075","6501000","淡水區"
"251007","577-R6","2018/10/16 17:49:29","新北市淡水區民生路28號","121.461253333333","25.1378816666667","6501000","淡水區"
"251011","650-BX","2018/10/16 17:45:04","新北市淡水區吳(仔)厝7-1號","121.480798333333","25.1477133333333","6501000","淡水區"
"251003","673-BX","2018/10/16 17:49:41","新北市淡水區大忠街5巷1號","121.443123333333","25.17638","6501000","淡水區"
"207003","550-UM","2018/10/16 17:49:32","新北市萬里區野柳里東澳路66號","121.692681666667","25.2009416666667","6502800","萬里區"
"207004","225-TW","2018/10/16 17:49:36","新北市萬里區萬里里瑪鋉頂街61號","121.688396666667","25.1805083333333","6502800","萬里區"
"252002","178-VK","2018/10/16 17:49:34","新北市三芝區智成街18號","121.5035","25.25673","6502100","三芝區"
"252001","292-VK","2018/10/16 17:49:47","新北市三芝區中興街一段28號","121.497651666667","25.2578516666667","6502100","三芝區"
"237004","KEA-2597","2018/10/16 17:26:14","新北市三峽區中山路459巷163-3號","121.349061666667","24.9332333333333","6500900","三峽區"
"237009","210-TH","2018/10/16 17:49:39","新北市三峽區大勇路66號","121.367165","24.9364383333333","6500900","三峽區"
"237013","252-BX","2018/10/16 17:49:38","新北市三峽區愛國路8號","121.374043333333","24.9337833333333","6500900","三峽區"
"237012","275-BY","2018/10/16 17:49:36","新北市三峽區文化路158號","121.370235","24.9361583333333","6500900","三峽區"
"237014","433-BY","2018/10/16 17:49:35","新北市三峽區文化路120巷7號","121.370933333333","24.9365233333333","6500900","三峽區"
"237006","5529-G3","2018/10/16 17:49:33","新北市三峽區介壽路一段554號","121.38736","24.9335933333333","6500900","三峽區"
"237016","649-BX","2018/10/16 17:49:33","新北市三峽區白雞149-2號","121.40011","24.9055333333333","6500900","三峽區"
"237010","706-TV","2018/10/16 17:49:47","新北市三峽區文化路212-3號","121.3685","24.9359816666667","6500900","三峽區"
"237011","760-BX","2018/10/16 17:49:40","新北市三峽區中正路一段246號","121.371866666667","24.9270583333333","6500900","三峽區"
"237005","AKY-6261","2018/10/16 17:49:40","新北市三峽區中山路333-7號","121.359291666667","24.93744","6500900","三峽區"
"236070","105-UM","2018/10/16 17:49:37","新北市土城區青雲路513號","121.458801666667","24.9731233333333","6501300","土城區"
"236042","107-UM","2018/10/16 17:49:48","新北市土城區城林路6巷80號","121.438673333333","24.97969","6501300","土城區"
"236079","166-UM","2018/10/16 17:49:46","新北市土城區中華路二段210號","121.437596666667","24.9686833333333","6501300","土城區"
"236030","253-BX","2018/10/16 17:49:37","新北市土城區城林路6巷80號","121.438685","24.9796766666667","6501300","土城區"
"236014","270-VK","2018/10/16 17:49:36","新北市土城區城林路6巷80號","121.438525","24.9796266666667","6501300","土城區"
"236038","271-VK","2018/10/16 17:49:49","新北市土城區城林路6巷80號","121.438451666667","24.97976","6501300","土城區"
"236055","752-BX","2018/10/16 17:49:39","新北市土城區城林路6巷80號","121.438545","24.979795","6501300","土城區"
"236059","912-UM","2018/10/16 17:49:31","新北市土城區中華路二段174號","121.437421666667","24.9719433333333","6501300","土城區"
"236049","913-UM","2018/10/16 17:49:42","新北市土城區城林路6巷80號","121.438648333333","24.97973","6501300","土城區"
"236063","915-UM","2018/10/16 17:49:35","新北市土城區城林路6巷80號","121.438546666667","24.9797866666667","6501300","土城區"
"242037","AAC-296","2018/10/16 17:49:42","新北市新莊區後港一路91號","121.427783333333","25.0268016666667","6500500","新莊區"
"242058","986-R7","2018/10/16 17:49:50","新北市新莊區中正路730-5號","121.414806666667","25.02363","6500500","新莊區"
"242027","705-TV","2018/10/16 17:49:48","新北市新莊區福壽街165號","121.458016666667","25.053525","6500500","新莊區"
"242025","613-BX","2018/10/16 17:49:32","新北市三重區新北大道二段45號","121.469798333333","25.0613633333333","6500500","新莊區"
"242029","612-BX","2018/10/16 17:49:32","新北市新莊區復興路一段2號","121.445551666667","25.0413766666667","6500500","新莊區"
"242044","566-BX","2018/10/16 17:49:48","新北市新莊區雙鳳路12號","121.417036666667","25.0268716666667","6500500","新莊區"
"242048","497-BY","2018/10/16 17:49:42","新北市新莊區萬安街102巷1號","121.420166666667","25.0224533333333","6500500","新莊區"
"242015","442-UM","2018/10/16 17:49:44","新北市新莊區新泰路502巷40號","121.44368","25.0463283333333","6500500","新莊區"
"242054","441-UM","2018/10/16 17:49:40","新北市新莊區民安西路415巷4號","121.43077","25.0092883333333","6500500","新莊區"
"242009","413-TV","2018/10/16 17:49:28","新北市新莊區昌明街40號","121.456356666667","25.0522633333333","6500500","新莊區"
"242046","400-BY","2018/10/16 17:49:43","新北市新莊區福營路127號","121.433076666667","25.0316566666667","6500500","新莊區"
"242023","362-BY","2018/10/16 17:49:36","新北市新莊區福樂街35號","121.457635","25.046895","6500500","新莊區"
"242061","353-BY","2018/10/16 17:49:31","新北市新莊區新樹路601號","121.43323","25.005865","6500500","新莊區"
"242011","132-UY","2018/10/16 17:49:44","新北市新莊區中港路697號","121.450723333333","25.05686","6500500","新莊區"
"242042","133-UY","2018/10/16 17:49:39","新北市泰山區貴陽街29號","121.422343333333","25.0331266666667","6500500","新莊區"
"242034","135-UY","2018/10/16 17:49:39","新北市新莊區新樹路13號","121.440838333333","25.0328933333333","6500500","新莊區"
"242051","172-VK","2018/10/16 17:49:42","新北市新莊區西盛街232巷11號","121.427513333333","25.0163466666667","6500500","新莊區"
"242013","173-VK","2018/10/16 17:49:44","新北市新莊區中誠街166巷2號","121.448106666667","25.04761","6500500","新莊區"
"242019","175-VK","2018/10/16 17:49:41","新北市新莊區民樂街42號","121.457968333333","25.04134","6500500","新莊區"
"242007","176-VK","2018/10/16 17:49:39","新北市新莊區福樂街122號","121.457003333333","25.0478733333333","6500500","新莊區"
"242017","346-TH","2018/10/16 17:49:42","新北市新莊區中港路323號","121.452566666667","25.044985","6500500","新莊區"
"242002","347-TH","2018/10/16 17:49:36","新北市新莊區新莊路334號","121.450253333333","25.0336383333333","6500500","新莊區"
"242032","348-TH","2018/10/16 17:49:37","新北市新莊區新泰路357巷1弄9號","121.442945","25.040775","6500500","新莊區"
"242005","349-TH","2018/10/16 17:49:49","新北市新莊區自立街239號","121.458286666667","25.04553","6500500","新莊區"
"242021","350-TH","2018/10/16 17:49:31","新北市新莊區永寧街35巷1號","121.452851666667","25.03927","6500500","新莊區"
"238015","755-BX","2018/10/16 17:49:43","新北市樹林區長壽街25巷20號","121.420196666667","24.9946233333333","6500700","樹林區"
"238023","601-UM","2018/10/16 17:49:29","新北市樹林區龍興街32巷18號","121.402198333333","25.0156633333333","6500700","樹林區"
"238019","599-UM","2018/10/16 17:49:45","新北市樹林區太平路161號","121.41879","24.9795083333333","6500700","樹林區"
"238018","571-TV","2018/10/16 17:49:38","新北市樹林區博愛街101號","121.42659","24.9912616666667","6500700","樹林區"
"238022","KEA-2213","2018/10/16 17:49:35","新北市樹林區太順街62巷4號","121.417758333333","24.9795466666667","6500700","樹林區"
"238021","KEA-2539","2018/10/16 17:49:32","新北市樹林區柑園街一段36-8號","121.40546","24.9615633333333","6500700","樹林區"
"238025","303-VK","2018/10/16 17:49:34","新北市樹林區俊興街209號","121.417355","25.01384","6500700","樹林區"
"238017","283-BY","2018/10/16 17:49:32","新北市樹林區三德街45號","121.415938333333","25.0136983333333","6500700","樹林區"
"238014","282-BY","2018/10/16 17:49:38","新北市樹林區大安路145巷15號","121.422685","24.9965233333333","6500700","樹林區"
"238020","268-VK","2018/10/16 17:49:39","新北市樹林區俊英街93號","121.425421666667","25.0089933333333","6500700","樹林區"
"238026","172-UY","2018/10/16 17:49:49","新北市樹林區新興街21號","121.400381666667","24.97274","6500700","樹林區"
"238016","169-UY","2018/10/16 17:49:49","新北市樹林區文化街45號","121.418195","24.9882433333333","6500700","樹林區"
"239007","AAC-297","2018/10/16 17:49:31","新北市鶯歌區永樂街36號","121.341766666667","24.9541266666667","6500800","鶯歌區"
"239006","891-R6","2018/10/16 17:49:28","新北市鶯歌區鶯桃路438號","121.333125","24.9647833333333","6500800","鶯歌區"
"239008","527-UM","2018/10/16 17:49:41","新北市鶯歌區香賓街11巷2號","121.336855","24.9795033333333","6500800","鶯歌區"
"239005","526-UM","2018/10/16 17:49:45","新北市鶯歌區鳳吉五街22號","121.327105","24.9724333333333","6500800","鶯歌區"
"239001","417-VK","2018/10/16 17:49:39","新北市鶯歌區中正三路489號","121.32088","24.9339416666667","6500800","鶯歌區"
"239003","360-BY","2018/10/16 17:49:40","新北市鶯歌區永吉街49號","121.335463333333","24.9570283333333","6500800","鶯歌區"
"239002","359-BY","2018/10/16 17:49:45","新北市鶯歌區育英街9號","121.346915","24.9557","6500800","鶯歌區"
"239004","193-VK","2018/10/16 17:49:45","新北市鶯歌區三鶯路31巷1號","121.35417","24.9438333333333","6500800","鶯歌區"
"221008","489-VK","2018/10/16 17:49:40","新北市汐止區康寧街901號","121.651468333333","25.0750283333333","6501100","汐止區"
"221036","130-UY","2018/10/16 17:49:39","新北市汐止區汐萬路一段220號","121.651861666667","25.0727416666667","6501100","汐止區"
"221015","131-UY","2018/10/16 17:49:47","新北市汐止區長江街255巷6號","121.664161666667","25.0798066666667","6501100","汐止區"
"221010","269-BY","2018/10/16 17:49:31","新北市汐止區汐萬路二段122巷7號","121.648368333333","25.085765","6501100","汐止區"
"221012","278-VK","2018/10/16 17:49:36","新北市汐止區長江街101號","121.658576666667","25.07295","6501100","汐止區"
"221023","279-VK","2018/10/16 17:49:36","新北市汐止區民族一街16號","121.63505","25.0711466666667","6501100","汐止區"
"221032","280-BY","2018/10/16 17:49:32","新北市汐止區工建路202號","121.637001666667","25.0628","6501100","汐止區"
"221027","281-BY","2018/10/16 17:49:44","新北市汐止區汐萬路一段222號","121.651686666667","25.0729516666667","6501100","汐止區"
"221029","298-VK","2018/10/16 17:49:30","新北市汐止區康寧街901號","121.651618333333","25.074945","6501100","汐止區"
"221021","299-VK","2018/10/16 17:49:40","新北市汐止區水源路一段31號","121.657181666667","25.0665016666667","6501100","汐止區"
"221031","353-TW","2018/10/16 17:49:45","新北市汐止區中興路96巷16號","121.635635","25.0624816666667","6501100","汐止區"
"221035","622-UM","2018/10/16 17:49:40","新北市汐止區汐萬路一段211巷13號","121.651608333333","25.0720383333333","6501100","汐止區"
"221025","623-UM","2018/10/16 17:49:37","新北市汐止區大同路二段171號","121.651656666667","25.06474","6501100","汐止區"
"221038","646-BX","2018/10/16 17:49:36","新北市汐止區汐萬路一段222號","121.65173","25.0729483333333","6501100","汐止區"
"221033","647-BX","2018/10/16 17:49:42","新北市汐止區橫科路73巷20弄20號","121.619758333333","25.0516283333333","6501100","汐止區"
"221018","753-BX","2018/10/16 17:49:46","新北市汐止區汐萬路一段5號","121.656073333333","25.0673516666667","6501100","汐止區"
"242039","281-VK","2018/10/16 17:49:50","新北市新莊區民安路160號","121.424735","25.02462","6500500","新莊區"
"242056","280-VK","2018/10/16 17:49:40","新北市新莊區瓊林路40巷22號","121.447081666667","25.0301916666667","6500500","新莊區"
