"lineid","car","time","location","longitude","latitude","cityid","cityname"
"234046","148-BY","2018/10/16 18:49:46","新北市永和區秀朗路二段155號","121.525098333333","25.001635","6500400","永和區"
"234007","207-UY","2018/10/16 18:49:49","新北市永和區文化路146號","121.512553333333","25.01531","6500400","永和區"
"234081","298-R6","2018/10/16 18:49:46","新北市永和區林森路112巷12弄34號","121.522793333333","25.0046166666667","6500400","永和區"
"234038","336-UY","2018/10/16 18:49:47","新北市永和區成功路二段30號","121.526746666667","25.000495","6500400","永和區"
"234064","337-UY","2018/10/16 18:49:38","新北市永和區福和路1號","121.525766666667","25.0093566666667","6500400","永和區"
"234086","338-UY","2018/10/16 18:49:33","新北市永和區中正路39-1號","121.514375","24.9959766666667","6500400","永和區"
"234070","552-UM","2018/10/16 18:49:42","新北市永和區豫溪街191巷1弄1號","121.523123333333","25.01035","6500400","永和區"
"234050","553-UM","2018/10/16 18:49:32","新北市永和區環河東路二段92號","121.524523333333","25.0105566666667","6500400","永和區"
"234017","745-BX","2018/10/16 18:49:31","新北市永和區永和路二段301巷1號","121.51584","25.0163816666667","6500400","永和區"
"234030","746-BX","2018/10/16 18:49:36","新北市永和區得和路321號","121.523426666667","24.9995816666667","6500400","永和區"
"234054","KEA-2590","2018/10/16 18:49:45","新北市永和區豫溪街193號","121.522823333333","25.0103333333333","6500400","永和區"
"234013","KEA-2591","2018/10/16 18:49:48","新北市永和區保福路二段133巷20號","121.509196666667","25.01371","6500400","永和區"
"234061","AAD-866","2018/10/16 18:49:39","新北市永和區福和路307號","121.516253333333","25.0072266666667","6500400","永和區"
"234042","862-TW","2018/10/16 18:49:48","新北市永和區永貞路308號","121.511845","25.0048766666667","6500400","永和區"
"234011","9373-KE","2018/10/16 18:49:42","新北市永和區文化路124號","121.513105","25.0153766666667","6500400","永和區"
"249005","172-UM","2018/10/16 18:49:47","新北市八里區長道坑17號","121.395953333333","25.1154866666667","6502300","八里區"
"249001","759-BX","2018/10/16 18:49:35","新北市八里區龍米路二段58-1號","121.44814","25.1408983333333","6502300","八里區"
"248014","025-BX","2018/10/16 18:49:41","新北市五股區成泰路二段51號","121.437575","25.083115","6501500","五股區"
"248016","026-BX","2018/10/16 18:49:39","新北市五股區凌雲路一段133巷24號","121.449121666667","25.1014633333333","6501500","五股區"
"248006","077-UY","2018/10/16 18:49:37","新北市五股區四維路1巷3-1號","121.466413333333","25.0702233333333","6501500","五股區"
"248008","095-VK","2018/10/16 18:49:49","新北市五股區中興路一段124號","121.465551666667","25.0735583333333","6501500","五股區"
"248020","225-UY","2018/10/16 18:49:42","新北市五股區凌雲路三段86號","121.430211666667","25.1182683333333","6501500","五股區"
"248012","247-BX","2018/10/16 18:49:46","新北市五股區成泰路二段147巷22號","121.438598333333","25.0867833333333","6501500","五股區"
"248010","272-BY","2018/10/16 18:49:36","新北市五股區水碓九路35號","121.428768333333","25.0720033333333","6501500","五股區"
"248004","677-BX","2018/10/16 18:49:39","新北市五股區民義路一段308號","121.424661666667","25.0937083333333","6501500","五股區"
"248002","678-BX","2018/10/16 18:49:49","新北市五股區成泰路三段437號","121.449891666667","25.0978383333333","6501500","五股區"
"234023","9380-KE","2018/10/16 18:49:37","新北市永和區竹林路119巷45號","121.521901666667","25.01188","6500400","永和區"
"234077","969-R7","2018/10/16 18:49:43","新北市永和區中正路2巷29弄5號","121.513735","24.99381","6500400","永和區"
"234067","AAC-212","2018/10/16 18:49:43","新北市永和區中和路625號","121.512876666667","25.0048083333333","6500400","永和區"
"234003","AAC-295","2018/10/16 18:49:43","新北市永和區中正路647號","121.515211666667","25.01016","6500400","永和區"
"244023","069-UM","2018/10/16 18:49:35","新北市林口區文化二路二段102號","121.378925","25.0818433333333","6501700","林口區"
"244007","080-UY","2018/10/16 18:49:37","新北市林口區太平嶺1鄰3號","121.378853333333","25.111925","6501700","林口區"
"244019","403-UM","2018/10/16 18:49:43","新北市林口區麗園二街87號","121.382576666667","25.0670733333333","6501700","林口區"
"244013","KEA-2802","2018/10/16 18:49:43","新北市林口區麗園一街6巷8-2號","121.375116666667","25.0710433333333","6501700","林口區"
"244017","485-VK","2018/10/16 18:49:35","新北市林口區文化二路一段20巷25弄61號","121.366161666667","25.0675116666667","6501700","林口區"
"244009","656-BX","2018/10/16 18:49:40","新北市林口區台電新村21號","121.387501666667","25.0860666666667","6501700","林口區"
"244011","701-TV","2018/10/16 18:49:39","新北市林口區中正路26號","121.395778333333","25.0774816666667","6501700","林口區"
"244025","837-TS","2018/10/16 18:49:41","新北市林口區南勢街163號","121.35934","25.0749133333333","6501700","林口區"
"243016","KEA-2801","2018/10/16 18:49:34","新北市泰山區明志路二段135號","121.427631666667","25.0507516666667","6501600","泰山區"
"243012","646-TV","2018/10/16 18:49:35","新北市泰山區福興三街13號","121.434473333333","25.0577483333333","6501600","泰山區"
"222003","436-BY","2018/10/16 18:49:49","新北市深坑區深南路51-1號","121.621375","25.0102133333333","6501800","深坑區"
"222002","659-BX","2018/10/16 18:49:39","新北市深坑區文山路一段69號","121.62695","25.0019183333333","6501800","深坑區"
"231041","002-UM","2018/10/16 18:49:42","新北市新店區安華路28-1號","121.519655","24.96081","6500600","新店區"
"231059","046-UY","2018/10/16 18:49:41","新北市新店區安華路28-1號","121.519581666667","24.9608733333333","6500600","新店區"
"231040","047-UY","2018/10/16 18:49:42","新北市新店區中央路181-3號","121.535925","24.9690233333333","6500600","新店區"
"231046","107-UY","2018/10/16 18:49:45","新北市新店區直潭路41號","121.533678333333","24.9426116666667","6500600","新店區"
"231053","108-UY","2018/10/16 18:49:47","新北市新店區永興路2號","121.545941666667","24.9409616666667","6500600","新店區"
"231048","187-VK","2018/10/16 18:49:46","新北市新店區光明街149號","121.539386666667","24.962305","6500600","新店區"
"231054","KEA-2219","2018/10/16 18:49:48","新北市新店區安康路一段355-10號","121.520875","24.9638966666667","6500600","新店區"
"231042","268-BY","2018/10/16 18:49:40","新北市新店區安康路一段52巷2號","121.530001666667","24.9612433333333","6500600","新店區"
"231051","278-BY","2018/10/16 18:49:41","新北市新店區中央路63號","121.532503333333","24.9770516666667","6500600","新店區"
"231050","AAD-862","2018/10/16 18:49:37","新北市新店區秀山路72號","121.531391666667","24.96086","6500600","新店區"
"231058","3713-VJ","2018/10/16 18:49:51","新北市新店區中正路5號","121.54573","24.9690833333333","6500600","新店區"
"231066","4716-K9","2018/10/16 18:49:45","新北市新店區安一路一段1-1號","121.519305","24.9612233333333","6500600","新店區"
"231056","4715-K9","2018/10/16 18:49:44","新北市新店區大同街42號","121.538745","24.9807383333333","6500600","新店區"
"231067","4772-VM","2018/10/16 18:49:36","新北市新店區安華路28-1號","121.519325","24.9607066666667","6500600","新店區"
"231065","512-UM","2018/10/16 18:49:41","新北市新店區車子路18-1號","121.505983333333","24.954635","6500600","新店區"
"231049","513-UM","2018/10/16 18:49:31","新北市新店區中央路181-1號","121.53573","24.96914","6500600","新店區"
"231063","616-UM","2018/10/16 18:49:45","新北市新店區安華路28-1號","121.519436666667","24.96054","6500600","新店區"
"231044","618-UM","2018/10/16 18:49:50","新北市新店區中興路三段88號","121.545695","24.97829","6500600","新店區"
"231061","619-UM","2018/10/16 18:49:35","新北市新店區安華路1-1號","121.519566666667","24.960505","6500600","新店區"
"231064","719-UM","2018/10/16 18:49:35","新北市新店區安一路一段1-1號","121.51948","24.9612466666667","6500600","新店區"
"231062","720-UM","2018/10/16 18:49:35","新北市新店區安一路一段1-1號","121.519236666667","24.9612383333333","6500600","新店區"
"231060","897-TW","2018/10/16 18:49:35","新北市新店區安華路28-1號","121.519645","24.9606083333333","6500600","新店區"
"231045","898-TW","2018/10/16 18:49:44","新北市新店區安康路一段323-1號","121.52176","24.963785","6500600","新店區"
"231043","899-TW","2018/10/16 18:49:29","新北市新店區安康路一段222-1號","121.522893333333","24.9636616666667","6500600","新店區"
"231055","AKT-0513","2018/10/16 18:49:34","新北市新店區新生街13巷42-1號","121.53889","24.9664783333333","6500600","新店區"
"251014","742-BX","2018/10/16 18:49:40","新北市淡水區崙頂4-1號","121.493366666667","25.2240933333333","6501000","淡水區"
"235066","003-UY","2018/10/16 18:49:37","新北市中和區水源路18巷2弄2號","121.50406","25.0032683333333","6500300","中和區"
"235064","005-UY","2018/10/16 18:49:39","新北市中和區連城路75巷13號","121.498558333333","24.9983233333333","6500300","中和區"
"235063","006-UY","2018/10/16 18:49:30","新北市中和區連城路321號","121.489066666667","24.9962316666667","6500300","中和區"
"235056","096-UM","2018/10/16 18:49:43","新北市中和區員山路514號","121.47909","25.0089383333333","6500300","中和區"
"235039","097-UM","2018/10/16 18:49:34","新北市中和區宜安路52巷13號","121.512363333333","24.99724","6500300","中和區"
"235065","098-UM","2018/10/16 18:49:30","新北市中和區中山路二段2巷43號","121.502496666667","25.007","6500300","中和區"
"235040","150-BY","2018/10/16 18:49:33","新北市中和區安平路38號","121.509925","24.9951983333333","6500300","中和區"
"235058","151-BY","2018/10/16 18:49:47","新北市中和區連城路532巷34弄18號","121.475213333333","24.9927966666667","6500300","中和區"
"235055","183-VK","2018/10/16 18:49:39","新北市中和區民生街15號","121.471286666667","25.0059333333333","6500300","中和區"
"235038","185-VK","2018/10/16 18:49:42","新北市中和區大勇街48號","121.517576666667","24.99409","6500300","中和區"
"235049","186-VK","2018/10/16 18:49:41","新北市中和區景安路132巷4弄3號","121.504693333333","24.9944616666667","6500300","中和區"
"235067","255-BX","2018/10/16 18:49:31","新北市中和區中正路831號","121.48474","25.002165","6500300","中和區"
"235044","293-VK","2018/10/16 18:49:35","新北市中和區中興街123號","121.499978333333","24.991835","6500300","中和區"
"235072","301-VK","2018/10/16 18:49:37","新北市中和區中山路二段146-1號","121.501758333333","25.002955","6500300","中和區"
"235043","352-BY","2018/10/16 18:49:33","新北市中和區成功路139號","121.525955","24.99064","6500300","中和區"
"235042","KEA-2878","2018/10/16 18:49:36","新北市中和區成功路43號","121.526288333333","24.99316","6500300","中和區"
"235050","4979-A6","2018/10/16 18:49:30","新北市中和區忠孝街62巷9弄12號","121.513085","24.984","6500300","中和區"
"235069","4980-A6","2018/10/16 18:49:44","新北市中和區南山路17號","121.502078333333","24.9990933333333","6500300","中和區"
"235070","558-UM","2018/10/16 18:49:33","新北市中和區圓通路4號","121.501843333333","24.99805","6500300","中和區"
"235045","565-BX","2018/10/16 18:49:49","新北市中和區興南路一段86號","121.50998","24.9893783333333","6500300","中和區"
"235054","640-BX","2018/10/16 18:49:41","新北市中和區民享街66號","121.474151666667","25.0019816666667","6500300","中和區"
"235047","732-UM","2018/10/16 18:49:46","新北市中和區興南路二段34巷57弄2號","121.50493","24.98575","6500300","中和區"
"235046","733-UM","2018/10/16 18:49:40","新北市中和區仁愛街36巷42號","121.51133","24.9863516666667","6500300","中和區"
"235062","800-TS","2018/10/16 18:49:51","新北市中和區中山路二段312巷47號","121.495155","25.0042166666667","6500300","中和區"
"235057","801-TS","2018/10/16 18:49:44","新北市中和區民利街14巷2號","121.480693333333","24.99944","6500300","中和區"
"235041","802-TS","2018/10/16 18:49:39","新北市中和區中安街178巷13弄5-2號","121.510621666667","24.9987466666667","6500300","中和區"
"235052","805-TS","2018/10/16 18:49:39","新北市中和區興南路二段399巷68-1號","121.49986","24.9784666666667","6500300","中和區"
"235048","896-TW","2018/10/16 18:49:48","新北市中和區華新街13號","121.507491666667","24.985095","6500300","中和區"
"235053","900-TW","2018/10/16 18:49:49","新北市中和區華福街42巷3號","121.466371666667","24.9962533333333","6500300","中和區"
"235060","911-UM","2018/10/16 18:49:47","新北市中和區中山路三段206號","121.471543333333","25.0064266666667","6500300","中和區"
"235051","157-BY","2018/10/16 18:49:38","新北市中和區華新街111號","121.508525","24.9815316666667","6500300","中和區"
"235037","AAC-213","2018/10/16 18:49:34","新北市中和區秀朗路三段128巷1弄2號","121.524615","24.992325","6500300","中和區"
"235059","AAC-215","2018/10/16 18:49:41","新北市中和區圓通路393巷4號","121.4896","24.9888533333333","6500300","中和區"
"220035","015-TV","2018/10/16 18:49:43","新北市板橋區中正路275巷62弄4-3號","121.453","25.0181283333333","6500100","板橋區"
"220065","072-UY","2018/10/16 18:49:42","新北市板橋區漢生東路280號","121.470975","25.0094633333333","6500100","板橋區"
"220086","073-UY","2018/10/16 18:49:46","新北市板橋區大智街68號","121.453965","25.0155","6500100","板橋區"
"220106","075-UY","2018/10/16 18:49:29","新北市板橋區民生路二段120號","121.47033","25.0198633333333","6500100","板橋區"
"220069","AAD-861","2018/10/16 18:49:47","新北市板橋區大華街20號","121.458898333333","25.00623","6500100","板橋區"
"226004","205-ST","2018/10/16 18:49:38","新北市平溪區平溪里三坑路38號","121.733588333333","25.03152","6502400","平溪區"
"228001","212-TW","2018/10/16 18:49:48","新北市貢寮區仁理村研海街12-1號","121.923816666667","25.0517066666667","6502600","貢寮區"
"228002","585-TW","2018/10/16 18:49:34","新北市貢寮區福隆里東興街6-11號","121.950721666667","25.0210833333333","6502600","貢寮區"
"228003","828-UM","2018/10/16 18:49:43","新北市瑞芳區鼻頭路127號","121.917036666667","25.121455","6502600","貢寮區"
"224010","AGQ-8101","2018/10/16 18:44:18","新北市瑞芳區崙頂路2號","121.846555","25.10721","6501200","瑞芳區"
"224006","676-BX","2018/10/16 18:49:31","新北市瑞芳區中正路72號","121.806125","25.1074933333333","6501200","瑞芳區"
"224002","639-TC","2018/10/16 18:49:50","新北市瑞芳區傑魚坑路311-1號","121.79456","25.1074666666667","6501200","瑞芳區"
"224008","285-BY","2018/10/16 18:49:48","新北市瑞芳區裕民新城1號","121.801976666667","25.1120233333333","6501200","瑞芳區"
"224007","275-VK","2018/10/16 18:49:37","新北市瑞芳區大埔路東泰新村2號","121.761368333333","25.10125","6501200","瑞芳區"
"224009","273-VK","2018/10/16 18:49:35","新北市瑞芳區長仁路40號","121.864535","25.11755","6501200","瑞芳區"
"224005","271-BY","2018/10/16 18:49:30","新北市瑞芳區海濱路147號","121.830356666667","25.12222","6501200","瑞芳區"
"227003","642-TC","2018/10/16 18:49:41","新北市雙溪區平林里梅竹蹊28號","121.861645","25.0360516666667","6502500","雙溪區"
"227009","400-TW","2018/10/16 18:49:45","新北市雙溪區牡丹里聖南26號","121.856345","25.0534783333333","6502500","雙溪區"
"253006","032-BX","2018/10/16 18:49:48","新北市石門區下員坑15-7號","121.51169","25.2850766666667","6502200","石門區"
"253005","295-VK","2018/10/16 18:49:41","新北市石門區中山路28-1號","121.565991666667","25.2899983333333","6502200","石門區"
"222001","KEA-2212","2018/10/16 18:49:48","新北市深坑區松柏街33號","121.638615","25.01138","6501800","深坑區"
"208002","KEA-2872","2018/10/16 18:49:45","新北市金山區信義路61號","121.635908333333","25.219145","6502700","金山區"
"208003","665-BX","2018/10/16 18:49:33","新北市金山區中山路320號","121.634118333333","25.2249566666667","6502700","金山區"
"208001","761-BX","2018/10/16 18:49:32","新北市金山區文化三路66巷1號","121.634253333333","25.2256316666667","6502700","金山區"
"251002","012-UM","2018/10/16 18:49:38","新北市淡水區學府路75號","121.448461666667","25.1698816666667","6501000","淡水區"
"251013","KEA-2871","2018/10/16 18:49:32","新北市淡水區安子內5-5號","121.481811666667","25.2144816666667","6501000","淡水區"
"251016","179-VK","2018/10/16 18:49:43","新北市淡水區下圭柔山71-3號","121.447021666667","25.2062216666667","6501000","淡水區"
"251015","180-VK","2018/10/16 18:49:38","新北市淡水區糞箕湖20號","121.485696666667","25.17093","6501000","淡水區"
"251010","413-VK","2018/10/16 18:49:32","新北市淡水區沙崙路13號","121.42117","25.18129","6501000","淡水區"
"251012","441-VK","2018/10/16 18:49:38","新北市淡水區新興街48號","121.442731666667","25.1802133333333","6501000","淡水區"
"251001","559-UM","2018/10/16 18:49:45","新北市淡水區自強路86號","121.462791666667","25.1282983333333","6501000","淡水區"
"251009","575-R6","2018/10/16 18:49:31","新北市淡水區重建街172號","121.440791666667","25.1740116666667","6501000","淡水區"
"251007","577-R6","2018/10/16 18:49:49","新北市淡水區民生路140號","121.464403333333","25.13835","6501000","淡水區"
"251011","650-BX","2018/10/16 18:49:44","新北市淡水區學府路8號","121.447481666667","25.1678316666667","6501000","淡水區"
"251003","673-BX","2018/10/16 18:49:41","新北市淡水區中山北路一段186巷22號","121.446256666667","25.1786766666667","6501000","淡水區"
"207003","550-UM","2018/10/16 18:49:32","新北市萬里區大鵬里頂社1號","121.657043333333","25.2097383333333","6502800","萬里區"
"207004","225-TW","2018/10/16 18:49:36","新北市萬里區萬里里獅頭路23號","121.693451666667","25.1782266666667","6502800","萬里區"
"252002","178-VK","2018/10/16 18:49:34","新北市三芝區中正路一段112號","121.504833333333","25.256405","6502100","三芝區"
"252003","249-BX","2018/10/16 18:49:38","新北市三芝區後厝里大片頭76號","121.459251666667","25.24563","6502100","三芝區"
"252001","292-VK","2018/10/16 18:49:47","新北市三芝區中正路三段15號","121.503085","25.2536916666667","6502100","三芝區"
"237007","153-BY","2018/10/16 18:49:42","新北市三峽區中正路二段470巷2號","121.363643333333","24.90707","6500900","三峽區"
"237013","252-BX","2018/10/16 18:49:38","新北市三峽區光明路69巷25號","121.376715","24.92923","6500900","三峽區"
"237012","275-BY","2018/10/16 18:49:36","新北市三峽區三樹路257號","121.379055","24.9427416666667","6500900","三峽區"
"237008","302-VK","2018/10/16 18:49:45","新北市三峽區白雞33-60號","121.370906666667","24.91316","6500900","三峽區"
"237014","433-BY","2018/10/16 18:49:15","新北市三峽區隆恩街174號","121.362488333333","24.942765","6500900","三峽區"
"237006","5529-G3","2018/10/16 18:49:33","新北市三峽區溪東路233巷4弄19號","121.407228333333","24.933775","6500900","三峽區"
"237016","649-BX","2018/10/16 18:49:33","新北市三峽區竹崙路68號","121.432196666667","24.9191716666667","6500900","三峽區"
"237010","706-TV","2018/10/16 18:49:47","新北市三峽區復興路275號","121.366316666667","24.938915","6500900","三峽區"
"237011","760-BX","2018/10/16 18:49:40","新北市三峽區溪東路1號","121.399241666667","24.9352683333333","6500900","三峽區"
"237005","AKY-6261","2018/10/16 18:49:40","新北市三峽區中山路459巷163-3號","121.348733333333","24.9327516666667","6500900","三峽區"
"236070","105-UM","2018/10/16 18:49:37","新北市土城區延和路21巷21號","121.46386","24.988955","6501300","土城區"
"236042","107-UM","2018/10/16 18:49:28","新北市土城區裕民路116-1號","121.450925","24.986405","6501300","土城區"
"236079","166-UM","2018/10/16 18:49:46","新北市土城區中央路四段67巷60-13號","121.416911666667","24.95602","6501300","土城區"
"236030","253-BX","2018/10/16 18:49:37","新北市土城區忠義路26巷10號","121.439766666667","24.9699233333333","6501300","土城區"
"236026","269-VK","2018/10/16 18:49:41","新北市土城區興城路48號","121.44132","24.972625","6501300","土城區"
"236014","270-VK","2018/10/16 18:49:36","新北市土城區金城路二段354巷16號","121.460896666667","24.984365","6501300","土城區"
"236038","271-VK","2018/10/16 18:49:49","新北市土城區明德路一段130號","121.463765","24.97898","6501300","土城區"
"236021","401-BY","2018/10/16 18:49:41","新北市土城區金城路三段50號","121.46593","24.9863316666667","6501300","土城區"
"236055","752-BX","2018/10/16 18:49:39","新北市土城區學府路一段169號","121.452773333333","24.9854816666667","6501300","土城區"
"236059","912-UM","2018/10/16 18:49:31","新北市土城區金城路一段86號","121.444848333333","24.9735216666667","6501300","土城區"
"236049","913-UM","2018/10/16 18:49:43","新北市土城區青雲路96號","121.459373333333","24.9866383333333","6501300","土城區"
"236063","915-UM","2018/10/16 18:49:35","新北市土城區延和路201號","121.46946","24.9902433333333","6501300","土城區"
"242058","986-R7","2018/10/16 18:49:50","新北市泰山區中山路二段271號","121.434065","25.0459983333333","6500500","新莊區"
"242054","441-UM","2018/10/16 18:49:40","新北市樹林區中山路三段214號","121.37971","24.96757","6500500","新莊區"
"242046","400-BY","2018/10/16 18:49:43","新北市新莊區新泰路357巷3弄57號","121.442143333333","25.0396316666667","6500500","新莊區"
"242011","132-UY","2018/10/16 18:49:24","新北市新莊區新泰路357巷3弄57號","121.441948333333","25.0391883333333","6500500","新莊區"
"242042","133-UY","2018/10/16 18:49:39","新北市泰山區磚雅厝3號","121.44206","25.0418333333333","6500500","新莊區"
"242005","349-TH","2018/10/16 18:47:19","新北市樹林區中山路三段214號","121.380218333333","24.96736","6500500","新莊區"
"238023","601-UM","2018/10/16 18:49:49","新北市樹林區工興街14巷1號","121.398886666667","25.0138416666667","6500700","樹林區"
"238019","599-UM","2018/10/16 18:49:45","新北市樹林區中華路190-6號","121.410761666667","24.9807016666667","6500700","樹林區"
"238018","571-TV","2018/10/16 18:49:37","新北市樹林區太平路45號","121.419165","24.982905","6500700","樹林區"
"238024","5061-A6","2018/10/16 18:49:34","新北市樹林區八德街430號","121.402186666667","24.9704533333333","6500700","樹林區"
"238022","KEA-2213","2018/10/16 18:49:41","新北市樹林區東大街1-5號","121.413356666667","24.9764833333333","6500700","樹林區"
"238021","KEA-2539","2018/10/16 18:49:30","新北市樹林區西圳街2段30-1號","121.388673333333","24.96187","6500700","樹林區"
"238025","303-VK","2018/10/16 18:49:34","新北市樹林區中山路三段22號","121.395573333333","24.9729316666667","6500700","樹林區"
"238017","283-BY","2018/10/16 18:49:32","新北市樹林區光興街44號","121.409876666667","25.00274","6500700","樹林區"
"238014","282-BY","2018/10/16 18:49:35","新北市樹林區大安路111巷11號","121.423148333333","24.9976733333333","6500700","樹林區"
"238020","268-VK","2018/10/16 18:49:38","新北市樹林區三俊街252巷25號","121.421005","25.0138316666667","6500700","樹林區"
"238026","172-UY","2018/10/16 18:49:49","新北市樹林區信和街6巷7號","121.389683333333","24.9710783333333","6500700","樹林區"
"238016","169-UY","2018/10/16 18:49:43","新北市樹林區文化街28號","121.419351666667","24.987715","6500700","樹林區"
"239007","AAC-297","2018/10/16 18:49:51","新北市鶯歌區中正一路333-1號","121.3566","24.9578733333333","6500800","鶯歌區"
"239006","891-R6","2018/10/16 18:49:28","新北市鶯歌區鶯桃路97-3號","121.339001666667","24.954125","6500800","鶯歌區"
"239008","527-UM","2018/10/16 18:49:41","新北市鶯歌區國際二路70巷41號","121.337065","24.975575","6500800","鶯歌區"
"239005","526-UM","2018/10/16 18:49:44","新北市鶯歌區大湖路361巷48弄22號","121.330155","24.9772566666667","6500800","鶯歌區"
"239001","417-VK","2018/10/16 18:49:39","新北市鶯歌區永明街60巷52號","121.340693333333","24.9549966666667","6500800","鶯歌區"
"239003","360-BY","2018/10/16 18:49:40","新北市鶯歌區鶯桃路607號","121.329095","24.9691183333333","6500800","鶯歌區"
"239002","359-BY","2018/10/16 18:49:45","新北市鶯歌區中正一路238號","121.354223333333","24.957025","6500800","鶯歌區"
"239004","193-VK","2018/10/16 18:49:24","新北市鶯歌區中正三路247巷67弄2號","121.333846666667","24.9362533333333","6500800","鶯歌區"
"221008","489-VK","2018/10/16 18:49:40","新北市汐止區康寧街901號","121.651218333333","25.0749466666667","6501100","汐止區"
"221036","130-UY","2018/10/16 18:49:39","新北市汐止區忠孝東路314巷15號","121.664548333333","25.0686066666667","6501100","汐止區"
"221015","131-UY","2018/10/16 18:49:47","新北市汐止區鄉長路一段37號","121.665263333333","25.0749666666667","6501100","汐止區"
"221010","269-BY","2018/10/16 18:49:51","新北市汐止區汐萬路一段256巷3號","121.652203333333","25.0746283333333","6501100","汐止區"
"221012","278-VK","2018/10/16 18:49:36","新北市汐止區汐萬路一段256巷3號","121.652548333333","25.0745966666667","6501100","汐止區"
"221023","279-VK","2018/10/16 18:49:36","新北市汐止區汐萬路一段256巷3號","121.652315","25.0746766666667","6501100","汐止區"
"221032","280-BY","2018/10/16 18:49:41","新北市汐止區橫科路40-2號","121.62081","25.05046","6501100","汐止區"
"221027","281-BY","2018/10/16 18:49:44","新北市汐止區康寧街901號","121.651435","25.0749833333333","6501100","汐止區"
"221029","298-VK","2018/10/16 18:49:51","新北市汐止區樟樹一路91號","121.642065","25.0632333333333","6501100","汐止區"
"221021","299-VK","2018/10/16 18:49:40","新北市汐止區汐萬路一段256巷3號","121.652471666667","25.0745666666667","6501100","汐止區"
"221031","353-TW","2018/10/16 18:49:45","新北市汐止區福德一路300巷21號","121.630675","25.0640566666667","6501100","汐止區"
"221035","622-UM","2018/10/16 18:49:41","新北市汐止區禮門街14號","121.656648333333","25.0676916666667","6501100","汐止區"
"221025","623-UM","2018/10/16 18:49:37","新北市汐止區仁愛路32號","121.660375","25.0628666666667","6501100","汐止區"
"221038","646-BX","2018/10/16 18:49:36","新北市汐止區汐萬路一段312號","121.650691666667","25.0753566666667","6501100","汐止區"
"221002","707-TV","2018/10/16 18:49:34","新北市汐止區大同路一段142-1號","121.631328333333","25.05542","6501100","汐止區"
"221018","753-BX","2018/10/16 18:49:46","新北市汐止區茄苳路66號","121.666561666667","25.070655","6501100","汐止區"
"220079","145-BY","2018/10/16 18:49:38","新北市板橋區民權路202巷7弄2-1號","121.46008","25.014825","6500100","板橋區"
"220080","200-UY","2018/10/16 18:38:07","新北市板橋區大觀路二段265巷72弄35號","121.440978333333","24.9972266666667","6500100","板橋區"
"220082","610-BX","2018/10/16 18:49:33","新北市板橋區篤行路三段玉平巷76弄12號","121.427818333333","24.9859416666667","6500100","板橋區"
"220103","257-TC","2018/10/16 18:49:46","新北市板橋區民生路二段123號","121.470591666667","25.01865","6500100","板橋區"
"220056","276-BY","2018/10/16 18:49:44","新北市板橋區四川路二段14號","121.45612","24.9962733333333","6500100","板橋區"
"220072","277-BY","2018/10/16 18:49:40","新北市板橋區大觀路三段36巷54弄1號","121.434491666667","24.9972516666667","6500100","板橋區"
"220094","283-UM","2018/10/16 18:49:46","新北市板橋區民生路二段120號","121.47034","25.0199766666667","6500100","板橋區"
"220071","283-VK","2018/10/16 18:49:44","新北市板橋區忠孝路176巷5弄2號","121.464706666667","25.0020183333333","6500100","板橋區"
"220053","285-VK","2018/10/16 18:49:34","新北市板橋區民生路二段89-4號","121.470943333333","25.018215","6500100","板橋區"
"220083","286-VK","2018/10/16 18:49:47","新北市板橋區僑中二街108巷2號","121.445886666667","25.0073933333333","6500100","板橋區"
"220081","287-VK","2018/10/16 18:49:39","新北市板橋區光華街13巷38號","121.452805","25.0113","6500100","板橋區"
"220090","288-VK","2018/10/16 18:49:46","新北市板橋區民生路二段120號","121.470356666667","25.0196616666667","6500100","板橋區"
"220061","293-UM","2018/10/16 18:49:48","新北市板橋區民生路二段89-4號","121.471208333333","25.018475","6500100","板橋區"
"220062","295-UM","2018/10/16 18:49:32","新北市板橋區觀光街2號","121.472428333333","25.0153483333333","6500100","板橋區"
"220084","296-UM","2018/10/16 18:49:30","新北市板橋區大觀路二段150巷63-1號","121.441516666667","25.00047","6500100","板橋區"
"220075","303-R5","2018/10/16 18:49:39","新北市板橋區館前西路257號","121.454238333333","25.008745","6500100","板橋區"
"220098","317-R6","2018/10/16 18:49:49","新北市板橋區民生路二段161巷3號","121.470281666667","25.0198333333333","6500100","板橋區"
"220064","486-VK","2018/10/16 18:49:43","新北市板橋區民生路二段15-1號","121.472788333333","25.0159583333333","6500100","板橋區"
"220088","491-VK","2018/10/16 18:49:47","新北市板橋區民生路二段181號","121.469621666667","25.0204716666667","6500100","板橋區"
"220063","609-BX","2018/10/16 18:49:36","新北市板橋區中山路二段50-1號","121.473253333333","25.0154866666667","6500100","板橋區"
"220077","687-BX","2018/10/16 18:49:46","新北市板橋區龍興街97巷2號","121.444203333333","25.0026416666667","6500100","板橋區"
"220093","689-BX","2018/10/16 18:49:40","新北市板橋區民生路二段188號","121.469993333333","25.0206916666667","6500100","板橋區"
"220054","741-BX","2018/10/16 18:49:48","新北市板橋區後埔街13號","121.460453333333","25.0068333333333","6500100","板橋區"
"220102","KEA-2699","2018/10/16 18:49:31","新北市板橋區民生路二段120號","121.47047","25.019875","6500100","板橋區"
"220055","827-TW","2018/10/16 18:49:36","新北市板橋區縣民大道一段314號","121.461083333333","25.0101066666667","6500100","板橋區"
"220067","829-TW","2018/10/16 18:49:30","新北市板橋區三民路二段正隆巷45號","121.476783333333","25.0135383333333","6500100","板橋區"
"220096","831-TW","2018/10/16 18:49:39","新北市板橋區民生路二段120號","121.470476666667","25.0199483333333","6500100","板橋區"
"220074","895-R6","2018/10/16 18:49:35","新北市板橋區林園街7-1號","121.453928333333","25.0090883333333","6500100","板橋區"
"220073","985-R7","2018/10/16 18:49:46","新北市板橋區光華街1巷1號","121.454063333333","25.0110483333333","6500100","板橋區"
"220097","AAC-210","2018/10/16 18:41:48","新北市板橋區民生路二段161巷1號","121.470266666667","25.0199383333333","6500100","板橋區"
"220070","AAC-253","2018/10/16 18:49:45","新北市板橋區四川路一段30號","121.45955","25.00622","6500100","板橋區"
"235068","KEA-2873","2018/10/16 18:49:39","新北市中和區中正路211巷13弄1號","121.496991666667","24.9928983333333","6500300","中和區"
"235061","KEA-2875","2018/10/16 18:49:40","新北市中和區民享街53號","121.474126666667","25.00262","6500300","中和區"
