"lineid","car","time","location","longitude","latitude","cityid","cityname"
"234046","148-BY","2018/10/16 18:53:37","新北市永和區秀朗路二段148巷5弄16號","121.526038333333","25.0006316666667","6500400","永和區"
"234007","207-UY","2018/10/16 18:53:49","新北市永和區永和路二段243號","121.515813333333","25.0147266666667","6500400","永和區"
"234081","298-R6","2018/10/16 18:53:46","新北市永和區福和路57巷14弄1號","121.522765","25.006975","6500400","永和區"
"234038","336-UY","2018/10/16 18:53:47","新北市永和區成功路二段207號","121.526591666667","24.9959516666667","6500400","永和區"
"234064","337-UY","2018/10/16 18:53:37","新北市永和區福和路95號","121.52218","25.007855","6500400","永和區"
"234086","338-UY","2018/10/16 18:53:43","新北市永和區中正路93號","121.515383333333","24.9973466666667","6500400","永和區"
"234070","552-UM","2018/10/16 18:53:42","新北市永和區竹林路96巷4號","121.519131666667","25.0120966666667","6500400","永和區"
"234050","553-UM","2018/10/16 18:53:32","新北市永和區環河東路二段92號","121.52444","25.0106516666667","6500400","永和區"
"234017","745-BX","2018/10/16 18:53:31","新北市永和區永和路二段299號","121.516","25.01613","6500400","永和區"
"234030","746-BX","2018/10/16 18:53:36","新北市永和區得和路382-1號","121.524856666667","24.99935","6500400","永和區"
"234054","KEA-2590","2018/10/16 18:53:45","新北市永和區竹林路64號","121.518281666667","25.013545","6500400","永和區"
"234013","KEA-2591","2018/10/16 18:53:48","新北市永和區中山路一段100巷16號","121.511108333333","25.0109283333333","6500400","永和區"
"234061","AAD-866","2018/10/16 18:53:39","新北市永和區福和路309巷5號","121.516353333333","25.0068816666667","6500400","永和區"
"234042","862-TW","2018/10/16 18:53:28","新北市永和區永貞路308號","121.511825","25.0048583333333","6500400","永和區"
"234026","9371-KE","2018/10/16 18:53:45","新北市永和區保生路55號","121.504778333333","25.0098983333333","6500400","永和區"
"234011","9373-KE","2018/10/16 18:53:42","新北市永和區環河西路一段51巷24號","121.514165","25.017565","6500400","永和區"
"249001","759-BX","2018/10/16 18:53:35","新北市八里區龍米路二段136號","121.439428333333","25.15408","6502300","八里區"
"248016","026-BX","2018/10/16 18:53:39","新北市五股區成泰路三段543巷60號","121.449493333333","25.1031933333333","6501500","五股區"
"248008","095-VK","2018/10/16 18:53:29","新北市五股區中興路一段128巷41號","121.465638333333","25.0750566666667","6501500","五股區"
"248020","225-UY","2018/10/16 18:53:42","新北市五股區凌雲路三段100-2號","121.426601666667","25.1231283333333","6501500","五股區"
"248012","247-BX","2018/10/16 18:53:46","新北市五股區成泰路二段147巷5-10號","121.43744","25.08893","6501500","五股區"
"248010","272-BY","2018/10/16 18:53:36","新北市五股區水碓七路30號","121.42897","25.07163","6501500","五股區"
"248004","677-BX","2018/10/16 18:53:39","新北市五股區民義路二段26號","121.419638333333","25.0972166666667","6501500","五股區"
"248002","678-BX","2018/10/16 18:53:49","新北市五股區成泰路三段454號","121.451388333333","25.100425","6501500","五股區"
"234023","9380-KE","2018/10/16 18:53:18","新北市永和區竹林路91巷60弄34號","121.522086666667","25.0124483333333","6500400","永和區"
"234077","969-R7","2018/10/16 18:53:47","新北市永和區中正路169號","121.516608333333","24.99856","6500400","永和區"
"234074","AAC-211","2018/10/16 18:53:33","新北市永和區福和路1號","121.526623333333","25.00998","6500400","永和區"
"234067","AAC-212","2018/10/16 18:53:43","新北市永和區中和路625號","121.512941666667","25.0049316666667","6500400","永和區"
"234003","AAC-295","2018/10/16 18:53:43","新北市永和區永和路二段3號","121.514411666667","25.009895","6500400","永和區"
"244023","069-UM","2018/10/16 18:53:35","新北市林口區文化三路二段179號","121.37593","25.0823933333333","6501700","林口區"
"244019","403-UM","2018/10/16 18:53:43","新北市林口區麗園二街1巷4-2號","121.37754","25.0700716666667","6501700","林口區"
"244013","KEA-2802","2018/10/16 18:53:43","新北市林口區麗園一街6巷4-3號","121.375421666667","25.0699033333333","6501700","林口區"
"243009","297-R6","2018/10/16 18:53:28","新北市泰山區黎明路31號","121.421696666667","25.0606633333333","6501600","泰山區"
"243016","KEA-2801","2018/10/16 18:53:34","新北市泰山區明志路二段135號","121.427646666667","25.0507416666667","6501600","泰山區"
"243015","421-VK","2018/10/16 18:53:35","新北市泰山區美寧街50號","121.430511666667","25.06444","6501600","泰山區"
"243011","KEA-2215","2018/10/16 18:53:45","新北市泰山區明志路二段246-1號","121.426955","25.048195","6501600","泰山區"
"243010","KEA-2216","2018/10/16 18:53:45","新北市泰山區公園路2號","121.430098333333","25.0539","6501600","泰山區"
"243012","646-TV","2018/10/16 18:53:35","新北市泰山區福興三街13號","121.434465","25.05775","6501600","泰山區"
"243014","680-BX","2018/10/16 18:53:29","新北市泰山區犁頭窠3-1號","121.421921666667","25.0605416666667","6501600","泰山區"
"222003","436-BY","2018/10/16 18:53:49","新北市深坑區深南路51-1號","121.621348333333","25.01016","6501800","深坑區"
"222002","659-BX","2018/10/16 18:53:39","新北市深坑區文山路一段69號","121.627068333333","25.0019116666667","6501800","深坑區"
"231041","002-UM","2018/10/16 18:53:42","新北市新店區安康路一段355-10號","121.520418333333","24.9638766666667","6500600","新店區"
"231059","046-UY","2018/10/16 18:53:41","新北市新店區安華路28-1號","121.519593333333","24.9609116666667","6500600","新店區"
"231040","047-UY","2018/10/16 18:53:42","新北市新店區中央路212號","121.530031666667","24.9735066666667","6500600","新店區"
"231046","107-UY","2018/10/16 18:53:45","新北市新店區直潭六街64號","121.532198333333","24.9400716666667","6500600","新店區"
"231053","108-UY","2018/10/16 18:53:44","新北市新店區永興路135號","121.544265","24.9302433333333","6500600","新店區"
"231048","187-VK","2018/10/16 18:53:46","新北市新店區北新路二段98號","121.543051666667","24.9732133333333","6500600","新店區"
"231054","KEA-2219","2018/10/16 18:53:47","新北市新店區環河路29巷1號","121.536283333333","24.961165","6500600","新店區"
"231042","268-BY","2018/10/16 18:53:44","新北市新店區光明街221號","121.540096666667","24.964205","6500600","新店區"
"231051","278-BY","2018/10/16 18:53:40","新北市新店區中央路63號","121.532463333333","24.9770583333333","6500600","新店區"
"231050","AAD-862","2018/10/16 18:53:37","新北市新店區北宜路一段107-2號","121.539493333333","24.9550033333333","6500600","新店區"
"231058","3713-VJ","2018/10/16 18:53:30","新北市新店區中興路一段139號","121.542115","24.963695","6500600","新店區"
"231066","4716-K9","2018/10/16 18:53:45","新北市新店區安一路一段1-1號","121.519425","24.9611666666667","6500600","新店區"
"231065","512-UM","2018/10/16 18:53:41","新北市新店區安康路二段397巷2-1號","121.49452","24.9537083333333","6500600","新店區"
"231049","513-UM","2018/10/16 18:53:51","新北市新店區中央路91號","121.531966666667","24.97613","6500600","新店區"
"231063","616-UM","2018/10/16 18:53:45","新北市新店區安華路28-1號","121.519433333333","24.9605533333333","6500600","新店區"
"231044","618-UM","2018/10/16 18:53:30","新北市新店區寶中路83號","121.5478","24.980655","6500600","新店區"
"231061","619-UM","2018/10/16 18:53:35","新北市新店區安華路1-1號","121.519546666667","24.9605066666667","6500600","新店區"
"231064","719-UM","2018/10/16 18:53:35","新北市新店區安一路一段1-1號","121.519563333333","24.9611683333333","6500600","新店區"
"231062","720-UM","2018/10/16 18:53:35","新北市新店區安一路一段1-1號","121.519296666667","24.96122","6500600","新店區"
"231060","897-TW","2018/10/16 18:53:35","新北市新店區安華路28-1號","121.519593333333","24.96057","6500600","新店區"
"231045","898-TW","2018/10/16 18:53:44","新北市新店區環河路29巷1號","121.536533333333","24.96121","6500600","新店區"
"231043","899-TW","2018/10/16 18:53:49","新北市新店區環河路1-5號","121.53837","24.9616883333333","6500600","新店區"
"231055","AKT-0513","2018/10/16 18:53:34","新北市新店區力行路12號","121.539408333333","24.964645","6500600","新店區"
"241028","022-UY","2018/10/16 18:53:36","新北市三重區重陽路一段45-1號","121.486955","25.058055","6500200","三重區"
"241022","060-VK","2018/10/16 18:53:37","新北市三重區三民街153號","121.484163333333","25.0642716666667","6500200","三重區"
"241031","061-VK","2018/10/16 18:53:35","新北市三重區重新路四段121號","121.484528333333","25.052145","6500200","三重區"
"241017","063-VK","2018/10/16 18:53:44","新北市三重區重新路五段406號","121.47572","25.0475733333333","6500200","三重區"
"241026","066-VK","2018/10/16 18:53:39","新北市三重區福德南路154號","121.500565","25.058475","6500200","三重區"
"251014","742-BX","2018/10/16 18:53:40","新北市淡水區崙頂6巷1號","121.494995","25.223045","6501000","淡水區"
"241009","267-UM","2018/10/16 18:53:36","新北市三重區永福街211巷39號","121.478465","25.0739566666667","6500200","三重區"
"241025","271-UM","2018/10/16 18:53:46","新北市三重區中正北路333號","121.473448333333","25.071545","6500200","三重區"
"241007","398-BY","2018/10/16 18:53:37","新北市五股區中興路一段70號","121.466976666667","25.072945","6500200","三重區"
"241035","KEA-2210","2018/10/16 18:53:46","新北市三重區重新路四段121號","121.484545","25.0523183333333","6500200","三重區"
"241030","480-VK","2018/10/16 18:53:44","新北市三重區環河南路222號","121.49247","25.05168","6500200","三重區"
"241006","AAD-863","2018/10/16 18:53:48","新北市三重區車路頭街139巷12號","121.48424","25.0762233333333","6500200","三重區"
"241029","942-UM","2018/10/16 18:53:40","新北市三重區重安街14號","121.490261666667","25.0582066666667","6500200","三重區"
"235066","003-UY","2018/10/16 18:53:37","新北市中和區廣福路56巷1弄1號","121.503613333333","25.00215","6500300","中和區"
"235064","005-UY","2018/10/16 18:53:39","新北市中和區中和路35-1號","121.5001","25.0014383333333","6500300","中和區"
"235063","006-UY","2018/10/16 18:53:30","新北市中和區錦和路103號","121.490115","24.99537","6500300","中和區"
"235056","096-UM","2018/10/16 18:53:43","新北市中和區員山路466巷15號","121.480581666667","25.0066266666667","6500300","中和區"
"235039","097-UM","2018/10/16 18:53:34","新北市中和區安樂路217巷27號","121.5136","24.9982","6500300","中和區"
"235065","098-UM","2018/10/16 18:53:50","新北市中和區莊敬路33巷19號","121.500428333333","25.0070583333333","6500300","中和區"
"235040","150-BY","2018/10/16 18:53:32","新北市中和區保健路106巷6弄2號","121.511986666667","24.9954083333333","6500300","中和區"
"235058","151-BY","2018/10/16 18:53:47","新北市中和區連城路506號","121.477218333333","24.9920933333333","6500300","中和區"
"235055","183-VK","2018/10/16 18:53:39","新北市中和區民生街53號","121.46961","25.00513","6500300","中和區"
"235038","185-VK","2018/10/16 18:53:42","新北市中和區大勇街43巷11號","121.517068333333","24.9946383333333","6500300","中和區"
"235049","186-VK","2018/10/16 18:53:41","新北市中和區景安路177巷27號","121.506606666667","24.994565","6500300","中和區"
"235067","255-BX","2018/10/16 18:53:34","新北市中和區新生街150號","121.483641666667","25.00069","6500300","中和區"
"235044","293-VK","2018/10/16 18:53:35","新北市中和區中興街167號","121.500018333333","24.9906066666667","6500300","中和區"
"235043","352-BY","2018/10/16 18:53:33","新北市中和區成功路36號","121.526101666667","24.9931716666667","6500300","中和區"
"235042","KEA-2878","2018/10/16 18:53:48","新北市中和區秀朗路三段135巷3弄1號","121.525435","24.992435","6500300","中和區"
"235050","4979-A6","2018/10/16 18:53:51","新北市中和區忠孝街39-1號","121.511553333333","24.9837316666667","6500300","中和區"
"235069","4980-A6","2018/10/16 18:53:44","新北市中和區南山路54號","121.50178","24.9973966666667","6500300","中和區"
"235070","558-UM","2018/10/16 18:53:33","新北市中和區南山路11號","121.502078333333","24.9993333333333","6500300","中和區"
"235045","565-BX","2018/10/16 18:53:49","新北市中和區景新街380號","121.51237","24.9900466666667","6500300","中和區"
"235054","640-BX","2018/10/16 18:53:41","新北市中和區民享街35巷5號","121.474538333333","25.0039816666667","6500300","中和區"
"235047","732-UM","2018/10/16 18:53:46","新北市中和區興南路二段34巷26弄2號","121.505438333333","24.9864533333333","6500300","中和區"
"235046","733-UM","2018/10/16 18:53:40","新北市中和區仁愛街36巷6號","121.510636666667","24.9880033333333","6500300","中和區"
"235062","800-TS","2018/10/16 18:53:30","新北市中和區景平路707號","121.496448333333","25.0036133333333","6500300","中和區"
"235057","801-TS","2018/10/16 18:53:44","新北市中和區民安街63號","121.478698333333","24.9995883333333","6500300","中和區"
"235041","802-TS","2018/10/16 18:53:39","新北市中和區中安街226號","121.51237","24.99871","6500300","中和區"
"235052","805-TS","2018/10/16 18:53:39","新北市中和區興南路二段399巷90-2號","121.500263333333","24.97786","6500300","中和區"
"235048","896-TW","2018/10/16 18:53:48","新北市中和區華新街69號","121.50809","24.984005","6500300","中和區"
"235053","900-TW","2018/10/16 18:53:48","新北市中和區民德路302號","121.467351666667","24.9952983333333","6500300","中和區"
"235060","911-UM","2018/10/16 18:53:47","新北市中和區中山路三段133號","121.47416","25.0060633333333","6500300","中和區"
"235051","157-BY","2018/10/16 18:53:38","新北市中和區忠孝街106巷45號","121.51376","24.9843033333333","6500300","中和區"
"235037","AAC-213","2018/10/16 18:53:34","新北市中和區自立路99巷36弄18號","121.523975","24.9939566666667","6500300","中和區"
"235059","AAC-215","2018/10/16 18:53:40","新北市中和區圓通路369巷29號","121.490716666667","24.9883466666667","6500300","中和區"
"220035","015-TV","2018/10/16 18:53:46","新北市板橋區中正路275巷3弄1號","121.454551666667","25.018525","6500100","板橋區"
"220065","072-UY","2018/10/16 18:53:42","新北市板橋區漢生東路217號","121.471101666667","25.00933","6500100","板橋區"
"220086","073-UY","2018/10/16 18:53:38","新北市板橋區大智街20號","121.455743333333","25.0149066666667","6500100","板橋區"
"220106","075-UY","2018/10/16 18:53:49","新北市板橋區民生路二段120號","121.47053","25.019515","6500100","板橋區"
"220069","AAD-861","2018/10/16 18:53:47","新北市板橋區華興街32-5號","121.458886666667","25.004795","6500100","板橋區"
"226004","205-ST","2018/10/16 18:53:38","新北市平溪區平溪里三坑路34號","121.73655","25.0296733333333","6502400","平溪區"
"228001","212-TW","2018/10/16 18:53:48","新北市貢寮區仁理村研海街12-1號","121.923815","25.0517083333333","6502600","貢寮區"
"228002","585-TW","2018/10/16 18:53:40","新北市貢寮區福隆里東興街6-11號","121.950533333333","25.0211183333333","6502600","貢寮區"
"228003","828-UM","2018/10/16 18:53:43","新北市貢寮區和美里龍洞街64號","121.916248333333","25.1176616666667","6502600","貢寮區"
"224010","AGQ-8101","2018/10/16 18:53:38","新北市瑞芳區基山街9號","121.845261666667","25.10963","6501200","瑞芳區"
"224009","273-VK","2018/10/16 18:53:35","新北市瑞芳區長仁路40號","121.863788333333","25.118275","6501200","瑞芳區"
"227003","642-TC","2018/10/16 18:53:45","新北市雙溪區平林里外平林9-25號","121.860291666667","25.0373166666667","6502500","雙溪區"
"227009","400-TW","2018/10/16 18:53:32","新北市雙溪區牡丹里中正路67號","121.864633333333","25.0439266666667","6502500","雙溪區"
"253006","032-BX","2018/10/16 18:53:48","新北市石門區下員坑30-3號","121.51972","25.282515","6502200","石門區"
"253005","295-VK","2018/10/16 18:53:33","新北市石門區中央路5號","121.566268333333","25.2914366666667","6502200","石門區"
"222001","KEA-2212","2018/10/16 18:53:48","新北市深坑區北深路一段66號","121.636863333333","25.0107283333333","6501800","深坑區"
"208002","KEA-2872","2018/10/16 18:53:42","新北市金山區信義路39號","121.63528","25.21953","6502700","金山區"
"208003","665-BX","2018/10/16 18:53:33","新北市金山區中山路281號","121.636271666667","25.223055","6502700","金山區"
"208001","761-BX","2018/10/16 18:53:46","新北市金山區文化三路63號","121.634055","25.2254566666667","6502700","金山區"
"251005","010-UM","2018/10/16 18:53:49","新北市淡水區濱海路三段148巷33號","121.42512","25.1938566666667","6501000","淡水區"
"251013","KEA-2871","2018/10/16 18:53:32","新北市淡水區小坑子頭9號","121.481226666667","25.21455","6501000","淡水區"
"251016","179-VK","2018/10/16 18:53:43","新北市淡水區下圭柔山71-3號","121.44702","25.2062216666667","6501000","淡水區"
"251015","180-VK","2018/10/16 18:53:49","新北市淡水區糞箕湖60號","121.48521","25.1722966666667","6501000","淡水區"
"251010","413-VK","2018/10/16 18:53:31","新北市淡水區沙崙路16號","121.421158333333","25.1810166666667","6501000","淡水區"
"251005","442-VK","2018/10/16 18:53:46","新北市淡水區中正路18巷6號","121.43761","25.1728033333333","6501000","淡水區"
"251001","559-UM","2018/10/16 18:53:45","新北市淡水區自強路86號","121.462793333333","25.1283166666667","6501000","淡水區"
"251006","561-UM","2018/10/16 18:53:40","新北市淡水區下圭柔山90-8號","121.431661666667","25.2118983333333","6501000","淡水區"
"251009","575-R6","2018/10/16 18:53:31","新北市淡水區重建街128號","121.44039","25.1732183333333","6501000","淡水區"
"251007","577-R6","2018/10/16 18:53:49","新北市淡水區民生路113巷1弄29號","121.463378333333","25.1385966666667","6501000","淡水區"
"251003","673-BX","2018/10/16 18:53:41","新北市淡水區中山北路一段149巷24號","121.442971666667","25.1779433333333","6501000","淡水區"
"207003","550-UM","2018/10/16 18:53:47","新北市萬里區大鵬里頂社61號","121.655841666667","25.20979","6502800","萬里區"
"207004","225-TW","2018/10/16 18:53:36","新北市萬里區萬里里獅頭路23號","121.693533333333","25.1783266666667","6502800","萬里區"
"252002","178-VK","2018/10/16 18:53:34","新北市三芝區中正路一段82號","121.504143333333","25.257315","6502100","三芝區"
"252001","292-VK","2018/10/16 18:53:27","新北市三芝區中正路三段15號","121.50292","25.253605","6502100","三芝區"
"237007","153-BY","2018/10/16 18:53:42","新北市三峽區中正路122號","121.366531666667","24.9061783333333","6500900","三峽區"
"237009","210-TH","2018/10/16 18:53:39","新北市三峽區中山路333-5號","121.359741666667","24.9377166666667","6500900","三峽區"
"237013","252-BX","2018/10/16 18:53:38","新北市三峽區光明路69巷25號","121.37673","24.9292066666667","6500900","三峽區"
"237012","275-BY","2018/10/16 18:53:36","新北市三峽區三樹路222巷132號","121.385421666667","24.9423566666667","6500900","三峽區"
"237008","302-VK","2018/10/16 18:53:45","新北市三峽區白雞33-43號","121.371146666667","24.9123233333333","6500900","三峽區"
"237014","433-BY","2018/10/16 18:53:35","新北市三峽區隆恩街158巷44號","121.36559","24.9460016666667","6500900","三峽區"
"237006","5529-G3","2018/10/16 18:53:33","新北市三峽區溪東路233巷45弄16號","121.410125","24.9342116666667","6500900","三峽區"
"237016","649-BX","2018/10/16 18:53:33","新北市三峽區成福路280號","121.428398333333","24.923365","6500900","三峽區"
"237010","706-TV","2018/10/16 18:53:47","新北市三峽區國光街173號","121.371126666667","24.939575","6500900","三峽區"
"237011","760-BX","2018/10/16 18:53:40","新北市三峽區介壽路三段65號","121.395528333333","24.93787","6500900","三峽區"
"237005","AKY-6261","2018/10/16 18:53:40","新北市三峽區中山路459巷163-3號","121.348656666667","24.9329316666667","6500900","三峽區"
"236070","105-UM","2018/10/16 18:53:37","新北市土城區立清街20號","121.460066666667","24.98591","6501300","土城區"
"236079","166-UM","2018/10/16 18:53:46","新北市土城區中央路四段67巷2弄14號","121.417053333333","24.957635","6501300","土城區"
"236026","269-VK","2018/10/16 18:53:48","新北市土城區慶安街72號","121.44075","24.9729066666667","6501300","土城區"
"236014","270-VK","2018/10/16 18:53:36","新北市土城區永豐路98巷38弄1號","121.463426666667","24.98643","6501300","土城區"
"236021","401-BY","2018/10/16 18:53:41","新北市土城區明峰街50號","121.46775","24.9865416666667","6501300","土城區"
"236059","912-UM","2018/10/16 18:53:31","新北市土城區學士路33巷10號","121.453256666667","24.9805916666667","6501300","土城區"
"236049","913-UM","2018/10/16 18:53:42","新北市板橋區信義路208號","121.460081666667","24.9906466666667","6501300","土城區"
"242054","441-UM","2018/10/16 18:53:40","新北市樹林區中山路三段206-1號","121.384696666667","24.96748","6500500","新莊區"
"242013","173-VK","2018/10/16 18:53:37","新北市新莊區環河路502號","121.438913333333","25.0169883333333","6500500","新莊區"
"242032","348-TH","2018/10/16 18:53:37","新北市新莊區新泰路357巷3弄57號","121.44198","25.0396316666667","6500500","新莊區"
"238023","601-UM","2018/10/16 18:53:49","新北市樹林區工興街26號","121.398881666667","25.01321","6500700","樹林區"
"238019","599-UM","2018/10/16 18:53:45","新北市樹林區東榮街169號","121.41403","24.98139","6500700","樹林區"
"238018","571-TV","2018/10/16 18:52:09","新北市樹林區太平路48號","121.419","24.9825416666667","6500700","樹林區"
"238024","5061-A6","2018/10/16 18:53:34","新北市樹林區育德街113號","121.38981","24.9683933333333","6500700","樹林區"
"238022","KEA-2213","2018/10/16 18:53:42","新北市樹林區東順街62號","121.41102","24.9779766666667","6500700","樹林區"
"238021","KEA-2539","2018/10/16 18:53:30","新北市樹林區西圳街二段123巷6弄2號","121.384365","24.9573333333333","6500700","樹林區"
"238025","303-VK","2018/10/16 18:53:34","新北市樹林區中山路三段22號","121.39555","24.9729383333333","6500700","樹林區"
"238017","283-BY","2018/10/16 18:53:32","新北市樹林區光興街50號","121.40985","25.0027316666667","6500700","樹林區"
"238014","282-BY","2018/10/16 18:53:35","新北市樹林區潭興街107巷3弄2號","121.424595","24.9993233333333","6500700","樹林區"
"238020","268-VK","2018/10/16 18:53:38","新北市樹林區俊英街280號","121.42383","25.013215","6500700","樹林區"
"238026","172-UY","2018/10/16 18:53:49","新北市樹林區信和街126-1號","121.387601666667","24.9734583333333","6500700","樹林區"
"238016","169-UY","2018/10/16 18:53:43","新北市樹林區文化街27號","121.419198333333","24.98772","6500700","樹林區"
"239007","AAC-297","2018/10/16 18:53:31","新北市鶯歌區中正一路225號","121.354088333333","24.9574783333333","6500800","鶯歌區"
"239006","891-R6","2018/10/16 18:53:48","新北市鶯歌區鶯桃路91巷43號","121.337731666667","24.9520133333333","6500800","鶯歌區"
"239008","527-UM","2018/10/16 18:53:41","新北市鶯歌區國際二路34號","121.335806666667","24.9753766666667","6500800","鶯歌區"
"239001","417-VK","2018/10/16 18:53:39","新北市鶯歌區永明街97號","121.341495","24.9564733333333","6500800","鶯歌區"
"239003","360-BY","2018/10/16 18:53:40","新北市鶯歌區鶯桃路457號","121.33215","24.9656766666667","6500800","鶯歌區"
"239002","359-BY","2018/10/16 18:53:45","新北市鶯歌區中山路202-1號","121.34624","24.9570816666667","6500800","鶯歌區"
"239004","193-VK","2018/10/16 18:53:45","新北市鶯歌區中正三路230巷26號","121.329978333333","24.9399033333333","6500800","鶯歌區"
"221008","489-VK","2018/10/16 18:53:40","新北市汐止區康寧街901號","121.651243333333","25.0749466666667","6501100","汐止區"
"221036","130-UY","2018/10/16 18:53:46","新北市汐止區新台五路二段85巷1號","121.664426666667","25.0668666666667","6501100","汐止區"
"221015","131-UY","2018/10/16 18:53:47","新北市汐止區大同路二段599號","121.663791666667","25.0704716666667","6501100","汐止區"
"221010","269-BY","2018/10/16 18:53:31","新北市汐止區康寧街901號","121.6515","25.0750166666667","6501100","汐止區"
"221012","278-VK","2018/10/16 18:53:36","新北市汐止區康寧街901號","121.650788333333","25.07523","6501100","汐止區"
"221023","279-VK","2018/10/16 18:53:36","新北市汐止區康寧街901號","121.651535","25.0749566666667","6501100","汐止區"
"221027","281-BY","2018/10/16 18:53:44","新北市汐止區康寧街901號","121.651418333333","25.07498","6501100","汐止區"
"221029","298-VK","2018/10/16 18:53:30","新北市汐止區工建路48號","121.64113","25.0631483333333","6501100","汐止區"
"221021","299-VK","2018/10/16 18:53:39","新北市汐止區康寧街901號","121.651475","25.07499","6501100","汐止區"
"221031","353-TW","2018/10/16 18:53:45","新北市汐止區福德二路160號","121.630116666667","25.0650216666667","6501100","汐止區"
"221035","622-UM","2018/10/16 18:53:40","新北市汐止區汐萬路一段180號","121.6524","25.0718716666667","6501100","汐止區"
"221025","623-UM","2018/10/16 18:53:37","新北市汐止區秀峰路9號","121.659271666667","25.0659583333333","6501100","汐止區"
"221038","646-BX","2018/10/16 18:53:36","新北市汐止區康寧街901號","121.6507","25.0753516666667","6501100","汐止區"
"221002","707-TV","2018/10/16 18:53:34","新北市汐止區大同路一段2號","121.621008333333","25.0550883333333","6501100","汐止區"
"220079","145-BY","2018/10/16 18:53:38","新北市板橋區民權路258-6號","121.457946666667","25.01519","6500100","板橋區"
"220082","610-BX","2018/10/16 18:53:33","新北市板橋區篤行路三段76號","121.426803333333","24.9851483333333","6500100","板橋區"
"220103","257-TC","2018/10/16 18:53:26","新北市板橋區民生路二段80號","121.471831666667","25.018475","6500100","板橋區"
"220056","276-BY","2018/10/16 18:53:44","新北市板橋區信義路28-6號","121.457113333333","24.9951883333333","6500100","板橋區"
"220072","277-BY","2018/10/16 18:53:40","新北市樹林區樹新路106巷1號","121.430123333333","24.9976716666667","6500100","板橋區"
"220094","283-UM","2018/10/16 18:53:46","新北市板橋區民生路二段161巷5號","121.470245","25.0197416666667","6500100","板橋區"
"220071","283-VK","2018/10/16 18:53:45","新北市板橋區重慶路245巷67弄1號","121.465558333333","25.00123","6500100","板橋區"
"220053","285-VK","2018/10/16 18:53:34","新北市板橋區永豐街75巷15號","121.47308","25.0187083333333","6500100","板橋區"
"220083","286-VK","2018/10/16 18:53:47","新北市板橋區僑中二街8巷33號","121.445445","25.0113383333333","6500100","板橋區"
"220081","287-VK","2018/10/16 18:53:35","新北市板橋區光華街15巷2號","121.453948333333","25.011855","6500100","板橋區"
"220090","288-VK","2018/10/16 18:53:46","新北市板橋區民生路二段89-6號","121.470671666667","25.0193566666667","6500100","板橋區"
"220061","293-UM","2018/10/16 18:53:48","新北市板橋區太和街4巷27號","121.474763333333","25.0203566666667","6500100","板橋區"
"220062","295-UM","2018/10/16 18:53:50","新北市板橋區中山路二段40巷31號","121.473725","25.0144216666667","6500100","板橋區"
"220084","296-UM","2018/10/16 18:53:30","新北市板橋區大觀路二段156巷4號","121.441378333333","24.99938","6500100","板橋區"
"220075","303-R5","2018/10/16 18:53:34","新北市板橋區南興路26號","121.45479","25.00775","6500100","板橋區"
"220098","317-R6","2018/10/16 18:53:29","新北市板橋區民生路二段120號","121.470386666667","25.0198233333333","6500100","板橋區"
"220064","486-VK","2018/10/16 18:53:36","新北市板橋區中山路一段273號","121.469041666667","25.0135183333333","6500100","板橋區"
"220089","487-VK","2018/10/16 18:53:31","新北市板橋區民生路二段188號","121.469838333333","25.02045","6500100","板橋區"
"220088","491-VK","2018/10/16 18:53:47","新北市板橋區民生路二段161巷1號","121.469901666667","25.0201216666667","6500100","板橋區"
"220063","609-BX","2018/10/16 18:53:42","新北市板橋區民生路一段42號","121.474441666667","25.0147166666667","6500100","板橋區"
"220057","686-BX","2018/10/16 18:53:47","新北市板橋區館前東路49-3號","121.461133333333","25.00735","6500100","板橋區"
"220077","687-BX","2018/10/16 18:53:49","新北市板橋區龍興街36號","121.443083333333","25.0005733333333","6500100","板橋區"
"220093","689-BX","2018/10/16 18:53:40","新北市板橋區民生路二段188號","121.46996","25.0203233333333","6500100","板橋區"
"220054","741-BX","2018/10/16 18:53:49","新北市板橋區後埔街80號","121.460651666667","25.0049416666667","6500100","板橋區"
"220102","KEA-2699","2018/10/16 18:53:51","新北市板橋區民生路二段56-6號","121.470831666667","25.01905","6500100","板橋區"
"220055","827-TW","2018/10/16 18:53:36","新北市板橋區中山路一段160-6號","121.466396666667","25.01218","6500100","板橋區"
"220067","829-TW","2018/10/16 18:53:50","新北市板橋區中山路二段90巷47弄16號","121.477188333333","25.0149483333333","6500100","板橋區"
"220096","831-TW","2018/10/16 18:53:39","新北市板橋區民生路二段120號","121.470631666667","25.019445","6500100","板橋區"
"220074","895-R6","2018/10/16 18:53:35","新北市板橋區林園街28-2號","121.453831666667","25.0100033333333","6500100","板橋區"
"220073","985-R7","2018/10/16 18:53:46","新北市板橋區中正路149號","121.45656","25.0158033333333","6500100","板橋區"
"220070","AAC-253","2018/10/16 18:53:45","新北市板橋區四川路一段205號","121.460061666667","25.0036316666667","6500100","板橋區"
"235068","KEA-2873","2018/10/16 18:53:39","新北市中和區中正路167巷13號","121.49815","24.9930016666667","6500300","中和區"
"235061","KEA-2875","2018/10/16 18:53:40","新北市中和區民治街128巷10號","121.474721666667","25.0029666666667","6500300","中和區"
