"lineid","car","time","location","longitude","latitude","cityid","cityname"
"234060","AAD-866","2018/10/16 21:48:13","新北市永和區福和路1號","121.526088333333","25.0096366666667","6500400","永和區"
"251002","012-UM","2018/10/16 21:55:18","新北市淡水區大忠街117號","121.447173333333","25.1771066666667","6501000","淡水區"
"251008","181-VK","2018/10/16 21:55:06","新北市淡水區學府路104號","121.449821666667","25.1717883333333","6501000","淡水區"
"251010","413-VK","2018/10/16 21:55:11","新北市淡水區中正路二段208號","121.426318333333","25.1892666666667","6501000","淡水區"
"251005","442-VK","2018/10/16 21:55:06","新北市淡水區鄧公路30巷36號","121.453556666667","25.1703583333333","6501000","淡水區"
"251004","443-VK","2018/10/16 21:55:23","新北市淡水區自強路201巷39號","121.462146666667","25.1268183333333","6501000","淡水區"
"251006","561-UM","2018/10/16 21:55:20","新北市淡水區中正路11巷3號","121.437836666667","25.1707616666667","6501000","淡水區"
"251007","577-R6","2018/10/16 21:55:08","新北市淡水區水源街二段177巷60號","121.452493333333","25.1770933333333","6501000","淡水區"
"251011","650-BX","2018/10/16 21:55:07","新北市淡水區新春街196號","121.443666666667","25.18086","6501000","淡水區"
"251003","673-BX","2018/10/16 21:55:21","新北市淡水區新春街86號","121.438745","25.1822883333333","6501000","淡水區"
"220070","AAC-253","2018/10/16 21:44:02","新北市板橋區華東街1-9號","121.448238333333","24.99485","6500100","板橋區"
