"lineid","car","time","location","longitude","latitude","cityid","cityname"
"248005","653-BX","2018/08/10 08:59:21","新北市五股區明德路12巷3號","121.433213333333","25.0717966666667","6501500","五股區"
"222005","289-BY","2018/08/10 08:59:16","新北市深坑區大坪街19號","121.630706666667","25.0208516666667","6501800","深坑區"
"231007","189-VK","2018/08/10 08:59:21","新北市新店區新潭路二段61號","121.521923333333","24.9262566666667","6500600","新店區"
"231009","192-VK","2018/08/10 08:59:24","新北市新店區廣興路5巷15號","121.545848333333","24.912835","6500600","新店區"
"235001","611-BX","2018/08/10 08:59:13","新北市中和區民享街287-1號","121.470338333333","24.9955733333333","6500300","中和區"
"226006","AGD-0702","2018/08/10 08:59:23","新北市平溪區嶺腳里嶺腳寮89號","121.747445","25.0350283333333","6502400","平溪區"
"223006","022-BY","2018/08/10 08:59:11","新北市石碇區碇坪路一段49號","121.65913","24.9914","6501900","石碇區"
"223003","205-TH","2018/08/10 08:59:24","新北市石碇區北宜路五段2號","121.627666666667","24.9548083333333","6501900","石碇區"
"223008","406-TH","2018/08/10 08:59:20","新北市石碇區光明路27號","121.695245","25.02392","6501900","石碇區"
"223001","592-UM","2018/08/10 08:59:21","新北市石碇區北宜路五段2號","121.627581666667","24.9548816666667","6501900","石碇區"
"223004","660-BX","2018/08/10 08:59:18","新北市石碇區碇坪路二段71號","121.685501666667","24.9653883333333","6501900","石碇區"
"223005","677-TV","2018/08/10 08:59:30","新北市石碇區崩山57-2號","121.683938333333","24.9649283333333","6501900","石碇區"
"227005","282-VK","2018/08/10 08:59:29","新北市雙溪區泰平里溪尾寮1-1號","121.81985","24.9705466666667","6502500","雙溪區"
"237001","159-UY","2018/08/10 08:59:18","新北市三峽區大觀路80號","121.37408","24.9462133333333","6500900","三峽區"
"236010","165-UM","2018/08/10 08:59:16","新北市土城區明德路一段365-1號","121.453555","24.9793466666667","6501300","土城區"
"236004","339-SR","2018/08/10 08:59:30","新北市土城區學士路1號","121.454053333333","24.983205","6501300","土城區"
"236006","498-BY","2018/08/10 08:59:19","新北市土城區承天路8巷11號","121.437145","24.963535","6501300","土城區"
