"lineid","car","time","location","longitude","latitude","cityid","cityname"
"248005","653-BX","2018/08/10 09:39:21","新北市五股區成泰路一段7巷50號","121.432321666667","25.0672083333333","6501500","五股區"
"222005","289-BY","2018/08/10 09:39:16","新北市深坑區北深路一段266號","121.6292","25.0093133333333","6501800","深坑區"
"231007","189-VK","2018/08/10 09:39:21","新北市新店區新潭路三段215巷25號","121.508128333333","24.904065","6500600","新店區"
"231009","192-VK","2018/08/10 09:32:05","新北市新店區平廣路一段256號","121.50789","24.8882316666667","6500600","新店區"
"223008","406-TH","2018/08/10 09:39:20","新北市石碇區小粗坑(潭邊里)15-6號","121.68439","24.9838716666667","6501900","石碇區"
"237001","159-UY","2018/08/10 09:39:18","新北市三峽區國學街24號","121.373178333333","24.9420083333333","6500900","三峽區"
"236006","498-BY","2018/08/10 09:39:19","新北市土城區忠義路55巷64-1號","121.4438","24.9668733333333","6501300","土城區"
