"lineid","car","time","location","longitude","latitude","cityid","cityname"
"248005","653-BX","2018/08/10 09:59:21","新北市五股區蓬萊路6巷43號","121.43582","25.0803133333333","6501500","五股區"
"231007","189-VK","2018/08/10 09:59:21","新北市新店區新潭路三段215巷25號","121.50813","24.90409","6500600","新店區"
"231009","192-VK","2018/08/10 09:32:05","新北市新店區平廣路一段256號","121.50789","24.8882316666667","6500600","新店區"
"227005","282-VK","2018/08/10 09:59:29","新北市雙溪區泰平里灣潭路36號","121.811446666667","24.9287816666667","6502500","雙溪區"
"236006","498-BY","2018/08/10 09:59:19","新北市土城區城林路6巷80號","121.438701666667","24.979715","6501300","土城區"
