"lineid","car","time","location","longitude","latitude","cityid","cityname"
"234044","148-BY","2018/08/10 12:59:22","新北市永和區永元路52巷38號","121.523851666667","25.0008983333333","6500400","永和區"
"234005","207-UY","2018/08/10 12:59:33","新北市永和區永和路二段82號","121.514953333333","25.0113583333333","6500400","永和區"
"234078","298-R6","2018/08/10 12:59:27","新北市永和區福和路57巷14弄1號","121.522745","25.006985","6500400","永和區"
"234062","337-UY","2018/08/10 12:59:24","新北市永和區秀朗路一段172號","121.518798333333","25.0033533333333","6500400","永和區"
"234084","338-UY","2018/08/10 12:59:26","新北市永和區中正路393號","121.517283333333","25.0040933333333","6500400","永和區"
"234068","552-UM","2018/08/10 12:59:34","新北市永和區竹林路124巷26號","121.518453333333","25.0114466666667","6500400","永和區"
"234036","553-UM","2018/08/10 12:59:37","新北市永和區成功路二段207號","121.526523333333","24.9959716666667","6500400","永和區"
"234015","745-BX","2018/08/10 12:59:26","新北市永和區永和路二段297號","121.51598","25.0160633333333","6500400","永和區"
"234028","746-BX","2018/08/10 12:59:26","新北市永和區厚德街5號","121.525661666667","24.9979966666667","6500400","永和區"
"234052","KEA-2590","2018/08/10 12:59:29","新北市永和區竹林路66巷5號","121.51826","25.0133016666667","6500400","永和區"
"234012","KEA-2591","2018/08/10 12:59:32","新北市永和區信義路17巷9弄1號","121.513906666667","25.0115183333333","6500400","永和區"
"234060","AAD-866","2018/08/10 12:59:25","新北市永和區福和路307號","121.5163","25.0071833333333","6500400","永和區"
"234040","862-TW","2018/08/10 12:59:20","新北市永和區永貞路308號","121.511833333333","25.0048533333333","6500400","永和區"
"234048","863-TW","2018/08/10 12:59:38","新北市永和區文化路208號","121.51032","25.0166016666667","6500400","永和區"
"234025","9371-KE","2018/08/10 12:59:26","新北市永和區水源街2巷14號","121.512273333333","25.005575","6500400","永和區"
"234010","9373-KE","2018/08/10 12:59:28","新北市永和區文化路113巷21弄26號","121.51376","25.013955","6500400","永和區"
"248019","225-UY","2018/08/10 12:59:34","新北市五股區中興路二段83巷26-6號","121.460006666667","25.07517","6501500","五股區"
"234022","9380-KE","2018/08/10 12:59:17","新北市永和區竹林路75巷25弄4號","121.52039","25.0142666666667","6500400","永和區"
"234076","969-R7","2018/08/10 12:59:35","新北市永和區智光街126號","121.51504","24.9956133333333","6500400","永和區"
"234072","AAC-211","2018/08/10 12:59:34","新北市永和區福和路1號","121.525653333333","25.0094216666667","6500400","永和區"
"234066","AAC-212","2018/08/10 12:59:31","新北市永和區自由街55號","121.513656666667","25.0055666666667","6500400","永和區"
"234001","AAC-295","2018/08/10 12:59:21","新北市永和區永平路28號","121.513208333333","25.008865","6500400","永和區"
"244004","248-BX","2018/08/10 12:59:21","新北市林口區中山路262-1號","121.384458333333","25.0801066666667","6501700","林口區"
"231002","002-UM","2018/08/10 12:59:25","新北市新店區安華路28-1號","121.519621666667","24.960845","6500600","新店區"
"231028","046-UY","2018/08/10 12:59:33","新北市新店區安華路28-1號","121.519535","24.96079","6500600","新店區"
"231001","047-UY","2018/08/10 12:59:22","新北市新店區安一路一段1-1號","121.519076666667","24.9610233333333","6500600","新店區"
"231005","106-UY","2018/08/10 12:59:35","新北市新店區安華路28-1號","121.51976","24.9609216666667","6500600","新店區"
"231010","107-UY","2018/08/10 12:59:21","新北市新店區安一路一段1-1號","121.51935","24.961335","6500600","新店區"
"231022","108-UY","2018/08/10 12:59:28","新北市新店區安一路一段1-1號","121.519378333333","24.9613766666667","6500600","新店區"
"231036","110-UY","2018/08/10 12:59:36","新北市新店區安一路一段1-1號","121.519215","24.96122","6500600","新店區"
"231012","187-VK","2018/08/10 12:59:38","新北市新店區安一路一段1-1號","121.519551666667","24.9611083333333","6500600","新店區"
"231023","KEA-2219","2018/08/10 12:59:24","新北市新店區安一路一段1-1號","121.51993","24.9613433333333","6500600","新店區"
"231003","268-BY","2018/08/10 12:59:27","新北市新店區安華路1-1號","121.519428333333","24.9605","6500600","新店區"
"231018","278-BY","2018/08/10 12:59:36","新北市新店區安一路一段1-1號","121.519778333333","24.9612516666667","6500600","新店區"
"231016","AAD-862","2018/08/10 12:59:19","新北市新店區安一路一段1-1號","121.519736666667","24.9612016666667","6500600","新店區"
"231037","4716-K9","2018/08/10 12:59:27","新北市新店區安一路一段1-1號","121.519618333333","24.9610366666667","6500600","新店區"
"231013","513-UM","2018/08/10 12:59:23","新北市新店區安一路一段1-1號","121.519556666667","24.961055","6500600","新店區"
"231034","616-UM","2018/08/10 12:59:34","新北市新店區安華路1-1號","121.519481666667","24.9604183333333","6500600","新店區"
"231030","619-UM","2018/08/10 12:59:36","新北市新店區安華路28-1號","121.519571666667","24.96085","6500600","新店區"
"231035","719-UM","2018/08/10 12:59:33","新北市新店區安一路一段1-1號","121.519381666667","24.96124","6500600","新店區"
"231032","720-UM","2018/08/10 12:59:24","新北市新店區安一路一段1-1號","121.51918","24.9611666666667","6500600","新店區"
"231029","897-TW","2018/08/10 12:59:22","新北市新店區安華路28-1號","121.519825","24.9606883333333","6500600","新店區"
"231024","AKT-0513","2018/08/10 12:59:20","新北市新店區安華路28-1號","121.519605","24.9605116666667","6500600","新店區"
"235030","003-UY","2018/08/10 12:59:30","新北市中和區中山路二段142號","121.502038333333","25.0030566666667","6500300","中和區"
"235028","005-UY","2018/08/10 12:59:27","新北市中和區員山路36巷16-2號","121.485173333333","24.9914133333333","6500300","中和區"
"235027","006-UY","2018/08/10 12:59:33","新北市中和區員山路36巷16-3號","121.485076666667","24.9912433333333","6500300","中和區"
"235029","098-UM","2018/08/10 12:59:23","新北市中和區中山路二段330號","121.494583333333","25.0021783333333","6500300","中和區"
"235022","151-BY","2018/08/10 12:59:35","新北市中和區圓通路367巷22弄14號","121.492115","24.9873283333333","6500300","中和區"
"235002","185-VK","2018/08/10 12:59:19","新北市中和區成功路103號","121.52596","24.9914783333333","6500300","中和區"
"235031","255-BX","2018/08/10 12:59:33","新北市中和區中山路二段461號","121.48375","25.004995","6500300","中和區"
"235006","KEA-2878","2018/08/10 12:59:30","新北市中和區中正路637巷52弄1號","121.485471666667","24.9933233333333","6500300","中和區"
"235001","611-BX","2018/08/10 12:59:31","新北市中和區中山路三段142號","121.473798333333","25.0062966666667","6500300","中和區"
"235018","640-BX","2018/08/10 12:59:28","新北市中和區和城路一段271巷1號","121.485448333333","24.9921733333333","6500300","中和區"
"235035","783-BX","2018/08/10 12:59:26","新北市中和區新生街132號","121.483568333333","25.0011333333333","6500300","中和區"
"235026","800-TS","2018/08/10 12:52:58","新北市中和區員山路36巷16-4號","121.485233333333","24.9920016666667","6500300","中和區"
"235016","805-TS","2018/08/10 12:59:30","新北市中和區員山路36巷16號","121.484425","24.991515","6500300","中和區"
"235017","900-TW","2018/08/10 12:59:22","新北市中和區員山路36巷16-2號","121.485123333333","24.9918383333333","6500300","中和區"
"235015","157-BY","2018/08/10 12:59:27","新北市中和區員山路36巷13號","121.484185","24.990765","6500300","中和區"
"235001","AAC-213","2018/08/10 12:59:23","新北市中和區中正路254號","121.495571666667","24.9939316666667","6500300","中和區"
"235023","251-BX","2018/08/10 12:59:35","新北市中和區員山路36巷16-3號","121.484893333333","24.9913766666667","6500300","中和區"
"207002","749-BX","2018/08/10 12:59:21","新北市萬里區雙興里大坪路38號","121.626256666667","25.17147","6502800","萬里區"
"207001","662-BX","2018/08/10 12:59:25","新北市萬里區萬里里獅頭路22-1號","121.693053333333","25.1782166666667","6502800","萬里區"
"236006","498-BY","2018/08/10 12:59:29","新北市土城區亞洲路22號","121.436351666667","24.974415","6501300","土城區"
"221010","269-BY","2018/08/10 12:59:24","新北市汐止區忠三街8號","121.62473","25.0784666666667","6501100","汐止區"
"221032","280-BY","2018/08/10 12:59:32","新北市汐止區大同路二段639號","121.664541666667","25.0711633333333","6501100","汐止區"
"235025","KEA-2875","2018/08/10 12:32:42","新北市中和區和城路一段271巷1號","121.485465","24.9918683333333","6500300","中和區"
