"lineid","car","time","location","longitude","latitude","cityid","cityname"
"234044","148-BY","2018/08/10 13:19:22","新北市永和區永元路94號","121.522546666667","25.0017366666667","6500400","永和區"
"234005","207-UY","2018/08/10 13:19:33","新北市中和區中山路二段18號","121.50482","25.00546","6500400","永和區"
"234078","298-R6","2018/08/10 13:19:27","新北市永和區福和路59號","121.523013333333","25.007705","6500400","永和區"
"234062","337-UY","2018/08/10 13:19:24","新北市永和區永元路17巷6弄4號","121.521341666667","25.00062","6500400","永和區"
"234084","338-UY","2018/08/10 13:19:26","新北市永和區永利路88號","121.520781666667","25.004","6500400","永和區"
"234068","552-UM","2018/08/10 13:19:34","新北市永和區中正路666巷7號","121.517208333333","25.0091316666667","6500400","永和區"
"234036","553-UM","2018/08/10 13:19:37","新北市永和區民樂街45巷2號","121.527491666667","24.99942","6500400","永和區"
"234015","745-BX","2018/08/10 13:19:26","新北市永和區環河西路一段85巷4弄20號","121.512081666667","25.01692","6500400","永和區"
"234028","746-BX","2018/08/10 13:19:38","新北市永和區厚德街64號","121.52417","24.9988583333333","6500400","永和區"
"234052","KEA-2590","2018/08/10 13:19:29","新北市永和區中興街37號","121.516253333333","25.0118066666667","6500400","永和區"
"234012","KEA-2591","2018/08/10 13:19:32","新北市永和區信義路23號","121.513971666667","25.0123183333333","6500400","永和區"
"234060","AAD-866","2018/08/10 13:19:25","新北市永和區秀朗路一段175號","121.517096666667","25.00374","6500400","永和區"
"234040","862-TW","2018/08/10 13:19:39","新北市永和區永貞路287巷3號","121.510868333333","25.0051916666667","6500400","永和區"
"234048","863-TW","2018/08/10 13:19:38","新北市永和區仁愛路104巷1號","121.51197","25.013335","6500400","永和區"
"234025","9371-KE","2018/08/10 13:19:26","新北市永和區豫溪街52巷18號","121.515676666667","25.00912","6500400","永和區"
"234010","9373-KE","2018/08/10 13:19:28","新北市永和區忠孝街34巷18號","121.514505","25.0168316666667","6500400","永和區"
"248019","225-UY","2018/08/10 13:18:54","新北市五股區孝義路47巷22號","121.45097","25.10933","6501500","五股區"
"234022","9380-KE","2018/08/10 13:19:37","新北市永和區竹林路89號","121.51963","25.012185","6500400","永和區"
"234076","969-R7","2018/08/10 13:19:35","新北市永和區民有街25巷2號","121.517161666667","24.9961516666667","6500400","永和區"
"234072","AAC-211","2018/08/10 13:19:34","新北市永和區竹林路30號","121.517033333333","25.0147133333333","6500400","永和區"
"234066","AAC-212","2018/08/10 13:19:31","新北市永和區保平路50巷3號","121.511176666667","25.0072883333333","6500400","永和區"
"234001","AAC-295","2018/08/10 13:19:21","新北市永和區保福路一段100號","121.5119","25.0106133333333","6500400","永和區"
"244004","248-BX","2018/08/10 13:19:21","新北市林口區頂福里49號","121.34956","25.08926","6501700","林口區"
"231002","002-UM","2018/08/10 13:19:25","新北市新店區安華路28-1號","121.519795","24.960685","6500600","新店區"
"231027","0293-UT","2018/08/10 13:19:23","新北市新店區安康路一段11號","121.533378333333","24.960425","6500600","新店區"
"231028","046-UY","2018/08/10 13:19:33","新北市新店區安華路28-1號","121.519531666667","24.9607016666667","6500600","新店區"
"231001","047-UY","2018/08/10 13:19:22","新北市新店區安一路一段1-1號","121.519046666667","24.961055","6500600","新店區"
"231005","106-UY","2018/08/10 13:19:35","新北市新店區安華路28-1號","121.519658333333","24.960845","6500600","新店區"
"231010","107-UY","2018/08/10 13:19:21","新北市新店區安康路一段164號","121.52608","24.96301","6500600","新店區"
"231022","108-UY","2018/08/10 13:19:28","新北市新店區安一路一段1-1號","121.519491666667","24.9615333333333","6500600","新店區"
"231036","110-UY","2018/08/10 13:19:36","新北市新店區安忠路205巷8號","121.510008333333","24.9553683333333","6500600","新店區"
"231012","187-VK","2018/08/10 13:19:18","新北市新店區安康路一段355號","121.519781666667","24.96287","6500600","新店區"
"231023","KEA-2219","2018/08/10 13:19:24","新北市新店區安康路一段35-1號","121.532015","24.9606216666667","6500600","新店區"
"231026","256-BX","2018/08/10 13:19:22","新北市新店區安一路一段1-1號","121.519628333333","24.9611316666667","6500600","新店區"
"231003","268-BY","2018/08/10 13:19:27","新北市新店區安華路1-1號","121.519411666667","24.9604483333333","6500600","新店區"
"231018","278-BY","2018/08/10 13:19:36","新北市新店區環河路111-10號","121.530675","24.9705633333333","6500600","新店區"
"231016","AAD-862","2018/08/10 13:19:39","新北市新店區安康路一段107-2號","121.528746666667","24.9616683333333","6500600","新店區"
"231038","3712-VJ","2018/08/10 13:19:29","新北市新店區安華路28-1號","121.519323333333","24.9606233333333","6500600","新店區"
"231037","4716-K9","2018/08/10 13:19:27","新北市新店區安華路28-1號","121.519648333333","24.9609866666667","6500600","新店區"
"231025","4715-K9","2018/08/10 13:19:21","新北市新店區中央五街55號","121.527735","24.9754766666667","6500600","新店區"
"231013","513-UM","2018/08/10 13:19:23","新北市新店區安華路28-1號","121.519673333333","24.96104","6500600","新店區"
"231034","616-UM","2018/08/10 13:19:34","新北市新店區安華路1-1號","121.519475","24.9604566666667","6500600","新店區"
"231030","619-UM","2018/08/10 13:19:36","新北市新店區安華路28-1號","121.51951","24.96068","6500600","新店區"
"231035","719-UM","2018/08/10 13:19:33","新北市新店區安一路一段1-1號","121.519498333333","24.9610783333333","6500600","新店區"
"231032","720-UM","2018/08/10 13:19:24","新北市新店區安一路一段1-1號","121.519271666667","24.9611916666667","6500600","新店區"
"231029","897-TW","2018/08/10 13:19:22","新北市新店區安華路28-1號","121.519763333333","24.96072","6500600","新店區"
"231004","899-TW","2018/08/10 13:19:35","新北市新店區安華路28-1號","121.51926","24.9609133333333","6500600","新店區"
"231024","AKT-0513","2018/08/10 13:19:20","新北市新店區北新路一段91號","121.538768333333","24.9617533333333","6500600","新店區"
"235030","003-UY","2018/08/10 13:19:30","新北市中和區中山路二段120號","121.502885","25.00382","6500300","中和區"
"235028","005-UY","2018/08/10 13:19:26","新北市中和區中正路218-5號","121.496428333333","24.9941383333333","6500300","中和區"
"235027","006-UY","2018/08/10 13:19:33","新北市中和區中正路637巷52弄1號","121.485575","24.9934683333333","6500300","中和區"
"235020","096-UM","2018/08/10 13:19:29","新北市中和區連城路469巷70弄2號","121.483445","24.9940016666667","6500300","中和區"
"235029","098-UM","2018/08/10 13:19:23","新北市中和區莊敬路49巷20弄22號","121.502771666667","25.00581","6500300","中和區"
"235022","151-BY","2018/08/10 13:19:15","新北市中和區圓通路290-3號","121.490383333333","24.9893433333333","6500300","中和區"
"235019","183-VK","2018/08/10 13:19:18","新北市中和區連城路469巷79弄14號","121.48374","24.99366","6500300","中和區"
"235002","185-VK","2018/08/10 13:19:19","新北市中和區大智街42巷13號","121.522675","24.9921016666667","6500300","中和區"
"235013","186-VK","2018/08/10 13:19:39","新北市中和區錦和路350-1號","121.490098333333","24.99359","6500300","中和區"
"235031","255-BX","2018/08/10 13:19:33","新北市中和區員山路146巷19號","121.482501666667","24.99688","6500300","中和區"
"235036","301-VK","2018/08/10 13:19:37","新北市中和區連城路226號","121.489808333333","24.9964633333333","6500300","中和區"
"235007","352-BY","2018/08/10 13:19:36","新北市中和區中正路271號","121.495811666667","24.9937033333333","6500300","中和區"
"235006","KEA-2878","2018/08/10 13:19:30","新北市中和區景平路276-1號","121.51389","24.9924616666667","6500300","中和區"
"235014","4979-A6","2018/08/10 13:19:29","新北市中和區捷運路185號","121.505415","24.9913966666667","6500300","中和區"
"235033","4980-A6","2018/08/10 13:19:36","新北市中和區連城路123號","121.496198333333","24.99925","6500300","中和區"
"235034","558-UM","2018/08/10 13:19:32","新北市中和區圓通路112號","121.499328333333","24.996525","6500300","中和區"
"235009","565-BX","2018/08/10 13:19:21","新北市中和區復興路249巷2號","121.503386666667","24.9900116666667","6500300","中和區"
"235018","640-BX","2018/08/10 13:19:28","新北市中和區民享街93-1號","121.474658333333","25.00055","6500300","中和區"
"235011","732-UM","2018/08/10 13:19:26","新北市中和區南山路272號","121.507881666667","24.9879266666667","6500300","中和區"
"235035","783-BX","2018/08/10 13:19:26","新北市中和區中板路18巷1弄5號","121.483666666667","25.01234","6500300","中和區"
"235026","800-TS","2018/08/10 13:19:38","新北市中和區景平路999巷1號","121.495395","25.0059616666667","6500300","中和區"
"235021","801-TS","2018/08/10 13:19:29","新北市中和區員山路173號","121.481163333333","24.9969666666667","6500300","中和區"
"235005","802-TS","2018/08/10 13:19:36","新北市中和區景安路26號","121.507291666667","24.9986116666667","6500300","中和區"
"235016","805-TS","2018/08/10 13:19:30","新北市中和區興南路二段9號","121.507956666667","24.986155","6500300","中和區"
"235017","900-TW","2018/08/10 13:19:22","新北市中和區員山路36巷16-3號","121.485028333333","24.9916566666667","6500300","中和區"
"235015","157-BY","2018/08/10 13:19:27","新北市中和區忠孝街76號","121.51202","24.9842283333333","6500300","中和區"
"235001","AAC-213","2018/08/10 13:19:23","新北市中和區景德街88號","121.516266666667","24.9914733333333","6500300","中和區"
"247007","056-VK","2018/08/10 13:19:19","新北市五股區中興路三段2巷10號","121.449105","25.081065","6501400","蘆洲區"
"235023","251-BX","2018/08/10 13:19:35","新北市中和區員山路36巷16-3號","121.484925","24.9913466666667","6500300","中和區"
"207002","749-BX","2018/08/10 13:19:21","新北市萬里區崁腳里崁腳路166號","121.645036666667","25.1558616666667","6502800","萬里區"
"207001","662-BX","2018/08/10 13:19:25","新北市萬里區龜吼里新墾丁路22號","121.680206666667","25.1938516666667","6502800","萬里區"
"236006","498-BY","2018/08/10 13:19:29","新北市土城區亞洲路104號","121.434276666667","24.9723766666667","6501300","土城區"
"221010","269-BY","2018/08/10 13:19:24","台北市內湖區大湖街137-1號","121.606115","25.10152","6501100","汐止區"
"221032","280-BY","2018/08/10 13:19:32","新北市汐止區新興路3號","121.656415","25.0650933333333","6501100","汐止區"
"220030","610-BX","2018/08/10 13:19:24","新北市板橋區華東街1-9號","121.448246666667","24.9949366666667","6500100","板橋區"
"220012","486-VK","2018/08/10 13:19:25","新北市板橋區華東街1-9號","121.448076666667","24.9950083333333","6500100","板橋區"
"220005","686-BX","2018/08/10 13:19:21","新北市板橋區華東街1-9號","121.44824","24.9948833333333","6500100","板橋區"
"220025","687-BX","2018/08/10 13:19:27","新北市板橋區華東街1-10號","121.448276666667","24.9949266666667","6500100","板橋區"
"235032","KEA-2873","2018/08/10 13:19:38","新北市中和區員山路36巷16-3號","121.485096666667","24.9912616666667","6500300","中和區"
"235025","KEA-2875","2018/08/10 13:19:26","新北市中和區國光街215巷24弄15號","121.466828333333","25.0001016666667","6500300","中和區"
