"lineid","car","time","location","longitude","latitude","cityid","cityname"
"234044","148-BY","2018/08/10 13:39:22","新北市永和區成功路一段80號","121.526275","25.0031916666667","6500400","永和區"
"234005","207-UY","2018/08/10 13:39:33","新北市永和區永和路一段122號","121.513776666667","25.00766","6500400","永和區"
"234078","298-R6","2018/08/10 13:39:27","新北市永和區國中路104巷10號","121.524821666667","25.0069516666667","6500400","永和區"
"234062","337-UY","2018/08/10 13:39:24","新北市永和區秀朗路一段192巷6弄10號","121.519145","25.002435","6500400","永和區"
"234084","338-UY","2018/08/10 13:39:26","新北市永和區永亨路7號","121.519383333333","25.005735","6500400","永和區"
"234068","552-UM","2018/08/10 13:39:34","新北市永和區永和路二段237號","121.51551","25.0144466666667","6500400","永和區"
"234036","553-UM","2018/08/10 13:39:17","新北市永和區民樂街37巷7號","121.528043333333","25.0007716666667","6500400","永和區"
"234015","745-BX","2018/08/10 13:39:26","新北市永和區永和路二段425巷75弄5號","121.51354","25.0170983333333","6500400","永和區"
"234028","746-BX","2018/08/10 13:39:20","新北市永和區民權路1巷18號","121.521335","24.9982916666667","6500400","永和區"
"234052","KEA-2590","2018/08/10 13:39:36","新北市永和區竹林路39巷24弄6號","121.518971666667","25.0144966666667","6500400","永和區"
"234012","KEA-2591","2018/08/10 13:39:32","新北市永和區永平路238巷6號","121.509318333333","25.01138","6500400","永和區"
"234060","AAD-866","2018/08/10 13:39:27","新北市永和區中正路269號","121.517595","25.0007583333333","6500400","永和區"
"234040","862-TW","2018/08/10 13:39:19","新北市中和區中和路262號","121.508436666667","24.9996816666667","6500400","永和區"
"234048","863-TW","2018/08/10 13:39:38","新北市永和區環河西路一段107號","121.511046666667","25.0175033333333","6500400","永和區"
"234025","9371-KE","2018/08/10 13:39:26","新北市永和區秀朗路一段10巷19號","121.513433333333","25.0061416666667","6500400","永和區"
"234010","9373-KE","2018/08/10 13:39:28","新北市永和區保福路二段15巷9號","121.510565","25.0109933333333","6500400","永和區"
"248019","225-UY","2018/08/10 13:34:14","新北市五股區孝義路90-1號","121.448431666667","25.11557","6501500","五股區"
"234022","9380-KE","2018/08/10 13:39:17","新北市永和區中正路702巷20弄1號","121.516515","25.0105383333333","6500400","永和區"
"234076","969-R7","2018/08/10 13:39:37","新北市永和區民權路30號","121.520205","24.999095","6500400","永和區"
"234072","AAC-211","2018/08/10 13:39:37","新北市永和區竹林路213巷5號","121.52122","25.0089516666667","6500400","永和區"
"234066","AAC-212","2018/08/10 13:39:31","新北市永和區中山路一段191巷12號","121.509516666667","25.00813","6500400","永和區"
"234001","AAC-295","2018/08/10 13:39:21","新北市永和區永和路一段114號","121.513833333333","25.007385","6500400","永和區"
"244004","248-BX","2018/08/10 13:39:21","新北市林口區南勢街248號","121.358605","25.075655","6501700","林口區"
"231002","002-UM","2018/08/10 13:39:25","新北市新店區溪園路405號","121.524086666667","24.9781883333333","6500600","新店區"
"231027","0293-UT","2018/08/10 13:39:23","新北市新店區北宜路一段105巷4弄7號","121.540285","24.955465","6500600","新店區"
"231028","046-UY","2018/08/10 13:39:13","新北市新店區安和路一段21號","121.517026666667","24.964695","6500600","新店區"
"231001","047-UY","2018/08/10 13:39:29","新北市新店區中正路366號","121.535176666667","24.976255","6500600","新店區"
"231005","106-UY","2018/08/10 13:39:35","新北市新店區寶中路72號","121.547863333333","24.980585","6500600","新店區"
"231010","107-UY","2018/08/10 13:39:21","新北市新店區中正路307巷15號","121.5358","24.9737783333333","6500600","新店區"
"231022","108-UY","2018/08/10 13:39:28","新北市新店區永興路88-1號","121.544135","24.9336816666667","6500600","新店區"
"231036","110-UY","2018/08/10 13:39:27","新北市新店區安祥路199號","121.47546","24.954745","6500600","新店區"
"231012","187-VK","2018/08/10 13:39:38","新北市新店區德正街40號","121.5443","24.9715783333333","6500600","新店區"
"231023","KEA-2219","2018/08/10 13:39:24","新北市新店區新店路157號","121.536968333333","24.9551233333333","6500600","新店區"
"231026","256-BX","2018/08/10 13:39:22","新北市新店區北新路一段128-3號","121.542268333333","24.96967","6500600","新店區"
"231003","268-BY","2018/08/10 13:39:27","新北市新店區中正路2號","121.545966666667","24.9694666666667","6500600","新店區"
"231018","278-BY","2018/08/10 13:39:36","新北市新店區百忍街37號","121.533473333333","24.9758683333333","6500600","新店區"
"231016","AAD-862","2018/08/10 13:39:39","新北市新店區竹林路25巷10號","121.552286666667","24.9513333333333","6500600","新店區"
"231038","3712-VJ","2018/08/10 13:39:29","新北市新店區安華路28-1號","121.519265","24.960655","6500600","新店區"
"231037","4716-K9","2018/08/10 13:39:27","新北市新店區薏仁坑路5號","121.499071666667","24.958965","6500600","新店區"
"231025","4715-K9","2018/08/10 13:39:21","新北市新店區中央六街52號","121.528081666667","24.9756833333333","6500600","新店區"
"231013","513-UM","2018/08/10 13:39:23","新北市新店區中正路450號","121.534431666667","24.9790066666667","6500600","新店區"
"231034","616-UM","2018/08/10 13:39:34","新北市新店區達觀路8巷3-4號","121.503885","24.9429966666667","6500600","新店區"
"231006","618-UM","2018/08/10 13:39:29","新北市新店區北宜路一段107號","121.539461666667","24.9553616666667","6500600","新店區"
"231030","619-UM","2018/08/10 13:39:36","新北市新店區安康路一段323-1號","121.5217","24.9637966666667","6500600","新店區"
"231035","719-UM","2018/08/10 13:39:33","新北市新店區安忠路56巷6號","121.512896666667","24.9594083333333","6500600","新店區"
"231032","720-UM","2018/08/10 13:39:24","新北市新店區安忠路205巷8號","121.510215","24.9552516666667","6500600","新店區"
"231029","897-TW","2018/08/10 13:39:22","新北市新店區安康路二段171號","121.509825","24.959255","6500600","新店區"
"231004","899-TW","2018/08/10 13:39:35","新北市新店區北新路二段11號","121.542645","24.97143","6500600","新店區"
"231024","AKT-0513","2018/08/10 13:39:20","新北市新店區北新路一段271巷43-1號","121.539436666667","24.9669466666667","6500600","新店區"
"235030","003-UY","2018/08/10 13:39:30","新北市中和區水源路39號","121.50451","25.003635","6500300","中和區"
"235028","005-UY","2018/08/10 13:39:26","新北市中和區連城路103號","121.49627","24.9995283333333","6500300","中和區"
"235027","006-UY","2018/08/10 13:39:32","新北市中和區連城路367號","121.487403333333","24.996255","6500300","中和區"
"235020","096-UM","2018/08/10 13:39:29","新北市中和區員山路466巷18號","121.480996666667","25.006575","6500300","中和區"
"235003","097-UM","2018/08/10 13:39:23","新北市中和區景平路278巷14弄15號","121.514628333333","24.99311","6500300","中和區"
"235029","098-UM","2018/08/10 13:39:23","新北市中和區中山路二段2巷59號","121.50171","25.00733","6500300","中和區"
"235004","150-BY","2018/08/10 13:39:30","新北市中和區安平路59號","121.509651666667","24.9952033333333","6500300","中和區"
"235022","151-BY","2018/08/10 13:39:35","新北市中和區連城路380號","121.480775","24.9952116666667","6500300","中和區"
"235019","183-VK","2018/08/10 13:39:17","新北市中和區莒光路120巷58號","121.471608333333","25.0007316666667","6500300","中和區"
"235002","185-VK","2018/08/10 13:39:39","新北市中和區立人街14巷7弄40號","121.518766666667","24.9953733333333","6500300","中和區"
"235013","186-VK","2018/08/10 13:39:39","新北市中和區明義街11巷10弄1號","121.503806666667","24.9947666666667","6500300","中和區"
"235031","255-BX","2018/08/10 13:39:33","新北市中和區新生街220巷3號","121.48337","24.998405","6500300","中和區"
"235008","293-VK","2018/08/10 13:39:20","新北市中和區復興路280巷1弄2號","121.502253333333","24.9907266666667","6500300","中和區"
"235036","301-VK","2018/08/10 13:39:37","新北市中和區連城路144巷4弄11號","121.495746666667","24.998875","6500300","中和區"
"235007","352-BY","2018/08/10 13:39:35","新北市中和區景平路159巷1號","121.512835","24.9922516666667","6500300","中和區"
"235006","KEA-2878","2018/08/10 13:39:30","新北市中和區成功路41巷1號","121.526238333333","24.9933283333333","6500300","中和區"
"235014","4979-A6","2018/08/10 13:39:29","新北市中和區景新街496巷28弄45號","121.512628333333","24.9859233333333","6500300","中和區"
"235033","4980-A6","2018/08/10 13:39:36","新北市中和區連城路66-1號","121.497668333333","25.001615","6500300","中和區"
"235034","558-UM","2018/08/10 13:39:32","新北市中和區圓通路40號","121.500938333333","24.99775","6500300","中和區"
"235009","565-BX","2018/08/10 13:39:21","新北市中和區南山路236巷63弄1號","121.503855","24.9876366666667","6500300","中和區"
"235018","640-BX","2018/08/10 13:39:28","新北市中和區民享街52號","121.474031666667","25.0025083333333","6500300","中和區"
"235024","647-TV","2018/08/10 13:39:20","新北市中和區中山路二段618號","121.481501666667","25.0054083333333","6500300","中和區"
"235011","732-UM","2018/08/10 13:39:26","新北市中和區南山路320巷10弄14號","121.506841666667","24.9867783333333","6500300","中和區"
"235035","783-BX","2018/08/10 13:39:26","新北市中和區永和路356巷51號","121.487213333333","25.0144016666667","6500300","中和區"
"235026","800-TS","2018/08/10 13:39:38","新北市中和區中山路二段312巷19號","121.495571666667","25.003535","6500300","中和區"
"235021","801-TS","2018/08/10 13:39:29","新北市中和區員山路327巷53號","121.479083333333","25.0022016666667","6500300","中和區"
"235005","802-TS","2018/08/10 13:39:16","新北市中和區中和路400巷21號","121.51174","25.0022316666667","6500300","中和區"
"235016","805-TS","2018/08/10 13:39:32","新北市中和區興南路三段16號","121.497406666667","24.97961","6500300","中和區"
"235017","900-TW","2018/08/10 13:39:22","新北市土城區延壽路55巷1號","121.469783333333","24.99214","6500300","中和區"
"235015","157-BY","2018/08/10 13:39:27","新北市中和區華新街143巷106弄29號","121.506953333333","24.9785983333333","6500300","中和區"
"235001","AAC-213","2018/08/10 13:39:23","新北市中和區景平路71-8號","121.518176666667","24.9916416666667","6500300","中和區"
"220003","015-TV","2018/08/10 13:39:39","新北市板橋區華東街1-9號","121.448183333333","24.9949733333333","6500100","板橋區"
"220034","073-UY","2018/08/10 13:39:19","新北市板橋區南雅西路二段192巷3號","121.452068333333","25.0144783333333","6500100","板橋區"
"220017","AAD-861","2018/08/10 13:39:31","新北市板橋區華東街1-10號","121.448336666667","24.9951183333333","6500100","板橋區"
"247007","056-VK","2018/08/10 13:39:39","新北市五股區四維路161號","121.467828333333","25.07495","6501400","蘆洲區"
"247019","001-UY","2018/08/10 13:37:49","新北市五股區中興路三段5號","121.449111666667","25.07986","6501400","蘆洲區"
"235023","251-BX","2018/08/10 13:39:35","新北市中和區錦和路350-1號","121.490595","24.9935566666667","6500300","中和區"
"207002","749-BX","2018/08/10 13:39:21","新北市萬里區崁腳里崁腳路166號","121.645043333333","25.15586","6502800","萬里區"
"207001","662-BX","2018/08/10 13:39:25","新北市萬里區大鵬里萬里加投46-1號","121.641881666667","25.21105","6502800","萬里區"
"236067","105-UM","2018/08/10 13:39:22","新北市土城區城林路6巷80號","121.438718333333","24.9796383333333","6501300","土城區"
"236029","253-BX","2018/08/10 13:39:40","新北市土城區城林路6巷80號","121.438501666667","24.9797783333333","6501300","土城區"
"236032","271-VK","2018/08/10 13:39:38","新北市土城區城林路6巷80號","121.438503333333","24.9797733333333","6501300","土城區"
"236017","401-BY","2018/08/10 13:39:34","新北市土城區城林路6巷80號","121.438491666667","24.979865","6501300","土城區"
"236006","498-BY","2018/08/10 13:39:34","新北市土城區慶祥街80號","121.436136666667","24.97342","6501300","土城區"
"236057","912-UM","2018/08/10 13:39:38","新北市土城區城林路6巷80號","121.43841","24.9797383333333","6501300","土城區"
"221010","269-BY","2018/08/10 13:39:24","新北市汐止區八連路三段196號","121.615048333333","25.1199266666667","6501100","汐止區"
"221032","280-BY","2018/08/10 13:39:32","新北市汐止區仁愛路27號","121.659398333333","25.0637533333333","6501100","汐止區"
"220027","145-BY","2018/08/10 13:39:23","新北市板橋區南雅西路二段156巷2號","121.451768333333","25.0132933333333","6500100","板橋區"
"220028","200-UY","2018/08/10 13:39:24","新北市板橋區大觀路二段265巷76弄5號","121.442208333333","24.9966033333333","6500100","板橋區"
"220030","610-BX","2018/08/10 13:39:27","新北市板橋區篤行路一段29號","121.432038333333","24.9946116666667","6500100","板橋區"
"220004","276-BY","2018/08/10 13:39:21","新北市板橋區四川路二段橋頭6號","121.448215","24.9938783333333","6500100","板橋區"
"220020","277-BY","2018/08/10 13:39:32","新北市板橋區大觀路三段68號","121.433081666667","24.9949966666667","6500100","板橋區"
"220043","285-UM","2018/08/10 13:39:18","新北市板橋區民生路二段161巷5號","121.470153333333","25.01973","6500100","板橋區"
"220031","286-VK","2018/08/10 13:39:30","新北市板橋區大觀路二段91號","121.446336666667","25.0020183333333","6500100","板橋區"
"220029","287-VK","2018/08/10 13:39:23","新北市板橋區大觀路二段77號","121.44647","25.0022383333333","6500100","板橋區"
"220009","293-UM","2018/08/10 13:39:30","新北市板橋區民生路二段161巷9號","121.470271666667","25.0196716666667","6500100","板橋區"
"220010","295-UM","2018/08/10 13:39:32","新北市板橋區民生路二段120號","121.470508333333","25.0198016666667","6500100","板橋區"
"220032","296-UM","2018/08/10 13:39:34","新北市板橋區大觀路二段148巷1-2號","121.441686666667","24.999265","6500100","板橋區"
"220023","303-R5","2018/08/10 13:39:34","新北市板橋區南雅西路二段95巷18號","121.451731666667","25.0102133333333","6500100","板橋區"
"220012","486-VK","2018/08/10 13:39:24","新北市板橋區民生路二段36-1號","121.472053333333","25.0167683333333","6500100","板橋區"
"220104","560-BX","2018/08/10 13:39:27","新北市板橋區南雅西路二段145巷10號","121.4516","25.0119266666667","6500100","板橋區"
"220052","561-BX","2018/08/10 13:39:33","新北市板橋區民生路二段161巷3號","121.470283333333","25.0197983333333","6500100","板橋區"
"220019","568-UM","2018/08/10 13:39:31","新北市土城區四川路6號","121.455688333333","24.9961283333333","6500100","板橋區"
"220011","609-BX","2018/08/10 13:39:29","新北市板橋區民生路二段161巷3號","121.470258333333","25.0198066666667","6500100","板橋區"
"220002","630-UY","2018/08/10 13:39:18","新北市板橋區四川路二段140巷16弄19號","121.448411666667","24.993615","6500100","板橋區"
"220005","686-BX","2018/08/10 13:39:21","新北市板橋區華東街1-9號","121.448203333333","24.9948566666667","6500100","板橋區"
"220025","687-BX","2018/08/10 13:39:27","新北市板橋區沙崙街37號","121.430463333333","24.9944933333333","6500100","板橋區"
"220014","829-TW","2018/08/10 13:39:39","新北市板橋區民生路二段120號","121.47037","25.0198","6500100","板橋區"
"220021","985-R7","2018/08/10 13:39:35","新北市板橋區華東街328號","121.452805","25.0034033333333","6500100","板橋區"
"220018","AAC-253","2018/08/10 13:39:29","新北市板橋區板城路407號","121.447451666667","24.9951433333333","6500100","板橋區"
"235032","KEA-2873","2018/08/10 13:39:08","新北市中和區中正路211巷32弄18號","121.49652","24.9924116666667","6500300","中和區"
"235025","KEA-2875","2018/08/10 13:39:26","新北市中和區民享街114巷6號","121.474258333333","24.9993616666667","6500300","中和區"
