"lineid","car","time","location","longitude","latitude","cityid","cityname"
"234062","337-UY","2018/08/10 14:39:24","新北市永和區環河西路二段223號","121.501061666667","25.01029","6500400","永和區"
"234028","746-BX","2018/08/10 14:39:40","新北市永和區民族街182巷10號","121.517883333333","24.9971883333333","6500400","永和區"
"234052","KEA-2590","2018/08/10 14:39:29","新北市永和區環河東路一段82號","121.519633333333","25.01635","6500400","永和區"
"234025","9371-KE","2018/08/10 14:39:26","新北市永和區中和路495號","121.510576666667","25.002195","6500400","永和區"
"248019","225-UY","2018/08/10 14:39:16","新北市五股區凌雲路三段57號","121.425293333333","25.125015","6501500","五股區"
"234076","969-R7","2018/08/10 14:39:35","新北市三重區重化街3號","121.468398333333","25.0642016666667","6500400","永和區"
"234072","AAC-211","2018/08/10 14:39:37","新北市永和區環河東路二段46號","121.523023333333","25.0120016666667","6500400","永和區"
"234001","AAC-295","2018/08/10 14:39:21","新北市永和區中正路624巷4號","121.517188333333","25.0078733333333","6500400","永和區"
"244004","248-BX","2018/08/10 14:39:41","新北市林口區南勢里31號","121.351995","25.0704983333333","6501700","林口區"
"231002","002-UM","2018/08/10 14:39:25","新北市新店區中正路468號","121.534011666667","24.9794183333333","6500600","新店區"
"231027","0293-UT","2018/08/10 14:39:23","新北市新店區北新路二段2號","121.54277","24.9706683333333","6500600","新店區"
"231028","046-UY","2018/08/10 14:39:33","新北市新店區安成街28號","121.510238333333","24.961085","6500600","新店區"
"231001","047-UY","2018/08/10 14:39:41","新北市新店區中正路30號","121.545163333333","24.9696916666667","6500600","新店區"
"231005","106-UY","2018/08/10 14:39:35","新北市新店區復興路2號","121.532438333333","24.9882533333333","6500600","新店區"
"231022","108-UY","2018/08/10 14:39:08","新北市新店區桂山路81巷12號","121.568203333333","24.897185","6500600","新店區"
"231036","110-UY","2018/08/10 14:39:27","新北市新店區安祥路106巷274號","121.47294","24.9585316666667","6500600","新店區"
"231012","187-VK","2018/08/10 14:39:38","新北市新店區寶橋路160號","121.549011666667","24.9771416666667","6500600","新店區"
"231023","KEA-2219","2018/08/10 14:39:24","新北市新店區檳榔路23號","121.541601666667","24.9637766666667","6500600","新店區"
"231003","268-BY","2018/08/10 14:39:27","新北市新店區中興路一段290號","121.545833333333","24.9690683333333","6500600","新店區"
"231018","278-BY","2018/08/10 14:39:36","新北市新店區中央一街10號","121.528736666667","24.972825","6500600","新店區"
"231016","AAD-862","2018/08/10 14:39:39","新北市新店區北宜路三段335巷15號","121.610066666667","24.95904","6500600","新店區"
"231038","3712-VJ","2018/08/10 14:39:29","新北市新店區安華路28-1號","121.519648333333","24.9609533333333","6500600","新店區"
"231037","4716-K9","2018/08/10 14:39:27","新北市新店區柴埕路60巷7-2號","121.50879","24.9649133333333","6500600","新店區"
"231013","513-UM","2018/08/10 14:39:23","新北市新店區明德路22號","121.542143333333","24.9769866666667","6500600","新店區"
"231034","616-UM","2018/08/10 14:39:34","新北市新店區黎明路3號","121.503905","24.952545","6500600","新店區"
"231006","618-UM","2018/08/10 14:39:36","新北市新店區北宜路二段103號","121.550268333333","24.9524716666667","6500600","新店區"
"231030","619-UM","2018/08/10 14:39:36","新北市新店區安民街210號","121.517358333333","24.97218","6500600","新店區"
"231035","719-UM","2018/08/10 14:39:33","新北市新店區安光路13-1號","121.513366666667","24.9638083333333","6500600","新店區"
"231029","897-TW","2018/08/10 14:39:22","新北市新店區安康路三段337號","121.48546","24.9514916666667","6500600","新店區"
"231004","899-TW","2018/08/10 14:39:35","新北市新店區中正路289號","121.537345","24.9745266666667","6500600","新店區"
"231024","AKT-0513","2018/08/10 14:39:40","新北市新店區新生街3巷1號","121.540295","24.9655433333333","6500600","新店區"
"235030","003-UY","2018/08/10 14:39:30","新北市中和區景新街129號","121.505763333333","24.9972883333333","6500300","中和區"
"235027","006-UY","2018/08/10 14:39:32","新北市中和區連城路184號","121.492843333333","24.9970333333333","6500300","中和區"
"235020","096-UM","2018/08/10 14:39:29","新北市中和區員山路581巷31弄22號","121.476591666667","25.0103533333333","6500300","中和區"
"235003","097-UM","2018/08/10 14:39:23","新北市中和區安平路162號","121.512548333333","24.99869","6500300","中和區"
"235029","098-UM","2018/08/10 14:39:28","新北市中和區福祥路89號","121.498865","25.00587","6500300","中和區"
"235004","150-BY","2018/08/10 14:39:30","新北市中和區宜安路65號","121.511156666667","24.99698","6500300","中和區"
"235022","151-BY","2018/08/10 14:39:37","新北市中和區員山路150巷1號","121.481573333333","24.9983483333333","6500300","中和區"
"235019","183-VK","2018/08/10 14:39:37","新北市中和區民生街35巷3弄1號","121.47045","25.0048883333333","6500300","中和區"
"235002","185-VK","2018/08/10 14:39:19","新北市中和區自強路27巷22號","121.521615","24.993165","6500300","中和區"
"235013","186-VK","2018/08/10 14:39:20","新北市中和區安平路16號","121.50924","24.9941466666667","6500300","中和區"
"235031","255-BX","2018/08/10 14:39:32","新北市中和區連城路340巷14弄9號","121.48315","24.99712","6500300","中和區"
"235008","293-VK","2018/08/10 14:39:40","新北市中和區興南路一段147號","121.508655","24.987375","6500300","中和區"
"235036","301-VK","2018/08/10 14:39:37","新北市中和區廣福路66號","121.503508333333","25.001665","6500300","中和區"
"235007","352-BY","2018/08/10 14:39:35","新北市中和區南華路26號","121.503095","24.9959266666667","6500300","中和區"
"235006","KEA-2878","2018/08/10 14:39:30","新北市中和區保健路2巷2號","121.507755","24.9982466666667","6500300","中和區"
"247009","KEA-2869","2018/08/10 14:39:22","新北市蘆洲區信義路222巷36號","121.480891666667","25.0854766666667","6501400","蘆洲區"
"235014","4979-A6","2018/08/10 14:39:35","新北市中和區景平路329巷1弄4號","121.506026666667","24.99279","6500300","中和區"
"235033","4980-A6","2018/08/10 14:39:36","新北市中和區錦和路216號","121.490465","24.9942216666667","6500300","中和區"
"235034","558-UM","2018/08/10 14:39:32","新北市中和區景平路541號","121.498648333333","24.9993166666667","6500300","中和區"
"235009","565-BX","2018/08/10 14:39:41","新北市中和區興南路一段55號","121.510803333333","24.9901716666667","6500300","中和區"
"235018","640-BX","2018/08/10 14:39:28","新北市中和區莒光路220號","121.47016","24.99617","6500300","中和區"
"235024","647-TV","2018/08/10 14:39:19","新北市中和區員山路314巷7弄8號","121.482116666667","25.00329","6500300","中和區"
"235011","732-UM","2018/08/10 14:39:31","新北市中和區南山路150號","121.50417","24.992155","6500300","中和區"
"235010","733-UM","2018/08/10 14:39:18","新北市中和區四維街37巷1號","121.512506666667","24.9869533333333","6500300","中和區"
"235035","783-BX","2018/08/10 14:39:26","新北市中和區連城路361號","121.48771","24.9959566666667","6500300","中和區"
"235026","800-TS","2018/08/10 14:39:38","新北市中和區中山路二段419號","121.485766666667","25.0047033333333","6500300","中和區"
"235021","801-TS","2018/08/10 14:39:29","新北市中和區員山路152-1號","121.481413333333","24.9983683333333","6500300","中和區"
"235005","802-TS","2018/08/10 14:39:36","新北市永和區中和路603號","121.51241","25.0043083333333","6500300","中和區"
"235016","805-TS","2018/08/10 14:39:30","新北市中和區華新街204號","121.506603333333","24.9819666666667","6500300","中和區"
"235012","896-TW","2018/08/10 14:39:21","新北市中和區四維街7號","121.513473333333","24.9872966666667","6500300","中和區"
"235017","900-TW","2018/08/10 14:39:22","新北市中和區民德路146巷5弄2號","121.467883333333","25.0003216666667","6500300","中和區"
"235015","157-BY","2018/08/10 14:39:27","新北市中和區中興街204號","121.499915","24.9902766666667","6500300","中和區"
"235001","AAC-213","2018/08/10 14:39:23","新北市中和區成功路9號","121.526281666667","24.9939133333333","6500300","中和區"
"220105","013-TV","2018/08/10 14:39:38","新北市板橋區民治街15-1號","121.477655","25.0344133333333","6500100","板橋區"
"220003","015-TV","2018/08/10 14:39:39","新北市板橋區國慶路149巷13弄13號","121.460393333333","24.9970383333333","6500100","板橋區"
"220034","073-UY","2018/08/10 14:39:39","新北市板橋區中正路1巷4號","121.455668333333","25.0119133333333","6500100","板橋區"
"220017","AAD-861","2018/08/10 14:39:31","新北市板橋區南雅南路二段18號","121.454545","25.0036133333333","6500100","板橋區"
"247023","893-R6","2018/08/10 14:39:26","新北市蘆洲區中山二路222巷20號","121.469335","25.0805683333333","6501400","蘆洲區"
"247013","546-UM","2018/08/10 14:39:26","新北市蘆洲區成功路129號","121.472411666667","25.0821883333333","6501400","蘆洲區"
"247011","339-TH","2018/08/10 14:39:41","新北市蘆洲區中興街2號","121.480053333333","25.0868133333333","6501400","蘆洲區"
"247005","336-TH","2018/08/10 14:39:27","新北市蘆洲區中華街36號","121.46253","25.081045","6501400","蘆洲區"
"247007","056-VK","2018/08/10 14:39:39","新北市蘆洲區信義路56號","121.475435","25.0796683333333","6501400","蘆洲區"
"247015","007-UY","2018/08/10 14:39:31","新北市蘆洲區正和街58號","121.468903333333","25.0814383333333","6501400","蘆洲區"
"247001","002-UY","2018/08/10 14:39:38","新北市蘆洲區長安街359號","121.457275","25.08724","6501400","蘆洲區"
"247019","001-UY","2018/08/10 14:39:28","新北市蘆洲區民義街90號","121.47349","25.090455","6501400","蘆洲區"
"235023","251-BX","2018/08/10 14:39:35","新北市中和區圓通路305巷27弄1號","121.495055","24.9891466666667","6500300","中和區"
"207002","749-BX","2018/08/10 14:39:21","新北市萬里區崁腳里崁腳路73號","121.647636666667","25.1596","6502800","萬里區"
"207001","662-BX","2018/08/10 14:39:25","新北市萬里區磺潭里員潭路59號","121.64343","25.190445","6502800","萬里區"
"236067","105-UM","2018/08/10 14:39:22","新北市土城區永豐路324號","121.472748333333","24.9775283333333","6501300","土城區"
"236040","107-UM","2018/08/10 14:39:22","新北市土城區學成路99巷11號","121.449998333333","24.9883166666667","6501300","土城區"
"236077","166-UM","2018/08/10 14:39:26","新北市土城區中央路四段185巷38號","121.416003333333","24.9558216666667","6501300","土城區"
"236029","253-BX","2018/08/10 14:39:40","新北市土城區中央路二段388號","121.43979","24.9711266666667","6501300","土城區"
"236024","269-VK","2018/08/10 14:39:38","新北市土城區忠義路45巷2號","121.440941666667","24.9695216666667","6501300","土城區"
"236013","270-VK","2018/08/10 14:39:34","新北市土城區清水路205號","121.460198333333","24.981795","6501300","土城區"
"236032","271-VK","2018/08/10 14:39:38","新北市土城區明德路一段216號","121.461106666667","24.9776033333333","6501300","土城區"
"236016","401-BY","2018/08/10 14:39:40","新北市土城區延吉街254號","121.466413333333","24.98456","6501300","土城區"
"236006","498-BY","2018/08/10 14:39:29","新北市土城區中華路二段2號","121.438801666667","24.9799133333333","6501300","土城區"
"236057","912-UM","2018/08/10 14:39:38","新北市土城區中央路三段181號","121.431435","24.9652216666667","6501300","土城區"
"236045","913-UM","2018/08/10 14:39:25","新北市土城區金城路三段10號","121.464813333333","24.9858466666667","6501300","土城區"
"236060","915-UM","2018/08/10 14:39:38","新北市土城區延壽路55巷9弄2號","121.46948","24.9916333333333","6501300","土城區"
"236054","AAC-216","2018/08/10 14:39:37","新北市土城區裕民路30號","121.447913333333","24.988475","6501300","土城區"
"221010","269-BY","2018/08/10 14:39:24","新北市汐止區汐萬路一段256巷3號","121.653355","25.0747766666667","6501100","汐止區"
"220027","145-BY","2018/08/10 14:39:43","新北市板橋區中正路216巷131號","121.460576666667","25.019865","6500100","板橋區"
"220028","200-UY","2018/08/10 14:39:24","新北市板橋區大觀路二段153巷39弄1號","121.446991666667","25.0004733333333","6500100","板橋區"
"220030","610-BX","2018/08/10 14:39:30","新北市板橋區溪崑一街46號","121.429821666667","24.9905383333333","6500100","板橋區"
"220050","245-BX","2018/08/10 14:39:39","新北市板橋區莒光路200巷26號","121.47317","25.0221883333333","6500100","板橋區"
"220040","267-BY","2018/08/10 14:39:20","新北市板橋區懷德街139巷20弄8號","121.480151666667","25.0305266666667","6500100","板橋區"
"220004","276-BY","2018/08/10 14:39:41","新北市板橋區信義路7號","121.457135","24.99694","6500100","板橋區"
"220020","277-BY","2018/08/10 14:39:27","新北市板橋區金門街215巷57弄22號","121.43418","24.9901116666667","6500100","板橋區"
"220043","285-UM","2018/08/10 14:39:38","新北市板橋區宏國路77巷2弄8-2號","121.469371666667","25.0323883333333","6500100","板橋區"
"220001","285-VK","2018/08/10 14:39:19","新北市板橋區懷仁街77巷10號","121.477506666667","25.0187416666667","6500100","板橋區"
"220031","286-VK","2018/08/10 14:39:30","新北市板橋區僑中二街102巷2號","121.446161666667","25.0083716666667","6500100","板橋區"
"220029","287-VK","2018/08/10 14:39:23","新北市板橋區大觀路一段28巷107-1號","121.44985","25.0122166666667","6500100","板橋區"
"220039","288-VK","2018/08/10 14:39:29","新北市板橋區裕民街109號","121.459705","25.0276983333333","6500100","板橋區"
"220009","293-UM","2018/08/10 14:39:30","新北市板橋區板新路200巷6號","121.469085","25.0161483333333","6500100","板橋區"
"220010","295-UM","2018/08/10 14:39:32","新北市板橋區三民路二段29巷31弄15號","121.482035","25.0178366666667","6500100","板橋區"
"220032","296-UM","2018/08/10 14:39:37","新北市板橋區板林路208號","121.4246","24.9885666666667","6500100","板橋區"
"220023","303-R5","2018/08/10 14:39:36","新北市板橋區中正路225號","121.455988333333","25.0177383333333","6500100","板橋區"
"220041","307-R5","2018/08/10 14:39:28","新北市板橋區文化路一段383號","121.467348333333","25.0218066666667","6500100","板橋區"
"220047","317-R6","2018/08/10 14:39:28","新北市板橋區裕民街111巷6號","121.45978","25.0273516666667","6500100","板橋區"
"220013","461-BY","2018/08/10 14:39:28","新北市板橋區國泰街39巷5弄5號","121.468623333333","25.0060466666667","6500100","板橋區"
"220012","486-VK","2018/08/10 14:39:24","新北市板橋區民族路72號","121.462788333333","25.00943","6500100","板橋區"
"220037","491-VK","2018/08/10 14:39:34","新北市板橋區文化路二段550號","121.476096666667","25.0341316666667","6500100","板橋區"
"220104","560-BX","2018/08/10 14:39:30","新北市板橋區金華街52號","121.456843333333","25.0204716666667","6500100","板橋區"
"220052","561-BX","2018/08/10 14:39:34","新北市板橋區文化路一段286巷18號","121.468246666667","25.0212816666667","6500100","板橋區"
"220019","568-UM","2018/08/10 14:39:31","新北市板橋區五權街30巷24弄33號","121.463548333333","24.993935","6500100","板橋區"
"220011","609-BX","2018/08/10 14:39:29","新北市板橋區三民路一段31巷89弄2號","121.481538333333","25.02342","6500100","板橋區"
"220002","630-UY","2018/08/10 14:39:37","新北市板橋區實踐路60號","121.463881666667","25.0060216666667","6500100","板橋區"
"220005","686-BX","2018/08/10 14:39:21","新北市板橋區和平路安樂巷25號","121.461626666667","24.9936183333333","6500100","板橋區"
"220025","687-BX","2018/08/10 14:39:27","新北市板橋區僑中二街126巷2號","121.44522","25.005125","6500100","板橋區"
"220042","689-BX","2018/08/10 14:39:33","新北市板橋區新海路425號","121.458178333333","25.0274366666667","6500100","板橋區"
"220051","KEA-2699","2018/08/10 14:39:34","新北市板橋區雙十路二段46巷20號","121.476176666667","25.0281133333333","6500100","板橋區"
"220014","829-TW","2018/08/10 14:39:19","新北市板橋區長安街251巷34號","121.472005","25.01123","6500100","板橋區"
"220016","830-TW","2018/08/10 14:39:33","新北市板橋區中山路二段412巷24號","121.483378333333","25.019865","6500100","板橋區"
"220045","831-TW","2018/08/10 14:39:29","新北市板橋區莊敬路140巷15號","121.470291666667","25.0228916666667","6500100","板橋區"
"220038","833-TW","2018/08/10 14:39:37","新北市板橋區雨農路50號","121.461133333333","25.0242583333333","6500100","板橋區"
"220022","895-R6","2018/08/10 14:39:26","新北市板橋區文化路一段32巷21弄14號","121.460293333333","25.0113816666667","6500100","板橋區"
"220021","985-R7","2018/08/10 14:39:35","新北市板橋區大仁街105號","121.452773333333","25.0157466666667","6500100","板橋區"
"220046","AAC-210","2018/08/10 14:39:30","新北市板橋區漢生西路89巷2弄2號","121.461965","25.01934","6500100","板橋區"
"220018","AAC-253","2018/08/10 14:39:29","新北市板橋區民族路258號","121.469415","25.0071133333333","6500100","板橋區"
"235032","KEA-2873","2018/08/10 14:39:38","新北市中和區中山路二段259號","121.497108333333","25.0023283333333","6500300","中和區"
