"lineid","car","time","location","longitude","latitude","cityid","cityname"
"234028","746-BX","2018/08/10 15:09:40","新北市八里區商港路120號","121.392908333333","25.1500066666667","6500400","永和區"
"248019","225-UY","2018/08/10 15:09:27","新北市五股區凌雲路三段1-4號","121.431578333333","25.1057716666667","6501500","五股區"
"234076","969-R7","2018/08/10 15:09:35","新北市八里區下罟子6-4號","121.385931666667","25.14183","6500400","永和區"
"234072","AAC-211","2018/08/10 15:09:34","新北市永和區福和路1號","121.525473333333","25.0092083333333","6500400","永和區"
"231002","002-UM","2018/08/10 15:09:31","新北市新店區中正路643號","121.533926666667","24.989625","6500600","新店區"
"231028","046-UY","2018/08/10 15:09:33","新北市新店區僑信路117號","121.500685","24.9460616666667","6500600","新店區"
"231001","047-UY","2018/08/10 15:09:28","新北市新店區中正路137號","121.541701666667","24.9714583333333","6500600","新店區"
"231005","106-UY","2018/08/10 15:09:35","新北市新店區北新路三段126號","121.541618333333","24.9817466666667","6500600","新店區"
"231022","108-UY","2018/08/10 15:09:28","新北市新店區永興路102-4號","121.546241666667","24.9301983333333","6500600","新店區"
"231036","110-UY","2018/08/10 15:09:32","新北市新店區安祥路104巷13號","121.481286666667","24.9633383333333","6500600","新店區"
"231012","187-VK","2018/08/10 15:09:38","新北市新店區寶元路一段65號","121.542238333333","24.9857983333333","6500600","新店區"
"231023","KEA-2219","2018/08/10 15:09:24","新北市新店區檳榔路109號","121.544438333333","24.9616033333333","6500600","新店區"
"231026","256-BX","2018/08/10 15:09:38","新北市新店區建安街24號","121.53974","24.9754833333333","6500600","新店區"
"231003","268-BY","2018/08/10 15:09:34","新北市新店區寶橋路158-1號","121.548841666667","24.9771666666667","6500600","新店區"
"231018","278-BY","2018/08/10 15:09:35","新北市新店區中央七街121號","121.525216666667","24.9779766666667","6500600","新店區"
"231016","AAD-862","2018/08/10 15:09:39","新北市新店區明山路45號","121.563651666667","24.9558266666667","6500600","新店區"
"231038","3712-VJ","2018/08/10 15:09:29","新北市新店區安華路28-1號","121.519436666667","24.9605683333333","6500600","新店區"
"231037","4716-K9","2018/08/10 15:09:27","新北市新店區安興路56號","121.51662","24.9748533333333","6500600","新店區"
"231025","4715-K9","2018/08/10 15:09:21","新北市新店區中正路491號","121.533618333333","24.9826016666667","6500600","新店區"
"231034","616-UM","2018/08/10 15:09:34","新北市新店區玫瑰路4-1號","121.493616666667","24.9513983333333","6500600","新店區"
"231006","618-UM","2018/08/10 15:09:36","新北市新店區新坡一街2號","121.548353333333","24.960645","6500600","新店區"
"231030","619-UM","2018/08/10 15:09:36","新北市新店區安民街341-1號","121.516775","24.9749383333333","6500600","新店區"
"231039","718-UY","2018/08/10 15:09:27","新北市新店區寶安街2巷1號","121.542386666667","24.9807333333333","6500600","新店區"
"231035","719-UM","2018/08/10 15:09:33","新北市新店區永安街34巷12號","121.517976666667","24.985935","6500600","新店區"
"231032","720-UM","2018/08/10 15:09:04","新北市新店區安泰路175號","121.490933333333","24.9323166666667","6500600","新店區"
"231029","897-TW","2018/08/10 15:09:21","新北市新店區安康路三段716號","121.473955","24.9420116666667","6500600","新店區"
"231004","899-TW","2018/08/10 15:09:35","新北市新店區建國路4號","121.539853333333","24.9733","6500600","新店區"
"231024","AKT-0513","2018/08/10 15:09:40","新北市新店區北新路一段303號","121.541265","24.9675383333333","6500600","新店區"
"241013","270-UM","2018/08/10 15:09:31","新北市三重區重新路四段121號","121.484888333333","25.052475","6500200","三重區"
"235030","003-UY","2018/08/10 15:09:36","新北市中和區水源路128號","121.507545","25.0031566666667","6500300","中和區"
"235003","097-UM","2018/08/10 15:09:22","新北市中和區景新街242號","121.50905","24.993705","6500300","中和區"
"235004","150-BY","2018/08/10 15:09:30","新北市中和區保健路10巷25弄12號","121.508853333333","24.9968683333333","6500300","中和區"
"235036","301-VK","2018/08/10 15:09:37","新北市中和區連城路265巷1號","121.491426666667","24.9963833333333","6500300","中和區"
"235007","352-BY","2018/08/10 15:09:35","新北市中和區興南路二段159巷1號","121.5052","24.9832766666667","6500300","中和區"
"235014","4979-A6","2018/08/10 15:09:38","新北市中和區安樂路8-1號","121.51169","24.9918216666667","6500300","中和區"
"235033","4980-A6","2018/08/10 15:09:36","新北市中和區南山路127巷27弄16號","121.503435","24.9979666666667","6500300","中和區"
"235034","558-UM","2018/08/10 15:09:32","新北市中和區中正路368號","121.492836666667","24.9941883333333","6500300","中和區"
"235035","783-BX","2018/08/10 15:09:26","新北市中和區中正路928號","121.482865","25.008365","6500300","中和區"
"235012","896-TW","2018/08/10 15:09:21","新北市中和區興南路一段159號","121.508561666667","24.98718","6500300","中和區"
"235001","AAC-213","2018/08/10 15:09:23","新北市中和區自立路193號","121.524248333333","24.9913516666667","6500300","中和區"
"220003","015-TV","2018/08/10 15:09:38","新北市板橋區四川路一段367號","121.458143333333","24.9996066666667","6500100","板橋區"
"220017","AAD-861","2018/08/10 15:09:30","新北市板橋區南雅南路二段116號","121.45241","25.0004916666667","6500100","板橋區"
"235023","251-BX","2018/08/10 15:09:35","新北市中和區圓通路367巷13弄38號","121.493573333333","24.9877733333333","6500300","中和區"
"207002","749-BX","2018/08/10 15:09:21","新北市萬里區崁腳里內中福路87號","121.655658333333","25.1658416666667","6502800","萬里區"
"207001","662-BX","2018/08/10 15:09:25","新北市萬里區雙興里麗水路8-1號","121.649875","25.18722","6502800","萬里區"
"236067","105-UM","2018/08/10 15:09:22","新北市土城區裕民路26號","121.447728333333","24.9885233333333","6501300","土城區"
"236040","107-UM","2018/08/10 15:09:21","新北市土城區裕民路274號","121.455071666667","24.98245","6501300","土城區"
"236077","166-UM","2018/08/10 15:09:32","新北市土城區溪頭路88號","121.409583333333","24.9510283333333","6501300","土城區"
"236029","253-BX","2018/08/10 15:09:40","新北市土城區福祥街52號","121.441441666667","24.9812783333333","6501300","土城區"
"236024","269-VK","2018/08/10 15:09:38","新北市土城區中央路二段149巷30弄12號","121.44315","24.9767116666667","6501300","土城區"
"236013","270-VK","2018/08/10 15:09:31","新北市土城區學府路一段99巷21號","121.456668333333","24.9871383333333","6501300","土城區"
"236032","271-VK","2018/08/10 15:09:42","新北市土城區國際路18號","121.465496666667","24.9797016666667","6501300","土城區"
"236016","401-BY","2018/08/10 15:09:35","新北市土城區明峰街64號","121.468485","24.98685","6501300","土城區"
"236057","912-UM","2018/08/10 15:09:38","新北市土城區金城路一段118號","121.44589","24.9748066666667","6501300","土城區"
"236045","913-UM","2018/08/10 15:09:33","新北市土城區清水路202號","121.460533333333","24.9819216666667","6501300","土城區"
"236060","915-UM","2018/08/10 15:09:25","新北市土城區延平街77號","121.467486666667","24.9934133333333","6501300","土城區"
"236054","AAC-216","2018/08/10 15:09:27","新北市土城區學府路一段276號","121.450221666667","24.9833016666667","6501300","土城區"
"220050","245-BX","2018/08/10 15:09:24","新北市板橋區莊敬路75巷35號","121.473985","25.02617","6500100","板橋區"
"220001","285-VK","2018/08/10 15:09:19","新北市板橋區懷仁街91號","121.477515","25.0181666666667","6500100","板橋區"
"220031","286-VK","2018/08/10 15:09:30","新北市板橋區僑中二街102巷11號","121.445515","25.0082666666667","6500100","板橋區"
"220039","288-VK","2018/08/10 15:09:29","新北市板橋區龍泉街90巷14號","121.456175","25.0250816666667","6500100","板橋區"
"220009","293-UM","2018/08/10 15:09:30","新北市板橋區中山路一段10號","121.460041666667","25.0078883333333","6500100","板橋區"
"220041","307-R5","2018/08/10 15:09:28","新北市板橋區文化路一段141號","121.462001666667","25.0156016666667","6500100","板橋區"
"220037","491-VK","2018/08/10 15:09:34","新北市板橋區懷德街201巷2號","121.480703333333","25.02916","6500100","板橋區"
"220052","561-BX","2018/08/10 15:09:35","新北市板橋區陽明街279巷42-4號","121.460786666667","25.025615","6500100","板橋區"
"220025","687-BX","2018/08/10 15:09:39","新北市板橋區大觀路一段28巷1弄104號","121.451571666667","25.00611","6500100","板橋區"
"220042","689-BX","2018/08/10 15:09:39","新北市板橋區長江路二段230號","121.468491666667","25.0324683333333","6500100","板橋區"
"220051","KEA-2699","2018/08/10 15:09:34","新北市板橋區懷德街78巷21號","121.477863333333","25.031175","6500100","板橋區"
"220014","829-TW","2018/08/10 15:09:38","新北市板橋區中山路一段256號","121.471581666667","25.0146766666667","6500100","板橋區"
"220016","830-TW","2018/08/10 15:09:40","新北市板橋區光復街173號","121.485175","25.0206866666667","6500100","板橋區"
"220038","833-TW","2018/08/10 15:09:37","新北市板橋區互助街68號","121.461031666667","25.0266583333333","6500100","板橋區"
"220046","AAC-210","2018/08/10 15:09:30","新北市板橋區民權路202巷22號","121.46103","25.0166483333333","6500100","板橋區"
"220018","AAC-253","2018/08/10 15:09:29","新北市板橋區德興街36號","121.453396666667","24.9936666666667","6500100","板橋區"
"235032","KEA-2873","2018/08/10 15:09:38","新北市中和區錦和路140號","121.48923","24.997525","6500300","中和區"
