"lineid","car","time","location","longitude","latitude","cityid","cityname"
"248019","225-UY","2018/08/10 15:19:27","新北市五股區凌雲路二段38號","121.440193333333","25.1023216666667","6501500","五股區"
"234076","969-R7","2018/08/10 15:19:35","新北市五股區凌雲路一段21號","121.452665","25.1003116666667","6500400","永和區"
"231002","002-UM","2018/08/10 15:19:25","新北市新店區中正路700巷3號","121.533826666667","24.991485","6500600","新店區"
"231028","046-UY","2018/08/10 15:19:33","新北市新店區僑信路114巷39號","121.499235","24.9460583333333","6500600","新店區"
"231001","047-UY","2018/08/10 15:19:28","新北市新店區北新路一段199號","121.54035","24.9648533333333","6500600","新店區"
"231005","106-UY","2018/08/10 15:19:43","新北市新店區建國路233號","121.537545","24.98183","6500600","新店區"
"231022","108-UY","2018/08/10 15:19:28","新北市新店區永福路54-2號","121.558141666667","24.928695","6500600","新店區"
"231036","110-UY","2018/08/10 15:19:27","新北市新店區安祥路69巷17號","121.481918333333","24.9613516666667","6500600","新店區"
"231012","187-VK","2018/08/10 15:19:38","新北市新店區復興路17號","121.539416666667","24.9867383333333","6500600","新店區"
"231023","KEA-2219","2018/08/10 15:19:24","新北市新店區行政街30號","121.542841666667","24.9655716666667","6500600","新店區"
"231026","256-BX","2018/08/10 15:19:38","新北市新店區中正路247巷19號","121.5386","24.9725816666667","6500600","新店區"
"231003","268-BY","2018/08/10 15:19:27","新北市新店區寶橋路216號","121.551028333333","24.97863","6500600","新店區"
"231018","278-BY","2018/08/10 15:19:35","新北市新店區中央七街61巷3號","121.52814","24.97662","6500600","新店區"
"231016","AAD-862","2018/08/10 15:19:39","新北市新店區明山路45號","121.563665","24.95583","6500600","新店區"
"231038","3712-VJ","2018/08/10 15:19:29","新北市新店區安華路1-1號","121.519316666667","24.9605333333333","6500600","新店區"
"231037","4716-K9","2018/08/10 15:19:27","新北市新店區安民街341-1號","121.516695","24.9748566666667","6500600","新店區"
"231025","4715-K9","2018/08/10 15:19:21","新北市新店區環河路180-3號","121.535391666667","24.9691116666667","6500600","新店區"
"231034","616-UM","2018/08/10 15:19:34","新北市新店區如意街3巷2號","121.495581666667","24.9491833333333","6500600","新店區"
"231006","618-UM","2018/08/10 15:19:36","新北市新店區光明街314號","121.540915","24.965035","6500600","新店區"
"231030","619-UM","2018/08/10 15:19:36","新北市新店區安民街341-1號","121.516853333333","24.97489","6500600","新店區"
"231039","718-UY","2018/08/10 15:19:26","新北市新店區寶元路一段65號","121.542231666667","24.9857783333333","6500600","新店區"
"231035","719-UM","2018/08/10 15:19:33","新北市新店區永平街23巷5號","121.516866666667","24.9830883333333","6500600","新店區"
"231032","720-UM","2018/08/10 15:19:24","新北市新店區和成街16巷2號","121.487668333333","24.9468816666667","6500600","新店區"
"231029","897-TW","2018/08/10 15:19:22","新北市新店區安康路三段716號","121.473983333333","24.942035","6500600","新店區"
"231004","899-TW","2018/08/10 15:19:35","新北市新店區博愛街13巷24號","121.540265","24.974015","6500600","新店區"
"231024","AKT-0513","2018/08/10 15:19:40","新北市新店區安康路一段197號","121.526408333333","24.962855","6500600","新店區"
"241011","013-R5","2018/08/10 15:19:34","新北市三重區重新路四段121號","121.485113333333","25.0523416666667","6500200","三重區"
"241013","270-UM","2018/08/10 15:19:31","新北市三重區重新路四段121號","121.484938333333","25.0525466666667","6500200","三重區"
"235030","003-UY","2018/08/10 15:19:30","新北市中和區中山路二段3巷22弄8號","121.506133333333","25.0050466666667","6500300","中和區"
"235003","097-UM","2018/08/10 15:19:22","新北市中和區中正路446號","121.49095","24.994225","6500300","中和區"
"235036","301-VK","2018/08/10 15:19:37","新北市中和區建八路1號","121.485576666667","24.9985833333333","6500300","中和區"
"235014","4979-A6","2018/08/10 15:19:29","新北市中和區景平路402號","121.50923","24.9930216666667","6500300","中和區"
"235033","4980-A6","2018/08/10 15:19:36","新北市中和區中正路448號","121.49091","24.9942533333333","6500300","中和區"
"235035","783-BX","2018/08/10 15:19:26","新北市中和區永和路341巷7號","121.483198333333","25.0104516666667","6500300","中和區"
"235012","896-TW","2018/08/10 15:19:21","新北市中和區景新街383巷1號","121.512473333333","24.9904033333333","6500300","中和區"
"235001","AAC-213","2018/08/10 15:19:23","新北市三重區後埔街61-1號","121.47958","25.0474383333333","6500300","中和區"
"235023","251-BX","2018/08/10 15:19:35","新北市中和區圓通路320-1號","121.485261666667","24.98795","6500300","中和區"
"207002","749-BX","2018/08/10 15:19:41","新北市萬里區崁腳里內中福路2-1號","121.668923333333","25.165335","6502800","萬里區"
"207001","662-BX","2018/08/10 15:19:25","新北市萬里區大鵬里萬里加投14號","121.650376666667","25.2091416666667","6502800","萬里區"
"236067","105-UM","2018/08/10 15:19:42","新北市土城區裕民路185巷36弄10號","121.454378333333","24.9845716666667","6501300","土城區"
"236040","107-UM","2018/08/10 15:19:21","新北市土城區學府路一段98巷16號","121.455881666667","24.9886316666667","6501300","土城區"
"236077","166-UM","2018/08/10 15:19:26","新北市土城區中央路四段321巷12號","121.410871666667","24.9511783333333","6501300","土城區"
"236029","253-BX","2018/08/10 15:19:29","新北市土城區中央路一段250巷9號","121.44377","24.9847283333333","6501300","土城區"
"236024","269-VK","2018/08/10 15:19:38","新北市土城區員林街71巷11號","121.444818333333","24.9774883333333","6501300","土城區"
"236013","270-VK","2018/08/10 15:19:31","新北市土城區廣福街32號","121.457583333333","24.990135","6501300","土城區"
"236032","271-VK","2018/08/10 15:19:38","新北市土城區國際路31巷14號","121.465985","24.9793266666667","6501300","土城區"
"236016","401-BY","2018/08/10 15:19:34","新北市土城區峰廷街3號","121.469045","24.987325","6501300","土城區"
"236057","912-UM","2018/08/10 15:19:38","新北市土城區中央路三段67號","121.438793333333","24.9693666666667","6501300","土城區"
"236045","913-UM","2018/08/10 15:19:25","新北市土城區明德路一段143號","121.465068333333","24.98011","6501300","土城區"
"236060","915-UM","2018/08/10 15:19:24","新北市土城區金城路三段163巷18號","121.469","24.989255","6501300","土城區"
"236054","AAC-216","2018/08/10 15:19:27","新北市土城區青雲路38號","121.460006666667","24.9883233333333","6501300","土城區"
"220050","245-BX","2018/08/10 15:19:30","新北市板橋區漢生東路83巷1號","121.466441666667","25.0158616666667","6500100","板橋區"
"220031","286-VK","2018/08/10 15:19:30","新北市板橋區僑中二街108巷26號","121.444736666667","25.0075116666667","6500100","板橋區"
"220052","561-BX","2018/08/10 15:19:33","新北市板橋區漢生西路24號","121.463643333333","25.018145","6500100","板橋區"
"220042","689-BX","2018/08/10 15:19:33","新北市板橋區新海路427號","121.458151666667","25.0274883333333","6500100","板橋區"
"220051","KEA-2699","2018/08/10 15:19:34","新北市板橋區漢生東路83巷2-1號","121.46706","25.0158616666667","6500100","板橋區"
"220038","833-TW","2018/08/10 15:19:37","新北市板橋區四維路133號","121.465041666667","25.02519","6500100","板橋區"
"220018","AAC-253","2018/08/10 15:19:29","新北市板橋區四川路二段245巷3號","121.450605","24.9933566666667","6500100","板橋區"
"235032","KEA-2873","2018/08/10 15:19:38","新北市中和區新生街235號","121.483923333333","24.9990716666667","6500300","中和區"
