"lineid","car","time","location","longitude","latitude","cityid","cityname"
"231046","107-UY","2018/08/10 16:29:40","新北市新店區灣潭路3-2號","121.538351666667","24.950865","6500600","新店區"
"241011","013-R5","2018/08/10 16:29:34","新北市三重區龍濱路172號","121.501383333333","25.0727","6500200","三重區"
"241028","022-UY","2018/08/10 16:29:31","新北市三重區同安街114巷25號","121.494085","25.0555633333333","6500200","三重區"
"241008","059-VK","2018/08/10 16:29:43","新北市三重區永福街122-2號","121.479103333333","25.0752333333333","6500200","三重區"
"241022","060-VK","2018/08/10 16:29:33","新北市三重區過圳街100號","121.486078333333","25.0620716666667","6500200","三重區"
"241031","061-VK","2018/08/10 16:29:32","新北市三重區重陽路一段77號","121.486696666667","25.0587333333333","6500200","三重區"
"241015","062-VK","2018/08/10 16:29:23","新北市三重區福德北路34號","121.50207","25.0651533333333","6500200","三重區"
"241017","063-VK","2018/08/10 16:29:36","新北市三重區大同北路83號","121.494875","25.06364","6500200","三重區"
"241024","065-VK","2018/08/10 16:29:38","新北市三重區中正北路229號","121.476163333333","25.0705333333333","6500200","三重區"
"241026","066-VK","2018/08/10 16:29:36","新北市三重區文化南路42號","121.500355","25.0603633333333","6500200","三重區"
"241002","090-VK","2018/08/10 16:29:26","新北市三重區五華街9-2號","121.495121666667","25.0800516666667","6500200","三重區"
"241003","091-VK","2018/08/10 16:29:30","新北市三重區五華街71巷88號","121.494126666667","25.08389","6500200","三重區"
"241005","265-UM","2018/08/10 16:29:31","新北市三重區溪尾街305號","121.487558333333","25.0837616666667","6500200","三重區"
"241016","266-UM","2018/08/10 16:29:40","新北市三重區自強路一段160巷2弄15號","121.495058333333","25.0658933333333","6500200","三重區"
"241009","267-UM","2018/08/10 16:29:42","新北市三重區三和路四段191巷76號","121.484351666667","25.0798816666667","6500200","三重區"
"241018","268-UM","2018/08/10 16:29:26","新北市三重區正義北路364巷27號","121.492991666667","25.0710366666667","6500200","三重區"
"241032","269-UM","2018/08/10 16:29:28","新北市三重區三陽路100巷3弄13號","121.482988333333","25.0581416666667","6500200","三重區"
"241013","270-UM","2018/08/10 16:29:31","新北市三重區三和路三段91巷35號","121.495675","25.0726916666667","6500200","三重區"
"241025","271-UM","2018/08/10 16:29:39","新北市三重區中正北路560巷100弄17-1號","121.472756666667","25.068335","6500200","三重區"
"241007","398-BY","2018/08/10 16:29:39","新北市三重區三和路四段167巷164號","121.48763","25.0802333333333","6500200","三重區"
"241004","413-TH","2018/08/10 16:29:27","新北市三重區仁愛街377巷5號","121.492058333333","25.0806333333333","6500200","三重區"
"241020","478-VK","2018/08/10 16:29:30","新北市三重區後竹圍街211號","121.484833333333","25.07153","6500200","三重區"
"241030","480-VK","2018/08/10 16:29:34","新北市三重區成功路106-1號","121.487633333333","25.051685","6500200","三重區"
"241014","543-UM","2018/08/10 16:29:28","新北市三重區河邊北街70-3號","121.504425","25.0684066666667","6500200","三重區"
"241023","545-UM","2018/08/10 16:29:25","新北市三重區忠孝路三段50巷47號","121.48305","25.0644316666667","6500200","三重區"
"241001","547-UM","2018/08/10 16:29:39","新北市三重區福隆路22號","121.491566666667","25.0780183333333","6500200","三重區"
"241019","KEA-2593","2018/08/10 16:29:25","新北市三重區重陽路三段95號","121.490145","25.06789","6500200","三重區"
"241006","AAD-863","2018/08/10 16:29:26","新北市三重區力行路二段170號","121.48316","25.0768533333333","6500200","三重區"
"241012","941-UM","2018/08/10 16:29:27","新北市三重區河邊北街200號","121.502265","25.074555","6500200","三重區"
"241029","942-UM","2018/08/10 16:29:38","新北市三重區集美街126巷24號","121.48991","25.0538933333333","6500200","三重區"
"241033","AAC-255","2018/08/10 16:29:36","新北市三重區五谷王北街20巷15弄2號","121.474933333333","25.0483666666667","6500200","三重區"
"235026","800-TS","2018/08/10 16:29:38","新北市中和區橋和路128號","121.49333","25.0062333333333","6500300","中和區"
"247008","056-VK","2018/08/10 16:29:35","新北市五股區中興路三段163號","121.449005","25.0805733333333","6501400","蘆洲區"
"224007","275-VK","2018/08/10 16:29:30","新北市瑞芳區瑞竹路91-1號","121.763936666667","25.1030016666667","6501200","瑞芳區"
"224005","271-BY","2018/08/10 16:29:39","新北市瑞芳區阿美家園53號","121.820981666667","25.1173966666667","6501200","瑞芳區"
"227003","642-TC","2018/08/10 16:29:32","新北市雙溪區上林里內平林120-2號","121.82445","25.02626","6502500","雙溪區"
"227011","400-TW","2018/08/10 16:29:40","新北市雙溪區三港里雙澳路10號","121.869293333333","25.048045","6502500","雙溪區"
"251008","181-VK","2018/08/10 16:29:30","新北市淡水區民生路135巷98號","121.467958333333","25.1409416666667","6501000","淡水區"
"238024","5061-A6","2018/08/10 16:12:01","新北市樹林區育德街78-1號","121.388148333333","24.96817","6500700","樹林區"
