"lineid","car","time","location","longitude","latitude","cityid","cityname"
"249005","172-UM","2018/08/10 17:09:21","新北市八里區華富山6-8號","121.419858333333","25.1433416666667","6502300","八里區"
"249001","173-UM","2018/08/10 17:09:28","新北市八里區中華路二段205巷8-1號","121.405045","25.149285","6502300","八里區"
"249004","303-UY","2018/08/10 17:09:41","新北市八里區忠孝路195號","121.422435","25.1608483333333","6502300","八里區"
"249002","305-UY","2018/08/10 17:09:37","新北市八里區龍米路二段153巷1號","121.440966666667","25.1518383333333","6502300","八里區"
"249003","593-UM","2018/08/10 17:09:37","新北市八里區中山路二段411號","121.397261666667","25.1462983333333","6502300","八里區"
"244017","069-UM","2018/08/10 17:09:28","新北市林口區粉寮69號","121.404961666667","25.0908383333333","6501700","林口區"
"244007","080-UY","2018/08/10 17:09:24","新北市林口區菁埔26-51號","121.376318333333","25.09485","6501700","林口區"
"244019","403-UM","2018/08/10 17:09:26","新北市林口區仁愛路二段192巷6號","121.380088333333","25.0742566666667","6501700","林口區"
"244013","KEA-2802","2018/08/10 17:09:33","新北市林口區粉寮69號","121.404785","25.090835","6501700","林口區"
"244023","483-VK","2018/08/10 17:09:38","新北市林口區仁愛路一段667巷12號","121.38711","25.0763183333333","6501700","林口區"
"244025","837-TS","2018/08/10 17:09:31","新北市林口區中山路32號","121.395726666667","25.0783566666667","6501700","林口區"
"244021","838-TS","2018/08/10 17:09:39","新北市林口區粉寮路二段281號","121.404496666667","25.09341","6501700","林口區"
"231046","107-UY","2018/08/10 17:09:40","新北市新店區直潭路92號","121.530898333333","24.9376383333333","6500600","新店區"
"241011","013-R5","2018/08/10 17:09:34","新北市三重區河邊北街168號","121.503076666667","25.0732533333333","6500200","三重區"
"241028","022-UY","2018/08/10 17:09:31","新北市三重區重新路三段110號","121.492165","25.06032","6500200","三重區"
"241008","059-VK","2018/08/10 17:09:23","新北市三重區力行路二段136巷9號","121.48212","25.0757066666667","6500200","三重區"
"241022","060-VK","2018/08/10 17:09:30","新北市三重區三民街101號","121.48535","25.0633166666667","6500200","三重區"
"241031","061-VK","2018/08/10 17:09:33","新北市三重區重陽路一段113巷1號","121.487203333333","25.0599133333333","6500200","三重區"
"241015","062-VK","2018/08/10 17:09:23","新北市三重區長生街34號","121.499655","25.0664533333333","6500200","三重區"
"241017","063-VK","2018/08/10 17:09:36","新北市三重區中正北路25巷2號","121.493185","25.0627066666667","6500200","三重區"
"241024","065-VK","2018/08/10 17:09:38","新北市三重區大勇街82巷24號","121.479533333333","25.0721966666667","6500200","三重區"
"241026","066-VK","2018/08/10 17:09:36","新北市三重區重新路二段1號","121.499708333333","25.06292","6500200","三重區"
"241002","090-VK","2018/08/10 17:09:37","新北市三重區五華街60號","121.494195","25.081285","6500200","三重區"
"241003","091-VK","2018/08/10 17:09:30","新北市三重區富福街98號","121.493075","25.0853733333333","6500200","三重區"
"241005","265-UM","2018/08/10 17:09:31","新北市三重區仁華街22號","121.483388333333","25.0818066666667","6500200","三重區"
"241016","266-UM","2018/08/10 17:09:40","新北市三重區中正北路25巷2號","121.493303333333","25.0627166666667","6500200","三重區"
"241009","267-UM","2018/08/10 17:09:25","新北市三重區三和路四段225號","121.481365","25.079765","6500200","三重區"
"241018","268-UM","2018/08/10 17:09:26","新北市三重區正義北路239號","121.495793333333","25.0693533333333","6500200","三重區"
"241032","269-UM","2018/08/10 17:09:28","新北市三重區重陽路一段78號","121.486658333333","25.059075","6500200","三重區"
"241013","270-UM","2018/08/10 17:09:31","新北市三重區仁愛街109號","121.49553","25.0741866666667","6500200","三重區"
"241025","271-UM","2018/08/10 17:09:39","新北市三重區中正北路560巷89號","121.47093","25.068375","6500200","三重區"
"241007","398-BY","2018/08/10 17:09:39","新北市三重區三和路四段163巷23號","121.484035","25.0788533333333","6500200","三重區"
"241004","413-TH","2018/08/10 17:09:27","新北市三重區五華街122巷27號","121.490723333333","25.0824866666667","6500200","三重區"
"241020","478-VK","2018/08/10 17:09:40","新北市三重區後竹圍街175巷2弄1號","121.485848333333","25.0721633333333","6500200","三重區"
"241030","480-VK","2018/08/10 17:09:34","新北市三重區集美街158號","121.489871666667","25.0530366666667","6500200","三重區"
"241014","543-UM","2018/08/10 17:09:28","新北市三重區龍濱路120-2號","121.501898333333","25.0710733333333","6500200","三重區"
"241023","545-UM","2018/08/10 17:09:25","新北市三重區忠孝路三段84巷1號","121.480131666667","25.0646","6500200","三重區"
"241001","547-UM","2018/08/10 17:09:39","新北市三重區仁愛街269巷56號","121.494553333333","25.0796166666667","6500200","三重區"
"241019","KEA-2593","2018/08/10 17:09:25","新北市三重區自強路二段74巷75號","121.487043333333","25.0694166666667","6500200","三重區"
"241006","AAD-863","2018/08/10 17:09:26","新北市三重區三和路四段218巷25號","121.485143333333","25.076215","6500200","三重區"
"241012","941-UM","2018/08/10 17:09:27","新北市三重區河邊北街248巷11號","121.50142","25.07587","6500200","三重區"
"241029","942-UM","2018/08/10 17:09:38","新北市三重區重新路四段65-10號","121.487121666667","25.0569483333333","6500200","三重區"
"241033","AAC-255","2018/08/10 17:09:36","新北市三重區中興北街271號","121.46908","25.0606016666667","6500200","三重區"
"235064","005-UY","2018/08/10 17:09:28","新北市中和區員山路36巷16-3號","121.485126666667","24.9914833333333","6500300","中和區"
"247010","KEA-2869","2018/08/10 17:09:29","新北市蘆洲區民族路22號","121.476101666667","25.084165","6501400","蘆洲區"
"247024","893-R6","2018/08/10 17:09:34","新北市蘆洲區長興路25號","121.463661666667","25.083425","6501400","蘆洲區"
"247014","546-UM","2018/08/10 17:09:41","新北市蘆洲區中央路7號","121.473193333333","25.0823866666667","6501400","蘆洲區"
"247022","500-BY","2018/08/10 17:09:26","新北市蘆洲區三民路222號","121.46891","25.0891533333333","6501400","蘆洲區"
"247012","339-TH","2018/08/10 17:09:42","新北市蘆洲區信義路345號","121.477765","25.0872316666667","6501400","蘆洲區"
"247004","337-TH","2018/08/10 17:09:42","新北市蘆洲區長安街207巷8號","121.459565","25.08199","6501400","蘆洲區"
"247006","336-TH","2018/08/10 17:09:34","新北市蘆洲區長安街108巷37號","121.462175","25.0826183333333","6501400","蘆洲區"
"247018","057-VK","2018/08/10 17:09:36","新北市蘆洲區復興路101-1號","121.476741666667","25.08765","6501400","蘆洲區"
"247008","056-VK","2018/08/10 17:09:35","新北市蘆洲區信義路30巷114號","121.475111666667","25.0769816666667","6501400","蘆洲區"
"247016","007-UY","2018/08/10 17:09:34","新北市蘆洲區光華路71號","121.468116666667","25.0827283333333","6501400","蘆洲區"
"247002","002-UY","2018/08/10 17:09:23","新北市蘆洲區永樂街45-1號","121.457041666667","25.08852","6501400","蘆洲區"
"247020","001-UY","2018/08/10 17:09:36","新北市蘆洲區民族路426巷42號","121.473118333333","25.0932983333333","6501400","蘆洲區"
"228001","212-TW","2018/08/10 17:09:39","新北市貢寮區仁理村研海街62-2號","121.925723333333","25.044195","6502600","貢寮區"
"228002","663-BX","2018/08/10 17:09:28","新北市貢寮區龍崗里嵩陽街38號","121.909835","25.0168333333333","6502600","貢寮區"
"228003","828-UM","2018/08/10 17:09:40","新北市貢寮區福隆里東興街18-1號","121.95017","25.018305","6502600","貢寮區"
"224006","676-BX","2018/08/10 17:09:34","新北市瑞芳區大寮路69號","121.781173333333","25.0976283333333","6501200","瑞芳區"
"224008","285-BY","2018/08/10 17:09:30","新北市瑞芳區九芎橋路4號","121.831825","25.0906633333333","6501200","瑞芳區"
"224009","273-VK","2018/08/10 17:09:37","新北市瑞芳區豎崎路49號","121.84311","25.1098083333333","6501200","瑞芳區"
"224005","271-BY","2018/08/10 17:09:39","新北市瑞芳區鼻頭路227-5號","121.914016666667","25.12407","6501200","瑞芳區"
"227003","642-TC","2018/08/10 17:09:33","新北市雙溪區外柑里田寮3號","121.806201666667","25.0168266666667","6502500","雙溪區"
"227011","400-TW","2018/08/10 17:09:35","新北市雙溪區三貂里子崙坑1-6號","121.849856666667","25.0575866666667","6502500","雙溪區"
"251005","010-UM","2018/08/10 17:09:28","新北市淡水區鄧公路19-1號","121.45032","25.169935","6501000","淡水區"
"251008","181-VK","2018/08/10 17:09:29","新北市淡水區民生路169號","121.469525","25.1420733333333","6501000","淡水區"
"251010","413-VK","2018/08/10 17:09:25","新北市淡水區新市五路二段75號","121.431786666667","25.1990183333333","6501000","淡水區"
"251012","441-VK","2018/08/10 17:09:39","新北市淡水區中山北路一段249號","121.444635","25.18044","6501000","淡水區"
"251004","443-VK","2018/08/10 17:09:40","新北市淡水區中正路164號","121.440571666667","25.1697766666667","6501000","淡水區"
"251006","561-UM","2018/08/10 17:09:22","新北市淡水區真理街6號","121.438411666667","25.1745516666667","6501000","淡水區"
"251009","575-R6","2018/08/10 17:09:32","新北市淡水區三民街22號","121.439106666667","25.171775","6501000","淡水區"
"251007","577-R6","2018/08/10 17:09:34","新北市淡水區民權路77號","121.45969","25.138535","6501000","淡水區"
"251011","650-BX","2018/08/10 17:09:29","新北市淡水區坪頂路49號","121.457806666667","25.1626066666667","6501000","淡水區"
"252002","178-VK","2018/08/10 17:09:42","新北市三芝區忠孝街1-19號","121.505916666667","25.253065","6502100","三芝區"
"252001","292-VK","2018/08/10 17:09:27","新北市三芝區埔頭里埔頭37號","121.49841","25.26025","6502100","三芝區"
"242058","986-R7","2018/08/10 17:09:29","新北市新莊區新泰路255巷83號","121.442398333333","25.0391316666667","6500500","新莊區"
"242054","751-BX","2018/08/10 17:09:40","新北市泰山區磚雅厝6號","121.441978333333","25.0426916666667","6500500","新莊區"
"242025","705-TV","2018/08/10 17:09:23","新北市新莊區新泰路255巷83號","121.442245","25.0390733333333","6500500","新莊區"
"242041","566-BX","2018/08/10 17:09:25","新北市新莊區新泰路357巷3弄57號","121.442071666667","25.0391","6500500","新莊區"
"242046","497-BY","2018/08/10 17:09:31","新北市新莊區新泰路357巷3弄57號","121.442423333333","25.0397533333333","6500500","新莊區"
"242050","441-UM","2018/08/10 17:09:29","新北市新莊區新泰路369巷24號","121.442003333333","25.0434116666667","6500500","新莊區"
"242056","440-UM","2018/08/10 17:09:29","新北市新莊區新泰路357巷3弄57號","121.442121666667","25.0392466666667","6500500","新莊區"
"242037","415-TV","2018/08/10 17:09:33","新北市新莊區新泰路357巷3弄57號","121.442101666667","25.03931","6500500","新莊區"
"242007","413-TV","2018/08/10 17:09:32","新北市新莊區新泰路357巷3弄57號","121.441916666667","25.0394933333333","6500500","新莊區"
"242044","400-BY","2018/08/10 17:09:30","新北市新莊區三和路12-9號","121.44227","25.0366216666667","6500500","新莊區"
"242023","362-BY","2018/08/10 17:09:23","新北市新莊區三和路12-21號","121.44232","25.038585","6500500","新莊區"
"242060","353-BY","2018/08/10 17:09:37","新北市新莊區中正路473-1號","121.441975","25.0331133333333","6500500","新莊區"
"242039","133-UY","2018/08/10 17:09:23","新北市新莊區新泰路413巷22號","121.442313333333","25.0443966666667","6500500","新莊區"
"242048","172-VK","2018/08/10 17:09:37","新北市新莊區中正路517-2號","121.439865","25.03351","6500500","新莊區"
"242017","175-VK","2018/08/10 17:09:23","新北市新莊區三和路12-21號","121.442025","25.038835","6500500","新莊區"
"242005","176-VK","2018/08/10 17:09:30","新北市新莊區新泰路255巷83號","121.442208333333","25.0390166666667","6500500","新莊區"
"242013","347-TH","2018/08/10 17:09:34","新北市新莊區三和路12-18號","121.442123333333","25.0376416666667","6500500","新莊區"
"242021","348-TH","2018/08/10 17:09:41","新北市新莊區三和路12-16號","121.442065","25.037445","6500500","新莊區"
"242019","350-TH","2018/08/10 17:09:26","新北市新莊區新泰路255巷83號","121.442011666667","25.0389733333333","6500500","新莊區"
"238023","601-UM","2018/08/10 17:09:25","新北市樹林區東和街2號","121.405153333333","24.9802183333333","6500700","樹林區"
"238019","599-UM","2018/08/10 17:09:25","新北市樹林區八德街262-1號","121.417233333333","24.9720033333333","6500700","樹林區"
"238018","571-TV","2018/08/10 17:09:27","新北市樹林區信義街84號","121.425205","24.982755","6500700","樹林區"
"238024","5061-A6","2018/08/10 17:09:26","新北市樹林區博愛一街29巷70號","121.425771666667","24.9915366666667","6500700","樹林區"
"238022","KEA-2213","2018/08/10 17:09:41","新北市樹林區國凱街112號","121.422023333333","24.97974","6500700","樹林區"
"238021","KEA-2539","2018/08/10 17:09:21","新北市樹林區西圳街165巷20弄26號","121.395563333333","24.9600883333333","6500700","樹林區"
"238025","303-VK","2018/08/10 17:09:25","新北市樹林區東和街8號","121.405016666667","24.9801216666667","6500700","樹林區"
"238017","283-BY","2018/08/10 17:09:36","新北市樹林區東佳路7號","121.40588","24.9804716666667","6500700","樹林區"
"238020","268-VK","2018/08/10 17:09:38","新北市樹林區大安路626號","121.411305","24.982745","6500700","樹林區"
"238016","169-UY","2018/08/10 17:09:25","新北市樹林區大安路626號","121.411213333333","24.9826083333333","6500700","樹林區"
"239007","AAC-297","2018/08/10 17:09:29","新北市鶯歌區信義街48號","121.353318333333","24.955305","6500800","鶯歌區"
"239006","891-R6","2018/08/10 17:09:29","新北市鶯歌區八德路2巷18弄1號","121.336628333333","24.9467716666667","6500800","鶯歌區"
"239008","527-UM","2018/08/10 17:09:37","新北市鶯歌區文化路136巷1-1號","121.351678333333","24.9510266666667","6500800","鶯歌區"
"239005","526-UM","2018/08/10 17:09:27","新北市鶯歌區鶯桃路298號","121.334033333333","24.96129","6500800","鶯歌區"
"239001","417-VK","2018/08/10 17:09:41","新北市鶯歌區尖山路140巷12弄6號","121.34641","24.949545","6500800","鶯歌區"
"239003","360-BY","2018/08/10 17:09:24","新北市鶯歌區八德路16號","121.330645","24.9554683333333","6500800","鶯歌區"
"239002","359-BY","2018/08/10 17:09:27","新北市鶯歌區建國路255號","121.34789","24.953385","6500800","鶯歌區"
"239004","193-VK","2018/08/10 17:09:38","新北市鶯歌區文化路324巷1號","121.351885","24.9452733333333","6500800","鶯歌區"
"242015","281-VK","2018/08/10 17:09:34","新北市新莊區三和路12-18號","121.442003333333","25.0375883333333","6500500","新莊區"
"235061","KEA-2875","2018/08/10 17:09:24","新北市中和區員山路36巷16-2號","121.485143333333","24.9916733333333","6500300","中和區"
