"lineid","car","time","location","longitude","latitude","cityid","cityname"
"234026","9371-KE","2018/08/10 17:39:32","新北市永和區豫溪街169巷2-1號","121.521881666667","25.01043","6500400","永和區"
"249005","172-UM","2018/08/10 17:39:41","新北市八里區荖阡坑路34-1號","121.402721666667","25.1297433333333","6502300","八里區"
"249001","173-UM","2018/08/10 17:39:28","新北市八里區龍米路二段157-1號","121.439988333333","25.15363","6502300","八里區"
"249004","303-UY","2018/08/10 17:39:41","新北市八里區賢二街32號","121.418841666667","25.1579183333333","6502300","八里區"
"249002","305-UY","2018/08/10 17:39:37","新北市八里區頂寮二街126號","121.44893","25.1274116666667","6502300","八里區"
"249003","593-UM","2018/08/10 17:39:37","新北市八里區中山路二段228號","121.405113333333","25.15131","6502300","八里區"
"232011","375-UM","2018/08/10 17:39:38","新北市坪林區北宜路八段101號","121.706078333333","24.934865","6502000","坪林區"
"244017","069-UM","2018/08/10 17:39:28","新北市林口區文化二路一段242號","121.37027","25.072995","6501700","林口區"
"244007","080-UY","2018/08/10 17:39:24","新北市林口區林口路272巷8號","121.386765","25.0845233333333","6501700","林口區"
"244019","403-UM","2018/08/10 17:39:26","新北市林口區文化一路一段83巷14弄40號","121.372196666667","25.07119","6501700","林口區"
"244013","KEA-2802","2018/08/10 17:39:41","新北市林口區中山路202-6號","121.388236666667","25.0790616666667","6501700","林口區"
"244009","410-SL","2018/08/10 17:39:24","新北市林口區文化一路二段285-1號","121.384856666667","25.0843166666667","6501700","林口區"
"244023","483-VK","2018/08/10 17:39:38","新北市林口區興林路152巷15號","121.387788333333","25.0715766666667","6501700","林口區"
"244011","657-BX","2018/08/10 17:39:27","新北市林口區佳林路154號","121.384165","25.0771233333333","6501700","林口區"
"244025","837-TS","2018/08/10 17:39:31","新北市林口區文化三路一段394巷10號","121.3662","25.072825","6501700","林口區"
"244021","838-TS","2018/08/10 17:39:35","新北市林口區粉寮路一段41號","121.396531666667","25.0772883333333","6501700","林口區"
"222002","659-BX","2018/08/10 17:39:24","新北市深坑區深南路88巷1號","121.621028333333","25.0116483333333","6501800","深坑區"
"231046","107-UY","2018/08/10 17:39:40","新北市新店區直潭路92號","121.530893333333","24.9376116666667","6500600","新店區"
"241024","065-VK","2018/08/10 17:39:40","新北市三重區大勇街43號","121.482293333333","25.0717266666667","6500200","三重區"
"241005","265-UM","2018/08/10 17:39:31","新北市三重區仁愛街519號","121.487276666667","25.0822083333333","6500200","三重區"
"241016","266-UM","2018/08/10 17:39:41","新北市三重區重新路二段27號","121.497813333333","25.0623083333333","6500200","三重區"
"241007","398-BY","2018/08/10 17:39:39","新北市三重區自強路三段99號","121.487601666667","25.0753433333333","6500200","三重區"
"241014","543-UM","2018/08/10 17:39:37","新北市三重區龍濱路19號","121.503","25.067805","6500200","三重區"
"241023","545-UM","2018/08/10 17:39:35","新北市三重區中華路97號","121.483541666667","25.0631083333333","6500200","三重區"
"241033","AAC-255","2018/08/10 17:39:36","新北市三重區光復路一段66號","121.472048333333","25.04901","6500200","三重區"
"235064","005-UY","2018/08/10 17:39:28","新北市中和區員山路36巷16-2號","121.485228333333","24.9914066666667","6500300","中和區"
"235058","151-BY","2018/08/10 17:39:41","新北市中和區員山路36巷16-2號","121.485195","24.9916583333333","6500300","中和區"
"247010","KEA-2869","2018/08/10 17:39:29","新北市蘆洲區中山一路77號","121.477678333333","25.0813633333333","6501400","蘆洲區"
"247024","893-R6","2018/08/10 17:39:34","新北市蘆洲區長樂路159號","121.462138333333","25.0881383333333","6501400","蘆洲區"
"247014","546-UM","2018/08/10 17:39:41","新北市蘆洲區中正路20號","121.471361666667","25.0821766666667","6501400","蘆洲區"
"247022","500-BY","2018/08/10 17:39:26","新北市蘆洲區民族路550號","121.467663333333","25.089125","6501400","蘆洲區"
"247004","337-TH","2018/08/10 17:39:42","新北市蘆洲區中原路1-2號","121.461623333333","25.0836733333333","6501400","蘆洲區"
"247006","336-TH","2018/08/10 17:39:33","新北市蘆洲區長安街23巷1號","121.463916666667","25.0789266666667","6501400","蘆洲區"
"247018","057-VK","2018/08/10 17:39:36","新北市蘆洲區三民路98巷19號","121.472841666667","25.0874133333333","6501400","蘆洲區"
"247008","056-VK","2018/08/10 17:39:35","新北市蘆洲區和平路29巷3號","121.472078333333","25.0788933333333","6501400","蘆洲區"
"247016","007-UY","2018/08/10 17:39:33","新北市蘆洲區光華路48號","121.468681666667","25.0831316666667","6501400","蘆洲區"
"247002","002-UY","2018/08/10 17:39:23","新北市蘆洲區永平街32巷11弄25號","121.45796","25.0918033333333","6501400","蘆洲區"
"247020","001-UY","2018/08/10 17:39:36","新北市蘆洲區民族路355號","121.471845","25.09162","6501400","蘆洲區"
"228001","212-TW","2018/08/10 17:39:39","新北市貢寮區仁理村仁愛路95-1號","121.9276","25.0554683333333","6502600","貢寮區"
"228002","663-BX","2018/08/10 17:39:28","新北市貢寮區福隆里龜壽谷街13號","121.957516666667","25.0052966666667","6502600","貢寮區"
"228003","828-UM","2018/08/10 17:39:40","新北市貢寮區仁理村仁和路268號","121.92421","25.0544466666667","6502600","貢寮區"
"224010","AGQ-8101","2018/08/10 17:36:03","新北市瑞芳區逢甲路204號","121.806843333333","25.1101566666667","6501200","瑞芳區"
"224006","676-BX","2018/08/10 17:39:41","新北市瑞芳區傑魚坑路86號","121.792625","25.1104866666667","6501200","瑞芳區"
"224008","285-BY","2018/08/10 17:39:30","新北市瑞芳區明燈路一段15號","121.823906666667","25.1069033333333","6501200","瑞芳區"
"224009","273-VK","2018/08/10 17:39:37","新北市瑞芳區新山路88號","121.851245","25.1090283333333","6501200","瑞芳區"
"224005","271-BY","2018/08/10 17:39:39","新北市瑞芳區海濱路8-6號","121.83167","25.1261066666667","6501200","瑞芳區"
"227003","642-TC","2018/08/10 17:39:33","新北市雙溪區共和里東榮街52號","121.866318333333","25.0337033333333","6502500","雙溪區"
"251005","010-UM","2018/08/10 17:39:28","新北市淡水區鄧公路33巷1號","121.451453333333","25.171085","6501000","淡水區"
"251001","011-UM","2018/08/10 17:39:24","新北市淡水區民權路92巷35-1號","121.462173333333","25.1267166666667","6501000","淡水區"
"251002","012-UM","2018/08/10 17:39:42","新北市淡水區中山路143-5號","121.440516666667","25.1720516666667","6501000","淡水區"
"251008","181-VK","2018/08/10 17:39:29","新北市淡水區八勢路一段48號","121.466628333333","25.1551433333333","6501000","淡水區"
"251010","413-VK","2018/08/10 17:39:44","新北市淡水區淡海路280巷16號","121.419786666667","25.1896333333333","6501000","淡水區"
"251012","441-VK","2018/08/10 17:39:39","新北市淡水區北新路200巷8號","121.451715","25.1796816666667","6501000","淡水區"
"251004","443-VK","2018/08/10 17:39:33","新北市淡水區中正東路二段88巷37-22號","121.45929","25.1437833333333","6501000","淡水區"
"251006","561-UM","2018/08/10 17:39:42","新北市淡水區大信街24巷2號","121.441921666667","25.1767133333333","6501000","淡水區"
"251009","575-R6","2018/08/10 17:39:32","新北市淡水區中正路28號","121.444271666667","25.1691883333333","6501000","淡水區"
"251007","577-R6","2018/08/10 17:39:34","新北市淡水區民生路124巷10號","121.46393","25.13797","6501000","淡水區"
"251011","650-BX","2018/08/10 17:39:29","新北市淡水區小坪頂13-3號","121.486608333333","25.1561733333333","6501000","淡水區"
"251003","673-BX","2018/08/10 17:39:28","新北市淡水區中山北路一段51號","121.441738333333","25.1755833333333","6501000","淡水區"
"207003","291-VK","2018/08/10 17:39:39","新北市萬里區龜吼里漁澳路13號","121.686715","25.1946083333333","6502800","萬里區"
"207004","225-TW","2018/08/10 17:39:32","新北市萬里區中幅里中福路6-7號","121.68593","25.1645783333333","6502800","萬里區"
"252002","178-VK","2018/08/10 17:39:22","新北市三芝區中正路二段2號","121.504976666667","25.25575","6502100","三芝區"
"252001","292-VK","2018/08/10 17:39:27","新北市三芝區淡金路一段87號","121.502173333333","25.259","6502100","三芝區"
"237012","275-BY","2018/08/10 17:39:43","新北市三峽區中山路459巷163-3號","121.348733333333","24.933125","6500900","三峽區"
"237014","433-BY","2018/08/10 17:39:28","新北市三峽區中山路459巷163-3號","121.348821666667","24.932745","6500900","三峽區"
"237015","649-BX","2018/08/10 17:39:39","新北市三峽區正義街140-1號","121.36835","24.9163083333333","6500900","三峽區"
"237010","706-TV","2018/08/10 17:39:38","新北市三峽區中山路157號","121.364723333333","24.936385","6500900","三峽區"
"236042","107-UM","2018/08/10 17:39:35","新北市土城區城林路6巷80號","121.438513333333","24.9796233333333","6501300","土城區"
"236014","270-VK","2018/08/10 17:39:44","新北市土城區城林路6巷80號","121.438568333333","24.9795983333333","6501300","土城區"
"236039","271-VK","2018/08/10 17:39:25","新北市土城區城林路6巷80號","121.43847","24.97963","6501300","土城區"
"236020","401-BY","2018/08/10 17:39:24","新北市土城區城林路6巷80號","121.438713333333","24.97963","6501300","土城區"
"236055","AAC-216","2018/08/10 17:39:33","新北市土城區城林路6巷80號","121.438493333333","24.9796716666667","6501300","土城區"
"242034","AAC-296","2018/08/10 17:39:44","新北市新莊區新莊路512號","121.445988333333","25.03326","6500500","新莊區"
"242058","986-R7","2018/08/10 17:39:32","新北市新莊區中正路696號","121.418905","25.02787","6500500","新莊區"
"242054","751-BX","2018/08/10 17:39:40","新北市新莊區新樹路707號","121.43209","25.00216","6500500","新莊區"
"242025","705-TV","2018/08/10 17:39:43","新北市新莊區復興路二段191號","121.459225","25.0444983333333","6500500","新莊區"
"242027","615-BX","2018/08/10 17:39:37","新北市新莊區福壽街111號","121.45783","25.0510883333333","6500500","新莊區"
"242041","566-BX","2018/08/10 17:39:25","新北市新莊區中正路514巷49號","121.432248333333","25.033565","6500500","新莊區"
"242046","497-BY","2018/08/10 17:39:31","新北市新莊區建國一路17號","121.433861666667","25.031615","6500500","新莊區"
"242050","441-UM","2018/08/10 17:39:29","新北市新莊區西盛街195號","121.428155","25.0172666666667","6500500","新莊區"
"242056","440-UM","2018/08/10 17:39:32","新北市新莊區泰豐街30巷12號","121.448775","25.0319933333333","6500500","新莊區"
"242037","415-TV","2018/08/10 17:39:33","新北市新莊區後港一路195號","121.434148333333","25.0285083333333","6500500","新莊區"
"242007","413-TV","2018/08/10 17:39:32","新北市新莊區福樂街118巷3號","121.457221666667","25.04805","6500500","新莊區"
"242044","400-BY","2018/08/10 17:39:30","新北市新莊區中正路871巷9弄41號","121.419848333333","25.0268016666667","6500500","新莊區"
"242023","362-BY","2018/08/10 17:39:23","新北市新莊區民樂街34號","121.457858333333","25.0409783333333","6500500","新莊區"
"242060","353-BY","2018/08/10 17:39:37","新北市新莊區瓊林南路155號","121.433996666667","25.0117533333333","6500500","新莊區"
"242009","132-UY","2018/08/10 17:39:32","新北市新莊區昌明街14巷7弄1號","121.457351666667","25.0533983333333","6500500","新莊區"
"242039","133-UY","2018/08/10 17:39:38","新北市新莊區民全街11號","121.428916666667","25.021435","6500500","新莊區"
"242032","135-UY","2018/08/10 17:39:31","新北市新莊區新泰路370號","121.444276666667","25.0429466666667","6500500","新莊區"
"242048","172-VK","2018/08/10 17:39:40","新北市新莊區萬安街131號","121.420571666667","25.0222133333333","6500500","新莊區"
"242011","173-VK","2018/08/10 17:39:34","新北市新莊區中華路二段233號","121.451633333333","25.0531533333333","6500500","新莊區"
"242017","175-VK","2018/08/10 17:39:43","新北市新莊區復興路一段149巷21弄11號","121.449698333333","25.0440333333333","6500500","新莊區"
"242005","176-VK","2018/08/10 17:39:30","新北市新莊區自立街200號","121.456681666667","25.0454416666667","6500500","新莊區"
"242013","347-TH","2018/08/10 17:39:41","新北市新莊區中誠街139號","121.448955","25.047485","6500500","新莊區"
"242021","348-TH","2018/08/10 17:39:41","新北市新莊區中華路一段166號","121.452663333333","25.0416983333333","6500500","新莊區"
"242002","349-TH","2018/08/10 17:39:40","新北市新莊區新莊路421號","121.450596666667","25.0336116666667","6500500","新莊區"
"242019","350-TH","2018/08/10 17:39:26","新北市新莊區中港路205號","121.45483","25.042","6500500","新莊區"
"238015","755-BX","2018/08/10 17:39:36","新北市樹林區啟智街36號","121.420643333333","24.9932133333333","6500700","樹林區"
"238023","601-UM","2018/08/10 17:39:25","新北市樹林區三福街68號","121.404865","25.0162733333333","6500700","樹林區"
"238019","599-UM","2018/08/10 17:39:25","新北市樹林區太平路127巷10號","121.419706666667","24.9806716666667","6500700","樹林區"
"238018","571-TV","2018/08/10 17:39:27","新北市樹林區鎮前街1號","121.426168333333","24.9930016666667","6500700","樹林區"
"238024","5061-A6","2018/08/10 17:39:26","新北市樹林區忠孝街67巷4號","121.424488333333","24.98137","6500700","樹林區"
"238022","KEA-2213","2018/08/10 17:39:41","新北市樹林區太元街34號","121.41814","24.9800866666667","6500700","樹林區"
"238021","KEA-2539","2018/08/10 17:39:21","新北市樹林區柑園街一段253巷47號","121.396975","24.9531816666667","6500700","樹林區"
"238025","303-VK","2018/08/10 17:39:25","新北市樹林區保安街二段223號","121.413235","25.004435","6500700","樹林區"
"238017","283-BY","2018/08/10 17:39:36","新北市樹林區三德街30巷16弄25號","121.413643333333","25.0122933333333","6500700","樹林區"
"238014","282-BY","2018/08/10 17:39:38","新北市樹林區保安街一段360巷1號","121.41783","24.99877","6500700","樹林區"
"238020","268-VK","2018/08/10 17:39:38","新北市樹林區俊英街93號","121.425388333333","25.0090716666667","6500700","樹林區"
"238026","172-UY","2018/08/10 17:38:30","新北市樹林區新興街19巷13號","121.401121666667","24.9733483333333","6500700","樹林區"
"238016","169-UY","2018/08/10 17:39:45","新北市樹林區育英街165巷12號","121.418276666667","24.989105","6500700","樹林區"
"239007","AAC-297","2018/08/10 17:39:29","新北市鶯歌區鶯桃路182巷25號","121.339135","24.95754","6500800","鶯歌區"
"239006","891-R6","2018/08/10 17:39:29","新北市鶯歌區永和街56巷5號","121.333721666667","24.9677533333333","6500800","鶯歌區"
"239008","527-UM","2018/08/10 17:39:41","新北市鶯歌區大湖路734號","121.332421666667","24.9771","6500800","鶯歌區"
"239005","526-UM","2018/08/10 17:39:27","新北市鶯歌區鶯桃路二段22號","121.326048333333","24.9724216666667","6500800","鶯歌區"
"239001","417-VK","2018/08/10 17:39:40","新北市鶯歌區中正三路234-4號","121.330651666667","24.9370283333333","6500800","鶯歌區"
"239003","360-BY","2018/08/10 17:39:24","新北市鶯歌區鶯桃路179號","121.33782","24.9586033333333","6500800","鶯歌區"
"239002","359-BY","2018/08/10 17:39:39","新北市鶯歌區育賢街34號","121.344178333333","24.9544566666667","6500800","鶯歌區"
"239004","193-VK","2018/08/10 17:39:37","新北市鶯歌區三鶯路5號","121.356718333333","24.940955","6500800","鶯歌區"
"221015","131-UY","2018/08/10 17:39:36","新北市汐止區康寧街901號","121.651051666667","25.0751833333333","6501100","汐止區"
"221010","269-BY","2018/08/10 17:39:25","新北市汐止區汐萬路一段312號","121.650398333333","25.0750583333333","6501100","汐止區"
"221023","279-VK","2018/08/10 17:39:40","新北市汐止區康寧街901號","121.65168","25.074875","6501100","汐止區"
"221032","280-BY","2018/08/10 17:39:28","新北市汐止區汐萬路一段256巷1號","121.65192","25.0748416666667","6501100","汐止區"
"221008","297-VK","2018/08/10 17:39:42","新北市汐止區康寧街901號","121.6514","25.075075","6501100","汐止區"
"221021","299-VK","2018/08/10 17:39:22","新北市汐止區康寧街901號","121.651723333333","25.07497","6501100","汐止區"
"221031","353-TW","2018/08/10 17:39:39","新北市汐止區汐萬路一段256巷1號","121.651758333333","25.07492","6501100","汐止區"
"221033","647-BX","2018/08/10 17:39:23","新北市汐止區新台五路一段131號","121.652263333333","25.061965","6501100","汐止區"
"221018","753-BX","2018/08/10 17:39:33","新北市汐止區汐萬路一段256巷1號","121.651938333333","25.07482","6501100","汐止區"
"242015","281-VK","2018/08/10 17:39:34","新北市新莊區新泰路305巷1號","121.445355","25.0409566666667","6500500","新莊區"
