"lineid","car","time","location","longitude","latitude","cityid","cityname"
"234026","9371-KE","2018/08/10 17:49:32","新北市永和區和平街95巷4弄2號","121.51129","25.00966","6500400","永和區"
"249005","172-UM","2018/08/10 17:49:41","新北市八里區荖阡坑路41-10號","121.402308333333","25.132985","6502300","八里區"
"249001","173-UM","2018/08/10 17:49:28","新北市八里區龍米路二段143號","121.443981666667","25.14934","6502300","八里區"
"249004","303-UY","2018/08/10 17:49:41","新北市八里區中華路一段81巷24號","121.419426666667","25.1520833333333","6502300","八里區"
"249002","305-UY","2018/08/10 17:49:37","新北市八里區龍形三街9巷2號","121.45063","25.1317266666667","6502300","八里區"
"249003","593-UM","2018/08/10 17:49:37","新北市八里區中山路二段75號","121.406291666667","25.1531683333333","6502300","八里區"
"232011","375-UM","2018/08/10 17:49:37","新北市坪林區北宜路八段138號","121.706695","24.9345266666667","6502000","坪林區"
"244017","069-UM","2018/08/10 17:49:28","新北市林口區文化二路一段260巷4號","121.371113333333","25.073145","6501700","林口區"
"244007","080-UY","2018/08/10 17:49:44","新北市林口區林口路162號","121.38779","25.0825083333333","6501700","林口區"
"244019","403-UM","2018/08/10 17:49:26","新北市林口區忠孝路567號","121.373575","25.0680683333333","6501700","林口區"
"244013","KEA-2802","2018/08/10 17:49:41","新北市林口區中正路501號","121.383378333333","25.0777233333333","6501700","林口區"
"244009","410-SL","2018/08/10 17:49:44","新北市林口區竹林路582巷16號","121.38603","25.0833683333333","6501700","林口區"
"244023","483-VK","2018/08/10 17:49:39","新北市林口區東湖路62號","121.387493333333","25.0740966666667","6501700","林口區"
"244011","657-BX","2018/08/10 17:49:27","新北市林口區竹林路35號","121.386806666667","25.0777216666667","6501700","林口區"
"244025","837-TS","2018/08/10 17:49:31","新北市林口區忠孝三路75號","121.360055","25.0694133333333","6501700","林口區"
"244021","838-TS","2018/08/10 17:49:35","新北市林口區仁愛路一段83巷38號","121.397781666667","25.070625","6501700","林口區"
"222003","436-BY","2018/08/10 17:49:31","新北市深坑區阿柔洋60-1號","121.608246666667","24.9987483333333","6501800","深坑區"
"222002","659-BX","2018/08/10 17:49:24","新北市深坑區平埔街22巷17弄1號","121.614836666667","25.000865","6501800","深坑區"
"231046","107-UY","2018/08/10 17:49:40","新北市新店區康雅崙路45號","121.535728333333","24.927055","6500600","新店區"
"241024","065-VK","2018/08/10 17:49:38","新北市三重區力行路二段9巷10號","121.482896666667","25.0723233333333","6500200","三重區"
"241016","266-UM","2018/08/10 17:49:40","新北市三重區新北大道一段3-1號","121.490031666667","25.0613166666667","6500200","三重區"
"241033","AAC-255","2018/08/10 17:49:36","新北市三重區光復路一段28號","121.471958333333","25.0473283333333","6500200","三重區"
"235064","005-UY","2018/08/10 17:49:28","新北市中和區員山路36巷16-3號","121.485123333333","24.9913166666667","6500300","中和區"
"235065","098-UM","2018/08/10 17:49:32","新北市中和區中正路637巷52弄7號","121.485138333333","24.9937916666667","6500300","中和區"
"235058","151-BY","2018/08/10 17:49:41","新北市中和區員山路36巷16-2號","121.485206666667","24.9915766666667","6500300","中和區"
"247010","KEA-2869","2018/08/10 17:49:29","新北市蘆洲區民族路39號","121.478308333333","25.085275","6501400","蘆洲區"
"247024","893-R6","2018/08/10 17:49:34","新北市蘆洲區光榮路61巷20號","121.46124","25.0888666666667","6501400","蘆洲區"
"247014","546-UM","2018/08/10 17:49:41","新北市蘆洲區中正路150-3號","121.46953","25.0856016666667","6501400","蘆洲區"
"247022","500-BY","2018/08/10 17:49:25","新北市蘆洲區中正路284-1號","121.465065","25.09012","6501400","蘆洲區"
"247012","339-TH","2018/08/10 17:49:42","新北市蘆洲區復興路153號","121.478105","25.0889","6501400","蘆洲區"
"247004","337-TH","2018/08/10 17:49:42","新北市蘆洲區永康街77號","121.455783333333","25.0851783333333","6501400","蘆洲區"
"247006","336-TH","2018/08/10 17:49:33","新北市蘆洲區九芎街141號","121.465413333333","25.07932","6501400","蘆洲區"
"247018","057-VK","2018/08/10 17:49:36","新北市蘆洲區復興路227巷2弄20號","121.481148333333","25.0904033333333","6501400","蘆洲區"
"247008","056-VK","2018/08/10 17:49:35","新北市蘆洲區信義路32-2號","121.474231666667","25.07924","6501400","蘆洲區"
"247002","002-UY","2018/08/10 17:49:43","新北市蘆洲區永平街32巷31號","121.459296666667","25.0919633333333","6501400","蘆洲區"
"247020","001-UY","2018/08/10 17:49:36","新北市蘆洲區民義街71巷17號","121.47266","25.0905766666667","6501400","蘆洲區"
"228001","212-TW","2018/08/10 17:49:39","新北市貢寮區仁理村仁愛路95-1號","121.927615","25.0554533333333","6502600","貢寮區"
"228002","663-BX","2018/08/10 17:49:28","新北市貢寮區福隆里龜壽谷街11-1號","121.954146666667","25.00699","6502600","貢寮區"
"228003","828-UM","2018/08/10 17:49:40","新北市貢寮區真理里美艷山街6-2號","121.92884","25.0607466666667","6502600","貢寮區"
"224010","AGQ-8101","2018/08/10 17:49:43","新北市瑞芳區逢甲路17號","121.809601666667","25.1085066666667","6501200","瑞芳區"
"224006","676-BX","2018/08/10 17:49:33","新北市瑞芳區傑魚坑路183號","121.78844","25.1083066666667","6501200","瑞芳區"
"224008","285-BY","2018/08/10 17:49:30","新北市瑞芳區明燈路一段175號","121.81924","25.107585","6501200","瑞芳區"
"224009","273-VK","2018/08/10 17:49:37","新北市瑞芳區山尖路191號","121.85127","25.11177","6501200","瑞芳區"
"224005","271-BY","2018/08/10 17:49:39","新北市瑞芳區豎崎路32-5號","121.824216666667","25.12099","6501200","瑞芳區"
"227003","642-TC","2018/08/10 17:49:33","新北市雙溪區共和里東榮街52號","121.86631","25.03369","6502500","雙溪區"
"222001","KEA-2212","2018/08/10 17:49:25","新北市深坑區北深路三段25巷15-2號","121.608645","24.9995433333333","6501800","深坑區"
"208001","761-BX","2018/08/10 17:49:38","新北市金山區磺清路135號","121.639341666667","25.2277633333333","6502700","金山區"
"251005","010-UM","2018/08/10 17:49:28","新北市淡水區學府路100巷1號","121.450268333333","25.171855","6501000","淡水區"
"251001","011-UM","2018/08/10 17:49:44","新北市淡水區民權路92巷35-1號","121.462158333333","25.126715","6501000","淡水區"
"251002","012-UM","2018/08/10 17:49:42","新北市淡水區中山路21號","121.444138333333","25.16998","6501000","淡水區"
"251008","181-VK","2018/08/10 17:49:29","新北市淡水區八勢路一段123巷5弄5號","121.466523333333","25.1564183333333","6501000","淡水區"
"251010","413-VK","2018/08/10 17:49:25","新北市淡水區淡海路280巷33弄34-2號","121.418725","25.1886166666667","6501000","淡水區"
"251012","441-VK","2018/08/10 17:49:39","新北市淡水區鄒厝崙34號","121.471866666667","25.1846866666667","6501000","淡水區"
"251004","443-VK","2018/08/10 17:49:33","新北市淡水區民權一街30號","121.458683333333","25.1364533333333","6501000","淡水區"
"251006","561-UM","2018/08/10 17:49:42","新北市淡水區中山北路一段45巷17號","121.440901666667","25.1758","6501000","淡水區"
"251009","575-R6","2018/08/10 17:49:38","新北市淡水區長興街61號","121.444286666667","25.1720733333333","6501000","淡水區"
"251007","577-R6","2018/08/10 17:49:34","新北市淡水區民生路117巷43弄10號","121.464433333333","25.14061","6501000","淡水區"
"251011","650-BX","2018/08/10 17:48:29","新北市淡水區吳(仔)厝38號","121.479551666667","25.1496133333333","6501000","淡水區"
"251003","673-BX","2018/08/10 17:49:28","新北市淡水區大忠街5巷1號","121.443035","25.1764166666667","6501000","淡水區"
"207003","291-VK","2018/08/10 17:49:39","新北市萬里區野柳里東澳路66號","121.69283","25.200975","6502800","萬里區"
"207004","225-TW","2018/08/10 17:49:32","新北市萬里區萬里里瑪鋉頂街61號","121.688373333333","25.180475","6502800","萬里區"
"252002","178-VK","2018/08/10 17:49:42","新北市三芝區智成街18號","121.503373333333","25.2566866666667","6502100","三芝區"
"252001","292-VK","2018/08/10 17:49:27","新北市三芝區中興街一段37號","121.49764","25.2578266666667","6502100","三芝區"
"237004","KEA-2597","2018/08/10 17:49:43","新北市三峽區中山路130號","121.365321666667","24.9360666666667","6500900","三峽區"
"237009","210-TH","2018/08/10 17:49:33","新北市三峽區大勇路3巷33號","121.367625","24.936775","6500900","三峽區"
"237013","252-BX","2018/08/10 17:49:27","新北市三峽區愛國路33-9號","121.37456","24.9330283333333","6500900","三峽區"
"237012","275-BY","2018/08/10 17:49:43","新北市三峽區文化路10號","121.373363333333","24.93567","6500900","三峽區"
"237014","433-BY","2018/08/10 17:49:28","新北市三峽區文化路120巷7號","121.371045","24.93651","6500900","三峽區"
"237006","5529-G3","2018/08/10 17:49:21","新北市三峽區介壽路二段38巷75-1號","121.392006666667","24.9337","6500900","三峽區"
"237011","KEA-2596","2018/08/10 17:49:38","新北市三峽區中山路78號","121.366928333333","24.9350516666667","6500900","三峽區"
"237015","649-BX","2018/08/10 17:49:39","新北市三峽區白雞149-2號","121.400148333333","24.9055983333333","6500900","三峽區"
"237010","706-TV","2018/08/10 17:49:38","新北市三峽區文化路158號","121.37008","24.9361466666667","6500900","三峽區"
"237005","AKY-6261","2018/08/10 17:49:42","新北市三峽區中山路365號","121.358686666667","24.9371133333333","6500900","三峽區"
"236069","105-UM","2018/08/10 17:49:38","新北市土城區城林路6巷80號","121.438553333333","24.9797666666667","6501300","土城區"
"236042","107-UM","2018/08/10 17:49:15","新北市土城區城林路6巷80號","121.438551666667","24.9795983333333","6501300","土城區"
"236079","166-UM","2018/08/10 17:49:38","新北市土城區中央路三段180號","121.430831666667","24.9651066666667","6501300","土城區"
"236030","253-BX","2018/08/10 17:49:38","新北市土城區城林路6巷80號","121.4386","24.97972","6501300","土城區"
"236026","269-VK","2018/08/10 17:49:30","新北市土城區城林路6巷80號","121.43846","24.979605","6501300","土城區"
"236014","270-VK","2018/08/10 17:49:24","新北市土城區城林路6巷80號","121.438553333333","24.9796083333333","6501300","土城區"
"236039","271-VK","2018/08/10 17:49:25","新北市土城區城林路6巷80號","121.438445","24.9796066666667","6501300","土城區"
"236020","401-BY","2018/08/10 17:49:24","新北市土城區城林路6巷80號","121.438715","24.9796533333333","6501300","土城區"
"236059","912-UM","2018/08/10 17:49:33","新北市土城區中華路二段2號","121.43887","24.97979","6501300","土城區"
"236063","915-UM","2018/08/10 17:49:45","新北市土城區城林路6巷80號","121.438495","24.9797533333333","6501300","土城區"
"236055","AAC-216","2018/08/10 17:49:33","新北市土城區城林路6巷80號","121.438476666667","24.9797066666667","6501300","土城區"
"242034","AAC-296","2018/08/10 17:49:44","新北市新莊區新莊路795號","121.441046666667","25.0325966666667","6500500","新莊區"
"242058","986-R7","2018/08/10 17:49:37","新北市新莊區中正路730-18號","121.414231666667","25.023325","6500500","新莊區"
"242054","751-BX","2018/08/10 17:49:40","新北市新莊區新樹路298號","121.43282","25.0067016666667","6500500","新莊區"
"242025","705-TV","2018/08/10 17:49:43","新北市新莊區新北大道二段219號","121.462421666667","25.0605866666667","6500500","新莊區"
"242027","615-BX","2018/08/10 17:49:37","新北市新莊區福壽街175號","121.457856666667","25.0539983333333","6500500","新莊區"
"242041","566-BX","2018/08/10 17:49:25","新北市新莊區中正路614巷4弄1號","121.425731666667","25.0305866666667","6500500","新莊區"
"242046","497-BY","2018/08/10 17:49:43","新北市新莊區福營路165巷34號","121.432775","25.0298933333333","6500500","新莊區"
"242050","441-UM","2018/08/10 17:49:29","新北市新莊區西盛街257巷18號","121.428728333333","25.0157366666667","6500500","新莊區"
"242056","440-UM","2018/08/10 17:49:29","新北市新莊區瓊林路40巷17號","121.447","25.0301766666667","6500500","新莊區"
"242037","415-TV","2018/08/10 17:49:33","新北市新莊區建福路69巷30號","121.42825","25.0272316666667","6500500","新莊區"
"242007","413-TV","2018/08/10 17:49:32","新北市新莊區福樂街124號","121.456921666667","25.0478783333333","6500500","新莊區"
"242044","400-BY","2018/08/10 17:49:30","新北市新莊區雙鳳路19號","121.416826666667","25.0269116666667","6500500","新莊區"
"242023","362-BY","2018/08/10 17:49:23","新北市新莊區福樂街35號","121.457641666667","25.0469783333333","6500500","新莊區"
"242060","353-BY","2018/08/10 17:49:37","新北市新莊區瓊林南路220號","121.433426666667","25.005665","6500500","新莊區"
"242009","132-UY","2018/08/10 17:49:32","新北市新莊區昌明街42號","121.456286666667","25.0522883333333","6500500","新莊區"
"242039","133-UY","2018/08/10 17:49:40","新北市新莊區民安路170號","121.42507","25.0240633333333","6500500","新莊區"
"242032","135-UY","2018/08/10 17:49:31","新北市新莊區新泰路357巷3弄27號","121.442248333333","25.0405983333333","6500500","新莊區"
"242048","172-VK","2018/08/10 17:49:37","新北市新莊區萬安街146巷22號","121.420215","25.02185","6500500","新莊區"
"242011","173-VK","2018/08/10 17:49:29","新北市新莊區中港路723號","121.4503","25.0579666666667","6500500","新莊區"
"242017","175-VK","2018/08/10 17:49:43","新北市新莊區永安街38號","121.451668333333","25.0447683333333","6500500","新莊區"
"242005","176-VK","2018/08/10 17:49:30","新北市新莊區福樂街58號","121.457918333333","25.0460633333333","6500500","新莊區"
"242013","347-TH","2018/08/10 17:49:34","新北市新莊區中和街82巷7號","121.44822","25.046505","6500500","新莊區"
"242021","348-TH","2018/08/10 17:49:41","新北市新莊區永寧街35巷2號","121.452855","25.039315","6500500","新莊區"
"242002","349-TH","2018/08/10 17:49:40","新北市新莊區景德路93號","121.451938333333","25.034775","6500500","新莊區"
"242019","350-TH","2018/08/10 17:49:29","新北市新莊區民樂街79號","121.457903333333","25.04275","6500500","新莊區"
"238015","755-BX","2018/08/10 17:49:36","新北市樹林區復興路48號","121.422088333333","24.9940333333333","6500700","樹林區"
"238023","601-UM","2018/08/10 17:49:40","新北市樹林區龍興街32巷19號","121.402305","25.015615","6500700","樹林區"
"238019","599-UM","2018/08/10 17:49:45","新北市樹林區太平路106號","121.41854","24.978905","6500700","樹林區"
"238018","571-TV","2018/08/10 17:49:27","新北市樹林區博愛街117號","121.426328333333","24.990945","6500700","樹林區"
"238024","5061-A6","2018/08/10 17:49:26","新北市樹林區八德街662號","121.396278333333","24.9691183333333","6500700","樹林區"
"238022","KEA-2213","2018/08/10 17:49:41","新北市樹林區太順街86巷19號","121.416433333333","24.9784583333333","6500700","樹林區"
"238021","KEA-2539","2018/08/10 17:49:41","新北市樹林區柑園街一段26號","121.405838333333","24.9618716666667","6500700","樹林區"
"238025","303-VK","2018/08/10 17:49:25","新北市樹林區三俊街81巷2號","121.415705","25.01544","6500700","樹林區"
"238017","283-BY","2018/08/10 17:49:36","新北市樹林區三德街30巷11號","121.414701666667","25.0127783333333","6500700","樹林區"
"238014","282-BY","2018/08/10 17:49:41","新北市樹林區保安街一段293號","121.417946666667","24.9971983333333","6500700","樹林區"
"238020","268-VK","2018/08/10 17:49:38","新北市樹林區三俊街201號","121.420115","25.0155566666667","6500700","樹林區"
"238026","172-UY","2018/08/10 17:49:30","新北市樹林區中洲街30巷8號","121.397578333333","24.9716983333333","6500700","樹林區"
"238016","169-UY","2018/08/10 17:49:45","新北市樹林區復興路306號","121.416855","24.98714","6500700","樹林區"
"239007","AAC-297","2018/08/10 17:49:29","新北市鶯歌區永利街22號","121.339236666667","24.9548216666667","6500800","鶯歌區"
"239006","891-R6","2018/08/10 17:49:29","新北市鶯歌區鶯桃路413巷30號","121.331253333333","24.9636516666667","6500800","鶯歌區"
"239008","527-UM","2018/08/10 17:49:37","新北市鶯歌區香賓街8巷1號","121.33662","24.9789133333333","6500800","鶯歌區"
"239005","526-UM","2018/08/10 17:49:27","新北市鶯歌區鶯桃路二段12號","121.326143333333","24.9721016666667","6500800","鶯歌區"
"239001","417-VK","2018/08/10 17:49:40","新北市鶯歌區中正三路458號","121.32182","24.9344933333333","6500800","鶯歌區"
"239003","360-BY","2018/08/10 17:49:38","新北市鶯歌區鶯桃路295巷2號","121.334508333333","24.9597716666667","6500800","鶯歌區"
"239002","359-BY","2018/08/10 17:49:27","新北市鶯歌區光明街100號","121.34589","24.955845","6500800","鶯歌區"
"239004","193-VK","2018/08/10 17:49:37","新北市鶯歌區中正二路91號","121.348648333333","24.9495383333333","6500800","鶯歌區"
"221036","130-UY","2018/08/10 17:49:31","新北市汐止區汐萬路一段81號","121.654703333333","25.070075","6501100","汐止區"
"221015","131-UY","2018/08/10 17:49:36","新北市汐止區長江街256巷1號","121.665033333333","25.080125","6501100","汐止區"
"221010","269-BY","2018/08/10 17:49:25","新北市汐止區汐萬路二段37巷2號","121.649535","25.081545","6501100","汐止區"
"221012","278-VK","2018/08/10 17:49:36","新北市汐止區長江街77號","121.657228333333","25.07221","6501100","汐止區"
"221023","279-VK","2018/08/10 17:49:40","新北市汐止區民族二街9號","121.634968333333","25.0708916666667","6501100","汐止區"
"221032","280-BY","2018/08/10 17:49:28","新北市汐止區工建路202號","121.636885","25.0626433333333","6501100","汐止區"
"221027","281-BY","2018/08/10 17:49:25","新北市汐止區康寧街901號","121.650888333333","25.0752266666667","6501100","汐止區"
"221008","297-VK","2018/08/10 17:49:42","新北市汐止區康寧街901號","121.651128333333","25.0751316666667","6501100","汐止區"
"221029","298-VK","2018/08/10 17:49:37","新北市汐止區汐萬路一段256巷1號","121.65185","25.0747766666667","6501100","汐止區"
"221021","299-VK","2018/08/10 17:49:22","新北市汐止區汐萬路一段22號","121.655838333333","25.0678433333333","6501100","汐止區"
"221031","353-TW","2018/08/10 17:49:39","新北市汐止區工建路198號","121.637188333333","25.0629433333333","6501100","汐止區"
"221002","129-UY","2018/08/10 17:49:38","新北市汐止區康寧街901號","121.651645","25.0749066666667","6501100","汐止區"
"221035","622-UM","2018/08/10 17:49:24","新北市汐止區汐萬路一段213號","121.652008333333","25.0721816666667","6501100","汐止區"
"221025","623-UM","2018/08/10 17:49:41","新北市汐止區大同路二段132-2號","121.651638333333","25.064005","6501100","汐止區"
"221038","646-BX","2018/08/10 17:49:28","新北市汐止區汐萬路一段160號","121.652601666667","25.071545","6501100","汐止區"
"221033","647-BX","2018/08/10 17:49:43","新北市汐止區橫科路119號","121.619893333333","25.0503366666667","6501100","汐止區"
"221018","753-BX","2018/08/10 17:49:33","新北市汐止區汐萬路一段191號","121.652526666667","25.07166","6501100","汐止區"
"242015","281-VK","2018/08/10 17:49:34","新北市新莊區新泰路500號","121.442368333333","25.045885","6500500","新莊區"
"220054","630-UY","2018/08/10 17:46:58","新北市板橋區華東街1-9號","121.44805","24.9949283333333","6500100","板橋區"
