"lineid","car","time","location","longitude","latitude","cityid","cityname"
"234026","9371-KE","2018/08/10 17:59:32","新北市永和區永和路一段123巷5號","121.513855","25.0082983333333","6500400","永和區"
"249005","172-UM","2018/08/10 17:59:21","新北市八里區荖阡坑路20-9號","121.398363333333","25.13691","6502300","八里區"
"249001","173-UM","2018/08/10 17:59:28","新北市八里區龍米路二段35號","121.448486666667","25.1400633333333","6502300","八里區"
"249004","303-UY","2018/08/10 17:59:41","新北市八里區大崁腳47-3號","121.424478333333","25.159035","6502300","八里區"
"249002","305-UY","2018/08/10 17:59:37","新北市八里區龍米路一段428巷1號","121.451081666667","25.1339016666667","6502300","八里區"
"249003","593-UM","2018/08/10 17:59:37","新北市八里區中華路二段205巷20弄20-5號","121.405978333333","25.1489383333333","6502300","八里區"
"248006","077-UY","2018/08/10 17:59:26","新北市五股區中興路二段83巷26-6號","121.459746666667","25.075205","6501500","五股區"
"248008","095-VK","2018/08/10 17:59:29","新北市五股區中興路二段150號","121.458615","25.078555","6501500","五股區"
"248018","225-UY","2018/08/10 17:59:41","新北市五股區中興路二段83巷26-6號","121.459793333333","25.0751933333333","6501500","五股區"
"248004","677-BX","2018/08/10 17:59:25","新北市五股區中興路二段161號","121.457866666667","25.0770966666667","6501500","五股區"
"232011","375-UM","2018/08/10 17:59:37","新北市坪林區北宜路八段298號","121.710456666667","24.9352633333333","6502000","坪林區"
"244017","069-UM","2018/08/10 17:59:28","新北市林口區忠孝路372號","121.369283333333","25.0713883333333","6501700","林口區"
"244007","080-UY","2018/08/10 17:59:24","新北市林口區林口路78號","121.389121666667","25.0806383333333","6501700","林口區"
"244019","403-UM","2018/08/10 17:59:26","新北市林口區文化一路一段112號","121.373873333333","25.0714933333333","6501700","林口區"
"244013","KEA-2802","2018/08/10 17:59:41","新北市林口區中山路73號","121.392895","25.07855","6501700","林口區"
"244009","410-SL","2018/08/10 17:59:44","新北市林口區竹林路606巷7號","121.385883333333","25.0826616666667","6501700","林口區"
"244023","483-VK","2018/08/10 17:59:38","新北市林口區東湖一街71號","121.385358333333","25.072485","6501700","林口區"
"244011","657-BX","2018/08/10 17:59:27","新北市林口區林口路1號","121.39182","25.0775283333333","6501700","林口區"
"244025","837-TS","2018/08/10 17:59:31","新北市林口區三民路77-1號","121.358805","25.0682033333333","6501700","林口區"
"244021","838-TS","2018/08/10 17:59:35","新北市林口區新寮45號","121.404276666667","25.06445","6501700","林口區"
"222003","436-BY","2018/08/10 17:59:30","新北市深坑區炮子崙23號","121.607211666667","24.9909416666667","6501800","深坑區"
"222002","659-BX","2018/08/10 17:59:26","新北市深坑區文化街96號","121.617113333333","25.001925","6501800","深坑區"
"231046","107-UY","2018/08/10 17:59:40","新北市新店區直潭路113號","121.532768333333","24.933525","6500600","新店區"
"231055","AKT-0513","2018/08/10 17:59:29","新北市新店區安華路28-1號","121.51954","24.9607","6500600","新店區"
"241024","065-VK","2018/08/10 17:59:38","新北市三重區國道路一段58巷17號","121.48149","25.0719916666667","6500200","三重區"
"241016","266-UM","2018/08/10 17:59:40","新北市三重區新北大道一段3-1號","121.489986666667","25.06151","6500200","三重區"
"241033","AAC-255","2018/08/10 17:59:36","新北市三重區重新路五段617號","121.468081666667","25.0442133333333","6500200","三重區"
"235064","005-UY","2018/08/10 17:59:27","新北市中和區員山路36巷16-3號","121.484953333333","24.9914833333333","6500300","中和區"
"235056","096-UM","2018/08/10 17:59:41","新北市中和區員山路36巷13號","121.484251666667","24.991655","6500300","中和區"
"235065","098-UM","2018/08/10 17:59:32","新北市中和區中山路二段472號","121.488175","25.0048016666667","6500300","中和區"
"235058","151-BY","2018/08/10 17:59:41","新北市中和區圓通路367巷20弄1號","121.49218","24.98807","6500300","中和區"
"235038","185-VK","2018/08/10 17:59:25","新北市中和區中正路252號","121.495591666667","24.9939483333333","6500300","中和區"
"235054","640-BX","2018/08/10 17:59:26","新北市中和區員山路72號","121.480893333333","24.9935783333333","6500300","中和區"
"235053","900-TW","2018/08/10 17:59:23","新北市中和區員山路36巷16-3號","121.484986666667","24.9918266666667","6500300","中和區"
"235051","157-BY","2018/08/10 17:59:31","新北市中和區員山路36巷13號","121.48421","24.9908933333333","6500300","中和區"
"235037","AAC-213","2018/08/10 17:59:35","新北市中和區錦和路350-1號","121.490476666667","24.9935266666667","6500300","中和區"
"247024","893-R6","2018/08/10 17:59:34","新北市蘆洲區長榮路52號","121.462796666667","25.0831683333333","6501400","蘆洲區"
"247014","546-UM","2018/08/10 17:59:41","新北市蘆洲區忠孝路51號","121.471371666667","25.08648","6501400","蘆洲區"
"247022","500-BY","2018/08/10 17:59:25","新北市蘆洲區中正路507號","121.46144","25.0972116666667","6501400","蘆洲區"
"247006","336-TH","2018/08/10 17:59:33","新北市蘆洲區中華街6號","121.463586666667","25.0816833333333","6501400","蘆洲區"
"247016","007-UY","2018/08/10 17:59:40","新北市蘆洲區中正路185巷78弄21號","121.46554","25.084995","6501400","蘆洲區"
"247002","002-UY","2018/08/10 17:59:43","新北市蘆洲區永平街32巷72號","121.460388333333","25.0935033333333","6501400","蘆洲區"
"247020","001-UY","2018/08/10 17:59:37","新北市蘆洲區民義街9巷18號","121.471098333333","25.089165","6501400","蘆洲區"
"226004","205-ST","2018/08/10 17:59:38","新北市平溪區石底里石筍尖23號","121.728775","25.0249266666667","6502400","平溪區"
"235059","251-BX","2018/08/10 17:59:37","新北市中和區員山路36巷16-3號","121.485088333333","24.9911883333333","6500300","中和區"
"228001","212-TW","2018/08/10 17:59:39","新北市貢寮區真理里新港街26巷53號","121.928598333333","25.053565","6502600","貢寮區"
"228002","663-BX","2018/08/10 17:59:28","新北市貢寮區福隆里桂安街17號","121.967091666667","25.0231033333333","6502600","貢寮區"
"228003","828-UM","2018/08/10 17:59:40","新北市貢寮區真理里美艷山街6-2號","121.928826666667","25.060735","6502600","貢寮區"
"224010","AGQ-8101","2018/08/10 17:59:43","新北市瑞芳區汽車路87號","121.843281666667","25.10974","6501200","瑞芳區"
"224006","676-BX","2018/08/10 17:59:33","新北市瑞芳區大寮路356-1號","121.784845","25.103245","6501200","瑞芳區"
"224002","639-TC","2018/08/10 17:59:29","新北市瑞芳區三爪子坑路32巷1號","121.810305","25.1060033333333","6501200","瑞芳區"
"224008","285-BY","2018/08/10 17:59:30","新北市瑞芳區員山子路23號","121.821548333333","25.1029433333333","6501200","瑞芳區"
"224009","273-VK","2018/08/10 17:59:37","新北市瑞芳區金光路243號","121.851241666667","25.107855","6501200","瑞芳區"
"224005","271-BY","2018/08/10 17:59:39","新北市瑞芳區深澳路163號","121.819808333333","25.13295","6501200","瑞芳區"
"227003","642-TC","2018/08/10 17:59:32","新北市雙溪區共和里東榮街52號","121.866318333333","25.0337133333333","6502500","雙溪區"
"253005","032-BX","2018/08/10 17:59:22","新北市石門區中山路62-11號","121.567545","25.2896533333333","6502200","石門區"
"222001","KEA-2212","2018/08/10 17:59:25","新北市深坑區北深路三段34號","121.60906","25.0010283333333","6501800","深坑區"
"208002","KEA-2872","2018/08/10 17:59:30","新北市金山區三界壇路35號","121.627536666667","25.2279233333333","6502700","金山區"
"208003","665-BX","2018/08/10 17:59:34","新北市金山區磺港里磺港路314號","121.644708333333","25.2277466666667","6502700","金山區"
"208001","761-BX","2018/08/10 17:59:38","新北市金山區磺港里磺港路228號","121.644545","25.2256583333333","6502700","金山區"
"251005","010-UM","2018/08/10 17:59:28","新北市淡水區英專路135號","121.44649","25.1726916666667","6501000","淡水區"
"251001","011-UM","2018/08/10 17:59:24","新北市淡水區民權路94巷1號","121.463093333333","25.124825","6501000","淡水區"
"251002","012-UM","2018/08/10 17:59:42","新北市淡水區中正東路8號","121.447905","25.1665266666667","6501000","淡水區"
"251008","181-VK","2018/08/10 17:59:29","新北市淡水區八勢一街23號","121.46166","25.156375","6501000","淡水區"
"251010","413-VK","2018/08/10 17:59:25","新北市淡水區中正路一段87巷1號","121.421661666667","25.1790966666667","6501000","淡水區"
"251012","441-VK","2018/08/10 17:59:39","新北市淡水區北新路三段38巷7號","121.484515","25.1870066666667","6501000","淡水區"
"251004","443-VK","2018/08/10 17:59:33","新北市淡水區民權路42號","121.460076666667","25.1371316666667","6501000","淡水區"
"251006","561-UM","2018/08/10 17:59:42","新北市淡水區真理街4-5號","121.438186666667","25.1731383333333","6501000","淡水區"
"251009","575-R6","2018/08/10 17:59:32","新北市淡水區大仁街6巷1號","121.442451666667","25.17463","6501000","淡水區"
"251007","577-R6","2018/08/10 17:59:34","新北市淡水區中正東路二段145號","121.459521666667","25.1473516666667","6501000","淡水區"
"251011","650-BX","2018/08/10 17:59:29","新北市淡水區三空泉9-2號","121.473976666667","25.1637416666667","6501000","淡水區"
"251003","673-BX","2018/08/10 17:59:28","新北市淡水區大忠街47號","121.444703333333","25.1764483333333","6501000","淡水區"
"207003","291-VK","2018/08/10 17:59:39","新北市萬里區港東路野柳風景區攤販66號","121.691323333333","25.20585","6502800","萬里區"
"207004","225-TW","2018/08/10 17:59:32","新北市萬里區中幅里中福路48號","121.683241666667","25.17406","6502800","萬里區"
"252002","178-VK","2018/08/10 17:59:42","新北市三芝區中山路二段39號","121.502965","25.2551183333333","6502100","三芝區"
"252001","292-VK","2018/08/10 17:59:27","新北市三芝區中興街二段2號","121.498465","25.2566566666667","6502100","三芝區"
"237004","KEA-2597","2018/08/10 17:59:42","新北市三峽區中園街205號","121.36703","24.9208216666667","6500900","三峽區"
"237007","153-BY","2018/08/10 17:59:26","新北市三峽區中園街112號","121.367161666667","24.92278","6500900","三峽區"
"237009","210-TH","2018/08/10 17:59:33","新北市三峽區中山路106巷15號","121.366075","24.9362633333333","6500900","三峽區"
"237013","252-BX","2018/08/10 17:59:27","新北市三峽區介壽路一段57-1號","121.375655","24.9328633333333","6500900","三峽區"
"237012","275-BY","2018/08/10 17:59:43","新北市三峽區民生街19巷3-1號","121.376181666667","24.9360516666667","6500900","三峽區"
"237008","302-VK","2018/08/10 17:59:36","新北市三峽區正義街181號","121.368133333333","24.9148733333333","6500900","三峽區"
"237014","433-BY","2018/08/10 17:59:28","新北市三峽區復興路141-1號","121.370931666667","24.937795","6500900","三峽區"
"237006","5529-G3","2018/08/10 17:59:41","新北市三峽區介壽路二段138巷1弄106號","121.397728333333","24.9310966666667","6500900","三峽區"
"237011","KEA-2596","2018/08/10 17:59:38","新北市三峽區光明路69巷3號","121.375941666667","24.9286916666667","6500900","三峽區"
"237015","649-BX","2018/08/10 17:59:39","新北市三峽區紫微路105號","121.409413333333","24.9120466666667","6500900","三峽區"
"237010","706-TV","2018/08/10 17:59:38","新北市三峽區中山路49號","121.367986666667","24.9345566666667","6500900","三峽區"
"237005","AKY-6261","2018/08/10 17:59:43","新北市三峽區復興路235號","121.368463333333","24.93889","6500900","三峽區"
"236069","105-UM","2018/08/10 17:59:38","新北市土城區城林路6巷80號","121.438396666667","24.97998","6501300","土城區"
"236042","107-UM","2018/08/10 17:59:35","新北市土城區城林路6巷80號","121.438511666667","24.9796483333333","6501300","土城區"
"236079","166-UM","2018/08/10 17:59:38","新北市土城區永寧路32巷10弄83號","121.428235","24.9615316666667","6501300","土城區"
"236030","253-BX","2018/08/10 17:59:38","新北市土城區城林路6巷80號","121.438631666667","24.9796883333333","6501300","土城區"
"236026","269-VK","2018/08/10 17:59:30","新北市土城區承天路18號","121.439425","24.9634216666667","6501300","土城區"
"236014","270-VK","2018/08/10 17:59:44","新北市土城區城林路6巷80號","121.438538333333","24.9796166666667","6501300","土城區"
"236039","271-VK","2018/08/10 17:59:25","新北市土城區城林路6巷80號","121.438426666667","24.9796","6501300","土城區"
"236020","401-BY","2018/08/10 17:59:44","新北市土城區城林路6巷80號","121.438735","24.9796883333333","6501300","土城區"
"236059","912-UM","2018/08/10 17:59:40","新北市土城區中央路三段238-5號","121.428286666667","24.9642616666667","6501300","土城區"
"236048","913-UM","2018/08/10 17:59:32","新北市土城區城林路6巷80號","121.438636666667","24.9796633333333","6501300","土城區"
"236063","915-UM","2018/08/10 17:59:24","新北市土城區城林路6巷80號","121.4385","24.9797683333333","6501300","土城區"
"236055","AAC-216","2018/08/10 17:59:33","新北市土城區城林路6巷80號","121.438471666667","24.9797166666667","6501300","土城區"
"242034","AAC-296","2018/08/10 17:59:24","新北市新莊區中正路421巷17號","121.444745","25.0335216666667","6500500","新莊區"
"242058","986-R7","2018/08/10 17:59:30","新北市新莊區新北大道七段241號","121.412948333333","25.0297083333333","6500500","新莊區"
"242054","751-BX","2018/08/10 17:59:40","新北市新莊區民安西路403巷1號","121.429675","25.0099366666667","6500500","新莊區"
"242025","705-TV","2018/08/10 17:59:43","新北市新莊區新北大道二段318號","121.463256666667","25.0611466666667","6500500","新莊區"
"242027","615-BX","2018/08/10 17:59:37","新北市新莊區思源路338號","121.459993333333","25.051175","6500500","新莊區"
"242041","566-BX","2018/08/10 17:59:36","新北市新莊區中正路668號","121.420881666667","25.02888","6500500","新莊區"
"242046","497-BY","2018/08/10 17:59:31","新北市新莊區中正路649-5號","121.43068","25.0306316666667","6500500","新莊區"
"242050","441-UM","2018/08/10 17:59:29","新北市新莊區民安西路135號","121.426501666667","25.0177066666667","6500500","新莊區"
"242056","440-UM","2018/08/10 17:59:29","新北市新莊區豐年街124巷24號","121.44543","25.0299083333333","6500500","新莊區"
"242037","415-TV","2018/08/10 17:59:33","新北市新莊區建福路51號","121.426688333333","25.0275916666667","6500500","新莊區"
"242007","413-TV","2018/08/10 17:59:41","新北市新莊區自信街34號","121.454395","25.048285","6500500","新莊區"
"242044","400-BY","2018/08/10 17:59:34","新北市新莊區雙鳳路168號","121.412775","25.02697","6500500","新莊區"
"242023","362-BY","2018/08/10 17:59:43","新北市新莊區福壽街65號","121.458218333333","25.0493183333333","6500500","新莊區"
"242060","353-BY","2018/08/10 17:59:37","新北市新莊區新樹路493號","121.432686666667","25.012235","6500500","新莊區"
"242009","132-UY","2018/08/10 17:59:32","新北市新莊區中華路二段260號","121.452563333333","25.0531616666667","6500500","新莊區"
"242039","133-UY","2018/08/10 17:59:43","新北市新莊區民安西路22號","121.426708333333","25.0213933333333","6500500","新莊區"
"242032","135-UY","2018/08/10 17:59:31","新北市新莊區新泰路291號","121.445488333333","25.0407166666667","6500500","新莊區"
"242048","172-VK","2018/08/10 17:59:37","新北市新莊區萬安街57巷26號","121.422625","25.0238633333333","6500500","新莊區"
"242011","173-VK","2018/08/10 17:59:33","新北市新莊區中原路235巷1弄2號","121.449765","25.0539783333333","6500500","新莊區"
"242017","175-VK","2018/08/10 17:59:43","新北市新莊區永樂街170號","121.448546666667","25.0447883333333","6500500","新莊區"
"242005","176-VK","2018/08/10 17:59:30","新北市新莊區自由街6號","121.455763333333","25.047925","6500500","新莊區"
"242013","347-TH","2018/08/10 17:59:34","新北市新莊區幸福路820號","121.445386666667","25.0490933333333","6500500","新莊區"
"242021","348-TH","2018/08/10 17:59:41","新北市新莊區建興街3號","121.450093333333","25.0358966666667","6500500","新莊區"
"242002","349-TH","2018/08/10 17:59:40","新北市新莊區中正路147-5號","121.45774","25.0371433333333","6500500","新莊區"
"242019","350-TH","2018/08/10 17:59:26","新北市新莊區明中街49巷15號","121.456746666667","25.038945","6500500","新莊區"
"238015","755-BX","2018/08/10 17:59:36","新北市樹林區啟智街80巷18號","121.418701666667","24.9925616666667","6500700","樹林區"
"238023","601-UM","2018/08/10 17:59:41","新北市樹林區龍興街46巷3號","121.402821666667","25.01539","6500700","樹林區"
"238019","599-UM","2018/08/10 17:59:45","新北市樹林區國凱街160號","121.424345","24.9808383333333","6500700","樹林區"
"238018","571-TV","2018/08/10 17:59:27","新北市樹林區中正路241號","121.430231666667","24.9986083333333","6500700","樹林區"
"238024","5061-A6","2018/08/10 17:59:26","新北市樹林區中山路三段210-2號","121.380726666667","24.9661333333333","6500700","樹林區"
"238022","KEA-2213","2018/08/10 17:59:41","新北市樹林區太平路150巷15號","121.417841666667","24.97759","6500700","樹林區"
"238021","KEA-2539","2018/08/10 17:59:41","新北市樹林區柑園街一段188號","121.395583333333","24.9566","6500700","樹林區"
"238025","303-VK","2018/08/10 17:59:25","新北市樹林區三俊街45號","121.412641666667","25.015675","6500700","樹林區"
"238017","283-BY","2018/08/10 17:59:36","新北市樹林區三德街1號","121.412755","25.012755","6500700","樹林區"
"238014","282-BY","2018/08/10 17:59:41","新北市樹林區大安路123號","121.4223","24.99763","6500700","樹林區"
"238020","268-VK","2018/08/10 17:59:38","新北市樹林區三俊街145號","121.418506666667","25.0156066666667","6500700","樹林區"
"238026","172-UY","2018/08/10 17:59:30","新北市樹林區佳園路一段38號","121.392761666667","24.9707533333333","6500700","樹林區"
"238016","169-UY","2018/08/10 17:59:45","新北市樹林區育英街135巷1弄1號","121.41959","24.98906","6500700","樹林區"
"239007","AAC-297","2018/08/10 17:59:29","新北市鶯歌區永樂街7號","121.341788333333","24.95313","6500800","鶯歌區"
"239006","891-R6","2018/08/10 17:59:29","新北市鶯歌區鶯桃路455巷6弄1號","121.331776666667","24.9646833333333","6500800","鶯歌區"
"239008","527-UM","2018/08/10 17:59:37","新北市鶯歌區明圓街4號","121.33643","24.97744","6500800","鶯歌區"
"239005","526-UM","2018/08/10 17:59:27","新北市鶯歌區鶯桃路668巷73號","121.329883333333","24.9718","6500800","鶯歌區"
"239001","417-VK","2018/08/10 17:59:40","新北市鶯歌區中正三路69號","121.338725","24.941275","6500800","鶯歌區"
"239003","360-BY","2018/08/10 17:59:44","新北市鶯歌區永吉街9巷2號","121.336446666667","24.9582966666667","6500800","鶯歌區"
"239002","359-BY","2018/08/10 17:59:27","新北市鶯歌區光明街94號","121.346341666667","24.95589","6500800","鶯歌區"
"239004","193-VK","2018/08/10 17:59:37","新北市鶯歌區尖山路137巷5弄2衖9號","121.347671666667","24.9483266666667","6500800","鶯歌區"
"221036","130-UY","2018/08/10 17:59:31","新北市汐止區大同路三段62巷1號","121.667621666667","25.0769966666667","6501100","汐止區"
"221015","131-UY","2018/08/10 17:59:36","新北市汐止區長江街341號","121.667228333333","25.0819966666667","6501100","汐止區"
"221010","269-BY","2018/08/10 17:59:25","新北市汐止區汐萬路二段247號","121.646368333333","25.0882183333333","6501100","汐止區"
"221012","278-VK","2018/08/10 17:59:36","新北市汐止區長興街二段50巷11號","121.674306666667","25.081525","6501100","汐止區"
"221023","279-VK","2018/08/10 17:59:40","新北市汐止區明峰街160號","121.629271666667","25.0705183333333","6501100","汐止區"
"221032","280-BY","2018/08/10 17:59:28","新北市汐止區大同路一段44號","121.622211666667","25.0549133333333","6501100","汐止區"
"221027","281-BY","2018/08/10 17:59:45","新北市汐止區汐萬路一段18號","121.656056666667","25.0674733333333","6501100","汐止區"
"221008","297-VK","2018/08/10 17:59:42","新北市汐止區明峰街37號","121.633756666667","25.0713366666667","6501100","汐止區"
"221029","298-VK","2018/08/10 17:59:37","新北市汐止區樟樹二路332號","121.641551666667","25.070355","6501100","汐止區"
"221021","299-VK","2018/08/10 17:59:43","新北市汐止區復興路23號","121.656121666667","25.0651866666667","6501100","汐止區"
"221031","353-TW","2018/08/10 17:59:39","新北市汐止區中興路194號","121.631426666667","25.0658283333333","6501100","汐止區"
"221002","129-UY","2018/08/10 17:59:38","新北市汐止區中興路31號","121.634833333333","25.061835","6501100","汐止區"
"221035","622-UM","2018/08/10 17:59:44","新北市汐止區汐萬路一段115巷50號","121.652898333333","25.0701383333333","6501100","汐止區"
"221025","623-UM","2018/08/10 17:59:41","新北市汐止區仁愛路45號","121.659646666667","25.0633083333333","6501100","汐止區"
"221038","646-BX","2018/08/10 17:59:32","新北市汐止區連興街128巷7弄5號","121.653506666667","25.06136","6501100","汐止區"
"221033","647-BX","2018/08/10 17:59:23","新北市汐止區合順街39巷4號","121.620708333333","25.0433233333333","6501100","汐止區"
"221018","753-BX","2018/08/10 17:59:33","新北市汐止區招商街11巷1號","121.666525","25.0688883333333","6501100","汐止區"
"242015","281-VK","2018/08/10 17:59:34","新北市新莊區中平路87巷8號","121.44421","25.0459716666667","6500500","新莊區"
"220054","630-UY","2018/08/10 17:46:58","新北市板橋區華東街1-9號","121.44805","24.9949283333333","6500100","板橋區"
