"lineid","car","time","location","longitude","latitude","cityid","cityname"
"234026","9371-KE","2018/08/10 18:09:32","新北市永和區水源街6號","121.512765","25.0050483333333","6500400","永和區"
"249005","172-UM","2018/08/10 18:09:41","新北市八里區荖阡坑路15-40號","121.401675","25.1398016666667","6502300","八里區"
"249001","173-UM","2018/08/10 18:09:28","新北市八里區龍米路二段35號","121.44847","25.1400233333333","6502300","八里區"
"249004","303-UY","2018/08/10 18:09:41","新北市八里區龍米路二段150號","121.435868333333","25.1568516666667","6502300","八里區"
"249002","305-UY","2018/08/10 18:09:37","新北市八里區龍米路一段386巷8號","121.452331666667","25.13183","6502300","八里區"
"249003","593-UM","2018/08/10 18:09:37","新北市八里區松子腳3-2號","121.40302","25.1444266666667","6502300","八里區"
"248006","077-UY","2018/08/10 18:09:43","新北市五股區中興路二段61號","121.461516666667","25.07674","6501500","五股區"
"248008","095-VK","2018/08/10 18:09:29","新北市蘆洲區永安南路二段324號","121.456976666667","25.0828616666667","6501500","五股區"
"248018","225-UY","2018/08/10 18:09:41","新北市五股區成泰路三段93號","121.4439","25.090225","6501500","五股區"
"248014","261-SL","2018/08/10 18:09:40","新北市五股區成泰路一段231-13號","121.435453333333","25.0777416666667","6501500","五股區"
"248010","272-BY","2018/08/10 18:09:42","新北市五股區成泰路一段216號","121.43667","25.079105","6501500","五股區"
"248004","677-BX","2018/08/10 18:09:25","新北市五股區中興路三段165號","121.446386666667","25.0806383333333","6501500","五股區"
"232011","375-UM","2018/08/10 18:09:37","新北市坪林區國中路4號","121.71342","24.9387816666667","6502000","坪林區"
"244017","069-UM","2018/08/10 18:09:28","新北市林口區八德路36號","121.367705","25.0666583333333","6501700","林口區"
"244007","080-UY","2018/08/10 18:09:44","新北市林口區林口路124巷10弄1號","121.389081666667","25.081875","6501700","林口區"
"244019","403-UM","2018/08/10 18:09:26","新北市林口區文化一路一段100巷10弄1號","121.373955","25.070755","6501700","林口區"
"244013","KEA-2802","2018/08/10 18:09:41","新北市林口區中山路150-1號","121.391145","25.0788233333333","6501700","林口區"
"244009","410-SL","2018/08/10 18:09:24","新北市林口區福林路33號","121.379893333333","25.0884233333333","6501700","林口區"
"244023","483-VK","2018/08/10 18:09:38","新北市林口區東湖路117巷22號","121.383231666667","25.07255","6501700","林口區"
"244011","657-BX","2018/08/10 18:09:28","新北市林口區中正路30巷24號","121.396121666667","25.0780516666667","6501700","林口區"
"244025","837-TS","2018/08/10 18:09:31","新北市林口區南勢二街138號","121.358596666667","25.0729083333333","6501700","林口區"
"244021","838-TS","2018/08/10 18:09:35","新北市林口區自強四街1號","121.39872","25.0769266666667","6501700","林口區"
"243013","AAD-798","2018/08/10 18:09:36","新北市泰山區南林路99巷8-1號","121.416458333333","25.0495133333333","6501600","泰山區"
"222003","436-BY","2018/08/10 18:09:30","新北市深坑區阿柔洋45號","121.612248333333","24.9979883333333","6501800","深坑區"
"222002","659-BX","2018/08/10 18:09:44","新北市深坑區文化街52號","121.618973333333","25.001755","6501800","深坑區"
"231041","002-UM","2018/08/10 18:09:36","新北市新店區安華路28-1號","121.51972","24.9608116666667","6500600","新店區"
"231059","046-UY","2018/08/10 18:09:30","新北市新店區安一路一段1-1號","121.519556666667","24.96103","6500600","新店區"
"231040","047-UY","2018/08/10 18:09:31","新北市新店區安一路一段1-1號","121.519175","24.96106","6500600","新店區"
"231044","106-UY","2018/08/10 18:09:35","新北市新店區安華路28-1號","121.5197","24.960735","6500600","新店區"
"231046","107-UY","2018/08/10 18:09:40","新北市新店區直潭七街60號","121.53221","24.93991","6500600","新店區"
"231053","108-UY","2018/08/10 18:08:59","新北市新店區安康路一段299-1號","121.522211666667","24.9636966666667","6500600","新店區"
"231065","110-UY","2018/08/10 18:09:26","新北市新店區安一路一段1-1號","121.519111666667","24.961315","6500600","新店區"
"231048","187-VK","2018/08/10 18:09:31","新北市新店區安一路一段1-1號","121.519845","24.961085","6500600","新店區"
"231054","KEA-2219","2018/08/10 18:09:29","新北市新店區安一路一段1-1號","121.519943333333","24.9611916666667","6500600","新店區"
"231042","268-BY","2018/08/10 18:09:45","新北市新店區安華路28-1號","121.519425","24.9607316666667","6500600","新店區"
"231051","278-BY","2018/08/10 18:09:45","新北市新店區安一路一段1-1號","121.519673333333","24.9611466666667","6500600","新店區"
"231050","AAD-862","2018/08/10 18:09:42","新北市新店區安一路一段1-1號","121.520066666667","24.96115","6500600","新店區"
"231066","4716-K9","2018/08/10 18:09:33","新北市新店區安一路一段1-1號","121.51923","24.96115","6500600","新店區"
"231056","4715-K9","2018/08/10 18:09:37","新北市新店區安康路一段107-2號","121.5288","24.961595","6500600","新店區"
"231067","4772-VM","2018/08/10 18:09:41","新北市新店區安華路3號","121.51903","24.9604966666667","6500600","新店區"
"231049","513-UM","2018/08/10 18:09:31","新北市新店區安一路一段1-1號","121.519491666667","24.9611116666667","6500600","新店區"
"231061","619-UM","2018/08/10 18:09:29","新北市新店區安華路28-1號","121.519451666667","24.960835","6500600","新店區"
"231063","641-BX","2018/08/10 18:09:39","新北市新店區安華路28-1號","121.519516666667","24.96071","6500600","新店區"
"231062","720-UM","2018/08/10 18:09:34","新北市新店區安一路一段1-1號","121.518965","24.96169","6500600","新店區"
"231060","897-TW","2018/08/10 18:09:37","新北市新店區安華路28-1號","121.519543333333","24.9607583333333","6500600","新店區"
"231055","AKT-0513","2018/08/10 18:09:29","新北市新店區安一路一段1-1號","121.519785","24.9614","6500600","新店區"
"241024","065-VK","2018/08/10 18:09:38","新北市三重區中正北路189號","121.477343333333","25.0695216666667","6500200","三重區"
"241033","AAC-255","2018/08/10 18:09:36","新北市三重區光復路一段68巷39號","121.469771666667","25.0493166666667","6500200","三重區"
"235064","005-UY","2018/08/10 18:09:27","新北市中和區中正路192號","121.497528333333","24.9937616666667","6500300","中和區"
"235063","006-UY","2018/08/10 18:09:28","新北市中和區員山路36巷16-3號","121.484916666667","24.9913716666667","6500300","中和區"
"235056","096-UM","2018/08/10 18:09:41","新北市中和區連城路469-1號","121.483586666667","24.9958333333333","6500300","中和區"
"235065","098-UM","2018/08/10 18:09:32","新北市中和區莊敬路49巷27號","121.501603333333","25.0061716666667","6500300","中和區"
"235058","151-BY","2018/08/10 18:09:41","新北市中和區圓通路367巷62號","121.492781666667","24.98306","6500300","中和區"
"235038","185-VK","2018/08/10 18:09:45","新北市中和區景平路342號","121.511565","24.9928333333333","6500300","中和區"
"235042","KEA-2878","2018/08/10 18:09:38","新北市中和區景平路275號","121.507865","24.9929783333333","6500300","中和區"
"235050","4979-A6","2018/08/10 18:09:35","新北市中和區中正路395號","121.489951666667","24.9935633333333","6500300","中和區"
"235069","4980-A6","2018/08/10 18:09:32","新北市中和區錦和路350-1號","121.49001","24.9935566666667","6500300","中和區"
"235034","558-UM","2018/08/10 18:09:32","新北市中和區圓通路176號","121.496936666667","24.994445","6500300","中和區"
"235045","565-BX","2018/08/10 18:09:30","新北市中和區錦和路350-1號","121.490525","24.9935883333333","6500300","中和區"
"235054","640-BX","2018/08/10 18:09:26","新北市中和區莒光路203號","121.472393333333","24.9987466666667","6500300","中和區"
"235047","732-UM","2018/08/10 18:09:30","新北市中和區錦和路350-1號","121.490528333333","24.9935966666667","6500300","中和區"
"235062","800-TS","2018/08/10 18:09:30","新北市中和區民樂路81號","121.484831666667","25.0013016666667","6500300","中和區"
"235057","801-TS","2018/08/10 18:09:39","新北市中和區中正路637巷52弄1號","121.485345","24.9936116666667","6500300","中和區"
"235052","805-TS","2018/08/10 18:09:38","新北市中和區中正路395號","121.489906666667","24.993565","6500300","中和區"
"235053","900-TW","2018/08/10 18:09:42","新北市中和區員山路36巷16-2號","121.48502","24.991845","6500300","中和區"
"235051","157-BY","2018/08/10 18:09:31","新北市中和區復興路279-1號","121.502238333333","24.99024","6500300","中和區"
"235037","AAC-213","2018/08/10 18:09:35","新北市中和區景平路183號","121.511753333333","24.9925616666667","6500300","中和區"
"247024","893-R6","2018/08/10 18:08:54","新北市五股區中興路三段2巷10號","121.449248333333","25.0808033333333","6501400","蘆洲區"
"226004","205-ST","2018/08/10 18:09:38","新北市平溪區白石里白石腳5號","121.721485","25.0214883333333","6502400","平溪區"
"235059","251-BX","2018/08/10 18:09:37","新北市中和區員山路36巷16-3號","121.485081666667","24.9911083333333","6500300","中和區"
"228001","212-TW","2018/08/10 18:09:39","新北市貢寮區真理里新港街26巷55弄2-1號","121.927371666667","25.05287","6502600","貢寮區"
"228002","663-BX","2018/08/10 18:09:28","新北市貢寮區福連里福興街37-2號","121.992205","25.0117033333333","6502600","貢寮區"
"228003","828-UM","2018/08/10 18:09:40","新北市貢寮區真理里美艷山街6-2號","121.92881","25.06074","6502600","貢寮區"
"224010","AGQ-8101","2018/08/10 18:04:43","新北市瑞芳區烏勢巷145號","121.847843333333","25.109085","6501200","瑞芳區"
"224006","676-BX","2018/08/10 18:09:33","新北市瑞芳區中山路139號","121.803005","25.106345","6501200","瑞芳區"
"224002","639-TC","2018/08/10 18:09:30","新北市瑞芳區三爪子坑路149巷22-23號","121.811453333333","25.1063233333333","6501200","瑞芳區"
"224008","285-BY","2018/08/10 18:09:30","新北市瑞芳區員山子路23號","121.821518333333","25.1029666666667","6501200","瑞芳區"
"224009","273-VK","2018/08/10 18:09:37","新北市瑞芳區金光路115號","121.853645","25.1062716666667","6501200","瑞芳區"
"224005","271-BY","2018/08/10 18:09:39","新北市瑞芳區深澳路2號","121.816536666667","25.12877","6501200","瑞芳區"
"227003","642-TC","2018/08/10 18:09:32","新北市雙溪區共和里東榮街42號","121.866248333333","25.0338333333333","6502500","雙溪區"
"253005","032-BX","2018/08/10 18:09:22","新北市石門區福安街7號","121.568421666667","25.292825","6502200","石門區"
"222001","KEA-2212","2018/08/10 18:09:45","新北市深坑區北深路二段151號","121.614098333333","25.0021216666667","6501800","深坑區"
"208002","KEA-2872","2018/08/10 18:09:37","新北市金山區三界壇路99巷1號","121.622383333333","25.2291333333333","6502700","金山區"
"208003","665-BX","2018/08/10 18:09:34","新北市金山區磺港里磺港路54號","121.647766666667","25.2282466666667","6502700","金山區"
"208001","761-BX","2018/08/10 18:09:38","新北市金山區磺港里磺港路74號","121.647581666667","25.2268683333333","6502700","金山區"
"251005","010-UM","2018/08/10 18:09:28","新北市淡水區水源街一段141號","121.44721","25.1719266666667","6501000","淡水區"
"251001","011-UM","2018/08/10 18:09:24","新北市淡水區自立路8-2號","121.46282","25.12959","6501000","淡水區"
"251002","012-UM","2018/08/10 18:09:42","新北市淡水區中正東路一段127巷2號","121.455413333333","25.1594016666667","6501000","淡水區"
"251008","181-VK","2018/08/10 18:09:29","新北市淡水區坪頂路70巷35號","121.46009","25.1608316666667","6501000","淡水區"
"251010","413-VK","2018/08/10 18:09:25","新北市淡水區中正路二段52號","121.41983","25.18337","6501000","淡水區"
"251012","441-VK","2018/08/10 18:09:39","新北市淡水區北新路三段171號","121.49141","25.1913883333333","6501000","淡水區"
"251004","443-VK","2018/08/10 18:09:40","新北市淡水區民權路187巷85號","121.461378333333","25.1346883333333","6501000","淡水區"
"251006","561-UM","2018/08/10 18:09:42","新北市淡水區真理街3巷24-1號","121.437765","25.17649","6501000","淡水區"
"251009","575-R6","2018/08/10 18:09:32","新北市淡水區大忠街50號","121.44388","25.17586","6501000","淡水區"
"251007","577-R6","2018/08/10 18:09:34","新北市淡水區中正東路二段143巷2弄1號","121.460713333333","25.1473916666667","6501000","淡水區"
"251011","650-BX","2018/08/10 18:09:29","新北市淡水區三空泉9-1號","121.475001666667","25.1627516666667","6501000","淡水區"
"251003","673-BX","2018/08/10 18:09:28","新北市淡水區大忠街113巷22號","121.447315","25.1774233333333","6501000","淡水區"
"207003","291-VK","2018/08/10 18:09:39","新北市萬里區野柳里港西路70-3號","121.685441666667","25.20477","6502800","萬里區"
"207004","225-TW","2018/08/10 18:09:32","新北市萬里區中幅里中福路112-1號","121.67597","25.1676716666667","6502800","萬里區"
"252002","178-VK","2018/08/10 18:09:22","新北市三芝區中山路二段39號","121.502926666667","25.2551183333333","6502100","三芝區"
"252003","249-BX","2018/08/10 18:09:39","新北市三芝區埔頭里埔頭37號","121.49843","25.2603866666667","6502100","三芝區"
"252001","292-VK","2018/08/10 18:09:27","新北市三芝區中興街二段2號","121.498373333333","25.2566433333333","6502100","三芝區"
"237004","KEA-2597","2018/08/10 18:09:42","新北市三峽區大埔230號","121.37426","24.8904283333333","6500900","三峽區"
"237007","153-BY","2018/08/10 18:09:26","新北市三峽區中正路二段370巷81號","121.364193333333","24.9116833333333","6500900","三峽區"
"237009","210-TH","2018/08/10 18:09:33","新北市三峽區大仁路52號","121.365328333333","24.9375083333333","6500900","三峽區"
"237013","252-BX","2018/08/10 18:09:27","新北市三峽區長泰街18巷2號","121.378803333333","24.93163","6500900","三峽區"
"237012","275-BY","2018/08/10 18:09:43","新北市三峽區民生街1巷5-89號","121.378951666667","24.9356766666667","6500900","三峽區"
"237008","302-VK","2018/08/10 18:09:36","新北市三峽區白雞39號","121.378245","24.9115433333333","6500900","三峽區"
"237014","433-BY","2018/08/10 18:09:28","新北市三峽區國光街81巷13號","121.373663333333","24.9379366666667","6500900","三峽區"
"237006","5529-G3","2018/08/10 18:09:41","新北市三峽區溪東路201號","121.404093333333","24.9336366666667","6500900","三峽區"
"237011","KEA-2596","2018/08/10 18:09:38","新北市三峽區大同路34號","121.377328333333","24.9291233333333","6500900","三峽區"
"237015","649-BX","2018/08/10 18:09:39","新北市三峽區紫新路28號","121.422458333333","24.9217766666667","6500900","三峽區"
"237010","706-TV","2018/08/10 18:09:38","新北市三峽區民權街200號","121.36769","24.9292416666667","6500900","三峽區"
"237005","AKY-6261","2018/08/10 18:09:42","新北市三峽區民生街251號","121.370643333333","24.9347633333333","6500900","三峽區"
"236069","105-UM","2018/08/10 18:09:38","新北市土城區明德路一段361-3號","121.456276666667","24.977715","6501300","土城區"
"236042","107-UM","2018/08/10 18:09:35","新北市土城區中華路二段2號","121.43886","24.9798633333333","6501300","土城區"
"236079","166-UM","2018/08/10 18:09:38","新北市土城區永安街20號","121.434043333333","24.9650583333333","6501300","土城區"
"236030","253-BX","2018/08/10 18:09:38","新北市土城區城林路6巷80號","121.438631666667","24.9796883333333","6501300","土城區"
"236026","269-VK","2018/08/10 18:09:30","新北市土城區承天路18號","121.439436666667","24.9634466666667","6501300","土城區"
"236014","270-VK","2018/08/10 18:09:24","新北市土城區員福街12號","121.441633333333","24.9785","6501300","土城區"
"236039","271-VK","2018/08/10 18:09:25","新北市土城區金城路二段14號","121.449506666667","24.97748","6501300","土城區"
"236020","401-BY","2018/08/10 18:09:24","新北市土城區城林路6巷80號","121.438743333333","24.9796916666667","6501300","土城區"
"236059","912-UM","2018/08/10 18:09:33","新北市土城區中央路四段139-2號","121.415681666667","24.9572516666667","6501300","土城區"
"236048","913-UM","2018/08/10 18:09:32","新北市土城區金城路二段20號","121.449683333333","24.9776083333333","6501300","土城區"
"236063","915-UM","2018/08/10 18:09:44","新北市土城區金城路二段188號","121.453665","24.9809316666667","6501300","土城區"
"236055","AAC-216","2018/08/10 18:09:33","新北市土城區城林路6巷80號","121.438485","24.97976","6501300","土城區"
"242034","AAC-296","2018/08/10 18:09:44","新北市新莊區福海街24巷10號","121.44573","25.0340316666667","6500500","新莊區"
"242058","986-R7","2018/08/10 18:09:30","新北市新莊區新北大道七段720號","121.41247","25.0260833333333","6500500","新莊區"
"242054","751-BX","2018/08/10 18:09:40","新北市新莊區民安西路303號","121.426855","25.0116266666667","6500500","新莊區"
"242025","705-TV","2018/08/10 18:09:41","新北市新莊區五權一路22號","121.457206666667","25.0652116666667","6500500","新莊區"
"242027","615-BX","2018/08/10 18:09:37","新北市新莊區幸福路591號","121.453566666667","25.049275","6500500","新莊區"
"242041","566-BX","2018/08/10 18:09:45","新北市新莊區天祥街120巷3弄2號","121.414746666667","25.0302266666667","6500500","新莊區"
"242046","497-BY","2018/08/10 18:09:31","新北市新莊區福營路300號","121.422463333333","25.0275333333333","6500500","新莊區"
"242050","441-UM","2018/08/10 18:09:29","新北市新莊區民本街23巷19號","121.429125","25.0197633333333","6500500","新莊區"
"242056","440-UM","2018/08/10 18:09:29","新北市新莊區泰豐街11巷9號","121.44801","25.0312883333333","6500500","新莊區"
"242037","415-TV","2018/08/10 18:09:33","新北市新莊區後港一路67號","121.42663","25.0266116666667","6500500","新莊區"
"242007","413-TV","2018/08/10 18:09:32","新北市新莊區自強街23巷3號","121.45441","25.046325","6500500","新莊區"
"242044","400-BY","2018/08/10 18:09:43","新北市新莊區天泉二街10號","121.415165","25.0247016666667","6500500","新莊區"
"242060","353-BY","2018/08/10 18:09:37","新北市新莊區新樹路259號","121.434606666667","25.0215983333333","6500500","新莊區"
"242009","132-UY","2018/08/10 18:09:32","新北市新莊區昌平街71巷16號","121.453736666667","25.0538233333333","6500500","新莊區"
"242039","133-UY","2018/08/10 18:09:03","新北市新莊區民安西路38巷14號","121.426735","25.0207233333333","6500500","新莊區"
"242032","135-UY","2018/08/10 18:09:31","新北市新莊區新泰路277巷11號","121.445256666667","25.0402433333333","6500500","新莊區"
"242048","172-VK","2018/08/10 18:09:37","新北市新莊區民安路49號","121.423868333333","25.02617","6500500","新莊區"
"242011","173-VK","2018/08/10 18:09:29","新北市新莊區中信街86號","121.447938333333","25.05329","6500500","新莊區"
"242017","175-VK","2018/08/10 18:09:43","新北市新莊區中港路303號","121.452758333333","25.0446016666667","6500500","新莊區"
"242013","347-TH","2018/08/10 18:09:34","新北市新莊區三和路12-16號","121.442295","25.0374216666667","6500500","新莊區"
"242021","348-TH","2018/08/10 18:09:41","新北市新莊區新興街45巷2號","121.450538333333","25.0393","6500500","新莊區"
"242002","349-TH","2018/08/10 18:09:40","新北市新莊區新莊路90號","121.456648333333","25.0362483333333","6500500","新莊區"
"242019","350-TH","2018/08/10 18:09:38","新北市新莊區中港路132巷6號","121.455613333333","25.04053","6500500","新莊區"
"238015","755-BX","2018/08/10 18:09:36","新北市樹林區大安路325號","121.417273333333","24.9916633333333","6500700","樹林區"
"238023","601-UM","2018/08/10 18:09:35","新北市樹林區三寶街15號","121.406863333333","25.0155916666667","6500700","樹林區"
"238019","599-UM","2018/08/10 18:09:45","新北市樹林區水源街32巷30號","121.425111666667","24.981185","6500700","樹林區"
"238018","571-TV","2018/08/10 18:09:28","新北市樹林區博愛一街32號","121.425805","24.9908866666667","6500700","樹林區"
"238024","5061-A6","2018/08/10 18:09:26","新北市樹林區大安路320號","121.417195","24.99164","6500700","樹林區"
"238022","KEA-2213","2018/08/10 18:09:41","新北市樹林區太平路150巷1號","121.418525","24.9779433333333","6500700","樹林區"
"238021","KEA-2539","2018/08/10 18:09:41","新北市樹林區柑園街二段161號","121.381186666667","24.9537483333333","6500700","樹林區"
"238025","303-VK","2018/08/10 18:09:45","新北市樹林區保安街二段65號","121.416051666667","25.000495","6500700","樹林區"
"238017","283-BY","2018/08/10 18:09:37","新北市樹林區中正路859-1號","121.408993333333","25.0179633333333","6500700","樹林區"
"238014","282-BY","2018/08/10 18:09:21","新北市樹林區千歲街61巷46號","121.425443333333","24.998735","6500700","樹林區"
"238020","268-VK","2018/08/10 18:09:38","新北市樹林區三龍街120號","121.415411666667","25.0183216666667","6500700","樹林區"
"238026","172-UY","2018/08/10 18:09:10","新北市樹林區佳園路一段82-1號","121.393361666667","24.9695533333333","6500700","樹林區"
"238016","169-UY","2018/08/10 18:09:45","新北市樹林區日新街148巷35號","121.419526666667","24.987835","6500700","樹林區"
"239007","AAC-297","2018/08/10 18:09:30","新北市鶯歌區育英街98號","121.347336666667","24.9519316666667","6500800","鶯歌區"
"239006","891-R6","2018/08/10 18:09:29","新北市鶯歌區鶯桃路365巷98號","121.33074","24.9621816666667","6500800","鶯歌區"
"239008","527-UM","2018/08/10 18:09:37","新北市鶯歌區朝陽街2號","121.336206666667","24.9765933333333","6500800","鶯歌區"
"239005","526-UM","2018/08/10 18:09:27","新北市鶯歌區鶯桃路668巷53號","121.329416666667","24.971055","6500800","鶯歌區"
"239001","417-VK","2018/08/10 18:09:40","新北市鶯歌區中正三路5巷18號","121.339936666667","24.942195","6500800","鶯歌區"
"239003","360-BY","2018/08/10 18:09:24","新北市鶯歌區福安街32巷36號","121.33534","24.963505","6500800","鶯歌區"
"239002","359-BY","2018/08/10 18:09:27","新北市鶯歌區國慶街51號","121.34986","24.95547","6500800","鶯歌區"
"239004","193-VK","2018/08/10 18:09:37","新北市鶯歌區尖山路174巷35弄16號","121.34392","24.9484066666667","6500800","鶯歌區"
"221036","130-UY","2018/08/10 18:09:31","新北市汐止區大同路三段101號","121.66826","25.077595","6501100","汐止區"
"221015","131-UY","2018/08/10 18:09:36","新北市汐止區鄉長路二段31號","121.668166666667","25.0831016666667","6501100","汐止區"
"221010","269-BY","2018/08/10 18:09:30","新北市汐止區汐萬路二段275巷1弄1號","121.645751666667","25.08896","6501100","汐止區"
"221012","278-VK","2018/08/10 18:09:36","新北市汐止區保一街47號","121.674423333333","25.080215","6501100","汐止區"
"221023","279-VK","2018/08/10 18:09:40","新北市汐止區民族五街93號","121.627391666667","25.06947","6501100","汐止區"
"221032","280-BY","2018/08/10 18:09:38","新北市汐止區橫科路25號","121.618043333333","25.05124","6501100","汐止區"
"221027","281-BY","2018/08/10 18:09:45","新北市汐止區大同路二段507號","121.66127","25.0686166666667","6501100","汐止區"
"221008","297-VK","2018/08/10 18:09:42","新北市汐止區康寧街379號","121.628795","25.0677183333333","6501100","汐止區"
"221029","298-VK","2018/08/10 18:09:37","新北市汐止區樟樹二路132號","121.639928333333","25.0656","6501100","汐止區"
"221021","299-VK","2018/08/10 18:09:43","新北市汐止區龍安路30號","121.655128333333","25.06409","6501100","汐止區"
"221031","353-TW","2018/08/10 18:09:39","新北市汐止區中興路216號","121.631033333333","25.0663216666667","6501100","汐止區"
"221002","129-UY","2018/08/10 18:09:38","新北市汐止區福德一路201巷32號","121.635925","25.06487","6501100","汐止區"
"221035","622-UM","2018/08/10 18:09:36","新北市汐止區大同路二段208號","121.653506666667","25.065065","6501100","汐止區"
"221025","623-UM","2018/08/10 18:09:41","新北市汐止區勤進路16號","121.659605","25.0614616666667","6501100","汐止區"
"221038","646-BX","2018/08/10 18:09:28","新北市汐止區復興路119號","121.659335","25.060725","6501100","汐止區"
"221033","647-BX","2018/08/10 18:09:43","新北市汐止區宜興街20巷19號","121.622235","25.0409933333333","6501100","汐止區"
"221018","753-BX","2018/08/10 18:09:33","新北市汐止區忠孝東路363號","121.665698333333","25.0707533333333","6501100","汐止區"
"242015","281-VK","2018/08/10 18:09:34","新北市新莊區中平路152巷46號","121.446646666667","25.0473666666667","6500500","新莊區"
"220054","630-UY","2018/08/10 17:46:58","新北市板橋區華東街1-9號","121.44805","24.9949283333333","6500100","板橋區"
"235068","KEA-2873","2018/08/10 18:09:29","新北市中和區員山路36巷16-3號","121.485073333333","24.991195","6500300","中和區"
"235061","KEA-2875","2018/08/10 18:09:19","新北市土城區延壽路111巷1號","121.46915","24.9935983333333","6500300","中和區"
