"lineid","car","time","location","longitude","latitude","cityid","cityname"
"234046","148-BY","2018/08/10 19:49:38","新北市永和區永利路175號","121.525526666667","25.0034183333333","6500400","永和區"
"234007","207-UY","2018/08/10 19:49:41","新北市中和區南工路2巷2號","121.505396666667","24.9999833333333","6500400","永和區"
"234081","298-R6","2018/08/10 19:49:44","新北市永和區林森路30號","121.525698333333","25.0051216666667","6500400","永和區"
"234064","337-UY","2018/08/10 19:49:38","新北市永和區中正路368巷4號","121.517983333333","25.00082","6500400","永和區"
"234086","338-UY","2018/08/10 19:49:45","新北市永和區中正路568號","121.51723","25.0062016666667","6500400","永和區"
"234070","552-UM","2018/08/10 19:49:43","新北市永和區竹林路81號","121.51955","25.0125066666667","6500400","永和區"
"234038","553-UM","2018/08/10 19:49:33","新北市永和區民樂街59巷5號","121.52797","24.9983583333333","6500400","永和區"
"234017","745-BX","2018/08/10 19:49:30","新北市永和區永和路二段297號","121.516066666667","25.0160616666667","6500400","永和區"
"234030","746-BX","2018/08/10 19:49:34","新北市永和區民生路67巷52號","121.525343333333","24.997515","6500400","永和區"
"234054","KEA-2590","2018/08/10 19:49:27","新北市永和區竹林路72巷4號","121.518795","25.0131116666667","6500400","永和區"
"234013","KEA-2591","2018/08/10 19:49:30","新北市永和區仁愛路222號","121.508715","25.0119783333333","6500400","永和區"
"234061","AAD-866","2018/08/10 19:49:29","新北市永和區中正路49號","121.514356666667","24.9964216666667","6500400","永和區"
"234042","862-TW","2018/08/10 19:49:27","新北市永和區中和路389巷11弄1號","121.508063333333","25.0009183333333","6500400","永和區"
"234050","863-TW","2018/08/10 19:49:31","新北市永和區保安路77號","121.50866","25.0148583333333","6500400","永和區"
"234026","9371-KE","2018/08/10 19:49:32","新北市永和區雙和街25巷4號","121.508885","25.0019333333333","6500400","永和區"
"234011","9373-KE","2018/08/10 19:49:28","新北市永和區仁愛路352巷92弄2號","121.501203333333","25.0079983333333","6500400","永和區"
"249001","173-UM","2018/08/10 19:49:30","新北市八里區中華路二段252號","121.405396666667","25.1496916666667","6502300","八里區"
"249004","303-UY","2018/08/10 19:49:25","新北市八里區仁愛路21號","121.413256666667","25.1609533333333","6502300","八里區"
"249002","305-UY","2018/08/10 19:49:37","新北市八里區頂寮五街22號","121.451266666667","25.126195","6502300","八里區"
"249003","593-UM","2018/08/10 19:49:40","新北市八里區中華路二段560巷17號","121.398436666667","25.1451466666667","6502300","八里區"
"248016","026-BX","2018/08/10 19:49:31","新北市五股區成泰路四段22巷2-1號","121.45376","25.106685","6501500","五股區"
"248008","095-VK","2018/08/10 19:49:29","新北市五股區國道路三段19號","121.468581666667","25.07542","6501500","五股區"
"248018","225-UY","2018/08/10 19:49:41","新北市五股區外寮路189巷41號","121.428823333333","25.0759233333333","6501500","五股區"
"248012","247-BX","2018/08/10 19:49:37","新北市五股區蓬萊路1-3號","121.434426666667","25.0796783333333","6501500","五股區"
"248014","261-SL","2018/08/10 19:49:37","新北市五股區五福路42巷8號","121.434256666667","25.0895433333333","6501500","五股區"
"248010","272-BY","2018/08/10 19:49:42","新北市五股區登林路76-9號","121.429706666667","25.0694233333333","6501500","五股區"
"248004","677-BX","2018/08/10 19:49:44","新北市五股區成泰路一段56號","121.435496666667","25.069475","6501500","五股區"
"248002","678-BX","2018/08/10 19:49:31","新北市五股區成泰路四段15-6號","121.45328","25.1068883333333","6501500","五股區"
"234077","969-R7","2018/08/10 19:49:37","新北市永和區民權路49巷5弄27-1號","121.521205","24.998005","6500400","永和區"
"234074","AAC-211","2018/08/10 19:49:25","新北市永和區竹林路179巷38號","121.52209","25.0100716666667","6500400","永和區"
"234067","AAC-212","2018/08/10 19:49:31","新北市永和區永貞路355巷24號","121.508658333333","25.007265","6500400","永和區"
"234003","AAC-295","2018/08/10 19:49:33","新北市永和區福和路343號","121.515598333333","25.00718","6500400","永和區"
"243013","AAD-798","2018/08/10 19:37:33","新北市泰山區應化街7號","121.423876666667","25.0437133333333","6501600","泰山區"
"243009","297-R6","2018/08/10 19:49:36","新北市泰山區美寧街73號","121.431081666667","25.0647566666667","6501600","泰山區"
"243016","KEA-2801","2018/08/10 19:49:43","新北市泰山區新北大道七段93號","121.417926666667","25.03202","6501600","泰山區"
"243015","421-VK","2018/08/10 19:49:39","新北市泰山區明志路二段214巷11號","121.42666","25.0489283333333","6501600","泰山區"
"243011","KEA-2215","2018/08/10 19:49:45","新北市泰山區明志路三段196巷21弄20號","121.422786666667","25.0386283333333","6501600","泰山區"
"243010","KEA-2216","2018/08/10 19:49:40","新北市泰山區民生路33號","121.430795","25.0521416666667","6501600","泰山區"
"243012","646-TV","2018/08/10 19:49:40","新北市泰山區全興路7巷2號","121.432361666667","25.0590416666667","6501600","泰山區"
"243014","680-BX","2018/08/10 19:49:34","新北市泰山區泰林路二段33-8號","121.435171666667","25.05649","6501600","泰山區"
"222003","436-BY","2018/08/10 19:49:30","新北市深坑區深南路51-1號","121.621176666667","25.0097916666667","6501800","深坑區"
"222002","659-BX","2018/08/10 19:49:44","新北市深坑區北深路二段20號","121.620681666667","25.0044416666667","6501800","深坑區"
"231041","002-UM","2018/08/10 19:49:36","新北市新店區中央路153號","121.52985","24.973","6500600","新店區"
"231059","046-UY","2018/08/10 19:49:30","新北市新店區安和路二段155號","121.518918333333","24.974395","6500600","新店區"
"231040","047-UY","2018/08/10 19:49:31","新北市新店區中正路75巷71號","121.54308","24.9689333333333","6500600","新店區"
"231044","106-UY","2018/08/10 19:49:35","新北市新店區復興路51-8號","121.53629","24.9872","6500600","新店區"
"231046","107-UY","2018/08/10 19:49:40","新北市新店區三民路159巷19弄44號","121.532248333333","24.9732583333333","6500600","新店區"
"231053","108-UY","2018/08/10 19:49:41","新北市新店區新烏路三段49號","121.554095","24.90437","6500600","新店區"
"231065","110-UY","2018/08/10 19:49:46","新北市新店區安祥路109巷151弄12號","121.478153333333","24.9589016666667","6500600","新店區"
"231048","187-VK","2018/08/10 19:49:31","新北市新店區寶興路55號","121.54958","24.9727583333333","6500600","新店區"
"231054","KEA-2219","2018/08/10 19:49:29","新北市新店區光明街89號","121.539065","24.960905","6500600","新店區"
"231057","256-BX","2018/08/10 19:49:44","新北市新店區梅崗一路9號","121.55612","24.931285","6500600","新店區"
"231042","268-BY","2018/08/10 19:49:44","新北市新店區中興路一段267-4號","121.545103333333","24.96795","6500600","新店區"
"231051","278-BY","2018/08/10 19:49:45","新北市新店區中央三街30-1號","121.52842","24.9740233333333","6500600","新店區"
"231050","AAD-862","2018/08/10 19:49:42","新北市新店區北宜路二段581巷1號","121.565863333333","24.9540383333333","6500600","新店區"
"231058","3713-VJ","2018/08/10 19:47:02","新北市新店區溪園路365-8號","121.522111666667","24.980775","6500600","新店區"
"231066","4716-K9","2018/08/10 19:49:33","新北市新店區安康路二段341巷50號","121.49669","24.9543","6500600","新店區"
"231056","4715-K9","2018/08/10 19:49:37","新北市新店區民權路42巷28號","121.53926","24.983775","6500600","新店區"
"231067","4772-VM","2018/08/10 19:49:31","新北市新店區安康路一段190號","121.524656666667","24.9633466666667","6500600","新店區"
"231049","513-UM","2018/08/10 19:49:31","新北市新店區民權路127巷1號","121.535295","24.9819616666667","6500600","新店區"
"231045","618-UM","2018/08/10 19:49:34","","121.56451","24.9529083333333","6500600","新店區"
"231061","619-UM","2018/08/10 19:49:29","新北市新店區安民街135號","121.516408333333","24.9693283333333","6500600","新店區"
"231063","641-BX","2018/08/10 19:49:39","新北市新店區車子路11號","121.502986666667","24.951955","6500600","新店區"
"231068","718-UY","2018/08/10 19:49:41","新北市新店區安華路28-1號","121.519456666667","24.961005","6500600","新店區"
"231064","719-UM","2018/08/10 19:48:45","新北市新店區安和路二段3-5號","121.517983333333","24.9673216666667","6500600","新店區"
"231062","720-UM","2018/08/10 19:49:34","新北市新店區永業路91號","121.529031666667","24.9488916666667","6500600","新店區"
"231060","897-TW","2018/08/10 19:49:37","新北市新店區安康路二段237號","121.5083","24.958585","6500600","新店區"
"231043","899-TW","2018/08/10 19:49:30","新北市新店區中正路263-5號","121.538208333333","24.9738033333333","6500600","新店區"
"231055","AKT-0513","2018/08/10 19:49:29","新北市新店區中華路83巷67號","121.538331666667","24.9672666666667","6500600","新店區"
"241011","013-R5","2018/08/10 19:49:34","新北市三重區介壽路39巷6號","121.498961666667","25.0700916666667","6500200","三重區"
"241028","022-UY","2018/08/10 19:49:31","新北市三重區中正南路127號","121.494025","25.0571966666667","6500200","三重區"
"241008","059-VK","2018/08/10 19:49:48","新北市三重區永福街96號","121.478765","25.0759483333333","6500200","三重區"
"241022","060-VK","2018/08/10 19:49:34","新北市三重區新北大道一段7號","121.489766666667","25.0613766666667","6500200","三重區"
"241031","061-VK","2018/08/10 19:49:32","新北市三重區重新路四段248號","121.486088333333","25.0535433333333","6500200","三重區"
"241015","062-VK","2018/08/10 19:49:36","新北市三重區三和路一段2號","121.503843333333","25.0642683333333","6500200","三重區"
"241017","063-VK","2018/08/10 19:49:36","新北市三重區重陽路三段27巷1號","121.489625","25.0665433333333","6500200","三重區"
"241024","065-VK","2018/08/10 19:49:30","新北市三重區大勇街82巷33號","121.47971","25.0723583333333","6500200","三重區"
"241026","066-VK","2018/08/10 19:49:34","新北市三重區光興街9號","121.500115","25.060275","6500200","三重區"
"241003","091-VK","2018/08/10 19:49:30","新北市三重區仁愛街445巷36號","121.491445","25.0833566666667","6500200","三重區"
"241016","266-UM","2018/08/10 19:49:40","新北市三重區正義北路48巷74號","121.49559","25.063385","6500200","三重區"
"241009","267-UM","2018/08/10 19:49:42","新北市三重區三和路四段398號","121.481491666667","25.0792016666667","6500200","三重區"
"241018","268-UM","2018/08/10 19:49:42","新北市三重區雙園街57巷32號","121.494475","25.0683416666667","6500200","三重區"
"241013","270-UM","2018/08/10 19:49:36","新北市三重區仁愛街112巷14號","121.494736666667","25.0739583333333","6500200","三重區"
"241025","271-UM","2018/08/10 19:49:32","新北市三重區忠孝路三段52號","121.480698333333","25.0656533333333","6500200","三重區"
"241007","398-BY","2018/08/10 19:49:34","新北市三重區三和路四段143-1號","121.484288333333","25.0780966666667","6500200","三重區"
"241035","KEA-2210","2018/08/10 19:49:44","新北市三重區文化北路8號","121.499335","25.063525","6500200","三重區"
"241004","413-TH","2018/08/10 19:49:27","新北市三重區五華街74號","121.493255","25.0819016666667","6500200","三重區"
"241020","478-VK","2018/08/10 19:49:38","新北市三重區三和路四段12號","121.491475","25.0739416666667","6500200","三重區"
"241030","480-VK","2018/08/10 19:49:34","新北市三重區環河南路254巷80號","121.488978333333","25.0516766666667","6500200","三重區"
"241014","543-UM","2018/08/10 19:49:47","新北市三重區長安街82號","121.501426666667","25.0674666666667","6500200","三重區"
"241023","545-UM","2018/08/10 19:49:45","新北市三重區大有街1-9號","121.47758","25.0659983333333","6500200","三重區"
"241001","547-UM","2018/08/10 19:49:29","新北市三重區仁愛街327巷67號","121.493755","25.08039","6500200","三重區"
"241019","KEA-2593","2018/08/10 19:49:45","新北市三重區三張街80號","121.4888","25.0703083333333","6500200","三重區"
"241006","AAD-863","2018/08/10 19:49:25","新北市三重區力行路二段78號","121.481843333333","25.073615","6500200","三重區"
"241012","941-UM","2018/08/10 19:49:27","新北市三重區仁興街56巷10號","121.498721666667","25.07569","6500200","三重區"
"241029","942-UM","2018/08/10 19:49:45","新北市三重區光明路15號","121.490866666667","25.0586066666667","6500200","三重區"
"241033","AAC-255","2018/08/10 19:49:26","新北市三重區中興南街29-1號","121.470585","25.0439433333333","6500200","三重區"
"235066","003-UY","2018/08/10 19:49:32","新北市中和區南工路34號","121.505735","25.0011083333333","6500300","中和區"
"235064","005-UY","2018/08/10 19:49:27","新北市中和區圓通路29號","121.50118","24.9977916666667","6500300","中和區"
"235063","006-UY","2018/08/10 19:49:27","新北市中和區連城路263巷27弄4號","121.492775","24.994385","6500300","中和區"
"235056","096-UM","2018/08/10 19:49:41","新北市中和區中山路三段144號","121.473768333333","25.006205","6500300","中和區"
"235039","097-UM","2018/08/10 19:49:41","新北市中和區大仁街19巷8號","121.517313333333","24.9933566666667","6500300","中和區"
"235065","098-UM","2018/08/10 19:49:32","新北市中和區福祥路90巷5號","121.499566666667","25.0058483333333","6500300","中和區"
"235040","150-BY","2018/08/10 19:49:29","新北市中和區安和路39號","121.509673333333","24.9948466666667","6500300","中和區"
"235058","151-BY","2018/08/10 19:49:41","新北市中和區員山路150巷2弄21號","121.481755","24.9978233333333","6500300","中和區"
"235055","183-VK","2018/08/10 19:49:30","新北市中和區德光路27巷1弄1號","121.470835","25.0040266666667","6500300","中和區"
"235038","185-VK","2018/08/10 19:49:45","新北市永和區民生路42號","121.522455","24.996645","6500300","中和區"
"235049","186-VK","2018/08/10 19:49:40","新北市中和區景平路385巷75號","121.501166666667","24.9942416666667","6500300","中和區"
"235067","255-BX","2018/08/10 19:49:41","新北市中和區新生街186巷1弄1號","121.48344","24.9996333333333","6500300","中和區"
"235044","293-VK","2018/08/10 19:49:28","新北市中和區中正路1號","121.503426666667","24.9932533333333","6500300","中和區"
"235072","301-VK","2018/08/10 19:49:25","新北市中和區錦和路91-1號","121.490006666667","24.9957383333333","6500300","中和區"
"235043","352-BY","2018/08/10 19:49:42","新北市中和區興南路二段159巷12號","121.505228333333","24.9830616666667","6500300","中和區"
"235042","KEA-2878","2018/08/10 19:49:38","新北市中和區宜安路176號","121.50864","24.99925","6500300","中和區"
"235050","4979-A6","2018/08/10 19:49:35","新北市中和區景平路241巷84弄54號","121.506135","24.9923783333333","6500300","中和區"
"235069","4980-A6","2018/08/10 19:49:12","新北市中和區中正路506號","121.488625","24.994415","6500300","中和區"
"235034","558-UM","2018/08/10 19:49:32","新北市中和區景平路481號","121.500251666667","24.9974466666667","6500300","中和區"
"235054","640-BX","2018/08/10 19:49:45","新北市中和區國光街1號","121.472616666667","25.00015","6500300","中和區"
"235060","647-TV","2018/08/10 19:49:32","新北市中和區新生街32號","121.48312","25.00376","6500300","中和區"
"235047","732-UM","2018/08/10 19:49:29","新北市中和區興南路一段86號","121.509761666667","24.9894366666667","6500300","中和區"
"235010","733-UM","2018/08/10 19:49:36","新北市中和區仁愛街28號","121.510788333333","24.9886033333333","6500300","中和區"
"235041","802-TS","2018/08/10 19:49:31","新北市中和區中安街54號","121.51283","25.0023633333333","6500300","中和區"
"235052","805-TS","2018/08/10 19:49:38","新北市中和區華新街30巷16號","121.506868333333","24.9844366666667","6500300","中和區"
"235048","896-TW","2018/08/10 19:49:40","新北市中和區興南路一段131號","121.50902","24.9875683333333","6500300","中和區"
"235053","900-TW","2018/08/10 19:49:42","新北市中和區國光街140號","121.468453333333","25.0013133333333","6500300","中和區"
"235051","157-BY","2018/08/10 19:49:31","新北市中和區中興街180巷52弄3號","121.49848","24.988295","6500300","中和區"
"235037","AAC-213","2018/08/10 19:49:35","新北市中和區自立路66號","121.523955","24.9913033333333","6500300","中和區"
"220106","013-TV","2018/08/10 19:49:45","新北市板橋區民治街71巷33號","121.480543333333","25.0333433333333","6500100","板橋區"
"220055","015-TV","2018/08/10 19:49:45","新北市板橋區國慶路149巷29弄11號","121.460481666667","24.9975866666667","6500100","板橋區"
"220086","073-UY","2018/08/10 19:49:32","新北市五股區中興路四段17號","121.440315","25.0818783333333","6500100","板橋區"
"220069","AAD-861","2018/08/10 19:49:30","新北市板橋區貴興路106巷16弄2號","121.454888333333","25.0034283333333","6500100","板橋區"
"247014","546-UM","2018/08/10 19:49:34","新北市蘆洲區復興路11號","121.472051666667","25.0853466666667","6501400","蘆洲區"
"247004","337-TH","2018/08/10 19:49:42","新北市蘆洲區中華街6巷5號","121.462345","25.082585","6501400","蘆洲區"
"247008","056-VK","2018/08/10 19:49:29","新北市蘆洲區中山一路1號","121.478523333333","25.0800333333333","6501400","蘆洲區"
"247002","002-UY","2018/08/10 19:49:22","新北市蘆洲區永樂街38巷57弄2號","121.458505","25.0902283333333","6501400","蘆洲區"
"226004","205-ST","2018/08/10 19:49:38","新北市平溪區嶺腳里中華街7-1號","121.742411666667","25.0254816666667","6502400","平溪區"
"235059","251-BX","2018/08/10 19:49:37","新北市中和區圓通路305巷27弄1號","121.495025","24.9891266666667","6500300","中和區"
"228001","212-TW","2018/08/10 19:49:39","新北市貢寮區仁理村仁愛路95-1號","121.927505","25.055575","6502600","貢寮區"
"228003","828-UM","2018/08/10 19:49:39","新北市貢寮區真理里美艷山街3-1號","121.925631666667","25.05956","6502600","貢寮區"
"224010","AGQ-8101","2018/08/10 19:43:23","新北市瑞芳區金光路334號","121.848551666667","25.1101966666667","6501200","瑞芳區"
"224002","639-TC","2018/08/10 19:49:29","新北市瑞芳區員山子路員山巷24-1號","121.816853333333","25.1045033333333","6501200","瑞芳區"
"227003","642-TC","2018/08/10 19:49:32","新北市雙溪區雙溪里內挖路36號","121.863186666667","25.0367716666667","6502500","雙溪區"
"227011","400-TW","2018/08/10 19:49:35","新北市雙溪區新基里朝陽街2號","121.866423333333","25.038725","6502500","雙溪區"
"222001","KEA-2212","2018/08/10 19:49:05","新北市深坑區北深路三段83號","121.606498333333","25.0015116666667","6501800","深坑區"
"208002","KEA-2872","2018/08/10 19:49:42","新北市金山區中山路268號","121.635346666667","25.2241233333333","6502700","金山區"
"208003","665-BX","2018/08/10 19:49:34","新北市金山區清泉里清水路12號","121.630056666667","25.2288533333333","6502700","金山區"
"208001","761-BX","2018/08/10 19:49:43","新北市金山區重和里六股林口47號","121.602191666667","25.2196266666667","6502700","金山區"
"251005","010-UM","2018/08/10 19:49:28","新北市淡水區中正東路6號","121.446898333333","25.167245","6501000","淡水區"
"251001","011-UM","2018/08/10 19:49:44","新北市淡水區淡金路150號","121.458321666667","25.165115","6501000","淡水區"
"251008","181-VK","2018/08/10 19:49:29","新北市淡水區中正路二段24巷2-1號","121.426723333333","25.1769766666667","6501000","淡水區"
"251010","413-VK","2018/08/10 19:49:44","新北市淡水區下圭柔山91-3號","121.43107","25.2099233333333","6501000","淡水區"
"251012","441-VK","2018/08/10 19:49:39","新北市淡水區淡金路三段70巷3號","121.448378333333","25.2010416666667","6501000","淡水區"
"251006","561-UM","2018/08/10 19:49:42","新北市淡水區水碓街15號","121.44347","25.1769466666667","6501000","淡水區"
"251009","575-R6","2018/08/10 19:49:32","新北市淡水區重建街130號","121.440503333333","25.1732166666667","6501000","淡水區"
"251007","577-R6","2018/08/10 19:49:34","新北市淡水區竿蓁二街64號","121.455285","25.1635133333333","6501000","淡水區"
"251011","650-BX","2018/08/10 19:49:29","新北市淡水區淡金路二段138號","121.446916666667","25.188185","6501000","淡水區"
"251003","673-BX","2018/08/10 19:49:28","新北市淡水區崁頂75-2號","121.43614","25.2037183333333","6501000","淡水區"
"207003","291-VK","2018/08/10 19:49:39","新北市萬里區大鵬里萬里加投67-7號","121.64193","25.2135166666667","6502800","萬里區"
"207004","225-TW","2018/08/10 19:49:31","新北市萬里區萬里里瑪鋉路222號","121.689256666667","25.1803166666667","6502800","萬里區"
"252002","178-VK","2018/08/10 19:49:22","新北市三芝區三民街35號","121.504748333333","25.25846","6502100","三芝區"
"252001","292-VK","2018/08/10 19:49:27","新北市三芝區公正街66號","121.49981","25.2575016666667","6502100","三芝區"
"237004","KEA-2597","2018/08/10 19:49:42","新北市三峽區添福269號","121.375623333333","24.892905","6500900","三峽區"
"237007","153-BY","2018/08/10 19:49:25","新北市三峽區二鬮路136巷20弄19號","121.356751666667","24.9099616666667","6500900","三峽區"
"237009","210-TH","2018/08/10 19:49:32","新北市三峽區清水街435號","121.36851","24.9255133333333","6500900","三峽區"
"237013","252-BX","2018/08/10 19:49:27","新北市三峽區介壽路二段140號","121.39416","24.935955","6500900","三峽區"
"237012","275-BY","2018/08/10 19:49:43","新北市三峽區中華路22號","121.374131666667","24.9324466666667","6500900","三峽區"
"237008","302-VK","2018/08/10 19:49:36","新北市三峽區中正路一段108巷13號","121.373405","24.9301316666667","6500900","三峽區"
"237014","433-BY","2018/08/10 19:49:47","新北市三峽區添福14-32號","121.372588333333","24.9003366666667","6500900","三峽區"
"237006","5529-G3","2018/08/10 19:49:41","新北市三峽區中正路一段330-1號","121.370656666667","24.9248333333333","6500900","三峽區"
"237015","649-BX","2018/08/10 19:49:39","新北市三峽區橫溪路95-1號","121.398615","24.9354033333333","6500900","三峽區"
"237010","706-TV","2018/08/10 19:49:38","新北市三峽區復興路1號","121.374446666667","24.93584","6500900","三峽區"
"237005","AKY-6261","2018/08/10 19:49:42","新北市三峽區民生街105號","121.374098333333","24.93556","6500900","三峽區"
"236069","105-UM","2018/08/10 19:49:37","新北市土城區水源街5號","121.44136","24.9748966666667","6501300","土城區"
"236042","107-UM","2018/08/10 19:49:35","新北市土城區裕民路233巷1號","121.454838333333","24.983595","6501300","土城區"
"236079","166-UM","2018/08/10 19:49:38","新北市土城區中山路13號","121.415861666667","24.962785","6501300","土城區"
"236030","253-BX","2018/08/10 19:49:38","新北市土城區中央路一段294號","121.443378333333","24.9823816666667","6501300","土城區"
"236026","269-VK","2018/08/10 19:49:29","新北市土城區中央路二段61巷22號","121.443301666667","24.9788833333333","6501300","土城區"
"236039","271-VK","2018/08/10 19:49:45","新北市土城區國際路139巷6號","121.468496666667","24.9766066666667","6501300","土城區"
"236020","401-BY","2018/08/10 19:49:44","新北市土城區峰廷街41號","121.4697","24.9861933333333","6501300","土城區"
"236059","912-UM","2018/08/10 19:49:35","新北市土城區中央路一段227號","121.445621666667","24.9863016666667","6501300","土城區"
"236048","913-UM","2018/08/10 19:49:45","新北市土城區青雲路183巷2號","121.459303333333","24.98276","6501300","土城區"
"236063","915-UM","2018/08/10 19:49:24","新北市土城區延和路146巷8號","121.467985","24.989605","6501300","土城區"
"236055","AAC-216","2018/08/10 19:49:33","新北市土城區延平街1號","121.468333333333","24.9904416666667","6501300","土城區"
"242034","AAC-296","2018/08/10 19:49:46","新北市新莊區仁愛街65號","121.444215","25.0375883333333","6500500","新莊區"
"242058","986-R7","2018/08/10 19:49:30","新北市新莊區新樹路215號","121.435505","25.0233383333333","6500500","新莊區"
"242046","497-BY","2018/08/10 19:49:31","新北市新莊區裕民街121巷19號","121.41946","25.022215","6500500","新莊區"
"242056","440-UM","2018/08/10 19:49:42","新北市新莊區新豐街2號","121.44913","25.0346866666667","6500500","新莊區"
"242037","415-TV","2018/08/10 19:49:37","新北市新莊區建安街103號","121.426661666667","25.0241166666667","6500500","新莊區"
"242007","413-TV","2018/08/10 19:49:31","新北市新莊區思源路593巷3號","121.459298333333","25.0595433333333","6500500","新莊區"
"242023","362-BY","2018/08/10 19:49:44","新北市新莊區化成路254號","121.4657","25.0471966666667","6500500","新莊區"
"242060","353-BY","2018/08/10 19:49:37","新北市新莊區中環路一段10號","121.442826666667","25.02583","6500500","新莊區"
"242039","133-UY","2018/08/10 19:49:43","新北市新莊區民安路299巷51號","121.429576666667","25.0237433333333","6500500","新莊區"
"242032","135-UY","2018/08/10 19:49:39","新北市新莊區忠孝街63號","121.443896666667","25.0363316666667","6500500","新莊區"
"242048","172-VK","2018/08/10 19:49:07","新北市新莊區建安街92巷5號","121.42581","25.0240666666667","6500500","新莊區"
"242011","173-VK","2018/08/10 19:49:29","新北市新莊區中平路377巷28號","121.442331666667","25.052455","6500500","新莊區"
"242017","175-VK","2018/08/10 19:49:43","新北市新莊區中華路一段226號","121.452706666667","25.0430016666667","6500500","新莊區"
"242005","176-VK","2018/08/10 19:49:46","新北市新莊區化成路63巷24弄23號","121.462491666667","25.0459666666667","6500500","新莊區"
"242013","347-TH","2018/08/10 19:49:28","新北市新莊區中港路417巷16號","121.451708333333","25.0475716666667","6500500","新莊區"
"242021","348-TH","2018/08/10 19:49:40","新北市新莊區中興街59號","121.448963333333","25.037415","6500500","新莊區"
"238015","755-BX","2018/08/10 19:49:32","新北市樹林區中山路二段133號","121.406501666667","24.979055","6500700","樹林區"
"238023","601-UM","2018/08/10 19:49:44","新北市樹林區中正路118號","121.424178333333","25.0021233333333","6500700","樹林區"
"238021","KEA-2539","2018/08/10 19:49:39","新北市樹林區佳園路三段99巷25號","121.389563333333","24.9521533333333","6500700","樹林區"
"238025","303-VK","2018/08/10 19:49:45","新北市樹林區中山路三段210號","121.382693333333","24.966255","6500700","樹林區"
"238020","268-VK","2018/08/10 19:49:38","新北市樹林區八德街830-1號","121.392575","24.9686266666667","6500700","樹林區"
"239002","359-BY","2018/08/10 19:49:26","新北市鶯歌區中正一路479號","121.372418333333","24.959215","6500800","鶯歌區"
"221036","130-UY","2018/08/10 19:49:31","新北市汐止區汐萬路一段312號","121.650598333333","25.075385","6501100","汐止區"
"221015","131-UY","2018/08/10 19:49:36","新北市汐止區茄苳路45號","121.66594","25.0708816666667","6501100","汐止區"
"221010","269-BY","2018/08/10 19:49:45","新北市汐止區八連路一段72號","121.646905","25.08112","6501100","汐止區"
"221012","278-VK","2018/08/10 19:49:36","新北市汐止區大同路三段541號","121.681106666667","25.0714316666667","6501100","汐止區"
"221023","279-VK","2018/08/10 19:49:36","新北市汐止區明峰街151號","121.62931","25.0703083333333","6501100","汐止區"
"221027","281-BY","2018/08/10 19:49:25","新北市汐止區水碓街2號","121.663781666667","25.0698766666667","6501100","汐止區"
"221008","297-VK","2018/08/10 19:49:44","新北市汐止區康寧街39號","121.618606666667","25.06679","6501100","汐止區"
"221029","298-VK","2018/08/10 19:49:37","新北市汐止區康寧街901號","121.65154","25.07488","6501100","汐止區"
"221021","299-VK","2018/08/10 19:49:42","新北市汐止區水源路一段149號","121.65591","25.0619966666667","6501100","汐止區"
"221031","353-TW","2018/08/10 19:49:39","新北市汐止區福德二路54巷2弄1號","121.633798333333","25.0674283333333","6501100","汐止區"
"221035","622-UM","2018/08/10 19:49:44","新北市汐止區長江街13巷6弄1號","121.654696666667","25.0716616666667","6501100","汐止區"
"221025","623-UM","2018/08/10 19:49:41","新北市汐止區秀峰路81巷36號","121.661361666667","25.0645866666667","6501100","汐止區"
"221038","646-BX","2018/08/10 19:49:42","新北市汐止區忠孝東路397號","121.665746666667","25.07087","6501100","汐止區"
"221033","647-BX","2018/08/10 19:49:43","新北市汐止區東勢街60號","121.632356666667","25.0395516666667","6501100","汐止區"
"221018","753-BX","2018/08/10 19:49:33","新北市汐止區茄苳路3號","121.66471","25.0707866666667","6501100","汐止區"
"220079","145-BY","2018/08/10 19:49:34","新北市板橋區中正路135巷11-4號","121.455786666667","25.0155233333333","6500100","板橋區"
"220080","200-UY","2018/08/10 19:49:45","新北市板橋區大觀路二段163巷26號","121.446351666667","25.000125","6500100","板橋區"
"220082","610-BX","2018/08/10 19:49:45","新北市板橋區金門街182-3號","121.432708333333","24.99091","6500100","板橋區"
"220101","245-BX","2018/08/10 19:49:43","新北市板橋區縣民大道三段93巷18-1號","121.475143333333","25.0222783333333","6500100","板橋區"
"220091","267-BY","2018/08/10 19:49:40","新北市板橋區懷德街181巷25號","121.480181666667","25.0305033333333","6500100","板橋區"
"220056","276-BY","2018/08/10 19:49:44","新北市板橋區四川路二段97號","121.452555","24.99476","6500100","板橋區"
"220072","277-BY","2018/08/10 19:49:28","新北市板橋區金門街127巷2號","121.433103333333","24.9912583333333","6500100","板橋區"
"220094","285-UM","2018/08/10 19:49:39","新北市板橋區長江路一段104號","121.459581666667","25.02957","6500100","板橋區"
"220053","285-VK","2018/08/10 19:49:43","新北市板橋區中山路二段60巷11號","121.474221666667","25.0152","6500100","板橋區"
"220083","286-VK","2018/08/10 19:49:38","新北市板橋區龍興街63巷36號","121.442281666667","25.0016666666667","6500100","板橋區"
"220081","287-VK","2018/08/10 19:49:36","新北市板橋區大觀路一段28巷88號","121.449965","25.0110333333333","6500100","板橋區"
"220090","288-VK","2018/08/10 19:47:41","新北市板橋區龍泉街54巷8弄14號","121.45748","25.0269166666667","6500100","板橋區"
"220061","293-UM","2018/08/10 19:49:43","新北市板橋區板新路200巷18號","121.468871666667","25.0165366666667","6500100","板橋區"
"220062","295-UM","2018/08/10 19:49:39","新北市板橋區光復街33巷33號","121.482491666667","25.0189883333333","6500100","板橋區"
"220084","296-UM","2018/08/10 19:49:39","新北市板橋區滿平街2巷10號","121.425195","24.989415","6500100","板橋區"
"220075","303-R5","2018/08/10 19:49:40","新北市板橋區金華街10巷48弄26號","121.45794","25.0199283333333","6500100","板橋區"
"220092","307-R5","2018/08/10 19:49:47","新北市板橋區四維路259巷25號","121.462126666667","25.027385","6500100","板橋區"
"220098","317-R6","2018/08/10 19:49:41","新北市板橋區四維路269巷94弄18號","121.459348333333","25.0270183333333","6500100","板橋區"
"220065","461-BY","2018/08/10 19:49:25","新北市板橋區海山路39號","121.467295","25.0097366666667","6500100","板橋區"
"220064","486-VK","2018/08/10 19:49:46","新北市板橋區公園街16號","121.462953333333","25.0090583333333","6500100","板橋區"
"220088","491-VK","2018/08/10 19:49:40","新北市板橋區大同街70號","121.479668333333","25.0278366666667","6500100","板橋區"
"220035","560-BX","2018/08/10 19:49:31","新北市板橋區金華街114號","121.459011666667","25.0208366666667","6500100","板橋區"
"220103","561-BX","2018/08/10 19:49:40","新北市板橋區陽明街29巷4號","121.465116666667","25.021785","6500100","板橋區"
"220071","568-UM","2018/08/10 19:49:45","新北市板橋區五權街30巷12弄24號","121.463951666667","24.9942666666667","6500100","板橋區"
"220063","609-BX","2018/08/10 19:49:44","新北市板橋區三民路一段89號","121.479613333333","25.0219166666667","6500100","板橋區"
"220054","630-UY","2018/08/10 19:49:33","新北市板橋區忠孝路忠義巷18弄1號","121.466306666667","25.003795","6500100","板橋區"
"220057","686-BX","2018/08/10 19:49:44","新北市板橋區廣權路9號","121.460578333333","24.9913366666667","6500100","板橋區"
"220077","687-BX","2018/08/10 19:49:26","新北市板橋區僑中一街102巷1弄16號","121.445935","25.012205","6500100","板橋區"
"220093","689-BX","2018/08/10 19:49:38","新北市板橋區長江路三段31-2號","121.473","25.03389","6500100","板橋區"
"220102","KEA-2699","2018/08/10 19:49:25","新北市板橋區松柏街31-3號","121.475228333333","25.03027","6500100","板橋區"
"220067","829-TW","2018/08/10 19:49:45","新北市板橋區長安街297號","121.474328333333","25.0120116666667","6500100","板橋區"
"220068","830-TW","2018/08/10 19:49:35","新北市板橋區中山路二段412巷9號","121.483258333333","25.02059","6500100","板橋區"
"220096","831-TW","2018/08/10 19:49:41","新北市板橋區文化路二段124巷34弄24號","121.470508333333","25.02565","6500100","板橋區"
"220089","833-TW","2018/08/10 19:46:58","新北市板橋區綠堤街39-4號","121.455473333333","25.026195","6500100","板橋區"
"220074","895-R6","2018/08/10 19:49:26","新北市板橋區文化路一段46巷16號","121.460198333333","25.0115183333333","6500100","板橋區"
"220073","985-R7","2018/08/10 19:49:40","新北市板橋區南雅西路二段255號","121.45171","25.0147133333333","6500100","板橋區"
"220097","AAC-210","2018/08/10 19:49:40","新北市板橋區文化路一段299-1號","121.464698333333","25.0192416666667","6500100","板橋區"
"220070","AAC-253","2018/08/10 19:49:41","新北市板橋區民族路83-1號","121.465921666667","25.0084983333333","6500100","板橋區"
"235068","KEA-2873","2018/08/10 19:49:28","新北市中和區莊敬路16巷2號","121.499941666667","25.00417","6500300","中和區"
