"lineid","car","time","location","longitude","latitude","cityid","cityname"
"234046","148-BY","2018/08/10 19:59:40","新北市永和區成功路一段2號","121.52696","25.0055833333333","6500400","永和區"
"234007","207-UY","2018/08/10 19:59:41","新北市永和區保生路22巷8號","121.507271666667","25.0080566666667","6500400","永和區"
"234081","298-R6","2018/08/10 19:59:45","新北市永和區林森路77號","121.523906666667","25.0039866666667","6500400","永和區"
"234064","337-UY","2018/08/10 19:59:38","新北市永和區中正路412巷2弄11號","121.51852","25.0018716666667","6500400","永和區"
"234086","338-UY","2018/08/10 19:59:45","新北市永和區福和路74號","121.523026666667","25.0081083333333","6500400","永和區"
"234070","552-UM","2018/08/10 19:59:43","新北市永和區國光路31號","121.519403333333","25.00836","6500400","永和區"
"234038","553-UM","2018/08/10 19:59:33","新北市永和區成功路二段152-2號","121.526553333333","24.9966333333333","6500400","永和區"
"234017","745-BX","2018/08/10 19:59:38","新北市永和區文化路69號","121.513965","25.0150766666667","6500400","永和區"
"234030","746-BX","2018/08/10 19:59:40","新北市永和區民生路22巷27號","121.521193333333","24.9970133333333","6500400","永和區"
"234054","KEA-2590","2018/08/10 19:59:41","新北市永和區環河東路一段122號","121.520716666667","25.015595","6500400","永和區"
"234013","KEA-2591","2018/08/10 19:59:30","新北市永和區保生路55號","121.504691666667","25.0105833333333","6500400","永和區"
"234061","AAD-866","2018/08/10 19:59:29","新北市永和區中正路283巷31號","121.516251666667","24.9998183333333","6500400","永和區"
"234042","862-TW","2018/08/10 19:59:27","新北市永和區雙和街17巷9號","121.509221666667","25.0014983333333","6500400","永和區"
"234050","863-TW","2018/08/10 19:59:31","新北市永和區保安路260號","121.50606","25.0123633333333","6500400","永和區"
"234026","9371-KE","2018/08/10 19:59:32","新北市永和區水源街27巷4號","121.511198333333","25.00411","6500400","永和區"
"234011","9373-KE","2018/08/10 19:59:28","新北市永和區仁愛路352巷120號","121.50029","25.008565","6500400","永和區"
"249005","172-UM","2018/08/10 19:59:41","新北市八里區楓林路1-12號","121.38597","25.1311516666667","6502300","八里區"
"249001","173-UM","2018/08/10 19:59:29","新北市八里區中華路二段310號","121.403803333333","25.148365","6502300","八里區"
"249004","303-UY","2018/08/10 19:59:45","新北市八里區中華路一段333-1號","121.412671666667","25.154655","6502300","八里區"
"249002","305-UY","2018/08/10 19:59:37","新北市八里區龍米路一段87巷1號","121.454298333333","25.1234083333333","6502300","八里區"
"249003","593-UM","2018/08/10 19:59:40","新北市八里區中華路二段562號","121.398781666667","25.1449866666667","6502300","八里區"
"248016","026-BX","2018/08/10 19:59:31","新北市五股區成泰路三段577巷80弄25號","121.449576666667","25.104545","6501500","五股區"
"248008","095-VK","2018/08/10 19:59:29","新北市五股區四維路30巷17號","121.46799","25.0715483333333","6501500","五股區"
"248018","225-UY","2018/08/10 19:59:41","新北市五股區登林路101號","121.411096666667","25.0780666666667","6501500","五股區"
"248012","247-BX","2018/08/10 19:59:44","新北市五股區民義路一段142號","121.433823333333","25.0866833333333","6501500","五股區"
"248014","261-SL","2018/08/10 19:59:37","新北市五股區五福路14巷6號","121.434736666667","25.0886783333333","6501500","五股區"
"248010","272-BY","2018/08/10 19:59:42","新北市五股區成泰路一段42號","121.435311666667","25.0688116666667","6501500","五股區"
"248004","677-BX","2018/08/10 19:59:44","新北市五股區成泰路一段34巷1號","121.435165","25.06812","6501500","五股區"
"248002","678-BX","2018/08/10 19:59:31","新北市五股區成泰路三段487號","121.450706666667","25.0992316666667","6501500","五股區"
"234023","9380-KE","2018/08/10 19:59:42","新北市永和區中正路702巷20弄1號","121.516558333333","25.01053","6500400","永和區"
"234077","969-R7","2018/08/10 19:59:37","新北市永和區民有街23巷51號","121.517711666667","24.9972916666667","6500400","永和區"
"234074","AAC-211","2018/08/10 19:59:45","新北市永和區豫溪街205號","121.523643333333","25.009725","6500400","永和區"
"234067","AAC-212","2018/08/10 19:59:30","新北市永和區永貞路376號","121.509825","25.006855","6500400","永和區"
"234003","AAC-295","2018/08/10 19:59:44","新北市永和區永和路二段28號","121.514723333333","25.0103366666667","6500400","永和區"
"243013","AAD-798","2018/08/10 19:37:33","新北市泰山區應化街7號","121.423876666667","25.0437133333333","6501600","泰山區"
"243009","297-R6","2018/08/10 19:59:36","新北市泰山區泰林路二段164巷38號","121.434351666667","25.0613283333333","6501600","泰山區"
"243016","KEA-2801","2018/08/10 19:59:43","新北市泰山區明志路三段521號","121.421165","25.0315016666667","6501600","泰山區"
"243015","421-VK","2018/08/10 19:59:39","新北市泰山區明志路二段194號","121.427516666667","25.049625","6501600","泰山區"
"243011","KEA-2215","2018/08/10 19:59:45","新北市泰山區明志路三段182巷56號","121.422806666667","25.03982","6501600","泰山區"
"243010","KEA-2216","2018/08/10 19:59:40","新北市泰山區中華街19號","121.427558333333","25.0521183333333","6501600","泰山區"
"243012","646-TV","2018/08/10 19:59:40","新北市泰山區仁德路59號","121.434556666667","25.05698","6501600","泰山區"
"243014","680-BX","2018/08/10 19:59:44","新北市泰山區泰林路二段176號","121.433795","25.0606583333333","6501600","泰山區"
"222003","436-BY","2018/08/10 19:59:30","新北市深坑區埔新街14號","121.620778333333","25.0038816666667","6501800","深坑區"
"222002","659-BX","2018/08/10 19:59:44","新北市深坑區埔新街104-1號","121.61853","25.0022866666667","6501800","深坑區"
"231041","002-UM","2018/08/10 19:59:36","新北市新店區中正路331-1號","121.536031666667","24.975325","6500600","新店區"
"231059","046-UY","2018/08/10 19:59:30","新北市新店區安和路一段15號","121.516886666667","24.9640933333333","6500600","新店區"
"231040","047-UY","2018/08/10 19:59:32","新北市新店區中正路58號","121.544351666667","24.9700533333333","6500600","新店區"
"231044","106-UY","2018/08/10 19:59:35","新北市新店區復興路26號","121.539371666667","24.9867766666667","6500600","新店區"
"231053","108-UY","2018/08/10 19:59:41","新北市新店區新烏路三段304號","121.547871666667","24.897055","6500600","新店區"
"231065","110-UY","2018/08/10 19:59:46","新北市新店區安祥路106-13號","121.476878333333","24.9609966666667","6500600","新店區"
"231048","187-VK","2018/08/10 19:59:31","新北市新店區寶橋路160號","121.548963333333","24.9771266666667","6500600","新店區"
"231054","KEA-2219","2018/08/10 19:59:29","新北市新店區光明街137號","121.53948","24.962005","6500600","新店區"
"231057","256-BX","2018/08/10 19:59:34","新北市新店區花園二路一段11號","121.55555","24.9324916666667","6500600","新店區"
"231042","268-BY","2018/08/10 19:59:44","新北市新店區中興路一段292號","121.545961666667","24.969125","6500600","新店區"
"231051","278-BY","2018/08/10 19:59:25","新北市新店區中央一街37號","121.527565","24.9735716666667","6500600","新店區"
"231050","AAD-862","2018/08/10 19:59:42","新北市新店區北宜路一段188號","121.540935","24.952885","6500600","新店區"
"231056","4715-K9","2018/08/10 19:59:42","新北市新店區北新路二段29巷2弄2號","121.542296666667","24.9729083333333","6500600","新店區"
"231067","4772-VM","2018/08/10 19:59:31","新北市新店區精忠路10-1號","121.53268","24.9590416666667","6500600","新店區"
"231049","513-UM","2018/08/10 19:59:35","新北市新店區明德路89號","121.54153","24.97832","6500600","新店區"
"231045","618-UM","2018/08/10 19:59:34","新北市新店區北宜路二段82-14號","121.5548","24.9534366666667","6500600","新店區"
"231061","619-UM","2018/08/10 19:59:29","新北市新店區安民街252號","121.517678333333","24.9732166666667","6500600","新店區"
"231063","641-BX","2018/08/10 19:59:39","新北市新店區車子路11號","121.502868333333","24.9513733333333","6500600","新店區"
"231068","718-UY","2018/08/10 19:59:41","新北市新店區安一路一段1-1號","121.519476666667","24.9612433333333","6500600","新店區"
"231064","719-UM","2018/08/10 19:59:36","新北市新店區光華街7巷2號","121.51757","24.9690933333333","6500600","新店區"
"231062","720-UM","2018/08/10 19:59:34","新北市新店區華潭街31號","121.530021666667","24.9546483333333","6500600","新店區"
"231060","897-TW","2018/08/10 19:59:37","新北市新店區安康路二段458號","121.4943","24.9541833333333","6500600","新店區"
"231043","899-TW","2018/08/10 19:59:30","新北市新店區中正路263-5號","121.538165","24.97381","6500600","新店區"
"231055","AKT-0513","2018/08/10 19:59:29","新北市新店區中華路83巷67號","121.538336666667","24.9672866666667","6500600","新店區"
"241011","013-R5","2018/08/10 19:59:34","新北市三重區三和路二段165號","121.49802","25.0695583333333","6500200","三重區"
"241028","022-UY","2018/08/10 19:59:31","新北市三重區重新路三段90號","121.493","25.0607816666667","6500200","三重區"
"241008","059-VK","2018/08/10 19:59:28","新北市三重區永福街179巷28號","121.478035","25.0747883333333","6500200","三重區"
"241022","060-VK","2018/08/10 19:59:34","新北市三重區過圳街19號","121.488663333333","25.0605516666667","6500200","三重區"
"241031","061-VK","2018/08/10 19:59:32","新北市三重區重新路四段144巷34號","121.4873","25.0550683333333","6500200","三重區"
"241015","062-VK","2018/08/10 19:59:15","新北市三重區三和路二段12-1號","121.500971666667","25.0669983333333","6500200","三重區"
"241017","063-VK","2018/08/10 19:59:36","新北市三重區自強路一段316號","121.491113333333","25.068595","6500200","三重區"
"241024","065-VK","2018/08/10 19:59:30","新北市三重區力行路一段176號","121.482068333333","25.071505","6500200","三重區"
"241026","066-VK","2018/08/10 19:59:34","新北市三重區仁慈街32號","121.502338333333","25.0631566666667","6500200","三重區"
"241002","090-VK","2018/08/10 19:59:46","新北市三重區仁愛街274號","121.49271","25.0787583333333","6500200","三重區"
"241003","091-VK","2018/08/10 19:59:30","新北市三重區仁愛街457號","121.48983","25.0818333333333","6500200","三重區"
"241005","265-UM","2018/08/10 19:59:27","新北市三重區溪尾街325巷32號","121.488736666667","25.0834366666667","6500200","三重區"
"241016","266-UM","2018/08/10 19:59:40","新北市三重區正義北路36巷19號","121.496635","25.06343","6500200","三重區"
"241009","267-UM","2018/08/10 19:59:42","新北市三重區三和路四段390巷24號","121.481015","25.078755","6500200","三重區"
"241018","268-UM","2018/08/10 19:59:42","新北市三重區雙園街57巷9號","121.494905","25.0679133333333","6500200","三重區"
"241013","270-UM","2018/08/10 19:59:36","新北市三重區三和路三段125巷33號","121.493998333333","25.0736183333333","6500200","三重區"
"241025","271-UM","2018/08/10 19:59:31","新北市三重區頂崁街210巷9號","121.476538333333","25.0677666666667","6500200","三重區"
"241007","398-BY","2018/08/10 19:59:35","新北市三重區溪尾街154號","121.488773333333","25.0799366666667","6500200","三重區"
"241035","KEA-2210","2018/08/10 19:59:44","新北市三重區大榮街13號","121.498288333333","25.0631","6500200","三重區"
"241004","413-TH","2018/08/10 19:59:27","新北市三重區五華街74號","121.49332","25.0819716666667","6500200","三重區"
"241020","478-VK","2018/08/10 19:59:37","新北市三重區忠孝路一段87號","121.489913333333","25.0722216666667","6500200","三重區"
"241030","480-VK","2018/08/10 19:59:34","新北市三重區重新路四段244巷9號","121.486338333333","25.0534766666667","6500200","三重區"
"241014","543-UM","2018/08/10 19:59:28","新北市三重區三和路二段178號","121.498911666667","25.0687533333333","6500200","三重區"
"241023","545-UM","2018/08/10 19:59:45","新北市三重區頂崁街172號","121.477593333333","25.0659816666667","6500200","三重區"
"241001","547-UM","2018/08/10 19:59:29","新北市三重區仁愛街283巷36號","121.494321666667","25.0799283333333","6500200","三重區"
"241019","KEA-2593","2018/08/10 19:59:45","新北市三重區重陽路四段4號","121.490666666667","25.068725","6500200","三重區"
"241006","AAD-863","2018/08/10 19:59:25","新北市三重區力行路二段125號","121.48307","25.076625","6500200","三重區"
"241012","941-UM","2018/08/10 19:59:47","新北市三重區仁厚街22號","121.499493333333","25.0762266666667","6500200","三重區"
"241029","942-UM","2018/08/10 19:59:46","新北市三重區重安街1號","121.489683333333","25.058425","6500200","三重區"
"241033","AAC-255","2018/08/10 19:59:46","新北市三重區中興北街73號","121.469546666667","25.0476616666667","6500200","三重區"
"235066","003-UY","2018/08/10 19:59:32","新北市中和區中山路二段68號","121.503945","25.0045533333333","6500300","中和區"
"235056","096-UM","2018/08/10 19:59:41","新北市中和區中山路三段159號","121.473425","25.0062483333333","6500300","中和區"
"235039","097-UM","2018/08/10 19:59:29","新北市中和區景平路258號","121.515118333333","24.9929866666667","6500300","中和區"
"235065","098-UM","2018/08/10 19:59:32","新北市中和區莊敬路2號","121.499475","25.0042783333333","6500300","中和區"
"235040","150-BY","2018/08/10 19:59:45","新北市中和區保健路10巷1弄1號","121.507973333333","24.9979516666667","6500300","中和區"
"235055","183-VK","2018/08/10 19:59:44","新北市中和區民生街23巷3弄2號","121.471053333333","25.0049833333333","6500300","中和區"
"235067","255-BX","2018/08/10 19:59:41","新北市中和區新生街220巷8號","121.482211666667","24.9983666666667","6500300","中和區"
"235044","293-VK","2018/08/10 19:59:28","新北市中和區南山路287號","121.504363333333","24.992095","6500300","中和區"
"247010","KEA-2869","2018/08/10 19:59:35","新北市三重區集賢路188號","121.483878333333","25.0880816666667","6501400","蘆洲區"
"235050","4979-A6","2018/08/10 19:59:35","新北市中和區景平路241巷53號","121.508095","24.9922966666667","6500300","中和區"
"235069","4980-A6","2018/08/10 19:59:31","新北市中和區南山路37巷3弄1號","121.502861666667","24.9988666666667","6500300","中和區"
"235034","558-UM","2018/08/10 19:59:32","新北市中和區圓通路176-1號","121.497015","24.9944916666667","6500300","中和區"
"235047","732-UM","2018/08/10 19:59:29","新北市中和區和平街33號","121.50677","24.9914733333333","6500300","中和區"
"235010","733-UM","2018/08/10 19:59:36","新北市中和區興南路一段105巷20弄4號","121.510298333333","24.9858366666667","6500300","中和區"
"235052","805-TS","2018/08/10 19:59:38","新北市中和區華新街30巷12-3號","121.507095","24.9842933333333","6500300","中和區"
"235048","896-TW","2018/08/10 19:59:40","新北市中和區景新街397號","121.512525","24.9898866666667","6500300","中和區"
"235051","157-BY","2018/08/10 19:59:35","新北市中和區復興路301巷15號","121.501536666667","24.9898116666667","6500300","中和區"
"235037","AAC-213","2018/08/10 19:59:35","新北市中和區自立路99巷22弄5號","121.523318333333","24.99435","6500300","中和區"
"220106","013-TV","2018/08/10 19:59:45","新北市板橋區仁化街146號","121.477778333333","25.0330583333333","6500100","板橋區"
"220055","015-TV","2018/08/10 19:59:44","新北市板橋區國慶路149巷37弄15號","121.460151666667","24.99791","6500100","板橋區"
"220086","073-UY","2018/08/10 19:59:32","新北市八里區商港路88-3號","121.394461666667","25.1476783333333","6500100","板橋區"
"220069","AAD-861","2018/08/10 19:59:30","新北市板橋區貴興路54號","121.456796666667","25.0030933333333","6500100","板橋區"
"247024","893-R6","2018/08/10 19:59:31","新北市蘆洲區光榮路120巷8弄33號","121.464846666667","25.0881183333333","6501400","蘆洲區"
"247014","546-UM","2018/08/10 19:59:34","新北市蘆洲區成功路115號","121.472455","25.0820466666667","6501400","蘆洲區"
"247012","339-TH","2018/08/10 19:59:32","新北市蘆洲區民族路155號","121.479525","25.0880016666667","6501400","蘆洲區"
"247004","337-TH","2018/08/10 19:59:42","新北市蘆洲區中原路57號","121.459013333333","25.0821566666667","6501400","蘆洲區"
"247006","336-TH","2018/08/10 19:59:41","新北市蘆洲區九芎街111號","121.465635","25.079635","6501400","蘆洲區"
"247008","056-VK","2018/08/10 19:59:49","新北市蘆洲區中山一路95巷18號","121.477246666667","25.080775","6501400","蘆洲區"
"247016","007-UY","2018/08/10 19:59:33","新北市蘆洲區光華路15-1號","121.469663333333","25.0834116666667","6501400","蘆洲區"
"247002","002-UY","2018/08/10 19:59:44","新北市蘆洲區長安街321號","121.457356666667","25.0864133333333","6501400","蘆洲區"
"247020","001-UY","2018/08/10 19:59:39","新北市蘆洲區民義街64巷5號","121.473136666667","25.08949","6501400","蘆洲區"
"235059","251-BX","2018/08/10 19:59:37","新北市中和區圓通路355號","121.491416666667","24.9901","6500300","中和區"
"228003","828-UM","2018/08/10 19:59:39","新北市貢寮區仁理村仁和路11號","121.923096666667","25.0516616666667","6502600","貢寮區"
"224010","AGQ-8101","2018/08/10 19:59:43","新北市瑞芳區豎崎路3號","121.843396666667","25.10784","6501200","瑞芳區"
"227003","642-TC","2018/08/10 19:59:32","新北市雙溪區雙溪里長安街16號","121.865041666667","25.0346233333333","6502500","雙溪區"
"227011","400-TW","2018/08/10 19:59:35","新北市雙溪區新基里朝陽街3號","121.866308333333","25.0385483333333","6502500","雙溪區"
"222001","KEA-2212","2018/08/10 19:59:35","新北市深坑區北深路三段157號","121.602121666667","25.003195","6501800","深坑區"
"208002","KEA-2872","2018/08/10 19:59:30","新北市金山區中正路134-5號","121.632116666667","25.2205566666667","6502700","金山區"
"208003","665-BX","2018/08/10 19:59:42","新北市金山區永興里濆水路7-2號","121.629223333333","25.265535","6502700","金山區"
"208001","761-BX","2018/08/10 19:59:38","新北市金山區重和里六股林口9號","121.599551666667","25.2119366666667","6502700","金山區"
"251005","010-UM","2018/08/10 19:59:28","新北市淡水區學府路136巷37號","121.451826666667","25.1727216666667","6501000","淡水區"
"251001","011-UM","2018/08/10 19:59:44","新北市淡水區淡金路二段599號","121.445945","25.1924883333333","6501000","淡水區"
"251008","181-VK","2018/08/10 19:59:29","新北市淡水區淡海路72巷7號","121.423526666667","25.181025","6501000","淡水區"
"251010","413-VK","2018/08/10 19:59:24","新北市淡水區崁頂78-3號","121.430025","25.2059816666667","6501000","淡水區"
"251012","441-VK","2018/08/10 19:59:39","新北市淡水區下圭柔山109-6號","121.44352","25.211045","6501000","淡水區"
"251004","443-VK","2018/08/10 19:59:42","新北市淡水區民族路31-24號","121.46179","25.1361183333333","6501000","淡水區"
"251006","561-UM","2018/08/10 19:59:42","新北市淡水區水碓街32號","121.444265","25.177235","6501000","淡水區"
"251009","575-R6","2018/08/10 19:59:32","新北市淡水區英專路21巷15號","121.444941666667","25.1696866666667","6501000","淡水區"
"251011","650-BX","2018/08/10 19:59:29","新北市淡水區崁頂55-3號","121.442278333333","25.19667","6501000","淡水區"
"251003","673-BX","2018/08/10 19:59:28","新北市淡水區中山北路二段189巷15弄29號","121.443333333333","25.18419","6501000","淡水區"
"207003","291-VK","2018/08/10 19:59:39","新北市萬里區磺潭里公館崙5號","121.641921666667","25.2142666666667","6502800","萬里區"
"207004","225-TW","2018/08/10 19:59:31","新北市萬里區北基里忠二街35號","121.685665","25.17575","6502800","萬里區"
"252002","178-VK","2018/08/10 19:59:42","新北市三芝區三民街39巷36號","121.505388333333","25.2575966666667","6502100","三芝區"
"252001","292-VK","2018/08/10 19:59:47","新北市三芝區公正街66號","121.49984","25.2574716666667","6502100","三芝區"
"237004","KEA-2597","2018/08/10 19:59:42","新北市三峽區添福2-7號","121.371105","24.9079083333333","6500900","三峽區"
"237007","153-BY","2018/08/10 19:59:45","新北市三峽區麻園36-10號","121.36385","24.9196283333333","6500900","三峽區"
"237009","210-TH","2018/08/10 19:59:32","新北市三峽區民族街78巷2弄2號","121.36877","24.9298233333333","6500900","三峽區"
"237012","275-BY","2018/08/10 19:59:43","新北市三峽區中華路129號","121.371176666667","24.92774","6500900","三峽區"
"237008","302-VK","2018/08/10 19:59:36","新北市三峽區中正路一段174巷9號","121.371985","24.9288483333333","6500900","三峽區"
"237014","433-BY","2018/08/10 19:59:27","新北市三峽區添福11-6號","121.373326666667","24.9071133333333","6500900","三峽區"
"237006","5529-G3","2018/08/10 19:59:41","新北市三峽區中正路二段168號","121.365905","24.915765","6500900","三峽區"
"237015","649-BX","2018/08/10 19:59:39","新北市三峽區介壽路二段138巷1弄166-2號","121.403223333333","24.92767","6500900","三峽區"
"237010","706-TV","2018/08/10 19:59:38","新北市鶯歌區中正一路465號","121.371631666667","24.9587783333333","6500900","三峽區"
"237005","AKY-6261","2018/08/10 19:59:42","新北市三峽區民生街1巷23號","121.379461666667","24.93454","6500900","三峽區"
"236069","105-UM","2018/08/10 19:59:37","新北市土城區忠義路111-1號","121.444443333333","24.96312","6501300","土城區"
"236042","107-UM","2018/08/10 19:59:35","新北市土城區學府路一段113號","121.455596666667","24.9875116666667","6501300","土城區"
"236079","166-UM","2018/08/10 19:59:38","新北市土城區三民路21號","121.420251666667","24.9635316666667","6501300","土城區"
"236030","253-BX","2018/08/10 19:59:38","新北市土城區中央路一段250巷2-7號","121.443628333333","24.9849016666667","6501300","土城區"
"236026","269-VK","2018/08/10 19:59:37","新北市土城區員林街1號","121.442276666667","24.97824","6501300","土城區"
"236039","271-VK","2018/08/10 19:59:37","新北市土城區國際路32號","121.465733333333","24.9794216666667","6501300","土城區"
"236020","401-BY","2018/08/10 19:59:44","新北市土城區延吉街48號","121.471758333333","24.9870316666667","6501300","土城區"
"236059","912-UM","2018/08/10 19:59:33","新北市土城區中央路一段244號","121.444535","24.9849066666667","6501300","土城區"
"236048","913-UM","2018/08/10 19:59:32","新北市中和區連城路534巷2號","121.475358333333","24.9913533333333","6501300","土城區"
"236063","915-UM","2018/08/10 19:59:44","新北市土城區金城路三段73巷9弄19號","121.465575","24.9873016666667","6501300","土城區"
"236055","AAC-216","2018/08/10 19:59:33","新北市土城區學府路一段35號","121.45794","24.9884266666667","6501300","土城區"
"242034","AAC-296","2018/08/10 19:59:26","新北市新莊區建中街104號","121.446351666667","25.0365583333333","6500500","新莊區"
"242058","986-R7","2018/08/10 19:59:30","新北市新莊區八德街31號","121.424913333333","25.0222883333333","6500500","新莊區"
"242054","751-BX","2018/08/10 19:59:40","新北市新莊區西盛街423號","121.42727","25.0122083333333","6500500","新莊區"
"242025","705-TV","2018/08/10 19:59:43","新北市新莊區五工一路88號","121.461253333333","25.0674566666667","6500500","新莊區"
"242041","566-BX","2018/08/10 19:59:45","新北市新莊區青山路一段8號","121.41182","25.0274666666667","6500500","新莊區"
"242046","497-BY","2018/08/10 19:59:31","新北市新莊區裕民街19巷4號","121.419681666667","25.02519","6500500","新莊區"
"242056","440-UM","2018/08/10 19:59:42","新北市新莊區中正路347巷17弄8號","121.44745","25.03432","6500500","新莊區"
"242037","415-TV","2018/08/10 19:59:33","新北市新莊區建安街39號","121.42895","25.025485","6500500","新莊區"
"242007","413-TV","2018/08/10 19:59:31","新北市新莊區福壽街200號","121.458168333333","25.0536983333333","6500500","新莊區"
"242044","400-BY","2018/08/10 19:59:39","新北市新莊區萬壽路一段21巷17弄1號","121.410868333333","25.0205016666667","6500500","新莊區"
"242023","362-BY","2018/08/10 19:59:44","新北市新莊區化成路428號","121.465993333333","25.0511533333333","6500500","新莊區"
"242060","353-BY","2018/08/10 19:59:37","新北市新莊區瓊泰路33號","121.443923333333","25.0286166666667","6500500","新莊區"
"242039","133-UY","2018/08/10 19:59:43","新北市新莊區民安路268號","121.427498333333","25.02129","6500500","新莊區"
"242032","135-UY","2018/08/10 19:59:39","新北市新莊區公園一路77號","121.443225","25.0370966666667","6500500","新莊區"
"242048","172-VK","2018/08/10 19:59:40","新北市新莊區後港二路1號","121.423271666667","25.0246066666667","6500500","新莊區"
"242011","173-VK","2018/08/10 19:58:49","新北市新莊區中港路531巷12號","121.450655","25.0515583333333","6500500","新莊區"
"242017","175-VK","2018/08/10 19:59:43","新北市新莊區中港路332號","121.452535","25.045865","6500500","新莊區"
"242005","176-VK","2018/08/10 19:59:34","新北市新莊區化成路316號","121.465803333333","25.0483516666667","6500500","新莊區"
"242013","347-TH","2018/08/10 19:59:48","新北市新莊區幸福路670巷2弄1號","121.451045","25.0495","6500500","新莊區"
"242021","348-TH","2018/08/10 19:59:39","新北市新莊區建中街32巷7號","121.448851666667","25.03783","6500500","新莊區"
"242002","349-TH","2018/08/10 19:59:40","新北市新莊區中正路170號","121.450975","25.0359016666667","6500500","新莊區"
"242019","350-TH","2018/08/10 19:59:46","新北市新莊區民生街15巷3號","121.455566666667","25.0424616666667","6500500","新莊區"
"238015","755-BX","2018/08/10 19:59:32","新北市樹林區中山路三段210-2號","121.381508333333","24.9655666666667","6500700","樹林區"
"239002","359-BY","2018/08/10 19:59:47","新北市鶯歌區二甲路12-2號","121.345846666667","24.9350783333333","6500800","鶯歌區"
"221036","130-UY","2018/08/10 19:59:40","新北市汐止區新台五路二段87號","121.664843333333","25.0669666666667","6501100","汐止區"
"221015","131-UY","2018/08/10 19:59:38","新北市汐止區大同路二段689號","121.665035","25.0724566666667","6501100","汐止區"
"221010","269-BY","2018/08/10 19:59:45","新北市汐止區連峰街270號","121.644311666667","25.08147","6501100","汐止區"
"221012","278-VK","2018/08/10 19:59:36","新北市汐止區大同路三段290號","121.6781","25.0712066666667","6501100","汐止區"
"221023","279-VK","2018/08/10 19:59:36","新北市汐止區明峰街295號","121.6256","25.0679583333333","6501100","汐止區"
"221032","280-BY","2018/08/10 19:59:48","新北市汐止區橫科路18巷15號","121.617745","25.05019","6501100","汐止區"
"221027","281-BY","2018/08/10 19:59:25","新北市汐止區中正路87號","121.661265","25.0694666666667","6501100","汐止區"
"221008","297-VK","2018/08/10 19:59:44","新北市汐止區忠一街9巷7號","121.620528333333","25.0731966666667","6501100","汐止區"
"221029","298-VK","2018/08/10 19:59:37","新北市汐止區樟樹一路139巷24號","121.641136666667","25.06621","6501100","汐止區"
"221021","299-VK","2018/08/10 19:59:42","新北市汐止區水源路一段177號","121.655145","25.0617283333333","6501100","汐止區"
"221031","353-TW","2018/08/10 19:59:39","新北市汐止區福德一路256號","121.633621666667","25.064745","6501100","汐止區"
"221035","622-UM","2018/08/10 19:59:44","新北市汐止區長江街57巷5號","121.65617","25.0717683333333","6501100","汐止區"
"221025","623-UM","2018/08/10 19:59:41","新北市汐止區秀峰路119-1號","121.660145","25.0633366666667","6501100","汐止區"
"221038","646-BX","2018/08/10 19:59:32","新北市汐止區忠孝東路511號","121.66673","25.0753383333333","6501100","汐止區"
"221033","647-BX","2018/08/10 19:59:43","新北市汐止區東勢街215巷14號","121.634828333333","25.0432766666667","6501100","汐止區"
"221018","753-BX","2018/08/10 19:59:33","新北市汐止區忠孝東路363號","121.665501666667","25.0708566666667","6501100","汐止區"
"220080","200-UY","2018/08/10 19:59:45","新北市板橋區大觀路二段185號","121.444946666667","24.9997483333333","6500100","板橋區"
"220101","245-BX","2018/08/10 19:59:43","新北市板橋區莒光路180巷20號","121.473315","25.022825","6500100","板橋區"
"220091","267-BY","2018/08/10 19:59:41","新北市板橋區文聖街89巷27號","121.478465","25.0304716666667","6500100","板橋區"
"220072","277-BY","2018/08/10 19:59:46","新北市板橋區金門街109巷11號","121.433546666667","24.9918433333333","6500100","板橋區"
"220094","285-UM","2018/08/10 19:59:39","新北市板橋區陽明街239號","121.463191666667","25.0244783333333","6500100","板橋區"
"220053","285-VK","2018/08/10 19:59:43","新北市板橋區永豐街53號","121.474105","25.0180633333333","6500100","板橋區"
"220083","286-VK","2018/08/10 19:59:38","新北市板橋區僑中二街8巷33號","121.445548333333","25.011355","6500100","板橋區"
"220081","287-VK","2018/08/10 19:59:36","新北市板橋區僑中一街124巷20弄6號","121.446378333333","25.0139733333333","6500100","板橋區"
"220090","288-VK","2018/08/10 19:59:41","新北市板橋區幸福路32巷2弄47號","121.46063","25.0223816666667","6500100","板橋區"
"220061","293-UM","2018/08/10 19:59:43","新北市板橋區觀光街21號","121.471323333333","25.0161333333333","6500100","板橋區"
"220062","295-UM","2018/08/10 19:59:36","新北市板橋區中山路二段613號","121.485675","25.0225283333333","6500100","板橋區"
"242015","281-VK","2018/08/10 19:59:43","新北市新莊區泰順街33巷3號","121.446146666667","25.0425833333333","6500500","新莊區"
"220075","303-R5","2018/08/10 19:59:40","新北市板橋區金華街10巷77號","121.458003333333","25.020425","6500100","板橋區"
"220092","307-R5","2018/08/10 19:59:27","新北市板橋區國光路189號","121.461115","25.0186283333333","6500100","板橋區"
"220098","317-R6","2018/08/10 19:59:44","新北市板橋區新海路72巷46弄3號","121.46229","25.023085","6500100","板橋區"
"220065","461-BY","2018/08/10 19:59:25","新北市板橋區新府路150號","121.464793333333","25.0112533333333","6500100","板橋區"
"220064","486-VK","2018/08/10 19:59:37","新北市板橋區館前東路154號","121.464418333333","25.007845","6500100","板橋區"
"220088","491-VK","2018/08/10 19:59:40","新北市板橋區仁化街150號","121.477655","25.0331883333333","6500100","板橋區"
"220035","560-BX","2018/08/10 19:59:34","新北市板橋區新生街87巷34號","121.456516666667","25.02217","6500100","板橋區"
"220103","561-BX","2018/08/10 19:59:40","新北市板橋區自由路40號","121.46562","25.02319","6500100","板橋區"
"220071","568-UM","2018/08/10 19:59:45","新北市板橋區廣權路97號","121.464478333333","24.9926183333333","6500100","板橋區"
"220054","630-UY","2018/08/10 19:59:33","新北市板橋區忠孝路201巷30號","121.46506","25.0034066666667","6500100","板橋區"
"220057","686-BX","2018/08/10 19:59:44","新北市板橋區四川路二段80號","121.452161666667","24.994765","6500100","板橋區"
"220093","689-BX","2018/08/10 19:59:32","新北市板橋區長江路二段270號","121.469685","25.032865","6500100","板橋區"
"220102","KEA-2699","2018/08/10 19:59:45","新北市板橋區仁化街42巷26號","121.475661666667","25.0308333333333","6500100","板橋區"
"220067","829-TW","2018/08/10 19:59:45","新北市板橋區中山路一段184-1號","121.469196666667","25.0125766666667","6500100","板橋區"
"220068","830-TW","2018/08/10 19:59:35","新北市板橋區光復街172巷4弄1號","121.48531","25.019195","6500100","板橋區"
"220096","831-TW","2018/08/10 19:59:41","新北市板橋區莒光路79巷9-2號","121.471935","25.0244983333333","6500100","板橋區"
"220089","833-TW","2018/08/10 19:59:38","新北市板橋區新海路385巷16弄12號","121.45798","25.0264383333333","6500100","板橋區"
"220074","895-R6","2018/08/10 19:59:45","新北市板橋區明德街12號","121.459968333333","25.0104233333333","6500100","板橋區"
"220073","985-R7","2018/08/10 19:59:43","新北市板橋區館前西路162號","121.452766666667","25.008595","6500100","板橋區"
"220097","AAC-210","2018/08/10 19:59:40","新北市板橋區光正街43號","121.461935","25.0172516666667","6500100","板橋區"
"220070","AAC-253","2018/08/10 19:59:41","新北市板橋區四川路一段127號","121.459895","25.004715","6500100","板橋區"
"235068","KEA-2873","2018/08/10 19:59:28","新北市中和區中山路二段250巷24號","121.497341666667","25.0032983333333","6500300","中和區"
