"lineid","car","time","location","longitude","latitude","cityid","cityname"
"234081","298-R6","2018/08/10 20:29:24","新北市永和區國中路130號","121.523505","25.006805","6500400","永和區"
"234064","337-UY","2018/08/10 20:29:38","新北市永和區中正路417號","121.517183333333","25.0048916666667","6500400","永和區"
"234070","552-UM","2018/08/10 20:29:26","新北市永和區永亨路6-1號","121.51945","25.0055783333333","6500400","永和區"
"234038","553-UM","2018/08/10 20:29:33","新北市永和區民樂街31巷17弄2號","121.528758333333","25.0020283333333","6500400","永和區"
"234030","746-BX","2018/08/10 20:29:34","新北市中和區大勇街27巷1號","121.517293333333","24.9934966666667","6500400","永和區"
"234054","KEA-2590","2018/08/10 20:29:27","新北市永和區環河東路一段80號","121.519556666667","25.0164333333333","6500400","永和區"
"234061","AAD-866","2018/08/10 20:29:41","新北市永和區安樂路194巷37號","121.516475","25.0012333333333","6500400","永和區"
"234042","862-TW","2018/08/10 20:29:27","新北市永和區安樂路248號","121.514686666667","25.0032716666667","6500400","永和區"
"234050","863-TW","2018/08/10 20:29:31","新北市永和區新生路213號","121.506506666667","25.01402","6500400","永和區"
"249001","173-UM","2018/08/10 20:29:29","新北市八里區下罟子5-11號","121.386915","25.1422933333333","6502300","八里區"
"249004","303-UY","2018/08/10 20:29:25","新北市八里區中山路一段131號","121.41338","25.1592666666667","6502300","八里區"
"249002","305-UY","2018/08/10 20:29:37","新北市八里區龍米路二段125巷1號","121.44631","25.14518","6502300","八里區"
"249003","593-UM","2018/08/10 20:29:20","新北市八里區舊城路21號","121.399775","25.1470716666667","6502300","八里區"
"248002","678-BX","2018/08/10 20:29:36","新北市五股區成泰路三段45號","121.44261","25.0892033333333","6501500","五股區"
"234023","9380-KE","2018/08/10 20:29:22","新北市永和區博愛街32巷12號","121.518793333333","25.0152816666667","6500400","永和區"
"234077","969-R7","2018/08/10 20:29:37","新北市中和區景新街242號","121.509038333333","24.993705","6500400","永和區"
"234074","AAC-211","2018/08/10 20:29:25","新北市永和區豫溪街217巷1號","121.524915","25.0093983333333","6500400","永和區"
"234067","AAC-212","2018/08/10 20:29:35","新北市永和區保平路292巷38號","121.507823333333","25.005045","6500400","永和區"
"243009","297-R6","2018/08/10 20:29:36","新北市泰山區泰林路二段408號","121.427561666667","25.0642833333333","6501600","泰山區"
"243016","KEA-2801","2018/08/10 20:29:23","新北市泰山區明志路二段324號","121.426273333333","25.0457583333333","6501600","泰山區"
"243011","KEA-2215","2018/08/10 20:29:25","新北市泰山區明志路三段42巷2號","121.424383333333","25.0423516666667","6501600","泰山區"
"243010","KEA-2216","2018/08/10 20:29:20","新北市泰山區新生路33-5號","121.427665","25.0456133333333","6501600","泰山區"
"243012","646-TV","2018/08/10 20:29:20","新北市泰山區楓江路30號","121.434265","25.0623266666667","6501600","泰山區"
"243014","680-BX","2018/08/10 20:29:34","新北市泰山區泰林路二段2-2號","121.418765","25.06523","6501600","泰山區"
"222003","436-BY","2018/08/10 20:29:30","新北市深坑區深坑街32號","121.615268333333","25.0017833333333","6501800","深坑區"
"222002","659-BX","2018/08/10 20:29:24","新北市深坑區萬福路43號","121.599375","25.0069233333333","6501800","深坑區"
"231041","002-UM","2018/08/10 20:29:36","新北市新店區中正路520號","121.533718333333","24.983705","6500600","新店區"
"231059","046-UY","2018/08/10 20:29:30","新北市新店區安德街173號","121.508686666667","24.9588966666667","6500600","新店區"
"231040","047-UY","2018/08/10 20:29:31","新北市新店區中正路358號","121.53561","24.975685","6500600","新店區"
"231044","106-UY","2018/08/10 20:29:35","新北市新店區建國路217號","121.537646666667","24.9807333333333","6500600","新店區"
"231053","108-UY","2018/08/10 20:29:21","新北市新店區松林路38號","121.546303333333","24.9102583333333","6500600","新店區"
"231065","110-UY","2018/08/10 20:29:25","新北市新店區安祥路102巷30弄25號","121.484858333333","24.96326","6500600","新店區"
"231048","187-VK","2018/08/10 20:29:31","新北市新店區寶元路一段15巷11號","121.541953333333","24.987035","6500600","新店區"
"231054","KEA-2219","2018/08/10 20:29:29","新北市新店區檳榔路150號","121.544131666667","24.9615416666667","6500600","新店區"
"231057","256-BX","2018/08/10 20:29:33","新北市新店區花園十路二段3號","121.555013333333","24.9340166666667","6500600","新店區"
"231042","268-BY","2018/08/10 20:29:24","新北市新店區寶橋路99號","121.547595","24.97646","6500600","新店區"
"231051","278-BY","2018/08/10 20:29:25","新北市新店區中央七街4號","121.530481666667","24.9745783333333","6500600","新店區"
"231050","AAD-862","2018/08/10 20:29:22","新北市新店區建國路68號","121.540581666667","24.975935","6500600","新店區"
"231058","3713-VJ","2018/08/10 20:29:30","新北市新店區三民路94巷1號","121.534325","24.9732633333333","6500600","新店區"
"231066","4716-K9","2018/08/10 20:29:32","新北市新店區安民街365巷1弄8號","121.516358333333","24.97515","6500600","新店區"
"231056","4715-K9","2018/08/10 20:29:37","新北市新店區中央路2號","121.533991666667","24.978925","6500600","新店區"
"231067","4772-VM","2018/08/10 20:29:31","新北市新店區安華路28-1號","121.520071666667","24.96067","6500600","新店區"
"231049","513-UM","2018/08/10 20:29:31","新北市新店區華潭街22號","121.529175","24.9526733333333","6500600","新店區"
"231045","618-UM","2018/08/10 20:29:34","新北市新店區新坡一街18巷6弄36號","121.548296666667","24.95981","6500600","新店區"
"231061","619-UM","2018/08/10 20:29:29","新北市新店區新和街33號","121.519061666667","24.984745","6500600","新店區"
"231063","641-BX","2018/08/10 20:29:39","新北市新店區玫瑰路4-1號","121.493588333333","24.9514","6500600","新店區"
"231068","718-UY","2018/08/10 20:29:41","新北市新店區寶安街2巷1號","121.542298333333","24.9808216666667","6500600","新店區"
"231064","719-UM","2018/08/10 20:29:30","新北市新店區永安街74巷2號","121.51972","24.98641","6500600","新店區"
"231062","720-UM","2018/08/10 20:29:34","新北市新店區安泰路60巷21號","121.483545","24.94652","6500600","新店區"
"231060","897-TW","2018/08/10 20:29:37","新北市新店區錦秀路5號","121.47938","24.9449266666667","6500600","新店區"
"231043","899-TW","2018/08/10 20:29:30","新北市新店區建國路88號","121.540436666667","24.9771233333333","6500600","新店區"
"231055","AKT-0513","2018/08/10 20:29:29","新北市新店區安光路11號","121.513643333333","24.96389","6500600","新店區"
"241011","013-R5","2018/08/10 20:29:34","新北市三重區龍門路70號","121.496858333333","25.0726483333333","6500200","三重區"
"241028","022-UY","2018/08/10 20:29:31","新北市三重區光興街91號","121.497373333333","25.0599433333333","6500200","三重區"
"241008","059-VK","2018/08/10 20:29:28","新北市三重區下竹圍街42-1號","121.481068333333","25.0749033333333","6500200","三重區"
"241022","060-VK","2018/08/10 20:29:34","新北市三重區重陽路二段19巷6號","121.487481666667","25.0625766666667","6500200","三重區"
"241031","061-VK","2018/08/10 20:29:32","新北市三重區三寧街24號","121.489546666667","25.0601466666667","6500200","三重區"
"241015","062-VK","2018/08/10 20:29:36","新北市三重區正義北路107巷68號","121.498731666667","25.065975","6500200","三重區"
"241017","063-VK","2018/08/10 20:29:36","新北市三重區自強路一段288號","121.491555","25.0682433333333","6500200","三重區"
"241024","065-VK","2018/08/10 20:29:30","新北市三重區忠孝路三段15巷36號","121.480133333333","25.0680483333333","6500200","三重區"
"241026","066-VK","2018/08/10 20:29:34","新北市三重區環河南路31號","121.503325","25.0620083333333","6500200","三重區"
"241002","090-VK","2018/08/10 20:29:26","新北市三重區仁義街211巷53號","121.498278333333","25.0826966666667","6500200","三重區"
"241003","091-VK","2018/08/10 20:29:30","新北市三重區富華街175號","121.493633333333","25.0851933333333","6500200","三重區"
"241005","265-UM","2018/08/10 20:29:27","新北市三重區碧華街287號","121.490273333333","25.0836983333333","6500200","三重區"
"241016","266-UM","2018/08/10 20:29:40","新北市三重區正義北路140號","121.496781666667","25.0659116666667","6500200","三重區"
"241009","267-UM","2018/08/10 20:29:21","新北市三重區永福街73號","121.480311666667","25.0776833333333","6500200","三重區"
"241018","268-UM","2018/08/10 20:29:22","新北市三重區正義北路220號","121.4963","25.0675883333333","6500200","三重區"
"241013","270-UM","2018/08/10 20:29:36","新北市三重區溪尾街5巷8號","121.492141666667","25.0745133333333","6500200","三重區"
"241025","271-UM","2018/08/10 20:29:31","新北市三重區頂崁街210巷27號","121.475813333333","25.0682216666667","6500200","三重區"
"241007","398-BY","2018/08/10 20:29:34","新北市三重區自強路四段10號","121.488388333333","25.07621","6500200","三重區"
"241035","KEA-2210","2018/08/10 20:29:24","新北市三重區正義北路61-1號","121.497245","25.0644433333333","6500200","三重區"
"241004","413-TH","2018/08/10 20:29:27","新北市三重區溪尾街176號","121.48851","25.0806283333333","6500200","三重區"
"241020","478-VK","2018/08/10 20:29:37","新北市三重區忠孝路一段21巷16號","121.491703333333","25.0722766666667","6500200","三重區"
"241030","480-VK","2018/08/10 20:29:34","新北市三重區成功路75號","121.48871","25.0511216666667","6500200","三重區"
"241014","543-UM","2018/08/10 20:29:28","新北市三重區長興街100號","121.501828333333","25.069215","6500200","三重區"
"241023","545-UM","2018/08/10 20:29:25","新北市三重區自由街20號","121.479731666667","25.0665166666667","6500200","三重區"
"241001","547-UM","2018/08/10 20:29:29","新北市三重區福隆路2號","121.489513333333","25.0774366666667","6500200","三重區"
"241019","KEA-2593","2018/08/10 20:29:25","新北市三重區正義北路364巷52號","121.492713333333","25.0708083333333","6500200","三重區"
"241006","AAD-863","2018/08/10 20:29:25","新北市三重區車路頭街139巷14號","121.48426","25.0761916666667","6500200","三重區"
"241012","941-UM","2018/08/10 20:29:27","新北市三重區龍濱路269號","121.501458333333","25.072925","6500200","三重區"
"241029","942-UM","2018/08/10 20:29:25","新北市三重區集美街227號","121.49208","25.0551883333333","6500200","三重區"
"241033","AAC-255","2018/08/10 20:29:26","新北市三重區五谷王北街82號","121.476025","25.0527483333333","6500200","三重區"
"235066","003-UY","2018/08/10 20:29:32","新北市中和區保平路362巷11號","121.505778333333","25.0040233333333","6500300","中和區"
"247010","KEA-2869","2018/08/10 20:29:35","新北市蘆洲區信義路228號","121.478825","25.08545","6501400","蘆洲區"
"235050","4979-A6","2018/08/10 20:29:35","新北市中和區景新街160巷10號","121.505155","24.9968466666667","6500300","中和區"
"235069","4980-A6","2018/08/10 20:29:31","新北市中和區中正路540號","121.487458333333","24.9945966666667","6500300","中和區"
"220055","015-TV","2018/08/10 20:29:24","新北市新莊區瓊林路59-87號","121.442648333333","25.0246283333333","6500100","板橋區"
"247024","893-R6","2018/08/10 20:29:31","新北市蘆洲區中正路185巷78弄21號","121.46535","25.085055","6501400","蘆洲區"
"247014","546-UM","2018/08/10 20:29:34","新北市蘆洲區中山二路134號","121.471486666667","25.0814266666667","6501400","蘆洲區"
"247022","500-BY","2018/08/10 20:29:36","新北市蘆洲區中正路245號","121.467921666667","25.0866833333333","6501400","蘆洲區"
"247012","339-TH","2018/08/10 20:29:32","新北市蘆洲區復興路266號","121.480213333333","25.0897566666667","6501400","蘆洲區"
"247004","337-TH","2018/08/10 20:29:21","新北市蘆洲區永康街63巷1弄1號","121.4564","25.0849283333333","6501400","蘆洲區"
"247006","336-TH","2018/08/10 20:29:19","新北市蘆洲區光華路175巷35號","121.465456666667","25.08109","6501400","蘆洲區"
"247018","057-VK","2018/08/10 20:29:31","新北市蘆洲區民族路327巷7號","121.47454","25.0909766666667","6501400","蘆洲區"
"247008","056-VK","2018/08/10 20:29:29","新北市三重區永安北路二段101號","121.483085","25.0838766666667","6501400","蘆洲區"
"247016","007-UY","2018/08/10 20:29:33","新北市蘆洲區光華路72號","121.468018333333","25.08272","6501400","蘆洲區"
"247002","002-UY","2018/08/10 20:29:22","新北市蘆洲區長安街361巷11號","121.456481666667","25.0874133333333","6501400","蘆洲區"
"247020","001-UY","2018/08/10 20:29:39","新北市蘆洲區水湳街395號","121.469265","25.0944616666667","6501400","蘆洲區"
"235059","251-BX","2018/08/10 20:29:37","新北市中和區員山路32號","121.481146666667","24.9876966666667","6500300","中和區"
"224010","AGQ-8101","2018/08/10 20:23:03","新北市瑞芳區金光路372號","121.849015","25.1109316666667","6501200","瑞芳區"
"222001","KEA-2212","2018/08/10 20:29:25","新北市深坑區北深路三段329號","121.597278333333","25.0050483333333","6501800","深坑區"
"251001","011-UM","2018/08/10 20:29:24","新北市淡水區淡金路一段571號","121.452638333333","25.1807666666667","6501000","淡水區"
"251002","012-UM","2018/08/10 20:29:21","新北市淡水區中正路76號","121.442706666667","25.169775","6501000","淡水區"
"251008","181-VK","2018/08/10 20:29:29","新北市淡水區淡海路141號","121.421313333333","25.1829533333333","6501000","淡水區"
"251010","413-VK","2018/08/10 20:29:27","新北市淡水區沙崙路185號","121.424475","25.1840216666667","6501000","淡水區"
"251012","441-VK","2018/08/10 20:29:39","新北市淡水區頂田寮路109號","121.458025","25.216145","6501000","淡水區"
"251006","561-UM","2018/08/10 20:29:22","新北市淡水區商工路306號","121.461215","25.1858833333333","6501000","淡水區"
"251009","575-R6","2018/08/10 20:29:33","新北市淡水區中正東路一段111巷1號","121.453658333333","25.16014","6501000","淡水區"
"251007","577-R6","2018/08/10 20:29:34","新北市淡水區中山北路三段156號","121.445628333333","25.1957966666667","6501000","淡水區"
"251003","673-BX","2018/08/10 20:29:28","新北市淡水區新生街108巷1-2號","121.44024","25.174755","6501000","淡水區"
"252002","178-VK","2018/08/10 20:29:22","新北市三芝區淡金路二段47-2號","121.503686666667","25.260605","6502100","三芝區"
"252001","292-VK","2018/08/10 20:29:27","新北市三芝區中山路一段34號","121.500795","25.257755","6502100","三芝區"
"237010","706-TV","2018/08/10 20:29:38","新北市三峽區中山路459巷163-3號","121.348851666667","24.9332066666667","6500900","三峽區"
"242034","AAC-296","2018/08/10 20:29:26","新北市新莊區新泰路181號","121.447468333333","25.0374933333333","6500500","新莊區"
"242058","986-R7","2018/08/10 20:29:29","新北市新莊區四維路183號","121.42213","25.0211116666667","6500500","新莊區"
"242054","751-BX","2018/08/10 20:29:27","新北市新莊區西盛街372巷12號","121.427288333333","25.0134716666667","6500500","新莊區"
"242025","705-TV","2018/08/10 20:29:23","新北市新莊區五工三路62巷13號","121.460026666667","25.0649733333333","6500500","新莊區"
"242027","615-BX","2018/08/10 20:29:31","新北市新莊區思源路317號","121.459758333333","25.049215","6500500","新莊區"
"242041","566-BX","2018/08/10 20:29:25","新北市新莊區中正路694巷77號","121.417026666667","25.0295633333333","6500500","新莊區"
"242046","497-BY","2018/08/10 20:29:31","新北市新莊區中正路新雅巷2弄1號","121.418031666667","25.02536","6500500","新莊區"
"242050","441-UM","2018/08/10 20:29:29","新北市新莊區民安西路189巷22號","121.42698","25.015275","6500500","新莊區"
"242056","440-UM","2018/08/10 20:29:22","新北市新莊區瓊泰路140號","121.44323","25.032045","6500500","新莊區"
"242037","415-TV","2018/08/10 20:29:33","新北市新莊區後港一路76巷10弄1號","121.427095","25.0259716666667","6500500","新莊區"
"242007","413-TV","2018/08/10 20:29:31","新北市新莊區思源路335號","121.459715","25.0497883333333","6500500","新莊區"
"242044","400-BY","2018/08/10 20:29:39","新北市新莊區龍安路24號","121.414588333333","25.0222883333333","6500500","新莊區"
"242023","362-BY","2018/08/10 20:29:24","新北市新莊區新北大道二段302號","121.464703333333","25.0613066666667","6500500","新莊區"
"242060","353-BY","2018/08/10 20:29:37","新北市新莊區民安路356-3號","121.430103333333","25.0227466666667","6500500","新莊區"
"242009","132-UY","2018/08/10 20:29:20","新北市新莊區昌盛街103巷10號","121.456196666667","25.0505383333333","6500500","新莊區"
"242039","133-UY","2018/08/10 20:29:43","新北市新莊區民安路209號","121.426345","25.0222166666667","6500500","新莊區"
"242032","135-UY","2018/08/10 20:29:39","新北市新莊區義豐街15巷10號","121.440555","25.03507","6500500","新莊區"
"242048","172-VK","2018/08/10 20:29:37","新北市新莊區富國路62號","121.419646666667","25.026045","6500500","新莊區"
"242011","173-VK","2018/08/10 20:29:35","新北市新莊區中義街35號","121.450111666667","25.0511383333333","6500500","新莊區"
"242017","175-VK","2018/08/10 20:29:22","新北市新莊區中港三街21號","121.450506666667","25.046415","6500500","新莊區"
"242005","176-VK","2018/08/10 20:29:34","新北市新莊區化成路746巷3弄2號","121.46606","25.0577783333333","6500500","新莊區"
"242013","347-TH","2018/08/10 20:29:28","新北市新莊區中平路292巷1弄1號","121.445478333333","25.0517683333333","6500500","新莊區"
"242021","348-TH","2018/08/10 20:29:39","新北市新莊區公園路11號","121.448576666667","25.0394683333333","6500500","新莊區"
"242002","349-TH","2018/08/10 20:29:40","新北市新莊區中正路80號","121.457726666667","25.0374666666667","6500500","新莊區"
"242019","350-TH","2018/08/10 20:29:27","新北市新莊區民樂街72號","121.457995","25.04345","6500500","新莊區"
"221036","130-UY","2018/08/10 20:29:31","新北市汐止區新台五路二段150號","121.664338333333","25.0665066666667","6501100","汐止區"
"221015","131-UY","2018/08/10 20:29:36","新北市汐止區建成路160巷6號","121.661936666667","25.07361","6501100","汐止區"
"221010","269-BY","2018/08/10 20:29:25","新北市汐止區八連路一段530巷4號","121.639333333333","25.0924866666667","6501100","汐止區"
"221012","278-VK","2018/08/10 20:29:36","新北市汐止區大同路三段184號","121.674408333333","25.074715","6501100","汐止區"
"221023","279-VK","2018/08/10 20:29:35","新北市汐止區民族二街30巷17號","121.634143333333","25.0717283333333","6501100","汐止區"
"221032","280-BY","2018/08/10 20:29:28","新北市汐止區弘道街53巷16號","121.618833333333","25.0491933333333","6501100","汐止區"
"221027","281-BY","2018/08/10 20:29:25","新北市汐止區中正路191號","121.658771666667","25.0689983333333","6501100","汐止區"
"221008","297-VK","2018/08/10 20:29:24","新北市汐止區康寧街543號","121.634343333333","25.069155","6501100","汐止區"
"221029","298-VK","2018/08/10 20:29:37","新北市汐止區樟樹一路129巷32號","121.640513333333","25.0651616666667","6501100","汐止區"
"221021","299-VK","2018/08/10 20:29:22","新北市汐止區水源路一段290號","121.654143333333","25.0580233333333","6501100","汐止區"
"221031","353-TW","2018/08/10 20:29:39","新北市汐止區福德一路231號","121.634308333333","25.0647666666667","6501100","汐止區"
"221002","129-UY","2018/08/10 20:29:38","新北市汐止區福德三路75號","121.63654","25.0693016666667","6501100","汐止區"
"221035","622-UM","2018/08/10 20:29:24","新北市汐止區長江街101-5號","121.658728333333","25.0731716666667","6501100","汐止區"
"221025","623-UM","2018/08/10 20:29:41","新北市汐止區水源路二段88巷1弄10號","121.656423333333","25.0555133333333","6501100","汐止區"
"221038","646-BX","2018/08/10 20:29:27","新北市汐止區水源路一段56-1號","121.657006666667","25.0653116666667","6501100","汐止區"
"221033","647-BX","2018/08/10 20:29:43","新北市汐止區林森街73巷15號","121.623898333333","25.0413683333333","6501100","汐止區"
"221018","753-BX","2018/08/10 20:29:33","新北市汐止區茄苳路225巷11弄33號","121.670395","25.070095","6501100","汐止區"
"220083","286-VK","2018/08/10 20:29:38","新北市板橋區僑中二街104巷45號","121.444315","25.0081466666667","6500100","板橋區"
"220061","293-UM","2018/08/10 20:29:23","新北市板橋區文華街26號","121.457336666667","25.0007666666667","6500100","板橋區"
"242015","281-VK","2018/08/10 20:29:33","新北市新莊區中平路82巷36-2號","121.44657","25.0448816666667","6500500","新莊區"
"220103","561-BX","2018/08/10 20:29:20","新北市板橋區漢生東路43巷28號","121.466505","25.0175816666667","6500100","板橋區"
"220093","689-BX","2018/08/10 20:29:31","新北市八里區中山路三段390號","121.368471666667","25.1356783333333","6500100","板橋區"
"220089","833-TW","2018/08/10 20:29:38","新北市板橋區四維路367號","121.462081666667","25.0302766666667","6500100","板橋區"
"220070","AAC-253","2018/08/10 20:29:39","新北市泰山區楓江路112巷6號","121.439043333333","25.06404","6500100","板橋區"
