"lineid","car","time","location","longitude","latitude","cityid","cityname"
"234077","969-R7","2018/08/10 21:29:37","新北市八里區荖阡坑路32號","121.403458333333","25.1272033333333","6500400","永和區"
"231063","641-BX","2018/08/10 21:29:39","新北市新店區如意街76號","121.494988333333","24.9468866666667","6500600","新店區"
"241024","065-VK","2018/08/10 21:29:30","新北市三重區中正北路145巷8弄2號","121.484091666667","25.067815","6500200","三重區"
"241026","066-VK","2018/08/10 21:29:34","新北市三重區同安街98號","121.494666666667","25.0563783333333","6500200","三重區"
"241005","265-UM","2018/08/10 21:29:27","新北市三重區仁華街28巷1號","121.483641666667","25.0825533333333","6500200","三重區"
"241016","266-UM","2018/08/10 21:29:40","新北市三重區正義北路119號","121.496831666667","25.0660083333333","6500200","三重區"
"241009","267-UM","2018/08/10 21:28:41","新北市五股區中直路13-7號","121.424808333333","25.1104383333333","6500200","三重區"
"241007","398-BY","2018/08/10 21:29:34","新北市三重區正義北路124號","121.496883333333","25.06554","6500200","三重區"
"241006","AAD-863","2018/08/10 21:29:25","新北市五股區天乙路102-22號","121.448281666667","25.1070666666667","6500200","三重區"
"247010","KEA-2869","2018/08/10 21:29:35","新北市五股區四維路185巷20號","121.466145","25.077225","6501400","蘆洲區"
"247024","893-R6","2018/08/10 21:27:51","新北市五股區中直路21號","121.42083","25.1121233333333","6501400","蘆洲區"
"247022","500-BY","2018/08/10 21:29:36","新北市蘆洲區長安街313巷46號","121.455275","25.0860766666667","6501400","蘆洲區"
"247012","339-TH","2018/08/10 21:29:32","新北市蘆洲區永平街32巷21弄35號","121.45462","25.09402","6501400","蘆洲區"
"247006","336-TH","2018/08/10 21:29:39","新北市蘆洲區長安街307號","121.457883333333","25.0851116666667","6501400","蘆洲區"
"247016","007-UY","2018/08/10 21:29:33","新北市八里區商港路120號","121.392886666667","25.15007","6501400","蘆洲區"
"247002","002-UY","2018/08/10 21:29:22","新北市五股區新五路三段181號","121.448628333333","25.0922433333333","6501400","蘆洲區"
"251005","010-UM","2018/08/10 21:29:28","新北市淡水區水源街一段34巷9號","121.44322","25.1718283333333","6501000","淡水區"
"251001","011-UM","2018/08/10 21:29:24","新北市淡水區濱海路二段202巷65弄31號","121.435151666667","25.193425","6501000","淡水區"
"251008","181-VK","2018/08/10 21:29:29","新北市淡水區水源街二段112號","121.452456666667","25.1745416666667","6501000","淡水區"
"251010","413-VK","2018/08/10 21:29:24","新北市淡水區沙崙路25巷21號","121.420506666667","25.1824533333333","6501000","淡水區"
"251012","441-VK","2018/08/10 21:29:39","新北市淡水區淡金路五段20號","121.452736666667","25.2321683333333","6501000","淡水區"
"251004","443-VK","2018/08/10 21:29:30","新北市淡水區民族路2號","121.460356666667","25.136985","6501000","淡水區"
"251006","561-UM","2018/08/10 21:29:22","新北市淡水區公明街43號","121.44329","25.1688133333333","6501000","淡水區"
"251009","575-R6","2018/08/10 21:29:33","新北市淡水區民族路33巷16-8號","121.463318333333","25.1359833333333","6501000","淡水區"
"251007","577-R6","2018/08/10 21:29:34","新北市淡水區水源街二段194號","121.456963333333","25.1762166666667","6501000","淡水區"
"251011","650-BX","2018/08/10 21:29:29","新北市淡水區新民街180-8號","121.436566666667","25.1790733333333","6501000","淡水區"
"251003","673-BX","2018/08/10 21:29:28","新北市淡水區崁頂15-5號","121.439016666667","25.1859383333333","6501000","淡水區"
"220070","AAC-253","2018/08/10 21:29:39","新北市五股區新五路三段19號","121.44562","25.08942","6500100","板橋區"
