"lineid","car","time","location","longitude","latitude","cityid","cityname"
"247005","336-TH","2018/08/10 22:27:32","新北市五股區中興路三段163號","121.449051666667","25.0808133333333","6501400","蘆洲區"
"251008","181-VK","2018/08/10 22:29:29","新北市淡水區學府路104號","121.449886666667","25.1717983333333","6501000","淡水區"
"251010","413-VK","2018/08/10 22:29:24","新北市淡水區沙崙路200號","121.424671666667","25.1839266666667","6501000","淡水區"
"251004","443-VK","2018/08/10 22:29:30","新北市淡水區民族路33號","121.462208333333","25.1357866666667","6501000","淡水區"
"251007","577-R6","2018/08/10 22:29:34","新北市淡水區北新路180號","121.449295","25.1787","6501000","淡水區"
"251011","650-BX","2018/08/10 22:29:29","新北市淡水區水碓街15-1號","121.443216666667","25.1772316666667","6501000","淡水區"
