"lineid","car","time","location","longitude","latitude","cityid","cityname"
"248005","653-BX","2018/08/11 07:39:42","新北市五股區明德路12巷1號","121.433303333333","25.0717366666667","6501500","五股區"
"232004","290-BY","2018/08/11 07:39:34","新北市坪林區下坑子口6-15號","121.71122","24.943455","6502000","坪林區"
"232010","375-UM","2018/08/11 07:39:54","新北市坪林區磨壁潭3號","121.72085","24.9386116666667","6502000","坪林區"
"244005","248-BX","2018/08/11 07:39:36","新北市林口區下福里2鄰39號","121.313106666667","25.1046","6501700","林口區"
"231007","189-VK","2018/08/11 07:39:37","新北市新店區安一路一段1-1號","121.519551666667","24.9613633333333","6500600","新店區"
"235001","611-BX","2018/08/11 07:39:54","新北市中和區圓通路367巷4號","121.4914","24.9892916666667","6500300","中和區"
"226005","5620-A6","2018/08/11 07:39:51","新北市平溪區石底里公園街22號","121.737568333333","25.0249933333333","6502400","平溪區"
"226007","7418-A5","2018/08/11 07:39:44","新北市平溪區平湖里大厝37-5號","121.77936","25.0302233333333","6502400","平溪區"
"226003","AGD-0702","2018/08/11 07:36:31","新北市平溪區嶺腳里嶺腳寮83-2號","121.750725","25.0351516666667","6502400","平溪區"
"223006","022-BY","2018/08/11 07:39:52","新北市石碇區摸乳巷5號","121.659598333333","24.9848333333333","6501900","石碇區"
"223002","KEA-2673","2018/08/11 07:39:51","新北市石碇區烏塗窟14-1號","121.656218333333","24.9756266666667","6501900","石碇區"
"223003","205-TH","2018/08/11 07:34:23","新北市石碇區烏塗窟7-1號","121.654176666667","24.9760633333333","6501900","石碇區"
"223008","406-TH","2018/08/11 07:39:42","新北市石碇區玉桂嶺3號","121.701148333333","25.01168","6501900","石碇區"
"223001","592-UM","2018/08/11 07:32:29","新北市石碇區蓬菜寮7號","121.653438333333","24.9756783333333","6501900","石碇區"
"223004","660-BX","2018/08/11 07:39:36","新北市石碇區八分寮47號","121.64236","25.013935","6501900","石碇區"
"223007","661-BX","2018/08/11 07:39:36","新北市石碇區靜安路一段337號","121.698923333333","25.0146216666667","6501900","石碇區"
"223005","677-TV","2018/08/11 07:39:33","新北市石碇區八分寮47-1號","121.642453333333","25.0138783333333","6501900","石碇區"
"227006","030-BX","2018/08/11 07:39:42","新北市雙溪區雙溪里太平路54號","121.864833333333","25.0355166666667","6502500","雙溪區"
"252004","249-BX","2018/08/11 07:39:44","新北市三芝區店子里菜公坑99-3號","121.512661666667","25.20587","6502100","三芝區"
"252007","AAC-283","2018/08/11 07:39:46","新北市三芝區古庄里茂興店63號","121.488551666667","25.2661533333333","6502100","三芝區"
"236011","165-UM","2018/08/11 07:39:45","新北市土城區延壽路2巷5號","121.471838333333","24.9903766666667","6501300","土城區"
"236002","339-SR","2018/08/11 07:39:47","新北市土城區龍泉路89-1號","121.446378333333","24.9422183333333","6501300","土城區"
