"lineid","car","time","location","longitude","latitude","cityid","cityname"
"248005","653-BX","2018/08/11 07:49:42","新北市五股區明德路12巷1號","121.433323333333","25.071755","6501500","五股區"
"232010","375-UM","2018/08/11 07:49:54","新北市坪林區厚德岡坑8-5號","121.733155","24.9409633333333","6502000","坪林區"
"244005","248-BX","2018/08/11 07:49:39","新北市林口區下福里15鄰74號","121.309401666667","25.114935","6501700","林口區"
"231007","189-VK","2018/08/11 07:49:37","新北市新店區安一路一段1-1號","121.519516666667","24.9611816666667","6500600","新店區"
"235001","611-BX","2018/08/11 07:49:54","新北市中和區圓通路367巷6號","121.491525","24.9892483333333","6500300","中和區"
"226005","5620-A6","2018/08/11 07:49:51","新北市平溪區嶺腳里中華街15號","121.739813333333","25.0252566666667","6502400","平溪區"
"226007","7418-A5","2018/08/11 07:49:44","新北市平溪區南山里南山坪94號","121.77712","25.0414033333333","6502400","平溪區"
"226003","AGD-0702","2018/08/11 07:36:31","新北市平溪區嶺腳里嶺腳寮83-2號","121.750725","25.0351516666667","6502400","平溪區"
"223006","022-BY","2018/08/11 07:49:52","新北市石碇區碇格路二段2號","121.647588333333","24.958365","6501900","石碇區"
"223002","KEA-2673","2018/08/11 07:49:51","新北市石碇區烏塗窟14-1號","121.656216666667","24.9756166666667","6501900","石碇區"
"223003","205-TH","2018/08/11 07:44:43","新北市石碇區蛇舌子6號","121.664888333333","24.96846","6501900","石碇區"
"223001","592-UM","2018/08/11 07:49:50","新北市石碇區樟空子10-3號","121.66685","24.9632966666667","6501900","石碇區"
"223004","660-BX","2018/08/11 07:49:56","新北市石碇區靜安路一段13號","121.642025","25.0113566666667","6501900","石碇區"
"223007","661-BX","2018/08/11 07:43:08","新北市石碇區靜安路一段337號","121.698945","25.0146016666667","6501900","石碇區"
"223005","677-TV","2018/08/11 07:49:54","新北市石碇區靜安路一段8號","121.641805","25.0111366666667","6501900","石碇區"
"227006","030-BX","2018/08/11 07:49:42","新北市雙溪區雙溪里太平路54號","121.864826666667","25.03552","6502500","雙溪區"
"252004","249-BX","2018/08/11 07:49:44","新北市三芝區店子里菜公坑97號","121.515778333333","25.2072866666667","6502100","三芝區"
"252007","AAC-283","2018/08/11 07:49:46","新北市三芝區海景一街5號","121.47209","25.2467133333333","6502100","三芝區"
"237001","159-UY","2018/08/11 07:49:37","新北市三峽區大學路51號","121.376628333333","24.9410066666667","6500900","三峽區"
"236011","165-UM","2018/08/11 07:49:45","新北市土城區金城路三段14-1號","121.464976666667","24.9862016666667","6501300","土城區"
"236002","339-SR","2018/08/11 07:49:47","新北市土城區龍泉路79號","121.431115","24.9427266666667","6501300","土城區"
