"lineid","car","time","location","longitude","latitude","cityid","cityname"
"248005","653-BX","2018/06/28 08:19:30","新北市五股區明德路12巷6號","121.433385","25.0718183333333","6501500","五股區"
"232001","290-BY","2018/06/28 08:11:55","新北市坪林區坪雙路一段115號","121.728236666667","24.9482333333333","6502000","坪林區"
"232014","291-BY","2018/06/28 08:19:27","新北市坪林區金瓜寮3-1號","121.68095","24.91827","6502000","坪林區"
"232017","705-BZ","2018/06/28 08:13:20","新北市坪林區坪雙路一段115號","121.72803","24.9482433333333","6502000","坪林區"
"232007","758-BX","2018/06/28 08:19:36","新北市坪林區北宜路八段477號","121.70679","24.9215883333333","6502000","坪林區"
"244006","080-UY","2018/06/28 08:19:30","新北市林口區菁埔路37號","121.377331666667","25.09708","6501700","林口區"
"244001","248-BX","2018/06/28 08:19:31","新北市林口區嘉溪雅坑13號","121.331848333333","25.1059166666667","6501700","林口區"
"244018","403-UM","2018/06/28 08:19:34","新北市林口區公園路166號","121.372066666667","25.072215","6501700","林口區"
"244012","742-UY","2018/06/28 08:19:42","新北市林口區中正路497號","121.383513333333","25.0777183333333","6501700","林口區"
"244008","410-SL","2018/06/28 08:19:33","新北市林口區中北三街178號","121.383113333333","25.0826783333333","6501700","林口區"
"244022","483-VK","2018/06/28 08:19:33","新北市林口區育林街11巷2號","121.385626666667","25.0752916666667","6501700","林口區"
"244016","485-VK","2018/06/28 08:19:33","新北市林口區文化一路一段129號","121.3736","25.071535","6501700","林口區"
"244010","701-TV","2018/06/28 08:19:23","新北市林口區佳林路140號","121.384361666667","25.0773183333333","6501700","林口區"
"244024","837-TS","2018/06/28 08:19:43","新北市林口區文化三路二段1-1號","121.372718333333","25.0781783333333","6501700","林口區"
"244020","838-TS","2018/06/28 08:19:43","新北市林口區醒吾新村13號","121.396245","25.0791883333333","6501700","林口區"
"222004","016-RS","2018/06/28 08:18:19","新北市深坑區萬福路121號","121.605731666667","25.01653","6501800","深坑區"
"231069","189-VK","2018/06/28 08:19:30","新北市新店區新潭路一段100-3號","121.527245","24.9378266666667","6500600","新店區"
"231008","192-VK","2018/06/28 08:19:36","新北市新店區北宜路一段39巷32號","121.539823333333","24.9576716666667","6500600","新店區"
"235044","293-VK","2018/06/28 08:19:42","新北市新店區安和路三段47號","121.517998333333","24.9825183333333","6500300","中和區"
"235001","611-BX","2018/06/28 08:19:43","新北市中和區中正路458號","121.49062","24.9939166666667","6500300","中和區"
"226005","5620-A6","2018/06/28 08:19:25","新北市平溪區南山里南山坪123號","121.783973333333","25.0448666666667","6502400","平溪區"
"226007","7418-A5","2018/06/28 08:19:27","新北市平溪區靜安路三段86號","121.770041666667","25.0347266666667","6502400","平溪區"
"226003","AGD-0702","2018/06/28 08:19:28","新北市平溪區十分里十分街45號","121.774528333333","25.0408016666667","6502400","平溪區"
"223003","205-TH","2018/06/28 08:19:22","新北市石碇區北宜路六段直潭巷10號","121.660388333333","24.9350583333333","6501900","石碇區"
"223008","406-TH","2018/06/28 08:19:24","新北市石碇區靜安路一段123號","121.670433333333","25.0053816666667","6501900","石碇區"
"223001","592-UM","2018/06/28 08:19:29","新北市石碇區北宜路六段柑腳巷2號","121.659638333333","24.93805","6501900","石碇區"
"223004","660-BX","2018/06/28 08:19:41","新北市石碇區碇坪路一段39號","121.658101666667","24.9914916666667","6501900","石碇區"
"223007","661-BX","2018/06/28 08:19:35","新北市石碇區靜安路一段180號","121.670291666667","25.0053916666667","6501900","石碇區"
"223005","677-TV","2018/06/28 08:19:27","新北市石碇區碇坪路一段92號","121.658031666667","24.9913833333333","6501900","石碇區"
"224010","AGQ-8101","2018/06/28 08:19:28","新北市瑞芳區九芎橋路16號","121.832146666667","25.091645","6501200","瑞芳區"
"252005","073-UM","2018/06/28 08:19:34","新北市三芝區中山路二段50號","121.50316","25.25435","6502100","三芝區"
"252004","249-BX","2018/06/28 08:19:28","新北市三芝區興華里車埕62號","121.498716666667","25.1969183333333","6502100","三芝區"
"252007","AAC-283","2018/06/28 08:19:36","新北市三芝區後厝里大片頭62-2號","121.463276666667","25.2449366666667","6502100","三芝區"
"237001","159-UY","2018/06/28 08:19:26","新北市三峽區學成路260號","121.375733333333","24.942845","6500900","三峽區"
"236009","165-UM","2018/06/28 08:19:32","新北市土城區石門路54號","121.456983333333","24.9592483333333","6501300","土城區"
"236003","339-SR","2018/06/28 08:19:36","新北市土城區龍泉路66-2號","121.415346666667","24.941065","6501300","土城區"
"236005","498-BY","2018/06/28 08:19:31","新北市土城區永平街8號","121.428118333333","24.9626933333333","6501300","土城區"
"242033","AAC-296","2018/06/28 08:19:33","新北市新莊區新莊路676號","121.441401666667","25.0329133333333","6500500","新莊區"
"242057","986-R7","2018/06/28 08:19:44","新北市新莊區新北大道七段343號","121.412325","25.0274966666667","6500500","新莊區"
"242022","705-TV","2018/06/28 08:19:34","新北市新莊區福壽街5號","121.457758333333","25.0476883333333","6500500","新莊區"
"242026","615-BX","2018/06/28 08:19:40","新北市新莊區福壽街167號","121.458036666667","25.0535916666667","6500500","新莊區"
"242024","613-BX","2018/06/28 08:19:26","新北市三重區新北大道二段39號","121.470805","25.0612683333333","6500500","新莊區"
"242028","612-BX","2018/06/28 08:19:37","新北市新莊區中平路60號","121.444846666667","25.0442083333333","6500500","新莊區"
"242040","566-BX","2018/06/28 08:19:32","新北市泰山區壽山路32號","121.420646666667","25.0289683333333","6500500","新莊區"
"242045","497-BY","2018/06/28 08:19:41","新北市新莊區福營路97巷25號","121.435231666667","25.0317733333333","6500500","新莊區"
"242052","442-UM","2018/06/28 08:19:36","新北市新莊區新崑路57號","121.431666666667","24.9993383333333","6500500","新莊區"
"242049","441-UM","2018/06/28 08:19:41","新北市新莊區西盛街153巷3號","121.428478333333","25.0181666666667","6500500","新莊區"
"242035","415-TV","2018/06/28 08:19:39","新北市新莊區建福路46號","121.426636666667","25.02772","6500500","新莊區"
"242006","413-TV","2018/06/28 08:19:38","新北市新莊區自信街37號","121.454075","25.04831","6500500","新莊區"
"242043","400-BY","2018/06/28 08:19:37","新北市新莊區雙鳳路101號","121.414515","25.0278183333333","6500500","新莊區"
"242059","353-BY","2018/06/28 08:19:38","新北市新莊區新樹路595號","121.433056666667","25.0064316666667","6500500","新莊區"
"242008","132-UY","2018/06/28 08:19:39","新北市新莊區昌明街48號","121.456041666667","25.0523416666667","6500500","新莊區"
"242038","133-UY","2018/06/28 08:19:41","新北市新莊區民安路107號","121.42463","25.02496","6500500","新莊區"
"242030","135-UY","2018/06/28 08:19:44","新北市新莊區新泰路357巷1弄1號","121.442951666667","25.0411216666667","6500500","新莊區"
"242047","172-VK","2018/06/28 08:19:34","新北市新莊區萬安街102巷1號","121.420245","25.022415","6500500","新莊區"
"242010","173-VK","2018/06/28 08:17:08","新北市新莊區中港路713號","121.450603333333","25.05749","6500500","新莊區"
"242055","175-VK","2018/06/28 08:19:28","新北市新莊區瓊林路40巷21號","121.446923333333","25.030135","6500500","新莊區"
"242012","176-VK","2018/06/28 08:19:40","新北市新莊區中和街84號","121.44786","25.0463516666667","6500500","新莊區"
"242001","233-RS","2018/06/28 08:19:40","新北市新莊區瓊林路59-66號","121.441368333333","25.0226783333333","6500500","新莊區"
"242014","346-TH","2018/06/28 08:19:42","新北市新莊區中平路87巷5號","121.444021666667","25.045725","6500500","新莊區"
"242016","347-TH","2018/06/28 08:19:37","新北市新莊區永安街19號","121.452075","25.0447616666667","6500500","新莊區"
"242020","348-TH","2018/06/28 08:19:41","新北市新莊區中華路一段39-1號","121.452013333333","25.0379333333333","6500500","新莊區"
"242001","349-TH","2018/06/28 08:19:29","新北市新莊區大觀街42巷31號","121.45458","25.0364916666667","6500500","新莊區"
"242018","350-TH","2018/06/28 08:19:26","新北市新莊區民樂街46號","121.457996666667","25.0414416666667","6500500","新莊區"
"242003","281-VK","2018/06/28 08:19:41","新北市新莊區福樂街56巷22號","121.458538333333","25.0461183333333","6500500","新莊區"
