"lineid","car","time","location","longitude","latitude","cityid","cityname"
"248005","653-BX","2018/06/28 09:49:30","新北市五股區成泰路一段7巷38號","121.432648333333","25.0670383333333","6501500","五股區"
"244018","403-UM","2018/06/28 09:49:34","新北市林口區麗園二街87號","121.38266","25.0668366666667","6501700","林口區"
"244012","742-UY","2018/06/28 09:49:42","新北市林口區竹林路77號","121.388356666667","25.079175","6501700","林口區"
"244022","483-VK","2018/06/28 09:49:33","新北市林口區文化三路二段211巷85號","121.375248333333","25.08429","6501700","林口區"
"244016","485-VK","2018/06/28 09:49:33","新北市林口區公園路87號","121.368576666667","25.0696283333333","6501700","林口區"
"244010","701-TV","2018/06/28 09:49:43","新北市林口區中正路296巷22號","121.388095","25.0782566666667","6501700","林口區"
"222004","016-RS","2018/06/28 09:49:26","新北市深坑區昇高坑路35號","121.628698333333","24.9983483333333","6501800","深坑區"
"231069","189-VK","2018/06/28 09:49:30","新北市新店區新潭路三段215巷25號","121.508138333333","24.9040766666667","6500600","新店區"
"231008","192-VK","2018/06/28 09:43:56","新北市新店區平廣路一段256號","121.507075","24.8877433333333","6500600","新店區"
"223008","406-TH","2018/06/28 09:49:41","新北市石碇區小粗坑(潭邊里)15-6號","121.684268333333","24.9838616666667","6501900","石碇區"
"223007","661-BX","2018/06/28 09:48:15","新北市石碇區小粗坑(潭邊里)15-8號","121.68699","24.98476","6501900","石碇區"
"224010","AGQ-8101","2018/06/28 09:47:22","新北市瑞芳區傑魚坑路200-1號","121.801346666667","25.1069266666667","6501200","瑞芳區"
"252004","249-BX","2018/06/28 09:49:28","新北市三芝區福德里大水堀21號","121.512471666667","25.220125","6502100","三芝區"
"252007","AAC-283","2018/06/28 09:49:36","新北市三芝區新庄里新庄子76號","121.507621666667","25.2729883333333","6502100","三芝區"
"237001","159-UY","2018/06/28 09:49:46","新北市三峽區大觀路343號","121.373205","24.9473866666667","6500900","三峽區"
"236009","165-UM","2018/06/28 09:49:32","新北市土城區中央路四段321巷34弄5號","121.41292","24.950115","6501300","土城區"
"236005","498-BY","2018/06/28 09:49:44","新北市土城區忠義路55巷35號","121.443611666667","24.9670883333333","6501300","土城區"
"242057","986-R7","2018/06/28 09:49:44","新北市新莊區四維路95號","121.423383333333","25.023755","6500500","新莊區"
"242022","705-TV","2018/06/28 09:49:34","新北市新莊區新泰路357巷3弄57號","121.442135","25.0397516666667","6500500","新莊區"
"242052","442-UM","2018/06/28 09:49:44","新北市新莊區民安西路226號","121.425943333333","25.0145283333333","6500500","新莊區"
"242059","353-BY","2018/06/28 09:49:38","新北市新莊區新樹路443號","121.432623333333","25.0135866666667","6500500","新莊區"
"242030","135-UY","2018/06/28 09:49:32","新北市新莊區中正路508巷5弄2號","121.435028333333","25.0338616666667","6500500","新莊區"
"242047","172-VK","2018/06/28 09:49:34","新北市新莊區環漢路三段530號","121.435383333333","25.001375","6500500","新莊區"
"242055","175-VK","2018/06/28 09:49:27","新北市新莊區環河路500號","121.439035","25.0173633333333","6500500","新莊區"
"242001","233-RS","2018/06/28 09:30:44","新北市新莊區環河路636-7號","121.437415","25.0116566666667","6500500","新莊區"
"242001","349-TH","2018/06/28 09:49:29","新北市板橋區大觀路三段2巷7號","121.435235","24.9962733333333","6500500","新莊區"
"242003","281-VK","2018/06/28 09:49:40","新北市新莊區思源路167號","121.459891666667","25.044955","6500500","新莊區"
