"lineid","car","time","location","longitude","latitude","cityid","cityname"
"248005","653-BX","2018/06/28 10:09:30","新北市五股區蓬萊路6巷41號","121.435816666667","25.0802183333333","6501500","五股區"
"244022","483-VK","2018/06/28 10:09:33","新北市林口區仁愛路二段377號","121.370313333333","25.0800066666667","6501700","林口區"
"222004","016-RS","2018/06/28 10:09:26","新北市深坑區王軍寮1-6號","121.621641666667","24.9850966666667","6501800","深坑區"
"231069","189-VK","2018/06/28 10:09:30","新北市新店區新潭路三段215巷25號","121.508128333333","24.904095","6500600","新店區"
"231008","192-VK","2018/06/28 10:09:35","新北市新店區平廣路一段22號","121.537336666667","24.9057366666667","6500600","新店區"
"224010","AGQ-8101","2018/06/28 09:55:13","新北市瑞芳區民權街3-1號","121.809396666667","25.1082666666667","6501200","瑞芳區"
"252004","249-BX","2018/06/28 10:09:28","新北市三芝區福德里埔尾2號","121.502131666667","25.2469533333333","6502100","三芝區"
"252007","AAC-283","2018/06/28 10:09:36","新北市三芝區古庄里古庄103號","121.49439","25.2718116666667","6502100","三芝區"
"237001","159-UY","2018/06/28 10:09:26","新北市三峽區國際二街81號","121.370651666667","24.942155","6500900","三峽區"
