"lineid","car","time","location","longitude","latitude","cityid","cityname"
"234044","148-BY","2018/06/28 12:49:45","新北市永和區秀朗路二段126巷1號","121.524831666667","25.0012366666667","6500400","永和區"
"234005","207-UY","2018/06/28 12:49:40","新北市永和區文化路117號","121.512661666667","25.0152633333333","6500400","永和區"
"234078","298-R6","2018/06/28 12:49:38","新北市永和區永利路130號","121.521811666667","25.00302","6500400","永和區"
"234036","336-UY","2018/06/28 12:49:50","新北市永和區成功路一段63號","121.527011666667","25.00351","6500400","永和區"
"234062","337-UY","2018/06/28 12:49:42","新北市永和區福和路1號","121.526156666667","25.0096583333333","6500400","永和區"
"234084","338-UY","2018/06/28 12:49:48","新北市永和區中正路93號","121.515366666667","24.997335","6500400","永和區"
"234068","552-UM","2018/06/28 12:49:30","新北市永和區中興街102號","121.518983333333","25.0122033333333","6500400","永和區"
"234015","745-BX","2018/06/28 12:49:34","新北市永和區忠孝街26巷8號","121.515396666667","25.01673","6500400","永和區"
"234028","746-BX","2018/06/28 12:49:45","新北市永和區得和路326號","121.523268333333","24.9996","6500400","永和區"
"234052","KEA-2590","2018/06/28 12:49:49","新北市永和區環河東路一段122號","121.52043","25.0154516666667","6500400","永和區"
"234012","KEA-2591","2018/06/28 12:49:44","新北市永和區保福路二段133巷30號","121.50902","25.013485","6500400","永和區"
"234060","AAD-866","2018/06/28 12:49:40","新北市永和區福和路305號","121.51633","25.0071616666667","6500400","永和區"
"234040","862-TW","2018/06/28 12:49:46","新北市永和區永貞路306號","121.511891666667","25.0048216666667","6500400","永和區"
"234048","863-TW","2018/06/28 12:49:34","新北市永和區竹林路91巷60弄70號","121.523098333333","25.012195","6500400","永和區"
"234025","9371-KE","2018/06/28 12:49:40","新北市永和區中正路730號","121.5155","25.01011","6500400","永和區"
"234010","9373-KE","2018/06/28 12:49:49","新北市永和區保福路二段158巷1號","121.509135","25.0150083333333","6500400","永和區"
"248013","025-BX","2018/06/28 12:49:44","新北市五股區中興路二段83巷26-3號","121.460031666667","25.075445","6501500","五股區"
"248017","225-UY","2018/06/28 12:49:49","新北市五股區中興路二段83巷26-6號","121.460183333333","25.0751516666667","6501500","五股區"
"234022","9380-KE","2018/06/28 12:49:39","新北市永和區竹林路119巷45號","121.521916666667","25.01178","6500400","永和區"
"234076","969-R7","2018/06/28 12:49:39","新北市中和區安樂路69號","121.512405","24.9937333333333","6500400","永和區"
"234072","AAC-211","2018/06/28 12:49:43","新北市永和區福和路1號","121.526546666667","25.00989","6500400","永和區"
"234066","AAC-212","2018/06/28 12:49:46","新北市永和區永和路一段22號","121.513015","25.0047966666667","6500400","永和區"
"234001","AAC-295","2018/06/28 12:49:42","新北市永和區福和路239號","121.518405","25.0075033333333","6500400","永和區"
"243001","297-R6","2018/06/28 12:34:18","新北市泰山區黎明路25號","121.421773333333","25.060845","6501600","泰山區"
"231002","002-UM","2018/06/28 12:49:46","新北市新店區安華路28-1號","121.51976","24.96077","6500600","新店區"
"231028","046-UY","2018/06/28 12:49:40","新北市新店區安華路28-1號","121.519531666667","24.96075","6500600","新店區"
"231001","047-UY","2018/06/28 12:49:40","新北市新店區安華路28-1號","121.519406666667","24.9608316666667","6500600","新店區"
"231005","106-UY","2018/06/28 12:49:35","新北市新店區安華路28-1號","121.519583333333","24.9608116666667","6500600","新店區"
"231017","110-UY","2018/06/28 12:49:49","新北市新店區安一路一段1-1號","121.519273333333","24.9612133333333","6500600","新店區"
"231011","187-VK","2018/06/28 12:49:45","新北市新店區安華路1-1號","121.519531666667","24.9599533333333","6500600","新店區"
"231010","188-VK","2018/06/28 12:49:37","新北市新店區安一路一段1-1號","121.519363333333","24.9614016666667","6500600","新店區"
"231018","278-BY","2018/06/28 12:49:32","新北市新店區安一路一段1-1號","121.519736666667","24.9610916666667","6500600","新店區"
"231036","512-UM","2018/06/28 12:49:42","新北市新店區安一路一段1-1號","121.519581666667","24.9614433333333","6500600","新店區"
"231030","619-UM","2018/06/28 12:49:37","新北市新店區安華路28-1號","121.519443333333","24.960795","6500600","新店區"
"231035","719-UM","2018/06/28 12:49:37","新北市新店區安一路一段1-1號","121.519725","24.96182","6500600","新店區"
"231031","720-UM","2018/06/28 12:49:48","新北市新店區安一路一段1-1號","121.51951","24.9612016666667","6500600","新店區"
"231029","897-TW","2018/06/28 12:49:38","新北市新店區安華路28-1號","121.519605","24.960795","6500600","新店區"
"235029","098-UM","2018/06/28 12:49:27","新北市中和區中正路637巷52弄1號","121.485471666667","24.9933366666667","6500300","中和區"
"235002","185-VK","2018/06/28 12:49:50","新北市中和區和城路一段271巷1號","121.485423333333","24.992085","6500300","中和區"
"235031","255-BX","2018/06/28 12:49:35","新北市中和區中山路二段568巷8號","121.482756666667","25.0058133333333","6500300","中和區"
"235001","611-BX","2018/06/28 12:49:46","新北市中和區中山路三段120-13號","121.474565","25.009055","6500300","中和區"
"235035","783-BX","2018/06/28 12:49:33","新北市中和區員山路36巷16-3號","121.485121666667","24.99139","6500300","中和區"
"235005","802-TS","2018/06/28 12:49:44","新北市中和區員山路36巷16-2號","121.485241666667","24.991765","6500300","中和區"
"235016","805-TS","2018/06/28 12:49:33","新北市中和區員山路36巷16號","121.48442","24.9915283333333","6500300","中和區"
"228005","097-TW","2018/06/28 12:49:39","新北市貢寮區福連里福連街34-1號","121.988643333333","25.01112","6502600","貢寮區"
"228004","212-TW","2018/06/28 12:49:47","新北市貢寮區吉林里內寮街20-1號","121.889798333333","24.994725","6502600","貢寮區"
"207001","662-BX","2018/06/28 12:49:47","新北市萬里區萬里里獅頭路23號","121.693365","25.178255","6502800","萬里區"
"236005","498-BY","2018/06/28 12:49:30","新北市土城區永寧路35號","121.430088333333","24.9620216666667","6501300","土城區"
"221032","280-BY","2018/06/28 12:49:34","新北市汐止區大同路二段527號","121.661803333333","25.0689883333333","6501100","汐止區"
"221033","647-BX","2018/06/28 12:49:48","新北市汐止區新台五路一段132號","121.65255","25.0617133333333","6501100","汐止區"
