"lineid","car","time","location","longitude","latitude","cityid","cityname"
"234044","148-BY","2018/06/28 13:59:44","新北市永和區成功路一段20號","121.527043333333","25.0050433333333","6500400","永和區"
"234005","207-UY","2018/06/28 13:59:40","新北市中和區中和路320號","121.509738333333","25.0006883333333","6500400","永和區"
"234078","298-R6","2018/06/28 13:59:38","新北市永和區永亨路98號","121.522998333333","25.0046966666667","6500400","永和區"
"234036","336-UY","2018/06/28 13:59:50","新北市永和區成功路二段152-2號","121.526571666667","24.9966016666667","6500400","永和區"
"234062","337-UY","2018/06/28 13:59:45","新北市永和區中正路412巷20弄14號","121.518811666667","25.0014566666667","6500400","永和區"
"234084","338-UY","2018/06/28 13:59:46","新北市永和區福和路152號","121.521721666667","25.00797","6500400","永和區"
"234068","552-UM","2018/06/28 13:59:50","新北市永和區國光路6號","121.519741666667","25.0086383333333","6500400","永和區"
"234015","745-BX","2018/06/28 13:59:40","新北市永和區文化路117號","121.512636666667","25.015245","6500400","永和區"
"234028","746-BX","2018/06/28 13:59:45","新北市永和區民生路47巷48號","121.525141666667","24.9977916666667","6500400","永和區"
"234052","KEA-2590","2018/06/28 13:59:49","新北市永和區竹林路39巷38號","121.5199","25.0151483333333","6500400","永和區"
"234012","KEA-2591","2018/06/28 13:59:44","新北市永和區保生路55號","121.504701666667","25.0106083333333","6500400","永和區"
"234060","AAD-866","2018/06/28 13:59:41","新北市永和區中正路283巷55弄1號","121.515781666667","24.9991483333333","6500400","永和區"
"234040","862-TW","2018/06/28 13:59:46","新北市永和區中和路335巷18弄32號","121.508145","25.000515","6500400","永和區"
"234048","863-TW","2018/06/28 13:59:34","新北市永和區保安路151號","121.5069","25.0130916666667","6500400","永和區"
"234025","9371-KE","2018/06/28 13:59:48","新北市永和區安樂路467號","121.514245","25.0054816666667","6500400","永和區"
"234010","9373-KE","2018/06/28 13:59:49","新北市永和區仁愛路352巷92弄16號","121.501368333333","25.0082416666667","6500400","永和區"
"248013","025-BX","2018/06/28 13:59:44","新北市五股區民義路一段107巷32號","121.432465","25.084575","6501500","五股區"
"248015","026-BX","2018/06/28 13:59:43","新北市五股區凌雲路一段116巷2-1號","121.450286666667","25.1021083333333","6501500","五股區"
"248007","095-VK","2018/06/28 13:59:37","新北市五股區中興路一段118巷6弄17號","121.466276666667","25.07481","6501500","五股區"
"248017","225-UY","2018/06/28 13:59:49","新北市五股區民義路一段287巷2-8號","121.423445","25.09024","6501500","五股區"
"248011","247-BX","2018/06/28 13:59:45","新北市五股區成泰路二段195巷1號","121.44042","25.0873933333333","6501500","五股區"
"248003","677-BX","2018/06/28 13:59:52","新北市五股區民義路二段72號","121.404983333333","25.1094183333333","6501500","五股區"
"248001","678-BX","2018/06/28 13:59:45","新北市五股區天乙路1號","121.448593333333","25.102765","6501500","五股區"
"248009","682-TV","2018/06/28 13:59:45","新北市五股區水碓一路23號","121.430606666667","25.0713783333333","6501500","五股區"
"234022","9380-KE","2018/06/28 13:59:39","新北市永和區復興街39號","121.51652","25.0132383333333","6500400","永和區"
"234076","969-R7","2018/06/28 13:59:51","新北市永和區民族街43巷14號","121.519256666667","24.9983566666667","6500400","永和區"
"234072","AAC-211","2018/06/28 13:59:43","新北市永和區豫溪街161-1號","121.521508333333","25.01043","6500400","永和區"
"234066","AAC-212","2018/06/28 13:59:46","新北市永和區永貞路325號","121.50977","25.00682","6500400","永和區"
"234001","AAC-295","2018/06/28 13:59:42","新北市永和區福和路310號","121.516321666667","25.0073833333333","6500400","永和區"
"244001","248-BX","2018/06/28 13:59:40","新北市林口區汕頭13號","121.362145","25.1332783333333","6501700","林口區"
"243005","AAD-798","2018/06/28 13:59:47","新北市泰山區明志路三段349號","121.421986666667","25.0351883333333","6501600","泰山區"
"243001","297-R6","2018/06/28 13:59:49","新北市泰山區泰林路二段280巷2號","121.43157","25.0624733333333","6501600","泰山區"
"243008","380-SR","2018/06/28 13:59:34","新北市泰山區明志路二段135號","121.427675","25.05073","6501600","泰山區"
"243007","421-VK","2018/06/28 13:59:36","新北市泰山區明志路一段193號","121.432876666667","25.0617183333333","6501600","泰山區"
"243003","KEA-2215","2018/06/28 13:59:40","新北市泰山區明志路二段267號","121.426981666667","25.0474083333333","6501600","泰山區"
"243002","KEA-2216","2018/06/28 13:59:39","新北市泰山區辭修路26巷10號","121.429203333333","25.0584833333333","6501600","泰山區"
"243004","646-TV","2018/06/28 13:59:44","新北市泰山區福興一街76號","121.431976666667","25.057865","6501600","泰山區"
"243006","680-BX","2018/06/28 13:59:39","新北市泰山區黎明路21號","121.420901666667","25.062705","6501600","泰山區"
"231002","002-UM","2018/06/28 13:59:26","新北市新店區中正路707號","121.533615","24.99126","6500600","新店區"
"231027","0293-UT","2018/06/28 13:59:41","新北市新店區北宜路一段39巷20號","121.538886666667","24.9583766666667","6500600","新店區"
"231028","046-UY","2018/06/28 13:59:40","新北市新店區安和路三段14號","121.517946666667","24.9810933333333","6500600","新店區"
"231001","047-UY","2018/06/28 13:59:40","新北市新店區三民路45號","121.537101666667","24.97093","6500600","新店區"
"231005","106-UY","2018/06/28 13:59:35","新北市新店區中興路三段188號","121.54396","24.98155","6500600","新店區"
"231021","108-UY","2018/06/28 13:59:48","新北市新店區新烏路二段38-1號","121.544043333333","24.9290266666667","6500600","新店區"
"231017","110-UY","2018/06/28 13:59:49","新北市新店區郵政路1巷6號","121.557356666667","24.95213","6500600","新店區"
"231010","188-VK","2018/06/28 13:59:37","新北市新店區中央路216-1號","121.529833333333","24.973165","6500600","新店區"
"231023","KEA-2219","2018/06/28 13:59:39","新北市新店區文中路45號","121.539578333333","24.956715","6500600","新店區"
"231026","256-BX","2018/06/28 13:59:45","新北市新店區安康路一段9-2號","121.533645","24.9606016666667","6500600","新店區"
"231003","268-BY","2018/06/28 13:59:45","新北市新店區中興路一段103巷2號","121.541133333333","24.9623466666667","6500600","新店區"
"231018","278-BY","2018/06/28 13:59:32","新北市新店區中央路133巷14號","121.530623333333","24.9734966666667","6500600","新店區"
"231038","3712-VJ","2018/06/28 13:59:35","新北市新店區安華路30巷1號","121.519603333333","24.9592833333333","6500600","新店區"
"231037","4716-K9","2018/06/28 13:59:47","新北市新店區安康路三段165巷2弄29號","121.487963333333","24.9514916666667","6500600","新店區"
"231025","4715-K9","2018/06/28 13:59:42","新北市新店區中正路328巷40號","121.53817","24.976345","6500600","新店區"
"231036","512-UM","2018/06/28 13:59:41","新北市新店區安祥路109巷3弄104號","121.47934","24.96044","6500600","新店區"
"231013","513-UM","2018/06/28 13:59:34","新北市新店區明德路64號","121.541556666667","24.9794716666667","6500600","新店區"
"231030","619-UM","2018/06/28 13:59:37","新北市新店區安康路一段230-3號","121.522441666667","24.9637633333333","6500600","新店區"
"231034","641-BX","2018/06/28 13:59:43","新北市新店區達觀路14巷1-3號","121.50421","24.9424083333333","6500600","新店區"
"231035","719-UM","2018/06/28 13:59:41","新北市新店區安康路二段96號","121.513651666667","24.9630833333333","6500600","新店區"
"231011","719-UY","2018/06/28 13:59:41","新北市新店區德正街23巷15號","121.54483","24.9721566666667","6500600","新店區"
"231031","720-UM","2018/06/28 13:59:47","新北市新店區華城路5-3號","121.529293333333","24.9580533333333","6500600","新店區"
"231029","897-TW","2018/06/28 13:59:43","新北市新店區安康路二段80號","121.51402","24.963305","6500600","新店區"
"231006","898-TW","2018/06/28 13:59:49","新北市新店區北宜路二段215號","121.553265","24.9533916666667","6500600","新店區"
"231004","899-TW","2018/06/28 13:59:36","新北市新店區北新路二段137號","121.54276","24.9755433333333","6500600","新店區"
"231024","AKT-0513","2018/06/28 13:59:42","新北市新店區新生街13巷17號","121.539258333333","24.9658566666667","6500600","新店區"
"235030","003-UY","2018/06/28 13:59:48","新北市中和區中山路二段131巷5弄3號","121.502866666667","25.0028466666667","6500300","中和區"
"235028","005-UY","2018/06/28 13:59:47","新北市中和區泰和街30巷23號","121.498938333333","25.001185","6500300","中和區"
"235027","006-UY","2018/06/28 13:59:36","新北市中和區中正路568號","121.486505","24.9946","6500300","中和區"
"235020","096-UM","2018/06/28 13:59:34","新北市中和區中正路1222號","121.479735","25.0109683333333","6500300","中和區"
"235003","097-UM","2018/06/28 13:59:51","新北市中和區秀朗路三段177號","121.524345","24.9911","6500300","中和區"
"235029","098-UM","2018/06/28 13:59:47","新北市中和區莊敬路33號","121.500833333333","25.0049116666667","6500300","中和區"
"235004","150-BY","2018/06/28 13:59:42","新北市中和區保健路46巷29號","121.508898333333","24.9959","6500300","中和區"
"235022","151-BY","2018/06/28 13:59:46","新北市中和區員山路75號","121.480725","24.9941433333333","6500300","中和區"
"235019","183-VK","2018/06/28 13:59:32","新北市中和區中山路三段227號","121.471045","25.006575","6500300","中和區"
"235002","185-VK","2018/06/28 13:59:50","新北市中和區立人街24-5號","121.518856666667","24.9941166666667","6500300","中和區"
"235013","186-VK","2018/06/28 13:59:36","新北市中和區景安路141號","121.505618333333","24.9954816666667","6500300","中和區"
"235031","255-BX","2018/06/28 13:59:35","新北市中和區新生街168號","121.483725","25.0001816666667","6500300","中和區"
"235008","293-VK","2018/06/28 13:59:46","新北市中和區中興街161巷4弄1號","121.500578333333","24.9908816666667","6500300","中和區"
"235036","301-VK","2018/06/28 13:59:48","新北市中和區中山路二段41號","121.504616666667","25.005025","6500300","中和區"
"235007","352-BY","2018/06/28 13:59:48","新北市永和區成功路二段217巷3號","121.526583333333","24.9956366666667","6500300","中和區"
"235006","KEA-2878","2018/06/28 13:59:30","新北市中和區秀朗路三段22巷3號","121.526038333333","24.99624","6500300","中和區"
"235014","4979-A6","2018/06/28 13:59:35","新北市中和區忠孝街58巷16弄8號","121.511921666667","24.98299","6500300","中和區"
"235033","4980-A6","2018/06/28 13:59:37","新北市中和區圓通路109巷1弄4號","121.499868333333","24.9964883333333","6500300","中和區"
"235034","558-UM","2018/06/28 13:59:39","新北市中和區中和路212號","121.50601","24.9995","6500300","中和區"
"235009","565-BX","2018/06/28 13:59:34","新北市中和區景新街467巷20弄102號","121.514845","24.9872266666667","6500300","中和區"
"235018","640-BX","2018/06/28 13:59:41","新北市中和區民享街33-2號","121.474136666667","25.00394","6500300","中和區"
"235024","647-TV","2018/06/28 13:59:45","新北市中和區民治街5巷2號","121.47504","25.0049633333333","6500300","中和區"
"235010","733-UM","2018/06/28 13:59:42","新北市中和區興南路二段11號","121.50828","24.9860966666667","6500300","中和區"
"235035","783-BX","2018/06/28 13:59:33","新北市中和區中山路二段482巷33號","121.490153333333","25.0067833333333","6500300","中和區"
"235026","800-TS","2018/06/28 13:54:39","新北市中和區中山路二段332巷35號","121.493656666667","25.0037366666667","6500300","中和區"
"235021","801-TS","2018/06/28 13:59:41","新北市中和區民利街73號","121.478535","24.99823","6500300","中和區"
"235005","802-TS","2018/06/28 13:59:44","新北市中和區永貞路241號","121.513118333333","25.0037666666667","6500300","中和區"
"235016","805-TS","2018/06/28 13:59:33","新北市中和區興南路二段261巷7-1號","121.50316","24.9798633333333","6500300","中和區"
"235012","896-TW","2018/06/28 13:59:36","新北市中和區華新街9號","121.507543333333","24.98515","6500300","中和區"
"235017","900-TW","2018/06/28 13:59:49","新北市中和區壽德街26號","121.46656","24.9944","6500300","中和區"
"235015","157-BY","2018/06/28 13:59:32","新北市中和區忠孝街19巷6號","121.510181666667","24.983155","6500300","中和區"
"235001","AAC-213","2018/06/28 13:59:47","新北市中和區秀朗路三段10巷14弄45-3號","121.5239","24.9964683333333","6500300","中和區"
"235023","AAC-215","2018/06/28 13:59:41","新北市中和區圓通路367巷20弄29號","121.491308333333","24.9881933333333","6500300","中和區"
"220034","073-UY","2018/06/28 13:59:31","新北市板橋區中正路236巷27號","121.457156666667","25.01924","6500100","板橋區"
"220105","075-UY","2018/06/28 13:59:37","新北市板橋區莒光路59號","121.470928333333","25.0243","6500100","板橋區"
"220017","AAD-861","2018/06/28 13:59:38","新北市板橋區華興街70號","121.457358333333","25.0049483333333","6500100","板橋區"
"247013","546-UM","2018/06/28 13:59:51","新北市蘆洲區中正路187號","121.468676666667","25.08559","6501400","蘆洲區"
"247009","341-TH","2018/06/28 13:59:43","新北市蘆洲區集賢路228號","121.482426666667","25.0862833333333","6501400","蘆洲區"
"247011","339-TH","2018/06/28 13:59:42","新北市蘆洲區民族路152號","121.479605","25.0860383333333","6501400","蘆洲區"
"247003","337-TH","2018/06/28 13:59:31","新北市蘆洲區長榮路66號","121.462498333333","25.083405","6501400","蘆洲區"
"247005","336-TH","2018/06/28 13:59:35","新北市蘆洲區永安南路二段50號","121.466115","25.0775733333333","6501400","蘆洲區"
"247017","057-VK","2018/06/28 13:59:05","新北市蘆洲區民族路253-1號","121.476576666667","25.09018","6501400","蘆洲區"
"247007","056-VK","2018/06/28 13:59:39","新北市蘆洲區集賢路237號","121.481828333333","25.0851016666667","6501400","蘆洲區"
"247015","007-UY","2018/06/28 13:59:44","新北市蘆洲區光華路23-1號","121.469516666667","25.0832733333333","6501400","蘆洲區"
"247001","002-UY","2018/06/28 13:59:50","新北市蘆洲區永平街32巷70號","121.460455","25.09335","6501400","蘆洲區"
"247019","001-UY","2018/06/28 13:59:36","新北市蘆洲區民族路422巷11號","121.473873333333","25.0923666666667","6501400","蘆洲區"
"235011","251-BX","2018/06/28 13:59:48","新北市中和區興南路二段54巷11弄11號","121.505528333333","24.9853316666667","6500300","中和區"
"228005","097-TW","2018/06/28 13:51:39","新北市貢寮區美豐里雞母嶺街52號","121.890951666667","25.0657816666667","6502600","貢寮區"
"228004","212-TW","2018/06/28 13:59:47","新北市貢寮區龍崗里泮宮路33號","121.907928333333","25.0175416666667","6502600","貢寮區"
"253003","6232-TK","2018/06/28 13:59:41","新北市石門區尖子鹿50號","121.580416666667","25.2733266666667","6502200","石門區"
"253001","6251-TK","2018/06/28 13:59:46","新北市石門區下員坑50-1號","121.518613333333","25.2722966666667","6502200","石門區"
"253002","637-UY","2018/06/28 13:59:47","新北市石門區七股43號","121.552656666667","25.26044","6502200","石門區"
"253004","8270-PC","2018/06/28 13:59:44","新北市石門區草埔尾16號","121.602748333333","25.2634666666667","6502200","石門區"
"252005","073-UM","2018/06/28 13:59:33","新北市三芝區圓山里二坪頂47號","121.536721666667","25.245585","6502100","三芝區"
"207001","662-BX","2018/06/28 13:59:47","新北市萬里區磺潭里清水18號","121.63783","25.1976916666667","6502800","萬里區"
"236068","105-UM","2018/06/28 13:59:42","新北市土城區金城路一段88巷10號","121.445526666667","24.9729016666667","6501300","土城區"
"236040","107-UM","2018/06/28 13:59:36","新北市土城區城林路6巷80號","121.438516666667","24.9795133333333","6501300","土城區"
"236074","166-UM","2018/06/28 13:59:48","新北市土城區永寧路32巷10弄18-2號","121.429026666667","24.9609716666667","6501300","土城區"
"236029","253-BX","2018/06/28 13:59:36","新北市土城區城林路6巷80號","121.438378333333","24.97979","6501300","土城區"
"236024","269-VK","2018/06/28 13:59:41","新北市土城區承天路18號","121.439433333333","24.9635116666667","6501300","土城區"
"236012","270-VK","2018/06/28 13:59:50","新北市土城區城林路6巷80號","121.438548333333","24.9796316666667","6501300","土城區"
"236032","271-VK","2018/06/28 13:59:38","新北市土城區中央路二段219-5號","121.44089","24.97398","6501300","土城區"
"236017","401-BY","2018/06/28 13:59:38","新北市土城區城林路6巷80號","121.438611666667","24.9796966666667","6501300","土城區"
"236005","498-BY","2018/06/28 13:59:50","新北市土城區中央路一段353號","121.443158333333","24.981195","6501300","土城區"
"236057","912-UM","2018/06/28 13:59:44","新北市土城區中央路三段196號","121.430381666667","24.964905","6501300","土城區"
"236045","913-UM","2018/06/28 13:59:44","新北市土城區城林路6巷80號","121.438521666667","24.9797116666667","6501300","土城區"
"236060","915-UM","2018/06/28 13:59:38","新北市土城區城林路6巷80號","121.438391666667","24.97957","6501300","土城區"
"236054","AAC-216","2018/06/28 13:59:46","新北市土城區城林路6巷80號","121.4387","24.9797233333333","6501300","土城區"
"242001","233-RS","2018/06/28 13:59:36","新北市新莊區自強街37巷14弄11號","121.45412","25.046905","6500500","新莊區"
"221033","647-BX","2018/06/28 13:59:48","新北市八里區下罟子17號","121.379758333333","25.1431116666667","6501100","汐止區"
"220027","145-BY","2018/06/28 13:59:42","新北市板橋區民權路202巷7弄22號","121.459325","25.0150466666667","6500100","板橋區"
"220028","200-UY","2018/06/28 13:59:40","新北市板橋區合宜一路55號","121.444041666667","24.9961216666667","6500100","板橋區"
"220030","610-BX","2018/06/28 13:59:30","新北市板橋區滿平街81巷120弄22號","121.427866666667","24.989015","6500100","板橋區"
"220050","245-BX","2018/06/28 13:59:42","新北市板橋區民生路二段161巷5號","121.47025","25.0197733333333","6500100","板橋區"
"220004","276-BY","2018/06/28 13:59:32","新北市板橋區信義路117號","121.45772","24.9933716666667","6500100","板橋區"
"220020","277-BY","2018/06/28 13:59:41","新北市板橋區篤行路一段29號","121.432078333333","24.9945016666667","6500100","板橋區"
"220019","283-VK","2018/06/28 13:59:36","新北市板橋區重慶路245巷52弄2號","121.465365","25.0006433333333","6500100","板橋區"
"220043","285-UM","2018/06/28 13:59:44","新北市板橋區光武街17號","121.467816666667","25.02482","6500100","板橋區"
"220001","285-VK","2018/06/28 13:59:45","新北市板橋區太和街6巷2號","121.473808333333","25.01999","6500100","板橋區"
"220031","286-VK","2018/06/28 13:59:41","新北市板橋區僑中二街152號","121.444868333333","25.0043016666667","6500100","板橋區"
"220029","287-VK","2018/06/28 13:59:43","新北市板橋區光華街19巷6號","121.453726666667","25.0121033333333","6500100","板橋區"
"220039","288-VK","2018/06/28 13:59:30","新北市板橋區四維路179號","121.464315","25.02647","6500100","板橋區"
"220009","293-UM","2018/06/28 13:59:41","新北市板橋區永豐街120巷2弄2號","121.476503333333","25.0205583333333","6500100","板橋區"
"220032","296-UM","2018/06/28 13:59:38","新北市板橋區篤行路一段16號","121.431365","24.995495","6500100","板橋區"
"220023","303-R5","2018/06/28 13:59:46","新北市板橋區大仁街122號","121.452525","25.015775","6500100","板橋區"
"220010","305-R5","2018/06/28 13:59:43","新北市板橋區民生路一段91號","121.474483333333","25.0140033333333","6500100","板橋區"
"220041","307-R5","2018/06/28 13:59:33","新北市板橋區漢生東路7號","121.464538333333","25.01741","6500100","板橋區"
"220047","317-R6","2018/06/28 13:59:44","新北市板橋區民有街18號","121.46625","25.0249883333333","6500100","板橋區"
"220013","461-BY","2018/06/28 13:59:48","新北市板橋區漢生東路342號","121.471915","25.0074716666667","6500100","板橋區"
"220012","486-VK","2018/06/28 13:59:49","新北市板橋區縣民大道二段122號","121.467515","25.0157816666667","6500100","板橋區"
"220037","491-VK","2018/06/28 13:59:51","新北市板橋區民生路二段216號","121.469275","25.0215716666667","6500100","板橋區"
"220104","560-BX","2018/06/28 13:59:40","新北市板橋區中正路341巷37號","121.454006666667","25.0197166666667","6500100","板橋區"
"220052","561-BX","2018/06/28 13:59:35","新北市板橋區縣民大道二段279號","121.470043333333","25.0178116666667","6500100","板橋區"
"220011","609-BX","2018/06/28 13:59:32","新北市板橋區中山路二段86號","121.47507","25.01632","6500100","板橋區"
"220040","637-BX","2018/06/28 13:59:34","新北市板橋區大同街56號","121.478946666667","25.02769","6500100","板橋區"
"220005","686-BX","2018/06/28 13:59:48","新北市板橋區重慶路159號","121.462688333333","25.0030083333333","6500100","板橋區"
"220042","689-BX","2018/06/28 13:59:36","新北市板橋區民生路三段54號","121.467131666667","25.0252433333333","6500100","板橋區"
"220002","741-BX","2018/06/28 13:59:41","新北市板橋區重慶路127巷20號","121.463671666667","25.0048883333333","6500100","板橋區"
"220051","KEA-2699","2018/06/28 13:59:37","新北市板橋區懷德街235巷2-1號","121.481338333333","25.0282133333333","6500100","板橋區"
"220025","806-UM","2018/06/28 13:59:37","新北市板橋區大觀路二段174巷138-2號","121.441506666667","25.0026266666667","6500100","板橋區"
"220003","827-TW","2018/06/28 13:59:41","新北市板橋區民安街26-1號","121.466911666667","25.0113533333333","6500100","板橋區"
"220014","829-TW","2018/06/28 13:59:33","新北市板橋區三民路二段正泰7巷12號","121.478096666667","25.0128916666667","6500100","板橋區"
"220016","830-TW","2018/06/28 13:59:40","新北市板橋區中山路二段465巷68弄22號","121.481335","25.0215716666667","6500100","板橋區"
"220045","831-TW","2018/06/28 13:59:37","新北市板橋區莒光路120號","121.472555","25.0239516666667","6500100","板橋區"
"220038","833-TW","2018/06/28 13:59:33","新北市板橋區文化路二段315號","121.47219","25.0297566666667","6500100","板橋區"
"220022","895-R6","2018/06/28 13:59:49","新北市板橋區南雅南路一段131號","121.45515","25.0043366666667","6500100","板橋區"
"220021","985-R7","2018/06/28 13:59:37","新北市板橋區林園街7-1號","121.453953333333","25.00919","6500100","板橋區"
"220046","AAC-210","2018/06/28 13:59:37","新北市板橋區文化路一段90號","121.464258333333","25.0177616666667","6500100","板橋區"
"220018","AAC-253","2018/06/28 13:59:50","新北市板橋區四川路一段288號","121.458728333333","25.0007216666667","6500100","板橋區"
"235032","KEA-2873","2018/06/28 13:59:41","新北市中和區安邦街93號","121.497105","24.99629","6500300","中和區"
"235025","KEA-2875","2018/06/28 13:59:25","新北市中和區民有街4號","121.475503333333","25.00576","6500300","中和區"
