"lineid","car","time","location","longitude","latitude","cityid","cityname"
"234005","207-UY","2018/06/28 14:39:40","新北市永和區安樂路218號","121.515013333333","25.0021133333333","6500400","永和區"
"234078","298-R6","2018/06/28 14:39:38","新北市永和區永利路30號","121.518351666667","25.0058233333333","6500400","永和區"
"234062","337-UY","2018/06/28 14:39:42","新北市永和區環河西路二段25號","121.50742","25.0159416666667","6500400","永和區"
"234048","863-TW","2018/06/28 14:39:34","新北市永和區保安路75號","121.508748333333","25.014825","6500400","永和區"
"234025","9371-KE","2018/06/28 14:39:40","新北市永和區中和路493號","121.51041","25.00252","6500400","永和區"
"248013","025-BX","2018/06/28 14:39:33","新北市五股區五福路52巷19號","121.434321666667","25.0901583333333","6501500","五股區"
"248015","026-BX","2018/06/28 14:39:43","新北市五股區成泰路三段601巷17-1號","121.451758333333","25.10331","6501500","五股區"
"248007","095-VK","2018/06/28 14:39:40","新北市五股區四維路155巷2號","121.467806666667","25.0746133333333","6501500","五股區"
"248017","225-UY","2018/06/28 14:23:09","新北市五股區壟路16號","121.415341666667","25.0855983333333","6501500","五股區"
"248011","247-BX","2018/06/28 14:39:45","新北市五股區民義路一段71號","121.435641666667","25.0851183333333","6501500","五股區"
"248003","677-BX","2018/06/28 14:39:45","新北市五股區成泰路二段25號","121.437108333333","25.08164","6501500","五股區"
"248001","678-BX","2018/06/28 14:39:40","新北市五股區成泰路三段335號","121.448368333333","25.0952216666667","6501500","五股區"
"248009","682-TV","2018/06/28 14:39:45","新北市五股區登林路74-1號","121.43109","25.0694266666667","6501500","五股區"
"234072","AAC-211","2018/06/28 14:39:43","新北市永和區環河東路二段54-1號","121.52334","25.0115183333333","6500400","永和區"
"234001","AAC-295","2018/06/28 14:39:42","新北市永和區中正路628號","121.516986666667","25.0080366666667","6500400","永和區"
"244001","248-BX","2018/06/28 14:39:40","新北市林口區文化三路二段285號","121.37867","25.0862133333333","6501700","林口區"
"243005","AAD-798","2018/06/28 14:39:47","新北市泰山區應化街13號","121.423788333333","25.043645","6501600","泰山區"
"243001","297-R6","2018/06/28 14:39:49","新北市泰山區明志路一段150號","121.433343333333","25.0630666666667","6501600","泰山區"
"243008","380-SR","2018/06/28 14:39:34","新北市泰山區新北大道七段35號","121.419748333333","25.0320516666667","6501600","泰山區"
"243007","421-VK","2018/06/28 14:39:36","新北市泰山區明志路二段214巷17號","121.426733333333","25.0491","6501600","泰山區"
"243003","KEA-2215","2018/06/28 14:39:40","新北市泰山區明志路三段209號","121.424063333333","25.038345","6501600","泰山區"
"243002","KEA-2216","2018/06/28 14:39:38","新北市泰山區明志路二段136巷48號","121.42613","25.0521166666667","6501600","泰山區"
"243004","646-TV","2018/06/28 14:39:44","新北市泰山區楓江路30號","121.43419","25.062405","6501600","泰山區"
"243006","680-BX","2018/06/28 14:39:39","新北市泰山區泰林路二段155號","121.433853333333","25.06038","6501600","泰山區"
"231002","002-UM","2018/06/28 14:39:46","新北市新店區中正路441號","121.533921666667","24.9786416666667","6500600","新店區"
"231027","0293-UT","2018/06/28 14:39:41","新北市新店區中正路328巷1號","121.5369","24.9752933333333","6500600","新店區"
"231028","046-UY","2018/06/28 14:39:40","新北市新店區安成街30號","121.510083333333","24.9610016666667","6500600","新店區"
"231001","047-UY","2018/06/28 14:39:40","新北市新店區中正路2號","121.545746666667","24.9693866666667","6500600","新店區"
"231005","106-UY","2018/06/28 14:39:35","新北市新店區復興路44-2號","121.538523333333","24.9866583333333","6500600","新店區"
"231021","108-UY","2018/06/28 14:39:48","新北市新店區桂山路51巷6-1號","121.562401666667","24.9014583333333","6500600","新店區"
"231017","110-UY","2018/06/28 14:39:49","新北市新店區北宜路三段221號","121.592358333333","24.9532816666667","6500600","新店區"
"231023","KEA-2219","2018/06/28 14:39:38","新北市新店區檳榔路40號","121.54157","24.963765","6500600","新店區"
"231003","268-BY","2018/06/28 14:39:45","新北市新店區中正路5號","121.545765","24.9690883333333","6500600","新店區"
"231018","278-BY","2018/06/28 14:39:32","新北市新店區中央五街15號","121.529643333333","24.97435","6500600","新店區"
"231038","3712-VJ","2018/06/28 14:39:52","新北市新店區安康路一段258號","121.520623333333","24.96393","6500600","新店區"
"231037","4716-K9","2018/06/28 14:39:39","新北市新店區柴埕路52巷16號","121.511078333333","24.9653966666667","6500600","新店區"
"231036","512-UM","2018/06/28 14:39:41","新北市新店區安祥路106巷248號","121.473406666667","24.9593083333333","6500600","新店區"
"231013","513-UM","2018/06/28 14:39:34","新北市新店區明德路22號","121.542096666667","24.9770383333333","6500600","新店區"
"231030","619-UM","2018/06/28 14:39:48","新北市新店區安民街160號","121.516826666667","24.9702833333333","6500600","新店區"
"231034","641-BX","2018/06/28 14:39:43","新北市新店區黎明路51巷1號","121.501948333333","24.94931","6500600","新店區"
"231035","719-UM","2018/06/28 14:39:37","新北市新店區安光路13號","121.513381666667","24.9638866666667","6500600","新店區"
"231011","719-UY","2018/06/28 14:39:41","新北市新店區寶興路65巷2號","121.55081","24.9716183333333","6500600","新店區"
"231029","897-TW","2018/06/28 14:39:38","新北市新店區安康路三段312號","121.487151666667","24.95181","6500600","新店區"
"231006","898-TW","2018/06/28 14:39:49","新北市新店區北宜路二段129號","121.550946666667","24.953045","6500600","新店區"
"231004","899-TW","2018/06/28 14:39:36","新北市新店區中正路263-2號","121.538368333333","24.9736783333333","6500600","新店區"
"231024","AKT-0513","2018/06/28 14:39:35","新北市新店區環河路103-5號","121.531505","24.9709733333333","6500600","新店區"
"235030","003-UY","2018/06/28 14:39:47","新北市中和區南華路89號","121.50562","24.997485","6500300","中和區"
"235028","005-UY","2018/06/28 14:39:47","新北市中和區南山路50號","121.501993333333","24.9974683333333","6500300","中和區"
"235027","006-UY","2018/06/28 14:39:36","新北市中和區連城路188巷2-3號","121.492853333333","24.99711","6500300","中和區"
"235020","096-UM","2018/06/28 14:39:34","新北市中和區民富街94號","121.47701","25.0086366666667","6500300","中和區"
"235003","097-UM","2018/06/28 14:39:51","新北市中和區安平路186號","121.513023333333","24.9990183333333","6500300","中和區"
"235029","098-UM","2018/06/28 14:39:47","新北市中和區福美路257號","121.498651666667","25.0050766666667","6500300","中和區"
"235004","150-BY","2018/06/28 14:39:42","新北市中和區宜安路65號","121.511281666667","24.99705","6500300","中和區"
"235022","151-BY","2018/06/28 14:39:48","新北市中和區員山路130號","121.481128333333","24.9962883333333","6500300","中和區"
"235019","183-VK","2018/06/28 14:39:32","新北市中和區民生街15號","121.471281666667","25.0058933333333","6500300","中和區"
"235002","185-VK","2018/06/28 14:39:52","新北市中和區自立路20巷5號","121.52201","24.9934016666667","6500300","中和區"
"235013","186-VK","2018/06/28 14:39:36","新北市中和區景平路566號","121.501866666667","24.9953183333333","6500300","中和區"
"235031","255-BX","2018/06/28 14:39:48","新北市中和區新生街186巷1弄18號","121.483355","24.998975","6500300","中和區"
"235008","293-VK","2018/06/28 14:39:46","新北市中和區興南路一段156號","121.508348333333","24.9868933333333","6500300","中和區"
"235036","301-VK","2018/06/28 14:39:48","新北市中和區保平路340巷18號","121.506096666667","25.0045966666667","6500300","中和區"
"235007","352-BY","2018/06/28 14:39:48","新北市中和區南華路61號","121.5044","24.9971133333333","6500300","中和區"
"235006","KEA-2878","2018/06/28 14:39:50","新北市中和區保健路2巷30號","121.507045","24.9975033333333","6500300","中和區"
"235014","4979-A6","2018/06/28 14:39:35","新北市中和區錦和路350-1號","121.490205","24.9935633333333","6500300","中和區"
"235034","558-UM","2018/06/28 14:39:39","新北市中和區連勝街66號","121.497195","24.9969666666667","6500300","中和區"
"235009","565-BX","2018/06/28 14:39:33","新北市中和區景平路300號","121.51266","24.992735","6500300","中和區"
"235018","640-BX","2018/06/28 14:39:41","新北市中和區國光街102巷20號","121.470595","25.000595","6500300","中和區"
"235024","647-TV","2018/06/28 14:39:45","新北市中和區中山路二段580號","121.48267","25.0050933333333","6500300","中和區"
"235010","733-UM","2018/06/28 14:39:42","新北市中和區忠孝街118號","121.512201666667","24.98569","6500300","中和區"
"235035","783-BX","2018/06/28 14:39:33","新北市中和區連城路270號","121.484883333333","24.996265","6500300","中和區"
"235026","800-TS","2018/06/28 14:39:39","新北市中和區建六路55號","121.486415","25.0023016666667","6500300","中和區"
"235021","801-TS","2018/06/28 14:39:48","新北市中和區員山路150-27號","121.481403333333","24.9981516666667","6500300","中和區"
"235005","802-TS","2018/06/28 14:39:44","新北市中和區宜安路137號","121.509515","24.9984316666667","6500300","中和區"
"235016","805-TS","2018/06/28 14:39:33","新北市中和區華新街192巷10號","121.506631666667","24.9827516666667","6500300","中和區"
"235012","896-TW","2018/06/28 14:39:36","新北市中和區四維街37巷1號","121.512568333333","24.9869466666667","6500300","中和區"
"235017","900-TW","2018/06/28 14:39:48","新北市中和區國光街215巷48號","121.467526666667","24.9998866666667","6500300","中和區"
"235015","157-BY","2018/06/28 14:39:32","新北市中和區中興街180巷52弄5號","121.498443333333","24.9882533333333","6500300","中和區"
"235001","AAC-213","2018/06/28 14:39:47","新北市中和區秀朗路三段103號","121.526475","24.994815","6500300","中和區"
"235023","AAC-215","2018/06/28 14:39:41","新北市中和區圓通路309號","121.49327","24.9908","6500300","中和區"
"220034","073-UY","2018/06/28 14:39:51","新北市板橋區中正路156號","121.456635","25.0167033333333","6500100","板橋區"
"220105","075-UY","2018/06/28 14:39:35","新北市板橋區文化路二段319號","121.472348333333","25.0299883333333","6500100","板橋區"
"220017","AAD-861","2018/06/28 14:39:38","新北市板橋區縣民大道一段64巷17號","121.455851666667","25.00341","6500100","板橋區"
"247023","893-R6","2018/06/28 14:39:36","新北市蘆洲區中山二路222巷13號","121.469428333333","25.08025","6501400","蘆洲區"
"247013","546-UM","2018/06/28 14:39:31","新北市蘆洲區得勝街118號","121.471008333333","25.08281","6501400","蘆洲區"
"247021","500-BY","2018/06/28 14:39:39","新北市蘆洲區民義街7號","121.471173333333","25.088825","6501400","蘆洲區"
"247009","341-TH","2018/06/28 14:39:43","新北市蘆洲區信義路222巷45號","121.48043","25.0855166666667","6501400","蘆洲區"
"247011","339-TH","2018/06/28 14:39:42","新北市蘆洲區集賢路224巷37弄1號","121.480715","25.0880416666667","6501400","蘆洲區"
"247003","337-TH","2018/06/28 14:39:40","新北市蘆洲區長安街196號","121.458656666667","25.0839583333333","6501400","蘆洲區"
"247005","336-TH","2018/06/28 14:39:35","新北市蘆洲區長安街68巷20號","121.463828333333","25.08082","6501400","蘆洲區"
"247017","057-VK","2018/06/28 14:39:43","新北市蘆洲區民族路314巷25號","121.47824","25.090725","6501400","蘆洲區"
"247007","056-VK","2018/06/28 14:39:39","新北市蘆洲區成功路27號","121.473118333333","25.0794633333333","6501400","蘆洲區"
"247015","007-UY","2018/06/28 14:39:44","新北市蘆洲區正和街32號","121.469686666667","25.081995","6501400","蘆洲區"
"247001","002-UY","2018/06/28 14:37:30","新北市蘆洲區永樂街38巷67弄39號","121.457193333333","25.091015","6501400","蘆洲區"
"247019","001-UY","2018/06/28 14:39:36","新北市蘆洲區民權路131巷2號","121.471638333333","25.0901433333333","6501400","蘆洲區"
"235011","251-BX","2018/06/28 14:39:48","新北市中和區南山路158號","121.504375","24.99197","6500300","中和區"
"228005","097-TW","2018/06/28 14:39:39","新北市貢寮區美豐里雞母嶺街6-6號","121.9021","25.064215","6502600","貢寮區"
"228004","212-TW","2018/06/28 14:39:47","新北市貢寮區福隆里龜壽谷街30-1號","121.947068333333","25.013185","6502600","貢寮區"
"253003","6232-TK","2018/06/28 14:39:38","新北市石門區尖子鹿47號","121.580433333333","25.2684333333333","6502200","石門區"
"253001","6251-TK","2018/06/28 14:39:46","新北市石門區崁子腳66-1號","121.530681666667","25.2831733333333","6502200","石門區"
"253002","637-UY","2018/06/28 14:27:07","新北市石門區七股53-1號","121.54612","25.252195","6502200","石門區"
"253004","8270-PC","2018/06/28 14:39:44","新北市石門區內阿里磅47號","121.581536666667","25.2397316666667","6502200","石門區"
"207002","749-BX","2018/06/28 14:39:43","新北市萬里區崁腳里崁腳路73號","121.647625","25.1595983333333","6502800","萬里區"
"252005","073-UM","2018/06/28 14:39:33","新北市三芝區埔坪里埔頭坑92號","121.508563333333","25.2515316666667","6502100","三芝區"
"207001","662-BX","2018/06/28 14:39:47","新北市萬里區磺潭里員潭路59號","121.641998333333","25.1897933333333","6502800","萬里區"
"236068","105-UM","2018/06/28 14:39:42","新北市土城區永豐路308號","121.472425","24.9774883333333","6501300","土城區"
"236040","107-UM","2018/06/28 14:39:45","新北市土城區裕民路57號","121.448943333333","24.9878816666667","6501300","土城區"
"236074","166-UM","2018/06/28 14:39:52","新北市土城區中央路四段52巷10號","121.420065","24.96087","6501300","土城區"
"236029","253-BX","2018/06/28 14:39:36","新北市土城區中華路二段199號","121.438053333333","24.97411","6501300","土城區"
"236024","269-VK","2018/06/28 14:39:41","新北市土城區千歲路13號","121.440908333333","24.969545","6501300","土城區"
"236012","270-VK","2018/06/28 14:39:50","新北市土城區清水路240號","121.461288333333","24.9823766666667","6501300","土城區"
"236032","271-VK","2018/06/28 14:39:38","新北市土城區明德路一段291巷1號","121.460298333333","24.977005","6501300","土城區"
"236017","401-BY","2018/06/28 14:39:38","新北市土城區延吉街262號","121.466023333333","24.9845133333333","6501300","土城區"
"236057","912-UM","2018/06/28 14:39:44","新北市土城區中央路四段47號","121.42224","24.9615666666667","6501300","土城區"
"236045","913-UM","2018/06/28 14:39:44","新北市土城區明德路一段55號","121.465251666667","24.98461","6501300","土城區"
"236060","915-UM","2018/06/28 14:39:49","新北市土城區延和路125巷31號","121.469101666667","24.9911383333333","6501300","土城區"
"236054","AAC-216","2018/06/28 14:39:46","新北市土城區裕民路24號","121.447695","24.9885933333333","6501300","土城區"
"242001","233-RS","2018/06/28 14:39:35","新北市樹林區八德街328號","121.409311666667","24.96981","6500500","新莊區"
"221033","647-BX","2018/06/28 14:39:48","新北市三重區自強路三段76巷16號","121.48611","25.0737816666667","6501100","汐止區"
"220027","145-BY","2018/06/28 14:39:42","新北市板橋區復興街59號","121.458805","25.0176216666667","6500100","板橋區"
"220028","200-UY","2018/06/28 14:39:40","新北市板橋區大觀路二段37巷87號","121.450245","25.00238","6500100","板橋區"
"220030","610-BX","2018/06/28 14:39:50","新北市板橋區金門街96-2號","121.433078333333","24.99243","6500100","板橋區"
"220050","245-BX","2018/06/28 14:39:42","新北市板橋區民生路二段161巷5號","121.47025","25.0197733333333","6500100","板橋區"
"220004","276-BY","2018/06/28 14:39:32","新北市板橋區信義路1巷26弄2號","121.45801","24.99701","6500100","板橋區"
"220020","277-BY","2018/06/28 14:39:41","新北市板橋區金門街253巷10弄8號","121.43325","24.98803","6500100","板橋區"
"220019","283-VK","2018/06/28 14:39:36","新北市板橋區廣權路87號","121.464228333333","24.9923566666667","6500100","板橋區"
"220043","285-UM","2018/06/28 14:39:44","新北市板橋區宏國路77巷2弄16號","121.469631666667","25.0325033333333","6500100","板橋區"
"220001","285-VK","2018/06/28 14:39:45","新北市板橋區懷仁街77巷14號","121.477583333333","25.0187733333333","6500100","板橋區"
"220031","286-VK","2018/06/28 14:39:41","新北市板橋區龍興街63巷2號","121.442986666667","25.0012966666667","6500100","板橋區"
"220029","287-VK","2018/06/28 14:39:43","新北市板橋區大觀路一段29巷179弄12號","121.448993333333","25.004765","6500100","板橋區"
"220039","288-VK","2018/06/28 14:39:50","新北市板橋區長江路一段48巷1弄2號","121.459053333333","25.0287333333333","6500100","板橋區"
"220009","293-UM","2018/06/28 14:39:48","新北市板橋區中山路一段283巷2弄5號","121.470331666667","25.0147416666667","6500100","板橋區"
"220032","296-UM","2018/06/28 14:39:38","新北市板橋區滿平街13號","121.426428333333","24.9901383333333","6500100","板橋區"
"220023","303-R5","2018/06/28 14:39:46","新北市板橋區南雅西路二段301巷50弄10-2號","121.45234","25.0170683333333","6500100","板橋區"
"220010","305-R5","2018/06/28 14:39:43","新北市板橋區三民路二段123巷30號","121.480566666667","25.0155666666667","6500100","板橋區"
"220041","307-R5","2018/06/28 14:39:53","新北市板橋區陽明街164巷10弄18號","121.464216666667","25.0239366666667","6500100","板橋區"
"220047","317-R6","2018/06/28 14:39:44","新北市板橋區四維路259巷19號","121.462338333333","25.0276283333333","6500100","板橋區"
"220013","461-BY","2018/06/28 14:39:48","新北市板橋區民族路222巷15號","121.46871","25.00677","6500100","板橋區"
"220012","486-VK","2018/06/28 14:39:37","新北市板橋區中山路一段94號","121.462036666667","25.0102116666667","6500100","板橋區"
"220037","491-VK","2018/06/28 14:39:52","新北市板橋區雙十路二段193號","121.473475","25.0290066666667","6500100","板橋區"
"220104","560-BX","2018/06/28 14:39:34","新北市板橋區新生街98巷12號","121.458796666667","25.02177","6500100","板橋區"
"220052","561-BX","2018/06/28 14:39:35","新北市板橋區文化路一段357號","121.466866666667","25.0209966666667","6500100","板橋區"
"220011","609-BX","2018/06/28 14:39:52","新北市板橋區三民路二段202-9號","121.478936666667","25.0141483333333","6500100","板橋區"
"220040","637-BX","2018/06/28 14:39:34","新北市板橋區懷德街139巷20弄10號","121.480183333333","25.0305916666667","6500100","板橋區"
"220005","686-BX","2018/06/28 14:39:43","新北市板橋區國慶路158巷9-4號","121.462116666667","24.9955716666667","6500100","板橋區"
"220042","689-BX","2018/06/28 14:39:36","新北市板橋區雨農路27巷2號","121.461221666667","25.0241083333333","6500100","板橋區"
"220002","741-BX","2018/06/28 14:39:38","新北市板橋區忠孝路241號","121.466385","25.00295","6500100","板橋區"
"220051","KEA-2699","2018/06/28 14:39:37","新北市板橋區雙十路二段46巷17號","121.476186666667","25.0281683333333","6500100","板橋區"
"220025","806-UM","2018/06/28 14:39:50","新北市板橋區僑中二街92巷1號","121.44629","25.0088083333333","6500100","板橋區"
"220003","827-TW","2018/06/28 14:39:41","新北市板橋區國慶路149巷7-3號","121.461195","24.9969766666667","6500100","板橋區"
"220014","829-TW","2018/06/28 14:39:33","新北市板橋區長安街138巷1弄4號","121.47289","25.0095366666667","6500100","板橋區"
"220016","830-TW","2018/06/28 14:39:40","新北市板橋區中山路二段412巷3號","121.483141666667","25.0207433333333","6500100","板橋區"
"220045","831-TW","2018/06/28 14:39:37","新北市板橋區民生路二段234巷33號","121.469213333333","25.0227466666667","6500100","板橋區"
"220038","833-TW","2018/06/28 14:39:53","新北市板橋區英士路54號","121.460995","25.0247133333333","6500100","板橋區"
"220022","895-R6","2018/06/28 14:39:49","新北市板橋區府中路29-1號","121.458676666667","25.0085366666667","6500100","板橋區"
"220021","985-R7","2018/06/28 14:39:37","新北市板橋區中正路316號","121.454856666667","25.02089","6500100","板橋區"
"220046","AAC-210","2018/06/28 14:39:50","新北市板橋區幸福路32巷6號","121.461555","25.020585","6500100","板橋區"
"220018","AAC-253","2018/06/28 14:39:49","新北市板橋區民族路169號","121.468436666667","25.0076116666667","6500100","板橋區"
"235032","KEA-2873","2018/06/28 14:39:41","新北市中和區莊敬路16巷15弄3號","121.50031","25.003795","6500300","中和區"
