"lineid","car","time","location","longitude","latitude","cityid","cityname"
"234025","9371-KE","2018/06/28 14:49:40","新北市永和區雙和街25巷5號","121.508951666667","25.0019283333333","6500400","永和區"
"248013","025-BX","2018/06/28 14:49:33","新北市五股區五福路14巷9號","121.434818333333","25.0888266666667","6501500","五股區"
"248015","026-BX","2018/06/28 14:49:43","新北市五股區成泰路三段577巷80弄54號","121.44969","25.1050516666667","6501500","五股區"
"248007","095-VK","2018/06/28 14:49:37","新北市蘆洲區中山二路300巷1號","121.468501666667","25.07677","6501500","五股區"
"248017","225-UY","2018/06/28 14:23:09","新北市五股區壟路16號","121.415341666667","25.0855983333333","6501500","五股區"
"248011","247-BX","2018/06/28 14:49:45","新北市五股區民義路一段212號","121.430518333333","25.0895266666667","6501500","五股區"
"248003","677-BX","2018/06/28 14:49:43","新北市五股區成泰路一段103號","121.435683333333","25.0708766666667","6501500","五股區"
"248001","678-BX","2018/06/28 14:49:40","新北市五股區成泰路三段165號","121.44524","25.091845","6501500","五股區"
"248009","682-TV","2018/06/28 14:49:45","新北市五股區成泰路一段93號","121.435233333333","25.0689366666667","6501500","五股區"
"244001","248-BX","2018/06/28 14:48:29","新北市林口區文化一路二段209號","121.383975","25.0828866666667","6501700","林口區"
"243005","AAD-798","2018/06/28 14:49:47","新北市泰山區明志路三段74巷25弄2號","121.423535","25.0416716666667","6501600","泰山區"
"243001","297-R6","2018/06/28 14:49:49","新北市泰山區泰林路二段146號","121.434255","25.05989","6501600","泰山區"
"243008","380-SR","2018/06/28 14:49:34","新北市泰山區貴陽街76號","121.423811666667","25.0321716666667","6501600","泰山區"
"243007","421-VK","2018/06/28 14:49:52","新北市泰山區明志路一段440號","121.430668333333","25.0561733333333","6501600","泰山區"
"243003","KEA-2215","2018/06/28 14:49:40","新北市泰山區工專路65號","121.422131666667","25.040435","6501600","泰山區"
"243002","KEA-2216","2018/06/28 14:49:39","新北市泰山區明志路二段273巷3弄2號","121.427323333333","25.0472183333333","6501600","泰山區"
"243004","646-TV","2018/06/28 14:49:44","新北市泰山區楓江路95號","121.437846666667","25.0638316666667","6501600","泰山區"
"243006","680-BX","2018/06/28 14:49:39","新北市泰山區明志路一段124號","121.433401666667","25.0635216666667","6501600","泰山區"
"231002","002-UM","2018/06/28 14:49:46","新北市新店區民權路96號","121.536673333333","24.98293","6500600","新店區"
"231027","0293-UT","2018/06/28 14:49:41","新北市新店區安和路三段1號","121.517536666667","24.9798283333333","6500600","新店區"
"231028","046-UY","2018/06/28 14:49:40","新北市新店區安德街81號","121.509696666667","24.9610666666667","6500600","新店區"
"231001","047-UY","2018/06/28 14:49:40","新北市新店區三民路67號","121.536266666667","24.9713216666667","6500600","新店區"
"231005","106-UY","2018/06/28 14:49:35","新北市新店區復興路2號","121.532466666667","24.9882683333333","6500600","新店區"
"231021","108-UY","2018/06/28 14:49:48","新北市新店區桂山路37號","121.563125","24.9044283333333","6500600","新店區"
"231017","110-UY","2018/06/28 14:49:49","新北市新店區北宜路三段88-1號","121.57804","24.9511133333333","6500600","新店區"
"231023","KEA-2219","2018/06/28 14:49:38","新北市新店區檳榔路109號","121.544443333333","24.9616933333333","6500600","新店區"
"231003","268-BY","2018/06/28 14:49:45","新北市新店區中興路二段121巷1號","121.547513333333","24.9719966666667","6500600","新店區"
"231018","278-BY","2018/06/28 14:49:32","新北市新店區中央路192號","121.530878333333","24.9746966666667","6500600","新店區"
"231038","3712-VJ","2018/06/28 14:49:35","新北市新店區安一路一段1-1號","121.519746666667","24.961055","6500600","新店區"
"231036","512-UM","2018/06/28 14:49:41","新北市新店區安祥路104巷6弄36號","121.483091666667","24.9629816666667","6500600","新店區"
"231013","513-UM","2018/06/28 14:49:34","新北市新店區北新路二段97巷8號","121.542191666667","24.9743116666667","6500600","新店區"
"231030","619-UM","2018/06/28 14:49:48","新北市新店區安民街241號","121.517218333333","24.9722816666667","6500600","新店區"
"231034","641-BX","2018/06/28 14:49:43","新北市新店區玫瑰路4-1號","121.493596666667","24.95142","6500600","新店區"
"231068","718-UY","2018/06/28 14:49:38","新北市新店區安一路一段1-1號","121.519685","24.9612916666667","6500600","新店區"
"231035","719-UM","2018/06/28 14:49:37","新北市新店區安和路二段192號","121.5191","24.9747","6500600","新店區"
"231011","719-UY","2018/06/28 14:49:41","新北市新店區寶宏路38號","121.549493333333","24.9755783333333","6500600","新店區"
"231031","720-UM","2018/06/28 14:49:48","新北市新店區安康路三段261-1號","121.486838333333","24.9517866666667","6500600","新店區"
"231029","897-TW","2018/06/28 14:49:38","新北市新店區錦秀路5號","121.479433333333","24.944845","6500600","新店區"
"231006","898-TW","2018/06/28 14:49:49","新北市新店區北宜路一段152-2號","121.540296666667","24.9538233333333","6500600","新店區"
"231004","899-TW","2018/06/28 14:49:36","新北市新店區民族路161號","121.537685","24.976735","6500600","新店區"
"231024","AKT-0513","2018/06/28 14:49:35","新北市新店區新生街5巷17號","121.53962","24.9655833333333","6500600","新店區"
"235030","003-UY","2018/06/28 14:49:47","新北市中和區南工路48號","121.505883333333","25.0013466666667","6500300","中和區"
"235020","096-UM","2018/06/28 14:49:34","新北市中和區中山路三段142號","121.473821666667","25.0063283333333","6500300","中和區"
"235003","097-UM","2018/06/28 14:49:51","新北市永和區中正路29號","121.514045","24.9959866666667","6500300","中和區"
"235029","098-UM","2018/06/28 14:49:47","新北市中和區福美路256巷12號","121.498063333333","25.005915","6500300","中和區"
"235004","150-BY","2018/06/28 14:49:42","新北市中和區安平路31號","121.509521666667","24.9949016666667","6500300","中和區"
"235022","151-BY","2018/06/28 14:49:33","新北市中和區員山路150巷2弄2號","121.481668333333","24.9982883333333","6500300","中和區"
"235019","183-VK","2018/06/28 14:49:52","新北市中和區民德路19號","121.468858333333","25.0028233333333","6500300","中和區"
"235002","185-VK","2018/06/28 14:49:50","新北市中和區自立路11號","121.52255","24.99639","6500300","中和區"
"235013","186-VK","2018/06/28 14:49:36","新北市中和區景平路385巷52號","121.501215","24.994335","6500300","中和區"
"235031","255-BX","2018/06/28 14:49:35","新北市中和區民樂路81號","121.484868333333","25.0014983333333","6500300","中和區"
"235008","293-VK","2018/06/28 14:49:46","新北市中和區南山路146巷29號","121.502786666667","24.9923933333333","6500300","中和區"
"235036","301-VK","2018/06/28 14:49:48","新北市中和區中和路74號","121.500755","25.000185","6500300","中和區"
"235007","352-BY","2018/06/28 14:49:48","新北市中和區景平路177號","121.511841666667","24.99252","6500300","中和區"
"235014","4979-A6","2018/06/28 14:49:51","新北市中和區景平路241巷82弄41號","121.506276666667","24.992525","6500300","中和區"
"235033","4980-A6","2018/06/28 14:49:36","新北市中和區中正路589巷15號","121.485898333333","24.993765","6500300","中和區"
"235034","558-UM","2018/06/28 14:49:39","新北市中和區連勝街41號","121.498145","24.997605","6500300","中和區"
"235018","640-BX","2018/06/28 14:49:41","新北市中和區莒光路131號","121.472571666667","25.0017633333333","6500300","中和區"
"235024","647-TV","2018/06/28 14:49:45","新北市中和區新生街30巷3號","121.48296","25.0038183333333","6500300","中和區"
"235010","733-UM","2018/06/28 14:49:42","新北市中和區仁愛街36號","121.511008333333","24.98837","6500300","中和區"
"235035","783-BX","2018/06/28 14:49:33","新北市中和區建一路143號","121.488116666667","25.0007316666667","6500300","中和區"
"235026","800-TS","2018/06/28 14:49:39","新北市中和區中山路二段365號","121.487693333333","25.0047716666667","6500300","中和區"
"235021","801-TS","2018/06/28 14:49:41","新北市中和區中正路810號","121.484896666667","25.0031116666667","6500300","中和區"
"235016","805-TS","2018/06/28 14:49:52","新北市中和區華新街32-1號","121.507608333333","24.9844","6500300","中和區"
"235012","896-TW","2018/06/28 14:49:36","新北市中和區四維街37巷2號","121.512335","24.98689","6500300","中和區"
"235017","900-TW","2018/06/28 14:49:48","新北市中和區國光街209號","121.46653","25.00193","6500300","中和區"
"235015","157-BY","2018/06/28 14:49:32","新北市中和區景安路247巷20號","121.504415","24.9904983333333","6500300","中和區"
"235001","AAC-213","2018/06/28 14:49:47","新北市中和區自立路76號","121.523998333333","24.9911933333333","6500300","中和區"
"235023","AAC-215","2018/06/28 14:49:41","新北市中和區圓通路305巷10號","121.494105","24.9896116666667","6500300","中和區"
"220034","073-UY","2018/06/28 14:49:51","新北市板橋區南雅西路二段7巷25號","121.451806666667","25.009655","6500100","板橋區"
"220105","075-UY","2018/06/28 14:49:48","新北市板橋區文化路二段608巷60號","121.48001","25.0344","6500100","板橋區"
"220017","AAD-861","2018/06/28 14:49:38","新北市板橋區南雅南路二段11-29號","121.453895","25.00149","6500100","板橋區"
"247013","546-UM","2018/06/28 14:49:51","新北市蘆洲區得勝街78號","121.472465","25.0834766666667","6501400","蘆洲區"
"247021","500-BY","2018/06/28 14:49:39","新北市蘆洲區仁愛街212巷15-59號","121.464443333333","25.0939516666667","6501400","蘆洲區"
"247009","341-TH","2018/06/28 14:49:43","新北市五股區四維路185巷26號","121.465386666667","25.077495","6501400","蘆洲區"
"247005","336-TH","2018/06/28 14:49:35","新北市蘆洲區中華街2號","121.463611666667","25.0817016666667","6501400","蘆洲區"
"247007","056-VK","2018/06/28 14:49:39","新北市蘆洲區中山一路97巷32弄5號","121.47569","25.081195","6501400","蘆洲區"
"247015","007-UY","2018/06/28 14:49:44","新北市蘆洲區和平路198號","121.46597","25.081815","6501400","蘆洲區"
"247001","002-UY","2018/06/28 14:49:49","新北市蘆洲區長安街246巷10號","121.458173333333","25.086265","6501400","蘆洲區"
"247019","001-UY","2018/06/28 14:49:35","新北市蘆洲區民義街68巷10號","121.473348333333","25.0897233333333","6501400","蘆洲區"
"235011","251-BX","2018/06/28 14:49:48","新北市中和區和平街74號","121.507801666667","24.9910483333333","6500300","中和區"
"228005","097-TW","2018/06/28 14:49:19","新北市貢寮區美豐里丹裡街65號","121.908896666667","25.058805","6502600","貢寮區"
"228004","212-TW","2018/06/28 14:49:47","新北市貢寮區福隆里裕隆街5號","121.946158333333","25.015985","6502600","貢寮區"
"253003","6232-TK","2018/06/28 14:49:38","新北市石門區尖子鹿84號","121.5762","25.294935","6502200","石門區"
"253001","6251-TK","2018/06/28 14:49:46","新北市石門區崁子腳37-5號","121.536528333333","25.2686366666667","6502200","石門區"
"253002","637-UY","2018/06/28 14:49:27","新北市石門區楓林47號","121.540246666667","25.2787316666667","6502200","石門區"
"253004","8270-PC","2018/06/28 14:49:44","新北市石門區阿里磅26號","121.589126666667","25.2572366666667","6502200","石門區"
"207002","749-BX","2018/06/28 14:49:43","新北市萬里區崁腳里崁腳路73號","121.647501666667","25.15967","6502800","萬里區"
"252005","073-UM","2018/06/28 14:49:53","新北市三芝區埔坪里埔頭坑156號","121.509128333333","25.2496","6502100","三芝區"
"207001","662-BX","2018/06/28 14:48:06","新北市萬里區雙興里豐稟路39號","121.642778333333","25.181945","6502800","萬里區"
"236068","105-UM","2018/06/28 14:49:42","新北市土城區明德路一段371號","121.453113333333","24.9795383333333","6501300","土城區"
"236040","107-UM","2018/06/28 14:49:35","新北市土城區裕民路136巷13號","121.45113","24.9856566666667","6501300","土城區"
"236074","166-UM","2018/06/28 14:49:48","新北市土城區中央路四段125巷27-1號","121.417225","24.9565933333333","6501300","土城區"
"236029","253-BX","2018/06/28 14:49:44","新北市土城區忠義路34號","121.44044","24.96983","6501300","土城區"
"236024","269-VK","2018/06/28 14:49:41","新北市土城區慶安街51號","121.44101","24.97313","6501300","土城區"
"236012","270-VK","2018/06/28 14:49:50","新北市土城區金城路二段356號","121.461613333333","24.985075","6501300","土城區"
"236032","271-VK","2018/06/28 14:49:38","新北市土城區明德路一段193號","121.46391","24.9788033333333","6501300","土城區"
"236017","401-BY","2018/06/28 14:49:38","新北市土城區延安街42-3號","121.46749","24.98529","6501300","土城區"
"236057","912-UM","2018/06/28 14:49:44","新北市土城區中央路三段151號","121.432185","24.96533","6501300","土城區"
"236045","913-UM","2018/06/28 14:49:44","新北市板橋區信義路170巷10號","121.460005","24.9906333333333","6501300","土城區"
"236060","915-UM","2018/06/28 14:49:38","新北市土城區金城路三段139巷11號","121.467858333333","24.9887166666667","6501300","土城區"
"236054","AAC-216","2018/06/28 14:49:46","新北市土城區學府路一段169號","121.452696666667","24.9854116666667","6501300","土城區"
"242001","233-RS","2018/06/28 14:49:35","新北市樹林區中山路三段214號","121.380045","24.9679066666667","6500500","新莊區"
"221033","647-BX","2018/06/28 14:49:48","台北市松山區濱江街880-1號","121.561518333333","25.0713466666667","6501100","汐止區"
"220027","145-BY","2018/06/28 14:49:42","新北市板橋區建國街54巷29號","121.459915","25.017105","6500100","板橋區"
"220028","200-UY","2018/06/28 14:49:40","新北市板橋區大觀路二段153巷47號","121.447105","25.0008716666667","6500100","板橋區"
"220030","610-BX","2018/06/28 14:49:30","新北市板橋區大觀路三段160巷36號","121.429983333333","24.99401","6500100","板橋區"
"220050","245-BX","2018/06/28 14:49:42","新北市板橋區民生路二段161巷5號","121.47025","25.0197733333333","6500100","板橋區"
"220004","276-BY","2018/06/28 14:49:52","新北市板橋區德興街37巷12號","121.4539","24.9938183333333","6500100","板橋區"
"220020","277-BY","2018/06/28 14:49:41","新北市板橋區金門街151巷25號","121.433975","24.9902766666667","6500100","板橋區"
"220019","283-VK","2018/06/28 14:49:36","新北市板橋區五權街30巷12弄24號","121.463906666667","24.994175","6500100","板橋區"
"220043","285-UM","2018/06/28 14:49:44","新北市板橋區溪頭街2號","121.457493333333","25.028935","6500100","板橋區"
"220001","285-VK","2018/06/28 14:49:47","新北市板橋區民享街56號","121.476113333333","25.015075","6500100","板橋區"
"220031","286-VK","2018/06/28 14:49:41","新北市板橋區僑中二街10巷26號","121.445943333333","25.0111016666667","6500100","板橋區"
"220029","287-VK","2018/06/28 14:49:43","新北市板橋區大觀路一段28巷28號","121.449881666667","25.009355","6500100","板橋區"
"220039","288-VK","2018/06/28 14:49:50","新北市板橋區龍泉街54巷8弄15號","121.457431666667","25.02697","6500100","板橋區"
"220009","293-UM","2018/06/28 14:49:41","新北市板橋區觀光街35號","121.471315","25.0161833333333","6500100","板橋區"
"220032","296-UM","2018/06/28 14:49:46","新北市板橋區滿平街2巷10號","121.425095","24.9894116666667","6500100","板橋區"
"220023","303-R5","2018/06/28 14:49:26","新北市板橋區中正路276號","121.455205","25.01985","6500100","板橋區"
"220010","305-R5","2018/06/28 14:49:43","新北市板橋區三民路二段29巷31弄13號","121.481805","25.0178133333333","6500100","板橋區"
"220041","307-R5","2018/06/28 14:49:33","新北市板橋區四維路259巷57號","121.46119","25.0270133333333","6500100","板橋區"
"220047","317-R6","2018/06/28 14:49:49","新北市板橋區裕民街111巷8號","121.459833333333","25.0273633333333","6500100","板橋區"
"220013","461-BY","2018/06/28 14:49:48","新北市板橋區民族路276巷5號","121.46976","25.0062616666667","6500100","板橋區"
"220012","486-VK","2018/06/28 14:49:17","新北市板橋區實踐路27巷6弄22號","121.463918333333","25.0067166666667","6500100","板橋區"
"220037","491-VK","2018/06/28 14:49:51","新北市板橋區民治街28號","121.477958333333","25.0342783333333","6500100","板橋區"
"220104","560-BX","2018/06/28 14:49:34","新北市板橋區金華街84號","121.457958333333","25.02068","6500100","板橋區"
"220052","561-BX","2018/06/28 14:49:35","新北市板橋區陽明街29巷32號","121.463798333333","25.0226366666667","6500100","板橋區"
"220011","609-BX","2018/06/28 14:49:52","新北市板橋區三民路一段149號","121.479205","25.0196583333333","6500100","板橋區"
"220040","637-BX","2018/06/28 14:49:34","新北市板橋區民治街81巷1號","121.479761666667","25.0323216666667","6500100","板橋區"
"220005","686-BX","2018/06/28 14:49:43","新北市板橋區和平路14巷38號","121.461365","24.9915716666667","6500100","板橋區"
"220042","689-BX","2018/06/28 14:49:36","新北市板橋區新海路364號","121.459595","25.0252716666667","6500100","板橋區"
"220002","741-BX","2018/06/28 14:49:38","新北市板橋區忠孝路忠義巷15弄49號","121.465508333333","25.0047833333333","6500100","板橋區"
"220051","KEA-2699","2018/06/28 14:49:37","新北市板橋區文化路二段410巷1弄7號","121.474505","25.0311916666667","6500100","板橋區"
"220025","806-UM","2018/06/28 14:49:53","新北市板橋區僑中三街40號","121.445115","25.00494","6500100","板橋區"
"220003","827-TW","2018/06/28 14:49:48","新北市板橋區仁愛路62巷11號","121.459956666667","24.9987766666667","6500100","板橋區"
"220014","829-TW","2018/06/28 14:49:47","新北市板橋區長安街138巷1弄292號","121.47493","25.0112","6500100","板橋區"
"220016","830-TW","2018/06/28 14:49:40","新北市板橋區中山路二段412巷29弄21號","121.484773333333","25.0203416666667","6500100","板橋區"
"220045","831-TW","2018/06/28 14:49:44","新北市板橋區民生路二段226巷15號","121.470561666667","25.0219666666667","6500100","板橋區"
"220038","833-TW","2018/06/28 14:49:33","新北市板橋區英士路192-1號","121.458298333333","25.0236183333333","6500100","板橋區"
"220022","895-R6","2018/06/28 14:49:49","新北市板橋區文化路一段52巷29號","121.46153","25.0110733333333","6500100","板橋區"
"220021","985-R7","2018/06/28 14:49:46","新北市板橋區南雅西路二段226號","121.452228333333","25.0155316666667","6500100","板橋區"
"220046","AAC-210","2018/06/28 14:49:37","新北市板橋區文化路一段307巷3號","121.464733333333","25.0192483333333","6500100","板橋區"
"220018","AAC-253","2018/06/28 14:49:36","新北市板橋區民族路214號","121.468391666667","25.0073333333333","6500100","板橋區"
"235032","KEA-2873","2018/06/28 14:49:41","新北市中和區景平路736巷5弄3號","121.497408333333","25.003405","6500300","中和區"
