"lineid","car","time","location","longitude","latitude","cityid","cityname"
"249005","172-UM","2018/06/28 16:39:46","新北市八里區忠孝路209號","121.421845","25.16091","6502300","八里區"
"243009","297-R6","2018/06/28 16:10:57","新北市泰山區黎明路25號","121.421946666667","25.0609883333333","6501600","泰山區"
"231046","188-VK","2018/06/28 16:39:40","新北市新店區灣潭路48-1號","121.543026666667","24.9445","6500600","新店區"
"241011","013-R5","2018/06/28 16:39:42","新北市三重區仁愛街49號","121.496621666667","25.0717366666667","6500200","三重區"
"241028","022-UY","2018/06/28 16:39:30","新北市三重區中正南路41巷1號","121.493756666667","25.0600066666667","6500200","三重區"
"241008","059-VK","2018/06/28 16:39:34","新北市三重區永安北路一段27巷20號","121.477163333333","25.0755433333333","6500200","三重區"
"241022","060-VK","2018/06/28 16:39:28","新北市三重區新北大道一段100巷29號","121.485358333333","25.0625483333333","6500200","三重區"
"241031","061-VK","2018/06/28 16:39:41","新北市三重區重新路四段41巷24號","121.487321666667","25.0584966666667","6500200","三重區"
"241015","062-VK","2018/06/28 16:39:29","新北市三重區文化北路41號","121.498863333333","25.0651933333333","6500200","三重區"
"241017","063-VK","2018/06/28 16:39:36","新北市三重區中正北路25巷9號","121.492676666667","25.0621783333333","6500200","三重區"
"241024","065-VK","2018/06/28 16:39:32","新北市三重區中正北路315巷6弄26號","121.476121666667","25.0721816666667","6500200","三重區"
"241026","066-VK","2018/06/28 16:39:32","新北市三重區和平街42號","121.50223","25.0627333333333","6500200","三重區"
"241002","090-VK","2018/06/28 16:39:40","新北市三重區仁義街237號","121.496393333333","25.0825516666667","6500200","三重區"
"241003","091-VK","2018/06/28 16:39:31","新北市三重區五華街71巷3號","121.492741666667","25.0829583333333","6500200","三重區"
"241005","262-UM","2018/06/28 16:39:41","新北市三重區仁華街118巷13號","121.486233333333","25.0833683333333","6500200","三重區"
"241016","266-UM","2018/06/28 16:39:35","新北市三重區大智街5號","121.494871666667","25.0649666666667","6500200","三重區"
"241009","267-UM","2018/06/28 16:39:27","新北市三重區三和路四段203巷86號","121.484033333333","25.0799966666667","6500200","三重區"
"241018","268-UM","2018/06/28 16:39:39","新北市三重區正義北路338巷37號","121.493438333333","25.0704783333333","6500200","三重區"
"241032","269-UM","2018/06/28 16:39:46","新北市三重區新北大道一段101號","121.484296666667","25.06137","6500200","三重區"
"241013","270-UM","2018/06/28 16:39:37","新北市三重區仁愛街62號","121.495808333333","25.0730033333333","6500200","三重區"
"241007","398-BY","2018/06/28 16:39:39","新北市三重區三和路四段167巷49號","121.485301666667","25.0794666666667","6500200","三重區"
"241001","413-TH","2018/06/28 16:39:41","新北市三重區仁政街93號","121.492555","25.0779483333333","6500200","三重區"
"241025","462-BY","2018/06/28 16:39:24","新北市三重區中正北路428巷7弄21號","121.474163333333","25.069525","6500200","三重區"
"241004","475-VK","2018/06/28 16:39:33","新北市三重區五福街10號","121.492938333333","25.0816016666667","6500200","三重區"
"241020","478-VK","2018/06/28 16:39:45","新北市三重區車路頭街64號","121.484243333333","25.0726383333333","6500200","三重區"
"241030","480-VK","2018/06/28 16:39:44","新北市三重區成功路50巷54號","121.488031666667","25.049565","6500200","三重區"
"241014","543-UM","2018/06/28 16:39:27","新北市三重區龍濱路25號","121.50296","25.0680366666667","6500200","三重區"
"241023","545-UM","2018/06/28 16:39:44","新北市三重區忠孝路三段50巷43號","121.482865","25.0643933333333","6500200","三重區"
"241019","KEA-2593","2018/06/28 16:39:45","新北市三重區力行路一段67號","121.487245","25.0674966666667","6500200","三重區"
"241006","AAD-863","2018/06/28 16:39:38","新北市三重區車路頭街138-4號","121.483746666667","25.0755316666667","6500200","三重區"
"241012","941-UM","2018/06/28 16:39:38","新北市三重區仁興街3巷38號","121.500748333333","25.074145","6500200","三重區"
"241029","942-UM","2018/06/28 16:39:26","新北市三重區集美街112巷13號","121.489446666667","25.0541033333333","6500200","三重區"
"241033","AAC-255","2018/06/28 16:39:28","新北市三重區光復路二段74號","121.472081666667","25.0565466666667","6500200","三重區"
"235064","005-UY","2018/06/28 16:39:27","新北市中和區員山路36巷16-3號","121.485075","24.99133","6500300","中和區"
"235046","733-UM","2018/06/28 16:39:42","新北市中和區員山路36巷13號","121.484186666667","24.9908366666667","6500300","中和區"
"235026","800-TS","2018/06/28 16:30:59","新北市中和區連城路263巷11弄11號","121.493401666667","24.995605","6500300","中和區"
"247006","336-TH","2018/06/28 16:39:45","新北市五股區中興路三段192-10號","121.443161666667","25.08156","6501400","蘆洲區"
"247008","053-VK","2018/06/28 16:39:43","新北市五股區中興路三段198號","121.441105","25.082215","6501400","蘆洲區"
"228002","663-BX","2018/06/28 16:39:30","新北市貢寮區貢寮里朝陽街26號","121.911331666667","25.0216266666667","6502600","貢寮區"
"224007","275-VK","2018/06/28 16:39:33","新北市瑞芳區中央路49巷1號","121.762098333333","25.102855","6501200","瑞芳區"
"224005","271-BY","2018/06/28 16:39:38","新北市瑞芳區洞頂路210-4號","121.86135","25.12463","6501200","瑞芳區"
"227004","642-TC","2018/06/28 16:39:45","新北市雙溪區外柑里外柑腳51號","121.808281666667","25.0179433333333","6502500","雙溪區"
"227010","400-TW","2018/06/28 16:39:31","新北市雙溪區牡丹里中正路97號","121.86199","25.04714","6502500","雙溪區"
"251013","KEA-2871","2018/06/28 16:38:25","新北市淡水區楓樹湖12-1號","121.498808333333","25.187635","6501000","淡水區"
"251016","179-VK","2018/06/28 16:39:35","新北市淡水區中山北路一段261號","121.444606666667","25.1808883333333","6501000","淡水區"
"251014","180-VK","2018/06/28 16:39:37","新北市淡水區新市二路四段130號","121.44394","25.1924033333333","6501000","淡水區"
"251008","181-VK","2018/06/28 16:39:41","新北市淡水區民生路135巷98號","121.467601666667","25.1406166666667","6501000","淡水區"
"252002","178-VK","2018/06/28 16:39:44","新北市三芝區芝柏二街1號","121.511516666667","25.25629","6502100","三芝區"
"252004","249-BX","2018/06/28 16:39:36","新北市三芝區古庄里四棧橋18-3號","121.49001","25.2608683333333","6502100","三芝區"
"238025","303-VK","2018/06/28 16:12:31","新北市樹林區中正路22-1號","121.427825","24.9994733333333","6500700","樹林區"
"238001","283-BY","2018/06/28 16:39:31","新北市樹林區中正路433-1號","121.414745","25.0079883333333","6500700","樹林區"
"238001","282-BY","2018/06/28 16:39:32","新北市樹林區大慶街99號","121.42761","24.9995466666667","6500700","樹林區"
"220050","245-BX","2018/06/28 16:39:43","新北市板橋區民生路二段161巷5號","121.47025","25.0197733333333","6500100","板橋區"
"220038","833-TW","2018/06/28 16:39:33","新北市三重區重新路五段326巷12號","121.478593333333","25.0465883333333","6500100","板橋區"
