"lineid","car","time","location","longitude","latitude","cityid","cityname"
"249005","172-UM","2018/06/28 17:19:26","新北市五股區凌雲路三段130號","121.418605","25.1288533333333","6502300","八里區"
"249001","173-UM","2018/06/28 17:19:40","新北市八里區中華路二段165巷3號","121.407675","25.150875","6502300","八里區"
"249004","303-UY","2018/06/28 17:19:30","新北市八里區賢三街21號","121.418973333333","25.1591516666667","6502300","八里區"
"249002","305-UY","2018/06/28 17:19:38","新北市八里區龍米路二段117巷37號","121.443301666667","25.1419183333333","6502300","八里區"
"249003","593-UM","2018/06/28 17:19:42","新北市八里區中山路二段421號","121.397203333333","25.1460833333333","6502300","八里區"
"244007","080-UY","2018/06/28 17:19:44","新北市林口區菁埔20號","121.37785","25.0964433333333","6501700","林口區"
"244019","403-UM","2018/06/28 17:19:39","新北市林口區文化一路一段201號","121.378536666667","25.075325","6501700","林口區"
"244013","742-UY","2018/06/28 17:19:26","新北市林口區粉寮69號","121.404816666667","25.090945","6501700","林口區"
"244023","483-VK","2018/06/28 17:19:37","新北市林口區隆林街40號","121.38782","25.0754066666667","6501700","林口區"
"244017","485-VK","2018/06/28 17:19:44","新北市林口區粉寮路一段105號","121.39799","25.08036","6501700","林口區"
"244011","701-TV","2018/06/28 17:19:43","新北市林口區粉寮路37-1號","121.400891666667","25.0847633333333","6501700","林口區"
"244025","837-TS","2018/06/28 17:19:45","新北市林口區文化三路二段302號","121.3774","25.0840766666667","6501700","林口區"
"244021","838-TS","2018/06/28 17:19:35","新北市林口區粉寮路二段288-1號","121.405066666667","25.095665","6501700","林口區"
"231046","188-VK","2018/06/28 17:19:40","新北市新店區直潭路92-1號","121.530896666667","24.9375633333333","6500600","新店區"
"241011","013-R5","2018/06/28 17:19:42","新北市三重區河邊北街100巷24號","121.502868333333","25.0701666666667","6500200","三重區"
"241028","022-UY","2018/06/28 17:19:30","新北市三重區仁化街66號","121.493933333333","25.05899","6500200","三重區"
"241008","059-VK","2018/06/28 17:19:34","新北市三重區下竹圍街8號","121.480938333333","25.0759016666667","6500200","三重區"
"241022","060-VK","2018/06/28 17:19:28","新北市三重區中正北路120號","121.485565","25.0651716666667","6500200","三重區"
"241015","062-VK","2018/06/28 17:19:29","新北市三重區福德北路82-1號","121.501816666667","25.066245","6500200","三重區"
"241017","063-VK","2018/06/28 17:19:36","新北市三重區大同北路63號","121.49512","25.06346","6500200","三重區"
"241024","065-VK","2018/06/28 17:19:32","新北市三重區中正北路193巷11弄23號","121.478293333333","25.0704566666667","6500200","三重區"
"241026","066-VK","2018/06/28 17:19:32","新北市三重區福裕街36-3號","121.499","25.0615166666667","6500200","三重區"
"241002","090-VK","2018/06/28 17:19:40","新北市三重區仁愛街357巷3號","121.492226666667","25.0801316666667","6500200","三重區"
"241003","091-VK","2018/06/28 17:19:31","新北市三重區富福街47號","121.491635","25.0841833333333","6500200","三重區"
"241005","262-UM","2018/06/28 17:19:41","新北市三重區永安北路二段25巷11號","121.482498333333","25.0815566666667","6500200","三重區"
"241016","266-UM","2018/06/28 17:19:35","新北市三重區中正北路25巷25弄6號","121.49345","25.062675","6500200","三重區"
"241009","267-UM","2018/06/28 17:19:42","新北市三重區仁愛街600巷2弄1號","121.484126666667","25.0807816666667","6500200","三重區"
"241018","268-UM","2018/06/28 17:19:39","新北市三重區正義北路332-1號","121.49434","25.0704116666667","6500200","三重區"
"241032","269-UM","2018/06/28 17:19:46","新北市三重區興華街122號","121.48348","25.0597966666667","6500200","三重區"
"241013","270-UM","2018/06/28 17:19:37","新北市三重區仁愛街112巷16號","121.494516666667","25.0740916666667","6500200","三重區"
"241007","398-BY","2018/06/28 17:19:39","新北市三重區三和路四段155巷31號","121.484763333333","25.0787483333333","6500200","三重區"
"241024","KEA-2210","2018/06/28 17:19:34","新北市三重區國道路一段58巷15號","121.481313333333","25.0720216666667","6500200","三重區"
"241025","462-BY","2018/06/28 17:19:44","新北市三重區中正北路560號","121.470888333333","25.0719366666667","6500200","三重區"
"241004","475-VK","2018/06/28 17:19:33","新北市三重區仁愛街425巷66號","121.491703333333","25.0825516666667","6500200","三重區"
"241020","478-VK","2018/06/28 17:19:45","新北市三重區自強路三段47號","121.486958333333","25.0729233333333","6500200","三重區"
"241030","480-VK","2018/06/28 17:19:42","新北市三重區成功路73巷16號","121.489378333333","25.0519383333333","6500200","三重區"
"241014","543-UM","2018/06/28 17:19:47","新北市三重區三和路二段77號","121.500108333333","25.0682983333333","6500200","三重區"
"241023","545-UM","2018/06/28 17:19:24","新北市三重區三民街174號","121.482038333333","25.0656166666667","6500200","三重區"
"241019","KEA-2593","2018/06/28 17:19:45","新北市三重區自強路二段100號","121.487396666667","25.0712483333333","6500200","三重區"
"241012","941-UM","2018/06/28 17:19:38","新北市三重區河邊北街256巷20號","121.501241666667","25.076045","6500200","三重區"
"241029","942-UM","2018/06/28 17:19:26","新北市三重區重新路四段120號","121.486968333333","25.0567416666667","6500200","三重區"
"241033","AAC-255","2018/06/28 17:19:28","新北市三重區中興北街207號","121.46908","25.0577616666667","6500200","三重區"
"247024","893-R6","2018/06/28 17:19:31","新北市蘆洲區長榮路378號","121.45974","25.0871883333333","6501400","蘆洲區"
"247014","546-UM","2018/06/28 17:19:33","新北市蘆洲區中正路83號","121.470113333333","25.0836066666667","6501400","蘆洲區"
"247022","500-BY","2018/06/28 17:19:42","新北市蘆洲區三民路128巷35號","121.469843333333","25.0896566666667","6501400","蘆洲區"
"247010","341-TH","2018/06/28 17:19:32","新北市蘆洲區中山一路120巷7弄19號","121.47709","25.0821466666667","6501400","蘆洲區"
"247012","339-TH","2018/06/28 17:19:28","新北市蘆洲區信義路319巷10弄15號","121.477418333333","25.0864633333333","6501400","蘆洲區"
"247004","337-TH","2018/06/28 17:19:39","新北市蘆洲區中原路70號","121.45843","25.0819616666667","6501400","蘆洲區"
"247006","336-TH","2018/06/28 17:19:25","新北市蘆洲區長安街73巷22-1號","121.461926666667","25.07941","6501400","蘆洲區"
"247018","057-VK","2018/06/28 17:19:26","新北市蘆洲區民權路92號","121.474325","25.0878916666667","6501400","蘆洲區"
"247008","053-VK","2018/06/28 17:19:43","新北市蘆洲區永安北路一段72巷58號","121.476016666667","25.0768566666667","6501400","蘆洲區"
"247016","007-UY","2018/06/28 17:19:42","新北市蘆洲區正和街96巷27號","121.467553333333","25.0813883333333","6501400","蘆洲區"
"247002","002-UY","2018/06/28 17:19:45","新北市蘆洲區永樂街38巷19弄24號","121.457306666667","25.0893483333333","6501400","蘆洲區"
"247020","001-UY","2018/06/28 17:19:42","新北市蘆洲區仁愛街37號","121.472208333333","25.0927783333333","6501400","蘆洲區"
"228003","097-TW","2018/06/28 17:19:41","新北市貢寮區福隆里興隆街24-1號","121.94436","25.0166183333333","6502600","貢寮區"
"228001","212-TW","2018/06/28 17:19:29","新北市貢寮區仁理村尖山腳街18-3號","121.925501666667","25.0483283333333","6502600","貢寮區"
"228002","663-BX","2018/06/28 17:19:27","新北市貢寮區雙玉里下雙溪街26號","121.923938333333","25.0100916666667","6502600","貢寮區"
"224006","676-BX","2018/06/28 17:19:35","新北市瑞芳區傑魚坑路301號","121.786583333333","25.1049766666667","6501200","瑞芳區"
"224008","285-BY","2018/06/28 17:19:28","新北市瑞芳區侯硐路48號","121.825781666667","25.0830066666667","6501200","瑞芳區"
"224009","273-VK","2018/06/28 17:19:47","新北市瑞芳區汽車路45號","121.844428333333","25.1096766666667","6501200","瑞芳區"
"224005","271-BY","2018/06/28 17:19:38","新北市瑞芳區鼻頭路193號","121.915481666667","25.1233533333333","6501200","瑞芳區"
"227004","642-TC","2018/06/28 17:19:40","新北市雙溪區上林里內平林90號","121.827605","25.0274916666667","6502500","雙溪區"
"227010","400-TW","2018/06/28 17:19:31","新北市雙溪區三貂里十三層5-3號","121.853161666667","25.0773866666667","6502500","雙溪區"
"251004","009-UM","2018/06/28 17:19:26","新北市八里區龍米路二段132-1號","121.443626666667","25.1568583333333","6501000","淡水區"
"251005","010-UM","2018/06/28 17:19:38","新北市淡水區鄧公路19號","121.451408333333","25.1700183333333","6501000","淡水區"
"251013","KEA-2871","2018/06/28 17:19:46","新北市淡水區演戲埔腳1-2號","121.475428333333","25.1939916666667","6501000","淡水區"
"251016","179-VK","2018/06/28 17:19:34","新北市淡水區鄒厝崙14號","121.461711666667","25.190455","6501000","淡水區"
"251014","180-VK","2018/06/28 17:19:36","新北市淡水區公埔子5-1號","121.465118333333","25.2266666666667","6501000","淡水區"
"251008","181-VK","2018/06/28 17:19:41","新北市淡水區大同路285號","121.468023333333","25.1424466666667","6501000","淡水區"
"251015","182-VK","2018/06/28 17:19:28","新北市淡水區三空泉17-5號","121.473326666667","25.1653533333333","6501000","淡水區"
"251010","413-VK","2018/06/28 17:19:28","新北市淡水區中正路二段211號","121.426208333333","25.1891383333333","6501000","淡水區"
"251012","441-VK","2018/06/28 17:19:34","新北市淡水區北新路2號","121.444096666667","25.1778166666667","6501000","淡水區"
"251007","442-VK","2018/06/28 17:19:26","新北市淡水區民生路47-4號","121.462131666667","25.1379933333333","6501000","淡水區"
"251006","561-UM","2018/06/28 17:19:38","新北市淡水區重建街204號","121.441201666667","25.1745033333333","6501000","淡水區"
"251009","575-R6","2018/06/28 17:19:45","新北市淡水區建設街9號","121.438996666667","25.1722633333333","6501000","淡水區"
"251011","650-BX","2018/06/28 17:19:44","新北市淡水區坪頂路128號","121.464736666667","25.161455","6501000","淡水區"
"251002","672-BX","2018/06/28 17:19:24","新北市淡水區中正路二段31號","121.419498333333","25.1818066666667","6501000","淡水區"
"251003","766-UM","2018/06/28 17:19:36","新北市淡水區中正路二段31號","121.419416666667","25.1815733333333","6501000","淡水區"
"207003","550-UM","2018/06/28 17:19:43","新北市萬里區龜吼里美崙路53-1號","121.687505","25.1835683333333","6502800","萬里區"
"252002","178-VK","2018/06/28 17:19:44","新北市三芝區忠孝街1-14號","121.505475","25.2539183333333","6502100","三芝區"
"252001","292-VK","2018/06/28 17:19:33","新北市三芝區長安街119號","121.49804","25.25965","6502100","三芝區"
"237012","275-BY","2018/06/28 17:19:36","新北市三峽區中山路459巷137號","121.349966666667","24.9338833333333","6500900","三峽區"
"242034","AAC-296","2018/06/28 17:19:27","新北市新莊區中正路473-1號","121.442121666667","25.0331466666667","6500500","新莊區"
"242058","986-R7","2018/06/28 17:19:42","新北市新莊區中正路400號","121.441608333333","25.0339666666667","6500500","新莊區"
"242053","751-BX","2018/06/28 17:19:43","新北市新莊區環河路636-7號","121.436718333333","25.0108166666667","6500500","新莊區"
"242023","705-TV","2018/06/28 17:19:26","新北市新莊區中華路一段158號","121.452648333333","25.0412166666667","6500500","新莊區"
"242027","615-BX","2018/06/28 17:19:36","新北市新莊區中港一街142號","121.446511666667","25.044975","6500500","新莊區"
"242025","613-BX","2018/06/28 17:19:32","新北市新莊區中平路82巷36-2號","121.446566666667","25.0448883333333","6500500","新莊區"
"242029","612-BX","2018/06/28 17:19:35","新北市新莊區幸福路785號","121.446655","25.04901","6500500","新莊區"
"242042","566-BX","2018/06/28 17:19:38","新北市新莊區新樹路1號","121.441018333333","25.0333816666667","6500500","新莊區"
"242046","497-BY","2018/06/28 17:19:23","新北市新莊區新樹路65-8號","121.439006666667","25.03029","6500500","新莊區"
"242051","441-UM","2018/06/28 17:19:29","新北市新莊區瓊林南路33-9號","121.435953333333","25.017765","6500500","新莊區"
"242036","415-TV","2018/06/28 17:19:32","新北市新莊區新樹路52-3號","121.43762","25.0270933333333","6500500","新莊區"
"242007","413-TV","2018/06/28 17:19:46","新北市新莊區中平路82巷36-2號","121.44645","25.04493","6500500","新莊區"
"242044","400-BY","2018/06/28 17:19:28","新北市新莊區中正路589號","121.433943333333","25.0325216666667","6500500","新莊區"
"242061","353-BY","2018/06/28 17:19:29","新北市新莊區中正路473-1號","121.441911666667","25.0332233333333","6500500","新莊區"
"242009","132-UY","2018/06/28 17:19:25","新北市新莊區中和街108巷1號","121.447666666667","25.04693","6500500","新莊區"
"242039","133-UY","2018/06/28 17:19:30","新北市新莊區新樹路52-3號","121.437488333333","25.0269266666667","6500500","新莊區"
"242031","135-UY","2018/06/28 17:19:40","新北市新莊區三和路12-21號","121.44203","25.0383083333333","6500500","新莊區"
"242048","172-VK","2018/06/28 17:19:39","新北市新莊區中正路516號","121.433613333333","25.0323966666667","6500500","新莊區"
"242056","175-VK","2018/06/28 17:19:32","新北市新莊區中正路473-1號","121.441995","25.0330233333333","6500500","新莊區"
"242013","176-VK","2018/06/28 17:19:33","新北市新莊區新泰路484號","121.442526666667","25.0456566666667","6500500","新莊區"
"242015","346-TH","2018/06/28 17:19:31","新北市新莊區新泰路275號","121.445795","25.040475","6500500","新莊區"
"242017","347-TH","2018/06/28 17:19:33","新北市新莊區新泰路488號","121.442468333333","25.0458266666667","6500500","新莊區"
"242021","348-TH","2018/06/28 17:19:45","新北市新莊區中港一街142號","121.44683","25.0449533333333","6500500","新莊區"
"242002","349-TH","2018/06/28 17:19:34","新北市新莊區新泰路137號","121.448211666667","25.0364083333333","6500500","新莊區"
"242019","350-TH","2018/06/28 17:19:36","新北市新莊區新泰路500號","121.442463333333","25.0460383333333","6500500","新莊區"
"238018","571-TV","2018/06/28 17:19:31","新北市樹林區鎮前街269巷9號","121.420368333333","24.9855383333333","6500700","樹林區"
"238024","5061-A6","2018/06/28 17:19:29","新北市樹林區樹新路51巷6號","121.42686","24.9950633333333","6500700","樹林區"
"238022","KEA-2213","2018/06/28 17:19:36","新北市樹林區和平街47號","121.423456666667","24.9818533333333","6500700","樹林區"
"238021","KEA-2539","2018/06/28 17:19:26","新北市樹林區西圳街一段146號","121.39614","24.96278","6500700","樹林區"
"238025","303-VK","2018/06/28 17:19:26","新北市樹林區保安二街77號","121.424365","24.9951333333333","6500700","樹林區"
"238017","283-BY","2018/06/28 17:19:31","新北市樹林區中正路234巷10號","121.418531666667","25.0073933333333","6500700","樹林區"
"238014","282-BY","2018/06/28 17:19:32","新北市樹林區長壽街70巷19-1號","121.421841666667","24.9947133333333","6500700","樹林區"
"238020","268-VK","2018/06/28 17:19:27","新北市樹林區中山路三段125-11號","121.398663333333","24.9736816666667","6500700","樹林區"
"238026","172-UY","2018/06/28 17:19:31","新北市樹林區東順街100號","121.405775","24.9747216666667","6500700","樹林區"
"238016","169-UY","2018/06/28 17:19:29","新北市樹林區中山路二段10號","121.417525","24.985025","6500700","樹林區"
"239006","891-R6","2018/06/28 17:19:28","新北市鶯歌區德昌街50號","121.333295","24.959885","6500800","鶯歌區"
"239008","527-UM","2018/06/28 17:19:32","新北市鶯歌區西湖街45巷17號","121.339901666667","24.95911","6500800","鶯歌區"
"239005","526-UM","2018/06/28 17:19:44","新北市鶯歌區福德三街23號","121.329446666667","24.9672483333333","6500800","鶯歌區"
"239001","417-VK","2018/06/28 17:19:43","新北市鶯歌區尖山路189號","121.344373333333","24.94723","6500800","鶯歌區"
"239003","360-BY","2018/06/28 17:19:42","新北市鶯歌區德昌街27號","121.333228333333","24.959705","6500800","鶯歌區"
"239002","359-BY","2018/06/28 17:19:44","新北市鶯歌區南雅路16號","121.349443333333","24.9540783333333","6500800","鶯歌區"
"239004","193-VK","2018/06/28 17:19:37","新北市鶯歌區文化路501號","121.35293","24.9486866666667","6500800","鶯歌區"
"242004","281-VK","2018/06/28 17:19:34","新北市新莊區新泰路498號","121.442581666667","25.0462033333333","6500500","新莊區"
"235061","KEA-2875","2018/06/28 17:18:17","新北市中和區員山路36巷16-2號","121.485173333333","24.9916183333333","6500300","中和區"
