"lineid","car","time","location","longitude","latitude","cityid","cityname"
"249005","172-UM","2018/06/28 17:29:26","新北市八里區荖阡坑路71號","121.407095","25.1262","6502300","八里區"
"249001","173-UM","2018/06/28 17:29:40","新北市八里區中華路一段1-5號","121.423261666667","25.1586066666667","6502300","八里區"
"249004","303-UY","2018/06/28 17:29:30","新北市八里區賢三街162號","121.414796666667","25.1569166666667","6502300","八里區"
"249002","305-UY","2018/06/28 17:29:38","新北市八里區龍形五街35巷3號","121.449436666667","25.1331666666667","6502300","八里區"
"249003","593-UM","2018/06/28 17:29:42","新北市八里區中山路二段502號","121.39809","25.1468183333333","6502300","八里區"
"232011","375-UM","2018/06/28 17:29:39","新北市坪林區北宜路八段553號","121.716748333333","24.91094","6502000","坪林區"
"244007","080-UY","2018/06/28 17:29:24","新北市林口區湖子17號","121.385926666667","25.0908133333333","6501700","林口區"
"244019","403-UM","2018/06/28 17:29:39","新北市林口區公園路168號","121.372178333333","25.0722283333333","6501700","林口區"
"244013","742-UY","2018/06/28 17:29:46","新北市林口區粉寮69號","121.404785","25.0908033333333","6501700","林口區"
"244023","483-VK","2018/06/28 17:29:37","新北市林口區東明一街1巷29號","121.393936666667","25.0716983333333","6501700","林口區"
"244017","485-VK","2018/06/28 17:29:44","新北市林口區文化一路二段2號","121.380073333333","25.07675","6501700","林口區"
"244011","701-TV","2018/06/28 17:29:43","新北市林口區仁愛路一段386巷6號","121.387981666667","25.0771916666667","6501700","林口區"
"244025","837-TS","2018/06/28 17:29:25","新北市林口區南勢街112號","121.363475","25.0745433333333","6501700","林口區"
"244021","838-TS","2018/06/28 17:29:36","新北市林口區粉寮路二段14號","121.401901666667","25.08556","6501700","林口區"
"243013","AAD-798","2018/06/28 17:29:45","新北市泰山區黎明路31號","121.421806666667","25.0606583333333","6501600","泰山區"
"243011","KEA-2215","2018/06/28 17:29:33","新北市泰山區黎明路25號","121.422078333333","25.0608233333333","6501600","泰山區"
"231046","188-VK","2018/06/28 17:29:40","新北市新店區直潭路92-1號","121.530891666667","24.9375566666667","6500600","新店區"
"241011","013-R5","2018/06/28 17:29:42","新北市三重區河邊北街110巷54號","121.502456666667","25.0704816666667","6500200","三重區"
"241008","059-VK","2018/06/28 17:29:34","新北市三重區車路頭街139巷14號","121.484335","25.0761566666667","6500200","三重區"
"241015","062-VK","2018/06/28 17:29:29","新北市三重區長元街65巷16弄15號","121.503578333333","25.066175","6500200","三重區"
"241017","063-VK","2018/06/28 17:29:36","新北市三重區重新路三段45-2號","121.49312","25.0617116666667","6500200","三重區"
"241024","065-VK","2018/06/28 17:29:37","新北市三重區中正北路165巷2號","121.478486666667","25.0696216666667","6500200","三重區"
"241003","091-VK","2018/06/28 17:29:31","新北市三重區五華街131號","121.491146666667","25.08434","6500200","三重區"
"241005","262-UM","2018/06/28 17:29:41","新北市三重區永安北路二段43巷27號","121.483201666667","25.0826366666667","6500200","三重區"
"241016","266-UM","2018/06/28 17:29:35","新北市三重區信義西街148號","121.495291666667","25.0639083333333","6500200","三重區"
"241009","267-UM","2018/06/28 17:29:47","新北市三重區車路頭街139巷2號","121.484031666667","25.076295","6500200","三重區"
"241018","268-UM","2018/06/28 17:29:39","新北市三重區安慶街178號","121.493696666667","25.0684666666667","6500200","三重區"
"241032","269-UM","2018/06/28 17:29:26","新北市三重區名源街31號","121.48186","25.0604516666667","6500200","三重區"
"241007","398-BY","2018/06/28 17:29:39","新北市三重區三和路四段145巷113號","121.487223333333","25.078995","6500200","三重區"
"241024","KEA-2210","2018/06/28 17:29:34","新北市三重區國道路一段58巷15號","121.481331666667","25.0720233333333","6500200","三重區"
"241025","462-BY","2018/06/28 17:29:44","新北市三重區中正北路189號","121.477288333333","25.06957","6500200","三重區"
"241020","478-VK","2018/06/28 17:29:45","新北市三重區自強路三段7巷9號","121.488956666667","25.0724333333333","6500200","三重區"
"241030","480-VK","2018/06/28 17:29:42","新北市三重區新興路55號","121.491381666667","25.0537616666667","6500200","三重區"
"241014","543-UM","2018/06/28 17:29:27","新北市三重區安和路13號","121.501376666667","25.0684083333333","6500200","三重區"
"241023","545-UM","2018/06/28 17:29:24","新北市三重區三民街146巷3弄2號","121.48164","25.0646816666667","6500200","三重區"
"241019","KEA-2593","2018/06/28 17:29:45","新北市三重區自強路二段24號","121.489445","25.0691116666667","6500200","三重區"
"241012","941-UM","2018/06/28 17:29:42","新北市三重區仁福街64巷1號","121.498088333333","25.0747516666667","6500200","三重區"
"241033","AAC-255","2018/06/28 17:29:28","新北市三重區中興北街102號","121.469013333333","25.0544283333333","6500200","三重區"
"247024","893-R6","2018/06/28 17:29:31","新北市蘆洲區長興路331號","121.460773333333","25.09047","6501400","蘆洲區"
"247014","546-UM","2018/06/28 17:29:33","新北市蘆洲區三民路33號","121.475425","25.0830166666667","6501400","蘆洲區"
"247022","500-BY","2018/06/28 17:29:33","新北市蘆洲區三民路243號","121.469011666667","25.0889933333333","6501400","蘆洲區"
"247010","341-TH","2018/06/28 17:29:44","新北市蘆洲區信義路183號","121.479735","25.0825216666667","6501400","蘆洲區"
"247012","339-TH","2018/06/28 17:29:28","新北市蘆洲區民族路42號","121.476623333333","25.0843766666667","6501400","蘆洲區"
"247004","337-TH","2018/06/28 17:29:41","新北市蘆洲區長安街233巷5號","121.459115","25.082635","6501400","蘆洲區"
"247006","336-TH","2018/06/28 17:29:25","新北市蘆洲區長安街68巷23號","121.46377","25.080875","6501400","蘆洲區"
"247018","057-VK","2018/06/28 17:29:26","新北市蘆洲區民義街22巷16號","121.47162","25.0881566666667","6501400","蘆洲區"
"247008","053-VK","2018/06/28 17:29:43","新北市蘆洲區信義路34巷54號","121.475215","25.0780233333333","6501400","蘆洲區"
"247016","007-UY","2018/06/28 17:29:42","新北市蘆洲區光華路22巷55號","121.46794","25.0849616666667","6501400","蘆洲區"
"247002","002-UY","2018/06/28 17:29:45","新北市蘆洲區永樂街38巷57弄4號","121.458225","25.0902983333333","6501400","蘆洲區"
"247020","001-UY","2018/06/28 17:29:42","新北市蘆洲區水湳街102號","121.469563333333","25.0929383333333","6501400","蘆洲區"
"228003","097-TW","2018/06/28 17:29:41","新北市貢寮區仁理村仁和路2-1號","121.92314","25.0486516666667","6502600","貢寮區"
"228001","212-TW","2018/06/28 17:29:29","新北市貢寮區仁理村仁愛路26號","121.924676666667","25.05326","6502600","貢寮區"
"228002","663-BX","2018/06/28 17:29:47","新北市貢寮區福隆里福隆街10號","121.944905","25.0161983333333","6502600","貢寮區"
"224010","AGQ-8101","2018/06/28 17:29:32","新北市瑞芳區逢甲路13號","121.809871666667","25.10869","6501200","瑞芳區"
"224006","676-BX","2018/06/28 17:29:35","新北市瑞芳區靜安路四段92號","121.793248333333","25.1099733333333","6501200","瑞芳區"
"224008","285-BY","2018/06/28 17:29:42","新北市瑞芳區侯硐路220號","121.830585","25.088395","6501200","瑞芳區"
"224009","273-VK","2018/06/28 17:29:36","新北市瑞芳區汽車路7-4號","121.846731666667","25.1106083333333","6501200","瑞芳區"
"224005","271-BY","2018/06/28 17:29:38","新北市瑞芳區南雅路29-1號","121.888313333333","25.1207116666667","6501200","瑞芳區"
"227004","642-TC","2018/06/28 17:29:40","新北市雙溪區平林里外平林59號","121.846255","25.0347566666667","6502500","雙溪區"
"251004","009-UM","2018/06/28 17:29:26","新北市八里區龍米路二段147號","121.443886666667","25.1486416666667","6501000","淡水區"
"251005","010-UM","2018/06/28 17:29:38","新北市淡水區鄧公路31巷15號","121.451961666667","25.1706716666667","6501000","淡水區"
"251013","KEA-2871","2018/06/28 17:29:45","新北市淡水區大竹圍5號","121.466566666667","25.1952216666667","6501000","淡水區"
"251016","179-VK","2018/06/28 17:29:34","新北市淡水區埤島63-3號","121.461021666667","25.1915916666667","6501000","淡水區"
"251014","180-VK","2018/06/28 17:28:57","新北市淡水區公埔子10號","121.47472","25.2272433333333","6501000","淡水區"
"251008","181-VK","2018/06/28 17:29:41","新北市淡水區大同路122巷20號","121.463416666667","25.1397466666667","6501000","淡水區"
"251015","182-VK","2018/06/28 17:29:28","新北市淡水區樹林口168號","121.475485","25.1669083333333","6501000","淡水區"
"251010","413-VK","2018/06/28 17:29:28","新北市淡水區中正路二段211號","121.426211666667","25.189085","6501000","淡水區"
"251012","441-VK","2018/06/28 17:29:34","新北市淡水區北新路110號","121.447668333333","25.1783733333333","6501000","淡水區"
"251007","442-VK","2018/06/28 17:29:26","新北市淡水區民生路47-4號","121.462106666667","25.1380466666667","6501000","淡水區"
"251006","561-UM","2018/06/28 17:29:28","新北市淡水區大仁街19號","121.442445","25.1751533333333","6501000","淡水區"
"251009","575-R6","2018/06/28 17:29:25","新北市淡水區重建街永興巷3號","121.439626666667","25.1730366666667","6501000","淡水區"
"251011","650-BX","2018/06/28 17:29:44","新北市淡水區坪頂路718號","121.482543333333","25.1584683333333","6501000","淡水區"
"251002","672-BX","2018/06/28 17:29:44","新北市淡水區中正路437號","121.432113333333","25.174705","6501000","淡水區"
"251003","766-UM","2018/06/28 17:29:36","新北市淡水區中正路235號","121.435155","25.1735216666667","6501000","淡水區"
"207003","550-UM","2018/06/28 17:29:43","新北市萬里區龜吼里翡翠路17號","121.683388333333","25.18723","6502800","萬里區"
"207004","225-TW","2018/06/28 17:29:33","新北市萬里區萬里里景美路15-1號","121.686585","25.1733516666667","6502800","萬里區"
"252002","178-VK","2018/06/28 17:29:44","新北市三芝區忠孝街1-14號","121.505316666667","25.2539766666667","6502100","三芝區"
"252001","292-VK","2018/06/28 17:29:33","新北市三芝區長安街119號","121.498063333333","25.25963","6502100","三芝區"
"237012","275-BY","2018/06/28 17:29:36","新北市三峽區中山路459巷137號","121.349978333333","24.93386","6500900","三峽區"
"237011","KEA-2596","2018/06/28 17:29:39","新北市三峽區中山路459巷163-3號","121.348761666667","24.93305","6500900","三峽區"
"242034","AAC-296","2018/06/28 17:29:27","新北市新莊區新莊路469號","121.44922","25.03333","6500500","新莊區"
"242058","986-R7","2018/06/28 17:29:42","新北市新莊區中正路513-1號","121.440071666667","25.0335666666667","6500500","新莊區"
"242053","751-BX","2018/06/28 17:29:43","新北市新莊區瓊林南路305巷25號","121.435613333333","25.0049983333333","6500500","新莊區"
"242023","705-TV","2018/06/28 17:29:46","新北市新莊區公園路152號","121.453191666667","25.0400783333333","6500500","新莊區"
"242027","615-BX","2018/06/28 17:29:36","新北市新莊區思源路32號","121.460248333333","25.0404133333333","6500500","新莊區"
"242025","613-BX","2018/06/28 17:29:32","新北市新莊區復興路二段29-1號","121.454211666667","25.0440733333333","6500500","新莊區"
"242029","612-BX","2018/06/28 17:29:35","新北市新莊區復興路二段174號","121.45872","25.0443933333333","6500500","新莊區"
"242042","566-BX","2018/06/28 17:29:44","新北市新莊區新樹路113巷25號","121.439488333333","25.0263983333333","6500500","新莊區"
"242046","497-BY","2018/06/28 17:29:43","新北市新莊區福營路4號","121.440403333333","25.03251","6500500","新莊區"
"242051","441-UM","2018/06/28 17:29:29","新北市新莊區西盛街201巷20號","121.429225","25.01688","6500500","新莊區"
"242036","415-TV","2018/06/28 17:29:32","新北市新莊區建國二路1號","121.43505","25.0236616666667","6500500","新莊區"
"242007","413-TV","2018/06/28 17:29:26","新北市新莊區自強街54號","121.454778333333","25.0467466666667","6500500","新莊區"
"242044","400-BY","2018/06/28 17:29:28","新北市新莊區富國路87號","121.42048","25.02581","6500500","新莊區"
"242061","353-BY","2018/06/28 17:29:43","新北市新莊區瓊林南路48號","121.435858333333","25.017555","6500500","新莊區"
"242009","132-UY","2018/06/28 17:29:45","新北市新莊區中原路228號","121.453148333333","25.0544733333333","6500500","新莊區"
"242039","133-UY","2018/06/28 17:29:30","新北市新莊區民安路292號","121.428078333333","25.0216883333333","6500500","新莊區"
"242031","135-UY","2018/06/28 17:29:40","新北市新莊區新泰路401巷29號","121.442521666667","25.0439816666667","6500500","新莊區"
"242048","172-VK","2018/06/28 17:29:38","新北市新莊區龍安路252號","121.42116","25.019575","6500500","新莊區"
"242056","175-VK","2018/06/28 17:29:32","新北市新莊區新莊路360號","121.449668333333","25.0336533333333","6500500","新莊區"
"242013","176-VK","2018/06/28 17:29:33","新北市新莊區中誠街16巷2號","121.45215","25.0483166666667","6500500","新莊區"
"242015","346-TH","2018/06/28 17:29:32","新北市新莊區新泰路187號","121.447328333333","25.0376816666667","6500500","新莊區"
"242017","347-TH","2018/06/28 17:29:44","新北市新莊區德豐街4號","121.451626666667","25.043955","6500500","新莊區"
"242021","348-TH","2018/06/28 17:29:35","新北市新莊區中華路一段8號","121.452006666667","25.0368583333333","6500500","新莊區"
"242002","349-TH","2018/06/28 17:29:34","新北市新莊區新莊路215號","121.45524","25.03535","6500500","新莊區"
"242019","350-TH","2018/06/28 17:29:36","新北市新莊區中港路56號","121.455443333333","25.0386716666667","6500500","新莊區"
"238015","755-BX","2018/06/28 17:29:33","新北市樹林區大安路267號","121.418998333333","24.9936883333333","6500700","樹林區"
"238018","571-TV","2018/06/28 17:29:43","新北市樹林區鎮前街153號","121.423895","24.9889916666667","6500700","樹林區"
"238024","5061-A6","2018/06/28 17:29:29","新北市樹林區中華路6-3號","121.424656666667","24.98404","6500700","樹林區"
"238022","KEA-2213","2018/06/28 17:29:36","新北市樹林區和平街6巷1號","121.421595","24.9811983333333","6500700","樹林區"
"238021","KEA-2539","2018/06/28 17:29:46","新北市樹林區民權街5巷21號","121.395745","24.9583266666667","6500700","樹林區"
"238025","303-VK","2018/06/28 17:29:26","新北市樹林區保安街二段48號","121.415263333333","25.0021783333333","6500700","樹林區"
"238017","283-BY","2018/06/28 17:29:31","新北市樹林區三德街14號","121.413465","25.0129666666667","6500700","樹林區"
"238014","282-BY","2018/06/28 17:29:32","新北市樹林區保安街一段245號","121.419696666667","24.9963816666667","6500700","樹林區"
"238020","268-VK","2018/06/28 17:29:27","新北市樹林區大安路47-1號","121.424251666667","24.9995683333333","6500700","樹林區"
"238026","172-UY","2018/06/28 17:29:31","新北市樹林區中山路三段41巷8號","121.401355","24.9748166666667","6500700","樹林區"
"238016","169-UY","2018/06/28 17:29:29","新北市樹林區中山路一段2巷7號","121.424278333333","24.9938383333333","6500700","樹林區"
"239006","891-R6","2018/06/28 17:29:47","新北市鶯歌區鳳鳴路29號","121.333776666667","24.9653433333333","6500800","鶯歌區"
"239008","527-UM","2018/06/28 17:29:32","新北市鶯歌區大湖路601號","121.335135","24.9743783333333","6500800","鶯歌區"
"239005","526-UM","2018/06/28 17:29:33","新北市鶯歌區福隆一街48號","121.324955","24.9713783333333","6500800","鶯歌區"
"239001","417-VK","2018/06/28 17:29:43","新北市鶯歌區中正三路101號","121.338228333333","24.9409333333333","6500800","鶯歌區"
"239003","360-BY","2018/06/28 17:29:42","新北市鶯歌區鶯桃路289-1號","121.334705","24.9603183333333","6500800","鶯歌區"
"239002","359-BY","2018/06/28 17:29:24","新北市鶯歌區國慶街69號","121.34993","24.9551666666667","6500800","鶯歌區"
"239004","193-VK","2018/06/28 17:29:37","新北市鶯歌區文化路417-5號","121.352925","24.9488433333333","6500800","鶯歌區"
"221008","489-VK","2018/06/28 17:29:35","新北市汐止區康寧街901號","121.651443333333","25.0749933333333","6501100","汐止區"
"221010","269-BY","2018/06/28 17:29:12","新北市汐止區汐萬路一段256巷1號","121.652051666667","25.0746883333333","6501100","汐止區"
"242004","281-VK","2018/06/28 17:29:34","新北市新莊區中港路284號","121.453056666667","25.044195","6500500","新莊區"
"235061","KEA-2875","2018/06/28 17:18:17","新北市中和區員山路36巷16-2號","121.485173333333","24.9916183333333","6500300","中和區"
