"lineid","car","time","location","longitude","latitude","cityid","cityname"
"234026","9371-KE","2018/06/28 17:49:42","新北市永和區中山路一段19號","121.513798333333","25.01032","6500400","永和區"
"249005","172-UM","2018/06/28 17:49:26","新北市八里區荖阡坑路41-6號","121.402263333333","25.132215","6502300","八里區"
"249001","173-UM","2018/06/28 17:49:40","新北市八里區龍米路二段125巷25號","121.446036666667","25.1464216666667","6502300","八里區"
"249004","303-UY","2018/06/28 17:49:34","新北市八里區中華路一段81巷22號","121.419645","25.1553483333333","6502300","八里區"
"249002","305-UY","2018/06/28 17:49:38","新北市八里區龍形五街37巷6號","121.448953333333","25.1327316666667","6502300","八里區"
"249003","593-UM","2018/06/28 17:49:42","新北市八里區中山路二段208號","121.405353333333","25.1522266666667","6502300","八里區"
"248006","077-UY","2018/06/28 17:49:38","新北市五股區中興路二段37巷26號","121.46037","25.0752066666667","6501500","五股區"
"232011","375-UM","2018/06/28 17:49:39","新北市坪林區北宜路八段168號","121.707508333333","24.9345","6502000","坪林區"
"244007","080-UY","2018/06/28 17:49:44","新北市林口區林口路194號","121.387361666667","25.0830183333333","6501700","林口區"
"244019","403-UM","2018/06/28 17:49:39","新北市林口區忠孝路512巷49號","121.37168","25.0683433333333","6501700","林口區"
"244013","742-UY","2018/06/28 17:49:46","新北市林口區中正路438號","121.383885","25.0777","6501700","林口區"
"244023","483-VK","2018/06/28 17:49:37","新北市林口區東湖路62號","121.387433333333","25.07367","6501700","林口區"
"244017","485-VK","2018/06/28 17:49:44","新北市林口區文化二路一段262-8號","121.371738333333","25.073455","6501700","林口區"
"244011","701-TV","2018/06/28 17:49:43","新北市林口區竹林路48號","121.387016666667","25.077655","6501700","林口區"
"244025","837-TS","2018/06/28 17:49:45","新北市林口區三民路122號","121.360561666667","25.070745","6501700","林口區"
"244021","838-TS","2018/06/28 17:49:35","新北市林口區仁愛路一段83巷38號","121.397806666667","25.0705833333333","6501700","林口區"
"222003","436-BY","2018/06/28 17:49:32","新北市深坑區阿柔洋60-1號","121.608641666667","24.99851","6501800","深坑區"
"222002","659-BX","2018/06/28 17:49:45","新北市深坑區平埔街22巷8號","121.61497","25.0008866666667","6501800","深坑區"
"231046","188-VK","2018/06/28 17:49:42","新北市新店區下石厝路19-2號","121.531896666667","24.9276533333333","6500600","新店區"
"241005","262-UM","2018/06/28 17:49:41","新北市三重區仁愛街512號","121.487306666667","25.082115","6500200","三重區"
"241016","266-UM","2018/06/28 17:49:35","新北市三重區重新路二段134號","121.495975","25.0615433333333","6500200","三重區"
"241024","KEA-2210","2018/06/28 17:49:34","新北市三重區力行路二段9巷5號","121.482545","25.0720833333333","6500200","三重區"
"241033","AAC-255","2018/06/28 17:49:28","新北市三重區光復路一段13號","121.472178333333","25.0472283333333","6500200","三重區"
"235064","005-UY","2018/06/28 17:49:36","新北市中和區員山路36巷16-2號","121.485245","24.9914266666667","6500300","中和區"
"235065","098-UM","2018/06/28 17:49:42","新北市中和區員山路36巷16-3號","121.485208333333","24.9911566666667","6500300","中和區"
"247024","893-R6","2018/06/28 17:49:31","新北市蘆洲區光榮路61巷20號","121.461236666667","25.0890516666667","6501400","蘆洲區"
"247014","546-UM","2018/06/28 17:49:36","新北市蘆洲區保和街31號","121.47045","25.0864716666667","6501400","蘆洲區"
"247022","500-BY","2018/06/28 17:49:33","新北市蘆洲區中正路264巷21號","121.466113333333","25.0900533333333","6501400","蘆洲區"
"247010","341-TH","2018/06/28 17:49:31","新北市蘆洲區民族路43號","121.478278333333","25.0853633333333","6501400","蘆洲區"
"247012","339-TH","2018/06/28 17:49:28","新北市蘆洲區復興路132號","121.476601666667","25.087535","6501400","蘆洲區"
"247004","337-TH","2018/06/28 17:49:39","新北市蘆洲區長安街172巷35弄15號","121.460101666667","25.084645","6501400","蘆洲區"
"247006","336-TH","2018/06/28 17:49:45","新北市蘆洲區長安街22巷32號","121.464873333333","25.0800466666667","6501400","蘆洲區"
"247018","057-VK","2018/06/28 17:49:26","新北市蘆洲區復興路227巷2弄10號","121.480476666667","25.0901816666667","6501400","蘆洲區"
"247008","053-VK","2018/06/28 17:49:43","新北市蘆洲區中山一路289號","121.471786666667","25.0793","6501400","蘆洲區"
"247016","007-UY","2018/06/28 17:49:42","新北市蘆洲區中正路185巷23弄23號","121.467583333333","25.084045","6501400","蘆洲區"
"247002","002-UY","2018/06/28 17:49:45","新北市蘆洲區永平街32巷21弄34號","121.457783333333","25.09242","6501400","蘆洲區"
"247020","001-UY","2018/06/28 17:49:42","新北市蘆洲區民義街73號","121.47319","25.0901283333333","6501400","蘆洲區"
"228003","097-TW","2018/06/28 17:49:41","新北市貢寮區真理里延平街143-1號","121.924976666667","25.0576683333333","6502600","貢寮區"
"228001","212-TW","2018/06/28 17:49:29","新北市貢寮區仁理村仁愛路95-1號","121.927651666667","25.0554016666667","6502600","貢寮區"
"228002","663-BX","2018/06/28 17:49:27","新北市貢寮區福隆里龜壽谷街28號","121.952606666667","25.0101566666667","6502600","貢寮區"
"224010","AGQ-8101","2018/06/28 17:49:32","新北市瑞芳區明燈路一段267號","121.816083333333","25.108755","6501200","瑞芳區"
"224006","676-BX","2018/06/28 17:49:35","新北市瑞芳區傑魚坑路183號","121.788501666667","25.1083616666667","6501200","瑞芳區"
"224008","285-BY","2018/06/28 17:49:43","新北市瑞芳區明燈路一段17號","121.8231","25.1072966666667","6501200","瑞芳區"
"224009","273-VK","2018/06/28 17:49:47","新北市瑞芳區金光路316巷19號","121.850408333333","25.108285","6501200","瑞芳區"
"224005","271-BY","2018/06/28 17:49:38","新北市瑞芳區瑞濱路55-3號","121.825396666667","25.120935","6501200","瑞芳區"
"227004","642-TC","2018/06/28 17:49:40","新北市雙溪區共和里東榮街52號","121.866376666667","25.0337366666667","6502500","雙溪區"
"253006","295-VK","2018/06/28 17:49:44","新北市石門區中央路5號","121.56613","25.2915066666667","6502200","石門區"
"208003","665-BX","2018/06/28 17:49:43","新北市金山區磺清路135號","121.639218333333","25.227725","6502700","金山區"
"208001","761-BX","2018/06/28 17:49:39","新北市金山區磺清路135號","121.639201666667","25.227755","6502700","金山區"
"251004","009-UM","2018/06/28 17:48:07","新北市八里區龍米路二段2-1號","121.4496","25.13842","6501000","淡水區"
"251005","010-UM","2018/06/28 17:49:38","新北市淡水區學府路102巷4號","121.450471666667","25.1719283333333","6501000","淡水區"
"251001","011-UM","2018/06/28 17:49:29","新北市淡水區民權路92巷35-1號","121.462185","25.1266783333333","6501000","淡水區"
"251013","KEA-2871","2018/06/28 17:49:25","新北市淡水區泉洲厝31號","121.479625","25.191025","6501000","淡水區"
"251016","179-VK","2018/06/28 17:49:35","新北市淡水區埤島39-15號","121.45277","25.1958616666667","6501000","淡水區"
"251014","180-VK","2018/06/28 17:49:36","新北市淡水區公埔子16-6號","121.481018333333","25.2245733333333","6501000","淡水區"
"251008","181-VK","2018/06/28 17:49:41","新北市淡水區八勢路一段112號","121.466645","25.1563033333333","6501000","淡水區"
"251015","182-VK","2018/06/28 17:49:28","新北市淡水區興福寮25號","121.493193333333","25.1641316666667","6501000","淡水區"
"251010","413-VK","2018/06/28 17:49:48","新北市淡水區淡海路300號","121.418271666667","25.1881916666667","6501000","淡水區"
"251012","441-VK","2018/06/28 17:49:34","新北市淡水區商工路388號","121.470218333333","25.183845","6501000","淡水區"
"251007","442-VK","2018/06/28 17:49:46","新北市淡水區民生路16巷32號","121.461746666667","25.137485","6501000","淡水區"
"251006","561-UM","2018/06/28 17:49:46","新北市淡水區中山北路一段53號","121.441291666667","25.1760166666667","6501000","淡水區"
"251009","575-R6","2018/06/28 17:49:38","新北市淡水區長興街55號","121.444293333333","25.1719366666667","6501000","淡水區"
"251011","650-BX","2018/06/28 17:44:44","新北市淡水區吳(仔)厝7-1號","121.480816666667","25.1477166666667","6501000","淡水區"
"251002","672-BX","2018/06/28 17:49:44","新北市淡水區中山路42號","121.44428","25.1700233333333","6501000","淡水區"
"251003","766-UM","2018/06/28 17:49:36","新北市淡水區大忠街5巷1號","121.443156666667","25.1764516666667","6501000","淡水區"
"207003","550-UM","2018/06/28 17:49:43","新北市萬里區野柳里東澳路31-4號","121.691978333333","25.203305","6502800","萬里區"
"207004","225-TW","2018/06/28 17:49:33","新北市萬里區萬里里瑪鋉頂街61號","121.688365","25.1804283333333","6502800","萬里區"
"252002","178-VK","2018/06/28 17:49:44","新北市三芝區智成街69號","121.504396666667","25.2558316666667","6502100","三芝區"
"252001","292-VK","2018/06/28 17:49:33","新北市三芝區中興街一段12號","121.497451666667","25.259225","6502100","三芝區"
"237009","210-TH","2018/06/28 17:49:26","新北市三峽區大勇路15號","121.367366666667","24.9367816666667","6500900","三峽區"
"237013","252-BX","2018/06/28 17:49:33","新北市三峽區介壽路一段57-1號","121.375593333333","24.9327966666667","6500900","三峽區"
"237012","275-BY","2018/06/28 17:49:36","新北市三峽區文化路16號","121.373291666667","24.9358","6500900","三峽區"
"237014","433-BY","2018/06/28 17:49:37","新北市三峽區文化路120巷3號","121.370946666667","24.936395","6500900","三峽區"
"237006","5529-G3","2018/06/28 17:49:46","新北市三峽區介壽路二段38巷22號","121.391863333333","24.934795","6500900","三峽區"
"237011","KEA-2596","2018/06/28 17:49:39","新北市三峽區民族街57號","121.369656666667","24.9297733333333","6500900","三峽區"
"237016","649-BX","2018/06/28 17:49:37","新北市三峽區白雞149-2號","121.400105","24.9054983333333","6500900","三峽區"
"237010","706-TV","2018/06/28 17:49:35","新北市三峽區復興路233號","121.368668333333","24.9388333333333","6500900","三峽區"
"237005","AKY-6261","2018/06/28 17:49:16","新北市三峽區中山路459巷163-1號","121.349561666667","24.93332","6500900","三峽區"
"236070","105-UM","2018/06/28 17:49:34","新北市土城區青雲路322巷28號","121.45751","24.975455","6501300","土城區"
"236078","166-UM","2018/06/28 17:49:38","新北市土城區中央路三段168號","121.43112","24.9652133333333","6501300","土城區"
"236030","253-BX","2018/06/28 17:49:34","新北市土城區城林路6巷80號","121.438728333333","24.9796733333333","6501300","土城區"
"236026","269-VK","2018/06/28 17:49:36","新北市土城區中華路二段2號","121.439345","24.9795766666667","6501300","土城區"
"236014","270-VK","2018/06/28 17:49:28","新北市土城區城林路6巷80號","121.43855","24.9796166666667","6501300","土城區"
"236038","271-VK","2018/06/28 17:49:24","新北市土城區城林路6巷80號","121.438456666667","24.979775","6501300","土城區"
"236021","401-BY","2018/06/28 17:49:32","新北市土城區城林路6巷80號","121.43851","24.97974","6501300","土城區"
"236059","912-UM","2018/06/28 17:49:38","新北市土城區中華路二段2號","121.439441666667","24.97954","6501300","土城區"
"236063","915-UM","2018/06/28 17:49:38","新北市土城區城林路6巷80號","121.438485","24.9797383333333","6501300","土城區"
"236055","AAC-216","2018/06/28 17:49:32","新北市土城區城林路6巷80號","121.43849","24.979605","6501300","土城區"
"242034","AAC-296","2018/06/28 17:49:27","新北市新莊區新樹路6號","121.440593333333","25.03275","6500500","新莊區"
"242058","986-R7","2018/06/28 17:49:42","新北市新莊區福營路130號","121.435771666667","25.032685","6500500","新莊區"
"242053","751-BX","2018/06/28 17:49:43","新北市新莊區新樹路653號","121.432701666667","25.00314","6500500","新莊區"
"242023","705-TV","2018/06/28 17:49:26","新北市新莊區福樂街40號","121.457795","25.04569","6500500","新莊區"
"242027","615-BX","2018/06/28 17:49:36","新北市新莊區福壽街175號","121.458018333333","25.053945","6500500","新莊區"
"242025","613-BX","2018/06/28 17:49:32","新北市新莊區化成路447號","121.464338333333","25.0609133333333","6500500","新莊區"
"242029","612-BX","2018/06/28 17:49:35","新北市新莊區復興路一段41號","121.446813333333","25.042025","6500500","新莊區"
"242042","566-BX","2018/06/28 17:49:18","新北市新莊區建國一路38號","121.433938333333","25.0313883333333","6500500","新莊區"
"242046","497-BY","2018/06/28 17:49:43","新北市新莊區中正路545號","121.435281666667","25.0324766666667","6500500","新莊區"
"242051","441-UM","2018/06/28 17:49:36","新北市新莊區民安西路155巷7弄10號","121.42688","25.0168183333333","6500500","新莊區"
"242036","415-TV","2018/06/28 17:49:47","新北市新莊區建福路63號","121.426823333333","25.0271083333333","6500500","新莊區"
"242007","413-TV","2018/06/28 17:49:26","新北市新莊區福樂街156巷12弄20號","121.456801666667","25.048635","6500500","新莊區"
"242044","400-BY","2018/06/28 17:49:28","新北市新莊區中正路857號","121.419665","25.0278333333333","6500500","新莊區"
"242061","353-BY","2018/06/28 17:49:29","新北市新莊區新樹路601號","121.433178333333","25.0058216666667","6500500","新莊區"
"242009","132-UY","2018/06/28 17:49:25","新北市新莊區昌明街42-1號","121.456236666667","25.0521883333333","6500500","新莊區"
"242039","133-UY","2018/06/28 17:49:30","新北市新莊區富國路202號","121.424795","25.0241766666667","6500500","新莊區"
"242031","135-UY","2018/06/28 17:49:42","新北市新莊區新泰路357巷3弄27號","121.442308333333","25.0406083333333","6500500","新莊區"
"242048","172-VK","2018/06/28 17:49:39","新北市新莊區萬安街60巷1號","121.420698333333","25.023615","6500500","新莊區"
"242011","173-VK","2018/06/28 17:49:44","新北市新莊區中港路687號","121.45065","25.0565566666667","6500500","新莊區"
"242056","175-VK","2018/06/28 17:49:32","新北市新莊區瓊林路40巷34號","121.446621666667","25.03018","6500500","新莊區"
"242013","176-VK","2018/06/28 17:49:33","新北市新莊區中泰街104巷5弄11號","121.448308333333","25.0468366666667","6500500","新莊區"
"242015","346-TH","2018/06/28 17:49:45","新北市新莊區新泰路502巷30號","121.44332","25.0464833333333","6500500","新莊區"
"242017","347-TH","2018/06/28 17:49:40","新北市新莊區永安街72號","121.450966666667","25.044665","6500500","新莊區"
"242021","348-TH","2018/06/28 17:49:25","新北市新莊區永寧街34巷2號","121.452916666667","25.0395533333333","6500500","新莊區"
"242002","349-TH","2018/06/28 17:49:37","新北市新莊區景德路140號","121.45109","25.03416","6500500","新莊區"
"242019","350-TH","2018/06/28 17:49:37","新北市新莊區民樂街79號","121.45795","25.0427866666667","6500500","新莊區"
"238015","755-BX","2018/06/28 17:49:33","新北市樹林區長壽街19巷11號","121.42206","24.993765","6500700","樹林區"
"238023","601-UM","2018/06/28 17:49:44","新北市樹林區龍興街34號","121.40275","25.0157916666667","6500700","樹林區"
"238018","571-TV","2018/06/28 17:49:31","新北市樹林區樹新路98號","121.429503333333","24.9976","6500700","樹林區"
"238022","KEA-2213","2018/06/28 17:49:36","新北市樹林區太順街86巷30號","121.416558333333","24.978565","6500700","樹林區"
"238021","KEA-2539","2018/06/28 17:49:46","新北市樹林區柑園街一段68號","121.4022","24.9602833333333","6500700","樹林區"
"238025","303-VK","2018/06/28 17:49:26","新北市樹林區俊興街211巷7弄5號","121.416916666667","25.0140533333333","6500700","樹林區"
"238017","283-BY","2018/06/28 17:49:31","新北市樹林區中正路626號","121.410123333333","25.01595","6500700","樹林區"
"238014","282-BY","2018/06/28 17:49:32","新北市樹林區保安街一段289巷40號","121.417366666667","24.9968683333333","6500700","樹林區"
"238020","268-VK","2018/06/28 17:49:21","新北市樹林區俊英街164號","121.426606666667","25.006855","6500700","樹林區"
"238026","172-UY","2018/06/28 17:49:31","新北市樹林區新興街75號","121.39988","24.9705566666667","6500700","樹林區"
"238016","169-UY","2018/06/28 17:49:29","新北市樹林區備前街56巷8號","121.416626666667","24.9866366666667","6500700","樹林區"
"239006","891-R6","2018/06/28 17:49:28","新北市鶯歌區鶯桃路438號","121.332971666667","24.9647366666667","6500800","鶯歌區"
"239008","527-UM","2018/06/28 17:49:32","新北市鶯歌區香賓街8巷1號","121.336598333333","24.9789766666667","6500800","鶯歌區"
"239005","526-UM","2018/06/28 17:49:33","新北市鶯歌區鳳吉五街33號","121.327441666667","24.9726983333333","6500800","鶯歌區"
"239001","417-VK","2018/06/28 17:49:43","新北市鶯歌區中正三路367號","121.327431666667","24.9347016666667","6500800","鶯歌區"
"239003","360-BY","2018/06/28 17:49:23","新北市鶯歌區永吉街46巷39號","121.334546666667","24.9575916666667","6500800","鶯歌區"
"239002","359-BY","2018/06/28 17:49:44","新北市鶯歌區育智路12號","121.344978333333","24.9554916666667","6500800","鶯歌區"
"239004","193-VK","2018/06/28 17:49:37","新北市鶯歌區文化路393巷2弄1號","121.352898333333","24.9504483333333","6500800","鶯歌區"
"221008","489-VK","2018/06/28 17:49:35","新北市汐止區康寧街901號","121.65139","25.0750366666667","6501100","汐止區"
"221036","130-UY","2018/06/28 17:49:26","新北市汐止區汐萬路一段39-3號","121.654893333333","25.0695833333333","6501100","汐止區"
"221015","131-UY","2018/06/28 17:49:38","新北市汐止區長江街249-1號","121.66286","25.0792933333333","6501100","汐止區"
"221010","269-BY","2018/06/28 17:49:32","新北市汐止區汐萬路二段122巷7號","121.648311666667","25.0858066666667","6501100","汐止區"
"221012","278-VK","2018/06/28 17:49:32","新北市汐止區長江街235-5號","121.663073333333","25.0786483333333","6501100","汐止區"
"221023","279-VK","2018/06/28 17:49:39","新北市汐止區民族二街9號","121.634958333333","25.070855","6501100","汐止區"
"221032","280-BY","2018/06/28 17:49:30","新北市汐止區大同路一段219巷11號","121.633445","25.058015","6501100","汐止區"
"221027","281-BY","2018/06/28 17:49:28","新北市汐止區康寧街901號","121.6515","25.0749566666667","6501100","汐止區"
"221029","298-VK","2018/06/28 17:49:43","新北市汐止區康寧街901號","121.651478333333","25.0749883333333","6501100","汐止區"
"221021","299-VK","2018/06/28 17:49:38","新北市汐止區汐萬路一段1號","121.655821666667","25.0670133333333","6501100","汐止區"
"221035","622-UM","2018/06/28 17:49:29","新北市汐止區汐萬路一段160號","121.652606666667","25.071455","6501100","汐止區"
"221025","623-UM","2018/06/28 17:49:34","新北市汐止區大同路二段173號","121.65168","25.0645133333333","6501100","汐止區"
"221038","646-BX","2018/06/28 17:49:34","新北市汐止區汐萬路一段160號","121.652545","25.0714983333333","6501100","汐止區"
"221002","707-TV","2018/06/28 17:49:45","新北市汐止區康寧街901號","121.651568333333","25.0749533333333","6501100","汐止區"
"221018","753-BX","2018/06/28 17:49:38","新北市汐止區茄苳路28號","121.665235","25.07086","6501100","汐止區"
"242004","281-VK","2018/06/28 17:49:34","新北市新莊區自立街231號","121.45806","25.0454816666667","6500500","新莊區"
