"lineid","car","time","location","longitude","latitude","cityid","cityname"
"234046","148-BY","2018/06/28 18:29:39","新北市永和區福和路1號","121.526316666667","25.009655","6500400","永和區"
"234007","207-UY","2018/06/28 18:29:41","新北市永和區仁愛路306巷71號","121.502015","25.00885","6500400","永和區"
"234038","336-UY","2018/06/28 18:29:38","新北市永和區福和路1號","121.5267","25.0100633333333","6500400","永和區"
"234026","9371-KE","2018/06/28 18:29:42","新北市永和區中山路一段90號","121.511716666667","25.0108233333333","6500400","永和區"
"234011","9373-KE","2018/06/28 18:29:44","新北市永和區保福路二段158巷1號","121.50914","25.0150466666667","6500400","永和區"
"249005","172-UM","2018/06/28 18:29:46","新北市八里區長坑口47號","121.389183333333","25.1339116666667","6502300","八里區"
"249001","173-UM","2018/06/28 18:29:40","新北市八里區龍米路一段118號","121.453208333333","25.1252466666667","6502300","八里區"
"249004","303-UY","2018/06/28 18:29:30","新北市八里區忠孝路120號","121.425551666667","25.1604483333333","6502300","八里區"
"249002","305-UY","2018/06/28 18:29:38","新北市八里區龍形三街26號","121.447945","25.1316283333333","6502300","八里區"
"248014","025-BX","2018/06/28 18:29:31","新北市五股區明德路7巷29號","121.434806666667","25.0707933333333","6501500","五股區"
"248016","026-BX","2018/06/28 18:29:36","新北市五股區凌雲路一段83巷22弄1號","121.449896666667","25.10078","6501500","五股區"
"248006","077-UY","2018/06/28 18:29:38","新北市五股區四維路38號","121.46728","25.0715833333333","6501500","五股區"
"248008","095-VK","2018/06/28 18:29:36","新北市五股區四維路185巷46號","121.463393333333","25.0773983333333","6501500","五股區"
"248020","225-UY","2018/06/28 18:29:47","新北市五股區天乙路114號","121.447038333333","25.1131316666667","6501500","五股區"
"248012","247-BX","2018/06/28 18:29:28","新北市五股區御成路70號","121.441726666667","25.0927066666667","6501500","五股區"
"248004","677-BX","2018/06/28 18:29:29","新北市五股區民義路一段155號","121.432863333333","25.087655","6501500","五股區"
"248002","678-BX","2018/06/28 18:29:35","新北市五股區西雲路116-6號","121.444708333333","25.09365","6501500","五股區"
"248010","682-TV","2018/06/28 18:29:30","新北市五股區明德路8號","121.433363333333","25.0716783333333","6501500","五股區"
"244007","080-UY","2018/06/28 18:29:44","新北市林口區湖子36-1號","121.386233333333","25.0945866666667","6501700","林口區"
"244019","403-UM","2018/06/28 18:29:39","新北市林口區忠孝路581巷8號","121.37496","25.0689066666667","6501700","林口區"
"244013","742-UY","2018/06/28 18:29:46","新北市林口區中山路297巷86號","121.383451666667","25.07966","6501700","林口區"
"244023","483-VK","2018/06/28 18:29:37","新北市林口區四維路245巷25號","121.382081666667","25.07515","6501700","林口區"
"244017","485-VK","2018/06/28 18:29:44","新北市林口區八德路78號","121.365436666667","25.0656416666667","6501700","林口區"
"244011","701-TV","2018/06/28 18:29:42","新北市林口區中正路161號","121.392695","25.0773216666667","6501700","林口區"
"244025","837-TS","2018/06/28 18:29:45","新北市林口區南勢六街55號","121.355773333333","25.07178","6501700","林口區"
"244021","838-TS","2018/06/28 18:29:35","新北市林口區自強二街46號","121.399008333333","25.0771783333333","6501700","林口區"
"243013","AAD-798","2018/06/28 18:29:45","新北市泰山區明志路三段206巷3號","121.42332","25.0379283333333","6501600","泰山區"
"243012","646-TV","2018/06/28 18:29:28","新北市泰山區泰林路二段595號","121.421691666667","25.0634916666667","6501600","泰山區"
"222003","436-BY","2018/06/28 18:29:32","新北市深坑區文山路一段28-1號","121.630833333333","25.0053633333333","6501800","深坑區"
"222002","659-BX","2018/06/28 18:29:45","新北市深坑區雲鄉路143號","121.62215","24.998255","6501800","深坑區"
"231041","002-UM","2018/06/28 18:29:46","新北市新店區安華路28-1號","121.519653333333","24.96069","6500600","新店區"
"231059","046-UY","2018/06/28 18:29:30","新北市新店區安華路28-1號","121.519593333333","24.9608733333333","6500600","新店區"
"231040","047-UY","2018/06/28 18:29:30","新北市新店區安華路28-1號","121.519146666667","24.9609016666667","6500600","新店區"
"231044","106-UY","2018/06/28 18:29:28","新北市新店區安華路28-1號","121.519645","24.9608116666667","6500600","新店區"
"231052","108-UY","2018/06/28 18:29:42","新北市新店區新烏路一段50-25號","121.545818333333","24.94979","6500600","新店區"
"231047","187-VK","2018/06/28 18:29:36","新北市新店區安一路一段1-1號","121.519583333333","24.9610983333333","6500600","新店區"
"231046","188-VK","2018/06/28 18:29:39","新北市新店區直潭七街60號","121.532321666667","24.93969","6500600","新店區"
"231054","KEA-2219","2018/06/28 18:29:46","新北市新店區安一路一段1-1號","121.519988333333","24.9613233333333","6500600","新店區"
"231057","256-BX","2018/06/28 18:29:30","新北市新店區環河路17號","121.537591666667","24.9614133333333","6500600","新店區"
"231042","268-BY","2018/06/28 18:29:46","新北市新店區安華路1-1號","121.519373333333","24.9604283333333","6500600","新店區"
"231051","278-BY","2018/06/28 18:29:43","新北市新店區安一路一段1-1號","121.519615","24.9610816666667","6500600","新店區"
"231058","3713-VJ","2018/06/28 18:29:30","新北市新店區新店後街102號","121.537633333333","24.9553","6500600","新店區"
"231066","4716-K9","2018/06/28 18:29:36","新北市新店區安一路一段1-1號","121.519176666667","24.9612266666667","6500600","新店區"
"231056","4715-K9","2018/06/28 18:29:27","新北市新店區二十張路129巷5弄6號","121.536708333333","24.9788283333333","6500600","新店區"
"231067","4772-VM","2018/06/28 18:29:30","新北市新店區安華路3號","121.519136666667","24.96035","6500600","新店區"
"231065","512-UM","2018/06/28 18:29:32","新北市新店區安一路一段1-1號","121.519076666667","24.9611766666667","6500600","新店區"
"231049","513-UM","2018/06/28 18:29:32","新北市新店區安一路一段1-1號","121.519601666667","24.961145","6500600","新店區"
"231061","619-UM","2018/06/28 18:29:34","新北市新店區安華路28-1號","121.519618333333","24.9608583333333","6500600","新店區"
"231064","719-UM","2018/06/28 18:29:30","新北市新店區安一路一段1-1號","121.519416666667","24.9612916666667","6500600","新店區"
"231062","720-UM","2018/06/28 18:29:36","新北市新店區安一路一段1-1號","121.519065","24.9612833333333","6500600","新店區"
"231060","897-TW","2018/06/28 18:29:46","新北市新店區安華路1-1號","121.519433333333","24.9605333333333","6500600","新店區"
"231045","898-TW","2018/06/28 18:29:33","新北市新店區安華路28-1號","121.519223333333","24.96079","6500600","新店區"
"231043","899-TW","2018/06/28 18:29:33","新北市新店區安一路一段1-1號","121.518783333333","24.9610483333333","6500600","新店區"
"231055","AKT-0513","2018/06/28 18:29:37","新北市新店區中正路128巷11號","121.542465","24.9720433333333","6500600","新店區"
"235066","003-UY","2018/06/28 18:29:39","新北市中和區中山路二段120號","121.502663333333","25.0038133333333","6500300","中和區"
"235064","005-UY","2018/06/28 18:29:36","新北市中和區連城路139巷66號","121.497005","24.9968933333333","6500300","中和區"
"235063","006-UY","2018/06/28 18:29:31","新北市中和區連城路389巷10弄1號","121.48656","24.9954666666667","6500300","中和區"
"235056","096-UM","2018/06/28 18:29:35","新北市中和區員山路611巷1號","121.477883333333","25.0112833333333","6500300","中和區"
"235039","097-UM","2018/06/28 18:29:37","新北市中和區安平路124號","121.511855","24.997775","6500300","中和區"
"235065","098-UM","2018/06/28 18:29:42","新北市中和區莊敬路49巷20弄32號","121.503203333333","25.0050533333333","6500300","中和區"
"235040","150-BY","2018/06/28 18:29:39","新北市中和區安平路38號","121.509821666667","24.994945","6500300","中和區"
"235058","151-BY","2018/06/28 18:29:34","新北市中和區圓通路369巷30弄52號","121.488518333333","24.9845683333333","6500300","中和區"
"235055","183-VK","2018/06/28 18:29:29","新北市中和區莒光路90號","121.472373333333","25.0025683333333","6500300","中和區"
"235038","185-VK","2018/06/28 18:29:47","新北市中和區立人街39號","121.520838333333","24.9941316666667","6500300","中和區"
"235049","186-VK","2018/06/28 18:29:45","新北市中和區景安路128號","121.505218333333","24.9945983333333","6500300","中和區"
"235067","255-BX","2018/06/28 18:29:45","新北市中和區新生街287號","121.48376","24.99743","6500300","中和區"
"235044","293-VK","2018/06/28 18:29:34","新北市中和區復興路301巷2弄1號","121.5015","24.98995","6500300","中和區"
"235072","301-VK","2018/06/28 18:29:34","新北市中和區連城路183號","121.495218333333","24.998265","6500300","中和區"
"235043","352-BY","2018/06/28 18:29:29","新北市中和區景平路299號","121.506738333333","24.9931983333333","6500300","中和區"
"235042","KEA-2878","2018/06/28 18:29:35","新北市中和區自立路56巷24號","121.522358333333","24.9916416666667","6500300","中和區"
"235050","4979-A6","2018/06/28 18:29:38","新北市中和區景新街362巷5號","121.51194","24.99011","6500300","中和區"
"235069","4980-A6","2018/06/28 18:29:35","新北市中和區連城路127巷25號","121.497006666667","24.9977033333333","6500300","中和區"
"235070","558-UM","2018/06/28 18:29:35","新北市中和區景平路453號","121.50076","24.99642","6500300","中和區"
"235045","565-BX","2018/06/28 18:29:43","新北市中和區南山路236巷24弄21號","121.504881666667","24.98896","6500300","中和區"
"235054","640-BX","2018/06/28 18:29:32","新北市中和區民享街89巷4弄2號","121.474868333333","25.00171","6500300","中和區"
"235060","647-TV","2018/06/28 18:29:42","新北市中和區員山路437-3號","121.480718333333","25.0040283333333","6500300","中和區"
"235046","733-UM","2018/06/28 18:29:38","新北市中和區南山路273號","121.504028333333","24.9923816666667","6500300","中和區"
"235062","800-TS","2018/06/28 18:29:39","新北市中和區景平路744號","121.496598333333","25.0042466666667","6500300","中和區"
"235057","801-TS","2018/06/28 18:29:42","新北市中和區民安街49號","121.479595","25.0000183333333","6500300","中和區"
"235041","802-TS","2018/06/28 18:29:42","新北市中和區景安路106號","121.505496666667","24.9953883333333","6500300","中和區"
"235052","805-TS","2018/06/28 18:29:34","新北市中和區興南路二段141號","121.50523","24.9838916666667","6500300","中和區"
"235048","896-TW","2018/06/28 18:29:44","新北市中和區中正路83號","121.500665","24.993465","6500300","中和區"
"235053","900-TW","2018/06/28 18:29:47","新北市中和區民享街457號","121.470411666667","24.993135","6500300","中和區"
"235051","157-BY","2018/06/28 18:29:27","新北市中和區興南路二段142巷25弄32號","121.502605","24.984275","6500300","中和區"
"235037","AAC-213","2018/06/28 18:29:27","新北市中和區景德街95號","121.515798333333","24.991345","6500300","中和區"
"235059","AAC-215","2018/06/28 18:29:42","新北市中和區員山路36巷16-3號","121.485166666667","24.9912316666667","6500300","中和區"
"220086","073-UY","2018/06/28 18:29:41","新北市板橋區四川路二段130巷25弄8-1號","121.449073333333","24.99448","6500100","板橋區"
"226004","312-R5","2018/06/28 18:29:44","新北市平溪區靜安路二段350號","121.737536666667","25.024325","6502400","平溪區"
"235047","251-BX","2018/06/28 18:29:41","新北市中和區南山路300號","121.50793","24.9871483333333","6500300","中和區"
"228003","097-TW","2018/06/28 18:29:41","新北市貢寮區和美里和美街44-1號","121.91488","25.0924066666667","6502600","貢寮區"
"228001","212-TW","2018/06/28 18:29:29","新北市貢寮區仁理村仁和路100號","121.922873333333","25.050665","6502600","貢寮區"
"228002","663-BX","2018/06/28 18:29:47","新北市貢寮區福連里香蘭街16-2號","121.983238333333","25.021665","6502600","貢寮區"
"224006","676-BX","2018/06/28 18:29:34","新北市瑞芳區逢甲路66號","121.810985","25.1083266666667","6501200","瑞芳區"
"224002","639-TC","2018/06/28 18:29:41","新北市瑞芳區正貿新村15號","121.813645","25.1059566666667","6501200","瑞芳區"
"224008","285-BY","2018/06/28 18:29:43","新北市瑞芳區岳王路1巷13號","121.806243333333","25.1103866666667","6501200","瑞芳區"
"224007","275-VK","2018/06/28 18:29:33","新北市瑞芳區大埔路國宅新村20號","121.764871666667","25.1003783333333","6501200","瑞芳區"
"224009","273-VK","2018/06/28 18:29:46","新北市瑞芳區祈堂路239號","121.856305","25.1090766666667","6501200","瑞芳區"
"224005","271-BY","2018/06/28 18:29:38","新北市瑞芳區台電新村28號","121.81363","25.1284166666667","6501200","瑞芳區"
"227004","642-TC","2018/06/28 18:29:40","新北市雙溪區魚行里坤溪21號","121.870376666667","25.028905","6502500","雙溪區"
"227010","400-TW","2018/06/28 18:29:30","新北市雙溪區牡丹里牡丹111號","121.851118333333","25.059905","6502500","雙溪區"
"253005","032-BX","2018/06/28 18:29:41","新北市石門區老崩山6-1號","121.552593333333","25.2912483333333","6502200","石門區"
"253006","295-VK","2018/06/28 18:29:44","新北市石門區公地20號","121.545773333333","25.290215","6502200","石門區"
"222001","KEA-2212","2018/06/28 18:29:36","新北市深坑區北深路一段199號","121.6306","25.0091033333333","6501800","深坑區"
"208002","KEA-2872","2018/06/28 18:29:43","新北市金山區磺清路121號","121.639633333333","25.2278066666667","6502700","金山區"
"208003","665-BX","2018/06/28 18:29:43","新北市金山區慈護街35號","121.639386666667","25.21982","6502700","金山區"
"208001","761-BX","2018/06/28 18:29:39","新北市金山區文化一路14號","121.636841666667","25.224585","6502700","金山區"
"251004","009-UM","2018/06/28 18:19:07","新北市淡水區民權路12-3巷1號","121.457543333333","25.1413466666667","6501000","淡水區"
"251005","010-UM","2018/06/28 18:29:38","新北市淡水區中正東路35巷9號","121.446261666667","25.1685733333333","6501000","淡水區"
"251001","011-UM","2018/06/28 18:29:29","新北市淡水區自強路122巷1號","121.464555","25.1331616666667","6501000","淡水區"
"251013","KEA-2871","2018/06/28 18:29:45","新北市淡水區椿子林20號","121.47997","25.203815","6501000","淡水區"
"251016","179-VK","2018/06/28 18:29:34","新北市淡水區下圭柔山72-1號","121.445763333333","25.2061483333333","6501000","淡水區"
"251014","180-VK","2018/06/28 18:29:36","新北市淡水區南平25號","121.494913333333","25.2144983333333","6501000","淡水區"
"251008","181-VK","2018/06/28 18:29:41","新北市淡水區水源街二段346巷1弄1號","121.464363333333","25.1755166666667","6501000","淡水區"
"251015","182-VK","2018/06/28 18:29:28","新北市淡水區興福寮88巷216號","121.485963333333","25.1665766666667","6501000","淡水區"
"251010","413-VK","2018/06/28 18:29:48","新北市淡水區沙崙路181巷2-2號","121.424218333333","25.1842","6501000","淡水區"
"251012","441-VK","2018/06/28 18:29:34","新北市淡水區北新路一段157號","121.458648333333","25.1822983333333","6501000","淡水區"
"251006","561-UM","2018/06/28 18:29:46","新北市淡水區新生街51巷2號","121.440541666667","25.1749516666667","6501000","淡水區"
"251011","650-BX","2018/06/28 18:29:44","新北市淡水區中正東路27號","121.448215","25.166235","6501000","淡水區"
"251002","672-BX","2018/06/28 18:29:44","新北市淡水區竿蓁二街19巷20弄1號","121.45311","25.1636083333333","6501000","淡水區"
"251003","766-UM","2018/06/28 18:29:36","新北市淡水區北新路169巷19號","121.449773333333","25.1799716666667","6501000","淡水區"
"207003","550-UM","2018/06/28 18:29:43","新北市萬里區野柳里港東路70號","121.687928333333","25.2046233333333","6502800","萬里區"
"207004","225-TW","2018/06/28 18:29:33","新北市萬里區萬里里瑪鋉路252號","121.688871666667","25.18078","6502800","萬里區"
"252003","249-BX","2018/06/28 18:29:44","新北市三芝區後厝里北勢子41-6號","121.472648333333","25.253215","6502100","三芝區"
"252001","292-VK","2018/06/28 18:29:33","新北市三芝區中興街二段6號","121.49849","25.256515","6502100","三芝區"
"237007","153-BY","2018/06/28 18:29:37","新北市三峽區中正路三段156號","121.353","24.903605","6500900","三峽區"
"237009","210-TH","2018/06/28 18:29:46","新北市三峽區民族街160號","121.36869","24.9280583333333","6500900","三峽區"
"237013","252-BX","2018/06/28 18:29:40","新北市三峽區光明路69巷27號","121.37688","24.9294266666667","6500900","三峽區"
"237012","275-BY","2018/06/28 18:29:36","新北市三峽區三樹路110號","121.37837","24.9392383333333","6500900","三峽區"
"237008","302-VK","2018/06/28 18:29:40","新北市三峽區白雞68-169號","121.39092","24.9082266666667","6500900","三峽區"
"237014","433-BY","2018/06/28 18:29:37","新北市三峽區文化路41號","121.372418333333","24.9359966666667","6500900","三峽區"
"237006","5529-G3","2018/06/28 18:29:46","新北市三峽區溪東路235號","121.406625","24.932675","6500900","三峽區"
"237011","KEA-2596","2018/06/28 18:29:39","新北市三峽區介壽路二段167號","121.394763333333","24.9360066666667","6500900","三峽區"
"237016","649-BX","2018/06/28 18:29:37","新北市三峽區竹崙路145號","121.434668333333","24.9097","6500900","三峽區"
"237010","706-TV","2018/06/28 18:29:35","新北市三峽區仁愛街15號","121.368486666667","24.9336183333333","6500900","三峽區"
"237005","AKY-6261","2018/06/28 18:29:36","新北市三峽區民族街5巷46號","121.369725","24.9318483333333","6500900","三峽區"
"236070","105-UM","2018/06/28 18:29:44","新北市土城區永豐路358-2號","121.474223333333","24.9749933333333","6501300","土城區"
"236042","107-UM","2018/06/28 18:29:32","新北市土城區學成路99巷11號","121.449966666667","24.98841","6501300","土城區"
"236078","166-UM","2018/06/28 18:29:38","新北市土城區大暖路61-2號","121.42206","24.95827","6501300","土城區"
"236030","253-BX","2018/06/28 18:29:34","新北市土城區水源街81巷1弄2號","121.439456666667","24.9760516666667","6501300","土城區"
"236026","269-VK","2018/06/28 18:29:36","新北市土城區南天母路135巷24號","121.449285","24.9547483333333","6501300","土城區"
"236014","270-VK","2018/06/28 18:29:47","新北市土城區青雲路39巷7號","121.460308333333","24.9873516666667","6501300","土城區"
"236038","271-VK","2018/06/28 18:29:44","新北市土城區青雲路453號","121.458735","24.9746383333333","6501300","土城區"
"236021","401-BY","2018/06/28 18:29:32","新北市土城區永豐路202巷14號","121.466206666667","24.9834933333333","6501300","土城區"
"236059","912-UM","2018/06/28 18:29:38","新北市土城區中央路四段193號","121.414741666667","24.9565183333333","6501300","土城區"
"236049","913-UM","2018/06/28 18:29:34","新北市土城區青雲路364號","121.458643333333","24.9740883333333","6501300","土城區"
"236063","915-UM","2018/06/28 18:29:43","新北市土城區延壽路77巷6弄4號","121.468585","24.9926316666667","6501300","土城區"
"236055","AAC-216","2018/06/28 18:29:32","新北市土城區中華路二段61號","121.439496666667","24.9787216666667","6501300","土城區"
"242058","986-R7","2018/06/28 18:29:42","新北市新莊區中正路690號","121.420196666667","25.0282766666667","6500500","新莊區"
"242053","751-BX","2018/06/28 18:29:43","新北市新莊區民安西路492號","121.432648333333","25.00717","6500500","新莊區"
"242025","613-BX","2018/06/28 18:29:32","新北市新莊區五工路95號","121.45769","25.0635166666667","6500500","新莊區"
"242042","566-BX","2018/06/28 18:29:38","新北市新莊區雙鳳路114號","121.41349","25.0281966666667","6500500","新莊區"
"242046","497-BY","2018/06/28 18:29:43","新北市新莊區中正路659-3號","121.428278333333","25.0296916666667","6500500","新莊區"
"242044","400-BY","2018/06/28 18:29:28","新北市新莊區中正路新旺巷41號","121.416501666667","25.0225916666667","6500500","新莊區"
"242061","353-BY","2018/06/28 18:29:29","新北市新莊區富國路178號","121.424281666667","25.024435","6500500","新莊區"
"242011","173-VK","2018/06/28 18:29:44","新北市新莊區中榮街72-1號","121.448246666667","25.0529116666667","6500500","新莊區"
"242002","349-TH","2018/06/28 18:29:34","新北市新莊區環漢路三段1號","121.442361666667","25.0242983333333","6500500","新莊區"
"238015","755-BX","2018/06/28 18:29:33","新北市樹林區啟智街172號","121.41482","24.987005","6500700","樹林區"
"238023","601-UM","2018/06/28 18:29:35","新北市樹林區三福街114號","121.406405","25.0163216666667","6500700","樹林區"
"238018","571-TV","2018/06/28 18:29:31","新北市樹林區樹新路50巷5弄7號","121.429626666667","24.9970733333333","6500700","樹林區"
"238024","5061-A6","2018/06/28 18:29:29","新北市樹林區中山路二段110-1號","121.41405","24.9833633333333","6500700","樹林區"
"238025","303-VK","2018/06/28 18:29:26","新北市樹林區中山路三段125號","121.398938333333","24.9742983333333","6500700","樹林區"
"238020","268-VK","2018/06/28 18:29:47","新北市樹林區三龍街10號","121.409476666667","25.0182816666667","6500700","樹林區"
"238026","172-UY","2018/06/28 18:29:31","新北市樹林區八德街1082號","121.390991666667","24.9688383333333","6500700","樹林區"
"238016","169-UY","2018/06/28 18:29:29","新北市樹林區文化街23號","121.419258333333","24.9875866666667","6500700","樹林區"
"239008","527-UM","2018/06/28 18:29:32","新北市鶯歌區國際一路179號","121.336238333333","24.97649","6500800","鶯歌區"
"239005","526-UM","2018/06/28 18:29:33","新北市鶯歌區鶯桃路668巷1-1號","121.328941666667","24.9697766666667","6500800","鶯歌區"
"239001","417-VK","2018/06/28 18:29:43","新北市鶯歌區國中街178號","121.338236666667","24.939205","6500800","鶯歌區"
"239003","360-BY","2018/06/28 18:29:42","新北市鶯歌區鶯桃路466號","121.332445","24.9654216666667","6500800","鶯歌區"
"239002","359-BY","2018/06/28 18:29:44","新北市鶯歌區中正一路161號","121.352775","24.9564783333333","6500800","鶯歌區"
"239004","193-VK","2018/06/28 18:29:37","新北市鶯歌區尖山路137巷12號","121.346975","24.948375","6500800","鶯歌區"
"221008","489-VK","2018/06/28 18:29:35","新北市汐止區康寧街901號","121.65134","25.0750316666667","6501100","汐止區"
"221036","130-UY","2018/06/28 18:29:45","新北市汐止區忠孝東路473巷24-1號","121.66527","25.0737133333333","6501100","汐止區"
"221015","131-UY","2018/06/28 18:29:38","新北市汐止區鄉長路18巷3號","121.66831","25.0824416666667","6501100","汐止區"
"221010","269-BY","2018/06/28 18:29:32","新北市汐止區汐萬路三段199巷3弄2號","121.642141666667","25.0987416666667","6501100","汐止區"
"221012","278-VK","2018/06/28 18:29:32","新北市汐止區保長路53號","121.673565","25.078865","6501100","汐止區"
"221023","279-VK","2018/06/28 18:29:39","新北市汐止區康寧街480號","121.632265","25.0684033333333","6501100","汐止區"
"221032","280-BY","2018/06/28 18:29:30","新北市汐止區民權街二段109巷29號","121.619911666667","25.046195","6501100","汐止區"
"221027","281-BY","2018/06/28 18:29:28","新北市汐止區建成路37巷8號","121.662811666667","25.07251","6501100","汐止區"
"221029","298-VK","2018/06/28 18:29:42","新北市汐止區樟樹一路272-5號","121.642673333333","25.0688033333333","6501100","汐止區"
"221021","299-VK","2018/06/28 18:29:37","新北市汐止區新台五路一段91-2號","121.650263333333","25.0613516666667","6501100","汐止區"
"221035","622-UM","2018/06/28 18:29:48","新北市汐止區大同路二段47號","121.648128333333","25.0631966666667","6501100","汐止區"
"221025","623-UM","2018/06/28 18:29:49","新北市汐止區仁愛路108號","121.662505","25.0634566666667","6501100","汐止區"
"221038","646-BX","2018/06/28 18:29:34","新北市汐止區秀峰路57號","121.659905","25.0651833333333","6501100","汐止區"
"221033","647-BX","2018/06/28 18:29:47","新北市汐止區宜興街71號","121.622783333333","25.04315","6501100","汐止區"
"221002","707-TV","2018/06/28 18:29:45","新北市汐止區福德一路139號","121.63688","25.0670183333333","6501100","汐止區"
"221018","753-BX","2018/06/28 18:29:38","新北市汐止區茄苳路210號","121.670623333333","25.0688483333333","6501100","汐止區"
"220079","145-BY","2018/06/28 18:29:43","新北市板橋區華東街1-10號","121.44833","24.9950716666667","6500100","板橋區"
"220080","200-UY","2018/06/28 18:29:29","新北市板橋區華東街1-9號","121.44815","24.9948633333333","6500100","板橋區"
"220082","610-BX","2018/06/28 18:29:49","新北市板橋區華東街1-10號","121.448225","24.9950016666667","6500100","板橋區"
"220071","283-VK","2018/06/28 18:29:33","新北市板橋區華東街1-9號","121.448146666667","24.9949266666667","6500100","板橋區"
"220094","285-UM","2018/06/28 18:29:38","新北市板橋區民生路二段161巷1號","121.470005","25.0200016666667","6500100","板橋區"
"220084","296-UM","2018/06/28 18:29:47","新北市板橋區華東街1-9號","121.448153333333","24.994985","6500100","板橋區"
"220065","461-BY","2018/06/28 18:29:47","新北市板橋區南雅南路二段1-1號","121.45477","25.0037216666667","6500100","板橋區"
"220064","486-VK","2018/06/28 18:29:43","新北市板橋區華東街1-10號","121.448373333333","24.9949383333333","6500100","板橋區"
"220035","560-BX","2018/06/28 18:29:29","新北市板橋區南雅西路一段5巷5號","121.454638333333","25.0040466666667","6500100","板橋區"
"220057","686-BX","2018/06/28 18:29:35","新北市板橋區華東街1-9號","121.44826","24.9949016666667","6500100","板橋區"
"220054","741-BX","2018/06/28 18:29:36","新北市板橋區華東街1-9號","121.448131666667","24.9949433333333","6500100","板橋區"
"220077","806-UM","2018/06/28 18:29:47","新北市板橋區華東街1-10號","121.448291666667","24.9949","6500100","板橋區"
"220073","985-R7","2018/06/28 18:29:34","新北市板橋區華東街1-10號","121.448341666667","24.9949966666667","6500100","板橋區"
"235068","KEA-2873","2018/06/28 18:29:42","新北市中和區錦和路350-1號","121.490528333333","24.9935516666667","6500300","中和區"
"235061","KEA-2875","2018/06/28 18:29:32","新北市中和區民享街95-5號","121.475105","24.999965","6500300","中和區"
