"lineid","car","time","location","longitude","latitude","cityid","cityname"
"234081","298-R6","2018/06/28 20:29:13","新北市永和區福和路103號","121.521748333333","25.0077816666667","6500400","永和區"
"234038","336-UY","2018/06/28 20:29:17","新北市永和區民樂街31巷19弄7號","121.528343333333","25.00196","6500400","永和區"
"234064","337-UY","2018/06/28 20:29:27","新北市永和區秀朗路一段139巷25號","121.516965","25.0050383333333","6500400","永和區"
"234086","338-UY","2018/06/28 20:29:20","新北市永和區永和路二段299號","121.5161","25.0163083333333","6500400","永和區"
"234070","552-UM","2018/06/28 20:29:26","新北市永和區永亨路6-1號","121.519408333333","25.00562","6500400","永和區"
"234030","746-BX","2018/06/28 20:29:24","新北市永和區民族街81巷46號","121.519691666667","24.9964766666667","6500400","永和區"
"234054","KEA-2590","2018/06/28 20:29:18","新北市永和區環河東路一段64號","121.519081666667","25.016845","6500400","永和區"
"234061","AAD-866","2018/06/28 20:29:15","新北市永和區安樂路162號","121.514625","25.00066","6500400","永和區"
"234042","862-TW","2018/06/28 20:29:14","新北市永和區安樂路431號","121.514398333333","25.0041883333333","6500400","永和區"
"234050","863-TW","2018/06/28 20:29:31","新北市永和區新生路108號","121.507068333333","25.0147466666667","6500400","永和區"
"234011","9373-KE","2018/06/28 20:29:24","新北市永和區仁愛路352巷140號","121.49966","25.00903","6500400","永和區"
"249001","173-UM","2018/06/28 20:29:16","新北市八里區下罟子5-11號","121.386863333333","25.14227","6502300","八里區"
"249004","303-UY","2018/06/28 20:29:17","新北市八里區中山路一段129巷37號","121.41404","25.158455","6502300","八里區"
"249002","305-UY","2018/06/28 20:29:18","新北市八里區龍米路二段125巷1號","121.446328333333","25.14517","6502300","八里區"
"249003","593-UM","2018/06/28 20:29:29","新北市八里區華峰一街56號","121.398286666667","25.14612","6502300","八里區"
"248002","678-BX","2018/06/28 20:29:15","新北市五股區新五路三段10號","121.443723333333","25.0872916666667","6501500","五股區"
"234023","9380-KE","2018/06/28 20:29:21","新北市永和區勵行街42-1號","121.516645","25.0135183333333","6500400","永和區"
"234077","969-R7","2018/06/28 20:29:16","新北市板橋區民生路三段12號","121.46751","25.0241133333333","6500400","永和區"
"234074","AAC-211","2018/06/28 20:29:18","新北市永和區福和路1號","121.52506","25.00899","6500400","永和區"
"234067","AAC-212","2018/06/28 20:29:21","新北市永和區保平路292巷46弄2號","121.507445","25.0053466666667","6500400","永和區"
"234003","AAC-295","2018/06/28 20:29:24","新北市永和區中正路620號","121.517058333333","25.0078583333333","6500400","永和區"
"243013","AAD-798","2018/06/28 20:29:25","新北市泰山區貴子路9-1號","121.425526666667","25.0420883333333","6501600","泰山區"
"243009","297-R6","2018/06/28 20:29:21","新北市泰山區忠孝街41巷1號","121.428408333333","25.0654616666667","6501600","泰山區"
"243016","380-SR","2018/06/28 20:29:20","新北市泰山區新生路11號","121.426886666667","25.0456566666667","6501600","泰山區"
"243015","421-VK","2018/06/28 20:29:24","新北市泰山區泰林路二段216號","121.43281","25.0617983333333","6501600","泰山區"
"243011","KEA-2215","2018/06/28 20:29:17","新北市泰山區德安街19-1號","121.418783333333","25.0315","6501600","泰山區"
"243010","KEA-2216","2018/06/28 20:29:29","新北市泰山區明志路二段273巷16弄20號","121.427721666667","25.046465","6501600","泰山區"
"243012","646-TV","2018/06/28 20:29:28","新北市泰山區忠孝街10-1號","121.427633333333","25.0647216666667","6501600","泰山區"
"243014","680-BX","2018/06/28 20:29:14","新北市泰山區泰林路二段589號","121.421868333333","25.0633933333333","6501600","泰山區"
"222003","436-BY","2018/06/28 20:29:14","新北市深坑區深坑街26號","121.615378333333","25.0018916666667","6501800","深坑區"
"222002","659-BX","2018/06/28 20:29:25","新北市深坑區萬福路16巷36-1號","121.610615","25.008065","6501800","深坑區"
"231041","002-UM","2018/06/28 20:29:26","新北市新店區中正路520號","121.533781666667","24.98368","6500600","新店區"
"231059","046-UY","2018/06/28 20:29:30","新北市新店區安德街169號","121.508613333333","24.9591466666667","6500600","新店區"
"231040","047-UY","2018/06/28 20:29:30","新北市新店區中正路327號","121.536243333333","24.97514","6500600","新店區"
"231044","106-UY","2018/06/28 20:29:28","新北市新店區建國路149號","121.538813333333","24.9787733333333","6500600","新店區"
"231052","108-UY","2018/06/28 20:29:22","新北市新店區松林路38號","121.546316666667","24.9102533333333","6500600","新店區"
"231050","110-UY","2018/06/28 20:29:13","新北市新店區建興街9巷1號","121.53991","24.976365","6500600","新店區"
"231047","187-VK","2018/06/28 20:29:15","新北市新店區寶慶街58巷21-1號","121.541938333333","24.9873183333333","6500600","新店區"
"231054","KEA-2219","2018/06/28 20:29:26","新北市新店區檳榔路109號","121.544418333333","24.9617216666667","6500600","新店區"
"231057","256-BX","2018/06/28 20:29:13","新北市新店區花園五路二段3號","121.553593333333","24.9341666666667","6500600","新店區"
"231042","268-BY","2018/06/28 20:29:26","新北市新店區寶橋路158-1號","121.548845","24.9771666666667","6500600","新店區"
"231051","278-BY","2018/06/28 20:29:23","新北市新店區中央七街29號","121.529443333333","24.97541","6500600","新店區"
"231058","3713-VJ","2018/06/28 20:29:25","新北市新店區自由街52號","121.534381666667","24.9737233333333","6500600","新店區"
"231066","4716-K9","2018/06/28 20:29:16","新北市新店區安興路56號","121.516556666667","24.9749316666667","6500600","新店區"
"231056","4715-K9","2018/06/28 20:29:27","新北市新店區中正路338號","121.536733333333","24.97522","6500600","新店區"
"231067","4772-VM","2018/06/28 20:29:30","新北市新店區溪洲路8巷66號","121.533283333333","24.96247","6500600","新店區"
"231065","512-UM","2018/06/28 20:29:13","新北市新店區安祥路102巷30弄11號","121.484583333333","24.96358","6500600","新店區"
"231049","513-UM","2018/06/28 20:29:12","新北市新店區安康路一段20號","121.530988333333","24.9610183333333","6500600","新店區"
"231061","619-UM","2018/06/28 20:29:15","新北市新店區安業街8巷2號","121.515133333333","24.9777616666667","6500600","新店區"
"231063","641-BX","2018/06/28 20:29:12","新北市新店區玫瑰路4-1號","121.493466666667","24.95142","6500600","新店區"
"231068","718-UY","2018/06/28 20:29:13","新北市新店區寶安街15號","121.542006666667","24.9819533333333","6500600","新店區"
"231064","719-UM","2018/06/28 20:29:10","新北市新店區安和路三段101號","121.517985","24.9844783333333","6500600","新店區"
"231062","720-UM","2018/06/28 20:29:16","新北市新店區安泰路22-1號","121.48541","24.9483716666667","6500600","新店區"
"231060","897-TW","2018/06/28 20:29:26","新北市新店區錦秀路74巷2號","121.478731666667","24.9418416666667","6500600","新店區"
"231045","898-TW","2018/06/28 20:29:13","新北市新店區長春路21巷1號","121.54939","24.9581683333333","6500600","新店區"
"231043","899-TW","2018/06/28 20:29:13","新北市新店區建國路99巷1號","121.540376666667","24.977175","6500600","新店區"
"241011","013-R5","2018/06/28 20:29:11","新北市三重區龍門路39號","121.49599","25.07232","6500200","三重區"
"241028","022-UY","2018/06/28 20:29:30","新北市三重區光興街91號","121.497415","25.0599566666667","6500200","三重區"
"241008","059-VK","2018/06/28 20:29:27","新北市三重區力行路二段51號","121.482195","25.0743283333333","6500200","三重區"
"241022","060-VK","2018/06/28 20:29:19","新北市三重區重陽路二段19巷2號","121.487358333333","25.0624366666667","6500200","三重區"
"241031","061-VK","2018/06/28 20:29:21","新北市三重區三寧街15號","121.489471666667","25.05983","6500200","三重區"
"241015","062-VK","2018/06/28 20:29:12","新北市三重區文化北路47號","121.498876666667","25.06548","6500200","三重區"
"241017","063-VK","2018/06/28 20:29:15","新北市三重區自強路一段288號","121.491626666667","25.0681833333333","6500200","三重區"
"241024","065-VK","2018/06/28 20:29:29","新北市三重區三民街237號","121.480241666667","25.067395","6500200","三重區"
"241026","066-VK","2018/06/28 20:29:10","新北市三重區環河南路7號","121.503963333333","25.063235","6500200","三重區"
"241002","090-VK","2018/06/28 20:29:20","新北市三重區仁義街211巷25號","121.497686666667","25.082265","6500200","三重區"
"241003","091-VK","2018/06/28 20:29:22","新北市三重區富華街158號","121.492446666667","25.0844616666667","6500200","三重區"
"241005","262-UM","2018/06/28 20:29:20","新北市三重區碧華街292號","121.489503333333","25.0832733333333","6500200","三重區"
"241016","266-UM","2018/06/28 20:29:15","新北市三重區正義北路188號","121.496351666667","25.0668516666667","6500200","三重區"
"241009","267-UM","2018/06/28 20:29:27","新北市三重區永福街58巷1弄5號","121.481173333333","25.07787","6500200","三重區"
"241018","268-UM","2018/06/28 20:29:18","新北市三重區雙園街72號","121.495628333333","25.0677016666667","6500200","三重區"
"241032","269-UM","2018/06/28 20:29:28","新北市三重區重陽路一段120巷48號","121.485","25.060165","6500200","三重區"
"241013","270-UM","2018/06/28 20:29:15","新北市三重區溪尾街5巷23號","121.49264","25.0745966666667","6500200","三重區"
"241007","398-BY","2018/06/28 20:29:29","新北市三重區自強路四段32-2號","121.489063333333","25.07709","6500200","三重區"
"241035","KEA-2210","2018/06/28 20:29:14","新北市三重區重新路二段60號","121.498058333333","25.0619983333333","6500200","三重區"
"241001","413-TH","2018/06/28 20:29:21","新北市三重區福隆路37號","121.490203333333","25.0772833333333","6500200","三重區"
"241004","475-VK","2018/06/28 20:29:13","新北市三重區慈愛街183號","121.490201666667","25.080365","6500200","三重區"
"241020","478-VK","2018/06/28 20:29:24","新北市三重區明德街61號","121.491993333333","25.072205","6500200","三重區"
"241030","480-VK","2018/06/28 20:29:21","新北市三重區成功路62號","121.48853","25.05087","6500200","三重區"
"241014","543-UM","2018/06/28 20:29:26","新北市三重區長壽街120巷19弄1號","121.502243333333","25.0691833333333","6500200","三重區"
"241023","545-UM","2018/06/28 20:29:24","新北市三重區自由街13號","121.479945","25.066495","6500200","三重區"
"241019","KEA-2593","2018/06/28 20:29:24","新北市三重區重陽路四段40號","121.491505","25.0698366666667","6500200","三重區"
"241006","AAD-863","2018/06/28 20:29:18","新北市三重區車路頭街139巷12號","121.484253333333","25.0762416666667","6500200","三重區"
"241025","743-BX","2018/06/28 20:19:33","新北市三重區頂崁街210巷2號","121.477145","25.067495","6500200","三重區"
"241012","941-UM","2018/06/28 20:29:17","新北市三重區龍濱路261號","121.501466666667","25.0729183333333","6500200","三重區"
"241029","942-UM","2018/06/28 20:29:28","新北市三重區集美街112巷39號","121.490633333333","25.0543516666667","6500200","三重區"
"241033","AAC-255","2018/06/28 20:29:10","新北市三重區五谷王北街82號","121.476031666667","25.052775","6500200","三重區"
"235066","003-UY","2018/06/28 20:29:19","新北市中和區中山路二段3巷22弄29號","121.505931666667","25.00423","6500300","中和區"
"235039","097-UM","2018/06/28 20:29:17","新北市中和區大勇街29巷9號","121.51596","24.9943833333333","6500300","中和區"
"235050","4979-A6","2018/06/28 20:29:18","新北市中和區景新街160巷2號","121.505656666667","24.9972233333333","6500300","中和區"
"235069","4980-A6","2018/06/28 20:29:15","新北市中和區中正路446號","121.490938333333","24.9942666666667","6500300","中和區"
"235026","800-TS","2018/06/28 20:03:54","新北市中和區員山路36巷16-3號","121.484896666667","24.991665","6500300","中和區"
"235059","AAC-215","2018/06/28 20:29:22","新北市中和區員山路22號","121.483458333333","24.9841216666667","6500300","中和區"
"247024","893-R6","2018/06/28 20:29:11","新北市蘆洲區光復路78號","121.46442","25.085605","6501400","蘆洲區"
"247014","546-UM","2018/06/28 20:29:13","新北市蘆洲區中山二路135號","121.471878333333","25.0815816666667","6501400","蘆洲區"
"247022","500-BY","2018/06/28 20:29:27","新北市蘆洲區三民路200號","121.469225","25.08888","6501400","蘆洲區"
"247010","341-TH","2018/06/28 20:29:20","新北市蘆洲區信義路222巷34弄2號","121.480856666667","25.085465","6501400","蘆洲區"
"247012","339-TH","2018/06/28 20:29:28","新北市蘆洲區復興路288號","121.480768333333","25.0898966666667","6501400","蘆洲區"
"247004","337-TH","2018/06/28 20:29:13","新北市蘆洲區長安街299巷29號","121.456681666667","25.0844816666667","6501400","蘆洲區"
"247006","336-TH","2018/06/28 20:29:27","新北市蘆洲區長安街2號","121.464676666667","25.078725","6501400","蘆洲區"
"247008","056-VK","2018/06/28 20:29:20","新北市蘆洲區重陽二街20號","121.482421666667","25.085185","6501400","蘆洲區"
"247018","053-VK","2018/06/28 20:29:16","新北市蘆洲區民族路327巷52號","121.474498333333","25.0909316666667","6501400","蘆洲區"
"247016","007-UY","2018/06/28 20:29:22","新北市蘆洲區光華路80-1號","121.467761666667","25.082595","6501400","蘆洲區"
"247002","002-UY","2018/06/28 20:29:24","新北市蘆洲區長安街361巷39號","121.455493333333","25.0874533333333","6501400","蘆洲區"
"247020","001-UY","2018/06/28 20:29:16","新北市蘆洲區水湳街395號","121.46925","25.0943633333333","6501400","蘆洲區"
"222001","KEA-2212","2018/06/28 20:29:16","新北市深坑區北深路三段329號","121.597301666667","25.0051533333333","6501800","深坑區"
"251001","011-UM","2018/06/28 20:29:28","新北市淡水區新市一路三段102號","121.44634","25.18293","6501000","淡水區"
"251013","KEA-2871","2018/06/28 20:29:25","新北市淡水區奎柔山路460號","121.463716666667","25.204615","6501000","淡水區"
"251016","179-VK","2018/06/28 20:29:14","新北市淡水區後洲子12-1號","121.451061666667","25.2237566666667","6501000","淡水區"
"251014","180-VK","2018/06/28 20:29:16","新北市淡水區淡金路五段118巷3號","121.45812","25.2366633333333","6501000","淡水區"
"251008","181-VK","2018/06/28 20:29:21","新北市淡水區淡海路189巷1號","121.420393333333","25.1844533333333","6501000","淡水區"
"251015","182-VK","2018/06/28 20:29:28","新北市淡水區淡金路四段542巷17號","121.45273","25.2270683333333","6501000","淡水區"
"251010","413-VK","2018/06/28 20:29:28","新北市淡水區沙崙路181巷15號","121.423921666667","25.18435","6501000","淡水區"
"251012","441-VK","2018/06/28 20:29:14","新北市淡水區頂田寮路123號","121.459306666667","25.2162666666667","6501000","淡水區"
"251006","561-UM","2018/06/28 20:29:25","新北市淡水區商工路329號","121.463325","25.1859733333333","6501000","淡水區"
"251003","766-UM","2018/06/28 20:29:16","新北市淡水區新生街108巷1號","121.440228333333","25.174685","6501000","淡水區"
"252002","178-VK","2018/06/28 20:29:24","新北市三芝區淡金路二段47-2號","121.503678333333","25.2605466666667","6502100","三芝區"
"252001","292-VK","2018/06/28 20:29:13","新北市三芝區中山路一段14號","121.500706666667","25.25809","6502100","三芝區"
"242034","AAC-296","2018/06/28 20:29:20","新北市新莊區建中街90巷6號","121.446923333333","25.0372283333333","6500500","新莊區"
"242058","986-R7","2018/06/28 20:29:22","新北市新莊區四維路173號","121.422303333333","25.02154","6500500","新莊區"
"242053","751-BX","2018/06/28 20:29:22","新北市新莊區民安西路245巷7號","121.426573333333","25.0137066666667","6500500","新莊區"
"242023","705-TV","2018/06/28 20:29:16","新北市新莊區化成路537號","121.46511","25.0643383333333","6500500","新莊區"
"242027","615-BX","2018/06/28 20:29:26","新北市新莊區思源路309號","121.459871666667","25.0489816666667","6500500","新莊區"
"242025","613-BX","2018/06/28 20:29:28","新北市新莊區五工三路64號","121.459505","25.0645233333333","6500500","新莊區"
"242029","612-BX","2018/06/28 20:29:16","新北市新莊區昌平街31巷11號","121.454226666667","25.0515516666667","6500500","新莊區"
"242042","566-BX","2018/06/28 20:29:18","新北市新莊區天祥街54巷1弄2號","121.416716666667","25.0293283333333","6500500","新莊區"
"242046","497-BY","2018/06/28 20:29:23","新北市新莊區中正路881-16號","121.417498333333","25.0246133333333","6500500","新莊區"
"242036","415-TV","2018/06/28 20:29:31","新北市新莊區後港一路76巷14弄2號","121.427358333333","25.025585","6500500","新莊區"
"242007","413-TV","2018/06/28 20:29:26","新北市新莊區思源路335號","121.45975","25.0497616666667","6500500","新莊區"
"242044","400-BY","2018/06/28 20:29:23","新北市新莊區中正路新建巷15弄10號","121.414436666667","25.0221983333333","6500500","新莊區"
"242061","353-BY","2018/06/28 20:29:11","新北市新莊區民安路318號","121.428741666667","25.0221066666667","6500500","新莊區"
"242009","132-UY","2018/06/28 20:29:26","新北市新莊區昌盛街85號","121.455633333333","25.05002","6500500","新莊區"
"242039","133-UY","2018/06/28 20:29:10","新北市新莊區成功街6巷1號","121.425628333333","25.0216766666667","6500500","新莊區"
"242031","135-UY","2018/06/28 20:29:28","新北市新莊區三和路17-4號","121.438551666667","25.0378366666667","6500500","新莊區"
"242048","172-VK","2018/06/28 20:29:18","新北市新莊區富國路80號","121.420153333333","25.025935","6500500","新莊區"
"242011","173-VK","2018/06/28 20:27:43","新北市新莊區中義街5號","121.451415","25.051155","6500500","新莊區"
"242056","175-VK","2018/06/28 20:29:12","新北市新莊區新莊路713巷1弄1號","121.443676666667","25.03255","6500500","新莊區"
"242013","176-VK","2018/06/28 20:29:13","新北市新莊區中平路334號","121.444676666667","25.0525433333333","6500500","新莊區"
"242015","346-TH","2018/06/28 20:29:27","新北市新莊區中平路82巷22號","121.445751666667","25.0449466666667","6500500","新莊區"
"242017","347-TH","2018/06/28 20:29:16","新北市新莊區中港二街53號","121.450308333333","25.0458816666667","6500500","新莊區"
"242021","348-TH","2018/06/28 20:29:29","新北市新莊區公園路66號","121.449656666667","25.03949","6500500","新莊區"
"242002","349-TH","2018/06/28 20:29:25","新北市新莊區中正路72號","121.458793333333","25.0380066666667","6500500","新莊區"
"242019","350-TH","2018/06/28 20:29:22","新北市新莊區民樂街95號","121.457851666667","25.0436183333333","6500500","新莊區"
"221008","489-VK","2018/06/28 20:29:15","新北市汐止區康寧街391號","121.629323333333","25.067845","6501100","汐止區"
"221036","130-UY","2018/06/28 20:29:25","新北市汐止區仁愛路215號","121.66515","25.0667616666667","6501100","汐止區"
"221015","131-UY","2018/06/28 20:29:18","新北市汐止區建成路142巷19弄5號","121.662136666667","25.0736466666667","6501100","汐止區"
"221010","269-BY","2018/06/28 20:29:11","新北市汐止區八連路二段610巷4號","121.62816","25.1084433333333","6501100","汐止區"
"221012","278-VK","2018/06/28 20:29:11","新北市汐止區大同路三段279號","121.674171666667","25.075045","6501100","汐止區"
"221023","279-VK","2018/06/28 20:29:18","新北市汐止區湖東街76巷1號","121.635805","25.07352","6501100","汐止區"
"221032","280-BY","2018/06/28 20:29:10","新北市汐止區民權街二段79-1號","121.61938","25.0485933333333","6501100","汐止區"
"221027","281-BY","2018/06/28 20:29:28","新北市汐止區中正路214號","121.658273333333","25.0688966666667","6501100","汐止區"
"221029","298-VK","2018/06/28 20:29:22","新北市汐止區工建路129巷34弄21號","121.640548333333","25.06534","6501100","汐止區"
"221021","299-VK","2018/06/28 20:29:17","新北市汐止區水源路一段284號","121.65421","25.0583083333333","6501100","汐止區"
"221035","622-UM","2018/06/28 20:29:28","新北市汐止區長江街101-5號","121.658731666667","25.073055","6501100","汐止區"
"221025","623-UM","2018/06/28 20:29:14","新北市汐止區水源路二段90號","121.656465","25.0560383333333","6501100","汐止區"
"221038","646-BX","2018/06/28 20:29:14","新北市汐止區忠孝東路9號","121.657823333333","25.065525","6501100","汐止區"
"221033","647-BX","2018/06/28 20:29:27","新北市汐止區林森街73巷5號","121.623551666667","25.0409533333333","6501100","汐止區"
"221002","707-TV","2018/06/28 20:29:25","新北市汐止區福德二路37-1號","121.634765","25.0675766666667","6501100","汐止區"
"221018","753-BX","2018/06/28 20:29:18","新北市汐止區茄苳路225巷9弄1號","121.671395","25.0691966666667","6501100","汐止區"
"220083","286-VK","2018/06/28 20:29:09","新北市板橋區僑中二街106巷22-2號","121.444938333333","25.007745","6500100","板橋區"
"220061","293-UM","2018/06/28 20:29:20","新北市板橋區四川路一段326號","121.457641666667","25.0004733333333","6500100","板橋區"
"242004","281-VK","2018/06/28 20:29:13","新北市新莊區化成路371巷27號","121.463563333333","25.0569616666667","6500500","新莊區"
"220065","461-BY","2018/06/28 20:29:07","新北市樹林區育德街121巷7號","121.389438333333","24.9682083333333","6500100","板橋區"
"220103","561-BX","2018/06/28 20:29:30","新北市板橋區漢生東路33巷42號","121.466046666667","25.017685","6500100","板橋區"
"220067","829-TW","2018/06/28 20:29:23","新北市五股區新城八路1號","121.447866666667","25.0886833333333","6500100","板橋區"
"220089","833-TW","2018/06/28 20:29:17","新北市板橋區四維路320號","121.462338333333","25.0300533333333","6500100","板橋區"
"235068","KEA-2873","2018/06/28 20:29:12","新北市中和區勝利路35巷1弄8號","121.499301666667","25.0074466666667","6500300","中和區"
