"lineid","car","time","location","longitude","latitude","cityid","cityname"
"234064","337-UY","2018/06/28 20:39:27","新北市永和區永和路二段322號","121.516176666667","25.0162716666667","6500400","永和區"
"234061","AAD-866","2018/06/28 20:39:15","新北市永和區秀安街13巷2號","121.515981666667","25.003585","6500400","永和區"
"249001","173-UM","2018/06/28 20:39:16","新北市八里區下罟子23號","121.376891666667","25.1386633333333","6502300","八里區"
"249004","303-UY","2018/06/28 20:39:17","新北市八里區中山路一段157巷31號","121.413075","25.158175","6502300","八里區"
"249002","305-UY","2018/06/28 20:39:18","新北市八里區龍米路三段48-1號","121.427525","25.1594066666667","6502300","八里區"
"249003","593-UM","2018/06/28 20:39:29","新北市八里區舊城路21號","121.39984","25.1469616666667","6502300","八里區"
"234023","9380-KE","2018/06/28 20:39:11","新北市永和區博愛街32巷17-1號","121.518856666667","25.0153133333333","6500400","永和區"
"234077","969-R7","2018/06/28 20:39:16","新北市五股區天乙路101-6號","121.445146666667","25.1069983333333","6500400","永和區"
"234074","AAC-211","2018/06/28 20:39:18","新北市永和區竹林路119巷16號","121.521023333333","25.0114516666667","6500400","永和區"
"243016","380-SR","2018/06/28 20:39:26","新北市泰山區文程路3號","121.427721666667","25.04962","6501600","泰山區"
"243011","KEA-2215","2018/06/28 20:39:24","新北市泰山區明志路三段44號","121.424846666667","25.0425233333333","6501600","泰山區"
"243010","KEA-2216","2018/06/28 20:39:09","新北市泰山區公園路88-1號","121.423666666667","25.0576016666667","6501600","泰山區"
"243012","646-TV","2018/06/28 20:39:28","新北市泰山區泰林路三段745巷145號","121.406146666667","25.06854","6501600","泰山區"
"222003","436-BY","2018/06/28 20:39:12","新北市深坑區阿柔洋25-1號","121.613135","24.9990916666667","6501800","深坑區"
"222002","659-BX","2018/06/28 20:39:25","新北市深坑區萬福路45號","121.599455","25.0068333333333","6501800","深坑區"
"231041","002-UM","2018/06/28 20:39:26","新北市新店區中正路549號","121.533805","24.98778","6500600","新店區"
"231059","046-UY","2018/06/28 20:39:23","新北市新店區僑信路132巷25號","121.500036666667","24.9453666666667","6500600","新店區"
"231040","047-UY","2018/06/28 20:39:10","新北市新店區中正路270號","121.538936666667","24.9735483333333","6500600","新店區"
"231044","106-UY","2018/06/28 20:39:28","新北市新店區建國路293巷2號","121.537003333333","24.9857666666667","6500600","新店區"
"231052","108-UY","2018/06/28 20:39:22","新北市新店區廣興路7-10號","121.545721666667","24.911675","6500600","新店區"
"231050","110-UY","2018/06/28 20:39:13","新北市新店區建國路33巷2號","121.540305","24.9741933333333","6500600","新店區"
"231047","187-VK","2018/06/28 20:39:15","新北市新店區寶慶街9號","121.543583333333","24.98677","6500600","新店區"
"231054","KEA-2219","2018/06/28 20:39:26","新北市新店區行政街45號","121.543046666667","24.9656116666667","6500600","新店區"
"231057","256-BX","2018/06/28 20:39:13","新北市新店區花園六路二段9-2號","121.555711666667","24.9328716666667","6500600","新店區"
"231042","268-BY","2018/06/28 20:39:26","新北市新店區寶橋路230號","121.55154","24.9788266666667","6500600","新店區"
"231051","278-BY","2018/06/28 20:39:23","新北市新店區中央七街93號","121.526458333333","24.977225","6500600","新店區"
"231058","3713-VJ","2018/06/28 20:39:25","新北市新店區平等街42號","121.536465","24.9734016666667","6500600","新店區"
"231066","4716-K9","2018/06/28 20:39:16","新北市新店區安民街365巷1弄8號","121.516385","24.975335","6500600","新店區"
"231056","4715-K9","2018/06/28 20:39:27","新北市新店區中央七街61巷14號","121.5288","24.9761983333333","6500600","新店區"
"231067","4772-VM","2018/06/28 20:39:10","新北市新店區安華路28-1號","121.51982","24.9607916666667","6500600","新店區"
"231065","512-UM","2018/06/28 20:39:12","新北市新店區安祥路102巷76號","121.48572","24.9639533333333","6500600","新店區"
"231049","513-UM","2018/06/28 20:39:12","新北市新店區永業路81巷12號","121.531201666667","24.9481","6500600","新店區"
"231061","619-UM","2018/06/28 20:39:15","新北市新店區新和街35號","121.519228333333","24.9849383333333","6500600","新店區"
"231063","641-BX","2018/06/28 20:39:12","新北市新店區玫瑰路4-1號","121.493593333333","24.9513716666667","6500600","新店區"
"231068","718-UY","2018/06/28 20:39:13","新北市新店區中興路三段328號","121.542063333333","24.9863466666667","6500600","新店區"
"231064","719-UM","2018/06/28 20:39:22","新北市新店區安和路三段167號","121.516075","24.985975","6500600","新店區"
"231062","720-UM","2018/06/28 20:39:16","新北市新店區安泰路60巷55弄131號","121.484576666667","24.946835","6500600","新店區"
"231060","897-TW","2018/06/28 20:39:26","新北市新店區安康路三段628號","121.478193333333","24.945605","6500600","新店區"
"231045","898-TW","2018/06/28 20:39:13","新北市新店區長春路30號","121.5501","24.95752","6500600","新店區"
"231043","899-TW","2018/06/28 20:39:13","新北市新店區建國路12-1號","121.540115","24.9737733333333","6500600","新店區"
"241011","013-R5","2018/06/28 20:39:31","新北市三重區龍濱路285號","121.50109","25.0733833333333","6500200","三重區"
"241028","022-UY","2018/06/28 20:39:10","新北市三重區光興街91號","121.497398333333","25.0599466666667","6500200","三重區"
"241008","059-VK","2018/06/28 20:39:27","新北市三重區下竹圍街42-1號","121.481036666667","25.074935","6500200","三重區"
"241022","060-VK","2018/06/28 20:39:19","新北市三重區民生街61巷8號","121.488761666667","25.06256","6500200","三重區"
"241031","061-VK","2018/06/28 20:39:21","新北市三重區重陽路一段113巷1弄51號","121.48809","25.0585","6500200","三重區"
"241015","062-VK","2018/06/28 20:39:12","新北市三重區雙園街1號","121.497828333333","25.0683716666667","6500200","三重區"
"241017","063-VK","2018/06/28 20:39:15","新北市三重區安慶街256號","121.491018333333","25.0676966666667","6500200","三重區"
"241024","065-VK","2018/06/28 20:39:29","新北市三重區忠孝路三段47號","121.480925","25.0666383333333","6500200","三重區"
"241026","066-VK","2018/06/28 20:39:10","新北市三重區文化南路3號","121.500058333333","25.062435","6500200","三重區"
"241002","090-VK","2018/06/28 20:39:20","新北市三重區仁義街167巷40號","121.498726666667","25.0825666666667","6500200","三重區"
"241003","091-VK","2018/06/28 20:39:22","新北市三重區五華街141巷60號","121.493598333333","25.086815","6500200","三重區"
"241005","262-UM","2018/06/28 20:39:20","新北市三重區碧華街398號","121.491675","25.0848916666667","6500200","三重區"
"241016","266-UM","2018/06/28 20:39:15","新北市三重區長壽西街143-3號","121.494446666667","25.0667783333333","6500200","三重區"
"241009","267-UM","2018/06/28 20:39:27","新北市三重區碧華街51號","121.48469","25.0812483333333","6500200","三重區"
"241018","268-UM","2018/06/28 20:39:18","新北市三重區自強路一段179號","121.492323333333","25.0677916666667","6500200","三重區"
"241032","269-UM","2018/06/28 20:39:15","新北市三重區興華街73號","121.484921666667","25.0601783333333","6500200","三重區"
"241013","270-UM","2018/06/28 20:39:29","新北市三重區仁愛街114號","121.495198333333","25.074455","6500200","三重區"
"241007","398-BY","2018/06/28 20:39:19","新北市三重區三和路四段101巷20號","121.488788333333","25.0770333333333","6500200","三重區"
"241035","KEA-2210","2018/06/28 20:39:14","新北市三重區正義北路296號","121.495448333333","25.06969","6500200","三重區"
"241001","413-TH","2018/06/28 20:39:21","新北市三重區自強路三段110巷3號","121.48661","25.0748716666667","6500200","三重區"
"241004","475-VK","2018/06/28 20:39:13","新北市三重區仁愛街491號","121.488528333333","25.0821433333333","6500200","三重區"
"241020","478-VK","2018/06/28 20:39:24","新北市三重區忠孝路一段2-1號","121.492503333333","25.071725","6500200","三重區"
"241030","480-VK","2018/06/28 20:39:21","新北市三重區成功路73巷16號","121.489258333333","25.05198","6500200","三重區"
"241014","543-UM","2018/06/28 20:39:26","新北市三重區萬壽街3號","121.499241666667","25.06933","6500200","三重區"
"241023","545-UM","2018/06/28 20:39:24","新北市三重區自由街36號","121.479125","25.06675","6500200","三重區"
"241019","KEA-2593","2018/06/28 20:39:24","新北市三重區忠孝路一段10巷32號","121.491275","25.0713283333333","6500200","三重區"
"241006","AAD-863","2018/06/28 20:39:18","新北市三重區車路頭街135-1號","121.484253333333","25.0761866666667","6500200","三重區"
"241025","743-BX","2018/06/28 20:39:13","新北市三重區大有街1-41號","121.476605","25.065385","6500200","三重區"
"241012","941-UM","2018/06/28 20:39:20","新北市三重區秀江街2號","121.502698333333","25.0730466666667","6500200","三重區"
"241029","942-UM","2018/06/28 20:39:28","新北市三重區集美街126巷27號","121.490216666667","25.0538183333333","6500200","三重區"
"241033","AAC-255","2018/06/28 20:39:25","新北市三重區神農街469號","121.474431666667","25.0579983333333","6500200","三重區"
"235069","4980-A6","2018/06/28 20:39:15","新北市中和區連城路347巷18弄8號","121.488295","24.99476","6500300","中和區"
"247024","893-R6","2018/06/28 20:39:11","新北市蘆洲區長樂路61號","121.462883333333","25.0864333333333","6501400","蘆洲區"
"247014","546-UM","2018/06/28 20:39:13","新北市蘆洲區中山一路216號","121.473015","25.08064","6501400","蘆洲區"
"247022","500-BY","2018/06/28 20:39:27","新北市蘆洲區光華路22巷50號","121.468166666667","25.085255","6501400","蘆洲區"
"247010","341-TH","2018/06/28 20:39:20","新北市蘆洲區集賢路222-6號","121.482461666667","25.086585","6501400","蘆洲區"
"247012","339-TH","2018/06/28 20:39:28","新北市蘆洲區集賢路224巷48號","121.481161666667","25.0877083333333","6501400","蘆洲區"
"247004","337-TH","2018/06/28 20:39:13","新北市蘆洲區長安街301號","121.458028333333","25.08491","6501400","蘆洲區"
"247006","336-TH","2018/06/28 20:39:27","新北市蘆洲區和平路176號","121.466396666667","25.0813216666667","6501400","蘆洲區"
"247008","056-VK","2018/06/28 20:39:20","新北市蘆洲區重陽街29號","121.481213333333","25.08307","6501400","蘆洲區"
"247016","007-UY","2018/06/28 20:39:22","新北市蘆洲區中山二路170號","121.470756666667","25.0807616666667","6501400","蘆洲區"
"247002","002-UY","2018/06/28 20:39:24","新北市蘆洲區長安街375巷15號","121.456441666667","25.0877666666667","6501400","蘆洲區"
"247020","001-UY","2018/06/28 20:39:16","新北市蘆洲區民族路331號","121.473856666667","25.0917366666667","6501400","蘆洲區"
"222001","KEA-2212","2018/06/28 20:39:16","新北市深坑區北深路三段232號","121.600713333333","25.0041183333333","6501800","深坑區"
"251001","011-UM","2018/06/28 20:39:28","新北市淡水區鄧公路278巷1號","121.460813333333","25.1680266666667","6501000","淡水區"
"251013","KEA-2871","2018/06/28 20:39:25","新北市淡水區下圭柔山28巷6號","121.457276666667","25.2041083333333","6501000","淡水區"
"251016","179-VK","2018/06/28 20:39:14","新北市淡水區後洲子8-2號","121.449663333333","25.2240133333333","6501000","淡水區"
"251014","180-VK","2018/06/28 20:39:22","新北市淡水區公埔子29號","121.463396666667","25.2326883333333","6501000","淡水區"
"251015","182-VK","2018/06/28 20:39:28","新北市淡水區淡金路四段542巷17號","121.452721666667","25.2270566666667","6501000","淡水區"
"251010","413-VK","2018/06/28 20:39:28","新北市淡水區沙崙路181巷15號","121.42387","25.1843616666667","6501000","淡水區"
"251012","441-VK","2018/06/28 20:39:14","新北市淡水區興仁路108號","121.451668333333","25.21818","6501000","淡水區"
"251007","442-VK","2018/06/28 20:39:26","新北市淡水區淡金路二段599號","121.446743333333","25.19186","6501000","淡水區"
"251006","561-UM","2018/06/28 20:39:25","新北市淡水區商工路200巷2號","121.451613333333","25.186385","6501000","淡水區"
"251003","766-UM","2018/06/28 20:39:16","新北市淡水區新民街120巷15號","121.43814","25.17808","6501000","淡水區"
"252002","178-VK","2018/06/28 20:39:24","新北市三芝區淡金路二段47-2號","121.503646666667","25.2605483333333","6502100","三芝區"
"252001","292-VK","2018/06/28 20:39:13","新北市三芝區中山路一段85號","121.501128333333","25.25662","6502100","三芝區"
"242034","AAC-296","2018/06/28 20:39:20","新北市新莊區中正路262號","121.447678333333","25.035315","6500500","新莊區"
"242058","986-R7","2018/06/28 20:39:22","新北市新莊區四維路130號","121.4233","25.0238066666667","6500500","新莊區"
"242053","751-BX","2018/06/28 20:39:22","新北市新莊區西盛街323巷24號","121.428941666667","25.01475","6500500","新莊區"
"242023","705-TV","2018/06/28 20:39:16","新北市新莊區化成路416號","121.465973333333","25.0509333333333","6500500","新莊區"
"242027","615-BX","2018/06/28 20:39:26","新北市新莊區思源路59號","121.459868333333","25.040335","6500500","新莊區"
"242025","613-BX","2018/06/28 20:39:08","新北市新莊區化成路579巷1號","121.46434","25.066065","6500500","新莊區"
"242029","612-BX","2018/06/28 20:39:12","新北市新莊區中華路二段36-1號","121.453793333333","25.045425","6500500","新莊區"
"242042","566-BX","2018/06/28 20:39:18","新北市新莊區天祥街26-1號","121.41748","25.027655","6500500","新莊區"
"242046","497-BY","2018/06/28 20:39:24","新北市新莊區裕民街63號","121.418693333333","25.0243866666667","6500500","新莊區"
"242036","415-TV","2018/06/28 20:39:11","新北市新莊區後港一路72號","121.426885","25.0264866666667","6500500","新莊區"
"242007","413-TV","2018/06/28 20:39:26","新北市新莊區福壽街56巷5號","121.458733333333","25.04883","6500500","新莊區"
"242044","400-BY","2018/06/28 20:39:23","新北市新莊區龍安路108號","121.418343333333","25.02049","6500500","新莊區"
"242061","353-BY","2018/06/28 20:39:11","新北市新莊區新樹路258巷3號","121.43215","25.0155783333333","6500500","新莊區"
"242009","132-UY","2018/06/28 20:39:26","新北市新莊區幸福路64巷3弄8號","121.456821666667","25.0500483333333","6500500","新莊區"
"242039","133-UY","2018/06/28 20:39:30","新北市新莊區民安路381號","121.431878333333","25.0229666666667","6500500","新莊區"
"242031","135-UY","2018/06/28 20:39:23","新北市新莊區中正路508巷5號","121.435775","25.0333433333333","6500500","新莊區"
"242048","172-VK","2018/06/28 20:39:18","新北市新莊區中正路671號","121.42665","25.0300866666667","6500500","新莊區"
"242011","173-VK","2018/06/28 20:39:23","新北市新莊區中榮街104巷11弄6號","121.447061666667","25.0534016666667","6500500","新莊區"
"242056","175-VK","2018/06/28 20:39:12","新北市新莊區瓊泰路109號","121.443233333333","25.0301016666667","6500500","新莊區"
"242013","176-VK","2018/06/28 20:39:13","新北市新莊區中和街175巷11號","121.447265","25.0505983333333","6500500","新莊區"
"242015","346-TH","2018/06/28 20:39:27","新北市新莊區中和街10號","121.448415","25.043085","6500500","新莊區"
"242017","347-TH","2018/06/28 20:39:13","新北市新莊區中港三街129號","121.448391666667","25.0459883333333","6500500","新莊區"
"242002","349-TH","2018/06/28 20:39:14","新北市新莊區明中街12-1號","121.458428333333","25.0386133333333","6500500","新莊區"
"242019","350-TH","2018/06/28 20:39:22","新北市新莊區銘德街81號","121.456295","25.0435083333333","6500500","新莊區"
"221008","489-VK","2018/06/28 20:39:15","新北市汐止區康寧街706號","121.637761666667","25.0723783333333","6501100","汐止區"
"221036","130-UY","2018/06/28 20:39:25","新北市汐止區忠孝東路255巷12號","121.662501666667","25.0680133333333","6501100","汐止區"
"221015","131-UY","2018/06/28 20:39:18","新北市汐止區建成路21號","121.664283333333","25.0725983333333","6501100","汐止區"
"221023","279-VK","2018/06/28 20:39:18","新北市汐止區康寧街702號","121.637223333333","25.0718966666667","6501100","汐止區"
"221032","280-BY","2018/06/28 20:39:10","新北市汐止區弘道街53巷30弄2號","121.618793333333","25.0500566666667","6501100","汐止區"
"221027","281-BY","2018/06/28 20:39:28","新北市汐止區大同路二段565號","121.662808333333","25.0698683333333","6501100","汐止區"
"221029","298-VK","2018/06/28 20:39:22","新北市汐止區大同路一段421號","121.64263","25.06101","6501100","汐止區"
"221021","299-VK","2018/06/28 20:39:18","新北市汐止區水源路一段284號","121.654183333333","25.0583183333333","6501100","汐止區"
"221035","622-UM","2018/06/28 20:39:08","新北市汐止區長江街101-5號","121.658726666667","25.0730883333333","6501100","汐止區"
"221025","623-UM","2018/06/28 20:39:14","新北市汐止區水源路二段181號","121.657753333333","25.05376","6501100","汐止區"
"221038","646-BX","2018/06/28 20:39:14","新北市汐止區新江北路1號","121.652801666667","25.0707783333333","6501100","汐止區"
"221033","647-BX","2018/06/28 20:39:27","新北市汐止區合順街18巷8弄5號","121.6204","25.0418866666667","6501100","汐止區"
"221002","707-TV","2018/06/28 20:39:25","新北市汐止區福德二路165號","121.631016666667","25.0651283333333","6501100","汐止區"
"221018","753-BX","2018/06/28 20:39:18","新北市汐止區茄苳路142號","121.668836666667","25.0699783333333","6501100","汐止區"
"242004","281-VK","2018/06/28 20:39:13","新北市新莊區新莊路95號","121.457888333333","25.0362683333333","6500500","新莊區"
"220065","461-BY","2018/06/28 20:39:27","新北市板橋區篤行路一段30號","121.431938333333","24.9941566666667","6500100","板橋區"
"220103","561-BX","2018/06/28 20:39:30","新北市板橋區漢生東路83巷25號","121.46742","25.01676","6500100","板橋區"
"220067","829-TW","2018/06/28 20:39:23","新北市八里區下罟子17號","121.382485","25.144315","6500100","板橋區"
