"lineid","car","time","location","longitude","latitude","cityid","cityname"
"231063","641-BX","2018/06/28 21:39:12","新北市新店區安康路二段311號","121.499926666667","24.9568716666667","6500600","新店區"
"231062","720-UM","2018/06/28 21:39:16","新北市新店區安康路二段382號","121.500393333333","24.9572366666667","6500600","新店區"
"241005","262-UM","2018/06/28 21:39:20","新北市三重區碧華街1號","121.48355","25.0810266666667","6500200","三重區"
"235049","186-VK","2018/06/28 21:22:11","新北市中和區員山路36巷13號","121.484213333333","24.9908716666667","6500300","中和區"
"235010","733-UM","2018/06/28 21:34:39","新北市中和區員山路36巷13號","121.484148333333","24.9908216666667","6500300","中和區"
"247010","341-TH","2018/06/28 21:39:20","新北市五股區孝義路13-1號","121.450956666667","25.1067633333333","6501400","蘆洲區"
"251004","009-UM","2018/06/28 21:39:16","新北市淡水區民生路145巷66號","121.470625","25.1391133333333","6501000","淡水區"
"251005","010-UM","2018/06/28 21:39:17","新北市淡水區鄧公路19-1號","121.450273333333","25.1699866666667","6501000","淡水區"
"251001","011-UM","2018/06/28 21:39:28","新北市淡水區新市二路三段152號","121.435385","25.1942216666667","6501000","淡水區"
"251016","179-VK","2018/06/28 21:39:14","新北市淡水區淡金路三段331巷179號","121.448808333333","25.203805","6501000","淡水區"
"251014","180-VK","2018/06/28 21:39:16","新北市淡水區淡金路三段426號","121.450216666667","25.2119116666667","6501000","淡水區"
"251008","181-VK","2018/06/28 21:39:22","新北市淡水區水源街二段90號","121.451746666667","25.174415","6501000","淡水區"
"251010","413-VK","2018/06/28 21:39:28","新北市淡水區沙崙路238號","121.425613333333","25.1847316666667","6501000","淡水區"
"251012","441-VK","2018/06/28 21:39:14","新北市淡水區淡金路四段231號","121.451698333333","25.2226983333333","6501000","淡水區"
"251007","442-VK","2018/06/28 21:39:25","新北市淡水區水源街二段179號","121.455325","25.1758816666667","6501000","淡水區"
"251006","561-UM","2018/06/28 21:39:25","新北市淡水區中正路11巷4號","121.438921666667","25.1702183333333","6501000","淡水區"
"251009","575-R6","2018/06/28 21:39:32","新北市淡水區民生路52巷22弄3號","121.462523333333","25.137425","6501000","淡水區"
"251011","650-BX","2018/06/28 21:39:23","新北市淡水區新民街216號","121.43618","25.1801416666667","6501000","淡水區"
"251002","672-BX","2018/06/28 21:39:24","新北市淡水區學府路152號","121.44636","25.1742383333333","6501000","淡水區"
"251003","766-UM","2018/06/28 21:39:16","新北市淡水區新春街48號","121.437725","25.1818216666667","6501000","淡水區"
