"lineid","car","time","location","longitude","latitude","cityid","cityname"
"241005","262-UM","2018/06/28 21:49:20","新北市三重區集賢路87-1號","121.493595","25.0869466666667","6500200","三重區"
"235049","186-VK","2018/06/28 21:22:11","新北市中和區員山路36巷13號","121.484213333333","24.9908716666667","6500300","中和區"
"235010","733-UM","2018/06/28 21:34:39","新北市中和區員山路36巷13號","121.484148333333","24.9908216666667","6500300","中和區"
"247010","341-TH","2018/06/28 21:49:20","新北市八里區中山路三段390號","121.368358333333","25.1359883333333","6501400","蘆洲區"
"251004","009-UM","2018/06/28 21:49:16","新北市淡水區民權路92巷35號","121.462328333333","25.1253533333333","6501000","淡水區"
"251005","010-UM","2018/06/28 21:49:21","新北市淡水區鄧公路30巷21號","121.45335","25.1698783333333","6501000","淡水區"
"251001","011-UM","2018/06/28 21:49:28","新北市淡水區後洲路一段50號","121.428778333333","25.2001266666667","6501000","淡水區"
"251008","181-VK","2018/06/28 21:49:22","新北市淡水區水源街二段76號","121.45103","25.1742766666667","6501000","淡水區"
"251010","413-VK","2018/06/28 21:49:28","新北市淡水區中正路二段211號","121.426206666667","25.1890916666667","6501000","淡水區"
"251012","441-VK","2018/06/28 21:49:14","新北市淡水區淡金路三段266號","121.448931666667","25.2065883333333","6501000","淡水區"
"251007","442-VK","2018/06/28 21:49:25","新北市淡水區水源街二段177巷76號","121.452243333333","25.1772833333333","6501000","淡水區"
"251006","561-UM","2018/06/28 21:49:25","新北市淡水區中正路11巷3號","121.437806666667","25.1707566666667","6501000","淡水區"
"251009","575-R6","2018/06/28 21:49:24","新北市淡水區民族路35巷20號","121.46477","25.1370433333333","6501000","淡水區"
"251011","650-BX","2018/06/28 21:49:23","新北市淡水區新民街322巷9號","121.436355","25.182885","6501000","淡水區"
"251002","672-BX","2018/06/28 21:49:24","新北市淡水區學府路188號","121.44662","25.1760183333333","6501000","淡水區"
"251003","766-UM","2018/06/28 21:49:16","新北市淡水區新春街83號","121.438816666667","25.18241","6501000","淡水區"
