"lineid","car","time","location","longitude","latitude","cityid","cityname"
"248005","653-BX","2018/06/29 06:59:39","新北市五股區中興路二段163號","121.457585","25.077555","6501500","五股區"
"232003","290-BY","2018/06/29 06:59:17","新北市坪林區大粗坑24號","121.709571666667","24.9614916666667","6502000","坪林區"
"232015","291-BY","2018/06/29 06:59:42","新北市坪林區灣潭7-6號","121.67856","24.9342483333333","6502000","坪林區"
"232019","705-BZ","2018/06/29 06:59:27","新北市坪林區坪雙路一段88號","121.719596666667","24.9451","6502000","坪林區"
"232008","758-BX","2018/06/29 06:59:27","新北市坪林區鶯子瀨2-1號","121.708765","24.9129416666667","6502000","坪林區"
"244004","248-BX","2018/06/29 06:59:22","新北市林口區頭湖70號","121.374876666667","25.0886633333333","6501700","林口區"
"235001","611-BX","2018/06/29 06:59:32","新北市中和區圓通路367巷6號","121.491441666667","24.9892283333333","6500300","中和區"
"223006","022-BY","2018/06/29 06:59:27","新北市石碇區碇坪路一段63號","121.659996666667","24.9915333333333","6501900","石碇區"
"223002","KEA-2673","2018/06/29 06:59:23","新北市石碇區四分子路小粗坑巷7號","121.649076666667","24.9639283333333","6501900","石碇區"
"223003","205-TH","2018/06/29 06:59:27","新北市石碇區石碇東街139號","121.659148333333","24.9895533333333","6501900","石碇區"
"223008","406-TH","2018/06/29 06:59:27","新北市石碇區十八重溪90-2號","121.669838333333","25.00878","6501900","石碇區"
"223004","660-BX","2018/06/29 06:59:33","新北市石碇區碇坪路一段56號","121.65705","24.991535","6501900","石碇區"
"223007","661-BX","2018/06/29 06:59:33","新北市石碇區十八重溪90-2號","121.670153333333","25.009055","6501900","石碇區"
"223005","677-TV","2018/06/29 06:59:25","新北市石碇區碇坪路一段62號","121.65717","24.9915916666667","6501900","石碇區"
"227005","282-VK","2018/06/29 06:59:30","新北市雙溪區新基里自強路5-1號","121.86641","25.0390983333333","6502500","雙溪區"
