"lineid","car","time","location","longitude","latitude","cityid","cityname"
"248005","653-BX","2018/07/27 07:59:27","新北市五股區明德路10號","121.433411666667","25.07173","6501500","五股區"
"244004","248-BX","2018/07/27 07:59:46","新北市林口區下福里141-4號","121.298048333333","25.118085","6501700","林口區"
"231007","189-VK","2018/07/27 07:59:36","新北市新店區安康路一段323-1號","121.521655","24.9637916666667","6500600","新店區"
"231009","192-VK","2018/07/27 07:59:35","新北市新店區安一路一段1-1號","121.519211666667","24.9614533333333","6500600","新店區"
"235001","611-BX","2018/07/27 07:59:36","新北市中和區圓通路367巷4號","121.491465","24.989325","6500300","中和區"
"226005","5620-A6","2018/07/27 07:59:26","新北市平溪區石底里公園街18-3號","121.73349","25.0256366666667","6502400","平溪區"
"226001","7418-A5","2018/07/27 07:59:40","新北市平溪區南山里乾坑11號","121.782721666667","25.0471833333333","6502400","平溪區"
"226006","AGD-0702","2018/07/27 07:59:30","新北市平溪區十分里十分街45-1號","121.774606666667","25.0409316666667","6502400","平溪區"
"223006","022-BY","2018/07/27 07:59:42","新北市坪林區北宜路八段553號","121.717001666667","24.9096766666667","6501900","石碇區"
"223002","KEA-2673","2018/07/27 07:49:20","新北市石碇區大格門5號","121.666508333333","24.95666","6501900","石碇區"
"223003","205-TH","2018/07/27 07:56:42","新北市石碇區崩山36-1號","121.671691666667","24.9582633333333","6501900","石碇區"
"223008","406-TH","2018/07/27 07:59:34","新北市石碇區靜安路一段337號","121.69894","25.014545","6501900","石碇區"
"223004","660-BX","2018/07/27 07:59:34","新北市石碇區碇坪路一段8號","121.651576666667","25.0061066666667","6501900","石碇區"
"223005","677-TV","2018/07/27 07:59:32","新北市石碇區碇坪路一段10號","121.651658333333","25.0060933333333","6501900","石碇區"
"227005","282-VK","2018/07/27 07:59:40","新北市雙溪區平林里梅竹蹊3號","121.862951666667","25.0347966666667","6502500","雙溪區"
"237001","159-UY","2018/07/27 07:59:31","新北市三峽區學成路270號","121.376238333333","24.9431916666667","6500900","三峽區"
"236010","165-UM","2018/07/27 07:59:44","新北市土城區延吉街318號","121.463673333333","24.9840416666667","6501300","土城區"
"236004","339-SR","2018/07/27 07:59:29","新北市土城區龍泉路79-1號","121.430023333333","24.942525","6501300","土城區"
"236006","498-BY","2018/07/27 07:59:36","新北市土城區永平街51號","121.427688333333","24.9592133333333","6501300","土城區"
