"lineid","car","time","location","longitude","latitude","cityid","cityname"
"234070","149-BY","2018/07/27 08:09:33","新北市永和區永亨路83號","121.521855","25.0056833333333","6500400","永和區"
"248005","653-BX","2018/07/27 08:09:47","新北市五股區明德路10號","121.433403333333","25.0717533333333","6501500","五股區"
"244004","248-BX","2018/07/27 08:09:46","新北市林口區嘉寶里89-1號","121.332858333333","25.1206116666667","6501700","林口區"
"222005","289-BY","2018/07/27 08:09:42","新北市深坑區平埔街22巷8號","121.614941666667","25.00103","6501800","深坑區"
"231007","189-VK","2018/07/27 08:09:36","新北市新店區新潭路一段18巷7號","121.522351666667","24.943035","6500600","新店區"
"231009","192-VK","2018/07/27 08:09:35","新北市新店區光明街1-1號","121.538118333333","24.959095","6500600","新店區"
"235001","611-BX","2018/07/27 08:09:36","新北市中和區圓通路367巷33弄54號","121.496396666667","24.9850466666667","6500300","中和區"
"226005","5620-A6","2018/07/27 08:09:46","新北市平溪區靜安路二段551號","121.749038333333","25.0259033333333","6502400","平溪區"
"226001","7418-A5","2018/07/27 08:09:40","新北市平溪區十分里姜仔坑11號","121.76929","25.03576","6502400","平溪區"
"226006","AGD-0702","2018/07/27 08:09:30","新北市平溪區十分里十分街281-1號","121.780195","25.045815","6502400","平溪區"
"223006","022-BY","2018/07/27 08:09:42","新北市坪林區苦苓腳1號","121.71306","24.9353766666667","6501900","石碇區"
"223002","KEA-2673","2018/07/27 08:09:40","新北市石碇區崩山33-3號","121.676996666667","24.9657433333333","6501900","石碇區"
"223003","205-TH","2018/07/27 08:08:42","新北市石碇區月扇湖1號","121.657046666667","24.9544333333333","6501900","石碇區"
"223008","406-TH","2018/07/27 08:09:34","新北市石碇區靜安路一段268號","121.684106666667","25.009075","6501900","石碇區"
"223004","660-BX","2018/07/27 08:09:34","新北市石碇區外按3-1號","121.65174","24.9940383333333","6501900","石碇區"
"223005","677-TV","2018/07/27 08:09:32","新北市石碇區外按3-1號","121.651871666667","24.9941816666667","6501900","石碇區"
"228002","663-BX","2018/07/27 08:09:39","新北市貢寮區福隆里福隆街2巷5號","121.945353333333","25.0157716666667","6502600","貢寮區"
"227005","282-VK","2018/07/27 08:09:40","新北市雙溪區上林里內平林140號","121.821741666667","25.023485","6502500","雙溪區"
"237001","159-UY","2018/07/27 08:09:31","新北市三峽區大義路235號","121.377858333333","24.9457166666667","6500900","三峽區"
"236010","165-UM","2018/07/27 08:09:44","新北市土城區青雲路378巷14號","121.457593333333","24.9741666666667","6501300","土城區"
"236004","339-SR","2018/07/27 08:09:29","新北市土城區龍泉路347號","121.40954","24.9500233333333","6501300","土城區"
"236006","498-BY","2018/07/27 08:09:36","新北市土城區永平街51號","121.427685","24.959205","6501300","土城區"
