"lineid","car","time","location","longitude","latitude","cityid","cityname"
"234070","149-BY","2018/07/27 10:01:52","新北市永和區福和路1號","121.526321666667","25.009675","6500400","永和區"
"248005","653-BX","2018/07/27 10:17:33","新北市五股區中興路二段83巷26-6號","121.460111666667","25.0750883333333","6501500","五股區"
"231007","189-VK","2018/07/27 10:17:36","新北市新店區新烏路三段215巷19號","121.506901666667","24.903205","6500600","新店區"
"231009","192-VK","2018/07/27 10:16:40","新北市新店區小坑一路35巷1號","121.52905","24.9081016666667","6500600","新店區"
"227005","282-VK","2018/07/27 10:06:40","新北市雙溪區泰平里灣潭路20-1號","121.81239","24.9289933333333","6502500","雙溪區"
