"lineid","car","time","location","longitude","latitude","cityid","cityname"
"234044","148-BY","2018/07/27 13:49:41","新北市永和區永元路124號","121.522763333333","25.0028016666667","6500400","永和區"
"234070","149-BY","2018/07/27 13:49:36","新北市中和區永貞路264號","121.513768333333","25.0037983333333","6500400","永和區"
"234005","207-UY","2018/07/27 13:49:39","新北市中和區中和路402-3號","121.511333333333","25.0028983333333","6500400","永和區"
"234078","298-R6","2018/07/27 13:49:54","新北市永和區林森路99號","121.52354","25.0036483333333","6500400","永和區"
"234036","336-UY","2018/07/27 13:49:45","新北市永和區成功路二段100號","121.526348333333","24.9982166666667","6500400","永和區"
"234062","337-UY","2018/07/27 13:49:36","新北市永和區中正路368巷27號","121.518493333333","25.0008116666667","6500400","永和區"
"234084","338-UY","2018/07/27 13:49:35","新北市永和區中正路562號","121.517221666667","25.006","6500400","永和區"
"234068","552-UM","2018/07/27 13:49:53","新北市永和區竹林路88號","121.519395","25.01255","6500400","永和區"
"234015","745-BX","2018/07/27 13:49:47","新北市永和區文化路33號","121.514676666667","25.0149933333333","6500400","永和區"
"234028","746-BX","2018/07/27 13:49:52","新北市永和區民生路49號","121.522711666667","24.9978683333333","6500400","永和區"
"234052","KEA-2590","2018/07/27 13:49:54","新北市永和區竹林路39巷28弄10號","121.519448333333","25.0145266666667","6500400","永和區"
"234012","KEA-2591","2018/07/27 13:49:48","新北市永和區保生路55號","121.5047","25.0105933333333","6500400","永和區"
"234060","AAD-866","2018/07/27 13:49:52","新北市永和區中正路287號","121.517516666667","25.0012916666667","6500400","永和區"
"234040","862-TW","2018/07/27 13:49:44","新北市永和區中和路389巷17號","121.50803","25.0011616666667","6500400","永和區"
"234048","863-TW","2018/07/27 13:49:43","新北市永和區保福路二段163巷14號","121.508773333333","25.0147733333333","6500400","永和區"
"234025","9371-KE","2018/07/27 13:49:54","新北市永和區自由街58號","121.513755","25.0058783333333","6500400","永和區"
"234010","9373-KE","2018/07/27 13:49:50","新北市永和區保順路11號","121.504695","25.0095166666667","6500400","永和區"
"248019","225-UY","2018/07/27 13:49:50","新北市五股區凌雲路三段35-1號","121.43055","25.1166716666667","6501500","五股區"
"234022","9380-KE","2018/07/27 13:49:45","新北市永和區中正路662巷42號","121.518186666667","25.008805","6500400","永和區"
"234076","969-R7","2018/07/27 13:49:41","新北市永和區民族街41巷2號","121.51849","24.9987133333333","6500400","永和區"
"234072","AAC-211","2018/07/27 13:49:50","新北市永和區豫溪街162巷2號","121.523596666667","25.0096083333333","6500400","永和區"
"234066","AAC-212","2018/07/27 13:49:45","新北市永和區永貞路355巷24號","121.508663333333","25.0072633333333","6500400","永和區"
"234001","AAC-295","2018/07/27 13:49:37","新北市永和區永和路一段136號","121.514031666667","25.007955","6500400","永和區"
"244004","248-BX","2018/07/27 13:49:41","新北市林口區南勢里31號","121.352131666667","25.0704833333333","6501700","林口區"
"231002","002-UM","2018/07/27 13:49:31","新北市新店區溪園路205號","121.527516666667","24.9849983333333","6500600","新店區"
"231028","046-UY","2018/07/27 13:49:49","新北市新店區安和路二段227號","121.517198333333","24.9761683333333","6500600","新店區"
"231001","047-UY","2018/07/27 13:49:36","新北市新店區三民路40號","121.536171666667","24.97147","6500600","新店區"
"231005","106-UY","2018/07/27 13:49:43","新北市新店區寶中路121-1號","121.549586666667","24.9794383333333","6500600","新店區"
"231010","107-UY","2018/07/27 13:49:51","新北市新店區中正路329巷9弄8號","121.535148333333","24.9735366666667","6500600","新店區"
"231022","108-UY","2018/07/27 13:49:47","新北市新店區永興路95-3號","121.544618333333","24.932105","6500600","新店區"
"231036","110-UY","2018/07/27 13:49:42","新北市新店區安祥路115號","121.475208333333","24.956725","6500600","新店區"
"231012","187-VK","2018/07/27 13:49:40","新北市新店區德正街35號","121.544816666667","24.9712033333333","6500600","新店區"
"231023","KEA-2219","2018/07/27 13:49:43","新北市新店區國校路20-1號","121.537833333333","24.95512","6500600","新店區"
"231026","256-BX","2018/07/27 13:49:49","新北市新店區福園街8巷16號","121.532486666667","24.973575","6500600","新店區"
"231003","268-BY","2018/07/27 13:49:40","新北市新店區中興路一段164號","121.54281","24.964035","6500600","新店區"
"231018","278-BY","2018/07/27 13:49:52","新北市新店區百忍街47號","121.53309","24.9764316666667","6500600","新店區"
"231016","AAD-862","2018/07/27 13:49:52","新北市新店區北宜路二段82-40號","121.553478333333","24.9532633333333","6500600","新店區"
"231038","3712-VJ","2018/07/27 13:49:50","新北市新店區安華路1-1號","121.519346666667","24.9604","6500600","新店區"
"231027","3713-VJ","2018/07/27 13:49:38","新北市新店區中興路一段34號","121.538811666667","24.9585433333333","6500600","新店區"
"231037","4716-K9","2018/07/27 13:49:50","新北市新店區安康路三段359巷12弄2號","121.484518333333","24.950095","6500600","新店區"
"231025","4715-K9","2018/07/27 13:49:52","新北市新店區中正路277號","121.537645","24.974315","6500600","新店區"
"231013","513-UM","2018/07/27 13:49:49","新北市新店區二十張路25巷18弄36號","121.539201666667","24.9811083333333","6500600","新店區"
"231034","616-UM","2018/07/27 13:49:41","新北市新店區達觀路14巷2號","121.503473333333","24.9410933333333","6500600","新店區"
"231006","618-UM","2018/07/27 13:49:44","新北市新店區北宜路一段260號","121.545676666667","24.95283","6500600","新店區"
"231030","619-UM","2018/07/27 13:49:39","新北市新店區安康路一段52巷2號","121.530191666667","24.961165","6500600","新店區"
"231035","719-UM","2018/07/27 13:49:47","新北市新店區安忠路57巷1-5號","121.513305","24.9595766666667","6500600","新店區"
"231032","720-UM","2018/07/27 13:49:49","新北市新店區莒光路44巷21弄11-6號","121.518516666667","24.9522","6500600","新店區"
"231029","897-TW","2018/07/27 13:49:43","新北市新店區安康路二段125-1號","121.512365","24.9609383333333","6500600","新店區"
"231004","899-TW","2018/07/27 13:49:39","新北市新店區寶橋路98號","121.546836666667","24.976025","6500600","新店區"
"231024","AKT-0513","2018/07/27 13:49:40","新北市新店區新生街13巷19號","121.539068333333","24.9658366666667","6500600","新店區"
"235030","003-UY","2018/07/27 13:49:49","新北市中和區廣福路68號","121.503415","25.00161","6500300","中和區"
"235028","005-UY","2018/07/27 13:49:37","新北市中和區景平路511號","121.499305","24.9987766666667","6500300","中和區"
"235027","006-UY","2018/07/27 13:49:49","新北市中和區連城路319巷3弄3號","121.48929","24.9956616666667","6500300","中和區"
"235020","096-UM","2018/07/27 13:49:36","新北市中和區中山路二段596巷44號","121.481545","25.0063783333333","6500300","中和區"
"235003","097-UM","2018/07/27 13:49:52","新北市中和區大仁街19巷8號","121.51734","24.99326","6500300","中和區"
"235029","098-UM","2018/07/27 13:49:35","新北市中和區勝利路35巷10-4號","121.498885","25.0073833333333","6500300","中和區"
"235004","150-BY","2018/07/27 13:49:47","新北市中和區保健路48巷2號","121.509918333333","24.9968816666667","6500300","中和區"
"235022","151-BY","2018/07/27 13:49:52","新北市中和區連城路573-1號","121.479045","24.9943883333333","6500300","中和區"
"235019","183-VK","2018/07/27 13:49:52","新北市中和區民生街85巷6弄1號","121.469173333333","25.0039966666667","6500300","中和區"
"235002","185-VK","2018/07/27 13:49:43","新北市中和區大勇街43巷14號","121.517236666667","24.9947383333333","6500300","中和區"
"235013","186-VK","2018/07/27 13:49:41","新北市中和區景新街210巷2弄8號","121.506921666667","24.99416","6500300","中和區"
"235031","255-BX","2018/07/27 13:49:36","新北市中和區新生街242巷1弄2-1號","121.483341666667","24.997565","6500300","中和區"
"235008","293-VK","2018/07/27 13:49:49","新北市中和區中興街145號","121.499898333333","24.991205","6500300","中和區"
"235036","301-VK","2018/07/27 13:49:52","新北市中和區中山路二段136號","121.502046666667","25.003295","6500300","中和區"
"235007","352-BY","2018/07/27 13:49:43","新北市中和區成功路139號","121.525923333333","24.9901333333333","6500300","中和區"
"235033","4980-A6","2018/07/27 13:49:51","新北市中和區南山路81巷8弄4號","121.502493333333","24.9978866666667","6500300","中和區"
"235006","551-UM","2018/07/27 13:49:45","新北市中和區秀朗路三段78巷1弄5號","121.525643333333","24.9938483333333","6500300","中和區"
"235034","558-UM","2018/07/27 13:49:48","新北市中和區安和路217號","121.505938333333","24.9994116666667","6500300","中和區"
"235009","565-BX","2018/07/27 13:49:38","新北市中和區捷運路6號","121.510076666667","24.9894166666667","6500300","中和區"
"235018","640-BX","2018/07/27 13:49:56","新北市中和區民享街27巷1號","121.474068333333","25.004835","6500300","中和區"
"235024","647-TV","2018/07/27 13:49:56","新北市中和區中山路三段214號","121.471386666667","25.00647","6500300","中和區"
"235011","732-UM","2018/07/27 13:49:50","新北市中和區興南路二段34巷38號","121.504818333333","24.9860733333333","6500300","中和區"
"235010","733-UM","2018/07/27 13:49:35","新北市中和區仁愛街36巷36號","121.511175","24.986615","6500300","中和區"
"235035","783-BX","2018/07/27 13:49:51","新北市中和區立德街26巷1號","121.489795","25.0069033333333","6500300","中和區"
"235026","800-TS","2018/07/27 13:49:51","新北市中和區中山路二段340巷15號","121.493496666667","25.00291","6500300","中和區"
"235021","801-TS","2018/07/27 13:49:38","新北市中和區民利街14巷1號","121.480601666667","24.9994216666667","6500300","中和區"
"235005","802-TS","2018/07/27 13:49:43","新北市中和區永貞路244號","121.514356666667","25.0037516666667","6500300","中和區"
"235016","805-TS","2018/07/27 13:49:53","新北市中和區興南路二段399巷52號","121.49936","24.978855","6500300","中和區"
"235012","896-TW","2018/07/27 13:49:44","新北市中和區南山路188號","121.505805","24.9905883333333","6500300","中和區"
"235017","900-TW","2018/07/27 13:49:35","新北市中和區華福街23號","121.465856666667","24.9967716666667","6500300","中和區"
"235015","157-BY","2018/07/27 13:49:50","新北市中和區忠孝街70號","121.51199","24.98408","6500300","中和區"
"235001","AAC-213","2018/07/27 13:49:42","新北市中和區秀朗路三段128巷7弄1號","121.524516666667","24.9928416666667","6500300","中和區"
"235023","AAC-215","2018/07/27 13:49:42","新北市中和區圓通路393巷16號","121.489783333333","24.9885683333333","6500300","中和區"
"220013","072-UY","2018/07/27 13:49:48","新北市板橋區民族路247巷5弄42號","121.470245","25.0084516666667","6500100","板橋區"
"220034","073-UY","2018/07/27 13:49:37","新北市板橋區大智街29號","121.454863333333","25.0151233333333","6500100","板橋區"
"220017","AAD-861","2018/07/27 13:49:53","新北市板橋區大華街10號","121.458748333333","25.006255","6500100","板橋區"
"220105","120-SR","2018/07/27 13:49:47","新北市板橋區民生路二段120號","121.470318333333","25.0196983333333","6500100","板橋區"
"247003","337-TH","2018/07/27 13:49:48","新北市蘆洲區中原路23號","121.460495","25.0829583333333","6501400","蘆洲區"
"247005","336-TH","2018/07/27 13:49:37","新北市蘆洲區中山二路268號","121.468445","25.0786366666667","6501400","蘆洲區"
"247007","056-VK","2018/07/27 13:49:39","新北市蘆洲區重陽街11號","121.480751666667","25.081905","6501400","蘆洲區"
"247015","007-UY","2018/07/27 13:49:45","新北市蘆洲區光華路40號","121.46896","25.0831366666667","6501400","蘆洲區"
"247019","001-UY","2018/07/27 13:49:50","新北市蘆洲區民族路422巷48弄24號","121.474671666667","25.09315","6501400","蘆洲區"
"207002","749-BX","2018/07/27 13:49:45","新北市萬里區崁腳里崁腳路166號","121.645015","25.1558383333333","6502800","萬里區"
"207001","662-BX","2018/07/27 13:49:45","新北市金山區中華路21號","121.638775","25.2151733333333","6502800","萬里區"
"236040","107-UM","2018/07/27 13:49:44","新北市土城區城林路6巷80號","121.438488333333","24.9797516666667","6501300","土城區"
"236077","166-UM","2018/07/27 13:49:45","新北市土城區中華路二段184號","121.43745","24.9715683333333","6501300","土城區"
"236029","253-BX","2018/07/27 13:49:34","新北市土城區城林路6巷80號","121.43841","24.979835","6501300","土城區"
"236032","271-VK","2018/07/27 13:49:34","新北市土城區城林路6巷80號","121.43847","24.9798083333333","6501300","土城區"
"236067","KEA-2877","2018/07/27 13:49:53","新北市土城區城林路6巷80號","121.43873","24.9797083333333","6501300","土城區"
"236016","401-BY","2018/07/27 13:49:52","新北市土城區城林路6巷80號","121.438453333333","24.9797533333333","6501300","土城區"
"236006","498-BY","2018/07/27 13:49:55","新北市土城區員福街62號","121.44005","24.979315","6501300","土城區"
"236057","912-UM","2018/07/27 13:49:48","新北市土城區中華路二段196號","121.437485","24.9704616666667","6501300","土城區"
"236045","913-UM","2018/07/27 13:49:57","新北市土城區城林路6巷80號","121.438428333333","24.9798333333333","6501300","土城區"
"236060","915-UM","2018/07/27 13:49:39","新北市土城區城林路6巷80號","121.438428333333","24.9798283333333","6501300","土城區"
"236054","AAC-216","2018/07/27 13:49:35","新北市土城區城林路6巷80號","121.438686666667","24.9796566666667","6501300","土城區"
"242048","172-VK","2018/07/27 13:49:53","新北市新莊區民安西路264號","121.426008333333","25.01315","6500500","新莊區"
"221010","269-BY","2018/07/27 13:49:47","新北市汐止區八連路二段551巷2號","121.62844","25.1074816666667","6501100","汐止區"
"221032","280-BY","2018/07/27 13:49:48","新北市汐止區復興路53巷8-1號","121.657115","25.0627983333333","6501100","汐止區"
"220028","200-UY","2018/07/27 13:49:52","新北市板橋區大觀路二段265巷60弄45號","121.441518333333","24.997815","6500100","板橋區"
"220027","256-TC","2018/07/27 13:49:35","新北市板橋區民權路202巷7弄22號","121.459266666667","25.015015","6500100","板橋區"
"220004","276-BY","2018/07/27 13:49:43","新北市土城區四川路14號","121.455523333333","24.9960583333333","6500100","板橋區"
"220020","277-BY","2018/07/27 13:49:47","新北市板橋區大觀路三段20號","121.4344","24.9957583333333","6500100","板橋區"
"220019","283-VK","2018/07/27 13:49:44","新北市板橋區忠孝路176巷10號","121.464538333333","25.0019466666667","6500100","板橋區"
"220043","285-UM","2018/07/27 13:49:41","新北市板橋區民生路二段161巷3號","121.469985","25.0197266666667","6500100","板橋區"
"220001","285-VK","2018/07/27 13:49:48","新北市板橋區永豐街55巷48號","121.47196","25.0185683333333","6500100","板橋區"
"220031","286-VK","2018/07/27 13:49:52","新北市板橋區僑中二街88巷34號","121.444696666667","25.0096383333333","6500100","板橋區"
"220029","287-VK","2018/07/27 13:49:51","新北市板橋區光華街15巷1號","121.454043333333","25.011795","6500100","板橋區"
"220039","288-VK","2018/07/27 13:49:45","新北市板橋區民生路二段120號","121.470586666667","25.0194666666667","6500100","板橋區"
"220009","293-UM","2018/07/27 13:49:51","新北市板橋區民生路二段123號","121.470713333333","25.0185966666667","6500100","板橋區"
"220051","295-UM","2018/07/27 13:49:45","新北市板橋區萬板路458號","121.47941","25.02578","6500100","板橋區"
"220032","296-UM","2018/07/27 13:49:42","新北市板橋區大觀路二段156巷51號","121.441236666667","25.00002","6500100","板橋區"
"220023","303-R5","2018/07/27 13:49:56","新北市板橋區南雅東路79-1號","121.453311666667","25.0079616666667","6500100","板橋區"
"220010","305-R5","2018/07/27 13:49:49","新北市板橋區民生路二段123號","121.470758333333","25.01858","6500100","板橋區"
"220047","317-R6","2018/07/27 13:49:40","新北市板橋區民生路二段120號","121.470606666667","25.0194483333333","6500100","板橋區"
"220012","486-VK","2018/07/27 13:49:50","新北市板橋區中山路二段37號","121.472996666667","25.0154","6500100","板橋區"
"220037","491-VK","2018/07/27 13:49:53","新北市板橋區民生路二段188號","121.470291666667","25.02033","6500100","板橋區"
"220104","560-BX","2018/07/27 13:49:37","新北市板橋區中正路325巷30-2號","121.452976666667","25.0187083333333","6500100","板橋區"
"220052","561-BX","2018/07/27 13:49:44","新北市板橋區民生路二段161巷3號","121.470221666667","25.0198416666667","6500100","板橋區"
"220011","609-BX","2018/07/27 13:49:54","新北市板橋區民生路一段58號","121.474058333333","25.0148583333333","6500100","板橋區"
"220040","637-BX","2018/07/27 13:49:52","新北市板橋區民生路二段161巷1號","121.470038333333","25.02014","6500100","板橋區"
"220005","686-BX","2018/07/27 13:49:48","新北市板橋區館前西路60號","121.458245","25.0070083333333","6500100","板橋區"
"220025","687-BX","2018/07/27 13:49:36","新北市板橋區大觀路二段431-1號","121.44095","24.9947933333333","6500100","板橋區"
"220042","689-BX","2018/07/27 13:49:37","新北市板橋區民生路二段120號","121.470485","25.0201333333333","6500100","板橋區"
"220002","741-BX","2018/07/27 13:49:51","新北市板橋區館前西路4-1號","121.459266666667","25.0071","6500100","板橋區"
"220018","806-UM","2018/07/27 13:49:52","新北市板橋區四川路一段90號","121.459676666667","25.00506","6500100","板橋區"
"220003","827-TW","2018/07/27 13:49:47","新北市板橋區中山路一段143號","121.464718333333","25.0115416666667","6500100","板橋區"
"220014","829-TW","2018/07/27 13:49:36","新北市板橋區民生路一段113號","121.474123333333","25.01453","6500100","板橋區"
"220016","830-TW","2018/07/27 13:49:38","新北市板橋區民生路二段123號","121.470698333333","25.0185183333333","6500100","板橋區"
"220045","831-TW","2018/07/27 13:43:16","新北市板橋區莊敬路208巷8弄9號","121.47073","25.0205216666667","6500100","板橋區"
"220038","833-TW","2018/07/27 13:49:35","新北市板橋區民生路二段188號","121.470318333333","25.0201783333333","6500100","板橋區"
"220022","895-R6","2018/07/27 13:49:54","新北市板橋區府中路37號","121.458656666667","25.008935","6500100","板橋區"
"220021","985-R7","2018/07/27 13:49:39","新北市板橋區府中路32號","121.458256666667","25.0096166666667","6500100","板橋區"
"220030","AAC-253","2018/07/27 13:49:51","新北市板橋區篤行路三段玉平巷68弄3號","121.427956666667","24.9860133333333","6500100","板橋區"
"235032","KEA-2873","2018/07/27 13:49:39","新北市中和區圓通路160-1號","121.497526666667","24.9955433333333","6500300","中和區"
"235025","KEA-2875","2018/07/27 13:49:31","新北市中和區民治街128巷4號","121.475016666667","25.00294","6500300","中和區"
