"lineid","car","time","location","longitude","latitude","cityid","cityname"
"234044","148-BY","2018/07/27 13:59:41","新北市永和區成功路一段121號","121.52682","25.001925","6500400","永和區"
"234070","149-BY","2018/07/27 13:59:36","新北市永和區民治街70號","121.517741666667","24.9980983333333","6500400","永和區"
"234005","207-UY","2018/07/27 13:59:39","新北市中和區中和路304號","121.508928333333","24.999945","6500400","永和區"
"234078","298-R6","2018/07/27 13:59:34","新北市永和區永亨路109號","121.523446666667","25.0047","6500400","永和區"
"234036","336-UY","2018/07/27 13:59:44","新北市永和區成功路二段80號","121.526611666667","24.99885","6500400","永和區"
"234062","337-UY","2018/07/27 13:59:54","新北市永和區中正路412巷20弄22號","121.518911666667","25.00136","6500400","永和區"
"234084","338-UY","2018/07/27 13:59:35","新北市永和區福和路85號","121.522251666667","25.0079166666667","6500400","永和區"
"234068","552-UM","2018/07/27 13:59:53","新北市永和區國光路51號","121.518973333333","25.0082933333333","6500400","永和區"
"234015","745-BX","2018/07/27 13:59:47","新北市永和區文化路80號","121.514056666667","25.0151983333333","6500400","永和區"
"234028","746-BX","2018/07/27 13:59:51","新北市永和區民生路47巷46號","121.525041666667","24.997765","6500400","永和區"
"234052","KEA-2590","2018/07/27 13:59:54","新北市永和區竹林路39巷42弄1號","121.520111666667","25.01519","6500400","永和區"
"234012","KEA-2591","2018/07/27 13:59:48","新北市永和區保生路55號","121.504723333333","25.0100883333333","6500400","永和區"
"234060","AAD-866","2018/07/27 13:59:51","新北市永和區中正路151巷14號","121.515598333333","24.9988366666667","6500400","永和區"
"234040","862-TW","2018/07/27 13:59:41","新北市永和區中和路335巷18弄15號","121.507838333333","25.0004283333333","6500400","永和區"
"234048","863-TW","2018/07/27 13:59:43","新北市永和區新生路210巷2號","121.505566666667","25.0131833333333","6500400","永和區"
"234025","9371-KE","2018/07/27 13:59:56","新北市永和區安樂路467號","121.514308333333","25.0054883333333","6500400","永和區"
"234010","9373-KE","2018/07/27 13:59:50","新北市永和區仁愛路352巷112弄15號","121.501078333333","25.0085883333333","6500400","永和區"
"248019","225-UY","2018/07/27 13:59:50","新北市五股區凌雲路三段71-19號","121.424053333333","25.1249933333333","6501500","五股區"
"234022","9380-KE","2018/07/27 13:59:39","新北市永和區復興街29號","121.516355","25.0131483333333","6500400","永和區"
"234076","969-R7","2018/07/27 13:59:41","新北市永和區民族街43巷8號","121.518848333333","24.998375","6500400","永和區"
"234072","AAC-211","2018/07/27 13:59:43","新北市永和區豫溪街159-1號","121.52133","25.01043","6500400","永和區"
"234066","AAC-212","2018/07/27 13:59:33","新北市永和區永貞路358號","121.510143333333","25.0066116666667","6500400","永和區"
"234001","AAC-295","2018/07/27 13:59:43","新北市永和區福和路316-2號","121.515946666667","25.007315","6500400","永和區"
"244004","248-BX","2018/07/27 13:59:41","新北市林口區南勢里31號","121.352133333333","25.070475","6501700","林口區"
"231002","002-UM","2018/07/27 13:59:52","新北市新店區中正路541-1號","121.5334","24.9868033333333","6500600","新店區"
"231028","046-UY","2018/07/27 13:59:50","新北市新店區安和路三段46號","121.517973333333","24.982045","6500600","新店區"
"231001","047-UY","2018/07/27 13:59:56","新北市新店區三民路45號","121.537118333333","24.9709","6500600","新店區"
"231005","106-UY","2018/07/27 13:59:43","新北市新店區中興路三段218號","121.543528333333","24.982555","6500600","新店區"
"231010","107-UY","2018/07/27 13:59:51","新北市新店區安康路一段222-1號","121.522766666667","24.9637316666667","6500600","新店區"
"231022","108-UY","2018/07/27 13:59:47","新北市新店區新烏路二段50巷3號","121.547881666667","24.92809","6500600","新店區"
"231036","110-UY","2018/07/27 13:59:51","新北市新店區安祥路109巷3弄10號","121.47554","24.9598233333333","6500600","新店區"
"231012","187-VK","2018/07/27 13:59:40","新北市新店區中興路一段282-3號","121.54616","24.968275","6500600","新店區"
"231023","KEA-2219","2018/07/27 13:59:43","新北市新店區文中路45號","121.539605","24.9566233333333","6500600","新店區"
"231026","256-BX","2018/07/27 13:59:49","新北市新店區安一路一段1-1號","121.519371666667","24.961295","6500600","新店區"
"231003","268-BY","2018/07/27 13:59:40","新北市新店區光明街138巷22號","121.540211666667","24.9609483333333","6500600","新店區"
"231018","278-BY","2018/07/27 13:59:52","新北市新店區中央路133巷27弄3號","121.531728333333","24.973245","6500600","新店區"
"231016","AAD-862","2018/07/27 13:59:53","新北市新店區郵政路3巷5號","121.557371666667","24.9520016666667","6500600","新店區"
"231038","3712-VJ","2018/07/27 13:59:50","新北市新店區安華路30巷1號","121.519581666667","24.959255","6500600","新店區"
"231027","3713-VJ","2018/07/27 13:59:38","新北市新店區中興路一段34號","121.538861666667","24.9585566666667","6500600","新店區"
"231037","4716-K9","2018/07/27 13:59:50","新北市新店區安康路三段207巷15號","121.48842","24.9508266666667","6500600","新店區"
"231025","4715-K9","2018/07/27 13:59:52","新北市新店區中正路302巷6號","121.537876666667","24.974965","6500600","新店區"
"231013","513-UM","2018/07/27 13:59:54","新北市新店區明德路111號","121.541485","24.9794566666667","6500600","新店區"
"231034","616-UM","2018/07/27 13:59:41","新北市新店區達觀路6號","121.505488333333","24.9423116666667","6500600","新店區"
"231006","618-UM","2018/07/27 13:59:44","新北市新店區北宜路二段211號","121.5532","24.9535266666667","6500600","新店區"
"231030","619-UM","2018/07/27 13:59:35","新北市新店區安康路一段302-2號","121.51755","24.964095","6500600","新店區"
"231035","719-UM","2018/07/27 13:59:47","新北市新店區安和路一段45號","121.51743","24.9656733333333","6500600","新店區"
"231032","720-UM","2018/07/27 13:59:49","新北市新店區華城路5-3號","121.529346666667","24.958425","6500600","新店區"
"231029","897-TW","2018/07/27 13:59:43","新北市新店區安康路二段14號","121.516145","24.96378","6500600","新店區"
"231004","899-TW","2018/07/27 13:59:39","新北市新店區北新路二段107號","121.542885","24.9744416666667","6500600","新店區"
"231024","AKT-0513","2018/07/27 13:59:40","新北市新店區安德街148巷31號","121.506183333333","24.9606716666667","6500600","新店區"
"235030","003-UY","2018/07/27 13:59:49","新北市中和區廣福路8號","121.505911666667","25.0030583333333","6500300","中和區"
"235028","005-UY","2018/07/27 13:59:37","新北市中和區泰和街30巷17號","121.499033333333","25.0009366666667","6500300","中和區"
"235027","006-UY","2018/07/27 13:59:49","新北市中和區中正路604號","121.48551","24.9953233333333","6500300","中和區"
"235020","096-UM","2018/07/27 13:59:56","新北市中和區中正路1206巷1號","121.480145","25.0108216666667","6500300","中和區"
"235003","097-UM","2018/07/27 13:59:52","新北市中和區自立路58巷2號","121.523653333333","24.99159","6500300","中和區"
"235029","098-UM","2018/07/27 13:59:35","新北市中和區中山路二段136巷40號","121.501175","25.0044483333333","6500300","中和區"
"235004","150-BY","2018/07/27 13:59:47","新北市中和區保健路44巷23號","121.509093333333","24.9965","6500300","中和區"
"235022","151-BY","2018/07/27 13:59:52","新北市中和區連城路378號","121.480926666667","24.9951","6500300","中和區"
"235019","183-VK","2018/07/27 13:59:52","新北市中和區中山路三段204號","121.471655","25.0064866666667","6500300","中和區"
"235002","185-VK","2018/07/27 13:59:43","新北市中和區大勇街48號","121.517383333333","24.9938583333333","6500300","中和區"
"235013","186-VK","2018/07/27 13:59:41","新北市中和區景安路100號","121.505475","24.9955733333333","6500300","中和區"
"235031","255-BX","2018/07/27 13:59:36","新北市中和區新生街251號","121.48388","24.9985816666667","6500300","中和區"
"235008","293-VK","2018/07/27 13:59:49","新北市中和區中興街161巷1弄1號","121.500215","24.9909","6500300","中和區"
"235036","301-VK","2018/07/27 13:59:52","新北市中和區中山路二段101號","121.50337","25.0039066666667","6500300","中和區"
"235007","352-BY","2018/07/27 13:59:43","新北市中和區秀朗路三段74-3號","121.526281666667","24.9941316666667","6500300","中和區"
"247009","KEA-2869","2018/07/27 13:59:51","新北市蘆洲區集賢路222-6號","121.482556666667","25.0865433333333","6501400","蘆洲區"
"235033","4980-A6","2018/07/27 13:59:51","新北市中和區圓通路109巷2號","121.499528333333","24.9963416666667","6500300","中和區"
"235006","551-UM","2018/07/27 13:59:45","新北市中和區秀朗路三段128巷17弄3號","121.52432","24.99351","6500300","中和區"
"235034","558-UM","2018/07/27 13:59:48","新北市中和區枋寮街2號","121.502431666667","24.9998316666667","6500300","中和區"
"235009","565-BX","2018/07/27 13:59:38","新北市中和區景新街467巷20弄19號","121.514966666667","24.987275","6500300","中和區"
"235018","640-BX","2018/07/27 13:59:36","新北市中和區國光街107巷4弄8號","121.470138333333","24.9996","6500300","中和區"
"235024","647-TV","2018/07/27 13:59:56","新北市中和區民治街130巷2號","121.475168333333","25.00274","6500300","中和區"
"235011","732-UM","2018/07/27 13:59:50","新北市中和區興南路二段111號","121.505705","24.9844466666667","6500300","中和區"
"235010","733-UM","2018/07/27 13:59:41","新北市中和區興南路一段135巷17號","121.509326666667","24.986995","6500300","中和區"
"235035","783-BX","2018/07/27 13:59:51","新北市中和區立德街98巷55號","121.487658333333","25.008935","6500300","中和區"
"235026","800-TS","2018/07/27 13:59:51","新北市中和區中山路二段342號","121.493758333333","25.0022716666667","6500300","中和區"
"235021","801-TS","2018/07/27 13:59:38","新北市中和區民利街100巷5弄4號","121.477036666667","24.9982166666667","6500300","中和區"
"235005","802-TS","2018/07/27 13:59:43","新北市中和區中安街104-1號","121.511603333333","25.0011733333333","6500300","中和區"
"235016","805-TS","2018/07/27 13:59:54","新北市中和區興南路二段244號","121.503268333333","24.9820183333333","6500300","中和區"
"235012","896-TW","2018/07/27 13:59:44","新北市中和區華新街28-1號","121.50774","24.98454","6500300","中和區"
"235017","900-TW","2018/07/27 13:59:35","新北市中和區和平路200巷35弄1號","121.465293333333","24.9945966666667","6500300","中和區"
"235015","157-BY","2018/07/27 13:59:50","新北市中和區忠孝街11巷10號","121.510045","24.9832266666667","6500300","中和區"
"235001","AAC-213","2018/07/27 13:59:42","新北市中和區秀朗路三段10巷37弄4號","121.524088333333","24.9960566666667","6500300","中和區"
"235023","AAC-215","2018/07/27 13:59:42","新北市中和區圓通路369巷14弄8號","121.490386666667","24.987815","6500300","中和區"
"220013","072-UY","2018/07/27 13:59:48","新北市板橋區漢生東路323號","121.471883333333","25.0078866666667","6500100","板橋區"
"220034","073-UY","2018/07/27 13:59:38","新北市板橋區中正路236巷13號","121.456526666667","25.01914","6500100","板橋區"
"220017","AAD-861","2018/07/27 13:59:41","新北市板橋區縣民大道一段110號","121.457098333333","25.005805","6500100","板橋區"
"220105","120-SR","2018/07/27 13:59:47","新北市板橋區文化路二段124巷28-2號","121.471213333333","25.0257","6500100","板橋區"
"247011","339-TH","2018/07/27 13:59:38","新北市蘆洲區中興街5號","121.480188333333","25.086945","6501400","蘆洲區"
"247003","337-TH","2018/07/27 13:59:48","新北市蘆洲區長榮路19號","121.463645","25.08221","6501400","蘆洲區"
"247005","336-TH","2018/07/27 13:59:37","新北市蘆洲區永安南路二段64號","121.464898333333","25.07808","6501400","蘆洲區"
"247017","057-VK","2018/07/27 13:59:53","新北市蘆洲區民族路327巷132號","121.475306666667","25.089585","6501400","蘆洲區"
"247007","056-VK","2018/07/27 13:59:39","新北市蘆洲區重陽街72號","121.481816666667","25.0842283333333","6501400","蘆洲區"
"247013","053-VK","2018/07/27 13:59:45","新北市蘆洲區中正路148號","121.468848333333","25.085335","6501400","蘆洲區"
"247015","007-UY","2018/07/27 13:59:56","新北市蘆洲區光華路22巷1號","121.469396666667","25.0835383333333","6501400","蘆洲區"
"247001","002-UY","2018/07/27 13:59:47","新北市蘆洲區永平街32巷72號","121.460458333333","25.0935383333333","6501400","蘆洲區"
"247019","001-UY","2018/07/27 13:59:50","新北市蘆洲區民族路422巷35-1號","121.473493333333","25.0936883333333","6501400","蘆洲區"
"207002","749-BX","2018/07/27 13:59:45","新北市萬里區溪底里溪底路9-1號","121.620338333333","25.1489216666667","6502800","萬里區"
"207001","662-BX","2018/07/27 13:59:45","新北市萬里區磺潭里清水2-2號","121.642506666667","25.2021616666667","6502800","萬里區"
"236040","107-UM","2018/07/27 13:59:44","新北市土城區城林路6巷80號","121.438461666667","24.979815","6501300","土城區"
"236077","166-UM","2018/07/27 13:59:45","新北市土城區永寧路32巷10弄7-1號","121.42873","24.9610466666667","6501300","土城區"
"236029","253-BX","2018/07/27 13:59:54","新北市土城區城林路6巷80號","121.43841","24.979835","6501300","土城區"
"236024","269-VK","2018/07/27 13:59:51","新北市土城區承天路47號","121.438735","24.9637883333333","6501300","土城區"
"236013","270-VK","2018/07/27 13:59:39","新北市土城區城林路6巷80號","121.438611666667","24.9798316666667","6501300","土城區"
"236032","271-VK","2018/07/27 13:59:54","新北市土城區城林路6巷80號","121.438478333333","24.9798216666667","6501300","土城區"
"236067","KEA-2877","2018/07/27 13:59:33","新北市土城區和平路48號","121.445175","24.9693716666667","6501300","土城區"
"236016","401-BY","2018/07/27 13:59:52","新北市土城區城林路6巷80號","121.438426666667","24.9797633333333","6501300","土城區"
"236006","498-BY","2018/07/27 13:59:55","新北市土城區中央路一段365巷8-2號","121.444256666667","24.98063","6501300","土城區"
"236057","912-UM","2018/07/27 13:59:50","新北市土城區中央路三段250號","121.427698333333","24.9642","6501300","土城區"
"236045","913-UM","2018/07/27 13:59:37","新北市土城區城林路6巷80號","121.438426666667","24.9798333333333","6501300","土城區"
"236060","915-UM","2018/07/27 13:59:39","新北市土城區城林路6巷80號","121.438388333333","24.979805","6501300","土城區"
"236054","AAC-216","2018/07/27 13:59:55","新北市土城區城林路6巷80號","121.438581666667","24.9797616666667","6501300","土城區"
"242048","172-VK","2018/07/27 13:59:33","新北市新莊區新樹路609-2號","121.433583333333","25.0040783333333","6500500","新莊區"
"221010","269-BY","2018/07/27 13:59:47","新北市汐止區康寧街753巷10弄11-8號","121.63939","25.075445","6501100","汐止區"
"220028","200-UY","2018/07/27 13:59:52","新北市板橋區合宜一路1-3號","121.44268","24.9971533333333","6500100","板橋區"
"220050","245-BX","2018/07/27 13:59:49","新北市板橋區文化路二段182巷15號","121.472276666667","25.026845","6500100","板橋區"
"220027","256-TC","2018/07/27 13:59:56","新北市板橋區民權路202巷14弄1號","121.460628333333","25.01597","6500100","板橋區"
"220004","276-BY","2018/07/27 13:59:49","新北市板橋區信義路148號","121.458765","24.9917133333333","6500100","板橋區"
"220020","277-BY","2018/07/27 13:59:47","新北市板橋區篤行路一段29號","121.431996666667","24.994575","6500100","板橋區"
"220019","283-VK","2018/07/27 13:59:51","新北市板橋區忠孝路154巷30號","121.46397","25.001715","6500100","板橋區"
"220043","285-UM","2018/07/27 13:59:41","新北市板橋區文化路二段31號","121.468831666667","25.024895","6500100","板橋區"
"220001","285-VK","2018/07/27 13:59:53","新北市板橋區永豐街87號","121.473511666667","25.0191066666667","6500100","板橋區"
"220031","286-VK","2018/07/27 13:59:52","新北市板橋區僑中二街152-1號","121.444555","25.004375","6500100","板橋區"
"220029","287-VK","2018/07/27 13:59:54","新北市板橋區光華街46號","121.45366","25.0130916666667","6500100","板橋區"
"220039","288-VK","2018/07/27 13:59:45","新北市板橋區四維路177巷2弄1號","121.463991666667","25.02624","6500100","板橋區"
"220009","293-UM","2018/07/27 13:59:51","新北市板橋區富山街85巷6弄2號","121.476558333333","25.0211683333333","6500100","板橋區"
"220051","295-UM","2018/07/27 13:59:45","新北市板橋區田單街2巷2號","121.48173","25.029045","6500100","板橋區"
"220032","296-UM","2018/07/27 13:59:41","新北市板橋區篤行路一段16號","121.431311666667","24.99547","6500100","板橋區"
"220023","303-R5","2018/07/27 13:59:36","新北市板橋區南雅西路二段185號","121.451835","25.0128033333333","6500100","板橋區"
"220010","305-R5","2018/07/27 13:59:49","新北市板橋區三民路二段251-1號","121.47896","25.012045","6500100","板橋區"
"220047","317-R6","2018/07/27 13:59:46","新北市板橋區民有街31號","121.465883333333","25.02541","6500100","板橋區"
"220012","486-VK","2018/07/27 13:59:50","新北市板橋區中山路一段283巷2弄25號","121.470573333333","25.015465","6500100","板橋區"
"220037","491-VK","2018/07/27 13:59:53","新北市板橋區文化路二段37號","121.468845","25.0249883333333","6500100","板橋區"
"220104","560-BX","2018/07/27 13:59:37","新北市板橋區中正路375巷30號","121.45347","25.0206333333333","6500100","板橋區"
"220052","561-BX","2018/07/27 13:59:44","新北市板橋區介壽街120號","121.469815","25.017725","6500100","板橋區"
"220011","609-BX","2018/07/27 13:59:54","新北市板橋區中山路二段243號","121.477173333333","25.017435","6500100","板橋區"
"220040","637-BX","2018/07/27 13:59:52","新北市板橋區雙十路二段47巷12號","121.475928333333","25.0260316666667","6500100","板橋區"
"220005","686-BX","2018/07/27 13:59:56","新北市板橋區重慶路202號","121.462611666667","25.0027183333333","6500100","板橋區"
"220025","687-BX","2018/07/27 13:59:36","新北市板橋區僑中二街152號","121.444891666667","25.0043733333333","6500100","板橋區"
"220042","689-BX","2018/07/27 13:59:45","新北市板橋區民生路三段64號","121.467098333333","25.0253716666667","6500100","板橋區"
"220002","741-BX","2018/07/27 13:59:53","新北市板橋區重慶路141號","121.462353333333","25.0046366666667","6500100","板橋區"
"220018","806-UM","2018/07/27 13:59:52","新北市板橋區四川路一段467號","121.45718","24.9975833333333","6500100","板橋區"
"220003","827-TW","2018/07/27 13:59:47","新北市板橋區中山路一段158巷8-3號","121.466156666667","25.011615","6500100","板橋區"
"220014","829-TW","2018/07/27 13:59:56","新北市板橋區三民路2段正泰3巷18-1號","121.477908333333","25.0142766666667","6500100","板橋區"
"220016","830-TW","2018/07/27 13:59:38","新北市板橋區中山路二段443巷54號","121.481133333333","25.021575","6500100","板橋區"
"220045","831-TW","2018/07/27 13:59:44","新北市板橋區莒光路71號","121.471466666667","25.0241833333333","6500100","板橋區"
"220038","833-TW","2018/07/27 13:59:55","新北市板橋區文化路二段319號","121.472261666667","25.0299183333333","6500100","板橋區"
"220022","895-R6","2018/07/27 13:59:40","新北市板橋區南雅南路一段106號","121.454938333333","25.0043416666667","6500100","板橋區"
"220021","985-R7","2018/07/27 13:59:39","新北市板橋區中正路69號","121.456336666667","25.013815","6500100","板橋區"
"220030","AAC-253","2018/07/27 13:59:51","新北市板橋區滿平街80號","121.427473333333","24.98913","6500100","板橋區"
"235032","KEA-2873","2018/07/27 13:59:50","新北市中和區圓通路158巷9弄25號","121.497416666667","24.996375","6500300","中和區"
"235025","KEA-2875","2018/07/27 13:59:31","新北市中和區中山路三段63巷13弄17號","121.47702","25.003895","6500300","中和區"
