"lineid","car","time","location","longitude","latitude","cityid","cityname"
"234070","149-BY","2018/07/27 14:45:56","新北市林口區太平里180號","121.366475","25.1345083333333","6500400","永和區"
"234062","337-UY","2018/07/27 14:45:36","新北市永和區福和路50號","121.523543333333","25.0081133333333","6500400","永和區"
"234028","746-BX","2018/07/27 14:45:51","新北市中和區中正路266-1號","121.495465","24.9939133333333","6500400","永和區"
"234012","KEA-2591","2018/07/27 14:45:48","新北市八里區中山路三段392號","121.367043333333","25.1351833333333","6500400","永和區"
"234025","9371-KE","2018/07/27 14:45:54","新北市永和區雙和街8號","121.509735","25.0018066666667","6500400","永和區"
"248019","225-UY","2018/07/27 14:45:50","新北市五股區中直路3-2號","121.42894","25.1114333333333","6501500","五股區"
"234001","AAC-295","2018/07/27 14:45:37","新北市永和區中正路618-1號","121.516911666667","25.0077766666667","6500400","永和區"
"244004","248-BX","2018/07/27 14:45:41","新北市林口區南勢里31號","121.352008333333","25.07041","6501700","林口區"
"231002","002-UM","2018/07/27 14:45:52","新北市新店區民權路123號","121.535701666667","24.9828633333333","6500600","新店區"
"231028","046-UY","2018/07/27 14:45:50","新北市新店區安德街26巷3號","121.511285","24.9634833333333","6500600","新店區"
"231001","047-UY","2018/07/27 14:45:38","新北市新店區中正路211號","121.539783333333","24.9726416666667","6500600","新店區"
"231005","106-UY","2018/07/27 14:45:43","新北市新店區復興路2號","121.532498333333","24.9882383333333","6500600","新店區"
"231022","108-UY","2018/07/27 14:45:47","新北市新店區桂山路61巷58號","121.568305","24.8952233333333","6500600","新店區"
"231036","110-UY","2018/07/27 14:45:51","新北市新店區安祥路104巷6弄34號","121.48304","24.96293","6500600","新店區"
"231012","187-VK","2018/07/27 14:45:39","新北市新店區寶橋路78巷3號","121.54689","24.9750783333333","6500600","新店區"
"231023","KEA-2219","2018/07/27 14:45:43","新北市新店區檳榔路109號","121.544453333333","24.961655","6500600","新店區"
"231003","268-BY","2018/07/27 14:45:39","新北市新店區中興路二段197號","121.54816","24.973835","6500600","新店區"
"231018","278-BY","2018/07/27 14:45:52","新北市新店區中央路153號","121.529868333333","24.9729616666667","6500600","新店區"
"231016","AAD-862","2018/07/27 14:45:52","新北市新店區北宜路三段320-1號","121.606711666667","24.9573366666667","6500600","新店區"
"231038","3712-VJ","2018/07/27 14:45:50","新北市新店區安華路28-1號","121.519615","24.960795","6500600","新店區"
"231027","3713-VJ","2018/07/27 14:45:38","新北市新店區民生路158巷95號","121.526201666667","24.9808183333333","6500600","新店區"
"231037","4716-K9","2018/07/27 14:45:10","新北市新店區柴埕路60巷19號","121.508216666667","24.9653616666667","6500600","新店區"
"231013","513-UM","2018/07/27 14:45:54","新北市新店區北新路二段97巷10弄1-1號","121.542081666667","24.9744816666667","6500600","新店區"
"231034","616-UM","2018/07/27 14:45:41","新北市新店區安康路二段382號","121.500393333333","24.9569833333333","6500600","新店區"
"231006","618-UM","2018/07/27 14:45:48","新北市新店區北宜路一段314號","121.547338333333","24.9520933333333","6500600","新店區"
"231030","619-UM","2018/07/27 14:45:56","新北市新店區安民街306號","121.517636666667","24.97388","6500600","新店區"
"231035","719-UM","2018/07/27 14:43:47","新北市新店區安樂街1號","121.519745","24.973845","6500600","新店區"
"231029","897-TW","2018/07/27 14:45:43","新北市新店區錦秀路11巷12號","121.48089","24.9441783333333","6500600","新店區"
"231004","899-TW","2018/07/27 14:45:39","新北市新店區民族路161號","121.537703333333","24.976835","6500600","新店區"
"231024","AKT-0513","2018/07/27 14:45:40","新北市新店區力行路12號","121.53943","24.9646216666667","6500600","新店區"
"235030","003-UY","2018/07/27 14:45:49","新北市中和區景新街59號","121.504641666667","24.9989316666667","6500300","中和區"
"235020","096-UM","2018/07/27 14:45:56","新北市中和區員山路581巷2弄20-6號","121.47773","25.0097283333333","6500300","中和區"
"235003","097-UM","2018/07/27 14:45:52","新北市永和區安樂路64號","121.514955","24.9981783333333","6500300","中和區"
"235029","098-UM","2018/07/27 14:45:54","新北市中和區永和路88號","121.497365","25.0052983333333","6500300","中和區"
"235004","150-BY","2018/07/27 14:45:47","新北市中和區安和路39號","121.50966","24.9948916666667","6500300","中和區"
"235019","183-VK","2018/07/27 14:45:52","新北市中和區民生街85巷5弄1號","121.46925","25.004075","6500300","中和區"
"235002","185-VK","2018/07/27 14:45:43","新北市中和區自立路10號","121.522431666667","24.9964433333333","6500300","中和區"
"235013","186-VK","2018/07/27 14:45:41","新北市中和區明禮街19號","121.504751666667","24.9959633333333","6500300","中和區"
"235031","255-BX","2018/07/27 14:45:57","新北市中和區新生街186巷1弄28號","121.48337","24.9985483333333","6500300","中和區"
"235008","293-VK","2018/07/27 14:45:49","新北市中和區南山路399巷7號","121.506898333333","24.9902883333333","6500300","中和區"
"235036","301-VK","2018/07/27 14:45:52","新北市中和區連城路41號","121.49836","25.0017283333333","6500300","中和區"
"235007","352-BY","2018/07/27 14:45:43","新北市中和區安和路33號","121.510026666667","24.99454","6500300","中和區"
"235014","4979-A6","2018/07/27 14:45:47","新北市中和區和平街164巷4號","121.506003333333","24.992485","6500300","中和區"
"235006","551-UM","2018/07/27 14:45:45","新北市中和區中和路279號","121.505785","24.99981","6500300","中和區"
"235034","558-UM","2018/07/27 14:45:48","新北市中和區連勝街45號","121.498083333333","24.9975883333333","6500300","中和區"
"235018","640-BX","2018/07/27 14:45:56","新北市中和區莒光路260-1號","121.467465","24.9938","6500300","中和區"
"235024","647-TV","2018/07/27 14:45:36","新北市中和區新生街16巷21弄2號","121.482321666667","25.0042966666667","6500300","中和區"
"235011","732-UM","2018/07/27 14:45:50","新北市中和區和平街17號","121.508651666667","24.9903966666667","6500300","中和區"
"235010","733-UM","2018/07/27 14:45:55","新北市中和區仁愛街85號","121.511615","24.987175","6500300","中和區"
"235035","783-BX","2018/07/27 14:45:51","新北市中和區建一路135號","121.488108333333","25.00121","6500300","中和區"
"235026","800-TS","2018/07/27 14:45:51","新北市中和區建六路67巷16號","121.48676","25.0027883333333","6500300","中和區"
"235021","801-TS","2018/07/27 14:45:38","新北市中和區員山路128-1號","121.481098333333","24.99616","6500300","中和區"
"235005","802-TS","2018/07/27 14:45:43","新北市中和區安平路16號","121.50925","24.9942066666667","6500300","中和區"
"235016","805-TS","2018/07/27 14:45:53","新北市中和區興南路二段113巷2號","121.5056","24.9842316666667","6500300","中和區"
"235012","896-TW","2018/07/27 14:45:44","新北市中和區忠孝街97號","121.51207","24.9857783333333","6500300","中和區"
"235017","900-TW","2018/07/27 14:45:35","新北市中和區國光街215巷10弄6號","121.466721666667","25.0006483333333","6500300","中和區"
"235015","157-BY","2018/07/27 14:45:50","新北市中和區復興路301巷16號","121.501516666667","24.9895783333333","6500300","中和區"
"235001","AAC-213","2018/07/27 14:45:42","新北市中和區秀朗路三段139號","121.525106666667","24.99243","6500300","中和區"
"235023","AAC-215","2018/07/27 14:45:41","新北市中和區圓通路305巷30號","121.495205","24.98871","6500300","中和區"
"220013","072-UY","2018/07/27 14:45:52","新北市板橋區國泰街39巷4弄4號","121.468411666667","25.0060833333333","6500100","板橋區"
"220017","AAD-861","2018/07/27 14:45:41","新北市板橋區貴興路119巷1弄1號","121.455708333333","25.0023","6500100","板橋區"
"220105","120-SR","2018/07/27 14:45:47","新北市板橋區文化路二段608巷35號","121.478508333333","25.034795","6500100","板橋區"
"247023","893-R6","2018/07/27 14:45:52","新北市蘆洲區和平路114巷1號","121.467761666667","25.0798133333333","6501400","蘆洲區"
"247007","056-VK","2018/07/27 14:45:39","新北市蘆洲區中山一路97巷24號","121.475956666667","25.080865","6501400","蘆洲區"
"247013","053-VK","2018/07/27 14:45:45","新北市蘆洲區得勝街68號","121.472573333333","25.0835766666667","6501400","蘆洲區"
"247015","007-UY","2018/07/27 14:45:51","新北市蘆洲區和平路190號","121.466168333333","25.08162","6501400","蘆洲區"
"247001","002-UY","2018/07/27 14:45:47","新北市蘆洲區長安街246巷32號","121.458813333333","25.0865716666667","6501400","蘆洲區"
"207002","749-BX","2018/07/27 14:45:44","新北市萬里區崁腳里崁腳路73號","121.64761","25.1596233333333","6502800","萬里區"
"207001","662-BX","2018/07/27 14:44:45","新北市萬里區雙興里豐稟路39號","121.64272","25.1819666666667","6502800","萬里區"
"236040","107-UM","2018/07/27 14:45:44","新北市土城區裕民路136巷4弄1號","121.451051666667","24.9856183333333","6501300","土城區"
"236077","166-UM","2018/07/27 14:45:45","新北市土城區中央路四段125巷29號","121.417576666667","24.9563266666667","6501300","土城區"
"236029","253-BX","2018/07/27 14:45:54","新北市土城區忠義路26巷10號","121.439813333333","24.969925","6501300","土城區"
"236024","269-VK","2018/07/27 14:45:51","新北市土城區興城路80號","121.441061666667","24.9719016666667","6501300","土城區"
"236013","270-VK","2018/07/27 14:45:47","新北市土城區清水路237號","121.46129","24.98312","6501300","土城區"
"236032","271-VK","2018/07/27 14:45:54","新北市土城區明德路一段219號","121.46326","24.9784433333333","6501300","土城區"
"236067","KEA-2877","2018/07/27 14:45:53","新北市土城區金城路三段10號","121.464851666667","24.98594","6501300","土城區"
"236016","401-BY","2018/07/27 14:45:52","新北市土城區延安街33巷6號","121.468093333333","24.98454","6501300","土城區"
"236057","912-UM","2018/07/27 14:45:48","新北市土城區承天路2號","121.435168333333","24.9659333333333","6501300","土城區"
"236045","913-UM","2018/07/27 14:45:37","新北市板橋區信義路170巷10號","121.45982","24.9905416666667","6501300","土城區"
"236060","915-UM","2018/07/27 14:45:39","新北市土城區金城路三段207巷8弄4號","121.470136666667","24.9903","6501300","土城區"
"236054","AAC-216","2018/07/27 14:45:43","新北市土城區裕民路152號","121.452015","24.9859583333333","6501300","土城區"
"221010","269-BY","2018/07/27 14:45:47","新北市汐止區汐萬路一段256巷3號","121.652125","25.0747716666667","6501100","汐止區"
"221032","280-BY","2018/07/27 14:45:48","新北市汐止區新興路54號","121.657145","25.06291","6501100","汐止區"
"220028","200-UY","2018/07/27 14:45:52","新北市板橋區大觀路二段153巷47號","121.447106666667","25.0007466666667","6500100","板橋區"
"220050","245-BX","2018/07/27 14:45:54","新北市板橋區縣民大道三段93巷30弄2號","121.475018333333","25.0226583333333","6500100","板橋區"
"220027","256-TC","2018/07/27 14:45:35","新北市板橋區大仁街12號","121.4559","25.0170533333333","6500100","板橋區"
"220004","276-BY","2018/07/27 14:45:43","新北市板橋區四川路二段47巷7號","121.454323333333","24.9944716666667","6500100","板橋區"
"220020","277-BY","2018/07/27 14:45:47","新北市板橋區金門街151巷13號","121.433601666667","24.9903783333333","6500100","板橋區"
"220019","283-VK","2018/07/27 14:45:44","新北市板橋區五權街30巷24弄13號","121.463628333333","24.9934016666667","6500100","板橋區"
"220043","285-UM","2018/07/27 14:45:41","新北市板橋區長江路二段149號","121.465828333333","25.0317866666667","6500100","板橋區"
"220001","285-VK","2018/07/27 14:45:48","新北市板橋區民享街63號","121.4763","25.0153383333333","6500100","板橋區"
"220031","286-VK","2018/07/27 14:45:52","新北市板橋區僑中二街10巷26號","121.44595","25.011105","6500100","板橋區"
"220029","287-VK","2018/07/27 14:45:45","新北市板橋區僑中一街80巷1弄1號","121.447558333333","25.0119316666667","6500100","板橋區"
"220039","288-VK","2018/07/27 14:45:45","新北市板橋區龍泉街82巷14弄23號","121.456031666667","25.02626","6500100","板橋區"
"220009","293-UM","2018/07/27 14:45:52","新北市板橋區觀光街61號","121.470396666667","25.0164","6500100","板橋區"
"220051","295-UM","2018/07/27 14:45:45","新北市板橋區松柏街33巷1號","121.475105","25.030295","6500100","板橋區"
"220032","296-UM","2018/07/27 14:45:42","新北市板橋區溪崑二街112巷4號","121.426235","24.988825","6500100","板橋區"
"220023","303-R5","2018/07/27 14:45:36","新北市板橋區金華街8巷2號","121.455551666667","25.020035","6500100","板橋區"
"220010","305-R5","2018/07/27 14:45:49","新北市板橋區中山路二段416巷54弄20號","121.482065","25.0193933333333","6500100","板橋區"
"220041","307-R5","2018/07/27 14:45:46","新北市板橋區四維路258號","121.463461666667","25.028255","6500100","板橋區"
"220047","317-R6","2018/07/27 14:45:40","新北市板橋區新海路385巷20號","121.458135","25.02563","6500100","板橋區"
"220012","486-VK","2018/07/27 14:45:50","新北市板橋區公園街64號","121.461918333333","25.0077683333333","6500100","板橋區"
"220037","491-VK","2018/07/27 14:45:54","新北市板橋區懷德街55號","121.477228333333","25.0326616666667","6500100","板橋區"
"220104","560-BX","2018/07/27 14:45:37","新北市板橋區新生街87巷17號","121.457006666667","25.0219833333333","6500100","板橋區"
"220052","561-BX","2018/07/27 14:45:44","新北市板橋區陽明街48號","121.465455","25.02209","6500100","板橋區"
"220011","609-BX","2018/07/27 14:45:54","新北市板橋區林森街3巷1弄23號","121.482686666667","25.023645","6500100","板橋區"
"220040","637-BX","2018/07/27 14:45:51","新北市板橋區民治街81巷15號","121.480323333333","25.0322566666667","6500100","板橋區"
"220005","686-BX","2018/07/27 14:45:36","新北市板橋區信義路182號","121.459496666667","24.9914016666667","6500100","板橋區"
"220025","687-BX","2018/07/27 14:45:37","新北市板橋區僑中一街148號","121.44501","25.0118233333333","6500100","板橋區"
"220042","689-BX","2018/07/27 14:45:37","新北市板橋區長江路一段131號","121.460466666667","25.0301016666667","6500100","板橋區"
"220002","741-BX","2018/07/27 14:45:52","新北市板橋區忠孝路忠義巷15弄3號","121.465753333333","25.003855","6500100","板橋區"
"220018","806-UM","2018/07/27 14:45:52","新北市板橋區民族路209號","121.469228333333","25.0073416666667","6500100","板橋區"
"220003","827-TW","2018/07/27 14:45:47","新北市板橋區仁愛路60號","121.459826666667","24.9993883333333","6500100","板橋區"
"220014","829-TW","2018/07/27 14:45:48","新北市板橋區漢生東路193巷66號","121.473145","25.0120233333333","6500100","板橋區"
"220016","830-TW","2018/07/27 14:45:41","新北市板橋區中山路二段光榮巷30弄3號","121.484681666667","25.0205383333333","6500100","板橋區"
"220045","831-TW","2018/07/27 14:45:56","新北市板橋區莊敬路92號","121.471333333333","25.02471","6500100","板橋區"
"220038","833-TW","2018/07/27 14:45:55","新北市板橋區新海路332號","121.460421666667","25.0242116666667","6500100","板橋區"
"220022","895-R6","2018/07/27 14:45:40","新北市板橋區民權路89號","121.460538333333","25.01182","6500100","板橋區"
"220021","985-R7","2018/07/27 14:45:39","新北市板橋區南雅西路二段164號","121.45164","25.0136516666667","6500100","板橋區"
"220046","AAC-210","2018/07/27 14:45:56","新北市板橋區文化路一段285巷2弄3號","121.464516666667","25.0191116666667","6500100","板橋區"
"220030","AAC-253","2018/07/27 14:45:51","新北市板橋區篤行路一段32號","121.431876666667","24.99395","6500100","板橋區"
"235032","KEA-2873","2018/07/27 14:45:39","新北市中和區中山路二段254號","121.497536666667","25.0027066666667","6500300","中和區"
