"lineid","car","time","location","longitude","latitude","cityid","cityname"
"234070","149-BY","2018/07/27 15:09:36","新北市五股區凌雲路二段18巷64-3號","121.441321666667","25.1062766666667","6500400","永和區"
"234025","9371-KE","2018/07/27 15:09:35","新北市永和區保生路55-1號","121.504461666667","25.0109716666667","6500400","永和區"
"248019","225-UY","2018/07/27 15:09:49","新北市五股區凌雲路三段24巷24號","121.43531","25.1043566666667","6501500","五股區"
"231002","002-UM","2018/07/27 15:09:52","新北市新店區中正路545號","121.533726666667","24.98762","6500600","新店區"
"231028","046-UY","2018/07/27 15:09:49","新北市新店區僑信路106號","121.500136666667","24.94711","6500600","新店區"
"231001","047-UY","2018/07/27 15:09:48","新北市新店區中正路146號","121.541776666667","24.971665","6500600","新店區"
"231005","106-UY","2018/07/27 15:09:43","新北市新店區北新路三段112號","121.541766666667","24.9815233333333","6500600","新店區"
"231022","108-UY","2018/07/27 15:09:47","新北市新店區新烏路三段65號","121.554326666667","24.9039166666667","6500600","新店區"
"231036","110-UY","2018/07/27 15:09:51","新北市新店區安祥路102巷98弄1號","121.487371666667","24.96376","6500600","新店區"
"231012","187-VK","2018/07/27 15:09:40","新北市新店區寶元路一段65號","121.542278333333","24.9858466666667","6500600","新店區"
"231023","KEA-2219","2018/07/27 15:09:43","新北市新店區檳榔路113號","121.544443333333","24.961435","6500600","新店區"
"231026","256-BX","2018/07/27 15:09:42","新北市新店區建興街1號","121.540181666667","24.9764933333333","6500600","新店區"
"231003","268-BY","2018/07/27 15:09:54","新北市新店區寶橋路158-1號","121.548831666667","24.9772033333333","6500600","新店區"
"231018","278-BY","2018/07/27 15:09:52","新北市新店區中央七街72號","121.527468333333","24.9765216666667","6500600","新店區"
"231016","AAD-862","2018/07/27 15:09:52","新北市新店區明山路45號","121.563835","24.9558733333333","6500600","新店區"
"231038","3712-VJ","2018/07/27 15:09:50","新北市新店區安華路28-1號","121.51947","24.96097","6500600","新店區"
"231037","4716-K9","2018/07/27 15:09:50","新北市新店區安民街341-1號","121.516631666667","24.9749483333333","6500600","新店區"
"231025","4715-K9","2018/07/27 15:09:52","新北市新店區民權路105號","121.53649","24.9826533333333","6500600","新店區"
"231034","616-UM","2018/07/27 15:09:41","新北市新店區玫瑰路4-1號","121.493603333333","24.9514","6500600","新店區"
"231006","618-UM","2018/07/27 15:09:43","新北市新店區新坡一街18巷3弄2號","121.549785","24.9614466666667","6500600","新店區"
"231030","619-UM","2018/07/27 15:09:56","新北市新店區安民街341-1號","121.516768333333","24.9750966666667","6500600","新店區"
"231039","718-UY","2018/07/27 15:09:51","新北市新店區寶安街2巷1號","121.542365","24.9807433333333","6500600","新店區"
"231035","719-UM","2018/07/27 15:09:47","新北市新店區安和路三段110巷9號","121.517518333333","24.9857366666667","6500600","新店區"
"231032","720-UM","2018/07/27 15:09:49","新北市新店區安泰路170-2號","121.488528333333","24.937315","6500600","新店區"
"231029","897-TW","2018/07/27 15:09:43","新北市新店區安康路三段740號","121.473773333333","24.942025","6500600","新店區"
"231004","899-TW","2018/07/27 15:09:39","新北市新店區建國路25號","121.540183333333","24.9740183333333","6500600","新店區"
"231024","AKT-0513","2018/07/27 15:09:40","新北市新店區北新路一段303號","121.541386666667","24.9675733333333","6500600","新店區"
"235030","003-UY","2018/07/27 15:09:48","新北市中和區水源路111號","121.507778333333","25.003195","6500300","中和區"
"235003","097-UM","2018/07/27 15:09:52","新北市中和區安平路17號","121.509183333333","24.99424","6500300","中和區"
"235007","352-BY","2018/07/27 15:09:43","新北市中和區興南路二段159巷1號","121.505316666667","24.9834133333333","6500300","中和區"
"235014","4979-A6","2018/07/27 15:09:47","新北市中和區景新街274巷8號","121.51063","24.992305","6500300","中和區"
"235033","4980-A6","2018/07/27 15:09:38","新北市中和區景新街64巷7弄11號","121.504481666667","24.998675","6500300","中和區"
"235006","551-UM","2018/07/27 15:09:45","新北市樹林區中華路2-1號","121.425481666667","24.9843766666667","6500300","中和區"
"235018","640-BX","2018/07/27 15:09:56","新北市中和區民享街84號","121.474431666667","25.0011","6500300","中和區"
"235035","783-BX","2018/07/27 15:09:51","新北市中和區中正路910-2號","121.483496666667","25.0071866666667","6500300","中和區"
"235012","896-TW","2018/07/27 15:09:44","新北市中和區興南路一段143號","121.508583333333","24.9874966666667","6500300","中和區"
"235015","157-BY","2018/07/27 15:09:50","新北市土城區和平路81號","121.444998333333","24.971545","6500300","中和區"
"235023","AAC-215","2018/07/27 15:09:41","新北市中和區圓通路367巷13弄39號","121.493475","24.9879183333333","6500300","中和區"
"220017","AAD-861","2018/07/27 15:09:41","新北市板橋區南雅南路二段11-29號","121.45371","25.0014666666667","6500100","板橋區"
"227003","400-TW","2018/07/27 15:09:46","新北市雙溪區三貂里政光路3-1號","121.850808333333","25.063055","6502500","雙溪區"
"207002","749-BX","2018/07/27 15:09:24","新北市萬里區崁腳里內中福路97號","121.653718333333","25.16394","6502800","萬里區"
"207001","662-BX","2018/07/27 15:09:25","新北市萬里區雙興里麗水路8-1號","121.649933333333","25.1873083333333","6502800","萬里區"
"236040","107-UM","2018/07/27 15:09:51","新北市土城區裕民路259巷7號","121.455386666667","24.9831633333333","6501300","土城區"
"236077","166-UM","2018/07/27 15:09:54","新北市土城區中州路52巷2弄14號","121.412846666667","24.95795","6501300","土城區"
"236029","253-BX","2018/07/27 15:09:54","新北市土城區福祥街99號","121.441358333333","24.9815133333333","6501300","土城區"
"236024","269-VK","2018/07/27 15:09:51","新北市土城區中央路二段179號","121.442275","24.9760783333333","6501300","土城區"
"236013","270-VK","2018/07/27 15:09:39","新北市土城區學府路一段37巷30號","121.457305","24.987665","6501300","土城區"
"236032","271-VK","2018/07/27 15:09:54","新北市土城區國際路127-7號","121.467833333333","24.9758866666667","6501300","土城區"
"236067","KEA-2877","2018/07/27 15:09:53","新北市土城區學成路106號","121.449848333333","24.98922","6501300","土城區"
"236016","401-BY","2018/07/27 15:09:52","新北市土城區延峰街5號","121.468698333333","24.9867383333333","6501300","土城區"
"236057","912-UM","2018/07/27 15:09:48","新北市土城區明德路一段385-1號","121.452633333333","24.98018","6501300","土城區"
"236045","913-UM","2018/07/27 15:09:42","新北市土城區清水路211號","121.46054","24.9819616666667","6501300","土城區"
"236060","915-UM","2018/07/27 15:09:39","新北市土城區延平街36號","121.46813","24.9919233333333","6501300","土城區"
"236054","AAC-216","2018/07/27 15:09:55","新北市土城區學府路一段239號","121.450401666667","24.98338","6501300","土城區"
"220050","245-BX","2018/07/27 15:09:54","新北市板橋區雙十路二段47巷52號","121.474861666667","25.02538","6500100","板橋區"
"220031","286-VK","2018/07/27 15:09:52","新北市板橋區僑中二街102巷38號","121.444643333333","25.0085033333333","6500100","板橋區"
"220029","287-VK","2018/07/27 15:09:45","新北市板橋區僑中一街2號","121.449381666667","25.011135","6500100","板橋區"
"220051","295-UM","2018/07/27 15:09:45","新北市板橋區民治街135號","121.47772","25.0306816666667","6500100","板橋區"
"220041","307-R5","2018/07/27 15:09:44","新北市板橋區民權路172巷5號","121.460046666667","25.0135766666667","6500100","板橋區"
"220012","486-VK","2018/07/27 15:09:50","新北市板橋區中山路一段206巷131號","121.47277","25.0131983333333","6500100","板橋區"
"220052","561-BX","2018/07/27 15:09:43","新北市板橋區陽明街279巷18號","121.461213333333","25.0257766666667","6500100","板橋區"
"220011","609-BX","2018/07/27 15:09:54","新北市板橋區中山路二段258號","121.478906666667","25.0183233333333","6500100","板橋區"
"220025","687-BX","2018/07/27 15:09:56","新北市板橋區板城路319號","121.451721666667","25.0011233333333","6500100","板橋區"
"220042","689-BX","2018/07/27 15:09:37","新北市板橋區文化路二段656號","121.479863333333","25.035695","6500100","板橋區"
"220018","806-UM","2018/07/27 15:09:52","新北市板橋區四川路二段245巷55弄1號","121.452365","24.9924966666667","6500100","板橋區"
"220014","829-TW","2018/07/27 15:09:36","新北市板橋區中山路二段26號","121.472623333333","25.0151083333333","6500100","板橋區"
"220016","830-TW","2018/07/27 15:09:38","新北市板橋區光復街230號","121.484863333333","25.0213516666667","6500100","板橋區"
"220038","833-TW","2018/07/27 15:09:55","新北市板橋區互助街82號","121.460546666667","25.0263966666667","6500100","板橋區"
"220046","AAC-210","2018/07/27 15:09:56","新北市板橋區公館街96號","121.461351666667","25.0166966666667","6500100","板橋區"
"235032","KEA-2873","2018/07/27 15:09:39","新北市中和區連城路174號","121.493255","24.9970033333333","6500300","中和區"
