"lineid","car","time","location","longitude","latitude","cityid","cityname"
"234070","149-BY","2018/07/27 15:19:56","新北市板橋區民治街71巷40號","121.48171","25.0326666666667","6500400","永和區"
"231002","002-UM","2018/07/27 15:19:52","台北市文山區景文街146巷36號","121.532435","24.9909966666667","6500600","新店區"
"231028","046-UY","2018/07/27 15:19:49","新北市新店區僑信路108巷42號","121.498995","24.94658","6500600","新店區"
"231001","047-UY","2018/07/27 15:19:36","新北市新店區北新路一段239號","121.540758333333","24.9658166666667","6500600","新店區"
"231005","106-UY","2018/07/27 15:19:55","新北市新店區建國路241號","121.537508333333","24.98224","6500600","新店區"
"231022","108-UY","2018/07/27 15:19:47","新北市新店區永福路38-6號","121.551278333333","24.9294883333333","6500600","新店區"
"231036","110-UY","2018/07/27 15:19:51","新北市新店區安祥路69巷17號","121.481863333333","24.96135","6500600","新店區"
"231012","187-VK","2018/07/27 15:19:40","新北市新店區寶慶街84號","121.541298333333","24.986805","6500600","新店區"
"231023","KEA-2219","2018/07/27 15:19:43","新北市新店區行政街45號","121.54308","24.9656366666667","6500600","新店區"
"231026","256-BX","2018/07/27 15:19:42","新北市新店區中正路263-1號","121.538561666667","24.9736566666667","6500600","新店區"
"231003","268-BY","2018/07/27 15:19:39","新北市新店區寶橋路192號","121.550571666667","24.978315","6500600","新店區"
"231018","278-BY","2018/07/27 15:19:52","新北市新店區中央八街74號","121.527613333333","24.977005","6500600","新店區"
"231016","AAD-862","2018/07/27 15:19:52","新北市新店區明山路45號","121.563825","24.9559083333333","6500600","新店區"
"231038","3712-VJ","2018/07/27 15:19:50","新北市新店區安華路28-1號","121.519821666667","24.9608466666667","6500600","新店區"
"231037","4716-K9","2018/07/27 15:19:50","新北市新店區安民街341-1號","121.516658333333","24.975","6500600","新店區"
"231025","4715-K9","2018/07/27 15:19:52","新北市新店區環河路105-13號","121.53184","24.9700116666667","6500600","新店區"
"231034","616-UM","2018/07/27 15:19:41","新北市新店區如意街5巷2號","121.495415","24.9489316666667","6500600","新店區"
"231006","618-UM","2018/07/27 15:19:43","新北市新店區北新路一段217號","121.540513333333","24.9652083333333","6500600","新店區"
"231030","619-UM","2018/07/27 15:19:56","新北市新店區安民街341-1號","121.51682","24.9750516666667","6500600","新店區"
"231039","718-UY","2018/07/27 15:19:51","新北市新店區寶元路一段65號","121.542285","24.9857966666667","6500600","新店區"
"231035","719-UM","2018/07/27 15:19:47","新北市新店區安和路三段37號","121.517683333333","24.9816833333333","6500600","新店區"
"231032","720-UM","2018/07/27 15:19:49","新北市新店區雙城路4巷1號","121.491333333333","24.9509183333333","6500600","新店區"
"231029","897-TW","2018/07/27 15:19:43","新北市新店區安康路三段549號","121.476641666667","24.9444766666667","6500600","新店區"
"231004","899-TW","2018/07/27 15:19:39","新北市新店區博愛街13巷24號","121.540236666667","24.9740266666667","6500600","新店區"
"231024","AKT-0513","2018/07/27 15:19:40","新北市新店區安康路一段152號","121.526326666667","24.9629883333333","6500600","新店區"
"241028","022-UY","2018/07/27 15:19:44","新北市三重區重新路四段121號","121.484685","25.05264","6500200","三重區"
"241015","062-VK","2018/07/27 15:19:36","新北市三重區重新路四段121號","121.48515","25.0526366666667","6500200","三重區"
"241014","543-UM","2018/07/27 15:19:38","新北市三重區重新路四段121號","121.48496","25.05245","6500200","三重區"
"235030","003-UY","2018/07/27 15:19:48","新北市中和區保平路326巷35號","121.506158333333","25.0048183333333","6500300","中和區"
"235014","4979-A6","2018/07/27 15:19:47","新北市中和區景平路474號","121.505378333333","24.993585","6500300","中和區"
"235033","4980-A6","2018/07/27 15:19:50","新北市中和區圓通路196號","121.496338333333","24.994435","6500300","中和區"
"235006","551-UM","2018/07/27 15:19:45","新北市樹林區民和街1號","121.385075","24.967795","6500300","中和區"
"235018","640-BX","2018/07/27 15:19:36","新北市中和區連城路270號","121.485006666667","24.99632","6500300","中和區"
"235012","896-TW","2018/07/27 15:19:44","新北市中和區景新街368號","121.512155","24.9903733333333","6500300","中和區"
"235023","AAC-215","2018/07/27 15:19:41","新北市中和區圓通路320-1號","121.48539","24.9878966666667","6500300","中和區"
"227003","400-TW","2018/07/27 15:19:46","新北市雙溪區三貂里政光路3-1號","121.850781666667","25.0630966666667","6502500","雙溪區"
"207002","749-BX","2018/07/27 15:19:44","新北市萬里區崁腳里內中福路10-1號","121.665806666667","25.163965","6502800","萬里區"
"207001","662-BX","2018/07/27 15:19:44","新北市萬里區大鵬里萬里加投14號","121.651328333333","25.2087516666667","6502800","萬里區"
"236040","107-UM","2018/07/27 15:19:44","新北市土城區學府路一段98巷17號","121.455495","24.98874","6501300","土城區"
"236077","166-UM","2018/07/27 15:19:45","新北市土城區中央路四段462號","121.410331666667","24.9508666666667","6501300","土城區"
"236029","253-BX","2018/07/27 15:19:54","新北市土城區中央路一段252-1號","121.444303333333","24.9845866666667","6501300","土城區"
"236024","269-VK","2018/07/27 15:19:51","新北市土城區員林街71巷1號","121.444408333333","24.977335","6501300","土城區"
"236013","270-VK","2018/07/27 15:19:39","新北市土城區學府路一段15-2號","121.458476666667","24.987985","6501300","土城區"
"236032","271-VK","2018/07/27 15:19:54","新北市土城區國際路57號","121.46674","24.9768866666667","6501300","土城區"
"236067","KEA-2877","2018/07/27 15:19:53","新北市土城區裕民路185巷36弄10號","121.454405","24.9843683333333","6501300","土城區"
"236016","401-BY","2018/07/27 15:19:51","新北市土城區峰廷街3號","121.469063333333","24.9873016666667","6501300","土城區"
"236057","912-UM","2018/07/27 15:19:48","新北市土城區中央路三段67號","121.438746666667","24.96931","6501300","土城區"
"236045","913-UM","2018/07/27 15:19:57","新北市土城區明德路一段84號","121.464885","24.9799383333333","6501300","土城區"
"236060","915-UM","2018/07/27 15:19:50","新北市土城區延和路146巷8號","121.467916666667","24.9896783333333","6501300","土城區"
"236054","AAC-216","2018/07/27 15:19:55","新北市土城區青雲路33號","121.460468333333","24.9883433333333","6501300","土城區"
"220050","245-BX","2018/07/27 15:19:54","新北市板橋區縣民大道三段32號","121.471521666667","25.01889","6500100","板橋區"
"220031","286-VK","2018/07/27 15:19:52","新北市板橋區僑中二街112巷13號","121.444951666667","25.0071866666667","6500100","板橋區"
"220051","295-UM","2018/07/27 15:19:45","新北市板橋區文化路一段88號","121.464465","25.0175883333333","6500100","板橋區"
"220052","561-BX","2018/07/27 15:19:44","新北市板橋區漢生東路37號","121.465471666667","25.0168133333333","6500100","板橋區"
"220042","689-BX","2018/07/27 15:19:37","新北市板橋區長江路二段2號","121.464521666667","25.0312483333333","6500100","板橋區"
"220014","829-TW","2018/07/27 15:15:18","新北市板橋區中山路二段320號","121.480893333333","25.019555","6500100","板橋區"
"220038","833-TW","2018/07/27 15:19:35","新北市板橋區四維路162號","121.464821666667","25.0259116666667","6500100","板橋區"
"235032","KEA-2873","2018/07/27 15:19:39","新北市中和區錦和路140號","121.489135","24.9975216666667","6500300","中和區"
