"lineid","car","time","location","longitude","latitude","cityid","cityname"
"234070","149-BY","2018/07/27 15:39:15","新北市永和區福和路1號","121.526341666667","25.009855","6500400","永和區"
"231028","046-UY","2018/07/27 15:39:09","新北市新店區僑信路2巷2號","121.499816666667","24.9536166666667","6500600","新店區"
"231005","106-UY","2018/07/27 15:39:23","新北市新店區中正路193號","121.540443333333","24.9723333333333","6500600","新店區"
"231046","107-UY","2018/07/27 15:39:21","新北市新店區安華路28-1號","121.519783333333","24.96104","6500600","新店區"
"231022","108-UY","2018/07/27 15:39:07","新北市新店區永福路19號","121.54965","24.929645","6500600","新店區"
"231036","110-UY","2018/07/27 15:39:11","新北市新店區安祥路35-1號","121.491843333333","24.9554816666667","6500600","新店區"
"231012","187-VK","2018/07/27 15:39:19","新北市新店區寶元路一段109號","121.54564","24.98306","6500600","新店區"
"231023","KEA-2219","2018/07/27 15:39:23","新北市新店區中興路一段283號","121.545433333333","24.9684916666667","6500600","新店區"
"231026","256-BX","2018/07/27 15:39:22","新北市新店區三民路75巷6號","121.535431666667","24.9709483333333","6500600","新店區"
"231003","268-BY","2018/07/27 15:39:20","新北市新店區中興路二段239號","121.547286666667","24.9755816666667","6500600","新店區"
"231018","278-BY","2018/07/27 15:39:12","新北市新店區溪園路39-1號","121.529943333333","24.987925","6500600","新店區"
"231016","AAD-862","2018/07/27 15:39:12","新北市新店區北宜路二段105號","121.550441666667","24.9526683333333","6500600","新店區"
"231038","3712-VJ","2018/07/27 15:39:11","新北市新店區安和路一段16號","121.517216666667","24.9651433333333","6500600","新店區"
"231037","4716-K9","2018/07/27 15:39:09","新北市新店區安民街365巷7弄3號","121.516266666667","24.975205","6500600","新店區"
"231013","513-UM","2018/07/27 15:39:13","新北市新店區永業路81巷1弄16號","121.530366666667","24.9502416666667","6500600","新店區"
"231034","616-UM","2018/07/27 15:39:21","新北市新店區玫瑰路57巷2號","121.495778333333","24.9461266666667","6500600","新店區"
"231030","619-UM","2018/07/27 15:39:16","新北市新店區新和街116巷1號","121.521263333333","24.986395","6500600","新店區"
"231039","718-UY","2018/07/27 15:39:11","新北市新店區寶元路二段60號","121.547073333333","24.9812516666667","6500600","新店區"
"231035","719-UM","2018/07/27 15:39:07","新北市新店區安興路83-3號","121.51523","24.9754666666667","6500600","新店區"
"231032","720-UM","2018/07/27 15:39:08","新北市新店區雙城路133號","121.497935","24.9388","6500600","新店區"
"231029","897-TW","2018/07/27 15:39:23","新北市新店區安康路二段317-1號","121.499278333333","24.956515","6500600","新店區"
"241011","013-R5","2018/07/27 15:39:24","新北市三重區秀江街174號","121.498045","25.071695","6500200","三重區"
"241028","022-UY","2018/07/27 15:39:24","新北市三重區成功路12號","121.489958333333","25.0501316666667","6500200","三重區"
"241008","059-VK","2018/07/27 15:39:19","新北市三重區重新路四段121號","121.485176666667","25.0522366666667","6500200","三重區"
"241022","060-VK","2018/07/27 15:39:21","新北市三重區重新路四段121號","121.484583333333","25.0525116666667","6500200","三重區"
"241015","062-VK","2018/07/27 15:39:16","新北市三重區重新路四段121號","121.485035","25.0525416666667","6500200","三重區"
"241017","063-VK","2018/07/27 15:39:24","新北市三重區大仁街20-1號","121.491621666667","25.063465","6500200","三重區"
"241026","066-VK","2018/07/27 15:39:22","新北市三重區重新路四段121號","121.484846666667","25.0524366666667","6500200","三重區"
"241019","742-BX","2018/07/27 15:39:27","新北市三重區重新路四段121號","121.484991666667","25.0522133333333","6500200","三重區"
"241016","266-UM","2018/07/27 15:39:16","新北市三重區重新路四段121號","121.485135","25.0523016666667","6500200","三重區"
"241018","268-UM","2018/07/27 15:39:20","新北市三重區重新路四段121號","121.484765","25.0526133333333","6500200","三重區"
"241013","270-UM","2018/07/27 15:39:09","新北市三重區忠孝路三段2號","121.48204","25.06774","6500200","三重區"
"241025","271-UM","2018/07/27 15:39:09","新北市三重區重新路四段121號","121.484841666667","25.0526216666667","6500200","三重區"
"241007","398-BY","2018/07/27 15:39:15","新北市三重區重新路四段121號","121.485083333333","25.052455","6500200","三重區"
"241004","475-VK","2018/07/27 15:39:10","新北市三重區重新路四段121號","121.484875","25.0524716666667","6500200","三重區"
"241020","478-VK","2018/07/27 15:39:22","新北市三重區忠孝路二段105號","121.483933333333","25.0696666666667","6500200","三重區"
"241014","543-UM","2018/07/27 15:39:18","新北市三重區重新路四段121號","121.484846666667","25.0525533333333","6500200","三重區"
"241023","545-UM","2018/07/27 15:39:22","新北市三重區重新路四段121號","121.48471","25.05254","6500200","三重區"
"241012","941-UM","2018/07/27 15:39:16","新北市三重區自強路一段66號","121.497138333333","25.0666916666667","6500200","三重區"
"241029","942-UM","2018/07/27 15:39:23","新北市三重區環河南路220-8號","121.493391666667","25.0526666666667","6500200","三重區"
"241033","AAC-255","2018/07/27 15:39:24","新北市三重區中興南街58號","121.470418333333","25.0441966666667","6500200","三重區"
"235033","4980-A6","2018/07/27 15:39:18","新北市中和區員山路375號","121.480923333333","25.0023016666667","6500300","中和區"
"235006","551-UM","2018/07/27 15:39:25","新北市土城區和平路79號","121.444695","24.970705","6500300","中和區"
"235046","733-UM","2018/07/27 15:32:52","新北市中和區員山路36巷13號","121.484186666667","24.9908266666667","6500300","中和區"
"235023","AAC-215","2018/07/27 15:39:21","新北市中和區員山路37-8號","121.482116666667","24.99003","6500300","中和區"
"227011","642-TC","2018/07/27 15:39:20","新北市雙溪區三貂里政光路3-1號","121.850786666667","25.0632683333333","6502500","雙溪區"
"227003","400-TW","2018/07/27 15:39:26","新北市雙溪區牡丹里中正路43號","121.864776666667","25.03866","6502500","雙溪區"
"236077","166-UM","2018/07/27 15:39:25","新北市土城區三民路47-1號","121.419856666667","24.964115","6501300","土城區"
"236029","253-BX","2018/07/27 15:39:13","新北市土城區學成路128巷13弄6號","121.449536666667","24.9901716666667","6501300","土城區"
"236024","269-VK","2018/07/27 15:39:11","新北市土城區中央路一段249巷8號","121.445755","24.98559","6501300","土城區"
"236013","270-VK","2018/07/27 15:39:19","新北市土城區廣明街41巷2弄22號","121.4546","24.99347","6501300","土城區"
"236067","KEA-2877","2018/07/27 15:39:13","新北市土城區中央路三段119-1號","121.434385","24.965705","6501300","土城區"
"236016","401-BY","2018/07/27 15:39:12","新北市土城區延吉街111巷12弄8號","121.47167","24.9857133333333","6501300","土城區"
"236057","912-UM","2018/07/27 15:39:07","新北市土城區中央路一段174號","121.445685","24.98662","6501300","土城區"
"236045","913-UM","2018/07/27 15:39:17","新北市土城區金城路三段257號","121.471788333333","24.9900083333333","6501300","土城區"
"236054","AAC-216","2018/07/27 15:39:15","新北市土城區學成路1號","121.453515","24.986305","6501300","土城區"
