"lineid","car","time","location","longitude","latitude","cityid","cityname"
"234070","149-BY","2018/07/27 16:29:15","新北市永和區福和路1號","121.526443333333","25.009955","6500400","永和區"
"234067","AAC-212","2018/07/27 16:17:13","新北市永和區福和路1號","121.526421666667","25.0096133333333","6500400","永和區"
"231046","107-UY","2018/07/27 16:29:21","新北市新店區灣潭路3-2號","121.538273333333","24.9508083333333","6500600","新店區"
"241011","013-R5","2018/07/27 16:29:24","新北市三重區秀江街53號","121.501016666667","25.0726","6500200","三重區"
"241028","022-UY","2018/07/27 16:29:24","新北市三重區同安街114巷18號","121.494246666667","25.05545","6500200","三重區"
"241008","059-VK","2018/07/27 16:29:19","新北市三重區力行路二段136巷45弄12號","121.479145","25.0753483333333","6500200","三重區"
"241022","060-VK","2018/07/27 16:29:21","新北市三重區過圳街98號","121.486051666667","25.062025","6500200","三重區"
"241031","061-VK","2018/07/27 16:29:26","新北市三重區重陽路一段68號","121.486621666667","25.0585166666667","6500200","三重區"
"241015","062-VK","2018/07/27 16:29:16","新北市三重區福德北路55號","121.502146666667","25.0652533333333","6500200","三重區"
"241017","063-VK","2018/07/27 16:29:24","新北市三重區重新路二段99號","121.495595","25.0618616666667","6500200","三重區"
"241024","065-VK","2018/07/27 16:29:22","新北市三重區中正北路267號","121.475205","25.0711983333333","6500200","三重區"
"241026","066-VK","2018/07/27 16:29:22","新北市三重區光興街1號","121.500315","25.0603833333333","6500200","三重區"
"241002","090-VK","2018/07/27 16:29:28","新北市三重區五華街19-1號","121.49489","25.08048","6500200","三重區"
"241003","091-VK","2018/07/27 16:29:19","新北市三重區五華街71巷114號","121.494881666667","25.084305","6500200","三重區"
"241019","742-BX","2018/07/27 16:29:13","新北市三重區重陽路三段97號","121.490353333333","25.0679616666667","6500200","三重區"
"241005","262-UM","2018/07/27 16:29:28","新北市三重區溪尾街305號","121.487545","25.083735","6500200","三重區"
"241016","266-UM","2018/07/27 16:29:16","新北市三重區自強路一段160巷2弄31號","121.494708333333","25.0658483333333","6500200","三重區"
"241009","267-UM","2018/07/27 16:29:09","新北市三重區三和路四段191巷76號","121.484315","25.0798466666667","6500200","三重區"
"241018","268-UM","2018/07/27 16:29:20","新北市三重區重陽路四段87號","121.492786666667","25.0710883333333","6500200","三重區"
"241032","269-UM","2018/07/27 16:29:15","新北市三重區三陽路100巷3弄13號","121.483005","25.0582383333333","6500200","三重區"
"241013","270-UM","2018/07/27 16:29:28","新北市三重區三和路三段101巷28號","121.495035","25.0728316666667","6500200","三重區"
"241025","271-UM","2018/07/27 16:29:09","新北市三重區中正北路560巷100弄17-1號","121.472665","25.06833","6500200","三重區"
"241007","398-BY","2018/07/27 16:29:15","新北市三重區三和路四段167巷176號","121.487915","25.0803183333333","6500200","三重區"
"241030","413-TH","2018/07/27 16:29:17","新北市三重區成功路115號","121.487693333333","25.0517716666667","6500200","三重區"
"241004","475-VK","2018/07/27 16:29:10","新北市三重區仁愛街367-2號","121.491841666667","25.08053","6500200","三重區"
"241020","478-VK","2018/07/27 16:29:18","新北市三重區車路頭街37巷10號","121.484125","25.07173","6500200","三重區"
"241014","543-UM","2018/07/27 16:29:17","新北市三重區河邊北街72-6號","121.504253333333","25.0684216666667","6500200","三重區"
"241023","545-UM","2018/07/27 16:29:22","新北市三重區忠孝路三段50巷43號","121.482843333333","25.0644383333333","6500200","三重區"
"241001","547-UM","2018/07/27 16:29:25","新北市三重區福隆路40號","121.492208333333","25.078345","6500200","三重區"
"241006","AAD-863","2018/07/27 16:29:24","新北市三重區力行路二段162巷8號","121.482411666667","25.0765166666667","6500200","三重區"
"241012","941-UM","2018/07/27 16:29:16","新北市三重區河邊北街262號","121.501656666667","25.0764633333333","6500200","三重區"
"241029","942-UM","2018/07/27 16:29:23","新北市三重區集美街126巷12號","121.48945","25.0537666666667","6500200","三重區"
"241033","AAC-255","2018/07/27 16:29:23","新北市三重區重新路五段317巷1弄1號","121.477553333333","25.0490816666667","6500200","三重區"
"235026","800-TS","2018/07/27 16:29:11","新北市中和區永和路171巷3弄14號","121.4933","25.0062433333333","6500300","中和區"
"247008","056-VK","2018/07/27 16:29:17","新北市五股區中興路三段163號","121.449093333333","25.0807933333333","6501400","蘆洲區"
"224008","285-BY","2018/07/27 16:29:26","新北市瑞芳區大寮路356-1號","121.784795","25.10325","6501200","瑞芳區"
"224007","275-VK","2018/07/27 16:29:24","新北市瑞芳區瑞竹路83號","121.764065","25.1033266666667","6501200","瑞芳區"
"224005","271-BY","2018/07/27 16:29:17","新北市瑞芳區阿美家園53號","121.820708333333","25.11726","6501200","瑞芳區"
"227011","642-TC","2018/07/27 16:29:20","新北市雙溪區三港里雙澳路37-5號","121.87276","25.0501666666667","6502500","雙溪區"
"227003","400-TW","2018/07/27 16:29:26","新北市雙溪區上林里內平林131號","121.822341666667","25.025335","6502500","雙溪區"
"251008","181-VK","2018/07/27 16:29:15","新北市淡水區民生路11號","121.46058","25.1378366666667","6501000","淡水區"
"252002","178-VK","2018/07/27 16:29:26","新北市三芝區埔坪里埔頭坑86-1號","121.507106666667","25.2547166666667","6502100","三芝區"
