"lineid","car","time","location","longitude","latitude","cityid","cityname"
"234070","149-BY","2018/07/27 17:02:20","新北市永和區福和路1號","121.526405","25.0098933333333","6500400","永和區"
"249005","172-UM","2018/07/27 17:29:12","新北市八里區荖阡坑路28-1號","121.403975","25.12971","6502300","八里區"
"249001","173-UM","2018/07/27 17:29:25","新北市八里區中華路一段1-5號","121.423248333333","25.15859","6502300","八里區"
"249002","305-UY","2018/07/27 17:29:25","新北市八里區頂寮二街121巷22號","121.44649","25.1280733333333","6502300","八里區"
"249003","593-UM","2018/07/27 17:29:18","新北市八里區中山路二段392號","121.400531666667","25.1479866666667","6502300","八里區"
"249004","759-BX","2018/07/27 17:29:23","新北市八里區民有街20號","121.416276666667","25.15697","6502300","八里區"
"244007","080-UY","2018/07/27 17:29:12","新北市林口區湖子4-3號","121.39169","25.0922283333333","6501700","林口區"
"244019","403-UM","2018/07/27 17:29:26","新北市林口區文化一路一段89-5號","121.371866666667","25.070495","6501700","林口區"
"244009","410-SL","2018/07/27 17:29:11","新北市林口區文化一路二段297號","121.385375","25.08523","6501700","林口區"
"244023","483-VK","2018/07/27 17:29:28","新北市林口區東明一街55巷23號","121.39271","25.071105","6501700","林口區"
"244017","485-VK","2018/07/27 17:29:28","新北市林口區文化一路一段120號","121.374136666667","25.0719216666667","6501700","林口區"
"244025","837-TS","2018/07/27 17:29:26","新北市林口區民族路67-1號","121.365748333333","25.075255","6501700","林口區"
"244021","838-TS","2018/07/27 17:29:24","新北市林口區東林街16號","121.39613","25.0789916666667","6501700","林口區"
"231046","107-UY","2018/07/27 17:29:21","新北市新店區直潭路92號","121.53091","24.9375816666667","6500600","新店區"
"241011","013-R5","2018/07/27 17:29:24","新北市三重區河邊北街122-1號","121.503603333333","25.0714483333333","6500200","三重區"
"241008","059-VK","2018/07/27 17:29:19","新北市三重區永福街256號","121.484365","25.0748233333333","6500200","三重區"
"241015","062-VK","2018/07/27 17:29:16","新北市三重區長元街65巷22弄20號","121.503636666667","25.0659483333333","6500200","三重區"
"241017","063-VK","2018/07/27 17:29:24","新北市三重區大同北路34巷52號","121.493536666667","25.0619166666667","6500200","三重區"
"241024","065-VK","2018/07/27 17:29:21","新北市三重區後竹圍街285號","121.478983333333","25.070065","6500200","三重區"
"241019","742-BX","2018/07/27 17:29:16","新北市三重區自強路二段50巷2號","121.48878","25.069515","6500200","三重區"
"241005","262-UM","2018/07/27 17:29:08","新北市三重區永安北路二段43巷22號","121.48305","25.0827483333333","6500200","三重區"
"241016","266-UM","2018/07/27 17:29:16","新北市三重區信義西街43號","121.495243333333","25.0639566666667","6500200","三重區"
"241018","268-UM","2018/07/27 17:29:20","新北市三重區新北大道一段7號","121.489665","25.061385","6500200","三重區"
"241032","269-UM","2018/07/27 17:29:15","新北市三重區名源街59號","121.482181666667","25.0592766666667","6500200","三重區"
"241007","398-BY","2018/07/27 17:29:15","新北市三重區三和路四段145巷184號","121.488763333333","25.0796183333333","6500200","三重區"
"241030","413-TH","2018/07/27 17:29:16","新北市三重區環河南路220-8號","121.493371666667","25.05268","6500200","三重區"
"241004","475-VK","2018/07/27 17:28:09","新北市三重區五華街74號","121.49339","25.0820133333333","6500200","三重區"
"241020","478-VK","2018/07/27 17:29:18","新北市三重區忠孝路二段9號","121.486821666667","25.0714766666667","6500200","三重區"
"241014","543-UM","2018/07/27 17:29:17","新北市三重區長壽街82號","121.501565","25.068575","6500200","三重區"
"241023","545-UM","2018/07/27 17:29:22","新北市三重區三民街146巷11號","121.481328333333","25.064465","6500200","三重區"
"241006","AAD-863","2018/07/27 17:29:24","新北市三重區車路頭街135-1號","121.484271666667","25.0761066666667","6500200","三重區"
"241012","941-UM","2018/07/27 17:29:16","新北市三重區仁興街40號","121.499018333333","25.0757516666667","6500200","三重區"
"241033","AAC-255","2018/07/27 17:29:23","新北市三重區興德路133號","121.47011","25.0529816666667","6500200","三重區"
"247010","KEA-2869","2018/07/27 17:29:21","新北市蘆洲區信義路169號","121.47978","25.08204","6501400","蘆洲區"
"247024","893-R6","2018/07/27 17:29:21","新北市蘆洲區長興路296-8號","121.46056","25.090265","6501400","蘆洲區"
"247014","546-UM","2018/07/27 17:29:24","新北市蘆洲區復興路48號","121.472766666667","25.0854616666667","6501400","蘆洲區"
"247022","500-BY","2018/07/27 17:29:13","新北市蘆洲區三民路202號","121.469206666667","25.0889433333333","6501400","蘆洲區"
"247012","339-TH","2018/07/27 17:29:27","新北市蘆洲區民族路42號","121.476643333333","25.08437","6501400","蘆洲區"
"247004","337-TH","2018/07/27 17:29:19","新北市蘆洲區中原路38號","121.459691666667","25.0826866666667","6501400","蘆洲區"
"247006","336-TH","2018/07/27 17:29:14","新北市蘆洲區長安街22巷42號","121.465125","25.0803083333333","6501400","蘆洲區"
"247018","057-VK","2018/07/27 17:29:20","新北市蘆洲區民義街22巷7號","121.47162","25.08833","6501400","蘆洲區"
"247008","056-VK","2018/07/27 17:29:18","新北市蘆洲區民生街109號","121.473346666667","25.0785516666667","6501400","蘆洲區"
"247016","007-UY","2018/07/27 17:29:13","新北市蘆洲區光華路22巷57號","121.467945","25.0851633333333","6501400","蘆洲區"
"247002","002-UY","2018/07/27 17:29:25","新北市蘆洲區永樂街38巷57弄2號","121.458446666667","25.0903233333333","6501400","蘆洲區"
"247020","001-UY","2018/07/27 17:29:21","新北市蘆洲區水湳街389號","121.469921666667","25.0938683333333","6501400","蘆洲區"
"228001","212-TW","2018/07/27 17:29:24","新北市貢寮區仁理村仁愛路56號","121.925436666667","25.0533116666667","6502600","貢寮區"
"228002","663-BX","2018/07/27 17:29:12","新北市貢寮區雙玉里田寮洋街35號","121.92846","25.0172","6502600","貢寮區"
"228003","828-UM","2018/07/27 17:29:11","新北市貢寮區仁理村仁和路1號","121.923495","25.0483","6502600","貢寮區"
"224010","AGQ-8101","2018/07/27 17:28:23","新北市瑞芳區明燈路二段2巷14號","121.81449","25.10886","6501200","瑞芳區"
"224006","676-BX","2018/07/27 17:29:18","新北市瑞芳區靜安路四段63-1號","121.793358333333","25.10868","6501200","瑞芳區"
"224008","285-BY","2018/07/27 17:29:26","新北市瑞芳區九芎橋路48號","121.832823333333","25.0927766666667","6501200","瑞芳區"
"224009","273-VK","2018/07/27 17:29:29","新北市瑞芳區金光路374號","121.849233333333","25.1113533333333","6501200","瑞芳區"
"224005","271-BY","2018/07/27 17:29:17","新北市瑞芳區籠山路214-1號","121.85082","25.1257833333333","6501200","瑞芳區"
"227011","642-TC","2018/07/27 17:29:20","新北市雙溪區三貂里定福路1-2號","121.850743333333","25.0634016666667","6502500","雙溪區"
"227003","400-TW","2018/07/27 17:29:26","新北市雙溪區平林里外平林72號","121.845826666667","25.0313466666667","6502500","雙溪區"
"251004","009-UM","2018/07/27 17:18:26","新北市淡水區中正東路二段88巷15號","121.459155","25.15059","6501000","淡水區"
"251005","010-UM","2018/07/27 17:29:23","新北市淡水區鄧公路31巷17號","121.452013333333","25.170675","6501000","淡水區"
"251002","012-UM","2018/07/27 17:29:26","新北市淡水區中正路437號","121.431976666667","25.1747633333333","6501000","淡水區"
"251008","181-VK","2018/07/27 17:29:15","新北市淡水區大同路124巷1號","121.46339","25.1405033333333","6501000","淡水區"
"251010","413-VK","2018/07/27 17:29:18","新北市淡水區中正路二段211號","121.42619","25.189085","6501000","淡水區"
"251012","441-VK","2018/07/27 17:29:10","新北市淡水區北新路111號","121.448171666667","25.1785933333333","6501000","淡水區"
"251007","442-VK","2018/07/27 17:29:12","新北市淡水區民生路47-4號","121.462086666667","25.1380883333333","6501000","淡水區"
"251006","561-UM","2018/07/27 17:29:08","新北市淡水區大勇街1號","121.441813333333","25.17474","6501000","淡水區"
"251009","575-R6","2018/07/27 17:29:20","新北市淡水區三民街14號","121.439","25.1716","6501000","淡水區"
"251011","650-BX","2018/07/27 17:29:11","新北市淡水區坪頂路712號","121.482553333333","25.158565","6501000","淡水區"
"251003","673-BX","2018/07/27 17:29:12","新北市淡水區中正路235號","121.435185","25.173515","6501000","淡水區"
"207003","550-UM","2018/07/27 17:29:21","新北市萬里區龜吼里翡翠路17號","121.683361666667","25.1872566666667","6502800","萬里區"
"207004","225-TW","2018/07/27 17:29:27","新北市萬里區萬里里景美路11-2號","121.685468333333","25.172875","6502800","萬里區"
"252002","178-VK","2018/07/27 17:29:26","新北市三芝區忠孝街1-14號","121.505553333333","25.2539466666667","6502100","三芝區"
"252001","292-VK","2018/07/27 17:29:18","新北市三芝區長安街119號","121.498063333333","25.259645","6502100","三芝區"
"237015","649-BX","2018/07/27 17:29:16","新北市三峽區中山路321-2號","121.360861666667","24.9380283333333","6500900","三峽區"
"236079","166-UM","2018/07/27 17:29:30","新北市土城區城林路6巷80號","121.43853","24.9795833333333","6501300","土城區"
"242034","AAC-296","2018/07/27 17:29:12","新北市新莊區環漢路二段8號","121.449888333333","25.0321933333333","6500500","新莊區"
"242058","986-R7","2018/07/27 17:29:19","新北市新莊區中正路530號","121.43096","25.031605","6500500","新莊區"
"242054","751-BX","2018/07/27 17:29:22","新北市新莊區環河路658-8號","121.436191666667","25.0075533333333","6500500","新莊區"
"242027","705-TV","2018/07/27 17:29:11","新北市新莊區思源路32號","121.460201666667","25.040635","6500500","新莊區"
"242025","613-BX","2018/07/27 17:29:27","新北市新莊區復興路二段39號","121.454458333333","25.0441733333333","6500500","新莊區"
"242029","612-BX","2018/07/27 17:29:26","新北市新莊區復興路二段198號","121.459361666667","25.044355","6500500","新莊區"
"242041","566-BX","2018/07/27 17:29:20","新北市新莊區新樹路113巷21號","121.439381666667","25.0263883333333","6500500","新莊區"
"242046","497-BY","2018/07/27 17:29:23","新北市新莊區新樹路65-5號","121.439421666667","25.0308516666667","6500500","新莊區"
"242050","441-UM","2018/07/27 17:29:28","新北市新莊區新樹路268巷39弄8號","121.431153333333","25.0160866666667","6500500","新莊區"
"242056","440-UM","2018/07/27 17:29:28","新北市新莊區新泰路26號","121.449571666667","25.03387","6500500","新莊區"
"242007","413-TV","2018/07/27 17:29:22","新北市新莊區自強街39號","121.454685","25.0466683333333","6500500","新莊區"
"242044","400-BY","2018/07/27 17:29:19","新北市新莊區裕民街1號","121.419515","25.0260466666667","6500500","新莊區"
"242023","362-BY","2018/07/27 17:29:27","新北市新莊區公園路150號","121.453178333333","25.040045","6500500","新莊區"
"242060","353-BY","2018/07/27 17:28:49","新北市新莊區瓊林路172-2號","121.440693333333","25.0227116666667","6500500","新莊區"
"242009","132-UY","2018/07/27 17:29:17","新北市新莊區中原路185號","121.453103333333","25.05423","6500500","新莊區"
"242039","133-UY","2018/07/27 17:29:24","新北市新莊區民安東路43巷2弄1號","121.429296666667","25.02108","6500500","新莊區"
"242032","135-UY","2018/07/27 17:29:16","新北市新莊區新泰路401巷29號","121.442523333333","25.0439866666667","6500500","新莊區"
"242048","172-VK","2018/07/27 17:29:26","新北市新莊區龍安路256號","121.421368333333","25.0195133333333","6500500","新莊區"
"242017","175-VK","2018/07/27 17:29:25","新北市新莊區復興路一段189號","121.45177","25.04352","6500500","新莊區"
"242005","176-VK","2018/07/27 17:29:26","新北市新莊區中港路288巷16號","121.453463333333","25.0446066666667","6500500","新莊區"
"242015","347-TH","2018/07/27 17:29:11","新北市新莊區新泰路195號","121.447171666667","25.0379216666667","6500500","新莊區"
"242021","348-TH","2018/07/27 17:29:17","新北市新莊區中華路一段8號","121.451938333333","25.0368616666667","6500500","新莊區"
"242002","349-TH","2018/07/27 17:29:17","新北市新莊區新莊路237號","121.454766666667","25.0351","6500500","新莊區"
"242019","350-TH","2018/07/27 17:29:12","新北市新莊區中港路五守新村23巷2號","121.454986666667","25.0383666666667","6500500","新莊區"
"242013","351-TH","2018/07/27 17:29:22","新北市新莊區中誠街14號","121.451991666667","25.0482416666667","6500500","新莊區"
"238015","755-BX","2018/07/27 17:29:10","新北市樹林區大安路267號","121.419013333333","24.9937933333333","6500700","樹林區"
"238023","601-UM","2018/07/27 17:29:27","新北市樹林區三福街4號","121.40904","25.01692","6500700","樹林區"
"238019","599-UM","2018/07/27 17:29:13","新北市樹林區太平路33號","121.41924","24.983145","6500700","樹林區"
"238018","571-TV","2018/07/27 17:29:28","新北市樹林區鎮前街143號","121.424201666667","24.9888933333333","6500700","樹林區"
"238024","5061-A6","2018/07/27 17:29:22","新北市樹林區鎮前街45號","121.425258333333","24.9916716666667","6500700","樹林區"
"238021","KEA-2539","2018/07/27 17:29:26","新北市樹林區西圳街一段203巷25-3號","121.394381666667","24.958785","6500700","樹林區"
"238025","303-VK","2018/07/27 17:29:23","新北市樹林區保安街一段204號","121.421201666667","24.9958566666667","6500700","樹林區"
"238017","283-BY","2018/07/27 17:29:25","新北市樹林區中正路246號","121.417968333333","25.0075533333333","6500700","樹林區"
"238014","282-BY","2018/07/27 17:29:15","新北市樹林區保安街一段294巷18號","121.420256666667","24.9986933333333","6500700","樹林區"
"238026","172-UY","2018/07/27 17:29:02","新北市樹林區新興街7號","121.400293333333","24.9737","6500700","樹林區"
"238016","169-UY","2018/07/27 17:29:22","新北市樹林區長壽街4號","121.423786666667","24.99333","6500700","樹林區"
"239007","AAC-297","2018/07/27 17:29:16","新北市鶯歌區國華路2號","121.34287","24.956595","6500800","鶯歌區"
"239006","891-R6","2018/07/27 17:29:10","新北市鶯歌區鶯桃路472巷26號","121.333301666667","24.9658783333333","6500800","鶯歌區"
"239008","527-UM","2018/07/27 17:29:20","新北市鶯歌區大湖路584號","121.33604","24.9736883333333","6500800","鶯歌區"
"239005","526-UM","2018/07/27 17:29:13","新北市鶯歌區鶯桃路二段9號","121.326003333333","24.97205","6500800","鶯歌區"
"239001","417-VK","2018/07/27 17:29:15","新北市鶯歌區高職西街81號","121.335938333333","24.9417","6500800","鶯歌區"
"239003","360-BY","2018/07/27 17:29:18","新北市鶯歌區鶯桃路297-1號","121.334555","24.96041","6500800","鶯歌區"
"239002","359-BY","2018/07/27 17:29:29","新北市鶯歌區國慶街58號","121.349745","24.955065","6500800","鶯歌區"
"239004","193-VK","2018/07/27 17:29:21","新北市鶯歌區三鶯路9號","121.35647","24.9412166666667","6500800","鶯歌區"
"221008","489-VK","2018/07/27 17:29:17","新北市汐止區康寧街901號","121.651423333333","25.0750866666667","6501100","汐止區"
"221010","269-BY","2018/07/27 17:29:26","新北市汐止區汐萬路一段256巷3號","121.652123333333","25.074765","6501100","汐止區"
"221033","297-VK","2018/07/27 17:29:11","新北市汐止區大同路二段273號","121.652341666667","25.0674633333333","6501100","汐止區"
"242037","280-VK","2018/07/27 17:29:19","新北市新莊區建國一路288巷28號","121.434456666667","25.02538","6500500","新莊區"
"235061","KEA-2875","2018/07/27 17:17:11","新北市中和區員山路36巷16-2號","121.485291666667","24.9916733333333","6500300","中和區"
