"lineid","car","time","location","longitude","latitude","cityid","cityname"
"234026","9371-KE","2018/07/27 17:39:30","新北市永和區豫溪街185號","121.522483333333","25.0103533333333","6500400","永和區"
"234011","9373-KE","2018/07/27 17:37:31","新北市永和區福和路1號","121.525695","25.0095583333333","6500400","永和區"
"249005","172-UM","2018/07/27 17:39:11","新北市八里區荖阡坑路34-1號","121.402793333333","25.129855","6502300","八里區"
"249001","173-UM","2018/07/27 17:39:25","新北市八里區龍米路二段150號","121.435926666667","25.1565766666667","6502300","八里區"
"249002","305-UY","2018/07/27 17:39:25","新北市八里區龍形三街2號","121.450528333333","25.1319883333333","6502300","八里區"
"249003","593-UM","2018/07/27 17:39:18","新北市八里區中山路二段270號","121.4051","25.1511733333333","6502300","八里區"
"249004","759-BX","2018/07/27 17:39:23","新北市八里區民享街15號","121.413731666667","25.1578233333333","6502300","八里區"
"232011","375-UM","2018/07/27 17:39:15","新北市坪林區北宜路八段349號","121.710218333333","24.93344","6502000","坪林區"
"244007","080-UY","2018/07/27 17:39:12","新北市林口區中華路9號","121.386903333333","25.08899","6501700","林口區"
"244019","403-UM","2018/07/27 17:39:26","新北市林口區忠孝路528號","121.372053333333","25.0687416666667","6501700","林口區"
"244009","410-SL","2018/07/27 17:39:11","新北市林口區民享路226號","121.382935","25.084865","6501700","林口區"
"244023","483-VK","2018/07/27 17:39:08","新北市林口區興林路318巷7號","121.38874","25.0708516666667","6501700","林口區"
"244017","485-VK","2018/07/27 17:39:07","新北市林口區忠孝路371-1號","121.369111666667","25.0717666666667","6501700","林口區"
"244025","837-TS","2018/07/27 17:39:26","新北市林口區文化二路一段289-5號","121.367423333333","25.07184","6501700","林口區"
"244021","838-TS","2018/07/27 17:39:24","新北市林口區仁愛路一段223號","121.397878333333","25.075015","6501700","林口區"
"222003","436-BY","2018/07/27 17:39:17","新北市深坑區深南路31號","121.620011666667","25.0097583333333","6501800","深坑區"
"222002","659-BX","2018/07/27 17:39:16","新北市深坑區北深路二段120號","121.616436666667","25.00314","6501800","深坑區"
"231046","107-UY","2018/07/27 17:39:21","新北市新店區直潭路92號","121.53092","24.9375833333333","6500600","新店區"
"241024","065-VK","2018/07/27 17:39:21","新北市三重區力行路二段2號","121.48194","25.071925","6500200","三重區"
"241019","742-BX","2018/07/27 17:39:13","新北市三重區六張街219號","121.488228333333","25.0686283333333","6500200","三重區"
"241005","262-UM","2018/07/27 17:39:28","新北市三重區永安北路二段5巷40號","121.483038333333","25.081355","6500200","三重區"
"241016","266-UM","2018/07/27 17:39:16","新北市三重區重新路二段58號","121.498025","25.0622","6500200","三重區"
"241007","398-BY","2018/07/27 17:39:15","新北市三重區力行路二段151號","121.483541666667","25.077595","6500200","三重區"
"241004","475-VK","2018/07/27 17:28:09","新北市三重區五華街74號","121.49339","25.0820133333333","6500200","三重區"
"241014","543-UM","2018/07/27 17:39:17","新北市三重區龍濱路126號","121.501751666667","25.0715083333333","6500200","三重區"
"241023","545-UM","2018/07/27 17:39:22","新北市三重區中華路109號","121.483668333333","25.0634133333333","6500200","三重區"
"241006","AAD-863","2018/07/27 17:39:24","新北市三重區車路頭街135-1號","121.484258333333","25.0761766666667","6500200","三重區"
"241012","941-UM","2018/07/27 17:39:16","新北市三重區龍濱路204號","121.500723333333","25.0735466666667","6500200","三重區"
"241033","AAC-255","2018/07/27 17:39:23","新北市三重區光復路一段60號","121.472023333333","25.048735","6500200","三重區"
"247010","KEA-2869","2018/07/27 17:39:21","新北市蘆洲區中山一路100號","121.478038333333","25.08134","6501400","蘆洲區"
"247024","893-R6","2018/07/27 17:39:21","新北市蘆洲區長樂路125-1號","121.462163333333","25.08809","6501400","蘆洲區"
"247014","546-UM","2018/07/27 17:39:24","新北市蘆洲區中山二路123號","121.472121666667","25.0816366666667","6501400","蘆洲區"
"247022","500-BY","2018/07/27 17:39:23","新北市蘆洲區民族路546號","121.467856666667","25.0890783333333","6501400","蘆洲區"
"247012","339-TH","2018/07/27 17:39:07","新北市蘆洲區民權路3巷14弄15號","121.475398333333","25.0858133333333","6501400","蘆洲區"
"247004","337-TH","2018/07/27 17:39:19","新北市蘆洲區長安街249巷40號","121.457773333333","25.0826166666667","6501400","蘆洲區"
"247006","336-TH","2018/07/27 17:39:14","新北市蘆洲區長安街23巷15號","121.463603333333","25.0786333333333","6501400","蘆洲區"
"247018","057-VK","2018/07/27 17:39:20","新北市蘆洲區民權路61巷4弄2號","121.473455","25.0879316666667","6501400","蘆洲區"
"247008","056-VK","2018/07/27 17:39:17","新北市蘆洲區和平路19巷4號","121.472218333333","25.0789233333333","6501400","蘆洲區"
"247016","007-UY","2018/07/27 17:39:13","新北市蘆洲區光華路110巷2號","121.46725","25.0828083333333","6501400","蘆洲區"
"247002","002-UY","2018/07/27 17:39:13","新北市蘆洲區永平街60號","121.457556666667","25.0916133333333","6501400","蘆洲區"
"247020","001-UY","2018/07/27 17:39:21","新北市蘆洲區民族路446-2號","121.472735","25.0919916666667","6501400","蘆洲區"
"228002","663-BX","2018/07/27 17:39:12","新北市貢寮區福隆里龜壽谷街27號","121.951898333333","25.013135","6502600","貢寮區"
"228003","828-UM","2018/07/27 17:39:11","新北市貢寮區仁理村仁和路268號","121.924218333333","25.0543866666667","6502600","貢寮區"
"224010","AGQ-8101","2018/07/27 17:38:43","新北市瑞芳區逢甲路198號","121.807051666667","25.11015","6501200","瑞芳區"
"224006","676-BX","2018/07/27 17:39:18","新北市瑞芳區傑魚坑路12-1號","121.794668333333","25.1105283333333","6501200","瑞芳區"
"224008","285-BY","2018/07/27 17:39:26","新北市瑞芳區明燈路一段15號","121.824928333333","25.10661","6501200","瑞芳區"
"224009","273-VK","2018/07/27 17:39:09","新北市瑞芳區崙頂路1-5號","121.84671","25.1065916666667","6501200","瑞芳區"
"224005","271-BY","2018/07/27 17:39:17","新北市瑞芳區海濱路8-6號","121.831676666667","25.1261583333333","6501200","瑞芳區"
"227011","642-TC","2018/07/27 17:39:20","新北市雙溪區三貂里定福路1-2號","121.850748333333","25.063405","6502500","雙溪區"
"251004","009-UM","2018/07/27 17:39:15","新北市淡水區中正東路二段88巷39號","121.459493333333","25.1428616666667","6501000","淡水區"
"251005","010-UM","2018/07/27 17:39:23","新北市淡水區鄧公路33巷11號","121.451896666667","25.1710083333333","6501000","淡水區"
"251001","011-UM","2018/07/27 17:39:20","新北市淡水區民權路92巷35-1號","121.46226","25.126575","6501000","淡水區"
"251002","012-UM","2018/07/27 17:39:26","新北市淡水區中山路151號","121.44057","25.17235","6501000","淡水區"
"251008","181-VK","2018/07/27 17:39:15","新北市淡水區八勢路一段48號","121.466006666667","25.15499","6501000","淡水區"
"251010","413-VK","2018/07/27 17:39:21","新北市淡水區淡海路292號","121.419043333333","25.1889","6501000","淡水區"
"251012","441-VK","2018/07/27 17:39:10","新北市淡水區北新路200巷8號","121.451745","25.1797316666667","6501000","淡水區"
"251007","442-VK","2018/07/27 17:39:12","新北市淡水區民生路124巷2號","121.463878333333","25.1381316666667","6501000","淡水區"
"251006","561-UM","2018/07/27 17:39:28","新北市淡水區大信街21號","121.441921666667","25.176895","6501000","淡水區"
"251009","575-R6","2018/07/27 17:39:20","新北市淡水區中正路28號","121.444163333333","25.1691733333333","6501000","淡水區"
"251011","650-BX","2018/07/27 17:39:11","新北市淡水區小坪頂12-2號","121.486991666667","25.1558216666667","6501000","淡水區"
"251003","673-BX","2018/07/27 17:39:12","新北市淡水區中山北路一段64號","121.441958333333","25.1757116666667","6501000","淡水區"
"207003","550-UM","2018/07/27 17:39:21","新北市萬里區龜吼里漁澳路85-2號","121.68836","25.196435","6502800","萬里區"
"207004","225-TW","2018/07/27 17:39:27","新北市萬里區中幅里中福路8-1號","121.685963333333","25.1647483333333","6502800","萬里區"
"252002","178-VK","2018/07/27 17:39:26","新北市三芝區智成街83號","121.50504","25.255725","6502100","三芝區"
"252001","292-VK","2018/07/27 17:39:18","新北市三芝區淡金路一段83號","121.502061666667","25.258835","6502100","三芝區"
"237011","KEA-2596","2018/07/27 17:39:20","新北市三峽區中山路459巷92號","121.353995","24.9358566666667","6500900","三峽區"
"237015","649-BX","2018/07/27 17:39:16","新北市三峽區中山路51-1號","121.367853333333","24.934625","6500900","三峽區"
"237010","706-TV","2018/07/27 17:39:20","新北市三峽區中山路217-1號","121.363465","24.9369116666667","6500900","三峽區"
"236042","107-UM","2018/07/27 17:39:18","新北市土城區城林路6巷80號","121.4385","24.9797633333333","6501300","土城區"
"236079","166-UM","2018/07/27 17:39:09","新北市土城區城林路6巷80號","121.438558333333","24.9795766666667","6501300","土城區"
"236014","270-VK","2018/07/27 17:39:11","新北市土城區城林路6巷80號","121.438753333333","24.979665","6501300","土城區"
"236063","915-UM","2018/07/27 17:39:19","新北市土城區城林路6巷80號","121.438543333333","24.97967","6501300","土城區"
"242034","AAC-296","2018/07/27 17:39:12","新北市新莊區新豐街56號","121.446883333333","25.033795","6500500","新莊區"
"242058","986-R7","2018/07/27 17:39:25","新北市新莊區中正路696號","121.419028333333","25.0279166666667","6500500","新莊區"
"242054","751-BX","2018/07/27 17:39:23","新北市新莊區新樹路442-1號","121.431491666667","25.0013816666667","6500500","新莊區"
"242027","705-TV","2018/07/27 17:39:11","新北市新莊區福壽街105號","121.457973333333","25.0507516666667","6500500","新莊區"
"242025","613-BX","2018/07/27 17:39:28","新北市新莊區思源路90號","121.460151666667","25.0455266666667","6500500","新莊區"
"242029","612-BX","2018/07/27 17:39:26","新北市新莊區復興路一段185號","121.451625","25.0434633333333","6500500","新莊區"
"242041","566-BX","2018/07/27 17:39:20","新北市新莊區建國一路46號","121.434068333333","25.0311916666667","6500500","新莊區"
"242046","497-BY","2018/07/27 17:39:23","新北市新莊區中正路561號","121.435013333333","25.0324033333333","6500500","新莊區"
"242050","441-UM","2018/07/27 17:39:08","新北市新莊區西盛街189號","121.428891666667","25.01721","6500500","新莊區"
"242056","440-UM","2018/07/27 17:39:08","新北市新莊區瓊林路36號","121.448518333333","25.0310966666667","6500500","新莊區"
"242007","413-TV","2018/07/27 17:39:22","新北市新莊區福樂街118巷12號","121.457438333333","25.0482133333333","6500500","新莊區"
"242044","400-BY","2018/07/27 17:39:14","新北市新莊區富國路25號","121.418701666667","25.026325","6500500","新莊區"
"242023","362-BY","2018/07/27 17:39:27","新北市新莊區公園路129-11號","121.457661666667","25.0409733333333","6500500","新莊區"
"242060","353-BY","2018/07/27 17:28:49","新北市新莊區瓊林路172-2號","121.440693333333","25.0227116666667","6500500","新莊區"
"242009","132-UY","2018/07/27 17:39:17","新北市新莊區昌明街14巷5弄2號","121.457261666667","25.05324","6500500","新莊區"
"242039","133-UY","2018/07/27 17:39:24","新北市新莊區民安路208號","121.425756666667","25.0229633333333","6500500","新莊區"
"242032","135-UY","2018/07/27 17:39:16","新北市新莊區新泰路380號","121.444071666667","25.04319","6500500","新莊區"
"242048","172-VK","2018/07/27 17:39:26","新北市新莊區萬安街155號","121.420286666667","25.0214783333333","6500500","新莊區"
"242017","175-VK","2018/07/27 17:39:25","新北市新莊區復興路一段149巷22弄3號","121.450261666667","25.0441883333333","6500500","新莊區"
"242005","176-VK","2018/07/27 17:39:13","新北市新莊區自立街200號","121.456706666667","25.04554","6500500","新莊區"
"242015","347-TH","2018/07/27 17:39:11","新北市新莊區新泰路343號","121.444725","25.0419783333333","6500500","新莊區"
"242021","348-TH","2018/07/27 17:39:22","新北市新莊區中華路一段110號","121.45238","25.0402666666667","6500500","新莊區"
"242002","349-TH","2018/07/27 17:39:28","新北市新莊區新莊路397號","121.45114","25.03371","6500500","新莊區"
"242019","350-TH","2018/07/27 17:39:12","新北市新莊區中港路201號","121.45488","25.0418966666667","6500500","新莊區"
"242013","351-TH","2018/07/27 17:39:22","新北市新莊區中誠街119號","121.449471666667","25.0476133333333","6500500","新莊區"
"238015","755-BX","2018/07/27 17:39:30","新北市樹林區啟智街40號","121.420603333333","24.993145","6500700","樹林區"
"238023","601-UM","2018/07/27 17:39:27","新北市樹林區三福街128號","121.405861666667","25.01629","6500700","樹林區"
"238019","599-UM","2018/07/27 17:39:13","新北市樹林區太平路80號","121.41914","24.9803133333333","6500700","樹林區"
"238018","571-TV","2018/07/27 17:39:28","新北市樹林區鎮前街42-1號","121.425948333333","24.9928966666667","6500700","樹林區"
"238024","5061-A6","2018/07/27 17:39:22","新北市樹林區環河路10號","121.427043333333","24.9781983333333","6500700","樹林區"
"238021","KEA-2539","2018/07/27 17:39:26","新北市樹林區柑園街一段253巷28號","121.396943333333","24.95317","6500700","樹林區"
"238025","303-VK","2018/07/27 17:39:23","新北市樹林區保安街二段229號","121.413096666667","25.0044116666667","6500700","樹林區"
"238017","283-BY","2018/07/27 17:39:10","新北市樹林區中正路448號","121.413185","25.0119433333333","6500700","樹林區"
"238014","282-BY","2018/07/27 17:39:15","新北市樹林區保安街一段338號","121.41798","24.9979683333333","6500700","樹林區"
"238026","172-UY","2018/07/27 17:39:22","新北市樹林區新興街21號","121.400293333333","24.9726866666667","6500700","樹林區"
"238016","169-UY","2018/07/27 17:39:22","新北市樹林區育英街160號","121.418663333333","24.9895833333333","6500700","樹林區"
"239007","AAC-297","2018/07/27 17:39:16","新北市鶯歌區鶯桃路182巷20號","121.337346666667","24.9561316666667","6500800","鶯歌區"
"239006","891-R6","2018/07/27 17:39:10","新北市鶯歌區鶯桃路436巷71號","121.33389","24.9674816666667","6500800","鶯歌區"
"239008","527-UM","2018/07/27 17:39:20","新北市鶯歌區大湖路363號","121.33104","24.9782","6500800","鶯歌區"
"239005","526-UM","2018/07/27 17:39:13","新北市鶯歌區福隆二街64號","121.324408333333","24.97146","6500800","鶯歌區"
"239001","417-VK","2018/07/27 17:39:15","新北市鶯歌區中正三路238號","121.330015","24.93668","6500800","鶯歌區"
"239003","360-BY","2018/07/27 17:39:18","新北市鶯歌區鶯桃路206巷7號","121.337488333333","24.9594","6500800","鶯歌區"
"239002","359-BY","2018/07/27 17:39:29","新北市鶯歌區育德街3-1號","121.344766666667","24.955015","6500800","鶯歌區"
"239004","193-VK","2018/07/27 17:39:21","新北市鶯歌區三鶯路5-1號","121.356505","24.94106","6500800","鶯歌區"
"221008","489-VK","2018/07/27 17:39:17","新北市汐止區康寧街901號","121.651378333333","25.075015","6501100","汐止區"
"221010","269-BY","2018/07/27 17:39:26","新北市汐止區汐萬路一段418巷6弄16號","121.65018","25.0780333333333","6501100","汐止區"
"221023","279-VK","2018/07/27 17:39:16","新北市汐止區康寧街901號","121.651788333333","25.07501","6501100","汐止區"
"221032","280-BY","2018/07/27 17:39:21","新北市汐止區康寧街901號","121.650941666667","25.0752216666667","6501100","汐止區"
"221033","297-VK","2018/07/27 17:39:11","新北市汐止區林森街132巷6弄6號","121.624573333333","25.04058","6501100","汐止區"
"221021","299-VK","2018/07/27 17:39:28","新北市汐止區康寧街901號","121.651111666667","25.0752016666667","6501100","汐止區"
"221031","353-TW","2018/07/27 17:39:19","新北市汐止區康寧街901號","121.651816666667","25.075045","6501100","汐止區"
"242037","280-VK","2018/07/27 17:39:19","新北市新莊區後港一路136號","121.429663333333","25.027385","6500500","新莊區"
"235061","KEA-2875","2018/07/27 17:17:11","新北市中和區員山路36巷16-2號","121.485291666667","24.9916733333333","6500300","中和區"
