"lineid","car","time","location","longitude","latitude","cityid","cityname"
"234042","862-TW","2018/07/27 17:59:12","新北市永和區福和路1號","121.526423333333","25.00972","6500400","永和區"
"234026","9371-KE","2018/07/27 17:59:14","新北市永和區永和路一段45號","121.51285","25.0064","6500400","永和區"
"234011","9373-KE","2018/07/27 17:37:31","新北市永和區福和路1號","121.525695","25.0095583333333","6500400","永和區"
"249005","172-UM","2018/07/27 17:58:51","新北市八里區荖阡坑路20-9號","121.398281666667","25.1370983333333","6502300","八里區"
"249001","173-UM","2018/07/27 17:59:25","新北市八里區龍米路二段35號","121.44846","25.140025","6502300","八里區"
"249002","305-UY","2018/07/27 17:59:25","新北市八里區龍米路一段259號","121.450631666667","25.13368","6502300","八里區"
"249003","593-UM","2018/07/27 17:59:18","新北市八里區中華路二段258巷3號","121.404903333333","25.1498583333333","6502300","八里區"
"249004","759-BX","2018/07/27 17:59:23","新北市八里區賢一街11號","121.421365","25.1586133333333","6502300","八里區"
"248006","077-UY","2018/07/27 17:59:28","新北市五股區中興路二段83巷26-6號","121.460013333333","25.0751916666667","6501500","五股區"
"248008","095-VK","2018/07/27 17:59:23","新北市五股區更洲路10號","121.458378333333","25.0787","6501500","五股區"
"248018","225-UY","2018/07/27 17:59:26","新北市五股區中興路二段83巷26-6號","121.459651666667","25.0752966666667","6501500","五股區"
"248004","677-BX","2018/07/27 17:59:10","新北市五股區中興路二段103巷14號","121.459078333333","25.076665","6501500","五股區"
"248002","678-BX","2018/07/27 17:59:19","新北市五股區中興路二段37巷26號","121.460351666667","25.0751133333333","6501500","五股區"
"232011","375-UM","2018/07/27 17:59:15","新北市坪林區北宜路八段229號","121.709038333333","24.9349933333333","6502000","坪林區"
"244007","080-UY","2018/07/27 17:59:12","新北市林口區竹林路269號","121.389468333333","25.0810316666667","6501700","林口區"
"244019","403-UM","2018/07/27 17:59:26","新北市林口區文化一路一段124號","121.375121666667","25.072465","6501700","林口區"
"244009","410-SL","2018/07/27 17:59:11","新北市林口區佳林路56巷6弄14號","121.385596666667","25.082275","6501700","林口區"
"244023","483-VK","2018/07/27 17:59:08","新北市林口區東湖一街103號","121.384161666667","25.0718716666667","6501700","林口區"
"244017","485-VK","2018/07/27 17:59:28","新北市林口區忠孝路500號","121.370616666667","25.070175","6501700","林口區"
"244011","657-BX","2018/07/27 17:59:09","新北市林口區中正路144號","121.392896666667","25.0773116666667","6501700","林口區"
"244025","837-TS","2018/07/27 17:59:28","新北市林口區文化三路一段37號","121.36079","25.0667466666667","6501700","林口區"
"244021","838-TS","2018/07/27 17:57:44","新北市林口區新寮43-1號","121.403053333333","25.0655266666667","6501700","林口區"
"243013","AAD-798","2018/07/27 17:58:34","新北市泰山區黎明路49號","121.421745","25.0589266666667","6501600","泰山區"
"243014","680-BX","2018/07/27 17:47:31","新北市泰山區黎明路25號","121.422008333333","25.060675","6501600","泰山區"
"222003","436-BY","2018/07/27 17:59:17","新北市深坑區炮子崙23-1號","121.60713","24.9908333333333","6501800","深坑區"
"222002","659-BX","2018/07/27 17:59:23","新北市深坑區文化街102號","121.616651666667","25.0018833333333","6501800","深坑區"
"231046","107-UY","2018/07/27 17:59:21","新北市新店區直潭路113號","121.532771666667","24.9335616666667","6500600","新店區"
"231054","KEA-2219","2018/07/27 17:59:15","新北市新店區安一路一段1-1號","121.519868333333","24.9611833333333","6500600","新店區"
"231063","616-UM","2018/07/27 17:59:16","新北市新店區安華路28-1號","121.519635","24.960535","6500600","新店區"
"231055","AKT-0513","2018/07/27 17:59:20","新北市新店區安華路28-1號","121.519645","24.9606833333333","6500600","新店區"
"241024","065-VK","2018/07/27 17:59:21","新北市三重區國道路一段39巷11號","121.483658333333","25.07293","6500200","三重區"
"241016","266-UM","2018/07/27 17:59:16","新北市三重區重新路三段94號","121.492621666667","25.06103","6500200","三重區"
"241033","AAC-255","2018/07/27 17:59:23","新北市三重區重新路五段625號","121.467811666667","25.044165","6500200","三重區"
"235066","003-UY","2018/07/27 17:59:23","新北市中和區員山路36巷16-2號","121.485263333333","24.9916516666667","6500300","中和區"
"235064","005-UY","2018/07/27 17:59:24","新北市中和區員山路36巷16-3號","121.484946666667","24.9914483333333","6500300","中和區"
"235063","006-UY","2018/07/27 17:59:25","新北市中和區員山路36巷16-3號","121.484978333333","24.9913883333333","6500300","中和區"
"235065","098-UM","2018/07/27 17:59:14","新北市中和區中山路二段478號","121.48794","25.0048333333333","6500300","中和區"
"235058","151-BY","2018/07/27 17:59:20","新北市中和區圓通路369巷2號","121.491193333333","24.9895583333333","6500300","中和區"
"235038","185-VK","2018/07/27 17:59:28","新北市中和區圓通路208號","121.49601","24.99407","6500300","中和區"
"247010","KEA-2869","2018/07/27 17:59:21","新北市蘆洲區三民路26巷2弄2號","121.476051666667","25.08264","6501400","蘆洲區"
"235042","551-UM","2018/07/27 17:59:11","新北市中和區中正路637巷60弄61號","121.485585","24.9925016666667","6500300","中和區"
"235054","640-BX","2018/07/27 17:59:19","新北市中和區連城路607號","121.47789","24.99317","6500300","中和區"
"235057","801-TS","2018/07/27 17:59:25","新北市中和區員山路36巷16-3號","121.485076666667","24.9914333333333","6500300","中和區"
"235052","805-TS","2018/07/27 17:59:19","新北市中和區中正路472號","121.489855","24.9941183333333","6500300","中和區"
"235037","AAC-213","2018/07/27 17:59:29","新北市中和區錦和路350-1號","121.49054","24.993575","6500300","中和區"
"247014","546-UM","2018/07/27 17:59:24","新北市蘆洲區忠孝路108號","121.471411666667","25.0863866666667","6501400","蘆洲區"
"247022","500-BY","2018/07/27 17:59:13","新北市蘆洲區中正路507號","121.46145","25.0971816666667","6501400","蘆洲區"
"247016","007-UY","2018/07/27 17:59:13","新北市蘆洲區中正路185巷52號","121.467056666667","25.084775","6501400","蘆洲區"
"247002","002-UY","2018/07/27 17:59:13","新北市蘆洲區永平街32巷57弄14號","121.459355","25.09319","6501400","蘆洲區"
"247020","001-UY","2018/07/27 17:59:24","新北市蘆洲區水湳街36-10號","121.471523333333","25.08966","6501400","蘆洲區"
"226004","205-ST","2018/07/27 17:59:27","新北市平溪區石底里公園街18-3號","121.733195","25.0259416666667","6502400","平溪區"
"228001","212-TW","2018/07/27 17:59:27","新北市貢寮區真理里新港街26巷51號","121.927803333333","25.0532633333333","6502600","貢寮區"
"228002","663-BX","2018/07/27 17:59:12","新北市貢寮區福隆里桂安街3-1號","121.962716666667","25.0208116666667","6502600","貢寮區"
"228003","828-UM","2018/07/27 17:59:11","新北市貢寮區真理里美艷山街6-2號","121.928781666667","25.06074","6502600","貢寮區"
"224010","AGQ-8101","2018/07/27 17:58:43","新北市瑞芳區汽車路93-1號","121.842988333333","25.1096183333333","6501200","瑞芳區"
"224006","676-BX","2018/07/27 17:59:18","新北市瑞芳區大寮路356-1號","121.785076666667","25.1033066666667","6501200","瑞芳區"
"224008","285-BY","2018/07/27 17:59:26","新北市瑞芳區明燈路一段45巷109號","121.821875","25.10365","6501200","瑞芳區"
"224009","273-VK","2018/07/27 17:59:29","新北市瑞芳區新山路145號","121.852305","25.1087133333333","6501200","瑞芳區"
"224005","271-BY","2018/07/27 17:59:17","新北市瑞芳區深澳路10-3號","121.817603333333","25.1291316666667","6501200","瑞芳區"
"227011","642-TC","2018/07/27 17:59:20","新北市雙溪區三貂里定福路1-2號","121.850745","25.0634233333333","6502500","雙溪區"
"253005","032-BX","2018/07/27 17:59:19","新北市石門區中山路64-1號","121.56752","25.290435","6502200","石門區"
"253006","295-VK","2018/07/27 17:59:29","新北市石門區大丘田45-2號","121.549781666667","25.2748583333333","6502200","石門區"
"222001","KEA-2212","2018/07/27 17:59:23","新北市深坑區北深路三段30號","121.609196666667","25.001195","6501800","深坑區"
"208002","KEA-2872","2018/07/27 17:59:13","新北市金山區三界壇路36號","121.625256666667","25.2285466666667","6502700","金山區"
"208003","665-BX","2018/07/27 17:59:17","新北市金山區磺港里磺港路317號","121.644736666667","25.227715","6502700","金山區"
"208001","761-BX","2018/07/27 17:59:12","新北市金山區磺港里磺港路248號","121.643818333333","25.225035","6502700","金山區"
"251004","009-UM","2018/07/27 17:59:15","新北市淡水區民權路187巷35號","121.461136666667","25.13367","6501000","淡水區"
"251005","010-UM","2018/07/27 17:59:23","新北市淡水區英專路127號","121.446293333333","25.1726833333333","6501000","淡水區"
"251001","011-UM","2018/07/27 17:59:20","新北市淡水區民權路94巷1號","121.46313","25.1247833333333","6501000","淡水區"
"251002","012-UM","2018/07/27 17:59:25","新北市淡水區中正東路81巷1號","121.447718333333","25.1671833333333","6501000","淡水區"
"251008","181-VK","2018/07/27 17:59:15","新北市淡水區八勢一街23號","121.461556666667","25.1563683333333","6501000","淡水區"
"251010","413-VK","2018/07/27 17:59:18","新北市淡水區中正路一段87巷1號","121.42171","25.1791466666667","6501000","淡水區"
"251012","441-VK","2018/07/27 17:59:10","新北市淡水區北新路三段38巷5號","121.484513333333","25.1870583333333","6501000","淡水區"
"251007","442-VK","2018/07/27 17:59:12","新北市淡水區中正東路二段153號","121.45989","25.146525","6501000","淡水區"
"251006","561-UM","2018/07/27 17:59:28","新北市淡水區真理街4號","121.43841","25.1729583333333","6501000","淡水區"
"251009","575-R6","2018/07/27 17:59:20","新北市淡水區大仁街6巷1號","121.442476666667","25.1746116666667","6501000","淡水區"
"251011","650-BX","2018/07/27 17:59:21","新北市淡水區三空泉6-3號","121.476978333333","25.1623316666667","6501000","淡水區"
"251003","673-BX","2018/07/27 17:59:12","新北市淡水區大忠街90號","121.44483","25.1763416666667","6501000","淡水區"
"207003","550-UM","2018/07/27 17:59:20","新北市萬里區港東路野柳風景區攤販66號","121.691305","25.2058416666667","6502800","萬里區"
"207004","225-TW","2018/07/27 17:59:27","新北市萬里區中幅里中福路48號","121.68324","25.1740433333333","6502800","萬里區"
"252002","178-VK","2018/07/27 17:59:26","新北市三芝區中山路二段35號","121.502863333333","25.2551983333333","6502100","三芝區"
"252001","292-VK","2018/07/27 17:59:18","新北市三芝區中興街一段32號","121.49795","25.2574833333333","6502100","三芝區"
"237009","210-TH","2018/07/27 17:59:27","新北市三峽區大勇路82號","121.367216666667","24.9360733333333","6500900","三峽區"
"237013","252-BX","2018/07/27 17:59:29","新北市三峽區介壽路一段187號","121.377553333333","24.930895","6500900","三峽區"
"237012","275-BY","2018/07/27 17:59:18","新北市三峽區復興路1號","121.374426666667","24.9357733333333","6500900","三峽區"
"237008","302-VK","2018/07/27 17:59:11","新北市三峽區中正路二段27號","121.366901666667","24.9192233333333","6500900","三峽區"
"237014","433-BY","2018/07/27 17:59:17","新北市三峽區復興路101巷1弄79號","121.370975","24.93766","6500900","三峽區"
"237006","5529-G3","2018/07/27 17:59:14","新北市三峽區介壽路二段136巷83-6號","121.393421666667","24.931225","6500900","三峽區"
"237011","KEA-2596","2018/07/27 17:59:20","新北市三峽區民生街119-3號","121.373671666667","24.9353033333333","6500900","三峽區"
"237015","649-BX","2018/07/27 17:59:16","新北市三峽區白雞115-1號","121.40178","24.90788","6500900","三峽區"
"237010","706-TV","2018/07/27 17:59:20","新北市三峽區文化路209號","121.366181666667","24.9355033333333","6500900","三峽區"
"237005","AKY-6261","2018/07/27 17:59:18","新北市三峽區文化路212-5號","121.368445","24.93595","6500900","三峽區"
"236069","105-UM","2018/07/27 17:59:14","新北市土城區城林路6巷80號","121.438616666667","24.97967","6501300","土城區"
"236042","107-UM","2018/07/27 17:59:18","新北市土城區城林路6巷80號","121.438521666667","24.9796933333333","6501300","土城區"
"236079","166-UM","2018/07/27 17:59:30","新北市土城區永寧路32巷10弄21號","121.428971666667","24.9610133333333","6501300","土城區"
"236030","253-BX","2018/07/27 17:59:13","新北市土城區城林路6巷80號","121.43875","24.9796433333333","6501300","土城區"
"236026","269-VK","2018/07/27 17:59:10","新北市土城區承天路1號","121.435815","24.9665633333333","6501300","土城區"
"236014","270-VK","2018/07/27 17:59:12","新北市土城區城林路6巷80號","121.438511666667","24.97976","6501300","土城區"
"236039","271-VK","2018/07/27 17:59:20","新北市土城區城林路6巷80號","121.438473333333","24.97978","6501300","土城區"
"236059","912-UM","2018/07/27 17:59:27","新北市土城區中央路三段229號","121.429091666667","24.9643716666667","6501300","土城區"
"236048","913-UM","2018/07/27 17:59:21","新北市土城區城林路6巷80號","121.438456666667","24.9795616666667","6501300","土城區"
"236063","915-UM","2018/07/27 17:59:19","新北市土城區城林路6巷80號","121.43851","24.9796516666667","6501300","土城區"
"236055","AAC-216","2018/07/27 17:59:16","新北市土城區中央路二段274號","121.44128","24.974265","6501300","土城區"
"242034","AAC-296","2018/07/27 17:59:18","新北市新莊區中正路421巷13號","121.444643333333","25.0336716666667","6500500","新莊區"
"242058","986-R7","2018/07/27 17:59:19","新北市新莊區新北大道七段241號","121.412953333333","25.029695","6500500","新莊區"
"242054","751-BX","2018/07/27 17:59:22","新北市新莊區民安西路411號","121.43058","25.008805","6500500","新莊區"
"242027","705-TV","2018/07/27 17:59:25","新北市新莊區思源路385號","121.45973","25.0513866666667","6500500","新莊區"
"242025","613-BX","2018/07/27 17:59:27","新北市新莊區五工路58號","121.458796666667","25.0628466666667","6500500","新莊區"
"242029","612-BX","2018/07/27 17:59:26","新北市新莊區中平路92巷2號","121.444815","25.0453616666667","6500500","新莊區"
"242041","566-BX","2018/07/27 17:59:20","新北市泰山區明志路三段531巷17號","121.421443333333","25.0297466666667","6500500","新莊區"
"242046","497-BY","2018/07/27 17:59:23","新北市新莊區福營路189號","121.43128","25.0306933333333","6500500","新莊區"
"242050","441-UM","2018/07/27 17:59:08","新北市新莊區西盛街153巷3號","121.428463333333","25.0182316666667","6500500","新莊區"
"242056","440-UM","2018/07/27 17:59:28","新北市新莊區豐年街124巷16號","121.4456","25.0299133333333","6500500","新莊區"
"242007","413-TV","2018/07/27 17:59:22","新北市新莊區自信街40號","121.454596666667","25.0482566666667","6500500","新莊區"
"242044","400-BY","2018/07/27 17:59:27","新北市新莊區中正路力行巷40號","121.416066666667","25.0267616666667","6500500","新莊區"
"242023","362-BY","2018/07/27 17:59:27","新北市新莊區福壽街69號","121.45811","25.0494966666667","6500500","新莊區"
"242009","132-UY","2018/07/27 17:59:16","新北市新莊區中原路191號","121.452346666667","25.05391","6500500","新莊區"
"242039","133-UY","2018/07/27 17:59:24","新北市新莊區民安西路88巷2號","121.426381666667","25.01994","6500500","新莊區"
"242032","135-UY","2018/07/27 17:59:16","新北市新莊區新泰路304號","121.445475","25.0410633333333","6500500","新莊區"
"242048","172-VK","2018/07/27 17:59:26","新北市新莊區萬安街28號","121.421276666667","25.0244216666667","6500500","新莊區"
"242011","173-VK","2018/07/27 17:58:32","新北市新莊區中港路中慶巷11號","121.45073","25.053755","6500500","新莊區"
"242017","175-VK","2018/07/27 17:59:24","新北市新莊區中和街60巷15號","121.4486","25.0448483333333","6500500","新莊區"
"242005","176-VK","2018/07/27 17:59:13","新北市新莊區福樂街71巷4號","121.456896666667","25.047735","6500500","新莊區"
"242015","347-TH","2018/07/27 17:59:12","新北市新莊區新泰路502巷41弄16號","121.44372","25.04688","6500500","新莊區"
"242021","348-TH","2018/07/27 17:59:12","新北市新莊區中華路一段6號","121.451973333333","25.03665","6500500","新莊區"
"242002","349-TH","2018/07/27 17:59:18","新北市新莊區中正路145-20號","121.458096666667","25.037455","6500500","新莊區"
"242019","350-TH","2018/07/27 17:59:17","新北市新莊區明中街49巷17號","121.456666666667","25.0388966666667","6500500","新莊區"
"242013","351-TH","2018/07/27 17:59:22","新北市新莊區幸福路815號","121.445581666667","25.049045","6500500","新莊區"
"238015","755-BX","2018/07/27 17:59:30","新北市樹林區大安路297號","121.418175","24.9924083333333","6500700","樹林區"
"238023","601-UM","2018/07/27 17:59:26","新北市樹林區龍興街55號","121.403241666667","25.015305","6500700","樹林區"
"238019","599-UM","2018/07/27 17:59:13","新北市樹林區水源街15號","121.425141666667","24.9830533333333","6500700","樹林區"
"238018","571-TV","2018/07/27 17:59:25","新北市新莊區新崑路59號","121.43105","24.9997483333333","6500700","樹林區"
"238024","5061-A6","2018/07/27 17:59:22","新北市樹林區中山路三段125-10號","121.397363333333","24.9735616666667","6500700","樹林區"
"238021","KEA-2539","2018/07/27 17:59:28","新北市樹林區柑園街一段166號","121.397181666667","24.9567866666667","6500700","樹林區"
"238025","303-VK","2018/07/27 17:59:23","新北市樹林區三俊街113號","121.417375","25.0155633333333","6500700","樹林區"
"238017","283-BY","2018/07/27 17:59:10","新北市樹林區中正路576號","121.410898333333","25.01494","6500700","樹林區"
"238014","282-BY","2018/07/27 17:59:15","新北市樹林區中正路83號","121.426043333333","25.0003166666667","6500700","樹林區"
"238026","172-UY","2018/07/27 17:59:22","新北市樹林區育德街2號","121.3928","24.9706016666667","6500700","樹林區"
"238016","169-UY","2018/07/27 17:59:22","新北市樹林區育英街135巷10號","121.41952","24.9889133333333","6500700","樹林區"
"239007","AAC-297","2018/07/27 17:59:16","新北市鶯歌區鶯桃路36號","121.341706666667","24.9525066666667","6500800","鶯歌區"
"239006","891-R6","2018/07/27 17:59:30","新北市鶯歌區鶯桃路455巷2弄2號","121.331858333333","24.965475","6500800","鶯歌區"
"239008","527-UM","2018/07/27 17:59:20","新北市鶯歌區國際一路6號","121.335701666667","24.976775","6500800","鶯歌區"
"239005","526-UM","2018/07/27 17:59:13","新北市鶯歌區鶯桃路二段6號","121.326285","24.971975","6500800","鶯歌區"
"239001","417-VK","2018/07/27 17:59:15","新北市鶯歌區中正三路33號","121.339056666667","24.9423116666667","6500800","鶯歌區"
"239003","360-BY","2018/07/27 17:59:18","新北市鶯歌區鶯桃路213-1號","121.336956666667","24.95897","6500800","鶯歌區"
"239002","359-BY","2018/07/27 17:59:09","新北市鶯歌區光明街31號","121.34836","24.9558783333333","6500800","鶯歌區"
"239004","193-VK","2018/07/27 17:59:21","新北市鶯歌區尖山路101巷13-1號","121.346786666667","24.9426183333333","6500800","鶯歌區"
"221008","489-VK","2018/07/27 17:59:17","新北市汐止區明峰街30號","121.634115","25.0714433333333","6501100","汐止區"
"221036","130-UY","2018/07/27 17:59:25","新北市汐止區大同路三段56號","121.66757","25.07703","6501100","汐止區"
"221015","131-UY","2018/07/27 17:59:13","新北市汐止區長江街299號","121.665716666667","25.081305","6501100","汐止區"
"221010","269-BY","2018/07/27 17:59:26","新北市汐止區汐萬路二段245巷38號","121.644215","25.0878833333333","6501100","汐止區"
"221012","278-VK","2018/07/27 17:59:24","新北市汐止區長興街二段36號","121.673465","25.0814816666667","6501100","汐止區"
"221023","279-VK","2018/07/27 17:59:16","新北市汐止區明峰街158號","121.629451666667","25.0706066666667","6501100","汐止區"
"221032","280-BY","2018/07/27 17:59:27","新北市汐止區橫科路73巷2-2號","121.619578333333","25.0506616666667","6501100","汐止區"
"221027","281-BY","2018/07/27 17:59:28","新北市汐止區汐萬路一段20號","121.655976666667","25.0675883333333","6501100","汐止區"
"221033","297-VK","2018/07/27 17:59:11","新北市汐止區合順街39巷1號","121.62057","25.0433083333333","6501100","汐止區"
"221029","298-VK","2018/07/27 17:59:25","新北市汐止區樟樹二路342巷4號","121.641745","25.0704133333333","6501100","汐止區"
"221021","299-VK","2018/07/27 17:59:28","新北市汐止區新興路14號","121.65639","25.0647066666667","6501100","汐止區"
"221031","353-TW","2018/07/27 17:59:19","新北市汐止區中興路181巷24弄14號","121.629211666667","25.066695","6501100","汐止區"
"221035","622-UM","2018/07/27 17:59:29","新北市汐止區汐萬路一段134號","121.653411666667","25.0711916666667","6501100","汐止區"
"221025","623-UM","2018/07/27 17:59:25","新北市汐止區仁愛路17號","121.659225","25.06396","6501100","汐止區"
"221038","646-BX","2018/07/27 17:59:26","新北市汐止區水源路一段235號","121.654278333333","25.0604266666667","6501100","汐止區"
"221002","707-TV","2018/07/27 17:59:19","新北市汐止區中興路62號","121.63543","25.0615083333333","6501100","汐止區"
"221018","753-BX","2018/07/27 17:59:18","新北市汐止區忠孝東路382巷3弄1號","121.666143333333","25.0694616666667","6501100","汐止區"
"242037","280-VK","2018/07/27 17:59:19","新北市新莊區福營路311號","121.426545","25.0289666666667","6500500","新莊區"
"235061","KEA-2875","2018/07/27 17:59:15","新北市中和區員山路36巷16-2號","121.485246666667","24.9916766666667","6500300","中和區"
