"lineid","car","time","location","longitude","latitude","cityid","cityname"
"234046","148-BY","2018/07/27 18:39:26","新北市永和區永元路94號","121.52253","25.001655","6500400","永和區"
"234007","207-UY","2018/07/27 18:39:15","新北市永和區環河西路二段217巷1號","121.501441666667","25.0100583333333","6500400","永和區"
"234081","298-R6","2018/07/27 18:39:17","新北市永和區林森路81號","121.523936666667","25.0037983333333","6500400","永和區"
"234038","336-UY","2018/07/27 18:39:22","新北市永和區福和路1號","121.526433333333","25.0100833333333","6500400","永和區"
"234064","337-UY","2018/07/27 18:39:26","新北市永和區福和路1號","121.526503333333","25.010265","6500400","永和區"
"234086","338-UY","2018/07/27 18:39:19","新北市永和區中正路504號","121.517415","25.0043533333333","6500400","永和區"
"234070","552-UM","2018/07/27 18:39:20","新北市永和區福和路1號","121.525528333333","25.0096833333333","6500400","永和區"
"234017","745-BX","2018/07/27 18:39:16","新北市永和區福和路1號","121.526385","25.0096816666667","6500400","永和區"
"234030","746-BX","2018/07/27 18:39:25","新北市永和區成功路一段108號","121.526795","25.00292","6500400","永和區"
"234042","862-TW","2018/07/27 18:39:12","新北市永和區永貞路308號","121.511841666667","25.004905","6500400","永和區"
"234050","863-TW","2018/07/27 18:39:25","新北市永和區福和路1號","121.52628","25.0095916666667","6500400","永和區"
"234026","9371-KE","2018/07/27 18:39:30","新北市永和區永貞路315號","121.51","25.006695","6500400","永和區"
"234011","9373-KE","2018/07/27 18:39:26","新北市永和區文化路9巷22弄28號","121.514586666667","25.0146116666667","6500400","永和區"
"249005","172-UM","2018/07/27 18:39:11","新北市八里區中華路三段212號","121.388903333333","25.1252966666667","6502300","八里區"
"249001","173-UM","2018/07/27 18:39:25","新北市八里區龍米路一段398號","121.451406666667","25.13287","6502300","八里區"
"249004","759-BX","2018/07/27 18:39:23","新北市八里區忠四街55號","121.425138333333","25.16198","6502300","八里區"
"248014","025-BX","2018/07/27 18:39:20","新北市五股區成泰路一段231-13號","121.435498333333","25.077875","6501500","五股區"
"248016","026-BX","2018/07/27 18:39:16","新北市五股區凌雲路一段149巷13-1號","121.448601666667","25.1008766666667","6501500","五股區"
"248008","095-VK","2018/07/27 18:39:23","新北市五股區中興路一段140巷10號","121.465053333333","25.0744883333333","6501500","五股區"
"248018","225-UY","2018/07/27 18:39:26","新北市五股區民義路二段78號","121.405933333333","25.10901","6501500","五股區"
"248012","247-BX","2018/07/27 18:39:31","新北市五股區御史路54巷1號","121.441778333333","25.0938666666667","6501500","五股區"
"248010","272-BY","2018/07/27 18:39:21","新北市五股區水碓一路92號","121.431761666667","25.073625","6501500","五股區"
"248004","677-BX","2018/07/27 18:39:16","新北市五股區民義路一段206號","121.430265","25.0890983333333","6501500","五股區"
"248002","678-BX","2018/07/27 18:39:19","新北市五股區西雲路183-2號","121.447625","25.09553","6501500","五股區"
"234023","9380-KE","2018/07/27 18:39:23","新北市永和區福和路8巷1號","121.524856666667","25.00878","6500400","永和區"
"234077","969-R7","2018/07/27 18:39:16","新北市永和區福和路85號","121.522278333333","25.0078666666667","6500400","永和區"
"234067","AAC-212","2018/07/27 18:39:18","新北市永和區福和路81號","121.522435","25.007905","6500400","永和區"
"234003","AAC-295","2018/07/27 18:39:24","新北市永和區福和路1號","121.525896666667","25.0096516666667","6500400","永和區"
"244007","080-UY","2018/07/27 18:39:12","新北市林口區中湖62號","121.384456666667","25.1010033333333","6501700","林口區"
"244019","403-UM","2018/07/27 18:39:26","新北市林口區麗園二街23巷15號","121.379996666667","25.0703483333333","6501700","林口區"
"244009","410-SL","2018/07/27 18:39:11","新北市林口區竹林路330巷7號","121.391995","25.08302","6501700","林口區"
"244023","483-VK","2018/07/27 18:39:28","新北市林口區民享路70號","121.380786666667","25.081055","6501700","林口區"
"244017","485-VK","2018/07/27 18:39:28","新北市林口區文化二路一段86號","121.366313333333","25.0695583333333","6501700","林口區"
"244011","657-BX","2018/07/27 18:39:29","新北市林口區仁愛路一段336號","121.390991666667","25.076435","6501700","林口區"
"244025","837-TS","2018/07/27 18:39:26","新北市林口區南勢三街19-1號","121.35807","25.0771333333333","6501700","林口區"
"244021","838-TS","2018/07/27 18:39:09","新北市林口區工六路62-3號","121.399653333333","25.07765","6501700","林口區"
"243013","AAD-798","2018/07/27 18:27:10","新北市泰山區明志路三段206巷3號","121.423278333333","25.0379183333333","6501600","泰山區"
"243016","380-SR","2018/07/27 18:39:15","新北市泰山區黎明路23-1號","121.42124","25.0611783333333","6501600","泰山區"
"243015","421-VK","2018/07/27 18:39:19","新北市泰山區犁頭窠3-1號","121.422098333333","25.0604666666667","6501600","泰山區"
"243012","646-TV","2018/07/27 18:39:08","新北市泰山區泰林路二段235號","121.432146666667","25.062075","6501600","泰山區"
"222003","436-BY","2018/07/27 18:39:17","新北市深坑區翠谷街20號","121.626975","25.00876","6501800","深坑區"
"222002","659-BX","2018/07/27 18:39:16","新北市深坑區文山路一段62巷7號","121.622555","25.0008866666667","6501800","深坑區"
"231041","002-UM","2018/07/27 18:39:08","新北市新店區安華路28-1號","121.519891666667","24.9607916666667","6500600","新店區"
"231059","046-UY","2018/07/27 18:39:11","新北市新店區安華路28-1號","121.519578333333","24.96076","6500600","新店區"
"231040","047-UY","2018/07/27 18:39:21","新北市新店區安一路一段1-1號","121.519235","24.961075","6500600","新店區"
"231044","106-UY","2018/07/27 18:39:28","新北市新店區安康路一段17號","121.533111666667","24.9603866666667","6500600","新店區"
"231046","107-UY","2018/07/27 18:39:21","新北市新店區直潭二街1號","121.535515","24.9432166666667","6500600","新店區"
"231053","108-UY","2018/07/27 18:39:19","新北市新店區長興路11號","121.546173333333","24.9401433333333","6500600","新店區"
"231065","110-UY","2018/07/27 18:39:31","新北市新店區安一路一段1-1號","121.519266666667","24.9613466666667","6500600","新店區"
"231048","187-VK","2018/07/27 18:39:11","新北市新店區安康路一段150號","121.52635","24.9629066666667","6500600","新店區"
"231054","KEA-2219","2018/07/27 18:39:15","新北市新店區安一路一段1-1號","121.519791666667","24.96128","6500600","新店區"
"231057","256-BX","2018/07/27 18:39:25","新北市新店區新烏路一段215號","121.549288333333","24.931445","6500600","新店區"
"231042","268-BY","2018/07/27 18:39:29","新北市新店區安華路1-1號","121.519348333333","24.9604883333333","6500600","新店區"
"231051","278-BY","2018/07/27 18:39:23","新北市新店區安康路一段79巷3號","121.529936666667","24.9611716666667","6500600","新店區"
"231050","AAD-862","2018/07/27 18:39:00","新北市新店區安一路一段1-1號","121.519753333333","24.9612366666667","6500600","新店區"
"231058","3713-VJ","2018/07/27 18:39:17","新北市新店區新店路13號","121.540355","24.9528983333333","6500600","新店區"
"231066","4716-K9","2018/07/27 18:39:19","新北市新店區安一路一段1-1號","121.519375","24.961265","6500600","新店區"
"231056","4715-K9","2018/07/27 18:39:30","新北市新店區建國路184號","121.537935","24.9801333333333","6500600","新店區"
"231067","4772-VM","2018/07/27 18:39:27","新北市新店區安華路1-1號","121.519218333333","24.9605316666667","6500600","新店區"
"231049","513-UM","2018/07/27 18:39:16","新北市新店區安一路一段1-1號","121.519688333333","24.96109","6500600","新店區"
"231063","616-UM","2018/07/27 18:39:16","新北市新店區安華路1-1號","121.519506666667","24.9604866666667","6500600","新店區"
"231061","619-UM","2018/07/27 18:39:24","新北市新店區安華路28-1號","121.519381666667","24.9608666666667","6500600","新店區"
"231064","719-UM","2018/07/27 18:39:24","新北市新店區安一路一段1-1號","121.519613333333","24.9611883333333","6500600","新店區"
"231062","720-UM","2018/07/27 18:39:23","新北市新店區安一路一段1-1號","121.519233333333","24.961145","6500600","新店區"
"231060","897-TW","2018/07/27 18:39:24","新北市新店區安華路28-1號","121.51976","24.9605583333333","6500600","新店區"
"231043","899-TW","2018/07/27 18:39:14","新北市新店區安華路28-1號","121.519248333333","24.9607416666667","6500600","新店區"
"231055","AKT-0513","2018/07/27 18:39:20","新北市新店區北新路一段271巷31-3號","121.53978","24.967035","6500600","新店區"
"241035","462-BY","2018/07/27 18:39:17","新北市三重區重新路四段121號","121.484871666667","25.05196","6500200","三重區"
"235066","003-UY","2018/07/27 18:39:23","新北市中和區水源路24號","121.50438","25.00351","6500300","中和區"
"235064","005-UY","2018/07/27 18:39:27","新北市中和區連城路126號","121.496133333333","24.9994016666667","6500300","中和區"
"235063","006-UY","2018/07/27 18:39:25","新北市中和區連城路268-6號","121.486388333333","24.9963233333333","6500300","中和區"
"235056","096-UM","2018/07/27 18:39:16","新北市中和區員山路611巷1號","121.477966666667","25.0112983333333","6500300","中和區"
"235039","097-UM","2018/07/27 18:39:18","新北市中和區安樂路139號","121.51444","24.9966783333333","6500300","中和區"
"235065","098-UM","2018/07/27 18:39:14","新北市中和區莊敬路33巷38弄1號","121.500645","25.0065383333333","6500300","中和區"
"235040","150-BY","2018/07/27 18:39:22","新北市中和區宜安路49號","121.51194","24.9965616666667","6500300","中和區"
"235058","151-BY","2018/07/27 18:39:20","新北市中和區員山路59號","121.480855","24.9932633333333","6500300","中和區"
"235055","183-VK","2018/07/27 18:39:15","新北市中和區民生街93-2號","121.468558333333","25.0047766666667","6500300","中和區"
"235038","185-VK","2018/07/27 18:39:28","新北市中和區大勇街43巷2號","121.51783","24.9948833333333","6500300","中和區"
"235049","186-VK","2018/07/27 18:39:25","新北市中和區明義街11巷1弄1號","121.503848333333","24.9949566666667","6500300","中和區"
"235067","255-BX","2018/07/27 18:39:25","新北市中和區新生街14號","121.483131666667","25.00441","6500300","中和區"
"235044","293-VK","2018/07/27 18:39:23","新北市中和區復興路280巷7號","121.50225","24.9910566666667","6500300","中和區"
"235072","301-VK","2018/07/27 18:39:32","新北市中和區連城路15號","121.498918333333","25.0021583333333","6500300","中和區"
"235043","352-BY","2018/07/27 18:39:28","新北市中和區景平路161-1號","121.512528333333","24.9923916666667","6500300","中和區"
"247010","KEA-2869","2018/07/27 18:12:26","新北市五股區中興路三段2巷10號","121.449263333333","25.0807866666667","6501400","蘆洲區"
"235050","4979-A6","2018/07/27 18:39:21","新北市中和區忠孝街124巷6號","121.512648333333","24.98603","6500300","中和區"
"235069","4980-A6","2018/07/27 18:39:22","新北市中和區連城路101號","121.496583333333","24.99964","6500300","中和區"
"235042","551-UM","2018/07/27 18:39:31","新北市中和區成功路41巷1號","121.526331666667","24.99325","6500300","中和區"
"235070","558-UM","2018/07/27 18:39:29","新北市中和區南山路6號","121.502025","24.9986216666667","6500300","中和區"
"235045","565-BX","2018/07/27 18:39:25","新北市中和區南山路236巷36弄9號","121.504243333333","24.9880383333333","6500300","中和區"
"235054","640-BX","2018/07/27 18:39:25","新北市中和區民享街53號","121.474086666667","25.0026333333333","6500300","中和區"
"235060","647-TV","2018/07/27 18:39:02","新北市中和區中山路二段676號","121.480168333333","25.0059716666667","6500300","中和區"
"235047","732-UM","2018/07/27 18:39:21","新北市中和區南山路284號","121.507938333333","24.9876833333333","6500300","中和區"
"235046","733-UM","2018/07/27 18:39:31","新北市中和區忠孝街136號","121.51196","24.98661","6500300","中和區"
"235062","800-TS","2018/07/27 18:39:16","新北市中和區景平路705號","121.4966","25.0035466666667","6500300","中和區"
"235057","801-TS","2018/07/27 18:39:25","新北市中和區員山路327巷8號","121.480905","25.001175","6500300","中和區"
"235052","805-TS","2018/07/27 18:38:59","新北市中和區興南路三段81號","121.49185","24.9739183333333","6500300","中和區"
"235048","896-TW","2018/07/27 18:39:25","新北市中和區南山路204號","121.506105","24.990425","6500300","中和區"
"235053","900-TW","2018/07/27 18:39:30","新北市土城區延壽路1-10號","121.469185","24.99373","6500300","中和區"
"235051","157-BY","2018/07/27 18:39:28","新北市中和區華新街143巷106弄32號","121.506221666667","24.9786633333333","6500300","中和區"
"235037","AAC-213","2018/07/27 18:39:29","新北市中和區景德街59號","121.517411666667","24.9914666666667","6500300","中和區"
"235059","AAC-215","2018/07/27 18:39:23","新北市中和區錦和路350-1號","121.490368333333","24.993535","6500300","中和區"
"220065","072-UY","2018/07/27 18:39:25","新北市板橋區區運路41號","121.466338333333","25.0104066666667","6500100","板橋區"
"220086","073-UY","2018/07/27 18:39:15","新北市板橋區南雅西路二段192巷1弄31號","121.452416666667","25.0154133333333","6500100","板橋區"
"226004","205-ST","2018/07/27 18:39:27","新北市平溪區平溪里平溪街40號","121.738646666667","25.0259683333333","6502400","平溪區"
"228001","212-TW","2018/07/27 18:39:07","新北市貢寮區仁理村研海街12-1號","121.92377","25.0516583333333","6502600","貢寮區"
"228002","663-BX","2018/07/27 18:39:12","新北市貢寮區福隆里東興街50號","121.948465","25.0177566666667","6502600","貢寮區"
"228003","828-UM","2018/07/27 18:39:11","新北市貢寮區和美里龍洞街40號","121.91516","25.1116966666667","6502600","貢寮區"
"224010","AGQ-8101","2018/07/27 18:38:43","新北市瑞芳區崙頂路111號","121.844501666667","25.10685","6501200","瑞芳區"
"224006","676-BX","2018/07/27 18:39:20","新北市瑞芳區明燈路三段97號","121.804363333333","25.1085183333333","6501200","瑞芳區"
"224002","639-TC","2018/07/27 18:39:18","新北市瑞芳區明燈路二段56號","121.809963333333","25.1076166666667","6501200","瑞芳區"
"224008","285-BY","2018/07/27 18:39:26","新北市瑞芳區岳王路11號","121.807148333333","25.110745","6501200","瑞芳區"
"224007","275-VK","2018/07/27 18:39:16","新北市瑞芳區大埔路167號","121.763801666667","25.1019233333333","6501200","瑞芳區"
"224009","273-VK","2018/07/27 18:39:29","新北市瑞芳區祈堂路2號","121.859781666667","25.11192","6501200","瑞芳區"
"224005","271-BY","2018/07/27 18:39:17","新北市瑞芳區建基路一段40號","121.819408333333","25.1212083333333","6501200","瑞芳區"
"227011","642-TC","2018/07/27 18:39:20","新北市雙溪區牡丹里下坑11號","121.851013333333","25.05621","6502500","雙溪區"
"227003","400-TW","2018/07/27 18:39:26","新北市雙溪區魚行里坤溪3-5號","121.875821666667","25.0211433333333","6502500","雙溪區"
"253005","032-BX","2018/07/27 18:39:19","新北市石門區中山路58號","121.566745","25.290475","6502200","石門區"
"253006","295-VK","2018/07/27 18:39:29","新北市石門區崁子腳44號","121.53353","25.2883683333333","6502200","石門區"
"222001","KEA-2212","2018/07/27 18:39:23","新北市深坑區北深路一段84號","121.636256666667","25.0107","6501800","深坑區"
"208002","KEA-2872","2018/07/27 18:39:13","新北市金山區忠孝一路15巷11號","121.638448333333","25.2183616666667","6502700","金山區"
"208003","665-BX","2018/07/27 18:39:27","新北市金山區中山路379號","121.63423","25.224745","6502700","金山區"
"208001","761-BX","2018/07/27 18:39:12","新北市金山區文化三路7號","121.635091666667","25.22499","6502700","金山區"
"251004","009-UM","2018/07/27 18:39:15","新北市淡水區八勢二街51巷2號","121.46081","25.149185","6501000","淡水區"
"251001","011-UM","2018/07/27 18:39:20","新北市淡水區自強路415巷2號","121.465518333333","25.1342533333333","6501000","淡水區"
"251002","012-UM","2018/07/27 18:39:25","新北市淡水區中正東路一段3巷14弄1號","121.450868333333","25.1641183333333","6501000","淡水區"
"251008","181-VK","2018/07/27 18:39:20","新北市淡水區北投子15-1號","121.452508333333","25.1829116666667","6501000","淡水區"
"251010","413-VK","2018/07/27 18:39:18","新北市淡水區沙崙路122號","121.42333","25.1827733333333","6501000","淡水區"
"251012","441-VK","2018/07/27 18:39:10","新北市淡水區北新路117號","121.448973333333","25.1786","6501000","淡水區"
"251007","442-VK","2018/07/27 18:39:12","新北市淡水區中正東路二段143巷2弄1號","121.460621666667","25.1472933333333","6501000","淡水區"
"251006","561-UM","2018/07/27 18:39:28","新北市淡水區崁頂36號","121.438885","25.1946233333333","6501000","淡水區"
"251011","650-BX","2018/07/27 18:39:11","新北市淡水區鄧公路30巷2弄10號","121.45273","25.1690016666667","6501000","淡水區"
"251003","673-BX","2018/07/27 18:39:32","新北市淡水區北新路69巷26號","121.446745","25.1801016666667","6501000","淡水區"
"207003","550-UM","2018/07/27 18:39:20","新北市萬里區野柳里八斗60號","121.660348333333","25.20722","6502800","萬里區"
"207004","225-TW","2018/07/27 18:39:27","新北市萬里區萬里里獅頭路12-5號","121.692485","25.1792183333333","6502800","萬里區"
"252002","178-VK","2018/07/27 18:39:26","新北市三芝區民生街64巷8號","121.503623333333","25.25516","6502100","三芝區"
"252003","249-BX","2018/07/27 18:39:09","新北市三芝區後厝里土地公坑55號","121.462798333333","25.2484183333333","6502100","三芝區"
"252001","292-VK","2018/07/27 18:39:18","新北市三芝區中興街二段260號","121.501726666667","25.2530433333333","6502100","三芝區"
"237007","153-BY","2018/07/27 18:39:13","新北市三峽區中正路三段74號","121.356331666667","24.903945","6500900","三峽區"
"237011","572-TV","2018/07/27 18:39:17","新北市三峽區復興路167號","121.370288333333","24.9384833333333","6500900","三峽區"
"237009","210-TH","2018/07/27 18:39:27","新北市三峽區大同路268號","121.365421666667","24.9253583333333","6500900","三峽區"
"237013","252-BX","2018/07/27 18:39:29","新北市三峽區光明路69巷25號","121.376675","24.9291716666667","6500900","三峽區"
"237012","275-BY","2018/07/27 18:39:17","新北市三峽區三樹路340號","121.38394","24.9432783333333","6500900","三峽區"
"237008","302-VK","2018/07/27 18:39:11","新北市三峽區白雞67-1號","121.398588333333","24.9114566666667","6500900","三峽區"
"237014","433-BY","2018/07/27 18:39:17","新北市三峽區隆恩街177巷16號","121.362101666667","24.9414583333333","6500900","三峽區"
"237006","5529-G3","2018/07/27 18:39:14","新北市三峽區溪東路211巷31弄3號","121.405501666667","24.9341216666667","6500900","三峽區"
"237011","KEA-2596","2018/07/27 18:26:08","新北市三峽區中山路459巷163-3號","121.34865","24.933","6500900","三峽區"
"237015","649-BX","2018/07/27 18:39:16","新北市三峽區安坑12-3號","121.442296666667","24.9262333333333","6500900","三峽區"
"237010","706-TV","2018/07/27 18:39:22","新北市三峽區復興路489號","121.361031666667","24.9383383333333","6500900","三峽區"
"237005","AKY-6261","2018/07/27 18:39:18","新北市三峽區民生街104巷3-1號","121.373576666667","24.935985","6500900","三峽區"
"236069","105-UM","2018/07/27 18:39:14","新北市土城區永豐路157巷29弄6-1號","121.46834","24.98149","6501300","土城區"
"236042","107-UM","2018/07/27 18:39:18","新北市土城區裕民路55巷1號","121.448858333333","24.988005","6501300","土城區"
"236079","166-UM","2018/07/27 18:39:30","新北市土城區中央路四段52巷10號","121.419951666667","24.9608783333333","6501300","土城區"
"236030","253-BX","2018/07/27 18:39:13","新北市土城區慶利街32號","121.438888333333","24.9744616666667","6501300","土城區"
"236026","269-VK","2018/07/27 18:39:10","新北市土城區千歲路13號","121.441103333333","24.9696066666667","6501300","土城區"
"236014","270-VK","2018/07/27 18:39:32","新北市土城區清水路207巷11號","121.459901666667","24.9823366666667","6501300","土城區"
"236039","271-VK","2018/07/27 18:39:20","新北市土城區明德路一段291巷3號","121.460408333333","24.9769566666667","6501300","土城區"
"236020","401-BY","2018/07/27 18:39:31","新北市土城區延吉街253巷1號","121.467613333333","24.9846733333333","6501300","土城區"
"236059","912-UM","2018/07/27 18:39:27","新北市土城區中央路三段207號","121.429868333333","24.9646533333333","6501300","土城區"
"236048","913-UM","2018/07/27 18:39:21","新北市土城區金城路二段374號","121.462755","24.9854733333333","6501300","土城區"
"236063","915-UM","2018/07/27 18:39:19","新北市土城區延和路125巷31號","121.469115","24.9912283333333","6501300","土城區"
"236055","AAC-216","2018/07/27 18:39:16","新北市土城區裕民路2號","121.446678333333","24.989155","6501300","土城區"
"242058","986-R7","2018/07/27 18:39:19","新北市新莊區中正路881-13號","121.417193333333","25.0251266666667","6500500","新莊區"
"242054","751-BX","2018/07/27 18:39:01","新北市樹林區中正路12號","121.429851666667","24.9974666666667","6500500","新莊區"
"242025","613-BX","2018/07/27 18:36:47","新北市新莊區幸福路884號","121.4441","25.049285","6500500","新莊區"
"238023","601-UM","2018/07/27 18:39:26","新北市樹林區三福街114號","121.406433333333","25.016215","6500700","樹林區"
"238019","599-UM","2018/07/27 18:39:13","新北市樹林區中華路190-6號","121.410785","24.9807083333333","6500700","樹林區"
"238018","571-TV","2018/07/27 18:39:28","新北市樹林區鎮前街59號","121.42507","24.9913366666667","6500700","樹林區"
"238024","5061-A6","2018/07/27 18:39:22","新北市樹林區太順街49巷5號","121.41811","24.9789283333333","6500700","樹林區"
"238022","KEA-2213","2018/07/27 18:39:27","新北市樹林區中華路379巷5號","121.412616666667","24.979655","6500700","樹林區"
"238025","303-VK","2018/07/27 18:39:23","新北市樹林區中山路三段22號","121.395583333333","24.9729033333333","6500700","樹林區"
"238017","283-BY","2018/07/27 18:39:10","新北市樹林區光興街50號","121.409843333333","25.0028233333333","6500700","樹林區"
"238014","282-BY","2018/07/27 18:39:15","新北市樹林區大安路111巷13號","121.423286666667","24.9977916666667","6500700","樹林區"
"238026","172-UY","2018/07/27 18:38:42","新北市樹林區信和街86號","121.390108333333","24.9728933333333","6500700","樹林區"
"238016","169-UY","2018/07/27 18:39:22","新北市樹林區文化街28號","121.419375","24.9876766666667","6500700","樹林區"
"239007","AAC-297","2018/07/27 18:39:16","新北市鶯歌區中正一路461-2號","121.363681666667","24.9565616666667","6500800","鶯歌區"
"239006","891-R6","2018/07/27 18:39:18","新北市鶯歌區鶯桃路296巷72弄18號","121.337158333333","24.9611816666667","6500800","鶯歌區"
"239008","527-UM","2018/07/27 18:39:20","新北市鶯歌區國際一路14號","121.336193333333","24.9765566666667","6500800","鶯歌區"
"239005","526-UM","2018/07/27 18:39:13","新北市鶯歌區鳳吉一街9號","121.325396666667","24.973285","6500800","鶯歌區"
"239001","417-VK","2018/07/27 18:39:14","新北市鶯歌區尖山埔路二段57號","121.341751666667","24.9483733333333","6500800","鶯歌區"
"239003","360-BY","2018/07/27 18:39:18","新北市鶯歌區鶯桃路526號","121.331625","24.9669183333333","6500800","鶯歌區"
"239002","359-BY","2018/07/27 18:39:29","新北市鶯歌區中山路311號","121.34425","24.9569483333333","6500800","鶯歌區"
"239004","193-VK","2018/07/27 18:39:21","新北市鶯歌區中正三路269號","121.33282","24.9381483333333","6500800","鶯歌區"
"221008","489-VK","2018/07/27 18:39:17","新北市汐止區康寧街901號","121.651463333333","25.0750366666667","6501100","汐止區"
"221036","130-UY","2018/07/27 18:39:25","新北市汐止區忠孝東路314巷19弄14號","121.664915","25.0685783333333","6501100","汐止區"
"221015","131-UY","2018/07/27 18:39:13","新北市汐止區吉祥街12巷12號","121.668831666667","25.0804283333333","6501100","汐止區"
"221010","269-BY","2018/07/27 18:39:26","新北市汐止區汐萬路二段99號","121.648373333333","25.0832283333333","6501100","汐止區"
"221012","278-VK","2018/07/27 18:39:24","新北市汐止區長江街47號","121.65599","25.0713583333333","6501100","汐止區"
"221023","279-VK","2018/07/27 18:39:15","新北市汐止區康寧街680-1號","121.63651","25.0712783333333","6501100","汐止區"
"221032","280-BY","2018/07/27 18:39:24","新北市汐止區民權街二段85號","121.619001666667","25.04769","6501100","汐止區"
"221027","281-BY","2018/07/27 18:39:28","新北市汐止區汐萬路一段124號","121.653668333333","25.071175","6501100","汐止區"
"221033","297-VK","2018/07/27 18:39:30","新北市汐止區南勢街1巷1號","121.627021666667","25.037455","6501100","汐止區"
"221029","298-VK","2018/07/27 18:39:25","新北市汐止區樟樹一路150號","121.642278333333","25.0651633333333","6501100","汐止區"
"221021","299-VK","2018/07/27 18:39:28","新北市汐止區新台五路一段174號","121.65464","25.0624216666667","6501100","汐止區"
"221031","353-TW","2018/07/27 18:39:19","新北市汐止區福德一路274號","121.632105","25.0639116666667","6501100","汐止區"
"221035","622-UM","2018/07/27 18:39:29","新北市汐止區大同路二段276號","121.654723333333","25.0662866666667","6501100","汐止區"
"221025","623-UM","2018/07/27 18:39:25","新北市汐止區仁愛路119巷12號","121.662303333333","25.0641466666667","6501100","汐止區"
"221038","646-BX","2018/07/27 18:39:25","新北市汐止區汐萬路一段312號","121.650658333333","25.0752716666667","6501100","汐止區"
"221002","707-TV","2018/07/27 18:39:19","新北市汐止區大同路一段277號","121.636421666667","25.0585233333333","6501100","汐止區"
"221018","753-BX","2018/07/27 18:39:18","新北市汐止區茄安路12號","121.673076666667","25.0677483333333","6501100","汐止區"
"220080","200-UY","2018/07/27 18:39:26","新北市板橋區大觀路二段265巷76弄30號","121.441338333333","24.9967766666667","6500100","板橋區"
"220079","256-TC","2018/07/27 18:39:15","新北市板橋區大觀路二段111號","121.446195","25.0016333333333","6500100","板橋區"
"220056","276-BY","2018/07/27 18:39:30","新北市板橋區四川路二段橋頭6號","121.448321666667","24.99405","6500100","板橋區"
"220072","277-BY","2018/07/27 18:39:19","新北市板橋區大觀路三段5-4號","121.432678333333","24.9958733333333","6500100","板橋區"
"220071","283-VK","2018/07/27 18:39:12","新北市板橋區四川路二段241號","121.450678333333","24.993805","6500100","板橋區"
"220094","285-UM","2018/07/27 18:39:18","新北市板橋區民生路二段161巷1號","121.469821666667","25.019845","6500100","板橋區"
"220083","286-VK","2018/07/27 18:39:20","新北市板橋區大觀路二段153巷46弄1號","121.448585","24.998635","6500100","板橋區"
"220081","287-VK","2018/07/27 18:39:24","新北市板橋區合安一路77-6號","121.448478333333","24.998685","6500100","板橋區"
"220061","293-UM","2018/07/27 18:39:17","新北市板橋區民生路二段120號","121.470331666667","25.019705","6500100","板橋區"
"220084","296-UM","2018/07/27 18:39:11","新北市板橋區大觀路二段205號","121.444646666667","24.999435","6500100","板橋區"
"220075","303-R5","2018/07/27 18:39:31","新北市板橋區華東街308號","121.452733333333","25.0030933333333","6500100","板橋區"
"220062","305-R5","2018/07/27 18:39:14","新北市板橋區民生路二段120號","121.470448333333","25.0196333333333","6500100","板橋區"
"220064","486-VK","2018/07/27 18:39:28","新北市板橋區縣民大道一段312號","121.461525","25.0109916666667","6500100","板橋區"
"220035","560-BX","2018/07/27 18:39:12","新北市板橋區南雅西路二段145巷10號","121.451523333333","25.0119233333333","6500100","板橋區"
"220103","561-BX","2018/07/27 18:39:26","新北市板橋區民生路二段161巷9號","121.470208333333","25.0195933333333","6500100","板橋區"
"220057","686-BX","2018/07/27 18:39:13","新北市板橋區華東街1-9號","121.448188333333","24.99492","6500100","板橋區"
"220077","687-BX","2018/07/27 18:39:11","新北市板橋區大觀路二段156巷37號","121.440958333333","24.9997116666667","6500100","板橋區"
"220054","741-BX","2018/07/27 18:39:28","新北市板橋區華東街1-9號","121.448068333333","24.9948883333333","6500100","板橋區"
"220070","806-UM","2018/07/27 18:39:22","新北市板橋區南雅南路二段144巷38號","121.449701666667","24.9968666666667","6500100","板橋區"
"220055","827-TW","2018/07/27 18:39:28","新北市板橋區華東街1-9號","121.448175","24.99492","6500100","板橋區"
"220067","829-TW","2018/07/27 18:39:16","新北市板橋區民生路二段120號","121.470305","25.019745","6500100","板橋區"
"220074","895-R6","2018/07/27 18:39:21","新北市板橋區南雅南路二段3號","121.454596666667","25.00318","6500100","板橋區"
"220073","985-R7","2018/07/27 18:39:20","新北市板橋區貴興路97號","121.456276666667","25.0027316666667","6500100","板橋區"
"220082","AAC-253","2018/07/27 18:39:32","新北市板橋區大觀路三段52號","121.43251","24.9959116666667","6500100","板橋區"
"235068","KEA-2873","2018/07/27 18:39:03","新北市中和區中正路213號","121.496945","24.993795","6500300","中和區"
"235061","KEA-2875","2018/07/27 18:39:29","新北市中和區民享街38-2號","121.473941666667","25.0029683333333","6500300","中和區"
