"lineid","car","time","location","longitude","latitude","cityid","cityname"
"234046","148-BY","2018/07/27 19:29:26","新北市永和區秀朗路二段259號","121.526286666667","24.999145","6500400","永和區"
"234007","207-UY","2018/07/27 19:29:15","新北市永和區永和路二段35號","121.514516666667","25.010325","6500400","永和區"
"234081","298-R6","2018/07/27 19:29:17","新北市永和區環河東路三段54號","121.526843333333","25.0062566666667","6500400","永和區"
"234038","336-UY","2018/07/27 19:29:22","新北市永和區民樂街37巷2號","121.527596666667","25.0006483333333","6500400","永和區"
"234064","337-UY","2018/07/27 19:29:26","新北市永和區中正路368巷1弄75號","121.520441666667","25.000775","6500400","永和區"
"234086","338-UY","2018/07/27 19:29:22","新北市永和區永元路138號","121.522865","25.0031233333333","6500400","永和區"
"234070","552-UM","2018/07/27 19:29:20","新北市永和區警光街2號","121.520213333333","25.0096716666667","6500400","永和區"
"234017","745-BX","2018/07/27 19:29:19","新北市永和區環河西路一段95巷2-1號","121.512005","25.0177283333333","6500400","永和區"
"234030","746-BX","2018/07/27 19:29:25","新北市永和區民生路4號","121.52267","24.9978883333333","6500400","永和區"
"234054","KEA-2590","2018/07/27 19:29:19","新北市永和區復興街21號","121.516133333333","25.013045","6500400","永和區"
"234013","KEA-2591","2018/07/27 19:29:28","新北市永和區中山路一段98-2號","121.511441666667","25.0108266666667","6500400","永和區"
"234061","AAD-866","2018/07/27 19:29:28","新北市永和區中正路512號","121.51732","25.004615","6500400","永和區"
"234042","862-TW","2018/07/27 19:29:32","新北市永和區水源街39巷17號","121.510646666667","25.0036433333333","6500400","永和區"
"234050","863-TW","2018/07/27 19:29:25","新北市永和區信義路120號","121.512386666667","25.0147383333333","6500400","永和區"
"234026","9371-KE","2018/07/27 19:29:30","新北市中和區安樂路135號","121.514271666667","24.9965233333333","6500400","永和區"
"234011","9373-KE","2018/07/27 19:29:26","新北市永和區保福路二段163巷14號","121.508838333333","25.014665","6500400","永和區"
"249002","305-UY","2018/07/27 19:29:25","新北市八里區頂寮二街138號","121.449321666667","25.12945","6502300","八里區"
"249003","593-UM","2018/07/27 19:29:19","新北市八里區商港六路23號","121.39666","25.1485933333333","6502300","八里區"
"248014","025-BX","2018/07/27 19:29:19","新北市五股區民義路一段183巷8-3號","121.42986","25.086725","6501500","五股區"
"248008","095-VK","2018/07/27 19:29:23","新北市五股區中興路一段97號","121.466668333333","25.072895","6501500","五股區"
"248018","225-UY","2018/07/27 19:29:26","新北市五股區外寮路1-1號","121.425251666667","25.0768883333333","6501500","五股區"
"248012","247-BX","2018/07/27 19:29:31","新北市五股區成泰路二段97號","121.437921666667","25.0842866666667","6501500","五股區"
"248010","272-BY","2018/07/27 19:29:21","新北市五股區自強路90巷72號","121.430793333333","25.0712633333333","6501500","五股區"
"248004","677-BX","2018/07/27 19:29:31","新北市五股區工商路151號","121.435","25.0865466666667","6501500","五股區"
"248002","678-BX","2018/07/27 19:29:19","新北市五股區凌雲路一段158巷14-1號","121.447813333333","25.103575","6501500","五股區"
"234023","9380-KE","2018/07/27 19:29:23","新北市永和區竹林路91巷43弄2號","121.521271666667","25.0128483333333","6500400","永和區"
"234077","969-R7","2018/07/27 19:29:16","新北市永和區民治街29號","121.519593333333","24.997705","6500400","永和區"
"234074","AAC-211","2018/07/27 19:29:13","新北市永和區環河東路一段108號","121.52023","25.0159966666667","6500400","永和區"
"234067","AAC-212","2018/07/27 19:29:19","新北市永和區永貞路408號","121.509045","25.00777","6500400","永和區"
"234003","AAC-295","2018/07/27 19:29:24","新北市永和區永和路一段118號","121.513981666667","25.007765","6500400","永和區"
"244023","483-VK","2018/07/27 19:29:28","新北市林口區民有街75號","121.372935","25.07724","6501700","林口區"
"243013","AAD-798","2018/07/27 19:29:10","新北市泰山區貴子路36巷3弄2號","121.425955","25.04121","6501600","泰山區"
"243009","297-R6","2018/07/27 19:29:21","新北市泰山區半山雅5號","121.431296666667","25.06751","6501600","泰山區"
"243016","380-SR","2018/07/27 19:29:15","新北市泰山區明志路三段170號","121.424215","25.039295","6501600","泰山區"
"243015","421-VK","2018/07/27 19:29:19","新北市泰山區民權街50號","121.428701666667","25.0506383333333","6501600","泰山區"
"243011","KEA-2215","2018/07/27 19:29:18","新北市泰山區貴子路120號","121.428228333333","25.040655","6501600","泰山區"
"243010","KEA-2216","2018/07/27 19:29:27","新北市泰山區民生路17巷58號","121.429228333333","25.0511016666667","6501600","泰山區"
"243012","646-TV","2018/07/27 19:29:29","新北市泰山區仁義路220巷6號","121.43279","25.0539583333333","6501600","泰山區"
"243014","680-BX","2018/07/27 19:29:27","新北市泰山區泰林路二段92號","121.434985","25.0587516666667","6501600","泰山區"
"222003","436-BY","2018/07/27 19:29:17","新北市深坑區深南路51-1號","121.621408333333","25.0098583333333","6501800","深坑區"
"222002","659-BX","2018/07/27 19:29:16","新北市深坑區北深路一段177號","121.632601666667","25.0108983333333","6501800","深坑區"
"231041","002-UM","2018/07/27 19:29:25","新北市新店區復興路86號","121.533813333333","24.9881783333333","6500600","新店區"
"231059","046-UY","2018/07/27 19:29:11","新北市新店區安和路三段4號","121.517995","24.98075","6500600","新店區"
"231040","047-UY","2018/07/27 19:29:21","新北市新店區北新路一段38號","121.541006666667","24.9659583333333","6500600","新店區"
"231044","106-UY","2018/07/27 19:29:28","新北市新店區中興路三段128號","121.544868333333","24.9796983333333","6500600","新店區"
"231046","107-UY","2018/07/27 19:29:21","新北市新店區安康路一段9-2號","121.533698333333","24.960535","6500600","新店區"
"231053","108-UY","2018/07/27 19:29:19","新北市新店區廣興路60巷36弄6號","121.54496","24.9156383333333","6500600","新店區"
"231065","110-UY","2018/07/27 19:29:31","新北市新店區安祥路109巷1弄41號","121.477001666667","24.9604316666667","6500600","新店區"
"231048","187-VK","2018/07/27 19:29:30","新北市新店區中興路一段216號","121.543953333333","24.9657783333333","6500600","新店區"
"231054","KEA-2219","2018/07/27 19:29:15","新北市新店區文中路45號","121.539493333333","24.9566133333333","6500600","新店區"
"231057","256-BX","2018/07/27 19:29:10","新北市新店區花園一路三段36號","121.550043333333","24.9330516666667","6500600","新店區"
"231042","268-BY","2018/07/27 19:29:09","新北市新店區中興路一段24-3號","121.538818333333","24.9581816666667","6500600","新店區"
"231051","278-BY","2018/07/27 19:29:23","新北市新店區中央五街72-1號","121.526865","24.9759683333333","6500600","新店區"
"231050","AAD-862","2018/07/27 19:29:20","新北市新店區竹林路152號","121.557386666667","24.9485733333333","6500600","新店區"
"231058","3713-VJ","2018/07/27 19:29:17","新北市新店區寶橋路77號","121.545831666667","24.97529","6500600","新店區"
"231066","4716-K9","2018/07/27 19:29:19","新北市新店區安康路三段355巷29號","121.484908333333","24.9499683333333","6500600","新店區"
"231067","4772-VM","2018/07/27 19:29:27","新北市新店區薏仁坑路2-1號","121.500525","24.9578233333333","6500600","新店區"
"231049","513-UM","2018/07/27 19:29:16","新北市新店區二十張路1巷5號","121.54058","24.9820183333333","6500600","新店區"
"231063","616-UM","2018/07/27 19:29:16","新北市新店區達觀路16號","121.503146666667","24.9406916666667","6500600","新店區"
"231045","618-UM","2018/07/27 19:29:22","新北市新店區北宜路二段167巷4弄20號","121.552958333333","24.9535633333333","6500600","新店區"
"231061","619-UM","2018/07/27 19:29:04","新北市新店區安康路一段285號","121.523236666667","24.9636316666667","6500600","新店區"
"231064","719-UM","2018/07/27 19:29:24","新北市新店區安康路二段85號","121.513483333333","24.96284","6500600","新店區"
"231062","720-UM","2018/07/27 19:29:23","新北市新店區安康路一段75-1號","121.530115","24.9610833333333","6500600","新店區"
"231060","897-TW","2018/07/27 19:29:24","新北市新店區安康路二段12號","121.516185","24.963745","6500600","新店區"
"231043","899-TW","2018/07/27 19:29:14","新北市新店區北新路二段226號","121.542935","24.9773916666667","6500600","新店區"
"231055","AKT-0513","2018/07/27 19:29:20","新北市新店區中華路83巷67號","121.538348333333","24.96746","6500600","新店區"
"241028","022-UY","2018/07/27 19:29:16","新北市三重區中寮街122號","121.493898333333","25.0574933333333","6500200","三重區"
"241008","059-VK","2018/07/27 19:29:30","新北市三重區永福街135巷40號","121.477106666667","25.0772283333333","6500200","三重區"
"241022","060-VK","2018/07/27 19:29:16","新北市三重區三民街110-1號","121.485111666667","25.0634416666667","6500200","三重區"
"241031","061-VK","2018/07/27 19:29:26","新北市三重區集美街100號","121.488498333333","25.05421","6500200","三重區"
"241017","063-VK","2018/07/27 19:29:24","新北市三重區國隆路2巷1號","121.493626666667","25.0635566666667","6500200","三重區"
"241026","066-VK","2018/07/27 19:29:25","新北市三重區文化南路47巷9號","121.499788333333","25.0613666666667","6500200","三重區"
"241009","267-UM","2018/07/27 19:29:29","新北市三重區溪尾街242巷73號","121.48596","25.0814266666667","6500200","三重區"
"241032","269-UM","2018/07/27 19:29:15","新北市三重區三陽路105號","121.483998333333","25.0588133333333","6500200","三重區"
"241013","270-UM","2018/07/27 19:29:20","新北市三重區仁愛街96號","121.49548","25.07398","6500200","三重區"
"241025","271-UM","2018/07/27 19:29:31","新北市三重區頂崁街210巷28弄2號","121.475761666667","25.0677983333333","6500200","三重區"
"241007","398-BY","2018/07/27 19:29:23","新北市三重區慈愛街151號","121.48945","25.0793666666667","6500200","三重區"
"241030","413-TH","2018/07/27 19:29:16","新北市三重區環河南路254巷23號","121.490053333333","25.051155","6500200","三重區"
"241035","462-BY","2018/07/27 19:29:17","新北市三重區信義西街1巷3號","121.498011666667","25.0649933333333","6500200","三重區"
"241020","478-VK","2018/07/27 19:29:26","新北市三重區三和路四段44巷13號","121.489785","25.07435","6500200","三重區"
"241014","543-UM","2018/07/27 19:29:17","新北市三重區長興街29號","121.500305","25.068675","6500200","三重區"
"241023","545-UM","2018/07/27 19:29:22","新北市三重區頂崁街99號","121.477988333333","25.06377","6500200","三重區"
"241006","AAD-863","2018/07/27 19:29:24","新北市三重區國道路一段1號","121.486556666667","25.0734516666667","6500200","三重區"
"241029","942-UM","2018/07/27 19:29:13","新北市三重區中正南路216號","121.493801666667","25.0550883333333","6500200","三重區"
"235066","003-UY","2018/07/27 19:29:23","新北市中和區景新街43號","121.504031666667","24.9991983333333","6500300","中和區"
"235064","005-UY","2018/07/27 19:29:24","新北市中和區連城路42號","121.498211666667","25.0019633333333","6500300","中和區"
"235063","006-UY","2018/07/27 19:29:25","新北市中和區連城路203巷10弄4號","121.494876666667","24.99735","6500300","中和區"
"235056","096-UM","2018/07/27 19:29:28","新北市中和區中山路三段108號","121.47687","25.0063216666667","6500300","中和區"
"235039","097-UM","2018/07/27 19:29:29","新北市中和區秀峰街103巷6弄12號","121.519786666667","24.9900966666667","6500300","中和區"
"235065","098-UM","2018/07/27 19:29:14","新北市中和區福美路268號","121.49805","25.0051766666667","6500300","中和區"
"235040","150-BY","2018/07/27 19:29:22","新北市中和區保健路44巷31號","121.508733333333","24.9963083333333","6500300","中和區"
"235058","151-BY","2018/07/27 19:29:20","新北市中和區連城路469巷40號","121.483526666667","24.9946933333333","6500300","中和區"
"235055","183-VK","2018/07/27 19:29:15","新北市中和區莒光路120巷58號","121.471603333333","25.0007216666667","6500300","中和區"
"235038","185-VK","2018/07/27 19:29:28","新北市中和區自立路111號","121.521983333333","24.9945866666667","6500300","中和區"
"235049","186-VK","2018/07/27 19:29:25","新北市中和區景新街285號","121.509825","24.9934633333333","6500300","中和區"
"235067","255-BX","2018/07/27 19:29:25","新北市中和區中正路716號","121.485373333333","24.9967","6500300","中和區"
"235044","293-VK","2018/07/27 19:29:23","新北市中和區捷運路157號","121.506391666667","24.991165","6500300","中和區"
"235072","301-VK","2018/07/27 19:29:32","新北市中和區連城路196號","121.492026666667","24.9966083333333","6500300","中和區"
"235043","352-BY","2018/07/27 19:29:28","新北市中和區南山路92號","121.502833333333","24.9948","6500300","中和區"
"235050","4979-A6","2018/07/27 19:29:20","新北市中和區中正路416號","121.491846666667","24.9941133333333","6500300","中和區"
"235042","551-UM","2018/07/27 19:29:31","新北市中和區中和路350巷6-1號","121.510693333333","25.000525","6500300","中和區"
"235070","558-UM","2018/07/27 19:29:29","新北市中和區景平路525號","121.499023333333","24.99899","6500300","中和區"
"235045","565-BX","2018/07/27 19:29:25","新北市中和區景新街383巷12弄10號","121.513156666667","24.98991","6500300","中和區"
"235054","640-BX","2018/07/27 19:29:19","新北市中和區國光街102巷1號","121.470365","25.000555","6500300","中和區"
"235060","647-TV","2018/07/27 19:29:27","新北市中和區新生街112巷25號","121.482555","25.002815","6500300","中和區"
"235047","732-UM","2018/07/27 19:29:21","新北市中和區景平路241巷64弄8號","121.507765","24.9925466666667","6500300","中和區"
"235046","733-UM","2018/07/27 19:29:11","新北市中和區忠孝街37巷44號","121.51059","24.9847933333333","6500300","中和區"
"235071","783-BX","2018/07/27 19:29:16","新北市中和區連城路469-1號","121.48361","24.9957383333333","6500300","中和區"
"235057","801-TS","2018/07/27 19:29:25","新北市中和區中山路三段37巷43號","121.47984","25.0047333333333","6500300","中和區"
"235041","802-TS","2018/07/27 19:29:24","新北市中和區中和路350巷15弄3號","121.510408333333","25.001085","6500300","中和區"
"235052","805-TS","2018/07/27 19:29:19","新北市中和區華新街143巷74號","121.506441666667","24.979115","6500300","中和區"
"235048","896-TW","2018/07/27 19:29:25","新北市中和區忠孝街113巷2號","121.51262","24.98753","6500300","中和區"
"235053","900-TW","2018/07/27 19:29:30","新北市中和區華順街6號","121.467483333333","24.9988366666667","6500300","中和區"
"235051","157-BY","2018/07/27 19:29:28","新北市中和區景新街132巷1號","121.505075","24.9979116666667","6500300","中和區"
"235037","AAC-213","2018/07/27 19:29:29","新北市中和區秀朗路三段10巷12弄3號","121.525386666667","24.99673","6500300","中和區"
"235059","AAC-215","2018/07/27 19:29:23","新北市中和區圓通路252巷19號","121.492955","24.9916583333333","6500300","中和區"
"220065","072-UY","2018/07/27 19:29:25","新北市板橋區國泰街75巷28弄52號","121.467728333333","25.0048633333333","6500100","板橋區"
"220086","073-UY","2018/07/27 19:29:24","新北市板橋區國光路1號","121.456446666667","25.0173233333333","6500100","板橋區"
"220069","AAD-861","2018/07/27 19:29:20","新北市板橋區大明街20巷49號","121.45774","25.0037883333333","6500100","板橋區"
"220106","120-SR","2018/07/27 19:29:13","新北市板橋區江寧路三段125號","121.473543333333","25.0332333333333","6500100","板橋區"
"226004","205-ST","2018/07/27 19:29:27","新北市平溪區十分里十分街116號","121.776895","25.043145","6502400","平溪區"
"228001","212-TW","2018/07/27 19:29:27","新北市貢寮區真理里延平街68號","121.925365","25.0574016666667","6502600","貢寮區"
"228003","828-UM","2018/07/27 19:29:31","新北市貢寮區和美里和美街19-2號","121.912783333333","25.0825833333333","6502600","貢寮區"
"224002","639-TC","2018/07/27 19:29:18","新北市瑞芳區三爪子坑路13巷27號","121.814133333333","25.1069216666667","6501200","瑞芳區"
"227011","642-TC","2018/07/27 19:29:20","新北市雙溪區新基里新基北街43號","121.868196666667","25.039735","6502500","雙溪區"
"227003","400-TW","2018/07/27 19:29:26","新北市雙溪區雙溪里太平路58號","121.865078333333","25.0355033333333","6502500","雙溪區"
"253005","032-BX","2018/07/27 19:29:19","新北市石門區小坑9號","121.594325","25.28863","6502200","石門區"
"253006","295-VK","2018/07/27 19:29:29","新北市石門區中央路40號","121.568021666667","25.2927466666667","6502200","石門區"
"222001","KEA-2212","2018/07/27 19:29:23","新北市深坑區北深路二段134號","121.61589","25.0028966666667","6501800","深坑區"
"208002","KEA-2872","2018/07/27 19:29:23","新北市金山區仁愛路57號","121.635218333333","25.220725","6502700","金山區"
"208003","665-BX","2018/07/27 19:29:17","新北市金山區中山路263巷10號","121.636328333333","25.221645","6502700","金山區"
"208001","761-BX","2018/07/27 19:29:32","新北市金山區中正路78號","121.633906666667","25.2218883333333","6502700","金山區"
"251005","010-UM","2018/07/27 19:29:20","新北市淡水區水源街一段53巷12號","121.444116666667","25.17295","6501000","淡水區"
"251001","011-UM","2018/07/27 19:29:20","新北市淡水區民權路141-1號","121.460006666667","25.1363983333333","6501000","淡水區"
"251008","181-VK","2018/07/27 19:29:15","新北市淡水區中正路二段31號","121.419606666667","25.1820566666667","6501000","淡水區"
"251010","413-VK","2018/07/27 19:29:20","新北市淡水區淡海路240號","121.420161666667","25.1865416666667","6501000","淡水區"
"251007","442-VK","2018/07/27 19:29:12","新北市淡水區坪頂路47號","121.457638333333","25.1625466666667","6501000","淡水區"
"251006","561-UM","2018/07/27 19:29:28","新北市淡水區大義街42巷4號","121.442018333333","25.1785316666667","6501000","淡水區"
"251009","575-R6","2018/07/27 19:29:20","新北市淡水區大忠街5巷9號","121.443398333333","25.1765183333333","6501000","淡水區"
"207003","550-UM","2018/07/27 19:29:20","新北市萬里區大鵬里萬里加投249號","121.644353333333","25.2156016666667","6502800","萬里區"
"207004","225-TW","2018/07/27 19:29:27","新北市萬里區萬里里瑪鋉路121號","121.688951666667","25.17786","6502800","萬里區"
"252002","178-VK","2018/07/27 19:29:26","新北市三芝區淡金路二段18-1號","121.50261","25.2595783333333","6502100","三芝區"
"252001","292-VK","2018/07/27 19:29:18","新北市三芝區長勤街63-1號","121.500081666667","25.2561116666667","6502100","三芝區"
"237007","153-BY","2018/07/27 19:28:54","新北市三峽區二鬮路136巷2弄25號","121.359475","24.9087516666667","6500900","三峽區"
"237011","572-TV","2018/07/27 19:29:17","新北市三峽區介壽路三段107號","121.395576666667","24.9402716666667","6500900","三峽區"
"237009","210-TH","2018/07/27 19:29:27","新北市三峽區中山路27號","121.368565","24.934345","6500900","三峽區"
"237013","252-BX","2018/07/27 19:29:29","新北市三峽區介壽路一段340號","121.381305","24.93031","6500900","三峽區"
"237012","275-BY","2018/07/27 19:29:18","新北市三峽區中華路40號","121.372878333333","24.9314633333333","6500900","三峽區"
"237008","302-VK","2018/07/27 19:29:11","新北市三峽區永安街93號","121.374658333333","24.9290133333333","6500900","三峽區"
"237014","433-BY","2018/07/27 19:29:17","新北市三峽區仁愛街31號","121.368466666667","24.9333933333333","6500900","三峽區"
"237006","5529-G3","2018/07/27 19:29:14","新北市三峽區中正路一段336巷15弄2號","121.369943333333","24.9249416666667","6500900","三峽區"
"237011","KEA-2596","2018/07/27 19:18:09","新北市三峽區中山路459巷163-3號","121.348658333333","24.93303","6500900","三峽區"
"237015","649-BX","2018/07/27 19:29:16","新北市三峽區成福路135號","121.42025","24.9298916666667","6500900","三峽區"
"237010","706-TV","2018/07/27 19:29:20","新北市三峽區復興路41號","121.373488333333","24.9366066666667","6500900","三峽區"
"237005","AKY-6261","2018/07/27 19:29:18","新北市三峽區復興路367巷7號","121.363761666667","24.9378966666667","6500900","三峽區"
"236069","105-UM","2018/07/27 19:29:13","新北市土城區裕民路185巷36弄10號","121.454351666667","24.98452","6501300","土城區"
"236079","166-UM","2018/07/27 19:29:10","新北市土城區中州路11號","121.413986666667","24.9576033333333","6501300","土城區"
"236026","269-VK","2018/07/27 19:29:30","新北市土城區中央路二段61巷22號","121.443268333333","24.9788","6501300","土城區"
"236020","401-BY","2018/07/27 19:29:14","新北市土城區明峰街83號","121.469","24.9873583333333","6501300","土城區"
"236059","912-UM","2018/07/27 19:29:27","新北市土城區中央路二段63號","121.442705","24.9788916666667","6501300","土城區"
"236048","913-UM","2018/07/27 19:29:21","新北市土城區清水路196號","121.460331666667","24.9818533333333","6501300","土城區"
"236055","AAC-216","2018/07/27 19:29:15","新北市土城區學府路一段276號","121.450208333333","24.9833383333333","6501300","土城區"
"242023","362-BY","2018/07/27 19:29:23","新北市新莊區公園一路73號","121.44244","25.0369916666667","6500500","新莊區"
"242032","135-UY","2018/07/27 19:29:31","新北市新莊區新泰路225巷18號","121.445393333333","25.03915","6500500","新莊區"
"242048","172-VK","2018/07/27 19:29:26","新北市新莊區後港一路19號","121.424356666667","25.0259966666667","6500500","新莊區"
"242011","173-VK","2018/07/27 19:29:12","新北市新莊區三和路12-21號","121.442035","25.03861","6500500","新莊區"
"242005","176-VK","2018/07/27 19:29:13","新北市新莊區化成路11巷70號","121.462183333333","25.0435566666667","6500500","新莊區"
"242021","348-TH","2018/07/27 19:29:23","新北市新莊區三和路12-20號","121.442033333333","25.0378533333333","6500500","新莊區"
"242002","349-TH","2018/07/27 19:29:17","新北市新莊區瓊林南路77-41號","121.437666666667","25.0124783333333","6500500","新莊區"
"242013","351-TH","2018/07/27 19:29:21","新北市新莊區新泰路500號","121.442403333333","25.0458666666667","6500500","新莊區"
"238015","755-BX","2018/07/27 19:29:15","新北市樹林區中興街20-4號","121.42086","24.9901433333333","6500700","樹林區"
"238023","601-UM","2018/07/27 19:29:26","新北市樹林區三福街44號","121.407868333333","25.01645","6500700","樹林區"
"238019","599-UM","2018/07/27 19:29:33","新北市樹林區東榮街77號","121.416943333333","24.98301","6500700","樹林區"
"238018","571-TV","2018/07/27 19:29:21","新北市樹林區水源街44號","121.425633333333","24.9812983333333","6500700","樹林區"
"238024","5061-A6","2018/07/27 19:29:22","新北市樹林區中山路三段155巷17號","121.396021666667","24.972645","6500700","樹林區"
"238022","KEA-2213","2018/07/27 19:29:27","新北市樹林區太元街53號","121.418853333333","24.9789083333333","6500700","樹林區"
"238021","KEA-2539","2018/07/27 19:29:22","新北市樹林區佳園路三段213號","121.38514","24.94663","6500700","樹林區"
"238025","303-VK","2018/07/27 19:29:23","新北市樹林區中山路一段157號","121.421911666667","24.9887633333333","6500700","樹林區"
"238017","283-BY","2018/07/27 19:29:30","新北市樹林區保安街二段107巷1弄2號","121.41516","25.0008083333333","6500700","樹林區"
"238014","282-BY","2018/07/27 19:29:15","新北市樹林區保安二街64巷15號","121.424493333333","24.9964483333333","6500700","樹林區"
"238026","172-UY","2018/07/27 19:29:28","新北市樹林區佳園路二段15巷9弄19號","121.394258333333","24.9635766666667","6500700","樹林區"
"239007","AAC-297","2018/07/27 19:29:16","新北市鶯歌區大湖路326巷61弄2號","121.346013333333","24.9693083333333","6500800","鶯歌區"
"239006","891-R6","2018/07/27 19:29:30","新北市鶯歌區中正二路8號","121.351768333333","24.9519266666667","6500800","鶯歌區"
"239005","526-UM","2018/07/27 19:29:13","新北市鶯歌區文化路33號","121.359871666667","24.9569516666667","6500800","鶯歌區"
"239001","417-VK","2018/07/27 19:29:14","新北市鶯歌區中山路283號","121.344768333333","24.956985","6500800","鶯歌區"
"239003","360-BY","2018/07/27 19:29:18","新北市鶯歌區中正一路481號","121.373531666667","24.9598683333333","6500800","鶯歌區"
"239002","359-BY","2018/07/27 19:29:29","新北市鶯歌區中山路300號","121.342895","24.95751","6500800","鶯歌區"
"221008","489-VK","2018/07/27 19:29:16","新北市汐止區康寧街145號","121.62192","25.066515","6501100","汐止區"
"221036","130-UY","2018/07/27 19:29:24","新北市汐止區康寧街901號","121.65081","25.0752716666667","6501100","汐止區"
"221015","131-UY","2018/07/27 19:29:13","新北市汐止區康寧街901號","121.651425","25.0749616666667","6501100","汐止區"
"221010","269-BY","2018/07/27 19:29:26","新北市汐止區汐萬路一段333巷23號","121.648436666667","25.0762133333333","6501100","汐止區"
"221012","278-VK","2018/07/27 19:29:24","新北市汐止區保長路102號","121.675151666667","25.0781983333333","6501100","汐止區"
"221023","279-VK","2018/07/27 19:29:15","新北市汐止區康寧街598號","121.63572","25.0705183333333","6501100","汐止區"
"221027","281-BY","2018/07/27 19:29:28","新北市汐止區水源路一段6號","121.65713","25.066795","6501100","汐止區"
"221033","297-VK","2018/07/27 19:29:30","新北市汐止區南勢街3號","121.627061666667","25.0373833333333","6501100","汐止區"
"221029","298-VK","2018/07/27 19:29:25","新北市汐止區康寧街901號","121.651671666667","25.0749083333333","6501100","汐止區"
"221021","299-VK","2018/07/27 19:29:28","新北市汐止區康寧街901號","121.65157","25.075035","6501100","汐止區"
"221031","353-TW","2018/07/27 19:29:19","新北市汐止區康寧街901號","121.650823333333","25.0752683333333","6501100","汐止區"
"221025","623-UM","2018/07/27 19:29:25","新北市汐止區大同路二段382號","121.6581","25.0672066666667","6501100","汐止區"
"221038","646-BX","2018/07/27 19:29:25","新北市汐止區汐萬路一段37號","121.655418333333","25.0684716666667","6501100","汐止區"
"221002","707-TV","2018/07/27 19:29:19","新北市汐止區大同路一段339-2號","121.638233333333","25.0598483333333","6501100","汐止區"
"220080","200-UY","2018/07/27 19:29:29","新北市板橋區大觀路二段37巷140號","121.449271666667","25.0016633333333","6500100","板橋區"
"220101","245-BX","2018/07/27 19:29:27","新北市板橋區縣民大道三段67號","121.474893333333","25.0214766666667","6500100","板橋區"
"220079","256-TC","2018/07/27 19:29:15","新北市板橋區建國街3-1號","121.457125","25.0169583333333","6500100","板橋區"
"220056","276-BY","2018/07/27 19:29:30","新北市板橋區信義路1巷26弄31號","121.458686666667","24.9966566666667","6500100","板橋區"
"220072","277-BY","2018/07/27 19:29:27","新北市板橋區金門街337巷6弄6號","121.429341666667","24.985505","6500100","板橋區"
"220071","283-VK","2018/07/27 19:29:32","新北市板橋區四川路一段283巷8-2號","121.459568333333","25.0009833333333","6500100","板橋區"
"220094","285-UM","2018/07/27 19:29:18","新北市板橋區吳鳳路50巷21弄2號","121.468385","25.0303933333333","6500100","板橋區"
"220053","285-VK","2018/07/27 19:29:27","新北市板橋區永豐街205號","121.476588333333","25.02102","6500100","板橋區"
"220083","286-VK","2018/07/27 19:29:25","新北市板橋區大觀路二段174巷210號","121.442298333333","25.0041233333333","6500100","板橋區"
"220081","287-VK","2018/07/27 19:29:24","新北市板橋區南雅南路一段106號","121.454901666667","25.0043983333333","6500100","板橋區"
"220090","288-VK","2018/07/27 19:29:12","新北市板橋區裕民街92號","121.460205","25.02815","6500100","板橋區"
"220061","293-UM","2018/07/27 19:29:17","新北市板橋區中山路二段147號","121.475511666667","25.0165383333333","6500100","板橋區"
"220102","295-UM","2018/07/27 19:29:25","新北市板橋區松柏街22巷45號","121.475135","25.0288233333333","6500100","板橋區"
"220084","296-UM","2018/07/27 19:29:31","新北市板橋區滿平街84巷100弄15號","121.426036666667","24.9861316666667","6500100","板橋區"
"220075","303-R5","2018/07/27 19:29:10","新北市板橋區南雅西路二段301巷50弄10-1號","121.452276666667","25.0171383333333","6500100","板橋區"
"220062","305-R5","2018/07/27 19:29:31","新北市板橋區三民路二段95巷22號","121.480536666667","25.0162016666667","6500100","板橋區"
"220092","307-R5","2018/07/27 19:29:15","新北市板橋區文化路二段125巷15號","121.46944","25.0270083333333","6500100","板橋區"
"220098","317-R6","2018/07/27 19:29:29","新北市板橋區民生路三段263巷4弄2號","121.463758333333","25.0297466666667","6500100","板橋區"
"220064","486-VK","2018/07/27 19:29:29","新北市板橋區中山路一段28號","121.460543333333","25.0083683333333","6500100","板橋區"
"220088","491-VK","2018/07/27 19:29:17","新北市板橋區文化路二段366號","121.473116666667","25.0307716666667","6500100","板橋區"
"220035","560-BX","2018/07/27 19:29:31","新北市板橋區中正路399巷3號","121.453903333333","25.0221316666667","6500100","板橋區"
"220103","561-BX","2018/07/27 19:29:26","新北市板橋區文化路一段212巷2弄1號","121.466615","25.019985","6500100","板橋區"
"220063","609-BX","2018/07/27 19:29:31","新北市板橋區三民路一段31巷87弄13號","121.481398333333","25.0234033333333","6500100","板橋區"
"220091","637-BX","2018/07/27 19:29:28","新北市板橋區文聖街135巷16號","121.4791","25.028925","6500100","板橋區"
"220057","686-BX","2018/07/27 19:29:13","新北市板橋區和平路137號","121.462043333333","24.9948283333333","6500100","板橋區"
"220077","687-BX","2018/07/27 19:29:31","新北市板橋區僑中二街116巷1號","121.445651666667","25.0062716666667","6500100","板橋區"
"220093","689-BX","2018/07/27 19:29:16","新北市板橋區新海路128號","121.461056666667","25.02299","6500100","板橋區"
"220054","741-BX","2018/07/27 19:29:28","新北市板橋區四川路一段190號","121.459593333333","25.0026116666667","6500100","板橋區"
"220070","806-UM","2018/07/27 19:29:22","新北市板橋區重慶路40號","121.461331666667","25.0075016666667","6500100","板橋區"
"220055","827-TW","2018/07/27 19:29:28","新北市板橋區重慶路278巷20-2號","121.462223333333","24.9995833333333","6500100","板橋區"
"220067","829-TW","2018/07/27 19:29:23","新北市板橋區漢生東路299巷26號","121.472558333333","25.00879","6500100","板橋區"
"220068","830-TW","2018/07/27 19:29:28","新北市板橋區林森街1巷1號","121.482053333333","25.0241533333333","6500100","板橋區"
"220096","831-TW","2018/07/27 19:29:23","新北市板橋區大同街9號","121.477166666667","25.026885","6500100","板橋區"
"220089","833-TW","2018/07/27 19:29:12","新北市板橋區中正路250巷111號","121.460281666667","25.020345","6500100","板橋區"
"220074","895-R6","2018/07/27 19:29:32","新北市板橋區文化路一段9號","121.45793","25.009895","6500100","板橋區"
"220073","985-R7","2018/07/27 19:29:29","新北市板橋區中正路192號","121.456133333333","25.0178983333333","6500100","板橋區"
"220097","AAC-210","2018/07/27 19:29:22","新北市板橋區漢生西路159號","121.463148333333","25.0232733333333","6500100","板橋區"
"220082","AAC-253","2018/07/27 19:29:32","新北市板橋區金門街231號","121.43218","24.9896516666667","6500100","板橋區"
"235068","KEA-2873","2018/07/27 19:29:03","新北市中和區連勝街57巷14號","121.49794","24.9967166666667","6500300","中和區"
"235061","KEA-2875","2018/07/27 19:29:14","新北市中和區民利街31巷2弄6號","121.479848333333","24.9987166666667","6500300","中和區"
