"lineid","car","time","location","longitude","latitude","cityid","cityname"
"234030","746-BX","2018/07/27 20:49:25","新北市新莊區化成路579巷1號","121.464296666667","25.0663383333333","6500400","永和區"
"248004","677-BX","2018/07/27 20:49:11","新北市林口區太平里180號","121.367905","25.13446","6501500","五股區"
"234077","969-R7","2018/07/27 20:47:56","新北市五股區中直路17-3號","121.422153333333","25.1115616666667","6500400","永和區"
"234074","AAC-211","2018/07/27 20:49:32","新北市永和區竹林路91巷60弄70號","121.522866666667","25.0122033333333","6500400","永和區"
"243014","680-BX","2018/07/27 20:49:27","新北市泰山區泰林路三段745巷145號","121.405535","25.0676433333333","6501600","泰山區"
"222003","436-BY","2018/07/27 20:49:17","新北市深坑區文山路三段48-1號","121.609965","24.998495","6501800","深坑區"
"222002","659-BX","2018/07/27 20:49:28","新北市深坑區北深路三段93巷41號","121.604545","25.0004216666667","6501800","深坑區"
"231041","002-UM","2018/07/27 20:49:28","新北市新店區溪園路253號","121.523011666667","24.98147","6500600","新店區"
"231059","046-UY","2018/07/27 20:49:31","新北市新店區僑信路132巷29號","121.499891666667","24.9452333333333","6500600","新店區"
"231040","047-UY","2018/07/27 20:49:21","新北市新店區中正路266號","121.539046666667","24.97351","6500600","新店區"
"231044","106-UY","2018/07/27 20:49:28","新北市新店區中正路393號","121.534473333333","24.977225","6500600","新店區"
"231053","108-UY","2018/07/27 20:49:18","新北市新店區新烏路一段245-3號","121.54826","24.9304966666667","6500600","新店區"
"231065","110-UY","2018/07/27 20:49:31","新北市新店區安祥路69巷19號","121.481893333333","24.961315","6500600","新店區"
"231048","187-VK","2018/07/27 20:49:30","新北市新店區寶元路一段109號","121.545686666667","24.9830783333333","6500600","新店區"
"231054","KEA-2219","2018/07/27 20:49:15","新北市新店區北新路一段96巷23號","121.54299","24.9687816666667","6500600","新店區"
"231042","268-BY","2018/07/27 20:49:29","新北市新店區寶高路120巷1號","121.554576666667","24.9760533333333","6500600","新店區"
"231051","278-BY","2018/07/27 20:49:23","新北市新店區溪園路283號","121.526113333333","24.9805533333333","6500600","新店區"
"231050","AAD-862","2018/07/27 20:49:20","新北市新店區三民路48號","121.53563","24.9718766666667","6500600","新店區"
"231058","3713-VJ","2018/07/27 20:49:17","新北市新店區環河路190號","121.524631666667","24.9760533333333","6500600","新店區"
"231066","4716-K9","2018/07/27 20:49:19","新北市新店區安民街323巷3號","121.516776666667","24.9743133333333","6500600","新店區"
"231056","4715-K9","2018/07/27 20:49:30","新北市新店區光華街29號","121.515533333333","24.969715","6500600","新店區"
"231067","4772-VM","2018/07/27 20:49:27","新北市新店區安華路28-1號","121.51985","24.960905","6500600","新店區"
"231049","513-UM","2018/07/27 20:49:27","新北市新店區永業路81巷1弄1-1號","121.529438333333","24.9492816666667","6500600","新店區"
"231063","616-UM","2018/07/27 20:49:16","新北市新店區如意街8號","121.494858333333","24.9482366666667","6500600","新店區"
"231045","618-UM","2018/07/27 20:49:22","新北市新店區北新路一段99號","121.539048333333","24.9620633333333","6500600","新店區"
"231061","619-UM","2018/07/27 20:49:24","新北市新店區新和街75號","121.520525","24.9859966666667","6500600","新店區"
"231068","718-UY","2018/07/27 20:49:13","新北市新店區寶元路一段107號","121.54558","24.9828816666667","6500600","新店區"
"231064","719-UM","2018/07/27 20:49:24","新北市新店區安民街365巷1弄1號","121.516421666667","24.9757316666667","6500600","新店區"
"231062","720-UM","2018/07/27 20:49:23","新北市新店區和成街16巷1號","121.487746666667","24.9470616666667","6500600","新店區"
"231060","897-TW","2018/07/27 20:49:24","新北市新店區安康路三段628號","121.47828","24.9456116666667","6500600","新店區"
"231043","899-TW","2018/07/27 20:49:14","新北市新店區建國路95號","121.540418333333","24.9767833333333","6500600","新店區"
"241011","013-R5","2018/07/27 20:49:26","新北市三重區秀江街119-1號","121.499676666667","25.0721433333333","6500200","三重區"
"241028","022-UY","2018/07/27 20:49:16","新北市三重區中正南路41巷1號","121.49385","25.059865","6500200","三重區"
"241008","059-VK","2018/07/27 20:49:30","新北市三重區永福街72巷11號","121.479518333333","25.076845","6500200","三重區"
"241022","060-VK","2018/07/27 20:49:16","新北市三重區過圳街27-5號","121.488103333333","25.0623983333333","6500200","三重區"
"241031","061-VK","2018/07/27 20:49:26","新北市三重區重陽路一段113巷1弄1號","121.487471666667","25.05982","6500200","三重區"
"241015","062-VK","2018/07/27 20:49:23","新北市三重區自強路一段10-2號","121.498913333333","25.068155","6500200","三重區"
"241017","063-VK","2018/07/27 20:49:24","新北市三重區民生街24號","121.491846666667","25.0672416666667","6500200","三重區"
"241024","065-VK","2018/07/27 20:49:22","新北市三重區國道路一段58巷20號","121.481296666667","25.0720583333333","6500200","三重區"
"241026","066-VK","2018/07/27 20:49:25","新北市三重區文化南路7號","121.499923333333","25.0623166666667","6500200","三重區"
"241002","090-VK","2018/07/27 20:49:27","新北市三重區仁義街157巷74號","121.498566666667","25.0818633333333","6500200","三重區"
"241019","742-BX","2018/07/27 20:49:28","新北市三重區三張街45號","121.491366666667","25.0711183333333","6500200","三重區"
"241005","262-UM","2018/07/27 20:49:28","新北市三重區五華街141巷20號","121.491706666667","25.085235","6500200","三重區"
"241016","266-UM","2018/07/27 20:49:15","新北市三重區正義北路204號","121.496418333333","25.0673566666667","6500200","三重區"
"241009","267-UM","2018/07/27 20:49:29","新北市三重區三和路四段388-2號","121.482061666667","25.0791916666667","6500200","三重區"
"241018","268-UM","2018/07/27 20:49:20","新北市三重區正義北路328號","121.494808333333","25.0705866666667","6500200","三重區"
"241032","269-UM","2018/07/27 20:49:15","新北市三重區重陽路一段120巷46號","121.485096666667","25.0601566666667","6500200","三重區"
"241013","270-UM","2018/07/27 20:49:19","新北市三重區仁賢街6號","121.495618333333","25.0748533333333","6500200","三重區"
"241025","271-UM","2018/07/27 20:49:31","新北市三重區貴陽街14號","121.484213333333","25.0618716666667","6500200","三重區"
"241007","398-BY","2018/07/27 20:49:23","新北市三重區三和路四段143-1號","121.484415","25.0782783333333","6500200","三重區"
"241030","413-TH","2018/07/27 20:49:16","新北市三重區昌隆街26號","121.491955","25.0523216666667","6500200","三重區"
"241004","475-VK","2018/07/27 20:49:12","新北市三重區分子尾街36-1號","121.489441666667","25.0810533333333","6500200","三重區"
"241020","478-VK","2018/07/27 20:49:26","新北市三重區忠孝路一段101號","121.48948","25.0721133333333","6500200","三重區"
"241014","543-UM","2018/07/27 20:49:17","新北市三重區萬全街86號","121.501835","25.0703233333333","6500200","三重區"
"241023","545-UM","2018/07/27 20:49:22","新北市三重區忠孝路三段84巷5號","121.480196666667","25.0644033333333","6500200","三重區"
"241001","547-UM","2018/07/27 20:49:26","新北市三重區自強路三段80號","121.48714","25.0743416666667","6500200","三重區"
"241006","AAD-863","2018/07/27 20:49:24","新北市三重區車路頭街139巷12號","121.484245","25.0762416666667","6500200","三重區"
"241012","941-UM","2018/07/27 20:49:15","新北市三重區仁信街27號","121.50128","25.0755583333333","6500200","三重區"
"241029","942-UM","2018/07/27 20:49:21","新北市三重區重安街18號","121.490328333333","25.058055","6500200","三重區"
"241033","AAC-255","2018/07/27 20:49:17","新北市三重區光復路二段1號","121.472425","25.0533816666667","6500200","三重區"
"247010","KEA-2869","2018/07/27 20:49:30","新北市蘆洲區鷺江街87號","121.476925","25.0836783333333","6501400","蘆洲區"
"235069","4980-A6","2018/07/27 20:49:15","新北市中和區新生街205號","121.483826666667","24.999905","6500300","中和區"
"247024","893-R6","2018/07/27 20:49:16","新北市蘆洲區長樂路136號","121.46224","25.0901116666667","6501400","蘆洲區"
"247014","546-UM","2018/07/27 20:49:26","新北市蘆洲區三民路95號","121.473846666667","25.0849483333333","6501400","蘆洲區"
"247022","500-BY","2018/07/27 20:49:16","新北市蘆洲區三民路155號","121.471388333333","25.0868233333333","6501400","蘆洲區"
"247012","339-TH","2018/07/27 20:49:27","新北市蘆洲區集賢路222巷11號","121.482021666667","25.0872133333333","6501400","蘆洲區"
"247004","337-TH","2018/07/27 20:49:29","新北市蘆洲區長安街100號","121.461633333333","25.0809266666667","6501400","蘆洲區"
"247006","336-TH","2018/07/27 20:49:32","新北市蘆洲區永安南路二段18號","121.467741666667","25.07712","6501400","蘆洲區"
"247008","056-VK","2018/07/27 20:49:33","新北市蘆洲區信義路34巷184號","121.476141666667","25.0755366666667","6501400","蘆洲區"
"247016","007-UY","2018/07/27 20:49:22","新北市蘆洲區中正路53號","121.470851666667","25.0826616666667","6501400","蘆洲區"
"247002","002-UY","2018/07/27 20:49:13","新北市蘆洲區永康街118號","121.457875","25.0853116666667","6501400","蘆洲區"
"247020","001-UY","2018/07/27 20:49:25","新北市蘆洲區仁愛街64號","121.471486666667","25.09404","6501400","蘆洲區"
"222001","KEA-2212","2018/07/27 20:49:23","新北市深坑區北深路三段129號","121.604023333333","25.0024733333333","6501800","深坑區"
"251004","009-UM","2018/07/27 20:24:58","新北市淡水區中正東路二段143巷2弄1號","121.460581666667","25.1473716666667","6501000","淡水區"
"251005","010-UM","2018/07/27 20:49:20","新北市淡水區學府路88號","121.448973333333","25.1707333333333","6501000","淡水區"
"251001","011-UM","2018/07/27 20:49:20","新北市淡水區淡金路一段69號","121.458811666667","25.17311","6501000","淡水區"
"251002","012-UM","2018/07/27 20:49:25","新北市淡水區中正東路6號","121.44708","25.1670533333333","6501000","淡水區"
"251010","413-VK","2018/07/27 20:49:18","新北市淡水區沙崙路141-1號","121.423255","25.182995","6501000","淡水區"
"251012","441-VK","2018/07/27 20:49:30","新北市淡水區淡金路四段514號","121.45209","25.2258016666667","6501000","淡水區"
"251007","442-VK","2018/07/27 20:49:32","新北市淡水區鄧公路29巷28號","121.45259","25.1700283333333","6501000","淡水區"
"251009","575-R6","2018/07/27 20:49:23","新北市淡水區民權路187巷34號","121.460618333333","25.1334483333333","6501000","淡水區"
"251011","650-BX","2018/07/27 20:49:19","新北市淡水區新民街一段13-1號","121.433113333333","25.1847766666667","6501000","淡水區"
"251003","673-BX","2018/07/27 20:49:12","新北市淡水區中山北路一段247巷102號","121.442173333333","25.179575","6501000","淡水區"
"237011","KEA-2596","2018/07/27 20:49:27","新北市三峽區中山路459巷163-3號","121.348818333333","24.9330116666667","6500900","三峽區"
"236020","401-BY","2018/07/27 20:49:14","新北市樹林區育德街78-1號","121.38848","24.9681583333333","6501300","土城區"
"242034","AAC-296","2018/07/27 20:49:24","新北市新莊區中正路222號","121.44867","25.035385","6500500","新莊區"
"242058","986-R7","2018/07/27 20:49:31","新北市新莊區民安路138號","121.424205","25.0253566666667","6500500","新莊區"
"242029","612-BX","2018/07/27 20:49:25","新北市新莊區瓊林路13-2號","121.449071666667","25.0311666666667","6500500","新莊區"
"242041","566-BX","2018/07/27 20:49:20","新北市新莊區天祥街8號","121.417225","25.027075","6500500","新莊區"
"242050","441-UM","2018/07/27 20:49:28","新北市新莊區民安東路152號","121.431653333333","25.0205866666667","6500500","新莊區"
"242060","353-BY","2018/07/27 20:49:32","新北市新莊區新樹路525-5號","121.432716666667","25.0097133333333","6500500","新莊區"
"242009","132-UY","2018/07/27 20:49:31","新北市新莊區福壽街74號","121.458401666667","25.0493666666667","6500500","新莊區"
"242002","349-TH","2018/07/27 20:49:17","新北市新莊區中港路五守新村35巷2號","121.454631666667","25.03869","6500500","新莊區"
"221027","281-BY","2018/07/27 20:49:28","新北市汐止區汐萬路一段119號","121.654153333333","25.0710366666667","6501100","汐止區"
"221033","297-VK","2018/07/27 20:49:30","新北市汐止區合順街18巷8弄5號","121.620323333333","25.041895","6501100","汐止區"
"221029","298-VK","2018/07/27 20:49:25","新北市汐止區樟樹二路352號","121.643918333333","25.0739533333333","6501100","汐止區"
"221035","622-UM","2018/07/27 20:49:29","新北市汐止區康寧街901號","121.651023333333","25.075195","6501100","汐止區"
"221038","646-BX","2018/07/27 20:49:25","新北市汐止區汐萬路一段256巷3號","121.652065","25.074775","6501100","汐止區"
"221002","707-TV","2018/07/27 20:49:19","新北市汐止區福德二路165號","121.630963333333","25.065175","6501100","汐止區"
"221018","753-BX","2018/07/27 20:49:18","新北市汐止區康寧街901號","121.650765","25.0753033333333","6501100","汐止區"
"220070","806-UM","2018/07/27 20:49:22","新北市林口區汕頭32號","121.366668333333","25.1350066666667","6500100","板橋區"
