"lineid","car","time","location","longitude","latitude","cityid","cityname"
"234077","969-R7","2018/07/27 21:49:16","新北市永和區豫溪街191巷7弄8號","121.523781666667","25.0108733333333","6500400","永和區"
"241028","022-UY","2018/07/27 21:49:16","新北市八里區中山路三段409號","121.368768333333","25.1341283333333","6500200","三重區"
"241016","266-UM","2018/07/27 21:49:15","新北市五股區中直路15-2號","121.423698333333","25.1109383333333","6500200","三重區"
"241006","AAD-863","2018/07/27 21:49:24","新北市八里區中山路三段383號","121.372548333333","25.1377066666667","6500200","三重區"
"247010","KEA-2869","2018/07/27 21:49:29","新北市林口區汕頭32號","121.36636","25.13464","6501400","蘆洲區"
"235010","733-UM","2018/07/27 21:46:19","新北市中和區員山路36巷13號","121.48421","24.99081","6500300","中和區"
"251004","009-UM","2018/07/27 21:49:16","新北市淡水區自強路201巷49號","121.462166666667","25.1269883333333","6501000","淡水區"
"251005","010-UM","2018/07/27 21:49:28","新北市淡水區鄧公路30巷32弄1號","121.453533333333","25.1700916666667","6501000","淡水區"
"251001","011-UM","2018/07/27 21:49:20","新北市淡水區後洲路一段157號","121.42777","25.19859","6501000","淡水區"
"251002","012-UM","2018/07/27 21:49:25","新北市淡水區學府路198巷11號","121.447986666667","25.1761133333333","6501000","淡水區"
"251008","181-VK","2018/07/27 21:49:18","新北市淡水區學府路104號","121.449846666667","25.1718133333333","6501000","淡水區"
"251010","413-VK","2018/07/27 21:49:17","新北市淡水區中正路二段211號","121.426191666667","25.1891","6501000","淡水區"
"251012","441-VK","2018/07/27 21:49:30","新北市淡水區淡金路三段266號","121.448935","25.20657","6501000","淡水區"
"251007","442-VK","2018/07/27 21:49:32","新北市淡水區水源街二段177巷52弄5號","121.452818333333","25.1772116666667","6501000","淡水區"
"251006","561-UM","2018/07/27 21:49:28","新北市淡水區中正路11巷3號","121.437841666667","25.1707566666667","6501000","淡水區"
"251009","575-R6","2018/07/27 21:49:23","新北市淡水區民族路35巷32號","121.46486","25.136435","6501000","淡水區"
"251011","650-BX","2018/07/27 21:49:19","新北市淡水區新民街322巷9號","121.436368333333","25.1827916666667","6501000","淡水區"
"251003","673-BX","2018/07/27 21:49:32","新北市淡水區新春街87號","121.438978333333","25.1825433333333","6501000","淡水區"
"220070","806-UM","2018/07/27 21:49:22","新北市板橋區華東街1-9號","121.448138333333","24.9948033333333","6500100","板橋區"
