"lineid","car","time","location","longitude","latitude","cityid","cityname"
"234001","149-BY","2018/09/20 08:48:59","新北市永和區永貞路443號","121.507095","25.01047","6500400","永和區"
"248005","653-BX","2018/09/20 08:49:14","新北市五股區明德路12巷6號","121.433351666667","25.0718766666667","6501500","五股區"
"232001","290-BY","2018/09/20 08:49:07","新北市坪林區虎寮潭1號","121.74095","24.9504766666667","6502000","坪林區"
"244022","069-UM","2018/09/20 08:49:09","新北市林口區興林路146號","121.388755","25.0718333333333","6501700","林口區"
"244006","080-UY","2018/09/20 08:49:10","新北市林口區中山路137號","121.388288333333","25.079025","6501700","林口區"
"244003","248-BX","2018/09/20 08:49:05","新北市林口區下福里135號","121.296388333333","25.1198933333333","6501700","林口區"
"244018","403-UM","2018/09/20 08:49:25","新北市林口區忠孝路512巷42號","121.371833333333","25.0684983333333","6501700","林口區"
"244012","KEA-2802","2018/09/20 08:49:15","新北市林口區中山路206號","121.386921666667","25.07929","6501700","林口區"
"244016","485-VK","2018/09/20 08:49:03","新北市林口區文化二路一段226-1號","121.369488333333","25.0725316666667","6501700","林口區"
"244008","656-BX","2018/09/20 08:49:13","新北市林口區佳林路82號","121.385818333333","25.08029","6501700","林口區"
"244010","657-BX","2018/09/20 08:49:22","新北市林口區中正路25號","121.396286666667","25.0773233333333","6501700","林口區"
"244001","658-BX","2018/09/20 08:49:19","新北市林口區仁愛路二段201-1號","121.377291666667","25.0747583333333","6501700","林口區"
"244024","837-TS","2018/09/20 08:49:21","新北市林口區南勢六街30巷25號","121.356876666667","25.0716866666667","6501700","林口區"
"244020","838-TS","2018/09/20 08:49:03","新北市林口區自強四街18號","121.399378333333","25.0765333333333","6501700","林口區"
"222006","289-BY","2018/09/20 08:49:08","新北市深坑區風格街31巷17號","121.627233333333","25.0175483333333","6501800","深坑區"
"231008","188-VK","2018/09/20 08:49:04","新北市新店區新烏路三段165巷22號","121.552931666667","24.90117","6500600","新店區"
"231069","189-VK","2018/09/20 08:47:00","新北市新店區新潭路三段275-1號","121.502126666667","24.90271","6500600","新店區"
"231053","719-UY","2018/09/20 08:49:01","新北市新店區北宜路三段320號","121.606693333333","24.95606","6500600","新店區"
"235001","611-BX","2018/09/20 08:49:20","新北市中和區民安街53-12號","121.479686666667","24.9993416666667","6500300","中和區"
"226005","5620-A6","2018/09/20 08:49:04","新北市平溪區十分里十分街122號","121.777103333333","25.04313","6502400","平溪區"
"226007","7418-A5","2018/09/20 08:49:14","新北市平溪區東勢里芊蓁坑30號","121.72755","24.9791766666667","6502400","平溪區"
"226003","AGD-0702","2018/09/20 08:49:14","新北市平溪區十分里十分街248號","121.777733333333","25.0446683333333","6502400","平溪區"
"223006","022-BY","2018/09/20 08:49:05","新北市深坑區昇高坑路51-1號","121.630248333333","24.994025","6501900","石碇區"
"223003","205-TH","2018/09/20 08:49:08","新北市石碇區北宜路六段水底寮巷12號","121.666115","24.94295","6501900","石碇區"
"223008","406-TH","2018/09/20 08:49:01","新北市石碇區碇南路二段松柏崎巷38號","121.67841","25.024375","6501900","石碇區"
"223001","592-UM","2018/09/20 08:49:17","新北市石碇區北宜路六段水底寮巷11-1號","121.66484","24.945075","6501900","石碇區"
"223004","660-BX","2018/09/20 08:49:06","新北市石碇區崩山24-2號","121.678671666667","24.9678033333333","6501900","石碇區"
"223005","677-TV","2018/09/20 08:49:22","新北市石碇區崩山24-2號","121.678675","24.9677683333333","6501900","石碇區"
"252004","249-BX","2018/09/20 08:49:20","新北市三芝區興華里田心子20-7號","121.493585","25.2007816666667","6502100","三芝區"
"252007","AAC-283","2018/09/20 08:49:12","新北市三芝區後厝里北勢子22號","121.473278333333","25.2533983333333","6502100","三芝區"
"237001","159-UY","2018/09/20 08:49:07","新北市三峽區學勤路162號","121.375598333333","24.9465916666667","6500900","三峽區"
"242035","AAC-296","2018/09/20 08:49:21","新北市新莊區民安路207巷32弄5號","121.42834","25.024305","6500500","新莊區"
"242057","986-R7","2018/09/20 08:49:10","新北市新莊區八德街17號","121.425335","25.0225916666667","6500500","新莊區"
"242055","751-BX","2018/09/20 08:49:19","新北市新莊區瓊林路13-3號","121.44891","25.0309916666667","6500500","新莊區"
"242028","705-TV","2018/09/20 08:49:19","新北市新莊區中榮街152巷2號","121.445941666667","25.05299","6500500","新莊區"
"242026","615-BX","2018/09/20 08:49:17","新北市新莊區立信三街25號","121.44298","25.0504966666667","6500500","新莊區"
"242024","613-BX","2018/09/20 08:49:18","新北市新莊區五權一路12巷21弄11號","121.457975","25.0647316666667","6500500","新莊區"
"242043","566-BX","2018/09/20 08:49:20","新北市新莊區中山路三段619號","121.413131666667","25.02508","6500500","新莊區"
"242047","497-BY","2018/09/20 08:49:22","新北市新莊區建安街92巷7號","121.425836666667","25.0241616666667","6500500","新莊區"
"242052","442-UM","2018/09/20 08:49:11","新北市新莊區民安西路365號","121.428561666667","25.01042","6500500","新莊區"
"242001","440-UM","2018/09/20 08:49:19","新北市新莊區中正路181號","121.453928333333","25.0363633333333","6500500","新莊區"
"242038","415-TV","2018/09/20 08:49:18","新北市新莊區民安路287-5號","121.42875","25.02308","6500500","新莊區"
"242008","413-TV","2018/09/20 08:49:19","新北市新莊區昌盛街65巷2弄1號","121.454951666667","25.0502433333333","6500500","新莊區"
"242045","400-BY","2018/09/20 08:49:09","新北市新莊區中正路829巷61號","121.421533333333","25.0272183333333","6500500","新莊區"
"242022","362-BY","2018/09/20 08:49:13","新北市新莊區化成路319號","121.465956666667","25.0557566666667","6500500","新莊區"
"242059","353-BY","2018/09/20 08:49:07","新北市新莊區後港一路112號","121.428556666667","25.0269066666667","6500500","新莊區"
"242010","132-UY","2018/09/20 08:48:52","新北市新莊區中港路605巷8號","121.450933333333","25.0531916666667","6500500","新莊區"
"242040","133-UY","2018/09/20 08:49:04","新北市新莊區天祥街114號","121.414686666667","25.02977","6500500","新莊區"
"242033","135-UY","2018/09/20 08:49:16","新北市新莊區仁愛街54巷12號","121.444998333333","25.0370633333333","6500500","新莊區"
"242049","172-VK","2018/09/20 08:49:19","新北市新莊區民安西路196巷28號","121.425043333333","25.01557","6500500","新莊區"
"242012","173-VK","2018/09/20 08:45:22","新北市新莊區中港路443號","121.452631666667","25.048315","6500500","新莊區"
"242018","175-VK","2018/09/20 08:49:17","新北市新莊區思源路123號","121.4598","25.0424933333333","6500500","新莊區"
"242006","176-VK","2018/09/20 08:49:13","新北市新莊區福壽街142巷38號","121.459238333333","25.0519266666667","6500500","新莊區"
"242001","233-RS","2018/09/20 08:49:17","新北市樹林區太平路269號","121.419441666667","24.9729733333333","6500500","新莊區"
"242016","346-TH","2018/09/20 08:49:16","新北市新莊區中港一街99號","121.449151666667","25.0451666666667","6500500","新莊區"
"242003","347-TH","2018/09/20 08:49:16","新北市新莊區化成路25-15號","121.463786666667","25.04383","6500500","新莊區"
"242030","348-TH","2018/09/20 08:49:16","新北市新莊區新泰路225巷18號","121.445373333333","25.0391616666667","6500500","新莊區"
"242020","350-TH","2018/09/20 08:49:02","新北市新莊區中興街59號","121.449118333333","25.0374116666667","6500500","新莊區"
"242014","351-TH","2018/09/20 08:49:19","新北市新莊區新泰路308號","121.445443333333","25.0412333333333","6500500","新莊區"
