"lineid","car","time","location","longitude","latitude","cityid","cityname"
"234001","149-BY","2018/09/20 10:39:19","新北市八里區中山路三段386號","121.368453333333","25.135955","6500400","永和區"
"244022","069-UM","2018/09/20 10:39:08","新北市林口區民權路165-1號","121.374358333333","25.0848316666667","6501700","林口區"
"244019","403-UM","2018/09/20 10:39:25","新北市林口區粉寮路二段88巷100-12號","121.40965","25.09021","6501700","林口區"
"222006","289-BY","2018/09/20 10:39:08","新北市深坑區向天湖2號","121.616438333333","24.9945533333333","6501800","深坑區"
"231008","188-VK","2018/09/20 10:39:24","新北市新店區松林路16巷41號","121.545343333333","24.906595","6500600","新店區"
"231069","189-VK","2018/09/20 10:39:19","新北市新店區新潭路三段119號","121.508825","24.9111233333333","6500600","新店區"
"231053","719-UY","2018/09/20 10:39:22","新北市新店區薏仁坑路自強巷1號","121.497046666667","24.9581783333333","6500600","新店區"
"237001","159-UY","2018/09/20 10:39:07","新北市三峽區中山路459巷163-3號","121.34916","24.9334083333333","6500900","三峽區"
