"lineid","car","time","location","longitude","latitude","cityid","cityname"
"234001","149-BY","2018/09/20 10:59:19","新北市五股區凌雲路二段66號","121.439806666667","25.1061516666667","6500400","永和區"
"244019","403-UM","2018/09/20 10:59:04","新北市林口區粉寮路二段88巷100-12號","121.409623333333","25.090205","6501700","林口區"
"231008","188-VK","2018/09/20 10:59:04","新北市新店區成功路141號","121.53322","24.892245","6500600","新店區"
"231069","189-VK","2018/09/20 10:59:19","新北市新店區新潭路二段106號","121.515345","24.924495","6500600","新店區"
"237001","159-UY","2018/09/20 10:59:07","新北市三峽區中山路459巷163-3號","121.34918","24.9334033333333","6500900","三峽區"
