"lineid","car","time","location","longitude","latitude","cityid","cityname"
"234001","149-BY","2018/09/20 11:09:19","新北市板橋區光復街172巷16-3號","121.486653333333","25.0178283333333","6500400","永和區"
"244019","403-UM","2018/09/20 11:09:24","新北市林口區粉寮路二段88巷100-12號","121.4096","25.09019","6501700","林口區"
"231008","188-VK","2018/09/20 11:09:24","新北市新店區松林路16巷41號","121.546148333333","24.90691","6500600","新店區"
"231069","189-VK","2018/09/20 11:09:19","新北市新店區新潭路二段62巷51號","121.522991666667","24.92639","6500600","新店區"
"237001","159-UY","2018/09/20 11:09:07","新北市三峽區中山路459巷163-3號","121.349176666667","24.9334083333333","6500900","三峽區"
