"lineid","car","time","location","longitude","latitude","cityid","cityname"
"234044","148-BY","2018/09/20 12:59:20","新北市永和區得和路373巷16弄9號","121.525541666667","25.000125","6500400","永和區"
"234005","207-UY","2018/09/20 12:59:26","新北市永和區永和路二段50號","121.514848333333","25.0109333333333","6500400","永和區"
"234078","298-R6","2018/09/20 12:59:18","新北市永和區國中路198號","121.52236","25.0062133333333","6500400","永和區"
"234036","336-UY","2018/09/20 12:59:23","新北市永和區成功路二段199-2號","121.526595","24.9960416666667","6500400","永和區"
"234062","337-UY","2018/09/20 12:59:25","新北市永和區秀朗路一段138號","121.51792","25.0034066666667","6500400","永和區"
"234084","338-UY","2018/09/20 12:59:12","新北市永和區中正路385號","121.517358333333","25.0039433333333","6500400","永和區"
"234068","552-UM","2018/09/20 12:59:09","新北市永和區竹林路96巷21號","121.518611666667","25.0117133333333","6500400","永和區"
"234015","745-BX","2018/09/20 12:59:20","新北市永和區永和路二段299號","121.516055","25.0160916666667","6500400","永和區"
"234028","746-BX","2018/09/20 12:59:19","新北市永和區秀朗路二段267號","121.526193333333","24.9986833333333","6500400","永和區"
"234052","KEA-2590","2018/09/20 12:59:16","新北市永和區竹林路66巷2號","121.518275","25.0134016666667","6500400","永和區"
"234012","KEA-2591","2018/09/20 12:59:22","新北市永和區中山路一段60巷12號","121.513241666667","25.0110883333333","6500400","永和區"
"234060","AAD-866","2018/09/20 12:59:20","新北市永和區福和路297號","121.516521666667","25.0072216666667","6500400","永和區"
"234048","863-TW","2018/09/20 12:59:16","新北市永和區文化路165號","121.510096666667","25.0165383333333","6500400","永和區"
"234025","9371-KE","2018/09/20 12:59:12","新北市永和區永和路一段41號","121.512825","25.0062333333333","6500400","永和區"
"234010","9373-KE","2018/09/20 12:59:20","新北市永和區文化路113巷21弄2號","121.513271666667","25.0140116666667","6500400","永和區"
"248013","025-BX","2018/09/20 12:59:14","新北市五股區中興路二段91-5號","121.459948333333","25.0768416666667","6501500","五股區"
"248005","077-UY","2018/09/20 12:59:20","新北市五股區中興路二段83巷26-6號","121.459856666667","25.07538","6501500","五股區"
"248007","095-VK","2018/09/20 12:59:08","新北市五股區中興路二段150號","121.458618333333","25.0785683333333","6501500","五股區"
"248017","225-UY","2018/09/20 12:59:18","新北市五股區中興路二段83巷26-6號","121.459958333333","25.0753516666667","6501500","五股區"
"248001","655-BX","2018/09/20 12:59:22","新北市五股區中興路二段83巷26-3號","121.45992","25.07562","6501500","五股區"
"248003","677-BX","2018/09/20 12:59:26","新北市五股區中興路二段83巷26-6號","121.459788333333","25.0747233333333","6501500","五股區"
"234022","9380-KE","2018/09/20 12:59:20","新北市永和區竹林路75巷33弄1號","121.520568333333","25.01425","6500400","永和區"
"234076","969-R7","2018/09/20 12:59:27","新北市永和區民享街11號","121.515318333333","24.9952916666667","6500400","永和區"
"234072","AAC-211","2018/09/20 12:59:24","新北市永和區環河東路二段92號","121.524115","25.0105166666667","6500400","永和區"
"234066","AAC-212","2018/09/20 12:59:15","新北市永和區水源街6號","121.512831666667","25.0050633333333","6500400","永和區"
"234001","AAC-295","2018/09/20 12:59:29","新北市永和區永平路29號","121.513161666667","25.0087233333333","6500400","永和區"
"244003","248-BX","2018/09/20 12:59:25","新北市林口區中山路520-1號","121.378705","25.0832616666667","6501700","林口區"
"243004","646-TV","2018/09/20 12:33:14","新北市泰山區黎明路31號","121.421776666667","25.06061","6501600","泰山區"
"231002","002-UM","2018/09/20 12:59:13","新北市新店區安華路28-1號","121.519701666667","24.9608316666667","6500600","新店區"
"231028","046-UY","2018/09/20 12:59:22","新北市新店區安華路28-1號","121.519531666667","24.96084","6500600","新店區"
"231001","047-UY","2018/09/20 12:59:11","新北市新店區安一路一段1-1號","121.519126666667","24.96097","6500600","新店區"
"231005","106-UY","2018/09/20 12:59:19","新北市新店區安華路28-1號","121.519571666667","24.9608116666667","6500600","新店區"
"231011","187-VK","2018/09/20 12:59:08","新北市新店區安一路一段1-1號","121.519566666667","24.961205","6500600","新店區"
"231023","KEA-2219","2018/09/20 12:59:29","新北市新店區安一路一段1-1號","121.519686666667","24.9612916666667","6500600","新店區"
"231003","268-BY","2018/09/20 12:59:25","新北市新店區安華路28-1號","121.519561666667","24.9607183333333","6500600","新店區"
"231018","278-BY","2018/09/20 12:59:13","新北市新店區安一路一段1-1號","121.519703333333","24.9610883333333","6500600","新店區"
"231017","AAD-862","2018/09/20 12:59:20","新北市新店區安一路一段1-1號","121.519895","24.9612233333333","6500600","新店區"
"231038","3712-VJ","2018/09/20 12:59:16","新北市新店區安華路28-1號","121.519271666667","24.9607866666667","6500600","新店區"
"231027","3713-VJ","2018/09/20 12:59:27","新北市新店區安華路28-1號","121.51926","24.9605783333333","6500600","新店區"
"231037","4716-K9","2018/09/20 12:59:22","新北市新店區安華路28-1號","121.519596666667","24.961015","6500600","新店區"
"231036","512-UM","2018/09/20 12:59:22","新北市新店區安一路一段1-1號","121.519435","24.9614383333333","6500600","新店區"
"231013","513-UM","2018/09/20 12:59:22","新北市新店區安一路一段1-1號","121.519586666667","24.961195","6500600","新店區"
"231034","616-UM","2018/09/20 12:59:16","新北市新店區安華路1-1號","121.519441666667","24.9605083333333","6500600","新店區"
"231006","617-UM","2018/09/20 12:59:17","新北市新店區安華路28-1號","121.51943","24.9609966666667","6500600","新店區"
"231030","619-UM","2018/09/20 12:59:13","新北市新店區安華路28-1號","121.519355","24.96079","6500600","新店區"
"231031","720-UM","2018/09/20 12:59:20","新北市新店區安一路一段1-1號","121.519216666667","24.961285","6500600","新店區"
"231029","897-TW","2018/09/20 12:59:15","新北市新店區安華路28-1號","121.51947","24.9608433333333","6500600","新店區"
"231004","899-TW","2018/09/20 12:59:17","新北市新店區安康路一段359-27號","121.5187","24.9610016666667","6500600","新店區"
"231024","AKT-0513","2018/09/20 12:59:24","新北市新店區安華路1-1號","121.519395","24.9604766666667","6500600","新店區"
"235030","003-UY","2018/09/20 12:59:27","新北市中和區錦和路350-1號","121.490301666667","24.993605","6500300","中和區"
"235028","005-UY","2018/09/20 12:59:18","新北市中和區員山路36巷16-3號","121.485085","24.9912866666667","6500300","中和區"
"235027","006-UY","2018/09/20 12:59:26","新北市中和區員山路36巷16-3號","121.485096666667","24.9912866666667","6500300","中和區"
"235029","098-UM","2018/09/20 12:59:25","新北市中和區福祥路142號","121.498686666667","25.007105","6500300","中和區"
"235004","150-BY","2018/09/20 12:59:24","新北市中和區和城路一段271巷1號","121.485408333333","24.99168","6500300","中和區"
"235022","151-BY","2018/09/20 12:59:11","新北市中和區圓通路367巷8號","121.491555","24.9891066666667","6500300","中和區"
"235002","185-VK","2018/09/20 12:59:08","新北市永和區民生路67巷44號","121.525036666667","24.9972533333333","6500300","中和區"
"235031","255-BX","2018/09/20 12:59:14","新北市中和區中正路897號","121.484266666667","25.0047166666667","6500300","中和區"
"235018","640-BX","2018/09/20 12:59:27","新北市中和區員山路36巷16-2號","121.484961666667","24.9919566666667","6500300","中和區"
"235035","783-BX","2018/09/20 12:59:09","新北市中和區中正路776號","121.48506","25.000275","6500300","中和區"
"235005","802-TS","2018/09/20 12:59:15","新北市中和區和城路一段271巷1號","121.485421666667","24.9917483333333","6500300","中和區"
"235012","896-TW","2018/09/20 12:59:21","新北市中和區員山路36巷16-3號","121.485023333333","24.9917083333333","6500300","中和區"
"235017","900-TW","2018/09/20 12:59:24","新北市中和區員山路36巷16-3號","121.484848333333","24.9915433333333","6500300","中和區"
"235015","157-BY","2018/09/20 12:59:06","新北市中和區員山路36巷13號","121.484026666667","24.9910766666667","6500300","中和區"
"235001","AAC-213","2018/09/20 12:59:22","新北市中和區景平路514號","121.503446666667","24.99374","6500300","中和區"
"235026","251-BX","2018/09/20 12:59:13","新北市中和區員山路36巷16-3號","121.484883333333","24.99153","6500300","中和區"
"228005","097-TW","2018/09/20 12:59:11","新北市貢寮區福隆里桂安街5號","121.961538333333","25.020445","6502600","貢寮區"
"228004","212-TW","2018/09/20 12:59:26","新北市貢寮區吉林里內寮街19號","121.887201666667","24.9880716666667","6502600","貢寮區"
"253001","6251-TK","2018/09/20 12:59:23","新北市石門區中山路43號","121.56677","25.29119","6502200","石門區"
"207002","749-BX","2018/09/20 12:59:23","新北市萬里區雙興里大坪路37-5號","121.628166666667","25.1700983333333","6502800","萬里區"
"207001","662-BX","2018/09/20 12:59:21","新北市萬里區萬里里獅頭路23號","121.69351","25.178295","6502800","萬里區"
"252005","AAC-283","2018/09/20 12:59:24","新北市三芝區忠孝街1-6號","121.505646666667","25.2545066666667","6502100","三芝區"
"221010","269-BY","2018/09/20 12:59:23","新北市汐止區忠三街8號","121.624713333333","25.0784616666667","6501100","汐止區"
"221032","280-BY","2018/09/20 12:59:27","新北市汐止區建成路57巷20號","121.66255","25.072825","6501100","汐止區"
"235032","KEA-2873","2018/09/20 12:59:04","新北市中和區員山路36巷16-3號","121.484986666667","24.9913666666667","6500300","中和區"
"235025","KEA-2875","2018/09/20 12:59:08","新北市中和區員山路36巷16-2號","121.485251666667","24.9916866666667","6500300","中和區"
