"lineid","car","time","location","longitude","latitude","cityid","cityname"
"234044","148-BY","2018/09/20 13:09:20","新北市永和區永元路18巷9號","121.523131666667","25.0003083333333","6500400","永和區"
"234005","207-UY","2018/09/20 13:09:26","新北市永和區中山路一段133號","121.510503333333","25.0098883333333","6500400","永和區"
"234078","298-R6","2018/09/20 13:09:18","新北市永和區福和路57巷14弄1號","121.52271","25.0068683333333","6500400","永和區"
"234036","336-UY","2018/09/20 13:09:23","新北市永和區民樂街69巷5號","121.52753","24.9977583333333","6500400","永和區"
"234062","337-UY","2018/09/20 13:09:25","新北市永和區秀朗路二段15號","121.52105","25.00275","6500400","永和區"
"234084","338-UY","2018/09/20 13:09:12","新北市永和區永貞路113號","121.51769","25.00438","6500400","永和區"
"234068","552-UM","2018/09/20 13:09:09","新北市永和區豫溪街95巷8號","121.518166666667","25.010755","6500400","永和區"
"234015","745-BX","2018/09/20 13:09:20","新北市永和區文化路90巷15號","121.513771666667","25.0161533333333","6500400","永和區"
"234028","746-BX","2018/09/20 13:09:23","新北市永和區四維街111號","121.523626666667","24.998315","6500400","永和區"
"234052","KEA-2590","2018/09/20 13:09:23","新北市永和區中興街133巷20號","121.518118333333","25.0125816666667","6500400","永和區"
"234012","KEA-2591","2018/09/20 13:09:22","新北市永和區保福路二段6號","121.511003333333","25.011025","6500400","永和區"
"234060","AAD-866","2018/09/20 13:09:20","新北市永和區安樂路451號","121.514361666667","25.0049633333333","6500400","永和區"
"234040","862-TW","2018/09/20 13:09:24","新北市永和區永貞路332巷28號","121.511666666667","25.0057983333333","6500400","永和區"
"234048","863-TW","2018/09/20 13:09:16","新北市永和區文化路135巷26弄1號","121.510598333333","25.0144566666667","6500400","永和區"
"234025","9371-KE","2018/09/20 13:09:11","新北市永和區秀朗路一段10巷19號","121.513531666667","25.0062283333333","6500400","永和區"
"234010","9373-KE","2018/09/20 13:09:11","新北市永和區仁愛路31巷2弄1號","121.514178333333","25.0129333333333","6500400","永和區"
"248013","025-BX","2018/09/20 13:09:14","新北市五股區中興路四段63號","121.437783333333","25.0830233333333","6501500","五股區"
"248005","077-UY","2018/09/20 13:09:20","新北市五股區中興路二段86號","121.460651666667","25.0773566666667","6501500","五股區"
"248007","095-VK","2018/09/20 13:09:28","新北市五股區更洲路32巷15弄9號","121.458181666667","25.08049","6501500","五股區"
"248017","225-UY","2018/09/20 13:09:18","新北市五股區中興路三段160號","121.445745","25.0808883333333","6501500","五股區"
"248011","247-BX","2018/09/20 13:09:17","新北市五股區中興路三段173號","121.444818333333","25.081075","6501500","五股區"
"248009","272-BY","2018/09/20 13:09:21","新北市五股區中興路三段198號","121.441641666667","25.08197","6501500","五股區"
"248001","655-BX","2018/09/20 13:09:22","新北市五股區成泰路三段51-1號","121.44272","25.0895116666667","6501500","五股區"
"248003","677-BX","2018/09/20 13:09:26","新北市五股區工商路8號","121.440146666667","25.0823616666667","6501500","五股區"
"234022","9380-KE","2018/09/20 13:09:20","新北市永和區竹林路124巷30號","121.51829","25.0112866666667","6500400","永和區"
"234076","969-R7","2018/09/20 13:09:07","新北市永和區民光街8號","121.51542","24.9962183333333","6500400","永和區"
"234072","AAC-211","2018/09/20 13:09:24","新北市永和區竹林路206號","121.520705","25.00855","6500400","永和區"
"234066","AAC-212","2018/09/20 13:09:15","新北市永和區保平路23號","121.512643333333","25.0073916666667","6500400","永和區"
"234001","AAC-295","2018/09/20 13:09:09","新北市永和區中山路一段50號","121.513253333333","25.0106433333333","6500400","永和區"
"244003","248-BX","2018/09/20 13:09:25","新北市林口區嘉溪雅坑18號","121.340163333333","25.1075583333333","6501700","林口區"
"243005","AAD-798","2018/09/20 13:09:09","新北市泰山區南林路93號","121.415481666667","25.05116","6501600","泰山區"
"231002","002-UM","2018/09/20 13:09:13","新北市新店區安華路28-1號","121.51959","24.9608116666667","6500600","新店區"
"231028","046-UY","2018/09/20 13:09:22","新北市新店區安華路28-1號","121.519525","24.960845","6500600","新店區"
"231001","047-UY","2018/09/20 13:09:11","新北市新店區安華路28-1號","121.519298333333","24.9607633333333","6500600","新店區"
"231005","106-UY","2018/09/20 13:09:19","新北市新店區安華路28-1號","121.51958","24.9608716666667","6500600","新店區"
"231021","108-UY","2018/09/20 13:09:15","新北市新店區安一路一段1-1號","121.519633333333","24.961465","6500600","新店區"
"231011","187-VK","2018/09/20 13:09:08","新北市新店區安一路一段1-1號","121.51952","24.96119","6500600","新店區"
"231023","KEA-2219","2018/09/20 13:09:09","新北市新店區安一路一段1-1號","121.519711666667","24.9612983333333","6500600","新店區"
"231003","268-BY","2018/09/20 13:09:25","新北市新店區安華路28-1號","121.519565","24.960735","6500600","新店區"
"231018","278-BY","2018/09/20 13:09:13","新北市新店區安一路一段1-1號","121.519643333333","24.961115","6500600","新店區"
"231017","AAD-862","2018/09/20 13:09:21","新北市新店區安一路一段1-1號","121.519676666667","24.961155","6500600","新店區"
"231038","3712-VJ","2018/09/20 13:09:16","新北市新店區安華路28-1號","121.519313333333","24.9607033333333","6500600","新店區"
"231027","3713-VJ","2018/09/20 13:09:07","新北市新店區安華路1-1號","121.519226666667","24.9605266666667","6500600","新店區"
"231037","4716-K9","2018/09/20 13:09:22","新北市新店區安華路28-1號","121.51976","24.96093","6500600","新店區"
"231025","4715-K9","2018/09/20 13:09:17","新北市新店區安康路一段102號","121.527401666667","24.9624366666667","6500600","新店區"
"231036","512-UM","2018/09/20 13:09:22","新北市新店區安一路一段1-1號","121.519325","24.9611583333333","6500600","新店區"
"231013","513-UM","2018/09/20 13:09:22","新北市新店區安一路一段1-1號","121.519583333333","24.9611433333333","6500600","新店區"
"231034","616-UM","2018/09/20 13:09:16","新北市新店區安華路1-1號","121.51945","24.96051","6500600","新店區"
"231006","617-UM","2018/09/20 13:09:17","新北市新店區安華路28-1號","121.519365","24.9609516666667","6500600","新店區"
"231030","619-UM","2018/09/20 13:09:13","新北市新店區安華路28-1號","121.51943","24.9607383333333","6500600","新店區"
"231035","719-UM","2018/09/20 13:09:15","新北市新店區安一路一段1-1號","121.519536666667","24.9613483333333","6500600","新店區"
"231031","720-UM","2018/09/20 13:09:20","新北市新店區安一路一段1-1號","121.519405","24.961205","6500600","新店區"
"231029","897-TW","2018/09/20 13:09:15","新北市新店區安華路28-1號","121.519406666667","24.960705","6500600","新店區"
"231004","899-TW","2018/09/20 13:09:17","新北市新店區安華路28-1號","121.519158333333","24.96092","6500600","新店區"
"231024","AKT-0513","2018/09/20 13:09:24","新北市新店區安華路1-1號","121.519328333333","24.96044","6500600","新店區"
"235030","003-UY","2018/09/20 13:09:27","新北市中和區中山路二段142號","121.501963333333","25.0031333333333","6500300","中和區"
"235028","005-UY","2018/09/20 13:09:18","新北市中和區中正路209號","121.497236666667","24.9937016666667","6500300","中和區"
"235027","006-UY","2018/09/20 13:09:26","新北市中和區員山路36巷16-3號","121.485063333333","24.991245","6500300","中和區"
"235003","097-UM","2018/09/20 13:09:30","新北市中和區和城路一段271巷1號","121.485415","24.9919433333333","6500300","中和區"
"235029","098-UM","2018/09/20 13:09:25","新北市中和區莊敬路49巷20弄18號","121.502586666667","25.005835","6500300","中和區"
"235004","150-BY","2018/09/20 13:09:24","新北市中和區中正路521號","121.488351666667","24.99349","6500300","中和區"
"235022","151-BY","2018/09/20 13:09:15","新北市中和區圓通路367巷33弄15號","121.49512","24.9851516666667","6500300","中和區"
"235019","183-VK","2018/09/20 13:09:18","新北市中和區員山路36巷16-3號","121.485045","24.9913616666667","6500300","中和區"
"235002","185-VK","2018/09/20 13:09:27","新北市中和區大智街7-3號","121.519556666667","24.9918683333333","6500300","中和區"
"235031","255-BX","2018/09/20 13:09:14","新北市中和區中正路849巷1號","121.484663333333","25.0028366666667","6500300","中和區"
"235006","KEA-2878","2018/09/20 13:09:21","新北市中和區景平路353號","121.504761666667","24.9935016666667","6500300","中和區"
"235034","558-UM","2018/09/20 13:09:17","新北市中和區圓通路176-1號","121.49717","24.99452","6500300","中和區"
"235018","640-BX","2018/09/20 13:09:27","新北市土城區延壽路118-6號","121.469036666667","24.9944833333333","6500300","中和區"
"235011","732-UM","2018/09/20 13:09:23","新北市中和區員山路36巷13號","121.484128333333","24.9910883333333","6500300","中和區"
"235035","783-BX","2018/09/20 13:09:29","新北市中和區板南路520巷15號","121.48373","25.009105","6500300","中和區"
"235021","801-TS","2018/09/20 13:09:20","新北市中和區員山路36巷16-3號","121.48499","24.9915483333333","6500300","中和區"
"235005","802-TS","2018/09/20 13:09:15","新北市中和區中正路521號","121.488156666667","24.9935916666667","6500300","中和區"
"235012","896-TW","2018/09/20 13:09:21","新北市中和區員山路36巷16-3號","121.485021666667","24.9917016666667","6500300","中和區"
"235017","900-TW","2018/09/20 13:09:24","新北市中和區員山路36巷16-3號","121.485035","24.9915616666667","6500300","中和區"
"235015","157-BY","2018/09/20 13:09:26","新北市中和區南山路273號","121.504021666667","24.9924383333333","6500300","中和區"
"235001","AAC-213","2018/09/20 13:09:22","新北市中和區景平路149號","121.51385","24.9920033333333","6500300","中和區"
"247009","056-VK","2018/09/20 13:09:14","新北市五股區中興路三段2巷10號","121.449161666667","25.0810283333333","6501400","蘆洲區"
"235026","251-BX","2018/09/20 13:09:13","新北市中和區錦和路47號","121.488193333333","25.00006","6500300","中和區"
"228005","097-TW","2018/09/20 13:09:11","新北市貢寮區仁理村研海街45號","121.925998333333","25.0418916666667","6502600","貢寮區"
"228004","212-TW","2018/09/20 13:09:06","新北市貢寮區吉林里內寮街75號","121.891043333333","24.9718666666667","6502600","貢寮區"
"253003","6232-TK","2018/09/20 13:09:23","新北市石門區石崩山27-7號","121.56441","25.2799866666667","6502200","石門區"
"253001","6251-TK","2018/09/20 13:09:23","新北市石門區老梅路43-2號","121.545365","25.2896133333333","6502200","石門區"
"253002","637-UY","2018/09/20 13:09:15","新北市石門區老崩山35號","121.556671666667","25.2764466666667","6502200","石門區"
"253004","8270-PC","2018/09/20 13:09:10","新北市石門區阿里荖4號","121.614958333333","25.278665","6502200","石門區"
"207002","749-BX","2018/09/20 13:09:24","新北市萬里區崁腳里內崁路8號","121.640653333333","25.15965","6502800","萬里區"
"207001","662-BX","2018/09/20 13:09:21","新北市萬里區萬里里瑪鋉下街2號","121.690935","25.1782916666667","6502800","萬里區"
"252005","AAC-283","2018/09/20 13:09:24","新北市三芝區八賢里八連溪41號","121.512833333333","25.237095","6502100","三芝區"
"221010","269-BY","2018/09/20 13:09:23","新北市汐止區忠三街8號","121.624743333333","25.07845","6501100","汐止區"
"221032","280-BY","2018/09/20 13:09:27","新北市汐止區大同路二段184巷8號","121.653128333333","25.06418","6501100","汐止區"
"235032","KEA-2873","2018/09/20 13:09:04","新北市中和區員山路36巷16-3號","121.485046666667","24.9913183333333","6500300","中和區"
"235025","KEA-2875","2018/09/20 13:09:08","新北市土城區金城路三段271號","121.472756666667","24.9904333333333","6500300","中和區"
