"lineid","car","time","location","longitude","latitude","cityid","cityname"
"234044","148-BY","2018/09/20 13:39:20","新北市永和區秀朗路二段80號","121.523151666667","25.0015716666667","6500400","永和區"
"234005","207-UY","2018/09/20 13:39:25","新北市永和區中山路一段36號","121.513521666667","25.0106416666667","6500400","永和區"
"234078","298-R6","2018/09/20 13:39:17","新北市永和區國中路104巷8弄14號","121.525135","25.00657","6500400","永和區"
"234036","336-UY","2018/09/20 13:39:23","新北市永和區民樂街39巷16號","121.528316666667","25.0002616666667","6500400","永和區"
"234062","337-UY","2018/09/20 13:39:25","新北市永和區秀朗路一段192巷6弄12號","121.519015","25.0023166666667","6500400","永和區"
"234084","338-UY","2018/09/20 13:39:12","新北市永和區成功路一段18巷15號","121.526256666667","25.0049616666667","6500400","永和區"
"234068","552-UM","2018/09/20 13:39:29","新北市永和區永和路二段234號","121.515735","25.0144766666667","6500400","永和區"
"234015","745-BX","2018/09/20 13:39:20","新北市永和區忠孝街26巷8號","121.5154","25.01669","6500400","永和區"
"234028","746-BX","2018/09/20 13:39:19","新北市永和區民權路1巷10號","121.520836666667","24.9983516666667","6500400","永和區"
"234052","KEA-2590","2018/09/20 13:39:16","新北市永和區竹林路35號","121.517825","25.0142883333333","6500400","永和區"
"234012","KEA-2591","2018/09/20 13:39:22","新北市永和區永平路226巷14號","121.50908","25.0112316666667","6500400","永和區"
"234060","AAD-866","2018/09/20 13:39:20","新北市永和區中正路446號","121.517433333333","25.0028733333333","6500400","永和區"
"234040","862-TW","2018/09/20 13:39:24","新北市永和區中和路603號","121.51243","25.004385","6500400","永和區"
"234048","863-TW","2018/09/20 13:39:16","新北市永和區保安路132號","121.508935","25.015435","6500400","永和區"
"234025","9371-KE","2018/09/20 13:39:11","新北市永和區永和路一段155-4號","121.514288333333","25.00948","6500400","永和區"
"234010","9373-KE","2018/09/20 13:39:11","新北市永和區保福路二段14-1號","121.510968333333","25.0114366666667","6500400","永和區"
"248013","025-BX","2018/09/20 13:39:14","新北市五股區民義路一段7號","121.437296666667","25.0833583333333","6501500","五股區"
"248015","026-BX","2018/09/20 13:39:23","新北市五股區凌雲路一段133巷36號","121.448728333333","25.1010816666667","6501500","五股區"
"248005","077-UY","2018/09/20 13:39:20","新北市五股區中興路一段7號","121.469461666667","25.0722933333333","6501500","五股區"
"248007","095-VK","2018/09/20 13:39:28","新北市五股區中興路一段147號","121.465191666667","25.0735783333333","6501500","五股區"
"248017","225-UY","2018/09/20 13:39:18","新北市五股區民義路二段52巷1號","121.410348333333","25.104695","6501500","五股區"
"248011","247-BX","2018/09/20 13:39:17","新北市五股區成泰路三段2巷3號","121.440941666667","25.0863816666667","6501500","五股區"
"248009","272-BY","2018/09/20 13:39:24","新北市五股區水碓五路172號","121.43163","25.07393","6501500","五股區"
"248001","655-BX","2018/09/20 13:39:22","新北市五股區成泰路三段435巷11號","121.449426666667","25.09781","6501500","五股區"
"248003","677-BX","2018/09/20 13:39:26","新北市五股區民義路一段236-6號","121.427516666667","25.0912733333333","6501500","五股區"
"234022","9380-KE","2018/09/20 13:39:26","新北市永和區中正路702巷10號","121.516441666667","25.0103283333333","6500400","永和區"
"234076","969-R7","2018/09/20 13:39:27","新北市永和區民權路30號","121.520233333333","24.9991016666667","6500400","永和區"
"234072","AAC-211","2018/09/20 13:39:25","新北市永和區竹林路213巷38號","121.52284","25.0090766666667","6500400","永和區"
"234066","AAC-212","2018/09/20 13:39:15","新北市永和區中山路一段191巷7弄1號","121.509573333333","25.00836","6500400","永和區"
"234001","AAC-295","2018/09/20 13:39:18","新北市永和區秀朗路一段42號","121.514698333333","25.006525","6500400","永和區"
"244003","248-BX","2018/09/20 13:39:25","新北市林口區瑞平里33-1號","121.348873333333","25.128185","6501700","林口區"
"244001","658-BX","2018/09/20 13:39:26","新北市林口區文化北路一段472號","121.365393333333","25.0776533333333","6501700","林口區"
"243005","AAD-798","2018/09/20 13:39:09","新北市泰山區明志路三段206巷1號","121.423375","25.0378916666667","6501600","泰山區"
"243008","KEA-2801","2018/09/20 13:39:19","新北市泰山區黎明路23-1號","121.421568333333","25.0611783333333","6501600","泰山區"
"243004","646-TV","2018/09/20 13:39:19","新北市泰山區黎明路25號","121.421903333333","25.06065","6501600","泰山區"
"231002","002-UM","2018/09/20 13:39:13","新北市新店區中央三街127號","121.524085","24.9769083333333","6500600","新店區"
"231028","046-UY","2018/09/20 13:39:22","新北市新店區安和路一段2-3號","121.517206666667","24.9643016666667","6500600","新店區"
"231001","047-UY","2018/09/20 13:39:11","新北市新店區中央路7號","121.533413333333","24.97867","6500600","新店區"
"231005","106-UY","2018/09/20 13:39:19","新北市新店區寶中路72號","121.54799","24.98059","6500600","新店區"
"231010","107-UY","2018/09/20 13:39:28","新北市新店區平等街48巷15號","121.535371666667","24.9734283333333","6500600","新店區"
"231021","108-UY","2018/09/20 13:39:16","新北市新店區永興路88-1號","121.544095","24.9336333333333","6500600","新店區"
"231011","187-VK","2018/09/20 13:39:08","新北市新店區德正街23巷12-1號","121.544628333333","24.9721916666667","6500600","新店區"
"231023","KEA-2219","2018/09/20 13:39:29","新北市新店區新店路132號","121.537136666667","24.9551383333333","6500600","新店區"
"231026","256-BX","2018/09/20 13:39:26","新北市新店區北新路一段341號","121.541946666667","24.9688716666667","6500600","新店區"
"231003","268-BY","2018/09/20 13:39:25","新北市新店區中正路84號","121.54365","24.970285","6500600","新店區"
"231018","278-BY","2018/09/20 13:39:13","新北市新店區百忍街15號","121.534553333333","24.9756216666667","6500600","新店區"
"231017","AAD-862","2018/09/20 13:39:20","新北市新店區竹林路30巷1號","121.552328333333","24.9512616666667","6500600","新店區"
"231038","3712-VJ","2018/09/20 13:39:16","新北市新店區安華路30巷3號","121.519543333333","24.9592233333333","6500600","新店區"
"231027","3713-VJ","2018/09/20 13:39:07","新北市新店區北宜路一段105巷4弄2-2號","121.540146666667","24.955425","6500600","新店區"
"231037","4716-K9","2018/09/20 13:39:22","新北市新店區薏仁坑路31號","121.49428","24.9619866666667","6500600","新店區"
"231025","4715-K9","2018/09/20 13:39:17","新北市新店區中央五街53號","121.527883333333","24.9755116666667","6500600","新店區"
"231036","512-UM","2018/09/20 13:39:22","新北市新店區安祥路190巷21號","121.478025","24.955495","6500600","新店區"
"231013","513-UM","2018/09/20 13:39:21","新北市新店區中正路454-5號","121.534471666667","24.9790466666667","6500600","新店區"
"231034","616-UM","2018/09/20 13:39:16","新北市新店區車子路134號","121.505236666667","24.94991","6500600","新店區"
"231030","619-UM","2018/09/20 13:39:13","新北市新店區安康路一段351-1號","121.519416666667","24.9639383333333","6500600","新店區"
"231035","719-UM","2018/09/20 13:39:20","新北市新店區安忠路27號","121.514373333333","24.9611866666667","6500600","新店區"
"231031","720-UM","2018/09/20 13:39:20","新北市新店區安華路16號","121.516276666667","24.9578933333333","6500600","新店區"
"231029","897-TW","2018/09/20 13:39:15","新北市新店區車子路1-1號","121.50459","24.9579016666667","6500600","新店區"
"231006","898-TW","2018/09/20 13:39:22","新北市新店區北宜路一段80號","121.53861","24.9558","6500600","新店區"
"231004","899-TW","2018/09/20 13:39:17","新北市新店區北新路二段1號","121.54273","24.97122","6500600","新店區"
"231024","AKT-0513","2018/09/20 13:39:24","新北市新店區中華路47巷9號","121.539616666667","24.96731","6500600","新店區"
"235030","003-UY","2018/09/20 13:39:08","新北市中和區水源路39號","121.504598333333","25.003565","6500300","中和區"
"235028","005-UY","2018/09/20 13:39:18","新北市中和區連城路89巷1號","121.496686666667","25.0001066666667","6500300","中和區"
"235027","006-UY","2018/09/20 13:39:26","新北市中和區連城路347巷16弄12號","121.487805","24.9950766666667","6500300","中和區"
"235020","096-UM","2018/09/20 13:39:14","新北市中和區員山路466巷17弄18號","121.480523333333","25.0074433333333","6500300","中和區"
"235003","097-UM","2018/09/20 13:39:09","新北市中和區大勇街25巷15弄21-3號","121.515066666667","24.9935216666667","6500300","中和區"
"235029","098-UM","2018/09/20 13:39:25","新北市中和區莊敬路33巷21號","121.500508333333","25.0070966666667","6500300","中和區"
"235004","150-BY","2018/09/20 13:39:24","新北市中和區安平路59號","121.509616666667","24.9950683333333","6500300","中和區"
"235022","151-BY","2018/09/20 13:39:11","新北市中和區圓通路369巷39號","121.489771666667","24.9859216666667","6500300","中和區"
"235019","183-VK","2018/09/20 13:39:18","新北市中和區國光街102巷40號","121.471208333333","25.0005383333333","6500300","中和區"
"235002","185-VK","2018/09/20 13:39:27","新北市中和區立人街14巷52號","121.518405","24.99567","6500300","中和區"
"235013","186-VK","2018/09/20 13:39:14","新北市中和區景平路480號","121.50506","24.993805","6500300","中和區"
"235031","255-BX","2018/09/20 13:39:14","新北市中和區新生街220巷4號","121.482903333333","24.99862","6500300","中和區"
"235008","293-VK","2018/09/20 13:39:22","新北市中和區復興路274巷12號","121.502925","24.9908166666667","6500300","中和區"
"235036","301-VK","2018/09/20 13:39:20","新北市中和區連城路145號","121.495626666667","24.9986816666667","6500300","中和區"
"235007","352-BY","2018/09/20 13:39:26","新北市中和區景平路163號","121.512386666667","24.9925333333333","6500300","中和區"
"235006","KEA-2878","2018/09/20 13:39:21","新北市中和區成功路97巷2號","121.526686666667","24.9917166666667","6500300","中和區"
"235014","4979-A6","2018/09/20 13:39:25","新北市中和區景新街496巷28弄6號","121.513216666667","24.9859116666667","6500300","中和區"
"235033","4980-A6","2018/09/20 13:39:23","新北市中和區連城路87號","121.496798333333","25.000215","6500300","中和區"
"235034","558-UM","2018/09/20 13:39:17","新北市中和區南華路15號","121.50253","24.99558","6500300","中和區"
"235009","565-BX","2018/09/20 13:39:26","新北市中和區南山路236巷63弄5號","121.503933333333","24.9877566666667","6500300","中和區"
"235018","640-BX","2018/09/20 13:39:27","新北市中和區民享街32巷13號","121.47302","25.0031466666667","6500300","中和區"
"235011","732-UM","2018/09/20 13:39:23","新北市中和區興南路二段5號","121.508065","24.9863516666667","6500300","中和區"
"235035","783-BX","2018/09/20 13:39:09","新北市中和區中原街92號","121.488346666667","25.010405","6500300","中和區"
"235021","801-TS","2018/09/20 13:39:20","新北市中和區員山路327巷66號","121.479925","25.0020583333333","6500300","中和區"
"235005","802-TS","2018/09/20 13:39:15","新北市中和區中安街78號","121.512063333333","25.0019566666667","6500300","中和區"
"235012","896-TW","2018/09/20 13:39:21","新北市中和區中正路76號","121.500783333333","24.993565","6500300","中和區"
"235017","900-TW","2018/09/20 13:39:24","新北市土城區延壽路118-6號","121.469075","24.9946216666667","6500300","中和區"
"235024","911-UM","2018/09/20 13:39:25","新北市中和區中山路二段606號","121.481796666667","25.0054783333333","6500300","中和區"
"235015","157-BY","2018/09/20 13:39:26","新北市中和區華新街143巷106弄26號","121.505898333333","24.9787133333333","6500300","中和區"
"235001","AAC-213","2018/09/20 13:39:22","新北市中和區景平路87號","121.517753333333","24.9915683333333","6500300","中和區"
"235023","AAC-215","2018/09/20 13:39:23","新北市中和區中正路503號","121.488616666667","24.993525","6500300","中和區"
"220068","013-TV","2018/09/20 13:39:09","新北市板橋區民生路二段120號","121.470503333333","25.0195133333333","6500100","板橋區"
"220013","072-UY","2018/09/20 13:39:22","新北市板橋區漢生東路280號","121.470395","25.0098683333333","6500100","板橋區"
"220034","073-UY","2018/09/20 13:39:18","新北市板橋區南雅南路二段120-11號","121.452018333333","24.9993683333333","6500100","板橋區"
"220017","AAD-861","2018/09/20 13:39:26","新北市板橋區華東街1-10號","121.448466666667","24.9950233333333","6500100","板橋區"
"247009","056-VK","2018/09/20 13:39:14","新北市五股區中興路三段163號","121.449286666667","25.0806183333333","6501400","蘆洲區"
"247021","001-UY","2018/09/20 13:39:27","新北市五股區中興路三段163號","121.449178333333","25.0806566666667","6501400","蘆洲區"
"235026","251-BX","2018/09/20 13:39:13","新北市中和區中山路二段312巷10弄2號","121.495588333333","25.0030383333333","6500300","中和區"
"228005","097-TW","2018/09/20 13:39:11","新北市貢寮區美豐里文秀坑5-3號","121.903511666667","25.0521783333333","6502600","貢寮區"
"228004","212-TW","2018/09/20 13:39:26","新北市貢寮區龍崗里嵩陽街17號","121.907526666667","25.00898","6502600","貢寮區"
"253003","6232-TK","2018/09/20 13:39:23","新北市石門區內石門17號","121.573421666667","25.274645","6502200","石門區"
"253001","6251-TK","2018/09/20 13:38:43","新北市石門區下員坑21號","121.511073333333","25.27757","6502200","石門區"
"253002","637-UY","2018/09/20 13:39:15","新北市石門區內石門78-1號","121.568805","25.2562916666667","6502200","石門區"
"207002","749-BX","2018/09/20 13:39:23","新北市萬里區崁腳里崁腳路166號","121.6451","25.155835","6502800","萬里區"
"207001","662-BX","2018/09/20 13:39:21","新北市萬里區大鵬里萬里加投29號","121.647841666667","25.206285","6502800","萬里區"
"252005","AAC-283","2018/09/20 13:39:24","新北市三芝區圓山里內柑宅25-2號","121.536966666667","25.2253133333333","6502100","三芝區"
"237001","361-BY","2018/09/20 13:39:23","新北市三峽區中山路459巷137號","121.349508333333","24.9335783333333","6500900","三峽區"
"236074","166-UM","2018/09/20 13:39:16","新北市土城區城林路6巷80號","121.438788333333","24.979665","6501300","土城區"
"236032","271-VK","2018/09/20 13:39:16","新北市土城區城林路6巷80號","121.438516666667","24.9797633333333","6501300","土城區"
"236057","912-UM","2018/09/20 13:39:17","新北市土城區城林路6巷80號","121.43873","24.97967","6501300","土城區"
"236060","915-UM","2018/09/20 13:39:16","新北市土城區城林路6巷80號","121.43838","24.9798016666667","6501300","土城區"
"221010","269-BY","2018/09/20 13:39:23","新北市汐止區康寧街901號","121.651031666667","25.0752733333333","6501100","汐止區"
"221032","280-BY","2018/09/20 13:39:07","新北市汐止區仁愛路10號","121.659293333333","25.06368","6501100","汐止區"
"220027","145-BY","2018/09/20 13:39:17","新北市板橋區館前西路162號","121.452773333333","25.0085933333333","6500100","板橋區"
"220030","610-BX","2018/09/20 13:39:27","新北市板橋區篤行路一段29號","121.432038333333","24.9945816666667","6500100","板橋區"
"220004","276-BY","2018/09/20 13:39:17","新北市板橋區四川路二段130巷25弄15號","121.448871666667","24.99461","6500100","板橋區"
"220020","277-BY","2018/09/20 13:39:26","新北市板橋區大觀路三段54號","121.433476666667","24.9955533333333","6500100","板橋區"
"220019","283-VK","2018/09/20 13:39:15","新北市板橋區四川路二段140巷20號","121.449011666667","24.9934016666667","6500100","板橋區"
"220043","285-UM","2018/09/20 13:39:15","新北市板橋區民生路二段161巷3號","121.470213333333","25.019775","6500100","板橋區"
"220031","286-VK","2018/09/20 13:39:17","新北市板橋區華東街11號","121.450426666667","24.9976133333333","6500100","板橋區"
"220009","293-UM","2018/09/20 13:39:17","新北市板橋區民生路二段120號","121.470431666667","25.019695","6500100","板橋區"
"220023","303-R5","2018/09/20 13:39:28","新北市板橋區南雅南路二段120-8號","121.452098333333","24.9996233333333","6500100","板橋區"
"220010","305-R5","2018/09/20 13:39:17","新北市板橋區民生路二段120號","121.470428333333","25.0197033333333","6500100","板橋區"
"220028","461-BY","2018/09/20 13:39:28","新北市板橋區大觀路二段265巷76弄26號","121.441503333333","24.996785","6500100","板橋區"
"220012","486-VK","2018/09/20 13:39:16","新北市板橋區民生路二段36-1號","121.472095","25.0168033333333","6500100","板橋區"
"220104","560-BX","2018/09/20 13:39:09","新北市板橋區南雅西路二段145巷6號","121.451605","25.0118883333333","6500100","板橋區"
"220032","568-UM","2018/09/20 13:39:17","新北市板橋區華東街1-9號","121.44778","24.9954116666667","6500100","板橋區"
"220029","630-UY","2018/09/20 13:39:25","新北市板橋區大觀路二段153巷39弄1號","121.446945","25.0004566666667","6500100","板橋區"
"220005","686-BX","2018/09/20 13:39:10","新北市板橋區華東街1-9號","121.448208333333","24.9948733333333","6500100","板橋區"
"220025","687-BX","2018/09/20 13:39:23","新北市板橋區大觀路三段239號","121.430663333333","24.9919866666667","6500100","板橋區"
"220042","689-BX","2018/09/20 13:38:31","新北市板橋區民生路二段161巷1號","121.470056666667","25.0201033333333","6500100","板橋區"
"220003","827-TW","2018/09/20 13:39:24","新北市板橋區華東街1-9號","121.448228333333","24.9949183333333","6500100","板橋區"
"220022","895-R6","2018/09/20 13:39:28","新北市板橋區南雅南路一段131號","121.45514","25.00444","6500100","板橋區"
"220021","985-R7","2018/09/20 13:39:13","新北市板橋區南雅南路二段120-11號","121.452001666667","24.9993133333333","6500100","板橋區"
"220018","AAC-253","2018/09/20 13:39:24","新北市板橋區華東街1-9號","121.448268333333","24.994855","6500100","板橋區"
"235032","KEA-2873","2018/09/20 13:39:04","新北市中和區中正路271-4號","121.495791666667","24.9933783333333","6500300","中和區"
"235025","KEA-2875","2018/09/20 13:39:08","新北市中和區民享街92巷2號","121.474895","24.999995","6500300","中和區"
"235016","KEA-2876","2018/09/20 13:39:20","新北市中和區興南路三段16號","121.497465","24.9796266666667","6500300","中和區"
