"lineid","car","time","location","longitude","latitude","cityid","cityname"
"234044","148-BY","2018/09/20 13:59:20","新北市永和區成功路一段16巷2號","121.526786666667","25.0054666666667","6500400","永和區"
"234005","207-UY","2018/09/20 13:59:26","新北市中和區中和路376號","121.510601666667","25.0020616666667","6500400","永和區"
"234078","298-R6","2018/09/20 13:59:18","新北市永和區林森路112巷12弄2號","121.522331666667","25.0043166666667","6500400","永和區"
"234036","336-UY","2018/09/20 13:59:23","新北市永和區成功路二段137號","121.526686666667","24.9980183333333","6500400","永和區"
"234062","337-UY","2018/09/20 13:59:26","新北市永和區中正路412巷20弄15號","121.518813333333","25.00162","6500400","永和區"
"234084","338-UY","2018/09/20 13:59:30","新北市永和區福和路256-1號","121.5184","25.0075283333333","6500400","永和區"
"234068","552-UM","2018/09/20 13:59:23","新北市永和區國光路51號","121.518946666667","25.00829","6500400","永和區"
"234015","745-BX","2018/09/20 13:59:20","新北市永和區文化路34號","121.51501","25.015145","6500400","永和區"
"234028","746-BX","2018/09/20 13:59:19","新北市永和區民生路67巷34號","121.52449","24.9973483333333","6500400","永和區"
"234052","KEA-2590","2018/09/20 13:59:17","新北市永和區竹林路66巷2-2號","121.518096666667","25.0136133333333","6500400","永和區"
"234012","KEA-2591","2018/09/20 13:59:21","新北市永和區保生路55號","121.504741666667","25.01065","6500400","永和區"
"234060","AAD-866","2018/09/20 13:59:20","新北市永和區中正路283巷74號","121.515701666667","24.9991016666667","6500400","永和區"
"234040","862-TW","2018/09/20 13:59:24","新北市永和區中和路335巷18弄2號","121.507608333333","25.0002633333333","6500400","永和區"
"234048","863-TW","2018/09/20 13:59:16","新北市永和區保安路145號","121.507181666667","25.01333","6500400","永和區"
"234025","9371-KE","2018/09/20 13:59:11","新北市永和區仁愛路295號","121.504876666667","25.0091866666667","6500400","永和區"
"248013","025-BX","2018/09/20 13:59:14","新北市五股區民義路一段112-9號","121.43509","25.0855366666667","6501500","五股區"
"248015","026-BX","2018/09/20 13:59:23","新北市五股區成泰路三段543巷16號","121.450955","25.1023016666667","6501500","五股區"
"248007","095-VK","2018/09/20 13:59:08","新北市五股區中興路一段132號","121.465295","25.073545","6501500","五股區"
"248017","225-UY","2018/09/20 13:59:18","新北市五股區民義路一段328巷12號","121.422605","25.09781","6501500","五股區"
"248011","247-BX","2018/09/20 13:59:17","新北市五股區成泰路二段195巷1號","121.44038","25.0873516666667","6501500","五股區"
"248009","272-BY","2018/09/20 13:59:21","新北市五股區水碓二路1號","121.430581666667","25.0712766666667","6501500","五股區"
"248001","655-BX","2018/09/20 13:59:21","新北市五股區凌雲路一段158巷6號","121.447955","25.10274","6501500","五股區"
"248003","677-BX","2018/09/20 13:59:26","新北市五股區民義路二段41-1號","121.411353333333","25.103545","6501500","五股區"
"234022","9380-KE","2018/09/20 13:59:20","新北市永和區永和路二段336號","121.516281666667","25.0167066666667","6500400","永和區"
"234076","969-R7","2018/09/20 13:59:27","新北市永和區民權路56號","121.519908333333","24.9982933333333","6500400","永和區"
"234072","AAC-211","2018/09/20 13:59:24","新北市永和區豫溪街189巷1號","121.522548333333","25.0103366666667","6500400","永和區"
"234066","AAC-212","2018/09/20 13:59:21","新北市永和區永貞路315號","121.510003333333","25.0066783333333","6500400","永和區"
"234001","AAC-295","2018/09/20 13:59:18","新北市永和區福和路318號","121.515733333333","25.0073016666667","6500400","永和區"
"244001","658-BX","2018/09/20 13:59:26","新北市林口區文化北路一段472號","121.365393333333","25.0776483333333","6501700","林口區"
"243005","AAD-798","2018/09/20 13:59:22","新北市泰山區明志路三段206巷3號","121.42331","25.03793","6501600","泰山區"
"243008","KEA-2801","2018/09/20 13:59:19","新北市泰山區明志路二段152-1號","121.427575","25.0506716666667","6501600","泰山區"
"243007","421-VK","2018/09/20 13:59:15","新北市泰山區泰林路二段234號","121.43241","25.06211","6501600","泰山區"
"243003","KEA-2215","2018/09/20 13:59:16","新北市泰山區明志路二段247號","121.427151666667","25.04786","6501600","泰山區"
"243002","KEA-2216","2018/09/20 13:59:20","新北市泰山區辭修路7號","121.428933333333","25.0580583333333","6501600","泰山區"
"243004","646-TV","2018/09/20 13:59:19","新北市泰山區同義街13巷32號","121.432313333333","25.0570516666667","6501600","泰山區"
"243006","680-BX","2018/09/20 13:59:11","新北市泰山區黎明路2-5號","121.42087","25.0626483333333","6501600","泰山區"
"231002","002-UM","2018/09/20 13:59:13","新北市新店區中正路707號","121.533858333333","24.9911283333333","6500600","新店區"
"231028","046-UY","2018/09/20 13:59:22","新北市新店區安和路三段7號","121.518093333333","24.9805466666667","6500600","新店區"
"231001","047-UY","2018/09/20 13:59:11","新北市新店區三民路24號","121.537211666667","24.9709666666667","6500600","新店區"
"231005","106-UY","2018/09/20 13:59:19","新北市新店區中興路三段202號","121.543868333333","24.9819466666667","6500600","新店區"
"231010","107-UY","2018/09/20 13:59:08","新北市新店區中央路151號","121.529246666667","24.97223","6500600","新店區"
"231021","108-UY","2018/09/20 13:59:16","新北市新店區新烏路二段40號","121.544851666667","24.9283133333333","6500600","新店區"
"231011","187-VK","2018/09/20 13:59:28","新北市新店區中興路二段71號","121.54673","24.970895","6500600","新店區"
"231023","KEA-2219","2018/09/20 13:59:09","新北市新店區文中路40號","121.539755","24.9565516666667","6500600","新店區"
"231026","256-BX","2018/09/20 13:59:26","新北市新店區環河路182-3號","121.53405","24.9699416666667","6500600","新店區"
"231003","268-BY","2018/09/20 13:59:25","新北市新店區中興路一段51號","121.539611666667","24.9603083333333","6500600","新店區"
"231018","278-BY","2018/09/20 13:59:13","新北市新店區中央路192號","121.530861666667","24.9748433333333","6500600","新店區"
"231017","AAD-862","2018/09/20 13:59:20","新北市新店區郵政路3巷5號","121.557336666667","24.952075","6500600","新店區"
"231038","3712-VJ","2018/09/20 13:59:16","新北市新店區安華路30巷1號","121.519486666667","24.959245","6500600","新店區"
"231027","3713-VJ","2018/09/20 13:59:07","新北市新店區北宜路一段39巷20號","121.538948333333","24.9584883333333","6500600","新店區"
"231037","4716-K9","2018/09/20 13:59:22","新北市新店區安康路三段355巷4號","121.484653333333","24.95055","6500600","新店區"
"231025","4715-K9","2018/09/20 13:59:17","新北市新店區中正路328巷39號","121.53783","24.976175","6500600","新店區"
"231036","512-UM","2018/09/20 13:59:22","新北市新店區安祥路110巷27號","121.473548333333","24.956445","6500600","新店區"
"231013","513-UM","2018/09/20 13:59:21","新北市新店區明德路111號","121.541533333333","24.9794333333333","6500600","新店區"
"231034","616-UM","2018/09/20 13:59:16","新北市新店區達觀路8巷5號","121.504778333333","24.943895","6500600","新店區"
"231030","619-UM","2018/09/20 13:59:13","新北市新店區安康路一段249-1號","121.524635","24.9633083333333","6500600","新店區"
"231035","719-UM","2018/09/20 13:59:14","新北市新店區安忠路57巷19號","121.513256666667","24.95838","6500600","新店區"
"231031","720-UM","2018/09/20 13:59:20","新北市新店區莒光路87巷15號","121.525791666667","24.95346","6500600","新店區"
"231029","897-TW","2018/09/20 13:59:15","新北市新店區安康路二段51號","121.514383333333","24.9634533333333","6500600","新店區"
"231006","898-TW","2018/09/20 13:59:22","新北市新店區北宜路二段217號","121.553305","24.953435","6500600","新店區"
"231004","899-TW","2018/09/20 13:59:17","新北市新店區寶橋路2號","121.543123333333","24.973435","6500600","新店區"
"231024","AKT-0513","2018/09/20 13:59:24","新北市新店區中央路175-1號","121.534455","24.969895","6500600","新店區"
"235030","003-UY","2018/09/20 13:59:27","新北市中和區中山路二段131巷5弄8號","121.50305","25.0029583333333","6500300","中和區"
"235028","005-UY","2018/09/20 13:59:18","新北市中和區泰和街38巷3號","121.499165","25.0001166666667","6500300","中和區"
"235027","006-UY","2018/09/20 13:59:26","新北市中和區錦和路216號","121.490323333333","24.99422","6500300","中和區"
"235020","096-UM","2018/09/20 13:59:14","新北市中和區中正路1224號","121.479516666667","25.0107733333333","6500300","中和區"
"235003","097-UM","2018/09/20 13:59:09","新北市中和區秀朗路三段179號","121.524413333333","24.9907833333333","6500300","中和區"
"235029","098-UM","2018/09/20 13:59:25","新北市中和區中山路二段2巷45弄2號","121.50241","25.0070616666667","6500300","中和區"
"235004","150-BY","2018/09/20 13:59:24","新北市中和區保健路46巷26弄2號","121.508545","24.99545","6500300","中和區"
"235022","151-BY","2018/09/20 13:59:11","新北市中和區連城路607號","121.477936666667","24.9929266666667","6500300","中和區"
"235019","183-VK","2018/09/20 13:59:18","新北市中和區中山路三段227號","121.470858333333","25.006565","6500300","中和區"
"235002","185-VK","2018/09/20 13:59:28","新北市中和區立人街24-5號","121.518813333333","24.9940666666667","6500300","中和區"
"235013","186-VK","2018/09/20 13:59:15","新北市中和區景安路167巷31號","121.506816666667","24.9951783333333","6500300","中和區"
"235031","255-BX","2018/09/20 13:59:14","新北市中和區新生街264號","121.483591666667","24.9971983333333","6500300","中和區"
"235008","293-VK","2018/09/20 13:59:22","新北市中和區復興路280巷33弄7號","121.501448333333","24.9912783333333","6500300","中和區"
"235036","301-VK","2018/09/20 13:59:20","新北市中和區中山路二段122號","121.502548333333","25.0036366666667","6500300","中和區"
"235007","352-BY","2018/09/20 13:59:26","新北市中和區秀朗路三段107號","121.526396666667","24.9947266666667","6500300","中和區"
"235006","KEA-2878","2018/09/20 13:59:21","新北市中和區秀朗路三段50巷12弄6號","121.52402","24.9952766666667","6500300","中和區"
"247011","KEA-2869","2018/09/20 13:59:14","新北市蘆洲區中興街8號","121.480221666667","25.0868233333333","6501400","蘆洲區"
"235014","4979-A6","2018/09/20 13:59:25","新北市中和區華新街50巷6號","121.507693333333","24.9839516666667","6500300","中和區"
"235033","4980-A6","2018/09/20 13:59:23","新北市中和區圓通路109巷1弄2號","121.499916666667","24.99634","6500300","中和區"
"235034","558-UM","2018/09/20 13:59:17","新北市中和區安和路163號","121.506206666667","24.997465","6500300","中和區"
"235009","565-BX","2018/09/20 13:59:26","新北市中和區景新街467巷20弄21號","121.51503","24.9873133333333","6500300","中和區"
"235018","640-BX","2018/09/20 13:59:27","新北市中和區中山路三段147號","121.473736666667","25.0060583333333","6500300","中和區"
"235011","732-UM","2018/09/20 13:59:23","新北市中和區興南路二段74巷3號","121.505295","24.9851866666667","6500300","中和區"
"235010","733-UM","2018/09/20 13:59:17","新北市中和區興南路一段135巷22弄12號","121.509053333333","24.9867916666667","6500300","中和區"
"235035","783-BX","2018/09/20 13:59:29","新北市中和區立德街112號","121.48734","25.0083716666667","6500300","中和區"
"235021","801-TS","2018/09/20 13:59:20","新北市中和區民利街60號","121.479055","24.9987133333333","6500300","中和區"
"235005","802-TS","2018/09/20 13:59:15","新北市中和區永貞路239巷11號","121.51272","25.0032466666667","6500300","中和區"
"235012","896-TW","2018/09/20 13:59:21","新北市中和區華新街26-1號","121.507576666667","24.9847816666667","6500300","中和區"
"235017","900-TW","2018/09/20 13:59:24","新北市中和區壽德街26號","121.466631666667","24.994435","6500300","中和區"
"235024","911-UM","2018/09/20 13:59:25","新北市中和區民治街5巷2號","121.475031666667","25.005015","6500300","中和區"
"235015","157-BY","2018/09/20 13:59:26","新北市中和區忠孝街11巷6號","121.509933333333","24.9831183333333","6500300","中和區"
"235001","AAC-213","2018/09/20 13:59:22","新北市中和區秀朗路三段10巷14弄52號","121.524216666667","24.9965083333333","6500300","中和區"
"235023","AAC-215","2018/09/20 13:59:23","新北市中和區圓通路367巷20弄29號","121.491318333333","24.9882683333333","6500300","中和區"
"220016","013-TV","2018/09/20 13:59:29","新北市板橋區中山路二段443巷58號","121.481103333333","25.0216983333333","6500100","板橋區"
"220013","072-UY","2018/09/20 13:59:22","新北市板橋區漢生東路325號","121.471903333333","25.0078716666667","6500100","板橋區"
"220034","073-UY","2018/09/20 13:59:18","新北市板橋區中正路236巷5號","121.456103333333","25.0191033333333","6500100","板橋區"
"220105","075-UY","2018/09/20 13:59:24","新北市板橋區莒光路49號","121.470771666667","25.024385","6500100","板橋區"
"220017","AAD-861","2018/09/20 13:59:26","新北市板橋區華興街68號","121.457453333333","25.00492","6500100","板橋區"
"247015","546-UM","2018/09/20 13:59:27","新北市蘆洲區光華路42號","121.468855","25.08317","6501400","蘆洲區"
"247013","339-TH","2018/09/20 13:59:27","新北市蘆洲區中正路169號","121.468855","25.0852033333333","6501400","蘆洲區"
"247005","337-TH","2018/09/20 13:59:15","新北市蘆洲區永安南路二段50號","121.46609","25.0776583333333","6501400","蘆洲區"
"247007","336-TH","2018/09/20 13:59:24","新北市蘆洲區集賢路318號","121.481418333333","25.084775","6501400","蘆洲區"
"247019","057-VK","2018/09/20 13:59:13","新北市蘆洲區民族路422巷11號","121.474003333333","25.09241","6501400","蘆洲區"
"247009","056-VK","2018/09/20 13:58:34","新北市蘆洲區集賢路224巷16號","121.481771666667","25.0871266666667","6501400","蘆洲區"
"247017","007-UY","2018/09/20 13:59:17","新北市蘆洲區民族路255巷22號","121.475906666667","25.0893833333333","6501400","蘆洲區"
"247003","002-UY","2018/09/20 13:59:20","新北市蘆洲區長榮路19-1號","121.463448333333","25.0824033333333","6501400","蘆洲區"
"247021","001-UY","2018/09/20 13:59:27","新北市蘆洲區中正路263巷2號","121.467365","25.0874683333333","6501400","蘆洲區"
"235026","251-BX","2018/09/20 13:59:13","新北市中和區中山路二段340巷34號","121.493428333333","25.0037183333333","6500300","中和區"
"228005","097-TW","2018/09/20 13:58:44","新北市貢寮區美豐里雞母嶺街52-1號","121.888596666667","25.06859","6502600","貢寮區"
"228004","212-TW","2018/09/20 13:59:06","新北市貢寮區龍崗里嵩陽街40號","121.905618333333","25.0150866666667","6502600","貢寮區"
"253003","6232-TK","2018/09/20 13:59:23","新北市石門區尖子鹿17-1號","121.575861666667","25.277855","6502200","石門區"
"253001","6251-TK","2018/09/20 13:59:23","新北市石門區八甲58-2號","121.522118333333","25.2744166666667","6502200","石門區"
"253002","637-UY","2018/09/20 13:56:55","新北市石門區尖山湖18號","121.558676666667","25.2470433333333","6502200","石門區"
"207002","749-BX","2018/09/20 13:58:43","新北市萬里區溪底里烏塗炭9號","121.637463333333","25.15168","6502800","萬里區"
"207001","662-BX","2018/09/20 13:59:21","新北市萬里區磺潭里磺溪12-1號","121.63124","25.2023283333333","6502800","萬里區"
"252005","AAC-283","2018/09/20 13:59:24","新北市三芝區橫山里橫山49-1號","121.533418333333","25.25731","6502100","三芝區"
"237001","361-BY","2018/09/20 13:59:23","新北市三峽區中山路459巷137號","121.349513333333","24.9336366666667","6500900","三峽區"
"236068","105-UM","2018/09/20 13:59:18","新北市土城區金城路一段70號","121.44366","24.9723433333333","6501300","土城區"
"236040","107-UM","2018/09/20 13:59:11","新北市土城區城林路6巷80號","121.438535","24.9797466666667","6501300","土城區"
"236074","166-UM","2018/09/20 13:59:16","新北市土城區永寧路32巷6號","121.429096666667","24.9606716666667","6501300","土城區"
"236029","253-BX","2018/09/20 13:59:24","新北市土城區中央路二段280號","121.440781666667","24.9740316666667","6501300","土城區"
"236024","269-VK","2018/09/20 13:59:18","新北市土城區承天路31號","121.43706","24.965065","6501300","土城區"
"236012","270-VK","2018/09/20 13:59:23","新北市土城區城林路6巷80號","121.438488333333","24.979835","6501300","土城區"
"236032","271-VK","2018/09/20 13:59:16","新北市土城區城林路6巷80號","121.438378333333","24.9797966666667","6501300","土城區"
"236017","401-BY","2018/09/20 13:59:15","新北市土城區城林路6巷80號","121.43861","24.9799583333333","6501300","土城區"
"236057","912-UM","2018/09/20 13:59:17","新北市土城區中央路三段278號","121.426805","24.963705","6501300","土城區"
"236045","913-UM","2018/09/20 13:59:21","新北市土城區城林路6巷80號","121.438561666667","24.9797166666667","6501300","土城區"
"236060","915-UM","2018/09/20 13:59:16","新北市土城區員福街50號","121.440471666667","24.9790866666667","6501300","土城區"
"221010","269-BY","2018/09/20 13:59:23","新北市汐止區八連路一段336號","121.639941666667","25.0873116666667","6501100","汐止區"
"220027","145-BY","2018/09/20 13:59:17","新北市板橋區中正路37號","121.456255","25.0131716666667","6500100","板橋區"
"220030","610-BX","2018/09/20 13:59:25","新北市板橋區滿平街95號","121.428195","24.988875","6500100","板橋區"
"220050","245-BX","2018/09/20 13:59:27","新北市板橋區文化路二段182巷3弄1號","121.47137","25.02736","6500100","板橋區"
"220047","257-TC","2018/09/20 13:59:15","新北市板橋區民有街47號","121.465565","25.02597","6500100","板橋區"
"220004","276-BY","2018/09/20 13:59:17","新北市板橋區信義路85號","121.457293333333","24.994","6500100","板橋區"
"220020","277-BY","2018/09/20 13:59:26","新北市板橋區溪北路142號","121.429991666667","24.9886216666667","6500100","板橋區"
"220019","283-VK","2018/09/20 13:59:15","新北市板橋區重慶路249-1號","121.464211666667","25.0007716666667","6500100","板橋區"
"220043","285-UM","2018/09/20 13:59:16","新北市板橋區光武街6號","121.4679","25.0249016666667","6500100","板橋區"
"220001","285-VK","2018/09/20 13:59:29","新北市板橋區中山路二段89巷66號","121.473596666667","25.0175983333333","6500100","板橋區"
"220031","286-VK","2018/09/20 13:59:17","新北市板橋區大觀路一段38巷170弄1號","121.441951666667","25.0045683333333","6500100","板橋區"
"220009","293-UM","2018/09/20 13:59:17","新北市板橋區富山街109巷112號","121.474848333333","25.020975","6500100","板橋區"
"220046","299-UM","2018/09/20 13:59:17","新北市板橋區國光路214號","121.462198333333","25.0185633333333","6500100","板橋區"
"220023","303-R5","2018/09/20 13:59:28","新北市板橋區南雅西路二段20號","121.45303","25.00944","6500100","板橋區"
"220010","305-R5","2018/09/20 13:59:17","新北市板橋區三民路二段253-1號","121.479055","25.0116883333333","6500100","板橋區"
"220041","307-R5","2018/09/20 13:59:16","新北市板橋區文化路一段104巷8號","121.465048333333","25.0178083333333","6500100","板橋區"
"220028","461-BY","2018/09/20 13:59:08","新北市板橋區大觀路二段265巷3弄53-1號","121.443943333333","24.9961316666667","6500100","板橋區"
"220012","486-VK","2018/09/20 13:59:25","新北市板橋區縣民大道二段116號","121.467266666667","25.01574","6500100","板橋區"
"220104","560-BX","2018/09/20 13:59:29","新北市板橋區中正路375巷27號","121.45372","25.0201533333333","6500100","板橋區"
"220032","568-UM","2018/09/20 13:59:17","新北市板橋區大觀路二段142-1號","121.442686666667","24.99906","6500100","板橋區"
"220011","609-BX","2018/09/20 13:59:19","新北市板橋區中山路二段125號","121.475058333333","25.0163766666667","6500100","板橋區"
"220029","630-UY","2018/09/20 13:59:05","新北市板橋區光華街19巷36號","121.453298333333","25.0120516666667","6500100","板橋區"
"220040","637-BX","2018/09/20 13:59:31","新北市板橋區大同街53號","121.478551666667","25.0274583333333","6500100","板橋區"
"220005","686-BX","2018/09/20 13:59:10","新北市板橋區公園街64號","121.461918333333","25.007665","6500100","板橋區"
"220025","687-BX","2018/09/20 13:59:23","新北市板橋區大觀路二段431-1號","121.441453333333","24.9947266666667","6500100","板橋區"
"220042","689-BX","2018/09/20 13:59:11","新北市板橋區民生路三段135號","121.466073333333","25.02621","6500100","板橋區"
"220002","741-BX","2018/09/20 13:59:25","新北市板橋區成都街69號","121.462181666667","25.0050116666667","6500100","板橋區"
"220051","KEA-2699","2018/09/20 13:59:29","新北市板橋區萬板路706號","121.481613333333","25.0274966666667","6500100","板橋區"
"220003","827-TW","2018/09/20 13:59:24","新北市板橋區民安街30號","121.466833333333","25.011135","6500100","板橋區"
"220014","829-TW","2018/09/20 13:59:10","新北市板橋區三民路二段正隆巷12弄23號","121.477296666667","25.0136816666667","6500100","板橋區"
"220039","830-TW","2018/09/20 13:59:25","新北市板橋區互助街25巷7號","121.463316666667","25.027185","6500100","板橋區"
"220045","831-TW","2018/09/20 13:59:26","新北市板橋區莒光路103號","121.472666666667","25.024045","6500100","板橋區"
"220038","833-TW","2018/09/20 13:59:22","新北市板橋區文化路二段294號","121.472128333333","25.0296383333333","6500100","板橋區"
"220022","895-R6","2018/09/20 13:59:19","新北市板橋區南雅南路一段2-2號","121.456245","25.0068166666667","6500100","板橋區"
"220021","985-R7","2018/09/20 13:59:20","新北市板橋區館前西路150號","121.455661666667","25.0083366666667","6500100","板橋區"
"220018","AAC-253","2018/09/20 13:59:25","新北市板橋區四川路一段287號","121.4589","25.0008416666667","6500100","板橋區"
"235032","KEA-2873","2018/09/20 13:59:04","新北市中和區圓通路162巷4號","121.496886666667","24.9952683333333","6500300","中和區"
"235025","KEA-2875","2018/09/20 13:59:08","新北市中和區員山路469巷1號","121.480395","25.004655","6500300","中和區"
"235016","KEA-2876","2018/09/20 13:59:00","新北市中和區興南路二段399巷35號","121.500338333333","24.97797","6500300","中和區"
