"lineid","car","time","location","longitude","latitude","cityid","cityname"
"234005","207-UY","2018/09/20 14:19:25","新北市中和區中和路212號","121.50571","24.9997033333333","6500400","永和區"
"234078","298-R6","2018/09/20 14:19:17","新北市永和區福和路19巷1弄5號","121.524321666667","25.0078366666667","6500400","永和區"
"234036","336-UY","2018/09/20 14:19:23","新北市永和區成功路一段47巷5號","121.5275","25.0040766666667","6500400","永和區"
"234062","337-UY","2018/09/20 14:19:25","新北市永和區得和路131號","121.519113333333","25.0002366666667","6500400","永和區"
"234084","338-UY","2018/09/20 14:19:12","新北市永和區中正路664號","121.516771666667","25.0087866666667","6500400","永和區"
"234068","552-UM","2018/09/20 14:19:09","新北市永和區福和路263巷16號","121.5179","25.0066683333333","6500400","永和區"
"234028","746-BX","2018/09/20 14:19:26","新北市永和區民權路49巷21號","121.521111666667","24.997405","6500400","永和區"
"234052","KEA-2590","2018/09/20 14:19:16","新北市永和區博愛街17號","121.517301666667","25.0158466666667","6500400","永和區"
"234012","KEA-2591","2018/09/20 14:19:21","新北市永和區保生路55號","121.504696666667","25.0106483333333","6500400","永和區"
"234060","AAD-866","2018/09/20 14:19:20","新北市永和區安樂路196號","121.51502","25.0013466666667","6500400","永和區"
"234040","862-TW","2018/09/20 14:19:24","新北市中和區中安街188號","121.511211666667","24.999335","6500400","永和區"
"234048","863-TW","2018/09/20 14:19:16","新北市永和區環河西路二段7-11號","121.509178333333","25.01691","6500400","永和區"
"234025","9371-KE","2018/09/20 14:19:11","新北市永和區安樂路144巷15號","121.514613333333","25.0001533333333","6500400","永和區"
"248015","026-BX","2018/09/20 14:19:23","新北市五股區成洲五路12號","121.452256666667","25.1015783333333","6501500","五股區"
"248007","095-VK","2018/09/20 14:19:28","新北市五股區中興路二段57-6號","121.460515","25.0754883333333","6501500","五股區"
"248017","225-UY","2018/09/20 14:19:18","新北市五股區民義路一段220巷5-1號","121.42856","25.09236","6501500","五股區"
"248011","247-BX","2018/09/20 14:19:22","新北市五股區工商路83號","121.43791","25.08486","6501500","五股區"
"248009","272-BY","2018/09/20 14:19:21","新北市五股區自強路90巷72號","121.430765","25.071345","6501500","五股區"
"248001","655-BX","2018/09/20 14:19:21","新北市五股區成泰路四段6-3號","121.452973333333","25.1064216666667","6501500","五股區"
"248003","677-BX","2018/09/20 14:19:26","新北市五股區五福路56號","121.433446666667","25.0896633333333","6501500","五股區"
"234022","9380-KE","2018/09/20 14:19:20","新北市永和區竹林路23號","121.517286666667","25.0146816666667","6500400","永和區"
"234076","969-R7","2018/09/20 14:19:27","新北市永和區民族街81巷62號","121.520216666667","24.996585","6500400","永和區"
"234072","AAC-211","2018/09/20 14:19:27","新北市永和區豫溪街191巷7弄25號","121.523196666667","25.01099","6500400","永和區"
"234066","AAC-212","2018/09/20 14:19:15","新北市永和區中山路一段281巷2弄1號","121.507225","25.0065866666667","6500400","永和區"
"234001","AAC-295","2018/09/20 14:19:09","新北市永和區中正路620號","121.516975","25.0078783333333","6500400","永和區"
"244001","658-BX","2018/09/20 14:19:26","新北市林口區文化北路一段472號","121.365375","25.0776583333333","6501700","林口區"
"243005","AAD-798","2018/09/20 14:19:29","新北市泰山區明志路三段145巷34弄2號","121.42625","25.0395483333333","6501600","泰山區"
"243001","297-R6","2018/09/20 14:19:22","新北市泰山區明志路一段21號","121.43391","25.0657183333333","6501600","泰山區"
"243008","KEA-2801","2018/09/20 14:19:19","新北市泰山區明志路三段146號","121.42463","25.0397683333333","6501600","泰山區"
"243007","421-VK","2018/09/20 14:19:15","新北市泰山區明志路二段76號","121.428743333333","25.05236","6501600","泰山區"
"243003","KEA-2215","2018/09/20 14:19:16","新北市泰山區中央路11巷11號","121.426648333333","25.0426116666667","6501600","泰山區"
"243002","KEA-2216","2018/09/20 14:19:20","新北市泰山區明志路二段34號","121.429423333333","25.0534316666667","6501600","泰山區"
"243004","646-TV","2018/09/20 14:19:19","新北市泰山區仁義路179號","121.432798333333","25.0541833333333","6501600","泰山區"
"243006","680-BX","2018/09/20 14:19:31","新北市泰山區泰林路二段122號","121.434561666667","25.0594016666667","6501600","泰山區"
"231002","002-UM","2018/09/20 14:19:13","新北市新店區中正路485號","121.533998333333","24.981915","6500600","新店區"
"231028","046-UY","2018/09/20 14:19:22","新北市新店區安和路二段207號","121.517816666667","24.9754733333333","6500600","新店區"
"231001","047-UY","2018/09/20 14:19:13","新北市新店區北新路一段341號","121.541856666667","24.9688483333333","6500600","新店區"
"231005","106-UY","2018/09/20 14:19:19","新北市新店區中興路三段217號","121.54353","24.98224","6500600","新店區"
"231021","108-UY","2018/09/20 14:19:16","新北市新店區新烏路二段126號","121.549406666667","24.920305","6500600","新店區"
"231011","187-VK","2018/09/20 14:19:28","新北市新店區五峰路63巷8弄44號","121.548","24.96858","6500600","新店區"
"231023","KEA-2219","2018/09/20 14:19:29","新北市新店區光明街69號","121.538706666667","24.9605683333333","6500600","新店區"
"231003","268-BY","2018/09/20 14:19:25","新北市新店區中興路一段183號","121.543055","24.9648566666667","6500600","新店區"
"231018","278-BY","2018/09/20 14:19:13","新北市新店區中央四街47號","121.52783","24.9749483333333","6500600","新店區"
"231017","AAD-862","2018/09/20 14:19:20","新北市新店區中生路149號","121.568556666667","24.950715","6500600","新店區"
"231038","3712-VJ","2018/09/20 14:19:16","新北市新店區溪洲路121號","121.531221666667","24.963065","6500600","新店區"
"231027","3713-VJ","2018/09/20 14:19:27","新北市新店區北新路二段228巷1號","121.542841666667","24.9776333333333","6500600","新店區"
"231037","4716-K9","2018/09/20 14:19:22","新北市新店區車子路10-2號","121.504663333333","24.9547466666667","6500600","新店區"
"231036","512-UM","2018/09/20 14:19:22","新北市新店區安祥路109巷6弄23號","121.47545","24.9578583333333","6500600","新店區"
"231013","513-UM","2018/09/20 14:19:21","新北市新店區建國路128巷3-1號","121.53895","24.9793283333333","6500600","新店區"
"231034","616-UM","2018/09/20 14:19:16","新北市新店區車子路11號","121.503033333333","24.9520233333333","6500600","新店區"
"231030","619-UM","2018/09/20 14:19:13","新北市新店區安光路10-1號","121.513676666667","24.964035","6500600","新店區"
"231035","719-UM","2018/09/20 14:06:14","新北市新店區安康路一段302-2號","121.517315","24.96408","6500600","新店區"
"231031","720-UM","2018/09/20 14:19:20","新北市新店區溪洲路32-1號","121.533233333333","24.96103","6500600","新店區"
"231029","897-TW","2018/09/20 14:19:18","新北市新店區安康路二段223號","121.508606666667","24.9587616666667","6500600","新店區"
"231006","898-TW","2018/09/20 14:19:22","新北市新店區北宜路二段446號","121.569856666667","24.95621","6500600","新店區"
"231004","899-TW","2018/09/20 14:19:17","新北市新店區中正路126號","121.542095","24.97127","6500600","新店區"
"235030","003-UY","2018/09/20 14:19:27","新北市中和區中和路104號","121.50282","24.9998","6500300","中和區"
"235028","005-UY","2018/09/20 14:19:18","新北市中和區南山路24號","121.50199","24.9981833333333","6500300","中和區"
"235027","006-UY","2018/09/20 14:19:26","新北市中和區連城路249巷26弄1號","121.494623333333","24.9952016666667","6500300","中和區"
"235020","096-UM","2018/09/20 14:19:14","新北市中和區員山路513號","121.479828333333","25.0066766666667","6500300","中和區"
"235003","097-UM","2018/09/20 14:19:09","新北市中和區秀峰街86號","121.519721666667","24.9910166666667","6500300","中和區"
"235029","098-UM","2018/09/20 14:19:25","新北市中和區中山路二段2巷13弄28號","121.502488333333","25.0065883333333","6500300","中和區"
"235004","150-BY","2018/09/20 14:19:24","新北市中和區安平路36巷59號","121.510588333333","24.9946216666667","6500300","中和區"
"235022","151-BY","2018/09/20 14:19:12","新北市中和區連城路477巷6弄4號","121.482993333333","24.9951216666667","6500300","中和區"
"235019","183-VK","2018/09/20 14:19:18","新北市中和區民享街2巷2號","121.47368","25.0059183333333","6500300","中和區"
"235002","185-VK","2018/09/20 14:19:27","新北市中和區大仁街10巷52號","121.520633333333","24.99274","6500300","中和區"
"235013","186-VK","2018/09/20 14:19:14","新北市中和區景新街228-6號","121.508188333333","24.9941783333333","6500300","中和區"
"235031","255-BX","2018/09/20 14:19:14","新北市中和區中正路711號","121.484486666667","24.9985116666667","6500300","中和區"
"235008","293-VK","2018/09/20 14:19:22","新北市中和區中興街264號","121.498765","24.9874516666667","6500300","中和區"
"235036","301-VK","2018/09/20 14:19:20","新北市中和區莊敬路33巷20號","121.500136666667","25.005455","6500300","中和區"
"235007","352-BY","2018/09/20 14:19:26","新北市中和區景平路157號","121.513048333333","24.992325","6500300","中和區"
"235006","KEA-2878","2018/09/20 14:19:21","新北市中和區安樂路217巷35弄10號","121.513975","24.99773","6500300","中和區"
"247011","KEA-2869","2018/09/20 14:19:14","新北市蘆洲區民權路29號","121.476081666667","25.086395","6501400","蘆洲區"
"235014","4979-A6","2018/09/20 14:19:25","新北市中和區景安路216號","121.503815","24.9906466666667","6500300","中和區"
"235033","4980-A6","2018/09/20 14:19:23","新北市中和區福美路232號","121.498993333333","25.0053266666667","6500300","中和區"
"235034","558-UM","2018/09/20 14:19:17","新北市中和區連城路30號","121.498611666667","25.0020666666667","6500300","中和區"
"235009","565-BX","2018/09/20 14:19:26","新北市中和區景新街423巷33弄41號","121.51371","24.9901116666667","6500300","中和區"
"235018","640-BX","2018/09/20 14:19:27","新北市中和區國光街113號","121.469763333333","25.0005366666667","6500300","中和區"
"235011","732-UM","2018/09/20 14:19:23","新北市中和區景平路239巷73號","121.508188333333","24.992125","6500300","中和區"
"235010","733-UM","2018/09/20 14:19:17","新北市中和區忠孝街2巷13弄2號","121.510418333333","24.9818966666667","6500300","中和區"
"235035","783-BX","2018/09/20 14:19:29","新北市中和區連城路360號","121.481988333333","24.9953883333333","6500300","中和區"
"235021","801-TS","2018/09/20 14:19:20","新北市中和區員山路423巷16號","121.480255","25.0026833333333","6500300","中和區"
"235005","802-TS","2018/09/20 14:19:22","新北市中和區安平路155號","121.512291666667","24.9982733333333","6500300","中和區"
"235012","896-TW","2018/09/20 14:19:20","新北市中和區華新街111號","121.508393333333","24.9815483333333","6500300","中和區"
"235017","900-TW","2018/09/20 14:19:24","新北市中和區華安街17巷37-2號","121.467793333333","24.9983083333333","6500300","中和區"
"235024","911-UM","2018/09/20 14:19:25","新北市中和區中山路三段43號","121.477033333333","25.00561","6500300","中和區"
"235015","157-BY","2018/09/20 14:19:26","新北市中和區景平路241巷19號","121.509105","24.9923633333333","6500300","中和區"
"235001","AAC-213","2018/09/20 14:19:22","新北市中和區秀朗路三段10巷37弄4號","121.524041666667","24.9957916666667","6500300","中和區"
"235023","AAC-215","2018/09/20 14:19:23","新北市中和區圓通路286巷7號","121.491401666667","24.9914816666667","6500300","中和區"
"220016","013-TV","2018/09/20 14:19:16","新北市板橋區萬安街85巷2-1號","121.483625","25.0252416666667","6500100","板橋區"
"220013","072-UY","2018/09/20 14:19:22","新北市板橋區民族路129巷10號","121.467653333333","25.0084816666667","6500100","板橋區"
"220034","073-UY","2018/09/20 14:19:23","新北市板橋區中正路216巷82號","121.45818","25.0189583333333","6500100","板橋區"
"220105","075-UY","2018/09/20 14:19:24","新北市板橋區雙十路三段70巷1號","121.470253333333","25.03245","6500100","板橋區"
"220017","AAD-861","2018/09/20 14:19:26","新北市板橋區大華街182巷2號","121.459061666667","25.0035483333333","6500100","板橋區"
"247001","893-R6","2018/09/20 14:19:25","新北市蘆洲區長安街332號","121.457518333333","25.0883416666667","6501400","蘆洲區"
"247015","546-UM","2018/09/20 14:19:27","新北市蘆洲區中正路185巷31弄48號","121.467365","25.0830683333333","6501400","蘆洲區"
"247023","500-BY","2018/09/20 14:19:15","新北市蘆洲區長榮路661號","121.46006","25.0914583333333","6501400","蘆洲區"
"247013","339-TH","2018/09/20 14:19:07","新北市蘆洲區成功路60號","121.472503333333","25.0804933333333","6501400","蘆洲區"
"247005","337-TH","2018/09/20 14:19:25","新北市蘆洲區長安街13號","121.464098333333","25.079065","6501400","蘆洲區"
"247007","336-TH","2018/09/20 14:19:24","新北市蘆洲區中山一路223巷14號","121.474048333333","25.0803","6501400","蘆洲區"
"247019","057-VK","2018/09/20 14:19:13","新北市蘆洲區民族路428號","121.473628333333","25.092015","6501400","蘆洲區"
"247009","056-VK","2018/09/20 14:19:14","新北市蘆洲區三民路26巷34弄1號","121.47817","25.0827966666667","6501400","蘆洲區"
"247017","007-UY","2018/09/20 14:19:17","新北市蘆洲區復興路101號","121.476668333333","25.0875866666667","6501400","蘆洲區"
"247003","002-UY","2018/09/20 14:19:14","新北市蘆洲區長安街174號","121.459083333333","25.0833466666667","6501400","蘆洲區"
"247021","001-UY","2018/09/20 14:19:27","新北市蘆洲區三民路128巷59號","121.469303333333","25.0907166666667","6501400","蘆洲區"
"235026","251-BX","2018/09/20 14:19:13","新北市中和區橋安街17號","121.492795","25.003835","6500300","中和區"
"228005","097-TW","2018/09/20 14:19:31","新北市貢寮區美豐里土地公嶺54號","121.894511666667","25.064995","6502600","貢寮區"
"228004","212-TW","2018/09/20 14:19:26","新北市貢寮區雙玉里田寮洋街39-3號","121.925215","25.0139733333333","6502600","貢寮區"
"253003","6232-TK","2018/09/20 14:19:23","新北市石門區尖子鹿33-1號","121.581591666667","25.265205","6502200","石門區"
"253001","6251-TK","2018/09/20 14:19:28","新北市石門區八甲73-2號","121.531013333333","25.2681983333333","6502200","石門區"
"253002","637-UY","2018/09/20 14:19:15","新北市石門區大丘田50-1號","121.549801666667","25.2744516666667","6502200","石門區"
"207002","749-BX","2018/09/20 14:19:23","新北市萬里區溪底里瑞泉路13-1號","121.60496","25.1448933333333","6502800","萬里區"
"207001","662-BX","2018/09/20 14:19:21","新北市萬里區磺潭里清水18號","121.637953333333","25.1976533333333","6502800","萬里區"
"252005","AAC-283","2018/09/20 14:19:24","新北市三芝區橫山里大坑34號","121.527005","25.25548","6502100","三芝區"
"237001","361-BY","2018/09/20 14:19:23","新北市三峽區中山路459巷163-1號","121.34937","24.933505","6500900","三峽區"
"236068","105-UM","2018/09/20 14:19:18","新北市土城區明德路一段169號","121.464341666667","24.9793683333333","6501300","土城區"
"236040","107-UM","2018/09/20 14:19:11","新北市土城區樂利街3巷6號","121.44839","24.9861566666667","6501300","土城區"
"236074","166-UM","2018/09/20 14:19:16","新北市土城區中央路三段235巷8號","121.429158333333","24.9637766666667","6501300","土城區"
"236029","253-BX","2018/09/20 14:19:24","新北市土城區順風路46號","121.44018","24.97715","6501300","土城區"
"236024","269-VK","2018/09/20 14:19:18","新北市土城區承天路18號","121.439488333333","24.9634116666667","6501300","土城區"
"236012","270-VK","2018/09/20 14:19:22","新北市土城區青雲路39巷7號","121.46036","24.9875666666667","6501300","土城區"
"236032","271-VK","2018/09/20 14:19:24","新北市土城區青雲路483巷3號","121.459363333333","24.9739066666667","6501300","土城區"
"236017","401-BY","2018/09/20 14:19:14","新北市土城區金城路二段360-2號","121.462111666667","24.98526","6501300","土城區"
"236057","912-UM","2018/09/20 14:19:18","新北市土城區中央路四段466號","121.40991","24.9506383333333","6501300","土城區"
"236045","913-UM","2018/09/20 14:19:21","新北市土城區明德路一段375-1號","121.4549","24.97812","6501300","土城區"
"236060","915-UM","2018/09/20 14:19:16","新北市土城區延壽路44巷15號","121.471566666667","24.993025","6501300","土城區"
"236054","AAC-216","2018/09/20 14:19:23","新北市土城區中華路二段114號","121.437863333333","24.9739966666667","6501300","土城區"
"221010","269-BY","2018/09/20 14:19:23","新北市汐止區長青路210巷190號","121.616156666667","25.1130616666667","6501100","汐止區"
"220027","145-BY","2018/09/20 14:19:28","新北市板橋區民權路260巷66-2號","121.460403333333","25.014985","6500100","板橋區"
"220030","610-BX","2018/09/20 14:19:16","新北市板橋區篤行路三段91號","121.42643","24.9848516666667","6500100","板橋區"
"220050","245-BX","2018/09/20 14:19:22","新北市板橋區雙十路二段167號","121.474085","25.0284583333333","6500100","板橋區"
"220047","257-TC","2018/09/20 14:19:17","新北市板橋區民有街107號","121.464375","25.0281916666667","6500100","板橋區"
"220004","276-BY","2018/09/20 14:19:17","新北市板橋區信義路185號","121.459015","24.9918466666667","6500100","板橋區"
"220020","277-BY","2018/09/20 14:19:26","新北市板橋區金門街337巷6弄2號","121.429525","24.98551","6500100","板橋區"
"220019","283-VK","2018/09/20 14:19:15","新北市板橋區仁愛路73巷12號","121.46106","25.00039","6500100","板橋區"
"220043","285-UM","2018/09/20 14:19:15","新北市板橋區光武街136巷1-1號","121.465573333333","25.0300616666667","6500100","板橋區"
"220001","285-VK","2018/09/20 14:19:09","新北市板橋區富山街5號","121.4786","25.0215833333333","6500100","板橋區"
"220031","286-VK","2018/09/20 14:19:16","新北市板橋區大觀路二段174巷166弄15號","121.442818333333","25.0029533333333","6500100","板橋區"
"220009","293-UM","2018/09/20 14:19:17","新北市板橋區中山路二段326-5號","121.48122","25.0193866666667","6500100","板橋區"
"220046","299-UM","2018/09/20 14:19:17","新北市板橋區幸福路60巷4號","121.460686666667","25.0209033333333","6500100","板橋區"
"220023","303-R5","2018/09/20 14:19:28","新北市板橋區南雅南路一段4巷15號","121.454733333333","25.005165","6500100","板橋區"
"220010","305-R5","2018/09/20 14:19:17","新北市板橋區三民路二段居仁巷2弄25號","121.479988333333","25.0130166666667","6500100","板橋區"
"220041","307-R5","2018/09/20 14:19:16","新北市板橋區松江街62號","121.468735","25.027545","6500100","板橋區"
"220028","461-BY","2018/09/20 14:19:08","新北市板橋區大觀路二段3巷36號","121.448346666667","25.0035933333333","6500100","板橋區"
"220012","486-VK","2018/09/20 14:19:15","新北市板橋區縣民大道二段68-1號","121.463351666667","25.01312","6500100","板橋區"
"220104","560-BX","2018/09/20 14:19:29","新北市板橋區中正路433巷9號","121.453805","25.0233633333333","6500100","板橋區"
"220052","561-BX","2018/09/20 14:19:21","新北市板橋區文化路一段188巷7弄16號","121.467641666667","25.0196666666667","6500100","板橋區"
"220032","568-UM","2018/09/20 14:19:27","新北市板橋區滿平街136巷8弄12號","121.427431666667","24.987685","6500100","板橋區"
"220011","609-BX","2018/09/20 14:19:19","新北市板橋區三民路二段203-4號","121.47911","25.0136283333333","6500100","板橋區"
"220029","630-UY","2018/09/20 14:19:24","新北市板橋區南雅西路一段61號","121.45348","25.00551","6500100","板橋區"
"220040","637-BX","2018/09/20 14:19:11","新北市板橋區文聖街160號","121.479008333333","25.02714","6500100","板橋區"
"220005","686-BX","2018/09/20 14:19:10","新北市板橋區國慶路199號","121.463211666667","24.9966766666667","6500100","板橋區"
"220025","687-BX","2018/09/20 14:19:26","新北市板橋區龍興街9號","121.442548333333","24.99957","6500100","板橋區"
"220042","689-BX","2018/09/20 14:19:23","新北市板橋區漢生西路50號","121.463136666667","25.0185366666667","6500100","板橋區"
"220002","741-BX","2018/09/20 14:19:25","新北市板橋區校前街38號","121.461043333333","25.003165","6500100","板橋區"
"220051","KEA-2699","2018/09/20 14:19:29","新北市板橋區文聖街180號","121.47929","25.02685","6500100","板橋區"
"220003","827-TW","2018/09/20 14:19:24","新北市板橋區館前東路156巷6號","121.464405","25.0074083333333","6500100","板橋區"
"220014","829-TW","2018/09/20 14:19:10","新北市板橋區長安街138巷1弄52號","121.473996666667","25.010105","6500100","板橋區"
"220039","830-TW","2018/09/20 14:19:20","新北市板橋區長江路一段106巷18弄7號","121.460023333333","25.028465","6500100","板橋區"
"220045","831-TW","2018/09/20 14:19:23","新北市板橋區大同街26巷1號","121.478111666667","25.0272183333333","6500100","板橋區"
"220038","833-TW","2018/09/20 14:19:23","新北市板橋區文化路一段279號","121.464728333333","25.0184983333333","6500100","板橋區"
"220022","895-R6","2018/09/20 14:19:28","新北市板橋區文昌街2號","121.45606","25.0103066666667","6500100","板橋區"
"220021","985-R7","2018/09/20 14:19:19","新北市板橋區中正路233號","121.45602","25.01799","6500100","板橋區"
"220018","AAC-253","2018/09/20 14:19:24","新北市板橋區忠孝路136號","121.463648333333","25.002365","6500100","板橋區"
"235032","KEA-2873","2018/09/20 14:19:04","新北市中和區連勝街57巷21號","121.497978333333","24.9967116666667","6500300","中和區"
"235025","KEA-2875","2018/09/20 14:19:08","新北市中和區民利街73號","121.47864","24.998175","6500300","中和區"
"235016","KEA-2876","2018/09/20 14:19:30","新北市中和區興南路二段142巷19弄4號","121.503023333333","24.98346","6500300","中和區"
