"lineid","car","time","location","longitude","latitude","cityid","cityname"
"234005","207-UY","2018/09/20 14:39:25","新北市永和區中正路417號","121.51719","25.004905","6500400","永和區"
"234078","298-R6","2018/09/20 14:39:18","新北市永和區永貞路84號","121.520041666667","25.0048883333333","6500400","永和區"
"234036","336-UY","2018/09/20 14:39:23","新北市永和區民樂街31巷6弄15號","121.528888333333","25.0016016666667","6500400","永和區"
"234062","337-UY","2018/09/20 14:39:25","新北市永和區環河西路二段235號","121.500733333333","25.010105","6500400","永和區"
"234084","338-UY","2018/09/20 14:39:12","新北市永和區光復街21號","121.516485","25.0174866666667","6500400","永和區"
"234028","746-BX","2018/09/20 14:39:19","新北市中和區中正路62號","121.501413333333","24.99359","6500400","永和區"
"234052","KEA-2590","2018/09/20 14:39:16","新北市永和區環河東路一段80號","121.519595","25.0165116666667","6500400","永和區"
"234040","862-TW","2018/09/20 14:39:24","新北市永和區永和路二段99號","121.51479","25.0116416666667","6500400","永和區"
"234048","863-TW","2018/09/20 14:39:16","新北市永和區保福路三段1號","121.508536666667","25.01546","6500400","永和區"
"234025","9371-KE","2018/09/20 14:39:31","新北市永和區中和路501巷5號","121.510496666667","25.0026383333333","6500400","永和區"
"248013","025-BX","2018/09/20 14:39:15","新北市五股區五福路52巷11弄4號","121.434008333333","25.089965","6501500","五股區"
"248015","026-BX","2018/09/20 14:39:23","新北市五股區成泰路四段12-1號","121.4532","25.1067416666667","6501500","五股區"
"248007","095-VK","2018/09/20 14:39:28","新北市五股區四維路118巷9號","121.468818333333","25.0743716666667","6501500","五股區"
"248017","225-UY","2018/09/20 14:37:58","新北市五股區壟路16-1號","121.414698333333","25.0853633333333","6501500","五股區"
"248011","247-BX","2018/09/20 14:39:17","新北市五股區民義路一段42-1號","121.436861666667","25.0839283333333","6501500","五股區"
"248009","272-BY","2018/09/20 14:39:21","新北市五股區登林路74-3號","121.431063333333","25.0693316666667","6501500","五股區"
"248001","655-BX","2018/09/20 14:39:21","新北市五股區成泰路三段391-1號","121.449438333333","25.0966483333333","6501500","五股區"
"248003","677-BX","2018/09/20 14:39:26","新北市五股區成泰路二段82號","121.437395","25.082285","6501500","五股區"
"234072","AAC-211","2018/09/20 14:39:25","新北市永和區環河東路二段20號","121.522306666667","25.0131333333333","6500400","永和區"
"234001","AAC-295","2018/09/20 14:39:29","新北市永和區中正路626號","121.517018333333","25.0079516666667","6500400","永和區"
"244001","658-BX","2018/09/20 14:39:26","新北市林口區文化二路66-5號","121.365603333333","25.0691133333333","6501700","林口區"
"243005","AAD-798","2018/09/20 14:34:48","新北市泰山區應化街7號","121.423873333333","25.0437266666667","6501600","泰山區"
"243001","297-R6","2018/09/20 14:39:28","新北市泰山區楓江路16巷30號","121.433923333333","25.0615283333333","6501600","泰山區"
"243008","KEA-2801","2018/09/20 14:39:19","新北市泰山區德安街2號","121.419413333333","25.0319266666667","6501600","泰山區"
"243007","421-VK","2018/09/20 14:39:15","新北市泰山區明志路二段214巷16弄2號","121.426875","25.049075","6501600","泰山區"
"243003","KEA-2215","2018/09/20 14:39:16","新北市泰山區明志路三段204巷10弄20號","121.422933333333","25.0388333333333","6501600","泰山區"
"243002","KEA-2216","2018/09/20 14:39:20","新北市泰山區明志路二段136巷21弄6號","121.42594","25.0518566666667","6501600","泰山區"
"243004","646-TV","2018/09/20 14:39:24","新北市泰山區楓江路17號","121.433905","25.06252","6501600","泰山區"
"243006","680-BX","2018/09/20 14:39:11","新北市泰山區泰林路二段33-7號","121.435188333333","25.056445","6501600","泰山區"
"231002","002-UM","2018/09/20 14:39:13","新北市新店區中正路404號","121.53446","24.9775266666667","6500600","新店區"
"231028","046-UY","2018/09/20 14:39:22","新北市新店區安成街23號","121.509973333333","24.9607516666667","6500600","新店區"
"231001","047-UY","2018/09/20 14:39:11","新北市新店區中正路8號","121.545673333333","24.969495","6500600","新店區"
"231005","106-UY","2018/09/20 14:39:19","新北市新店區復興路31號","121.538715","24.9863616666667","6500600","新店區"
"231021","108-UY","2018/09/20 14:39:16","新北市新店區新烏路三段63號","121.554245","24.9040683333333","6500600","新店區"
"231011","187-VK","2018/09/20 14:39:28","新北市新店區寶橋路103號","121.548035","24.97669","6500600","新店區"
"231023","KEA-2219","2018/09/20 14:39:29","新北市新店區檳榔路21號","121.541535","24.9638166666667","6500600","新店區"
"231003","268-BY","2018/09/20 14:39:25","新北市新店區中興路一段283號","121.545346666667","24.9683633333333","6500600","新店區"
"231018","278-BY","2018/09/20 14:39:13","新北市新店區中央三街30-1號","121.528453333333","24.97404","6500600","新店區"
"231017","AAD-862","2018/09/20 14:39:20","新北市新店區北宜路三段221號","121.592358333333","24.95329","6500600","新店區"
"231038","3712-VJ","2018/09/20 14:39:16","新北市新店區溪洲路184號","121.528671666667","24.9660983333333","6500600","新店區"
"231027","3713-VJ","2018/09/20 14:39:27","新北市新店區中正路334巷5號","121.536798333333","24.9753833333333","6500600","新店區"
"231037","4716-K9","2018/09/20 14:39:22","新北市新店區柴埕路37號","121.513853333333","24.965735","6500600","新店區"
"231036","512-UM","2018/09/20 14:39:22","新北市新店區安祥路109巷8號","121.475345","24.9588416666667","6500600","新店區"
"231013","513-UM","2018/09/20 14:39:21","新北市新店區明德路21號","121.542025","24.9770783333333","6500600","新店區"
"231034","616-UM","2018/09/20 14:39:16","新北市新店區黎明路52巷7號","121.502085","24.9488","6500600","新店區"
"231030","619-UM","2018/09/20 14:39:13","新北市新店區安民街173號","121.516736666667","24.9703166666667","6500600","新店區"
"231035","719-UM","2018/09/20 14:34:55","新北市新店區安光路13-1號","121.51332","24.9638533333333","6500600","新店區"
"231029","897-TW","2018/09/20 14:39:15","新北市新店區安康路三段277號","121.486075","24.9516116666667","6500600","新店區"
"231006","898-TW","2018/09/20 14:39:22","新北市新店區北宜路二段80巷2弄14號","121.551918333333","24.9530583333333","6500600","新店區"
"231004","899-TW","2018/09/20 14:39:17","新北市新店區中正路291號","121.537295","24.9745233333333","6500600","新店區"
"231024","AKT-0513","2018/09/20 14:39:24","新北市新店區新生街2號","121.540258333333","24.9659533333333","6500600","新店區"
"235030","003-UY","2018/09/20 14:39:27","新北市中和區景新街133號","121.505935","24.9972566666667","6500300","中和區"
"235028","005-UY","2018/09/20 14:39:18","新北市中和區圓通路39號","121.500953333333","24.9976366666667","6500300","中和區"
"235027","006-UY","2018/09/20 14:39:26","新北市中和區連城路139巷64號","121.496723333333","24.9968083333333","6500300","中和區"
"235020","096-UM","2018/09/20 14:39:14","新北市中和區員山路581巷31弄22號","121.476681666667","25.0103633333333","6500300","中和區"
"235003","097-UM","2018/09/20 14:39:30","新北市中和區安平路155號","121.512301666667","24.99821","6500300","中和區"
"235029","098-UM","2018/09/20 14:39:28","新北市中和區福祥路90巷1號","121.499278333333","25.0056083333333","6500300","中和區"
"235004","150-BY","2018/09/20 14:39:24","新北市中和區宜安路11巷5號","121.51305","24.9954283333333","6500300","中和區"
"235022","151-BY","2018/09/20 14:39:31","新北市中和區連城路376號","121.481396666667","24.995175","6500300","中和區"
"235019","183-VK","2018/09/20 14:39:18","新北市中和區民生街15號","121.471308333333","25.00588","6500300","中和區"
"235002","185-VK","2018/09/20 14:39:28","新北市中和區自立路20巷9號","121.521863333333","24.9933083333333","6500300","中和區"
"235013","186-VK","2018/09/20 14:39:14","新北市中和區安平路17號","121.509156666667","24.994145","6500300","中和區"
"235031","255-BX","2018/09/20 14:39:14","新北市中和區新生街277號","121.48385","24.9980133333333","6500300","中和區"
"235008","293-VK","2018/09/20 14:39:22","新北市中和區捷運路63號","121.509016666667","24.989735","6500300","中和區"
"235036","301-VK","2018/09/20 14:39:20","新北市中和區中山路二段3巷22弄4號","121.506226666667","25.0051733333333","6500300","中和區"
"235007","352-BY","2018/09/20 14:39:25","新北市中和區南華路18號","121.502808333333","24.9956783333333","6500300","中和區"
"235006","KEA-2878","2018/09/20 14:39:21","新北市中和區保健路2巷32號","121.506993333333","24.9974283333333","6500300","中和區"
"247011","KEA-2869","2018/09/20 14:39:14","新北市蘆洲區集賢路224巷46弄58-1號","121.480985","25.0878983333333","6501400","蘆洲區"
"235014","4979-A6","2018/09/20 14:39:25","新北市中和區錦和路350-1號","121.490475","24.99356","6500300","中和區"
"235034","558-UM","2018/09/20 14:39:17","新北市中和區景平路634-12號","121.498401666667","24.9998433333333","6500300","中和區"
"235009","565-BX","2018/09/20 14:39:26","新北市中和區景新街469號","121.513488333333","24.988085","6500300","中和區"
"235018","640-BX","2018/09/20 14:39:27","新北市中和區民德路2號","121.468698333333","25.0032366666667","6500300","中和區"
"235011","732-UM","2018/09/20 14:39:23","新北市中和區和平街10號","121.510111666667","24.99006","6500300","中和區"
"235010","733-UM","2018/09/20 14:39:17","新北市中和區四維街17號","121.513071666667","24.9871133333333","6500300","中和區"
"235035","783-BX","2018/09/20 14:39:29","新北市中和區建一路183號","121.488238333333","24.9981666666667","6500300","中和區"
"235021","801-TS","2018/09/20 14:39:25","新北市中和區員山路202號","121.481278333333","25.00064","6500300","中和區"
"235005","802-TS","2018/09/20 14:39:15","新北市中和區宜安路144號","121.509575","24.9985016666667","6500300","中和區"
"235012","896-TW","2018/09/20 14:39:20","新北市中和區四維街17號","121.513068333333","24.987145","6500300","中和區"
"235017","900-TW","2018/09/20 14:39:24","新北市中和區國光街215巷34號","121.46722","25.0002116666667","6500300","中和區"
"235024","911-UM","2018/09/20 14:39:25","新北市中和區中山路二段523巷13號","121.48176","25.0040333333333","6500300","中和區"
"235015","157-BY","2018/09/20 14:39:26","新北市中和區中興街180巷50弄1號","121.498915","24.9888633333333","6500300","中和區"
"235001","AAC-213","2018/09/20 14:39:21","新北市中和區秀朗路三段93號","121.526546666667","24.9954183333333","6500300","中和區"
"235023","AAC-215","2018/09/20 14:39:23","新北市中和區圓通路256號","121.493468333333","24.9909416666667","6500300","中和區"
"220016","013-TV","2018/09/20 14:39:29","新北市板橋區中山路二段531巷46號","121.48251","25.02272","6500100","板橋區"
"220013","072-UY","2018/09/20 14:39:22","新北市板橋區國泰街111巷21號","121.466083333333","25.0058133333333","6500100","板橋區"
"220034","073-UY","2018/09/20 14:39:18","新北市板橋區漢生西路89巷4弄8號","121.461013333333","25.0188233333333","6500100","板橋區"
"220105","075-UY","2018/09/20 14:39:24","新北市板橋區文化路二段548巷27號","121.47679","25.0337166666667","6500100","板橋區"
"220017","AAD-861","2018/09/20 14:39:26","新北市板橋區縣民大道一段64巷36號","121.45589","25.0033433333333","6500100","板橋區"
"247001","893-R6","2018/09/20 14:39:25","新北市蘆洲區永樂街38巷57弄12號","121.45778","25.0904216666667","6501400","蘆洲區"
"247015","546-UM","2018/09/20 14:39:27","新北市蘆洲區正和街58號","121.46896","25.0814016666667","6501400","蘆洲區"
"247023","500-BY","2018/09/20 14:39:16","新北市蘆洲區正和街65號","121.468956666667","25.080935","6501400","蘆洲區"
"247013","339-TH","2018/09/20 14:39:27","新北市蘆洲區得勝街108號","121.471168333333","25.0829433333333","6501400","蘆洲區"
"247005","337-TH","2018/09/20 14:39:15","新北市蘆洲區長安街60號","121.462961666667","25.0798483333333","6501400","蘆洲區"
"247007","336-TH","2018/09/20 14:39:24","新北市蘆洲區成功路38巷2號","121.473275","25.0794233333333","6501400","蘆洲區"
"247019","057-VK","2018/09/20 14:39:13","新北市蘆洲區民權路125號","121.47216","25.0899683333333","6501400","蘆洲區"
"247009","056-VK","2018/09/20 14:39:14","新北市蘆洲區信義路222巷32弄1號","121.480465","25.0855066666667","6501400","蘆洲區"
"247017","007-UY","2018/09/20 14:39:17","新北市蘆洲區民族路314巷7號","121.4777","25.09037","6501400","蘆洲區"
"247003","002-UY","2018/09/20 14:39:12","新北市蘆洲區長安街285巷28號","121.456841666667","25.08394","6501400","蘆洲區"
"247021","001-UY","2018/09/20 14:39:27","新北市蘆洲區三民路237號","121.469366666667","25.0886816666667","6501400","蘆洲區"
"235026","251-BX","2018/09/20 14:39:25","新北市中和區立言街37號","121.48562","25.0061483333333","6500300","中和區"
"228005","097-TW","2018/09/20 14:39:11","新北市貢寮區美豐里雞母嶺街6-6號","121.902128333333","25.064215","6502600","貢寮區"
"228004","212-TW","2018/09/20 14:39:25","新北市貢寮區福隆里龜壽谷街30-1號","121.947006666667","25.0131733333333","6502600","貢寮區"
"253003","6232-TK","2018/09/20 14:39:23","新北市石門區尖子鹿52-1號","121.579011666667","25.2726866666667","6502200","石門區"
"253001","6251-TK","2018/09/20 14:39:23","新北市石門區八甲1號","121.521838333333","25.2847816666667","6502200","石門區"
"253002","637-UY","2018/09/20 14:35:55","新北市三芝區橫山里橫山39-9號","121.545035","25.255895","6502200","石門區"
"207002","749-BX","2018/09/20 14:39:23","新北市萬里區崁腳里內崁路2號","121.637131666667","25.1595733333333","6502800","萬里區"
"207001","662-BX","2018/09/20 14:39:21","新北市萬里區磺潭里員潭路55-2號","121.643163333333","25.1917566666667","6502800","萬里區"
"252005","AAC-283","2018/09/20 14:39:24","新北市三芝區埔坪里埔頭坑142-1號","121.512413333333","25.2480983333333","6502100","三芝區"
"237001","361-BY","2018/09/20 14:39:23","新北市三峽區中山路459巷137號","121.349391666667","24.9335466666667","6500900","三峽區"
"236068","105-UM","2018/09/20 14:39:18","新北市土城區永豐路310號","121.472533333333","24.9775366666667","6501300","土城區"
"236040","107-UM","2018/09/20 14:39:31","新北市土城區裕民路55巷15號","121.449528333333","24.9887833333333","6501300","土城區"
"236074","166-UM","2018/09/20 14:39:16","新北市土城區中央路四段52巷10號","121.42","24.9608766666667","6501300","土城區"
"236029","253-BX","2018/09/20 14:39:24","新北市土城區中華路二段90號","121.438388333333","24.9749833333333","6501300","土城區"
"236024","269-VK","2018/09/20 14:39:18","新北市土城區忠義路51號","121.440506666667","24.9689416666667","6501300","土城區"
"236012","270-VK","2018/09/20 14:39:23","新北市土城區清水路207巷2號","121.46011","24.982045","6501300","土城區"
"236032","271-VK","2018/09/20 14:39:16","新北市土城區明德路一段202號","121.461498333333","24.9777533333333","6501300","土城區"
"236017","401-BY","2018/09/20 14:39:15","新北市土城區明德路一段53號","121.465305","24.9846883333333","6501300","土城區"
"236057","912-UM","2018/09/20 14:39:17","新北市土城區中央路三段282號","121.426588333333","24.9633916666667","6501300","土城區"
"236045","913-UM","2018/09/20 14:39:21","新北市土城區明德路一段101號","121.465578333333","24.9827833333333","6501300","土城區"
"236060","915-UM","2018/09/20 14:39:16","新北市土城區延壽路13巷40號","121.469906666667","24.9914116666667","6501300","土城區"
"236054","AAC-216","2018/09/20 14:39:23","新北市土城區中華路一段53號","121.4456","24.9882016666667","6501300","土城區"
"221010","269-BY","2018/09/20 14:39:23","新北市汐止區八連路三段226號","121.61182","25.1176066666667","6501100","汐止區"
"220027","145-BY","2018/09/20 14:39:17","新北市板橋區建國街5號","121.45719","25.0169016666667","6500100","板橋區"
"220030","610-BX","2018/09/20 14:39:28","新北市板橋區金門街55號","121.433285","24.9930916666667","6500100","板橋區"
"220050","245-BX","2018/09/20 14:39:22","新北市板橋區縣民大道三段33巷1弄7號","121.473598333333","25.0205716666667","6500100","板橋區"
"220047","257-TC","2018/09/20 14:39:19","新北市板橋區四維路269巷80號","121.460043333333","25.0269066666667","6500100","板橋區"
"220004","276-BY","2018/09/20 14:39:17","新北市板橋區信義路1巷26弄39號","121.459138333333","24.996705","6500100","板橋區"
"220020","277-BY","2018/09/20 14:39:26","新北市板橋區金門街215巷38號","121.433976666667","24.9891116666667","6500100","板橋區"
"220019","283-VK","2018/09/20 14:39:15","新北市板橋區五權街34-1號","121.464261666667","24.99228","6500100","板橋區"
"220043","285-UM","2018/09/20 14:39:16","新北市板橋區宏國路36-3號","121.468428333333","25.0317666666667","6500100","板橋區"
"220001","285-VK","2018/09/20 14:39:29","新北市板橋區懷仁街77巷32號","121.477706666667","25.0192416666667","6500100","板橋區"
"220031","286-VK","2018/09/20 14:39:19","新北市板橋區龍興街63巷30號","121.44242","25.0016033333333","6500100","板橋區"
"220009","293-UM","2018/09/20 14:39:17","新北市板橋區漢生東路113巷27號","121.46842","25.01559","6500100","板橋區"
"220046","299-UM","2018/09/20 14:39:17","新北市板橋區漢生西路87號","121.462385","25.019475","6500100","板橋區"
"220023","303-R5","2018/09/20 14:39:22","新北市板橋區大勇街65號","121.453356666667","25.0167466666667","6500100","板橋區"
"220010","305-R5","2018/09/20 14:39:17","新北市板橋區三民路二段123巷31號","121.480608333333","25.0157","6500100","板橋區"
"220041","307-R5","2018/09/20 14:39:16","新北市板橋區文化路一段383號","121.467256666667","25.021685","6500100","板橋區"
"220028","461-BY","2018/09/20 14:39:08","新北市板橋區大觀路二段37巷47號","121.44907","25.0026283333333","6500100","板橋區"
"220012","486-VK","2018/09/20 14:39:15","新北市板橋區中山路一段137號","121.462621666667","25.0105133333333","6500100","板橋區"
"220104","560-BX","2018/09/20 14:39:09","新北市板橋區金華街149號","121.45982","25.020885","6500100","板橋區"
"220052","561-BX","2018/09/20 14:39:23","新北市板橋區文化路一段369-1號","121.466898333333","25.0213583333333","6500100","板橋區"
"220032","568-UM","2018/09/20 14:39:24","新北市板橋區滿平二街10巷2號","121.42552","24.986625","6500100","板橋區"
"220011","609-BX","2018/09/20 14:39:19","新北市板橋區三民路二段140-3號","121.479075","25.0158416666667","6500100","板橋區"
"220029","630-UY","2018/09/20 14:39:24","新北市板橋區大觀路一段29巷131弄29號","121.450543333333","25.0046383333333","6500100","板橋區"
"220040","637-BX","2018/09/20 14:39:31","新北市板橋區懷德街181巷25號","121.480136666667","25.030455","6500100","板橋區"
"220005","686-BX","2018/09/20 14:39:30","新北市板橋區國慶路120號","121.460663333333","24.995895","6500100","板橋區"
"220025","687-BX","2018/09/20 14:39:23","新北市板橋區僑中一街80巷6弄32號","121.448946666667","25.0112733333333","6500100","板橋區"
"220042","689-BX","2018/09/20 14:39:11","新北市板橋區新海路368號","121.459418333333","25.0252683333333","6500100","板橋區"
"220002","741-BX","2018/09/20 14:39:25","新北市板橋區忠孝路239巷21-3號","121.466643333333","25.0033233333333","6500100","板橋區"
"220051","KEA-2699","2018/09/20 14:39:29","新北市板橋區松柏街36巷5號","121.475313333333","25.02975","6500100","板橋區"
"220003","827-TW","2018/09/20 14:39:24","新北市板橋區國慶路149巷1弄2號","121.461268333333","24.9966366666667","6500100","板橋區"
"220014","829-TW","2018/09/20 14:39:31","新北市板橋區長安街168巷10弄18號","121.4734","25.010475","6500100","板橋區"
"220039","830-TW","2018/09/20 14:39:20","新北市板橋區龍泉街82巷14弄23號","121.456045","25.0262683333333","6500100","板橋區"
"220045","831-TW","2018/09/20 14:39:23","新北市板橋區民生路二段234巷2弄3號","121.469521666667","25.022485","6500100","板橋區"
"220038","833-TW","2018/09/20 14:39:24","新北市板橋區英士路8號","121.46217","25.0253916666667","6500100","板橋區"
"220022","895-R6","2018/09/20 14:39:19","新北市板橋區府中路44號","121.45724","25.0095466666667","6500100","板橋區"
"220021","985-R7","2018/09/20 14:39:13","新北市板橋區中正路346號","121.454246666667","25.0234383333333","6500100","板橋區"
"220018","AAC-253","2018/09/20 14:39:24","新北市板橋區館前東路154號","121.464695","25.0080833333333","6500100","板橋區"
"235032","KEA-2873","2018/09/20 14:39:04","新北市中和區莊敬路16巷15弄7號","121.500411666667","25.0038633333333","6500300","中和區"
"235025","KEA-2875","2018/09/20 14:39:08","新北市中和區員山路160號","121.481418333333","24.999605","6500300","中和區"
"235016","KEA-2876","2018/09/20 14:39:00","新北市中和區華新街143巷67弄16號","121.507275","24.9790616666667","6500300","中和區"
