"lineid","car","time","location","longitude","latitude","cityid","cityname"
"234025","9371-KE","2018/09/20 14:59:11","新北市永和區水源街21巷7號","121.511548333333","25.0042233333333","6500400","永和區"
"248013","025-BX","2018/09/20 14:59:15","新北市五股區成泰路三段51-1號","121.442818333333","25.0893366666667","6501500","五股區"
"248015","026-BX","2018/09/20 14:59:23","新北市五股區凌雲路一段158巷50弄17號","121.447748333333","25.104415","6501500","五股區"
"248007","095-VK","2018/09/20 14:59:28","新北市五股區四維路153號","121.467741666667","25.07454","6501500","五股區"
"248017","225-UY","2018/09/20 14:59:18","新北市五股區外寮路189巷41號","121.42984","25.0761966666667","6501500","五股區"
"248011","247-BX","2018/09/20 14:59:17","新北市五股區民義路一段216號","121.430403333333","25.0895","6501500","五股區"
"248009","272-BY","2018/09/20 14:59:21","新北市五股區成泰路一段28-1號","121.4349","25.0678583333333","6501500","五股區"
"248001","655-BX","2018/09/20 14:59:21","新北市五股區新五路三段6號","121.443751666667","25.0871066666667","6501500","五股區"
"248003","677-BX","2018/09/20 14:59:26","新北市五股區成泰路一段32巷58號","121.434981666667","25.0670683333333","6501500","五股區"
"244001","658-BX","2018/09/20 14:59:26","新北市林口區公園路59號","121.367673333333","25.0686366666667","6501700","林口區"
"243005","AAD-798","2018/09/20 14:59:20","新北市泰山區中央路5巷15號","121.427118333333","25.0434416666667","6501600","泰山區"
"243001","297-R6","2018/09/20 14:59:28","新北市泰山區泰林路二段292巷13號","121.431453333333","25.0636366666667","6501600","泰山區"
"243008","KEA-2801","2018/09/20 14:59:19","新北市泰山區明志路三段313號","121.42267","25.0363466666667","6501600","泰山區"
"243007","421-VK","2018/09/20 14:59:15","新北市泰山區仁愛路70號","121.432528333333","25.05505","6501600","泰山區"
"243003","KEA-2215","2018/09/20 14:59:17","新北市新莊區壽山路33-18號","121.419036666667","25.0298333333333","6501600","泰山區"
"243002","KEA-2216","2018/09/20 14:59:20","新北市泰山區新生路33號","121.42758","25.045315","6501600","泰山區"
"243004","646-TV","2018/09/20 14:59:19","新北市泰山區楓江路89號","121.437273333333","25.0636666666667","6501600","泰山區"
"243006","680-BX","2018/09/20 14:59:31","新北市泰山區泰林路二段429號","121.426405","25.06413","6501600","泰山區"
"231002","002-UM","2018/09/20 14:59:13","新北市新店區民權路43號","121.54016","24.982845","6500600","新店區"
"231028","046-UY","2018/09/20 14:59:22","新北市新店區安德街173號","121.50871","24.9589433333333","6500600","新店區"
"231001","047-UY","2018/09/20 14:59:11","新北市新店區中正路259號","121.5388","24.9735083333333","6500600","新店區"
"231005","106-UY","2018/09/20 14:59:21","新北市新店區復興路38號","121.53887","24.9867416666667","6500600","新店區"
"231021","108-UY","2018/09/20 14:59:16","新北市新店區金興路24-2號","121.551991666667","24.92977","6500600","新店區"
"231011","187-VK","2018/09/20 14:59:28","新北市新店區寶橋路132號","121.547393333333","24.9760633333333","6500600","新店區"
"231023","KEA-2219","2018/09/20 14:59:09","新北市新店區檳榔路109號","121.544345","24.9616633333333","6500600","新店區"
"231026","256-BX","2018/09/20 14:59:14","新北市新店區中正路111號","121.542506666667","24.9706766666667","6500600","新店區"
"231003","268-BY","2018/09/20 14:59:25","新北市新店區中興路二段39號","121.546261666667","24.9700033333333","6500600","新店區"
"231018","278-BY","2018/09/20 14:59:13","新北市新店區中央六街9號","121.53015","24.974575","6500600","新店區"
"231017","AAD-862","2018/09/20 14:59:20","新北市新店區銀河路45巷1號","121.575015","24.9571133333333","6500600","新店區"
"231038","3712-VJ","2018/09/20 14:59:16","新北市新店區安華路28-1號","121.519863333333","24.9608166666667","6500600","新店區"
"231037","4716-K9","2018/09/20 14:59:22","新北市新店區薏仁坑路自強巷1號","121.496845","24.9581466666667","6500600","新店區"
"231025","4715-K9","2018/09/20 14:59:17","新北市新店區大同街18號","121.539328333333","24.9801183333333","6500600","新店區"
"231036","512-UM","2018/09/20 14:59:22","新北市新店區安祥路102巷28號","121.484105","24.9639833333333","6500600","新店區"
"231034","616-UM","2018/09/20 14:59:16","新北市新店區玫瑰路4-1號","121.493575","24.9514016666667","6500600","新店區"
"231030","619-UM","2018/09/20 14:59:13","新北市新店區安民街341-1號","121.516795","24.9749166666667","6500600","新店區"
"231039","718-UY","2018/09/20 14:59:18","新北市新店區寶興路45巷6弄10號","121.551413333333","24.973545","6500600","新店區"
"231035","719-UM","2018/09/20 14:59:14","新北市新店區安業街33號","121.517221666667","24.9773816666667","6500600","新店區"
"231031","720-UM","2018/09/20 14:59:20","新北市新店區安泰路20號","121.485511666667","24.94864","6500600","新店區"
"231029","897-TW","2018/09/20 14:59:15","新北市新店區錦秀路18號","121.479321666667","24.9446333333333","6500600","新店區"
"231006","898-TW","2018/09/20 14:59:22","新北市新店區新坡一街104號","121.54867","24.9639333333333","6500600","新店區"
"231004","899-TW","2018/09/20 14:59:17","新北市新店區民族路39號","121.54065","24.9787333333333","6500600","新店區"
"231024","AKT-0513","2018/09/20 14:59:24","新北市新店區中華路83巷15號","121.538738333333","24.9681733333333","6500600","新店區"
"235030","003-UY","2018/09/20 14:59:27","新北市中和區光華街5號","121.504356666667","25.0043383333333","6500300","中和區"
"235020","096-UM","2018/09/20 14:59:13","新北市中和區漢民路405號","121.472253333333","25.0070466666667","6500300","中和區"
"235003","097-UM","2018/09/20 14:59:09","新北市中和區安樂路143巷20號","121.513223333333","24.99678","6500300","中和區"
"235029","098-UM","2018/09/20 14:59:25","新北市中和區橋和路302號","121.49698","25.00695","6500300","中和區"
"235004","150-BY","2018/09/20 14:59:24","新北市中和區保健路19巷25號","121.50851","24.9987416666667","6500300","中和區"
"235022","151-BY","2018/09/20 14:59:17","新北市中和區員山路148巷19號","121.482138333333","24.9971766666667","6500300","中和區"
"235013","186-VK","2018/09/20 14:59:14","新北市中和區景平路518號","121.503413333333","24.9938783333333","6500300","中和區"
"235031","255-BX","2018/09/20 14:59:14","新北市中和區興南路二段261巷6-5號","121.502415","24.9784083333333","6500300","中和區"
"235008","293-VK","2018/09/20 14:59:22","新北市中和區板南路188-1號","121.50049","24.9927433333333","6500300","中和區"
"235036","301-VK","2018/09/20 14:59:20","新北市中和區板南路399巷2號","121.493586666667","24.9989516666667","6500300","中和區"
"235007","352-BY","2018/09/20 14:59:25","新北市中和區華新街230號","121.506043333333","24.9817433333333","6500300","中和區"
"235014","4979-A6","2018/09/20 14:59:25","新北市中和區景平路231號","121.510198333333","24.9926933333333","6500300","中和區"
"235033","4980-A6","2018/09/20 14:59:27","新北市中和區景平路630巷11號","121.500386666667","24.9984133333333","6500300","中和區"
"235034","558-UM","2018/09/20 14:59:17","新北市中和區連勝街40號","121.497996666667","24.997605","6500300","中和區"
"235018","640-BX","2018/09/20 14:59:27","新北市中和區莒光路6號","121.472088333333","25.0045816666667","6500300","中和區"
"235010","733-UM","2018/09/20 14:59:17","新北市中和區興南路一段105巷20弄2號","121.510416666667","24.9858066666667","6500300","中和區"
"235035","783-BX","2018/09/20 14:59:29","新北市中和區建三路13號","121.486145","25.0029366666667","6500300","中和區"
"235012","896-TW","2018/09/20 14:59:20","新北市中和區忠孝街5巷9號","121.50923","24.98309","6500300","中和區"
"235017","900-TW","2018/09/20 14:59:24","新北市中和區民德路250號","121.468043333333","24.997205","6500300","中和區"
"235015","157-BY","2018/09/20 14:59:26","新北市中和區景安路208巷28號","121.502843333333","24.9916666666667","6500300","中和區"
"235001","AAC-213","2018/09/20 14:59:22","新北市中和區自立路99巷24號","121.523393333333","24.9946683333333","6500300","中和區"
"235023","AAC-215","2018/09/20 14:59:23","新北市中和區圓通路355號","121.491398333333","24.9901666666667","6500300","中和區"
"220016","013-TV","2018/09/20 14:59:29","新北市板橋區中山路二段412巷29弄2號","121.48395","25.01985","6500100","板橋區"
"220013","072-UY","2018/09/20 14:59:22","新北市板橋區民族路61號","121.465001666667","25.0088766666667","6500100","板橋區"
"220105","075-UY","2018/09/20 14:59:24","新北市板橋區仁化街150巷5-1號","121.47802","25.0329666666667","6500100","板橋區"
"220017","AAD-861","2018/09/20 14:59:26","新北市板橋區四川路一段152號","121.459841666667","25.00342","6500100","板橋區"
"235026","251-BX","2018/09/20 14:59:13","新北市中和區中山路二段365號","121.487776666667","25.00471","6500300","中和區"
"228004","212-TW","2018/09/20 14:59:25","新北市貢寮區雙玉里田寮洋街24號","121.928883333333","25.0178266666667","6502600","貢寮區"
"253003","6232-TK","2018/09/20 14:59:03","新北市石門區尖子鹿103-3號","121.580996666667","25.29331","6502200","石門區"
"253001","6251-TK","2018/09/20 14:59:23","新北市石門區崁子腳57-1號","121.536731666667","25.2753583333333","6502200","石門區"
"253002","637-UY","2018/09/20 14:58:55","新北市石門區楓林46號","121.542963333333","25.278725","6502200","石門區"
"207002","749-BX","2018/09/20 14:59:23","新北市萬里區崁腳里崁腳路89號","121.64786","25.1595466666667","6502800","萬里區"
"207001","662-BX","2018/09/20 14:59:21","新北市萬里區雙興里太和路30-1號","121.654631666667","25.1784583333333","6502800","萬里區"
"237001","361-BY","2018/09/20 14:59:23","新北市三峽區中山路459巷163-1號","121.349378333333","24.9335283333333","6500900","三峽區"
"236068","105-UM","2018/09/20 14:59:18","新北市土城區裕生路84巷1號","121.447295","24.98526","6501300","土城區"
"236040","107-UM","2018/09/20 14:59:15","新北市土城區學府路一段189巷11弄2號","121.452545","24.98444","6501300","土城區"
"236074","166-UM","2018/09/20 14:59:16","新北市土城區中央路四段125巷2弄10號","121.416468333333","24.957005","6501300","土城區"
"236029","253-BX","2018/09/20 14:59:24","新北市土城區福仁街65號","121.439536666667","24.9746833333333","6501300","土城區"
"236024","269-VK","2018/09/20 14:59:21","新北市土城區中正路56巷5號","121.444021666667","24.9749933333333","6501300","土城區"
"236012","270-VK","2018/09/20 14:59:22","新北市土城區永豐路29巷6號","121.463333333333","24.98835","6501300","土城區"
"236032","271-VK","2018/09/20 14:59:16","新北市土城區清水路177號","121.459478333333","24.981555","6501300","土城區"
"236017","401-BY","2018/09/20 14:59:14","新北市土城區延吉街168巷9號","121.46799","24.9859","6501300","土城區"
"236057","912-UM","2018/09/20 14:59:17","新北市土城區金城路二段206號","121.455166666667","24.9819766666667","6501300","土城區"
"236045","913-UM","2018/09/20 14:59:21","新北市土城區青雲路259號","121.459078333333","24.9808083333333","6501300","土城區"
"236060","915-UM","2018/09/20 14:59:16","新北市土城區延和路88巷3弄2號","121.466656666667","24.9892116666667","6501300","土城區"
"236054","AAC-216","2018/09/20 14:59:23","新北市土城區學成路168號","121.447973333333","24.98904","6501300","土城區"
"238002","755-BX","2018/09/20 14:59:27","新北市樹林區育德街78-1號","121.388111666667","24.9682016666667","6500700","樹林區"
"238010","601-UM","2018/09/20 14:59:32","新北市樹林區育德街78-1號","121.38816","24.96829","6500700","樹林區"
"238006","599-UM","2018/09/20 14:59:13","新北市樹林區育德街78號","121.387881666667","24.9683166666667","6500700","樹林區"
"238018","571-TV","2018/09/20 14:59:17","新北市樹林區育德街78-1號","121.388256666667","24.96819","6500700","樹林區"
"238009","KEA-2213","2018/09/20 14:59:23","新北市樹林區育德街78-1號","121.38775","24.9678683333333","6500700","樹林區"
"238008","KEA-2539","2018/09/20 14:59:21","新北市樹林區育德街78-1號","121.387891666667","24.968065","6500700","樹林區"
"238012","303-VK","2018/09/20 14:59:24","新北市樹林區八德街598巷6-1號","121.397681666667","24.970875","6500700","樹林區"
"238004","283-BY","2018/09/20 14:59:26","新北市樹林區育德街78號","121.387458333333","24.9683883333333","6500700","樹林區"
"238007","268-VK","2018/09/20 14:59:23","新北市樹林區八德街445-1號","121.404933333333","24.9693083333333","6500700","樹林區"
"221010","269-BY","2018/09/20 14:59:23","新北市汐止區汐萬路一段355-1號","121.650075","25.0774483333333","6501100","汐止區"
"220027","145-BY","2018/09/20 14:59:18","新北市板橋區中正路183巷50號","121.454785","25.016035","6500100","板橋區"
"220030","610-BX","2018/09/20 14:59:16","新北市板橋區溪崑二街48號","121.428208333333","24.9907633333333","6500100","板橋區"
"220050","245-BX","2018/09/20 14:59:22","新北市板橋區縣民大道三段97巷2號","121.475988333333","25.02206","6500100","板橋區"
"220047","257-TC","2018/09/20 14:59:29","新北市板橋區新海路72巷77號","121.461461666667","25.0231716666667","6500100","板橋區"
"220004","276-BY","2018/09/20 14:59:22","新北市板橋區四川路二段58號","121.452928333333","24.9950716666667","6500100","板橋區"
"220020","277-BY","2018/09/20 14:59:26","新北市板橋區金門街109巷31號","121.434101666667","24.9915583333333","6500100","板橋區"
"220043","285-UM","2018/09/20 14:59:26","新北市板橋區文德路17號","121.462451666667","25.0241966666667","6500100","板橋區"
"220001","285-VK","2018/09/20 14:59:29","新北市板橋區中山路二段88號","121.475151666667","25.0163533333333","6500100","板橋區"
"220031","286-VK","2018/09/20 14:59:16","新北市板橋區僑中二街88巷14號","121.44576","25.0095233333333","6500100","板橋區"
"220009","293-UM","2018/09/20 14:59:21","新北市板橋區縣民大道二段200巷52號","121.470903333333","25.0178483333333","6500100","板橋區"
"220046","299-UM","2018/09/20 14:59:28","新北市板橋區文化路一段221巷20號","121.462993333333","25.0178766666667","6500100","板橋區"
"220023","303-R5","2018/09/20 14:59:08","新北市板橋區金華街10巷77號","121.458043333333","25.0203716666667","6500100","板橋區"
"220010","305-R5","2018/09/20 14:59:17","新北市板橋區光復街106號","121.483275","25.0181966666667","6500100","板橋區"
"220041","307-R5","2018/09/20 14:59:16","新北市板橋區裕民街130號","121.458856666667","25.027555","6500100","板橋區"
"220028","461-BY","2018/09/20 14:59:28","新北市板橋區大觀路二段98號","121.44458","24.9999166666667","6500100","板橋區"
"220012","486-VK","2018/09/20 14:59:16","新北市板橋區區運路62號","121.466223333333","25.0101033333333","6500100","板橋區"
"220052","561-BX","2018/09/20 14:59:21","新北市板橋區自由路43號","121.465611666667","25.02324","6500100","板橋區"
"220032","568-UM","2018/09/20 14:59:17","新北市板橋區溪崑二街126號","121.426051666667","24.9879716666667","6500100","板橋區"
"220011","609-BX","2018/09/20 14:59:19","新北市板橋區三民路一段31巷2-4號","121.481865","25.023105","6500100","板橋區"
"220029","630-UY","2018/09/20 14:59:26","新北市板橋區僑中一街124巷20弄25號","121.447223333333","25.013925","6500100","板橋區"
"220040","637-BX","2018/09/20 14:59:12","新北市板橋區文聖街101巷2號","121.478001666667","25.0295966666667","6500100","板橋區"
"220005","686-BX","2018/09/20 14:59:30","新北市板橋區信義路55號","121.457046666667","24.995725","6500100","板橋區"
"220025","687-BX","2018/09/20 14:59:23","新北市板橋區僑中一街96號","121.44687","25.01171","6500100","板橋區"
"220042","689-BX","2018/09/20 14:59:32","新北市板橋區長江路二段239號","121.468721666667","25.03261","6500100","板橋區"
"220002","741-BX","2018/09/20 14:59:25","新北市板橋區實踐路93巷10號","121.464485","25.0054466666667","6500100","板橋區"
"220051","KEA-2699","2018/09/20 14:59:29","新北市板橋區仁化街66號","121.475838333333","25.0318333333333","6500100","板橋區"
"220003","827-TW","2018/09/20 14:59:24","新北市板橋區仁愛路86巷22-1號","121.460875","24.9986533333333","6500100","板橋區"
"220014","829-TW","2018/09/20 14:59:10","新北市板橋區漢生東路181號","121.469695","25.01172","6500100","板橋區"
"220039","830-TW","2018/09/20 14:59:20","新北市板橋區長江路二段311巷18-1號","121.470135","25.0359483333333","6500100","板橋區"
"220045","831-TW","2018/09/20 14:59:23","新北市板橋區莒光路40巷7弄2號","121.470326666667","25.023705","6500100","板橋區"
"220038","833-TW","2018/09/20 14:59:23","新北市板橋區龍泉街108巷13號","121.456255","25.024235","6500100","板橋區"
"220022","895-R6","2018/09/20 14:59:22","新北市板橋區縣民大道一段322號","121.461765","25.01109","6500100","板橋區"
"220021","985-R7","2018/09/20 14:59:13","新北市板橋區南雅西路二段2-1號","121.453151666667","25.0089566666667","6500100","板橋區"
"220018","AAC-253","2018/09/20 14:59:24","新北市板橋區民族路166號","121.464755","25.008425","6500100","板橋區"
"235032","KEA-2873","2018/09/20 14:59:04","新北市中和區福祥路85巷2弄6號","121.498743333333","25.005925","6500300","中和區"
"235025","KEA-2875","2018/09/20 14:59:08","新北市新店區薏仁坑路自強巷1號","121.497833333333","24.9576633333333","6500300","中和區"
"235016","KEA-2876","2018/09/20 14:59:30","新北市中和區華新街144巷20號","121.50759","24.9831783333333","6500300","中和區"
