"lineid","car","time","location","longitude","latitude","cityid","cityname"
"234005","207-UY","2018/09/20 16:09:32","新北市中和區永和路103巷15弄4號","121.495178333333","25.0073666666667","6500400","永和區"
"243009","297-R6","2018/09/20 16:08:19","新北市泰山區黎明路25號","121.421903333333","25.0609133333333","6501600","泰山區"
"243012","646-TV","2018/09/20 15:57:37","新北市泰山區黎明路25號","121.422046666667","25.060875","6501600","泰山區"
"243014","680-BX","2018/09/20 16:06:02","新北市泰山區犁頭窠3-1號","121.421978333333","25.06058","6501600","泰山區"
"231046","107-UY","2018/09/20 16:09:14","新北市新店區永業路81巷12號","121.531301666667","24.947855","6500600","新店區"
"231011","187-VK","2018/09/20 16:09:28","新北市新店區吉安街39號","121.515396666667","24.96637","6500600","新店區"
"231018","278-BY","2018/09/20 16:09:33","新北市新店區中正路694巷15號","121.53536","24.9908683333333","6500600","新店區"
"231035","719-UM","2018/09/20 16:09:14","新北市新店區安德街116巷28-1號","121.508541666667","24.96191","6500600","新店區"
"241011","013-R5","2018/09/20 16:09:23","新北市三重區正義北路378號","121.493441666667","25.0715216666667","6500200","三重區"
"241028","022-UY","2018/09/20 16:09:31","新北市三重區正義南路111號","121.498233333333","25.0585383333333","6500200","三重區"
"241008","059-VK","2018/09/20 16:09:24","新北市三重區忠孝路二段102號","121.483396666667","25.0693333333333","6500200","三重區"
"241031","061-VK","2018/09/20 16:09:15","新北市三重區重新路四段121號","121.484516666667","25.052225","6500200","三重區"
"241015","062-VK","2018/09/20 16:09:13","新北市三重區福德南路61號","121.502831666667","25.0605333333333","6500200","三重區"
"241017","063-VK","2018/09/20 16:09:23","新北市三重區大同北路148巷63號","121.490513333333","25.0647616666667","6500200","三重區"
"241024","065-VK","2018/09/20 16:09:18","新北市三重區中正北路145巷9弄9號","121.485341666667","25.067855","6500200","三重區"
"241026","066-VK","2018/09/20 16:09:27","新北市三重區正義南路15-2號","121.498025","25.0614366666667","6500200","三重區"
"241002","090-VK","2018/09/20 16:09:14","新北市三重區仁義街91號","121.499756666667","25.079485","6500200","三重區"
"241003","091-VK","2018/09/20 16:09:16","新北市三重區仁義街220巷9號","121.494948333333","25.084095","6500200","三重區"
"241005","262-UM","2018/09/20 16:09:20","新北市三重區溪尾街300-2號","121.487515","25.0836566666667","6500200","三重區"
"241029","265-UM","2018/09/20 16:09:25","新北市三重區同安街19號","121.496103333333","25.0568566666667","6500200","三重區"
"241016","266-UM","2018/09/20 16:08:46","新北市三重區重陽路一段1號","121.486788333333","25.05749","6500200","三重區"
"241009","267-UM","2018/09/20 16:09:21","新北市三重區力行路一段247號","121.482665","25.0707016666667","6500200","三重區"
"241018","268-UM","2018/09/20 16:09:29","新北市三重區明志街65號","121.491126666667","25.0639183333333","6500200","三重區"
"241032","269-UM","2018/09/20 16:09:18","新北市三重區三陽路100巷3弄13號","121.483013333333","25.0581483333333","6500200","三重區"
"241013","270-UM","2018/09/20 16:09:14","新北市三重區安樂街21號","121.496581666667","25.0697366666667","6500200","三重區"
"241025","271-UM","2018/09/20 16:09:29","新北市三重區忠孝路三段40巷6-5號","121.481965","25.0668783333333","6500200","三重區"
"241004","475-VK","2018/09/20 16:09:23","新北市三重區仁愛街377巷132號","121.493576666667","25.0818816666667","6500200","三重區"
"241020","478-VK","2018/09/20 16:09:21","新北市三重區車路頭街25號","121.483838333333","25.07071","6500200","三重區"
"241014","543-UM","2018/09/20 16:09:21","新北市三重區環河南路220-12號","121.494521666667","25.05254","6500200","三重區"
"241023","545-UM","2018/09/20 16:09:21","新北市三重區力行路一段58巷5號","121.484236666667","25.068975","6500200","三重區"
"241001","547-UM","2018/09/20 16:09:17","新北市三重區自強路三段15號","121.487091666667","25.0720533333333","6500200","三重區"
"241019","KEA-2593","2018/09/20 16:09:14","新北市三重區忠孝路三段1號","121.481891666667","25.0677183333333","6500200","三重區"
"241006","AAD-863","2018/09/20 16:09:27","新北市三重區車路頭街137號","121.484095","25.0762266666667","6500200","三重區"
"241030","743-BX","2018/09/20 16:09:17","新北市三重區重新路四段121號","121.484845","25.0523283333333","6500200","三重區"
"241022","887-TS","2018/09/20 16:09:19","新北市三重區中正北路70號","121.486511666667","25.06466","6500200","三重區"
"241012","941-UM","2018/09/20 16:09:20","新北市三重區文化北路132巷35號","121.497705","25.0666066666667","6500200","三重區"
"241033","AAC-255","2018/09/20 16:09:26","新北市三重區五谷王南街50-1號","121.473693333333","25.0445683333333","6500200","三重區"
"235046","733-UM","2018/09/20 15:59:42","新北市中和區員山路36巷13號","121.484155","24.9908133333333","6500300","中和區"
"235026","251-BX","2018/09/20 16:09:33","新北市中和區永和路103巷21號","121.494828333333","25.00681","6500300","中和區"
"224007","275-VK","2018/09/20 16:09:16","新北市瑞芳區粗坑口路66號","121.76128","25.0990266666667","6501200","瑞芳區"
"227010","642-TC","2018/09/20 16:09:21","新北市雙溪區三港里雙澳路54號","121.881108333333","25.0540283333333","6502500","雙溪區"
"227004","400-TW","2018/09/20 16:09:25","新北市雙溪區上林里內平林47號","121.83328","25.0303516666667","6502500","雙溪區"
"251008","181-VK","2018/09/20 16:09:21","新北市淡水區中正路一段21號","121.426318333333","25.176315","6501000","淡水區"
"237001","361-BY","2018/09/20 15:51:26","新北市三峽區中山路459巷137號","121.349355","24.9335633333333","6500900","三峽區"
"236074","166-UM","2018/09/20 16:09:28","新北市土城區三民路43號","121.42","24.9638666666667","6501300","土城區"
"236057","912-UM","2018/09/20 16:09:17","新北市土城區中央路二段209號","121.441546666667","24.974425","6501300","土城區"
"238002","755-BX","2018/09/20 16:09:27","新北市樹林區文化街120巷2號","121.416133333333","24.9895883333333","6500700","樹林區"
"238010","601-UM","2018/09/20 16:09:20","新北市樹林區三寶街15號","121.40677","25.0155616666667","6500700","樹林區"
"238006","599-UM","2018/09/20 16:09:13","新北市樹林區東陽街3號","121.412788333333","24.9821766666667","6500700","樹林區"
"238011","5061-A6","2018/09/20 16:09:29","新北市樹林區育德街76巷1號","121.388615","24.9682633333333","6500700","樹林區"
"238009","KEA-2213","2018/09/20 16:09:23","新北市樹林區育德街78號","121.38754","24.9684416666667","6500700","樹林區"
"238021","KEA-2539","2018/09/20 16:02:25","新北市樹林區中山路三段204號","121.38679","24.9682083333333","6500700","樹林區"
"238004","283-BY","2018/09/20 16:09:26","新北市樹林區中正路433-1號","121.4149","25.0081083333333","6500700","樹林區"
"238001","282-BY","2018/09/20 16:09:18","新北市樹林區中正路21號","121.427585","24.9993866666667","6500700","樹林區"
"238007","268-VK","2018/09/20 16:09:23","新北市樹林區三龍街113號","121.417305","25.0182616666667","6500700","樹林區"
"238013","172-UY","2018/09/20 16:09:25","新北市樹林區佳園路一段75巷102號","121.396545","24.9704566666667","6500700","樹林區"
"238003","169-UY","2018/09/20 16:09:19","新北市樹林區文化街3號","121.420378333333","24.9870216666667","6500700","樹林區"
