"lineid","car","time","location","longitude","latitude","cityid","cityname"
"249005","172-UM","2018/09/20 16:39:24","新北市八里區博物館路29號","121.41355","25.1624766666667","6502300","八里區"
"231046","107-UY","2018/09/20 16:39:14","新北市新店區灣潭路46號","121.542861666667","24.945205","6500600","新店區"
"231038","3712-VJ","2018/09/20 16:25:18","新北市新店區安華路1-1號","121.519176666667","24.9605733333333","6500600","新店區"
"241011","013-R5","2018/09/20 16:39:23","新北市三重區仁愛街45號","121.496743333333","25.071675","6500200","三重區"
"241028","022-UY","2018/09/20 16:39:30","新北市三重區中正南路12號","121.493435","25.0604916666667","6500200","三重區"
"241008","059-VK","2018/09/20 16:39:24","新北市三重區永安北路一段27巷24號","121.477283333333","25.0755283333333","6500200","三重區"
"241031","061-VK","2018/09/20 16:39:15","新北市三重區重新路四段41巷16號","121.487505","25.0581216666667","6500200","三重區"
"241015","062-VK","2018/09/20 16:39:33","新北市三重區文化北路41號","121.498935","25.0651783333333","6500200","三重區"
"241017","063-VK","2018/09/20 16:39:13","新北市三重區中正北路25巷1號","121.492503333333","25.0620666666667","6500200","三重區"
"241024","065-VK","2018/09/20 16:39:18","新北市三重區中正北路315巷6弄66號","121.476315","25.07253","6500200","三重區"
"241026","066-VK","2018/09/20 16:39:27","新北市三重區和平街73號","121.502395","25.0626316666667","6500200","三重區"
"241002","090-VK","2018/09/20 16:39:35","新北市三重區仁義街241巷13號","121.496748333333","25.0827933333333","6500200","三重區"
"241003","091-VK","2018/09/20 16:39:17","新北市三重區五華街87巷2號","121.492283333333","25.0834216666667","6500200","三重區"
"251014","742-BX","2018/09/20 16:39:19","新北市淡水區中山北路三段159號","121.445291666667","25.19644","6501000","淡水區"
"241005","262-UM","2018/09/20 16:39:20","新北市三重區仁華街146號","121.487123333333","25.0830616666667","6500200","三重區"
"241029","265-UM","2018/09/20 16:39:25","新北市三重區集美街202號","121.491061666667","25.0539916666667","6500200","三重區"
"241016","266-UM","2018/09/20 16:39:26","新北市三重區大智街17-2號","121.49456","25.0654466666667","6500200","三重區"
"241009","267-UM","2018/09/20 16:39:21","新北市三重區三和路四段203巷67號","121.483566666667","25.079835","6500200","三重區"
"241018","268-UM","2018/09/20 16:39:29","新北市三重區正義北路338巷23號","121.493751666667","25.0705633333333","6500200","三重區"
"241032","269-UM","2018/09/20 16:39:18","新北市三重區過圳街75-1號","121.48534","25.061285","6500200","三重區"
"241013","270-UM","2018/09/20 16:39:14","新北市三重區仁愛街79號","121.49603","25.0730216666667","6500200","三重區"
"241025","271-UM","2018/09/20 16:39:17","新北市三重區中正北路428巷14號","121.474575","25.0703933333333","6500200","三重區"
"241007","398-BY","2018/09/20 16:39:21","新北市三重區三和路四段167巷49號","121.485348333333","25.07942","6500200","三重區"
"241004","475-VK","2018/09/20 16:39:23","新北市三重區五福街4號","121.493111666667","25.0816983333333","6500200","三重區"
"241020","478-VK","2018/09/20 16:39:21","新北市三重區後竹圍街181號","121.485778333333","25.0717516666667","6500200","三重區"
"241014","543-UM","2018/09/20 16:39:21","新北市三重區長安街120號","121.502976666667","25.067905","6500200","三重區"
"241023","545-UM","2018/09/20 16:39:21","新北市三重區忠孝路三段50巷43號","121.482838333333","25.0643583333333","6500200","三重區"
"241001","547-UM","2018/09/20 16:39:17","新北市三重區仁愛街202號","121.493801666667","25.07743","6500200","三重區"
"241019","KEA-2593","2018/09/20 16:39:14","新北市三重區力行路一段15號","121.48815","25.0668116666667","6500200","三重區"
"241006","AAD-863","2018/09/20 16:39:27","新北市三重區車路頭街138-1號","121.483565","25.0755216666667","6500200","三重區"
"241030","743-BX","2018/09/20 16:35:57","新北市三重區成功路50巷56號","121.487843333333","25.049535","6500200","三重區"
"241022","887-TS","2018/09/20 16:39:19","新北市三重區三民街86號","121.485425","25.0627016666667","6500200","三重區"
"241012","941-UM","2018/09/20 16:39:20","新北市三重區仁興街4巷11號","121.499571666667","25.0737516666667","6500200","三重區"
"241033","AAC-255","2018/09/20 16:39:26","新北市三重區五谷王北街46-5號","121.474118333333","25.0507266666667","6500200","三重區"
"247008","336-TH","2018/09/20 16:39:13","新北市五股區中興路三段163號","121.447161666667","25.080315","6501400","蘆洲區"
"247010","056-VK","2018/09/20 16:39:14","新北市五股區中興路三段163號","121.449091666667","25.0806783333333","6501400","蘆洲區"
"247022","001-UY","2018/09/20 16:39:23","新北市五股區中興路三段2巷10號","121.449351666667","25.080845","6501400","蘆洲區"
"235026","251-BX","2018/09/20 16:39:13","新北市中和區建八路170號","121.49043","24.9986066666667","6500300","中和區"
"228002","663-BX","2018/09/20 16:39:29","新北市貢寮區貢寮里朝陽街26號","121.911293333333","25.0215966666667","6502600","貢寮區"
"224006","676-BX","2018/09/20 16:39:28","新北市瑞芳區大寮路356-1號","121.784623333333","25.103085","6501200","瑞芳區"
"224007","275-VK","2018/09/20 16:39:16","新北市瑞芳區中央路47號","121.76205","25.1028366666667","6501200","瑞芳區"
"224005","271-BY","2018/09/20 16:38:55","新北市瑞芳區海濱路41號","121.831041666667","25.12435","6501200","瑞芳區"
"227010","642-TC","2018/09/20 16:39:21","新北市雙溪區牡丹里中正路60號","121.866153333333","25.04246","6502500","雙溪區"
"227004","400-TW","2018/09/20 16:39:25","新北市雙溪區外柑里外柑腳54號","121.808011666667","25.0178766666667","6502500","雙溪區"
"251013","KEA-2871","2018/09/20 16:38:55","新北市淡水區楓樹湖12-7號","121.498356666667","25.1882133333333","6501000","淡水區"
"251016","179-VK","2018/09/20 16:39:17","新北市淡水區中山北路一段261號","121.444451666667","25.180935","6501000","淡水區"
"251008","181-VK","2018/09/20 16:39:21","新北市淡水區民生路169號","121.470018333333","25.1423566666667","6501000","淡水區"
"251012","441-VK","2018/09/20 16:39:31","新北市淡水區中正路二段31號","121.419631666667","25.1814816666667","6501000","淡水區"
"252002","AAC-283","2018/09/20 16:39:29","新北市三芝區芝柏路1號","121.512281666667","25.25516","6502100","三芝區"
"242031","348-TH","2018/09/20 16:39:22","新北市新莊區新泰路357巷3弄57號","121.442","25.03948","6500500","新莊區"
"238022","KEA-2213","2018/09/20 16:39:23","新北市樹林區育德街78-1號","121.387633333333","24.9681383333333","6500700","樹林區"
"238004","283-BY","2018/09/20 16:39:26","新北市樹林區中正路433-1號","121.41492","25.0080866666667","6500700","樹林區"
"238001","282-BY","2018/09/20 16:39:18","新北市樹林區大慶街99-1號","121.427768333333","24.9997083333333","6500700","樹林區"
