"lineid","car","time","location","longitude","latitude","cityid","cityname"
"249005","172-UM","2018/09/20 16:52:44","新北市八里區大堀湖3號","121.424911666667","25.15191","6502300","八里區"
"249001","173-UM","2018/09/20 16:52:54","新北市八里區中山路二段210巷128號","121.40418","25.155425","6502300","八里區"
"249004","303-UY","2018/09/20 16:53:01","新北市八里區挖子尾街100號","121.411296666667","25.1651416666667","6502300","八里區"
"249002","305-UY","2018/09/20 16:52:53","新北市八里區牛寮埔31號","121.429875","25.1457266666667","6502300","八里區"
"249003","593-UM","2018/09/20 16:53:02","新北市八里區中山路二段283號","121.401613333333","25.1486516666667","6502300","八里區"
"244023","069-UM","2018/09/20 16:52:40","新北市林口區粉寮路二段88巷100-12號","121.409706666667","25.09022","6501700","林口區"
"244007","080-UY","2018/09/20 16:53:00","新北市林口區林口路78號","121.389271666667","25.0807583333333","6501700","林口區"
"244019","403-UM","2018/09/20 16:52:53","新北市林口區粉寮路52-6號","121.407238333333","25.0887233333333","6501700","林口區"
"244013","KEA-2802","2018/09/20 16:53:00","新北市林口區粉寮路二段88巷100-12號","121.409593333333","25.09018","6501700","林口區"
"244009","656-BX","2018/09/20 16:52:44","新北市林口區粉寮路二段88巷100-12號","121.409563333333","25.0901833333333","6501700","林口區"
"244025","837-TS","2018/09/20 16:52:59","新北市林口區粉寮路二段88巷100-12號","121.409531666667","25.0902233333333","6501700","林口區"
"244021","838-TS","2018/09/20 16:52:49","新北市林口區粉寮路二段88巷100-12號","121.409473333333","25.0902283333333","6501700","林口區"
"231046","107-UY","2018/09/20 16:52:54","新北市新店區灣潭路15-2號","121.542568333333","24.9431333333333","6500600","新店區"
"241011","013-R5","2018/09/20 16:52:43","新北市三重區龍濱路190號","121.501163333333","25.0732433333333","6500200","三重區"
"241028","022-UY","2018/09/20 16:52:50","新北市三重區光興街89號","121.49748","25.05997","6500200","三重區"
"241008","059-VK","2018/09/20 16:52:44","新北市三重區永安北路一段11巷2號","121.476321666667","25.0748616666667","6500200","三重區"
"241031","061-VK","2018/09/20 16:52:55","新北市三重區過圳街31巷19號","121.489585","25.0606416666667","6500200","三重區"
"241015","062-VK","2018/09/20 16:52:53","新北市三重區長元街28號","121.499546666667","25.065945","6500200","三重區"
"241017","063-VK","2018/09/20 16:52:53","新北市三重區大同北路60巷18號","121.49376","25.06377","6500200","三重區"
"241024","065-VK","2018/09/20 16:52:58","新北市三重區中正北路317巷18號","121.475265","25.0730666666667","6500200","三重區"
"241026","066-VK","2018/09/20 16:52:47","新北市三重區中央南路49號","121.501351666667","25.0617633333333","6500200","三重區"
"241002","090-VK","2018/09/20 16:52:55","新北市三重區仁義街143巷108號","121.498998333333","25.0817316666667","6500200","三重區"
"241003","091-VK","2018/09/20 16:52:56","新北市三重區五華街141巷60號","121.493533333333","25.0866933333333","6500200","三重區"
"251014","742-BX","2018/09/20 16:52:59","新北市淡水區淡金路四段478號","121.45242","25.223915","6501000","淡水區"
"241005","262-UM","2018/09/20 16:53:00","新北市三重區仁華街80巷27號","121.484378333333","25.08395","6500200","三重區"
"241029","265-UM","2018/09/20 16:52:45","新北市三重區集美街207巷12號","121.492118333333","25.05428","6500200","三重區"
"241016","266-UM","2018/09/20 16:52:46","新北市三重區大同北路135巷38號","121.493646666667","25.064885","6500200","三重區"
"241009","267-UM","2018/09/20 16:53:01","新北市三重區溪尾街218巷4號","121.487665","25.081355","6500200","三重區"
"241018","268-UM","2018/09/20 16:52:49","新北市三重區安樂街72號","121.495053333333","25.0693933333333","6500200","三重區"
"241032","269-UM","2018/09/20 16:52:58","新北市三重區重陽路一段120巷39號","121.484985","25.0603716666667","6500200","三重區"
"241013","270-UM","2018/09/20 16:52:58","新北市三重區仁壽街2號","121.496198333333","25.0732333333333","6500200","三重區"
"241025","271-UM","2018/09/20 16:52:57","新北市三重區中正北路361-1號","121.472638333333","25.0717566666667","6500200","三重區"
"241007","398-BY","2018/09/20 16:53:01","新北市三重區三和路四段181巷129號","121.485586666667","25.0798266666667","6500200","三重區"
"241004","475-VK","2018/09/20 16:52:43","新北市三重區仁愛街397巷19號","121.49212","25.0814933333333","6500200","三重區"
"241020","478-VK","2018/09/20 16:53:01","新北市三重區忠孝路二段51號","121.485661666667","25.0710433333333","6500200","三重區"
"241014","543-UM","2018/09/20 16:53:01","新北市三重區三和路二段89號","121.49986","25.0683233333333","6500200","三重區"
"241023","545-UM","2018/09/20 16:52:41","新北市三重區新北大道一段206巷5號","121.482475","25.062195","6500200","三重區"
"241001","547-UM","2018/09/20 16:52:58","新北市三重區仁愛街192巷1號","121.494066666667","25.0770916666667","6500200","三重區"
"241019","KEA-2593","2018/09/20 16:52:54","新北市三重區自強路二段84巷12號","121.487465","25.0702366666667","6500200","三重區"
"241006","AAD-863","2018/09/20 16:52:46","新北市三重區車路頭街126號","121.484028333333","25.0752283333333","6500200","三重區"
"241030","743-BX","2018/09/20 16:35:57","新北市三重區成功路50巷56號","121.487843333333","25.049535","6500200","三重區"
"241022","887-TS","2018/09/20 16:52:59","新北市三重區三民街112號","121.48499","25.0634166666667","6500200","三重區"
"241012","941-UM","2018/09/20 16:53:00","新北市三重區河邊北街226號","121.501993333333","25.0751616666667","6500200","三重區"
"241033","AAC-255","2018/09/20 16:52:46","新北市三重區新北大道二段139巷32號","121.466541666667","25.060315","6500200","三重區"
"247016","546-UM","2018/09/20 16:52:55","新北市蘆洲區中正路71號","121.470431666667","25.0827966666667","6501400","蘆洲區"
"247024","500-BY","2018/09/20 16:52:55","新北市蘆洲區長興路202號","121.460593333333","25.0874883333333","6501400","蘆洲區"
"247014","339-TH","2018/09/20 16:52:47","新北市蘆洲區三民路89號","121.474231666667","25.084645","6501400","蘆洲區"
"247006","337-TH","2018/09/20 16:52:50","新北市蘆洲區中華街56號","121.461706666667","25.08017","6501400","蘆洲區"
"247008","336-TH","2018/09/20 16:52:53","新北市蘆洲區中山一路203號","121.474201666667","25.0810583333333","6501400","蘆洲區"
"247020","057-VK","2018/09/20 16:52:44","新北市蘆洲區民族路422巷8號","121.474221666667","25.0921333333333","6501400","蘆洲區"
"247010","056-VK","2018/09/20 16:52:54","新北市三重區環河北路三段506號","121.488941666667","25.091995","6501400","蘆洲區"
"247018","007-UY","2018/09/20 16:53:01","新北市蘆洲區民族路306號","121.477436666667","25.0900233333333","6501400","蘆洲區"
"247004","002-UY","2018/09/20 16:52:57","新北市蘆洲區長榮路155號","121.461778333333","25.0840133333333","6501400","蘆洲區"
"247022","001-UY","2018/09/20 16:53:03","新北市蘆洲區三民路128巷166-1號","121.468411666667","25.0925266666667","6501400","蘆洲區"
"235026","251-BX","2018/09/20 16:52:55","新北市中和區建八路170號","121.490451666667","24.9985683333333","6500300","中和區"
"228003","097-TW","2018/09/20 16:52:58","新北市貢寮區龍門里水返港6號","121.918148333333","25.0237233333333","6502600","貢寮區"
"228001","212-TW","2018/09/20 16:52:45","新北市貢寮區貢寮里朝陽街1-2號","121.91231","25.0212633333333","6502600","貢寮區"
"228002","663-BX","2018/09/20 16:52:49","新北市貢寮區貢寮里長潭街7號","121.89393","25.0241383333333","6502600","貢寮區"
"224006","676-BX","2018/09/20 16:52:48","新北市瑞芳區大寮路356-1號","121.784881666667","25.10322","6501200","瑞芳區"
"224008","285-BY","2018/09/20 16:52:53","新北市瑞芳區東和路2號","121.80435","25.10616","6501200","瑞芳區"
"224007","275-VK","2018/09/20 16:52:56","新北市瑞芳區中央路48巷162號","121.759281666667","25.1035133333333","6501200","瑞芳區"
"224009","273-VK","2018/09/20 16:52:58","新北市瑞芳區明燈路一段1號","121.826586666667","25.1093083333333","6501200","瑞芳區"
"224005","271-BY","2018/09/20 16:52:35","新北市瑞芳區洞頂路116號","121.861233333333","25.1231466666667","6501200","瑞芳區"
"227010","642-TC","2018/09/20 16:53:01","新北市雙溪區牡丹里五分10號","121.866568333333","25.0471066666667","6502500","雙溪區"
"227004","400-TW","2018/09/20 16:52:45","新北市雙溪區外柑里外柑腳99號","121.806558333333","25.0179466666667","6502500","雙溪區"
"251009","008-UM","2018/09/20 16:52:54","新北市淡水區中正路二段18號","121.419795","25.18121","6501000","淡水區"
"251004","009-UM","2018/09/20 16:52:47","新北市淡水區中正路二段31號","121.41964","25.1819083333333","6501000","淡水區"
"251005","010-UM","2018/09/20 16:53:01","新北市淡水區中正路235號","121.435165","25.173585","6501000","淡水區"
"251013","KEA-2871","2018/09/20 16:52:55","新北市淡水區泉洲厝32號","121.489241666667","25.1925433333333","6501000","淡水區"
"251016","179-VK","2018/09/20 16:52:57","新北市淡水區水頭42號","121.478118333333","25.1850483333333","6501000","淡水區"
"251015","180-VK","2018/09/20 16:53:01","新北市淡水區忠愛街5-2號","121.460616666667","25.1716216666667","6501000","淡水區"
"251008","181-VK","2018/09/20 16:53:01","新北市淡水區樹梅坑9號","121.472738333333","25.1426866666667","6501000","淡水區"
"251010","413-VK","2018/09/20 16:52:54","新北市淡水區中正路二段31號","121.419598333333","25.18152","6501000","淡水區"
"251012","441-VK","2018/09/20 16:52:51","新北市淡水區中正路二段31號","121.419713333333","25.1815416666667","6501000","淡水區"
"251007","442-VK","2018/09/20 16:52:49","新北市淡水區中正路二段12號","121.42046","25.1805916666667","6501000","淡水區"
"251006","561-UM","2018/09/20 16:52:56","新北市淡水區中正路二段31號","121.419351666667","25.1816683333333","6501000","淡水區"
"251011","650-BX","2018/09/20 16:52:45","新北市淡水區中正路二段12號","121.420466666667","25.180505","6501000","淡水區"
"252001","292-VK","2018/09/20 16:53:01","新北市三芝區淡金路二段89-1號","121.503995","25.2608016666667","6502100","三芝區"
"252002","AAC-283","2018/09/20 16:52:49","新北市三芝區忠孝街177號","121.505266666667","25.26161","6502100","三芝區"
"242056","751-BX","2018/09/20 16:52:47","新北市新莊區新泰路357巷3弄57號","121.442075","25.0390683333333","6500500","新莊區"
"242025","613-BX","2018/09/20 16:53:00","新北市新莊區新泰路357巷3弄57號","121.4422","25.0391583333333","6500500","新莊區"
"242044","566-BX","2018/09/20 16:52:56","新北市新莊區新泰路255巷83號","121.442078333333","25.0390516666667","6500500","新莊區"
"242048","497-BY","2018/09/20 16:52:46","新北市新莊區新泰路357巷3弄57號","121.442173333333","25.0394983333333","6500500","新莊區"
"242002","440-UM","2018/09/20 16:53:01","新北市新莊區新泰路357巷3弄57號","121.442065","25.03922","6500500","新莊區"
"242046","400-BY","2018/09/20 16:52:49","新北市新莊區新泰路357巷3弄57號","121.442261666667","25.0392816666667","6500500","新莊區"
"242061","353-BY","2018/09/20 16:52:48","新北市新莊區新泰路255巷83號","121.44239","25.0389583333333","6500500","新莊區"
"242042","133-UY","2018/09/20 16:52:47","新北市新莊區三和路12-21號","121.441818333333","25.0388483333333","6500500","新莊區"
"242019","175-VK","2018/09/20 16:52:48","新北市新莊區三和路12-21號","121.442066666667","25.0385666666667","6500500","新莊區"
"242031","348-TH","2018/09/20 16:52:42","新北市新莊區新泰路357巷3弄57號","121.442001666667","25.039405","6500500","新莊區"
"242015","351-TH","2018/09/20 16:52:40","新北市新莊區新泰路357巷3弄57號","121.44181","25.0395183333333","6500500","新莊區"
"238005","571-TV","2018/09/20 16:35:34","新北市樹林區育德街78-1號","121.387996666667","24.9680416666667","6500700","樹林區"
"238022","KEA-2213","2018/09/20 16:53:02","新北市樹林區育德街78-1號","121.387705","24.968195","6500700","樹林區"
"238004","283-BY","2018/09/20 16:52:46","新北市樹林區中正路433-1號","121.414958333333","25.0081183333333","6500700","樹林區"
"238001","282-BY","2018/09/20 16:52:58","新北市樹林區中正路22-1號","121.427798333333","24.9996533333333","6500700","樹林區"
"239007","AAC-297","2018/09/20 16:52:50","新北市鶯歌區二甲路13-16號","121.344875","24.93514","6500800","鶯歌區"
"239001","417-VK","2018/09/20 16:45:29","新北市鶯歌區二甲路13號","121.343621666667","24.935435","6500800","鶯歌區"
