"lineid","car","time","location","longitude","latitude","cityid","cityname"
"249005","172-UM","2018/09/20 17:15:45","新北市八里區華富山13-5號","121.416445","25.1380033333333","6502300","八里區"
"249001","173-UM","2018/09/20 17:15:54","新北市八里區中華路二段165巷7-1號","121.40789","25.1506933333333","6502300","八里區"
"249004","303-UY","2018/09/20 17:16:01","新北市八里區忠四街7號","121.42466","25.1597516666667","6502300","八里區"
"249002","305-UY","2018/09/20 17:15:52","新北市八里區龍米路二段117巷42號","121.444436666667","25.1420133333333","6502300","八里區"
"249003","593-UM","2018/09/20 17:16:02","新北市八里區中山路二段453號","121.396535","25.14572","6502300","八里區"
"244023","069-UM","2018/09/20 17:16:00","新北市林口區仁愛路一段380號","121.388131666667","25.0766866666667","6501700","林口區"
"244007","080-UY","2018/09/20 17:15:40","新北市林口區菁埔5-3號","121.37897","25.09624","6501700","林口區"
"244019","403-UM","2018/09/20 17:15:53","新北市林口區文化二路一段350-1號","121.373033333333","25.0753733333333","6501700","林口區"
"244013","KEA-2802","2018/09/20 17:16:00","新北市林口區粉寮路二段88巷100-12號","121.409608333333","25.09021","6501700","林口區"
"244017","485-VK","2018/09/20 17:15:56","新北市林口區粉寮路二段88巷100-12號","121.40978","25.0902583333333","6501700","林口區"
"244009","656-BX","2018/09/20 17:15:44","新北市林口區中北二街19巷18號","121.383398333333","25.0881083333333","6501700","林口區"
"244011","657-BX","2018/09/20 17:15:58","新北市林口區粉寮路19號","121.399725","25.081895","6501700","林口區"
"244025","837-TS","2018/09/20 17:15:59","新北市林口區文化三路二段1-1號","121.372935","25.0784216666667","6501700","林口區"
"244021","838-TS","2018/09/20 17:15:49","新北市林口區粉寮路二段281號","121.404641666667","25.0933716666667","6501700","林口區"
"231046","107-UY","2018/09/20 17:15:54","新北市新店區直潭路92號","121.5309","24.9376266666667","6500600","新店區"
"241011","013-R5","2018/09/20 17:16:02","新北市三重區河邊北街100巷4號","121.503705","25.070305","6500200","三重區"
"241028","022-UY","2018/09/20 17:15:50","新北市三重區重新路三段98號","121.49276","25.06045","6500200","三重區"
"241008","059-VK","2018/09/20 17:15:44","新北市三重區永福街176號","121.481213333333","25.074335","6500200","三重區"
"241015","062-VK","2018/09/20 17:15:53","新北市三重區福德北路72號","121.501781666667","25.0661466666667","6500200","三重區"
"241017","063-VK","2018/09/20 17:15:53","新北市三重區大同北路85號","121.494856666667","25.0636233333333","6500200","三重區"
"241024","065-VK","2018/09/20 17:15:58","新北市三重區中正北路193巷11弄3號","121.477423333333","25.0702916666667","6500200","三重區"
"241026","066-VK","2018/09/20 17:15:47","新北市三重區福裕街28號","121.499225","25.0615616666667","6500200","三重區"
"241002","090-VK","2018/09/20 17:15:54","新北市三重區自強路五段12號","121.492263333333","25.0804966666667","6500200","三重區"
"241003","091-VK","2018/09/20 17:15:56","新北市三重區富福街56號","121.491818333333","25.0844266666667","6500200","三重區"
"251014","742-BX","2018/09/20 17:15:59","新北市淡水區公埔子30-2號","121.46529","25.228245","6501000","淡水區"
"241005","262-UM","2018/09/20 17:16:00","新北市三重區永安北路二段25巷43號","121.483088333333","25.0818633333333","6500200","三重區"
"241029","265-UM","2018/09/20 17:15:45","新北市三重區重安街26號","121.490396666667","25.0579183333333","6500200","三重區"
"241016","266-UM","2018/09/20 17:15:46","新北市三重區中正北路25巷25弄7號","121.49343","25.0627433333333","6500200","三重區"
"241009","267-UM","2018/09/20 17:16:01","新北市三重區仁愛街662號","121.482561666667","25.08031","6500200","三重區"
"241018","268-UM","2018/09/20 17:15:49","新北市三重區重陽路四段37號","121.491935","25.0696516666667","6500200","三重區"
"241032","269-UM","2018/09/20 17:15:58","新北市三重區興華街58號","121.484851666667","25.0597583333333","6500200","三重區"
"241013","270-UM","2018/09/20 17:15:54","新北市三重區仁孝街62號","121.497385","25.07435","6500200","三重區"
"241025","271-UM","2018/09/20 17:15:57","新北市三重區中正北路443號","121.469893333333","25.0722866666667","6500200","三重區"
"241007","398-BY","2018/09/20 17:15:41","新北市三重區三和路四段163巷1號","121.483563333333","25.0786383333333","6500200","三重區"
"241020","478-VK","2018/09/20 17:16:01","新北市三重區自強路三段44號","121.486825","25.0726483333333","6500200","三重區"
"241014","543-UM","2018/09/20 17:16:01","新北市三重區龍濱路151號","121.502581666667","25.0692933333333","6500200","三重區"
"241023","545-UM","2018/09/20 17:16:01","新北市三重區忠孝路三段52號","121.480645","25.06573","6500200","三重區"
"241001","547-UM","2018/09/20 17:15:57","新北市三重區仁愛街269巷6-1號","121.493323333333","25.078955","6500200","三重區"
"241019","KEA-2593","2018/09/20 17:15:54","新北市三重區力行路一段161號","121.484833333333","25.06923","6500200","三重區"
"241030","743-BX","2018/09/20 17:16:03","新北市三重區集成路13號","121.488685","25.0520983333333","6500200","三重區"
"241022","887-TS","2018/09/20 17:15:59","新北市三重區三民街131號","121.484931666667","25.0640616666667","6500200","三重區"
"241012","941-UM","2018/09/20 17:16:00","新北市三重區河邊北街248巷13號","121.50137","25.0758516666667","6500200","三重區"
"241033","AAC-255","2018/09/20 17:15:46","新北市三重區中興北街219號","121.469058333333","25.0585016666667","6500200","三重區"
"247012","KEA-2869","2018/09/20 17:15:52","新北市蘆洲區信義路266巷49-1號","121.478983333333","25.08754","6501400","蘆洲區"
"247002","893-R6","2018/09/20 17:15:56","新北市蘆洲區永樂街38巷33弄54號","121.456685","25.0898866666667","6501400","蘆洲區"
"247016","546-UM","2018/09/20 17:15:55","新北市蘆洲區正和街79號","121.468473333333","25.0808616666667","6501400","蘆洲區"
"247024","500-BY","2018/09/20 17:15:55","新北市蘆洲區長榮路98號","121.462095","25.08372","6501400","蘆洲區"
"247014","339-TH","2018/09/20 17:15:47","新北市蘆洲區得勝街135號","121.472003333333","25.0833116666667","6501400","蘆洲區"
"247006","337-TH","2018/09/20 17:16:02","新北市蘆洲區長安街76號","121.46245","25.0802316666667","6501400","蘆洲區"
"247008","336-TH","2018/09/20 17:15:53","新北市蘆洲區信義路30巷135號","121.475381666667","25.0766383333333","6501400","蘆洲區"
"247020","057-VK","2018/09/20 17:15:44","新北市蘆洲區民族路436巷7號","121.4728","25.0928883333333","6501400","蘆洲區"
"247010","056-VK","2018/09/20 17:15:54","新北市蘆洲區鷺江街16-2號","121.478813333333","25.082495","6501400","蘆洲區"
"247018","007-UY","2018/09/20 17:16:01","新北市蘆洲區民權路82巷5弄11號","121.474678333333","25.0884816666667","6501400","蘆洲區"
"247004","002-UY","2018/09/20 17:15:57","新北市蘆洲區永安南路二段274號","121.458313333333","25.0810366666667","6501400","蘆洲區"
"247022","001-UY","2018/09/20 17:15:43","新北市蘆洲區民義街8號","121.471033333333","25.0883633333333","6501400","蘆洲區"
"235062","251-BX","2018/09/20 17:08:32","新北市中和區員山路36巷16-3號","121.48489","24.9916916666667","6500300","中和區"
"228003","097-TW","2018/09/20 17:15:58","新北市貢寮區福隆里東興街32號","121.949338333333","25.0180716666667","6502600","貢寮區"
"228001","212-TW","2018/09/20 17:15:45","新北市貢寮區仁理村尖山腳街18-3號","121.925518333333","25.0482716666667","6502600","貢寮區"
"228002","663-BX","2018/09/20 17:15:54","新北市貢寮區雙玉里下雙溪街19號","121.917786666667","25.0109433333333","6502600","貢寮區"
"224006","676-BX","2018/09/20 17:15:48","新北市瑞芳區大寮路62號","121.781826666667","25.098175","6501200","瑞芳區"
"224008","285-BY","2018/09/20 17:15:53","新北市瑞芳區柴寮路2號","121.8246","25.082565","6501200","瑞芳區"
"224009","273-VK","2018/09/20 17:15:58","新北市瑞芳區汽車路106號","121.840778333333","25.1089516666667","6501200","瑞芳區"
"224005","271-BY","2018/09/20 17:15:55","新北市瑞芳區鼻頭路131號","121.916263333333","25.12216","6501200","瑞芳區"
"227010","642-TC","2018/09/20 17:16:01","新北市雙溪區牡丹里牡丹140號","121.850138333333","25.0585566666667","6502500","雙溪區"
"227004","400-TW","2018/09/20 17:15:45","新北市雙溪區上林里內平林90號","121.82757","25.027485","6502500","雙溪區"
"251009","008-UM","2018/09/20 17:15:54","新北市淡水區三民街20號","121.439041666667","25.171775","6501000","淡水區"
"251004","009-UM","2018/09/20 17:15:47","新北市淡水區中正東路36-1號","121.448981666667","25.1657733333333","6501000","淡水區"
"251005","010-UM","2018/09/20 17:15:47","新北市淡水區學府路1號","121.447326666667","25.1678516666667","6501000","淡水區"
"251013","KEA-2871","2018/09/20 17:15:55","新北市淡水區竹圍子6-5號","121.481555","25.1930216666667","6501000","淡水區"
"251016","179-VK","2018/09/20 17:15:57","新北市淡水區鄒厝崙7號","121.470805","25.188055","6501000","淡水區"
"251015","180-VK","2018/09/20 17:14:37","新北市淡水區樹林口5-1號","121.480136666667","25.167655","6501000","淡水區"
"251008","181-VK","2018/09/20 17:15:41","新北市淡水區樹梅坑14號","121.471313333333","25.14343","6501000","淡水區"
"251010","413-VK","2018/09/20 17:15:54","新北市淡水區中正路二段215號","121.42623","25.1892183333333","6501000","淡水區"
"251012","441-VK","2018/09/20 17:15:51","新北市淡水區中山北路一段156號","121.444186666667","25.1779483333333","6501000","淡水區"
"251007","442-VK","2018/09/20 17:15:49","新北市淡水區民生路47-4號","121.462063333333","25.1379766666667","6501000","淡水區"
"251006","561-UM","2018/09/20 17:15:56","新北市淡水區真理街6號","121.438411666667","25.174515","6501000","淡水區"
"251011","650-BX","2018/09/20 17:15:45","新北市淡水區坪頂路70巷1號","121.459878333333","25.16304","6501000","淡水區"
"251002","672-BX","2018/09/20 17:15:47","新北市淡水區中正路二段31號","121.419441666667","25.181665","6501000","淡水區"
"251003","766-UM","2018/09/20 17:15:44","新北市淡水區中正路二段31號","121.419428333333","25.1814583333333","6501000","淡水區"
"207003","550-UM","2018/09/20 17:15:53","新北市萬里區萬里里獅頭路23號","121.693351666667","25.1782716666667","6502800","萬里區"
"252001","292-VK","2018/09/20 17:16:01","新北市三芝區淡金路一段3號","121.498088333333","25.25967","6502100","三芝區"
"252002","AAC-283","2018/09/20 17:15:49","新北市三芝區忠孝街1-14號","121.505528333333","25.2539616666667","6502100","三芝區"
"242058","986-R7","2018/09/20 17:16:00","新北市新莊區三和路12-8號","121.441901666667","25.0364183333333","6500500","新莊區"
"242056","751-BX","2018/09/20 17:15:47","新北市新莊區新莊路765號","121.442403333333","25.032555","6500500","新莊區"
"242029","705-TV","2018/09/20 17:16:01","新北市新莊區幸福路914號","121.442488333333","25.0486216666667","6500500","新莊區"
"242027","615-BX","2018/09/20 17:15:50","新北市新莊區新泰路500號","121.442391666667","25.0459316666667","6500500","新莊區"
"242025","613-BX","2018/09/20 17:16:00","新北市新莊區新泰路488號","121.442536666667","25.0457933333333","6500500","新莊區"
"242044","566-BX","2018/09/20 17:15:56","新北市新莊區三和路10號","121.441966666667","25.0355516666667","6500500","新莊區"
"242048","497-BY","2018/09/20 17:15:46","新北市新莊區福營路435號","121.420526666667","25.02617","6500500","新莊區"
"242053","442-UM","2018/09/20 17:15:54","新北市新莊區環河路636-7號","121.436595","25.0108633333333","6500500","新莊區"
"242002","440-UM","2018/09/20 17:16:01","新北市新莊區中環路一段287號","121.44203","25.0319566666667","6500500","新莊區"
"242039","415-TV","2018/09/20 17:15:45","新北市新莊區新樹路72-5號","121.436481666667","25.02518","6500500","新莊區"
"242009","413-TV","2018/09/20 17:15:55","新北市新莊區三和路12-21號","121.442366666667","25.0379733333333","6500500","新莊區"
"242046","400-BY","2018/09/20 17:15:49","新北市新莊區中正路384-1號","121.44198","25.0352833333333","6500500","新莊區"
"242023","362-BY","2018/09/20 17:15:56","新北市新莊區中港一街69號","121.450005","25.045395","6500500","新莊區"
"242061","353-BY","2018/09/20 17:15:48","新北市新莊區新樹路306號","121.433386666667","25.0049766666667","6500500","新莊區"
"242042","133-UY","2018/09/20 17:15:46","新北市新莊區中正路481號","121.44139","25.0338516666667","6500500","新莊區"
"242051","172-VK","2018/09/20 17:15:56","新北市新莊區新樹路223號","121.435391666667","25.0231833333333","6500500","新莊區"
"242019","175-VK","2018/09/20 17:15:48","新北市新莊區新泰路480號","121.44254","25.0455883333333","6500500","新莊區"
"242007","176-VK","2018/09/20 17:15:55","新北市新莊區新泰路484號","121.442588333333","25.0456733333333","6500500","新莊區"
"242031","348-TH","2018/09/20 17:16:02","新北市新莊區新泰路421-7號","121.44246","25.045215","6500500","新莊區"
"242021","350-TH","2018/09/20 17:15:51","新北市新莊區中港路136號","121.455175","25.0408533333333","6500500","新莊區"
"242015","351-TH","2018/09/20 17:16:00","新北市新莊區三和路12-12號","121.442355","25.037035","6500500","新莊區"
"238015","755-BX","2018/09/20 17:14:20","新北市樹林區大安路566-6號","121.41179","24.9838083333333","6500700","樹林區"
"238019","599-UM","2018/09/20 17:15:53","新北市樹林區太平路273巷23號","121.421135","24.9762366666667","6500700","樹林區"
"238018","571-TV","2018/09/20 17:15:54","新北市樹林區中華路6-3號","121.424681666667","24.9840033333333","6500700","樹林區"
"238024","5061-A6","2018/09/20 17:16:00","新北市樹林區鎮前街60號","121.425738333333","24.992495","6500700","樹林區"
"238022","KEA-2213","2018/09/20 17:16:02","新北市樹林區仁愛街42號","121.4236","24.982725","6500700","樹林區"
"238021","KEA-2539","2018/09/20 17:15:53","新北市樹林區西圳街一段165巷20弄11號","121.395621666667","24.9602116666667","6500700","樹林區"
"238025","303-VK","2018/09/20 17:15:46","新北市樹林區中正路21號","121.427473333333","24.99913","6500700","樹林區"
"238017","283-BY","2018/09/20 17:15:46","新北市樹林區光武街32-2號","121.416546666667","25.0061966666667","6500700","樹林區"
"238014","282-BY","2018/09/20 17:15:58","新北市樹林區保安二街69號","121.424616666667","24.9948933333333","6500700","樹林區"
"238020","268-VK","2018/09/20 17:15:43","新北市樹林區新興街20-12號","121.398396666667","24.9727066666667","6500700","樹林區"
"238026","172-UY","2018/09/20 17:15:44","新北市樹林區東順街123-3號","121.406458333333","24.9746383333333","6500700","樹林區"
"238016","169-UY","2018/09/20 17:15:58","新北市樹林區八德街1號","121.417508333333","24.984975","6500700","樹林區"
"239007","AAC-297","2018/09/20 17:15:50","新北市鶯歌區光復街68號","121.351193333333","24.9563916666667","6500800","鶯歌區"
"239008","527-UM","2018/09/20 17:15:45","新北市鶯歌區中正一路187號","121.35325","24.956845","6500800","鶯歌區"
"239005","526-UM","2018/09/20 17:15:58","新北市鶯歌區福德四街21號","121.329313333333","24.9675883333333","6500800","鶯歌區"
"239001","417-VK","2018/09/20 17:15:49","新北市鶯歌區尖山路195號","121.344251666667","24.94706","6500800","鶯歌區"
"239003","360-BY","2018/09/20 17:15:53","新北市鶯歌區德昌二街70巷27弄2號","121.331651666667","24.9576816666667","6500800","鶯歌區"
"239002","359-BY","2018/09/20 17:15:50","新北市鶯歌區建國路280-2號","121.34603","24.9531683333333","6500800","鶯歌區"
"239006","292-BY","2018/09/20 17:15:58","新北市鶯歌區八德路29號","121.335025","24.9519033333333","6500800","鶯歌區"
"239004","193-VK","2018/09/20 17:15:58","新北市鶯歌區文化路417-17號","121.353741666667","24.9492916666667","6500800","鶯歌區"
"221008","489-VK","2018/09/20 17:15:49","新北市汐止區康寧街901號","121.651518333333","25.07521","6501100","汐止區"
