"lineid","car","time","location","longitude","latitude","cityid","cityname"
"234046","148-BY","2018/09/20 19:48:55","新北市永和區永利路163號","121.524983333333","25.003485","6500400","永和區"
"234007","207-UY","2018/09/20 19:48:55","新北市中和區光華街85號","121.506873333333","25.002635","6500400","永和區"
"234081","298-R6","2018/09/20 19:48:53","新北市永和區林森路20巷7號","121.525806666667","25.00569","6500400","永和區"
"234038","336-UY","2018/09/20 19:48:58","新北市永和區成功路二段131號","121.52677","24.9982433333333","6500400","永和區"
"234064","337-UY","2018/09/20 19:48:55","新北市永和區中正路368巷6號","121.518068333333","25.0008416666667","6500400","永和區"
"234086","338-UY","2018/09/20 19:49:03","新北市永和區永利路23號","121.518008333333","25.0060266666667","6500400","永和區"
"234070","552-UM","2018/09/20 19:49:01","新北市永和區竹林路88號","121.51943","25.012575","6500400","永和區"
"234017","745-BX","2018/09/20 19:49:04","新北市永和區永和路二段393號","121.515711666667","25.016535","6500400","永和區"
"234030","746-BX","2018/09/20 19:48:54","新北市永和區民生路67巷25號","121.524086666667","24.997305","6500400","永和區"
"234054","KEA-2590","2018/09/20 19:49:02","新北市永和區竹林路73-1號","121.518723333333","25.013155","6500400","永和區"
"234013","KEA-2591","2018/09/20 19:48:58","新北市永和區永平路278號","121.50796","25.0116783333333","6500400","永和區"
"234061","AAD-866","2018/09/20 19:48:56","新北市永和區中正路164號","121.515086666667","24.99674","6500400","永和區"
"234042","862-TW","2018/09/20 19:49:07","新北市永和區中和路389巷45號","121.508123333333","25.00182","6500400","永和區"
"234050","863-TW","2018/09/20 19:48:56","新北市永和區環河西路一段105號","121.511088333333","25.0175666666667","6500400","永和區"
"234026","9371-KE","2018/09/20 19:49:02","新北市永和區雙和街23號","121.509163333333","25.0021266666667","6500400","永和區"
"234011","9373-KE","2018/09/20 19:49:02","新北市永和區仁愛路352巷80號","121.50186","25.0075666666667","6500400","永和區"
"249001","173-UM","2018/09/20 19:49:04","新北市八里區中華路二段250號","121.405458333333","25.1496816666667","6502300","八里區"
"249004","303-UY","2018/09/20 19:48:51","新北市八里區仁愛路123號","121.410221666667","25.15897","6502300","八里區"
"249002","305-UY","2018/09/20 19:48:54","新北市八里區頂寮五街17號","121.451523333333","25.1260766666667","6502300","八里區"
"249003","593-UM","2018/09/20 19:48:59","新北市八里區中華路二段556號","121.398723333333","25.1452916666667","6502300","八里區"
"248014","025-BX","2018/09/20 19:48:43","新北市五股區五福路44號","121.43397","25.0894766666667","6501500","五股區"
"248016","026-BX","2018/09/20 19:48:55","新北市五股區成泰路三段601巷17-1號","121.451773333333","25.103315","6501500","五股區"
"248008","095-VK","2018/09/20 19:49:05","新北市五股區四維路183號","121.468036666667","25.0753366666667","6501500","五股區"
"248020","225-UY","2018/09/20 19:48:48","新北市五股區中直路27號","121.420886666667","25.1138466666667","6501500","五股區"
"248012","247-BX","2018/09/20 19:49:05","新北市五股區蓬萊路24號","121.433993333333","25.0798733333333","6501500","五股區"
"248010","272-BY","2018/09/20 19:48:54","新北市五股區登林路76-6號","121.430471666667","25.06953","6501500","五股區"
"248004","677-BX","2018/09/20 19:48:56","新北市五股區成泰路一段130-2號","121.43512","25.0752033333333","6501500","五股區"
"248002","678-BX","2018/09/20 19:49:05","新北市五股區成泰路三段625-2號","121.452718333333","25.1042933333333","6501500","五股區"
"234077","969-R7","2018/09/20 19:48:52","新北市永和區民治街97巷7號","121.51682","24.9980716666667","6500400","永和區"
"234074","AAC-211","2018/09/20 19:48:57","新北市永和區竹林路213巷27號","121.522563333333","25.0090416666667","6500400","永和區"
"234067","AAC-212","2018/09/20 19:48:48","新北市永和區中山路一段153號","121.509981666667","25.00939","6500400","永和區"
"234003","AAC-295","2018/09/20 19:49:00","新北市永和區福和路310-1號","121.516248333333","25.0073783333333","6500400","永和區"
"244023","069-UM","2018/09/20 19:49:00","新北市林口區文林四街50號","121.374176666667","25.0847583333333","6501700","林口區"
"243013","AAD-798","2018/09/20 19:38:13","新北市泰山區應化街7號","121.42388","25.0437116666667","6501600","泰山區"
"243009","297-R6","2018/09/20 19:48:57","新北市泰山區明志路一段88號","121.433408333333","25.0642766666667","6501600","泰山區"
"243016","KEA-2801","2018/09/20 19:48:58","新北市泰山區明志路三段480號","121.420975","25.0314783333333","6501600","泰山區"
"243015","421-VK","2018/09/20 19:48:45","新北市泰山區明志路二段214巷9號","121.426701666667","25.0488166666667","6501600","泰山區"
"243011","KEA-2215","2018/09/20 19:48:48","新北市泰山區明志路三段204巷10弄11號","121.422961666667","25.0387066666667","6501600","泰山區"
"243010","KEA-2216","2018/09/20 19:49:03","新北市泰山區民生路33號","121.430711666667","25.0522","6501600","泰山區"
"243012","646-TV","2018/09/20 19:49:07","新北市泰山區全興路18巷1號","121.432045","25.05886","6501600","泰山區"
"243014","680-BX","2018/09/20 19:48:53","新北市泰山區泰林路二段33-8號","121.435213333333","25.0565266666667","6501600","泰山區"
"222003","436-BY","2018/09/20 19:40:13","新北市深坑區深南路51-1號","121.621236666667","25.0098433333333","6501800","深坑區"
"222002","659-BX","2018/09/20 19:48:51","新北市深坑區北深路二段2巷1號","121.621363333333","25.0046066666667","6501800","深坑區"
"231041","002-UM","2018/09/20 19:49:03","新北市新店區中央路151號","121.52952","24.9724483333333","6500600","新店區"
"231059","046-UY","2018/09/20 19:49:01","新北市新店區安和路二段175號","121.51849","24.9746683333333","6500600","新店區"
"231040","047-UY","2018/09/20 19:48:59","新北市新店區中正路75巷71號","121.543231666667","24.9688116666667","6500600","新店區"
"231044","106-UY","2018/09/20 19:48:54","新北市新店區復興路67-1號","121.5353","24.9877716666667","6500600","新店區"
"231046","107-UY","2018/09/20 19:48:53","新北市新店區福園街17巷2號","121.532773333333","24.972795","6500600","新店區"
"231052","108-UY","2018/09/20 19:49:07","新北市新店區新烏路三段115號","121.552191666667","24.902915","6500600","新店區"
"231047","187-VK","2018/09/20 19:48:57","新北市新店區中興路二段100巷2號","121.547518333333","24.9712433333333","6500600","新店區"
"231054","KEA-2219","2018/09/20 19:48:53","新北市新店區光明街71號","121.538878333333","24.96055","6500600","新店區"
"231042","268-BY","2018/09/20 19:49:06","新北市新店區中興路一段265號","121.544801666667","24.967425","6500600","新店區"
"231051","278-BY","2018/09/20 19:49:06","新北市新店區中央三街63號","121.52691","24.9750216666667","6500600","新店區"
"231050","AAD-862","2018/09/20 19:48:52","新北市新店區郵政路4巷8號","121.556841666667","24.951645","6500600","新店區"
"231058","3713-VJ","2018/09/20 19:49:06","新北市新店區柴埕路52巷1-1號","121.5115","24.964235","6500600","新店區"
"231066","4716-K9","2018/09/20 19:48:50","新北市新店區安康路二段426號","121.496028333333","24.9550183333333","6500600","新店區"
"231056","4715-K9","2018/09/20 19:49:00","新北市新店區民權路70號","121.538243333333","24.982995","6500600","新店區"
"231067","4772-VM","2018/09/20 19:49:04","新北市新店區安康路一段323-3號","121.521275","24.9638233333333","6500600","新店區"
"231065","512-UM","2018/09/20 19:49:06","新北市新店區安祥路109巷108號","121.477348333333","24.9588533333333","6500600","新店區"
"231049","513-UM","2018/09/20 19:48:58","新北市新店區民權路127巷13號","121.535785","24.981775","6500600","新店區"
"231063","616-UM","2018/09/20 19:49:07","新北市新店區車子路11號","121.50303","24.9520033333333","6500600","新店區"
"231061","619-UM","2018/09/20 19:48:49","新北市新店區安民街141號","121.516468333333","24.9695283333333","6500600","新店區"
"231068","718-UY","2018/09/20 19:48:54","新北市新店區安一路一段1-1號","121.519505","24.96129","6500600","新店區"
"231064","719-UM","2018/09/20 19:38:09","新北市新店區安和路一段2-3號","121.517305","24.964155","6500600","新店區"
"231062","720-UM","2018/09/20 19:48:53","新北市新店區永業路35號","121.532715","24.9553783333333","6500600","新店區"
"231060","897-TW","2018/09/20 19:48:58","新北市新店區安康路二段223號","121.508613333333","24.9587333333333","6500600","新店區"
"231045","898-TW","2018/09/20 19:48:52","新北市新店區北宜路二段384號","121.564561666667","24.9527916666667","6500600","新店區"
"231043","899-TW","2018/09/20 19:49:00","新北市新店區中正路255號","121.53883","24.9734733333333","6500600","新店區"
"231055","AKT-0513","2018/09/20 19:49:03","新北市新店區中華路83巷67號","121.538261666667","24.9671466666667","6500600","新店區"
"241011","013-R5","2018/09/20 19:49:04","新北市三重區介壽路41號","121.498643333333","25.0700933333333","6500200","三重區"
"241028","022-UY","2018/09/20 19:48:50","新北市三重區中正南路151號","121.493888333333","25.0565033333333","6500200","三重區"
"241008","059-VK","2018/09/20 19:49:06","新北市三重區永福街147-8號","121.4787","25.07619","6500200","三重區"
"241031","061-VK","2018/09/20 19:48:54","新北市三重區重新路四段250-1號","121.486005","25.053415","6500200","三重區"
"241015","062-VK","2018/09/20 19:49:03","新北市三重區重新路一段1號","121.503825","25.06431","6500200","三重區"
"241017","063-VK","2018/09/20 19:48:53","新北市三重區重陽路三段5巷8弄16號","121.48952","25.0665533333333","6500200","三重區"
"241024","065-VK","2018/09/20 19:49:02","新北市三重區國道路一段58巷20號","121.48128","25.0720883333333","6500200","三重區"
"241026","066-VK","2018/09/20 19:49:07","新北市三重區文化南路42號","121.50039","25.0602183333333","6500200","三重區"
"241003","091-VK","2018/09/20 19:49:05","新北市三重區五華街91號","121.491911666667","25.0836233333333","6500200","三重區"
"251014","742-BX","2018/09/20 19:48:59","新北市淡水區番社前2-6號","121.469941666667","25.2370483333333","6501000","淡水區"
"241029","265-UM","2018/09/20 19:49:05","新北市三重區光明路67號","121.491806666667","25.0575183333333","6500200","三重區"
"241016","266-UM","2018/09/20 19:49:06","新北市三重區正義北路16巷25號","121.496796666667","25.0628883333333","6500200","三重區"
"241009","267-UM","2018/09/20 19:49:00","新北市三重區三和路四段396巷8號","121.480921666667","25.0790833333333","6500200","三重區"
"241018","268-UM","2018/09/20 19:48:51","新北市三重區雙園街57巷24-1號","121.494545","25.0683583333333","6500200","三重區"
"241032","269-UM","2018/09/20 19:48:53","新北市三重區重陽路一段10號","121.486253333333","25.057695","6500200","三重區"
"241013","270-UM","2018/09/20 19:49:05","新北市三重區仁愛街112巷8號","121.494813333333","25.0741966666667","6500200","三重區"
"241025","271-UM","2018/09/20 19:48:49","新北市三重區忠孝路三段52號","121.480675","25.0656366666667","6500200","三重區"
"241007","398-BY","2018/09/20 19:49:01","新北市三重區三和路四段133-1號","121.484823333333","25.0780116666667","6500200","三重區"
"241035","KEA-2210","2018/09/20 19:48:48","新北市三重區文化北路22-1號","121.499221666667","25.0641916666667","6500200","三重區"
"241004","475-VK","2018/09/20 19:49:02","新北市三重區仁愛街377巷132號","121.493528333333","25.0819366666667","6500200","三重區"
"241020","478-VK","2018/09/20 19:49:00","新北市三重區三和路三段192號","121.491831666667","25.07368","6500200","三重區"
"241014","543-UM","2018/09/20 19:49:01","新北市三重區長元街98巷18弄25號","121.50186","25.067555","6500200","三重區"
"241023","545-UM","2018/09/20 19:49:01","新北市三重區頂崁街172號","121.477615","25.0659216666667","6500200","三重區"
"241001","547-UM","2018/09/20 19:48:43","新北市三重區仁愛街327巷45-1號","121.493398333333","25.08019","6500200","三重區"
"241019","KEA-2593","2018/09/20 19:48:55","新北市三重區自強路二段74巷25號","121.487763333333","25.069655","6500200","三重區"
"241006","AAD-863","2018/09/20 19:49:06","新北市三重區力行路二段82號","121.481611666667","25.07383","6500200","三重區"
"241030","743-BX","2018/09/20 19:48:57","新北市三重區環河南路254巷88號","121.48884","25.0516766666667","6500200","三重區"
"241022","887-TS","2018/09/20 19:48:57","新北市三重區新北大道一段3-1號","121.489978333333","25.06144","6500200","三重區"
"241012","941-UM","2018/09/20 19:49:00","新北市三重區仁福街64巷19號","121.497711666667","25.07533","6500200","三重區"
"241033","AAC-255","2018/09/20 19:48:46","新北市三重區中興南街29-1號","121.470573333333","25.0440083333333","6500200","三重區"
"235066","003-UY","2018/09/20 19:48:59","新北市中和區南工路56號","121.506006666667","25.0015566666667","6500300","中和區"
"235063","006-UY","2018/09/20 19:48:48","新北市中和區連城路237-1號","121.493865","24.9974166666667","6500300","中和區"
"235056","096-UM","2018/09/20 19:48:59","新北市中和區中山路三段114巷46號","121.475808333333","25.0073416666667","6500300","中和區"
"235039","097-UM","2018/09/20 19:49:01","新北市中和區大勇街27巷19號","121.516605","24.9937033333333","6500300","中和區"
"235065","098-UM","2018/09/20 19:49:04","新北市中和區莊敬路31巷19號","121.499913333333","25.0053466666667","6500300","中和區"
"235040","150-BY","2018/09/20 19:48:57","新北市中和區安和路43號","121.509635","24.9948966666667","6500300","中和區"
"235058","151-BY","2018/09/20 19:49:06","新北市中和區員山路189號","121.481226666667","24.9973666666667","6500300","中和區"
"235055","183-VK","2018/09/20 19:48:59","新北市中和區中山路三段181巷18弄11號","121.472683333333","25.0048633333333","6500300","中和區"
"235038","185-VK","2018/09/20 19:48:51","新北市永和區民族街81巷62號","121.52036","24.9962816666667","6500300","中和區"
"235049","186-VK","2018/09/20 19:48:46","新北市中和區中興街53號","121.500733333333","24.9939166666667","6500300","中和區"
"235067","255-BX","2018/09/20 19:48:57","新北市中和區新生街220巷3號","121.483333333333","24.9984716666667","6500300","中和區"
"235044","293-VK","2018/09/20 19:49:04","新北市中和區南山路176-5號","121.505206666667","24.9910366666667","6500300","中和區"
"235043","352-BY","2018/09/20 19:49:01","新北市中和區華新街230號","121.505983333333","24.98167","6500300","中和區"
"235042","KEA-2878","2018/09/20 19:48:45","新北市中和區保健路7巷11號","121.508195","24.9989383333333","6500300","中和區"
"235050","4979-A6","2018/09/20 19:48:57","新北市中和區景平路241巷84弄54號","121.50613","24.9923766666667","6500300","中和區"
"235069","4980-A6","2018/09/20 19:48:56","新北市中和區中正路501號","121.489038333333","24.9940916666667","6500300","中和區"
"235070","558-UM","2018/09/20 19:48:52","新北市中和區景平路479號","121.500263333333","24.997365","6500300","中和區"
"235045","565-BX","2018/09/20 19:49:03","新北市中和區景平路177號","121.511906666667","24.9924783333333","6500300","中和區"
"235054","640-BX","2018/09/20 19:48:55","新北市中和區莒光路117號","121.472518333333","25.00234","6500300","中和區"
"235047","732-UM","2018/09/20 19:48:52","新北市中和區和平街16號","121.509993333333","24.9900966666667","6500300","中和區"
"235046","733-UM","2018/09/20 19:49:05","新北市中和區仁愛街112號","121.511631666667","24.9869583333333","6500300","中和區"
"235071","783-BX","2018/09/20 19:49:06","新北市中和區中板路5巷9號","121.485345","25.01031","6500300","中和區"
"235057","801-TS","2018/09/20 19:48:58","新北市中和區員山路130號","121.481188333333","24.9962133333333","6500300","中和區"
"235041","802-TS","2018/09/20 19:48:56","新北市中和區中安街40巷2號","121.51276","25.00291","6500300","中和區"
"235048","896-TW","2018/09/20 19:49:03","新北市中和區興南路二段32巷1號","121.507288333333","24.9855216666667","6500300","中和區"
"235053","900-TW","2018/09/20 19:48:54","新北市中和區國光街171巷2號","121.467786666667","25.0013533333333","6500300","中和區"
"235060","911-UM","2018/09/20 19:48:57","新北市中和區新生街11號","121.483195","25.0043","6500300","中和區"
"235051","157-BY","2018/09/20 19:48:51","新北市中和區中興街180巷52弄2號","121.498786666667","24.988645","6500300","中和區"
"235037","AAC-213","2018/09/20 19:49:02","新北市中和區秀朗路三段173-2號","121.524425","24.99152","6500300","中和區"
"235059","AAC-215","2018/09/20 19:49:05","新北市中和區圓通路305巷29弄2號","121.495041666667","24.9891266666667","6500300","中和區"
"220068","013-TV","2018/09/20 19:48:54","新北市板橋區中山路二段416巷1弄4號","121.48327","25.0208283333333","6500100","板橋區"
"220065","072-UY","2018/09/20 19:49:01","新北市板橋區海山路41號","121.46728","25.0097933333333","6500100","板橋區"
"220106","075-UY","2018/09/20 19:49:02","新北市板橋區仁化街221號","121.479178333333","25.03474","6500100","板橋區"
"220069","AAD-861","2018/09/20 19:48:59","新北市板橋區貴興路80號","121.456356666667","25.0028616666667","6500100","板橋區"
"247002","893-R6","2018/09/20 19:48:59","新北市蘆洲區永樂街38巷65號","121.458501666667","25.0903916666667","6501400","蘆洲區"
"247014","339-TH","2018/09/20 19:48:47","新北市蘆洲區中央路101號","121.472351666667","25.0841033333333","6501400","蘆洲區"
"247008","336-TH","2018/09/20 19:48:47","新北市蘆洲區中山一路49號","121.478846666667","25.0809866666667","6501400","蘆洲區"
"247004","002-UY","2018/09/20 19:48:56","新北市蘆洲區中原路38號","121.459721666667","25.0826033333333","6501400","蘆洲區"
"226004","312-R5","2018/09/20 19:49:03","新北市平溪區靜安路三段392巷3號","121.784426666667","25.0495483333333","6502400","平溪區"
"228003","097-TW","2018/09/20 19:48:58","新北市貢寮區真理里美艷山街8-3號","121.929191666667","25.0615233333333","6502600","貢寮區"
"228001","212-TW","2018/09/20 19:49:05","新北市貢寮區真理里新港街113-2號","121.926305","25.0566083333333","6502600","貢寮區"
"224002","639-TC","2018/09/20 19:48:54","新北市瑞芳區三爪子坑路303-2號","121.818061666667","25.1060633333333","6501200","瑞芳區"
"227010","642-TC","2018/09/20 19:49:00","新北市雙溪區新基里中華路76號","121.865816666667","25.03831","6502500","雙溪區"
"227004","400-TW","2018/09/20 19:49:05","新北市雙溪區雙溪里內挖路47號","121.863206666667","25.0368083333333","6502500","雙溪區"
"222001","KEA-2212","2018/09/20 19:49:02","新北市深坑區北深路三段92號","121.607103333333","25.001535","6501800","深坑區"
"208002","KEA-2872","2018/09/20 19:49:07","新北市金山區中華路271號","121.633326666667","25.2247716666667","6502700","金山區"
"208003","665-BX","2018/09/20 19:48:52","新北市金山區中山路149號","121.638763333333","25.2202716666667","6502700","金山區"
"208001","761-BX","2018/09/20 19:48:55","新北市金山區重和里六股林口13號","121.605168333333","25.221895","6502700","金山區"
"251009","008-UM","2018/09/20 19:48:54","新北市淡水區中正路38-1號","121.443725","25.1692733333333","6501000","淡水區"
"251005","010-UM","2018/09/20 19:48:53","新北市淡水區中山路40號","121.444241666667","25.1699683333333","6501000","淡水區"
"251001","011-UM","2018/09/20 19:48:59","新北市淡水區中正東路二段37號","121.459278333333","25.1562166666667","6501000","淡水區"
"251013","KEA-2871","2018/09/20 19:48:55","新北市淡水區頂田寮路168號","121.459941666667","25.2155483333333","6501000","淡水區"
"251016","179-VK","2018/09/20 19:48:57","新北市淡水區下圭柔山122號","121.455803333333","25.2089416666667","6501000","淡水區"
"251015","180-VK","2018/09/20 19:48:57","新北市淡水區北新路二段34號","121.477085","25.185785","6501000","淡水區"
"251008","181-VK","2018/09/20 19:48:58","新北市淡水區中正路二段24巷2-1號","121.42675","25.1769583333333","6501000","淡水區"
"251010","413-VK","2018/09/20 19:48:54","新北市淡水區崁頂78-5號","121.429508333333","25.2069666666667","6501000","淡水區"
"251012","441-VK","2018/09/20 19:49:08","新北市淡水區淡金路三段66號","121.448256666667","25.199935","6501000","淡水區"
"251007","442-VK","2018/09/20 19:48:49","新北市淡水區中正東路一段111巷12號","121.454748333333","25.1607366666667","6501000","淡水區"
"251006","561-UM","2018/09/20 19:48:55","新北市淡水區水碓街15號","121.443496666667","25.17697","6501000","淡水區"
"251011","650-BX","2018/09/20 19:49:03","新北市淡水區淡金路二段599號","121.446836666667","25.191985","6501000","淡水區"
"251003","766-UM","2018/09/20 19:49:04","新北市淡水區中山北路三段159號","121.4453","25.1965333333333","6501000","淡水區"
"207003","550-UM","2018/09/20 19:48:53","新北市萬里區大鵬里萬里加投68-6號","121.642483333333","25.2153616666667","6502800","萬里區"
"207004","225-TW","2018/09/20 19:48:51","新北市萬里區萬里里瑪鋉路170號","121.689806666667","25.179835","6502800","萬里區"
"252001","292-VK","2018/09/20 19:49:01","新北市三芝區公正街66號","121.49978","25.2574416666667","6502100","三芝區"
"252002","AAC-283","2018/09/20 19:48:49","新北市三芝區三民街33號","121.504675","25.25861","6502100","三芝區"
"237001","361-BY","2018/09/20 19:48:52","新北市三峽區隆恩街245號","121.357685","24.94103","6500900","三峽區"
"237004","KEA-2597","2018/09/20 19:48:50","新北市三峽區添福295號","121.377455","24.8851583333333","6500900","三峽區"
"237007","153-BY","2018/09/20 19:48:55","新北市三峽區二鬮路136巷20弄2號","121.357325","24.909955","6500900","三峽區"
"237009","210-TH","2018/09/20 19:49:01","新北市三峽區中園街3號","121.368635","24.9274083333333","6500900","三峽區"
"237013","252-BX","2018/09/20 19:48:55","新北市三峽區橫溪路53-1號","121.39668","24.935465","6500900","三峽區"
"237012","275-BY","2018/09/20 19:48:48","新北市三峽區中華路5-1號","121.374496666667","24.9327","6500900","三峽區"
"237008","302-VK","2018/09/20 19:48:49","新北市三峽區永安街143號","121.373521666667","24.9281366666667","6500900","三峽區"
"237006","5529-G3","2018/09/20 19:48:58","新北市三峽區中正路一段336巷15弄2號","121.369958333333","24.92494","6500900","三峽區"
"237011","KEA-2596","2018/09/20 19:49:04","新北市三峽區介壽路一段496-1號","121.385476666667","24.9322483333333","6500900","三峽區"
"237016","649-BX","2018/09/20 19:49:05","新北市三峽區成福路33號","121.417495","24.9286066666667","6500900","三峽區"
"237010","706-TV","2018/09/20 19:49:03","新北市三峽區復興路19號","121.374081666667","24.93632","6500900","三峽區"
"237005","AKY-6261","2018/09/20 19:48:55","新北市三峽區民生街90號","121.374158333333","24.9356766666667","6500900","三峽區"
"236070","105-UM","2018/09/20 19:48:53","新北市土城區水源街32巷12號","121.441123333333","24.9758333333333","6501300","土城區"
"236042","107-UM","2018/09/20 19:49:03","新北市土城區裕民路259巷12號","121.454961666667","24.9834466666667","6501300","土城區"
"236078","166-UM","2018/09/20 19:48:47","新北市土城區溪頭路77號","121.411388333333","24.9540066666667","6501300","土城區"
"236030","253-BX","2018/09/20 19:48:47","新北市土城區中央路一段290號","121.443326666667","24.98242","6501300","土城區"
"236026","269-VK","2018/09/20 19:49:04","新北市土城區中央路二段61巷26號","121.44329","24.9786683333333","6501300","土城區"
"236038","271-VK","2018/09/20 19:49:01","新北市土城區國際路158巷59-1號","121.468068333333","24.975005","6501300","土城區"
"236021","401-BY","2018/09/20 19:48:51","新北市土城區延吉街137巷12弄5號","121.470718333333","24.9854366666667","6501300","土城區"
"236059","912-UM","2018/09/20 19:48:53","新北市土城區中央路一段148號","121.446143333333","24.9873916666667","6501300","土城區"
"236049","913-UM","2018/09/20 19:48:49","新北市土城區青雲路182號","121.459123333333","24.9822766666667","6501300","土城區"
"236063","915-UM","2018/09/20 19:49:02","新北市土城區延和路101號","121.467456666667","24.9902616666667","6501300","土城區"
"236055","AAC-216","2018/09/20 19:48:49","新北市土城區延和路109號","121.467753333333","24.9902883333333","6501300","土城區"
"242036","AAC-296","2018/09/20 19:49:06","新北市新莊區民安路207巷30弄5號","121.427986666667","25.0239333333333","6500500","新莊區"
"242058","986-R7","2018/09/20 19:48:47","新北市新莊區新樹路69-34號","121.438271666667","25.02904","6500500","新莊區"
"242056","751-BX","2018/09/20 19:48:52","新北市新莊區新泰路52號","121.449368333333","25.034545","6500500","新莊區"
"242029","705-TV","2018/09/20 19:48:57","新北市新莊區中平路256-1號","121.444833333333","25.0496916666667","6500500","新莊區"
"242048","497-BY","2018/09/20 19:48:46","新北市新莊區建安街92巷7號","121.425855","25.0242","6500500","新莊區"
"242002","440-UM","2018/09/20 19:48:45","新北市新莊區新泰路2-11號","121.450126666667","25.0324883333333","6500500","新莊區"
"242039","415-TV","2018/09/20 19:49:01","新北市新莊區民安路299巷39號","121.429393333333","25.0233083333333","6500500","新莊區"
"242023","362-BY","2018/09/20 19:49:00","新北市新莊區化成路220號","121.465615","25.0466733333333","6500500","新莊區"
"242061","353-BY","2018/09/20 19:49:07","新北市新莊區瓊林路118號","121.442235","25.0255683333333","6500500","新莊區"
"242034","135-UY","2018/09/20 19:49:00","新北市新莊區建中街90巷7弄17號","121.44567","25.0374783333333","6500500","新莊區"
"242013","173-VK","2018/09/20 19:49:04","新北市新莊區中誠街90號","121.450133333333","25.0478916666667","6500500","新莊區"
"242007","176-VK","2018/09/20 19:48:55","新北市新莊區思源路593巷30號","121.457638333333","25.0597416666667","6500500","新莊區"
"242017","346-TH","2018/09/20 19:48:54","新北市新莊區中華路一段238號","121.452685","25.0434216666667","6500500","新莊區"
"242031","348-TH","2018/09/20 19:49:02","新北市新莊區忠孝街89號","121.443908333333","25.0368383333333","6500500","新莊區"
"242004","349-TH","2018/09/20 19:49:04","新北市新莊區化成路63巷24弄11號","121.46279","25.045865","6500500","新莊區"
"242021","350-TH","2018/09/20 19:49:04","新北市新莊區中正路287號","121.448733333333","25.0353283333333","6500500","新莊區"
"242015","351-TH","2018/09/20 19:49:06","新北市新莊區中平路82巷36-2號","121.446561666667","25.04486","6500500","新莊區"
"238015","755-BX","2018/09/20 19:49:00","新北市樹林區日新街68號","121.421806666667","24.9907816666667","6500700","樹林區"
"238023","601-UM","2018/09/20 19:48:51","新北市樹林區三福街114號","121.406606666667","25.0163866666667","6500700","樹林區"
"238019","599-UM","2018/09/20 19:48:53","新北市樹林區中山路三段38號","121.394951666667","24.9726183333333","6500700","樹林區"
"238021","KEA-2539","2018/09/20 19:48:50","新北市樹林區佳園路三段113巷21號","121.387981666667","24.9502316666667","6500700","樹林區"
"238025","303-VK","2018/09/20 19:49:06","新北市樹林區中山路一段247號","121.42059","24.9866733333333","6500700","樹林區"
"238017","283-BY","2018/09/20 19:48:45","新北市樹林區保安街二段45巷40號","121.414215","25.0002483333333","6500700","樹林區"
"238014","282-BY","2018/09/20 19:48:57","新北市樹林區千歲街68號","121.426193333333","24.9974866666667","6500700","樹林區"
"238026","172-UY","2018/09/20 19:49:04","新北市樹林區柑園街一段375號","121.388443333333","24.95581","6500700","樹林區"
"239006","292-BY","2018/09/20 19:48:58","新北市鶯歌區文昌街27號","121.35049","24.9514566666667","6500800","鶯歌區"
"239004","193-VK","2018/09/20 19:48:58","新北市鶯歌區二甲路中心巷9號","121.337443333333","24.9359516666667","6500800","鶯歌區"
"221008","489-VK","2018/09/20 19:48:48","新北市汐止區康寧街141巷55-3號","121.620778333333","25.0675383333333","6501100","汐止區"
"221036","130-UY","2018/09/20 19:48:55","新北市汐止區汐萬路一段204號","121.652156666667","25.0721383333333","6501100","汐止區"
"221015","131-UY","2018/09/20 19:47:05","新北市汐止區汐萬路一段39號","121.654963333333","25.0690416666667","6501100","汐止區"
"221010","269-BY","2018/09/20 19:48:56","新北市汐止區汐萬路一段333巷1號","121.649831666667","25.076145","6501100","汐止區"
"221012","278-VK","2018/09/20 19:48:59","新北市汐止區大同路三段438號","121.683115","25.0727833333333","6501100","汐止區"
"221023","279-VK","2018/09/20 19:48:57","新北市汐止區民族六街4巷2號","121.629376666667","25.0702966666667","6501100","汐止區"
"221032","280-BY","2018/09/20 19:48:50","新北市汐止區橫科路403巷18號","121.625063333333","25.0475533333333","6501100","汐止區"
"221027","281-BY","2018/09/20 19:49:05","新北市汐止區南昌街2巷15號","121.662615","25.068835","6501100","汐止區"
"221029","298-VK","2018/09/20 19:48:52","新北市汐止區康寧街901號","121.651468333333","25.0749816666667","6501100","汐止區"
"221021","299-VK","2018/09/20 19:48:50","新北市汐止區新興路85巷1號","121.657938333333","25.061545","6501100","汐止區"
"221031","353-TW","2018/09/20 19:49:01","新北市汐止區福德二路30號","121.634533333333","25.0679833333333","6501100","汐止區"
"221035","622-UM","2018/09/20 19:48:51","新北市汐止區長江街13巷5弄1號","121.65472","25.071505","6501100","汐止區"
"221025","623-UM","2018/09/20 19:49:02","新北市汐止區秀峰路81巷19號","121.660955","25.0647016666667","6501100","汐止區"
"221038","646-BX","2018/09/20 19:48:50","新北市汐止區忠孝東路355號","121.665671666667","25.0706016666667","6501100","汐止區"
"221002","707-TV","2018/09/20 19:48:59","新北市汐止區大同路一段219巷27號","121.633226666667","25.0583833333333","6501100","汐止區"
"221018","753-BX","2018/09/20 19:48:59","新北市汐止區大同路二段516號","121.660935","25.068365","6501100","汐止區"
"220079","145-BY","2018/09/20 19:49:09","新北市板橋區建國街54巷27號","121.459846666667","25.0171466666667","6500100","板橋區"
"220082","610-BX","2018/09/20 19:49:06","新北市板橋區溪北路49號","121.42769","24.9898766666667","6500100","板橋區"
"220101","245-BX","2018/09/20 19:48:44","新北市板橋區縣民大道三段79巷13號","121.475123333333","25.0219916666667","6500100","板橋區"
"220098","257-TC","2018/09/20 19:48:49","新北市板橋區裕民街149號","121.458646666667","25.0271566666667","6500100","板橋區"
"220056","276-BY","2018/09/20 19:48:51","新北市板橋區四川路二段99巷2弄1號","121.452753333333","24.9942316666667","6500100","板橋區"
"220072","277-BY","2018/09/20 19:49:05","新北市板橋區金門街127巷10號","121.433281666667","24.9911533333333","6500100","板橋區"
"220094","283-UM","2018/09/20 19:48:51","新北市板橋區長江路一段216號","121.462986666667","25.0309233333333","6500100","板橋區"
"220071","283-VK","2018/09/20 19:49:03","新北市板橋區廣權路85號","121.464085","24.9924983333333","6500100","板橋區"
"220053","285-VK","2018/09/20 19:49:03","新北市板橋區民生路一段56號","121.474288333333","25.0150283333333","6500100","板橋區"
"220083","286-VK","2018/09/20 19:48:53","新北市板橋區僑中二街114巷1號","121.445693333333","25.0065816666667","6500100","板橋區"
"220061","293-UM","2018/09/20 19:49:08","新北市板橋區漢生東路113巷27號","121.468435","25.0156366666667","6500100","板橋區"
"220075","303-R5","2018/09/20 19:49:01","新北市板橋區金華街10巷54號","121.457113333333","25.02005","6500100","板橋區"
"220062","305-R5","2018/09/20 19:49:04","新北市板橋區三民路二段81巷27弄31號","121.4814","25.0176716666667","6500100","板橋區"
"220092","307-R5","2018/09/20 19:48:53","新北市板橋區陽明街164巷36號","121.46507","25.024455","6500100","板橋區"
"220080","461-BY","2018/09/20 19:48:57","新北市板橋區大觀路二段37巷17號","121.44777","25.002825","6500100","板橋區"
"220064","486-VK","2018/09/20 19:49:01","新北市板橋區實踐路82號","121.463903333333","25.0053183333333","6500100","板橋區"
"220035","560-BX","2018/09/20 19:48:50","新北市板橋區金華街69號","121.457585","25.02071","6500100","板橋區"
"220103","561-BX","2018/09/20 19:48:58","新北市板橋區陽明街29號","121.465345","25.0218766666667","6500100","板橋區"
"220084","568-UM","2018/09/20 19:49:01","新北市板橋區滿平街44號","121.42686","24.9897233333333","6500100","板橋區"
"220063","609-BX","2018/09/20 19:48:46","新北市板橋區中山路二段337號","121.479455","25.0189133333333","6500100","板橋區"
"220081","630-UY","2018/09/20 19:49:00","新北市板橋區大觀路一段29巷91號","121.450521666667","25.006325","6500100","板橋區"
"220091","637-BX","2018/09/20 19:49:06","新北市板橋區懷德街127巷20號","121.479721666667","25.031105","6500100","板橋區"
"220057","686-BX","2018/09/20 19:48:55","新北市板橋區信義路200號","121.459845","24.9910283333333","6500100","板橋區"
"220077","687-BX","2018/09/20 19:49:03","新北市板橋區僑中一街138號","121.445375","25.0117716666667","6500100","板橋區"
"220093","689-BX","2018/09/20 19:48:50","新北市板橋區長江路二段219號","121.468106666667","25.0324783333333","6500100","板橋區"
"220054","741-BX","2018/09/20 19:48:59","新北市板橋區忠孝路忠義巷17弄2號","121.46625","25.0038383333333","6500100","板橋區"
"220102","KEA-2699","2018/09/20 19:48:58","新北市板橋區松柏街64-2號","121.475776666667","25.0303233333333","6500100","板橋區"
"220055","827-TW","2018/09/20 19:48:48","新北市板橋區信義路1巷26弄50號","121.45989","24.9966116666667","6500100","板橋區"
"220067","829-TW","2018/09/20 19:48:55","新北市板橋區長安街140號","121.472756666667","25.0099566666667","6500100","板橋區"
"220090","830-TW","2018/09/20 19:48:50","新北市板橋區新海路109巷1弄2號","121.460733333333","25.0224133333333","6500100","板橋區"
"220096","831-TW","2018/09/20 19:49:03","新北市板橋區民生路二段226巷30號","121.471135","25.0220833333333","6500100","板橋區"
"220089","833-TW","2018/09/20 19:48:46","新北市板橋區龍泉街82巷10號","121.455868333333","25.0255666666667","6500100","板橋區"
"220074","895-R6","2018/09/20 19:49:05","新北市板橋區東門街36-5號","121.458245","25.0078566666667","6500100","板橋區"
"220073","985-R7","2018/09/20 19:48:57","新北市板橋區大仁街31號","121.455275","25.016735","6500100","板橋區"
"220097","AAC-210","2018/09/20 19:48:54","新北市板橋區文化路一段307巷3號","121.464661666667","25.0193016666667","6500100","板橋區"
"220070","AAC-253","2018/09/20 19:49:05","新北市板橋區民族路89號","121.466268333333","25.008405","6500100","板橋區"
"235068","KEA-2873","2018/09/20 19:48:52","新北市中和區泰和街12號","121.499855","25.0009833333333","6500300","中和區"
"235061","KEA-2875","2018/09/20 19:49:07","新北市中和區員山路323號","121.48121","25.000605","6500300","中和區"
"235052","KEA-2876","2018/09/20 19:48:54","新北市中和區華新街192巷34號","121.506136666667","24.98345","6500300","中和區"
