"lineid","car","time","location","longitude","latitude","cityid","cityname"
"234046","148-BY","2018/09/20 20:08:59","新北市永和區得和路321號","121.523451666667","24.9995683333333","6500400","永和區"
"234007","207-UY","2018/09/20 20:08:55","新北市永和區保順路51巷5號","121.502698333333","25.0105516666667","6500400","永和區"
"234081","298-R6","2018/09/20 20:08:53","新北市永和區國中路12號","121.524298333333","25.0049016666667","6500400","永和區"
"234038","336-UY","2018/09/20 20:08:58","新北市永和區成功路一段84號","121.526696666667","25.0029433333333","6500400","永和區"
"234064","337-UY","2018/09/20 20:08:55","新北市永和區永利路138號","121.521898333333","25.0028383333333","6500400","永和區"
"234086","338-UY","2018/09/20 20:09:03","新北市永和區福和路233號","121.518525","25.00752","6500400","永和區"
"234070","552-UM","2018/09/20 20:09:01","新北市永和區福和路214號","121.519483333333","25.00771","6500400","永和區"
"234017","745-BX","2018/09/20 20:09:03","新北市永和區文化路92號","121.513865","25.0153033333333","6500400","永和區"
"234030","746-BX","2018/09/20 20:09:04","新北市永和區民權路49巷5弄24號","121.52165","24.997845","6500400","永和區"
"234054","KEA-2590","2018/09/20 20:09:02","新北市永和區博愛街23號","121.517813333333","25.0159116666667","6500400","永和區"
"234013","KEA-2591","2018/09/20 20:08:50","新北市永和區永貞路415號","121.507301666667","25.0093383333333","6500400","永和區"
"234061","AAD-866","2018/09/20 20:08:55","新北市永和區中正路151巷14號","121.515621666667","24.9987966666667","6500400","永和區"
"234042","862-TW","2018/09/20 20:08:53","新北市永和區雙和街52巷1號","121.508965","25.003275","6500400","永和區"
"234050","863-TW","2018/09/20 20:08:56","新北市永和區保安路292號","121.505118333333","25.01187","6500400","永和區"
"234011","9373-KE","2018/09/20 20:09:02","新北市永和區環河西路二段241號","121.500643333333","25.009175","6500400","永和區"
"249005","172-UM","2018/09/20 20:09:04","新北市八里區下罟子50-1號","121.383063333333","25.1385033333333","6502300","八里區"
"249001","173-UM","2018/09/20 20:09:04","新北市八里區中華路二段310號","121.40375","25.14843","6502300","八里區"
"249004","303-UY","2018/09/20 20:08:51","新北市八里區中山路一段418-7號","121.410771666667","25.1583633333333","6502300","八里區"
"249002","305-UY","2018/09/20 20:08:54","新北市八里區龍米路一段2-1號","121.458143333333","25.1149333333333","6502300","八里區"
"249003","593-UM","2018/09/20 20:08:53","新北市八里區中山路二段540巷3號","121.397136666667","25.1468183333333","6502300","八里區"
"248014","025-BX","2018/09/20 20:09:03","新北市五股區成泰路三段74號","121.443525","25.0896566666667","6501500","五股區"
"248016","026-BX","2018/09/20 20:08:55","新北市五股區凌雲路一段158巷50弄21號","121.447876666667","25.10439","6501500","五股區"
"248008","095-VK","2018/09/20 20:09:05","新北市五股區中興路一段1巷12弄13號","121.46935","25.071005","6501500","五股區"
"248020","225-UY","2018/09/20 20:08:48","新北市五股區凌雲路二段28-7號","121.442095","25.102185","6501500","五股區"
"248012","247-BX","2018/09/20 20:09:05","新北市五股區六合街118號","121.43029","25.0908316666667","6501500","五股區"
"248010","272-BY","2018/09/20 20:08:57","新北市五股區成泰路一段7巷66號","121.432611666667","25.0678833333333","6501500","五股區"
"248004","677-BX","2018/09/20 20:08:56","新北市五股區成泰路一段173-1號","121.43522","25.0746966666667","6501500","五股區"
"248002","678-BX","2018/09/20 20:09:05","新北市五股區成泰路三段277號","121.44716","25.0940783333333","6501500","五股區"
"234023","9380-KE","2018/09/20 20:09:00","新北市永和區中正路654巷45號","121.518073333333","25.0085733333333","6500400","永和區"
"234077","969-R7","2018/09/20 20:08:52","新北市永和區民光街18號","121.515798333333","24.9959066666667","6500400","永和區"
"234074","AAC-211","2018/09/20 20:08:57","新北市永和區豫溪街185號","121.522495","25.0103733333333","6500400","永和區"
"234067","AAC-212","2018/09/20 20:08:58","新北市永和區保平路214巷9號","121.509005","25.0066666666667","6500400","永和區"
"234003","AAC-295","2018/09/20 20:09:00","新北市永和區中正路620號","121.516983333333","25.0079033333333","6500400","永和區"
"243013","AAD-798","2018/09/20 20:09:03","新北市泰山區明志路三段74巷8號","121.424478333333","25.041805","6501600","泰山區"
"243009","297-R6","2018/09/20 20:08:57","新北市泰山區泰林路二段142巷5號","121.434675","25.06007","6501600","泰山區"
"243016","KEA-2801","2018/09/20 20:08:58","新北市泰山區貴陽街3號","121.421025","25.03358","6501600","泰山區"
"243015","421-VK","2018/09/20 20:09:05","新北市泰山區明志路一段350號","121.430926666667","25.0584916666667","6501600","泰山區"
"243011","KEA-2215","2018/09/20 20:09:08","新北市泰山區明志路三段277號","121.423041666667","25.0369566666667","6501600","泰山區"
"243010","KEA-2216","2018/09/20 20:09:03","新北市泰山區明志路二段214巷16弄43號","121.426856666667","25.05045","6501600","泰山區"
"243012","646-TV","2018/09/20 20:08:47","新北市泰山區楓江路39-2號","121.435105","25.0625516666667","6501600","泰山區"
"243014","680-BX","2018/09/20 20:08:53","新北市泰山區明志路一段30號","121.433546666667","25.0654333333333","6501600","泰山區"
"222003","436-BY","2018/09/20 20:08:57","新北市深坑區埔新街60號","121.620231666667","25.002445","6501800","深坑區"
"222002","659-BX","2018/09/20 20:08:51","新北市深坑區北深路三段129號","121.604036666667","25.0025516666667","6501800","深坑區"
"231041","002-UM","2018/09/20 20:09:03","新北市新店區中正路460號","121.534045","24.9794033333333","6500600","新店區"
"231059","046-UY","2018/09/20 20:09:00","新北市新店區安成街25號","121.510065","24.9608866666667","6500600","新店區"
"231040","047-UY","2018/09/20 20:08:59","新北市新店區中正路110號","121.543003333333","24.9706383333333","6500600","新店區"
"231044","106-UY","2018/09/20 20:08:54","新北市新店區寶慶街66號","121.542","24.9867983333333","6500600","新店區"
"231052","108-UY","2018/09/20 20:08:47","新北市新店區新烏路三段寶島巷12號","121.552053333333","24.898755","6500600","新店區"
"231047","187-VK","2018/09/20 20:08:57","新北市新店區寶橋路69-1號","121.545488333333","24.9751116666667","6500600","新店區"
"231054","KEA-2219","2018/09/20 20:08:53","新北市新店區檳榔路2號","121.540881666667","24.9648633333333","6500600","新店區"
"231042","268-BY","2018/09/20 20:09:06","新北市新店區中興路二段89號","121.547025","24.9714666666667","6500600","新店區"
"231051","278-BY","2018/09/20 20:08:46","新北市新店區中央五街7號","121.530023333333","24.9741783333333","6500600","新店區"
"231056","4715-K9","2018/09/20 20:09:06","新北市新店區中正路275巷8號","121.537433333333","24.9739533333333","6500600","新店區"
"231067","4772-VM","2018/09/20 20:09:04","新北市新店區溪洲路101-1號","121.531686666667","24.96213","6500600","新店區"
"231065","512-UM","2018/09/20 20:09:05","新北市新店區安祥路106巷339號","121.472731666667","24.95918","6500600","新店區"
"231049","513-UM","2018/09/20 20:08:58","新北市新店區北新路二段139巷9-1號","121.542193333333","24.9755933333333","6500600","新店區"
"231063","616-UM","2018/09/20 20:09:07","新北市新店區黎明路55巷2號","121.50237","24.948205","6500600","新店區"
"231061","619-UM","2018/09/20 20:08:49","新北市新店區安興路80號","121.515228333333","24.9758533333333","6500600","新店區"
"231068","718-UY","2018/09/20 20:08:54","新北市新店區中興路三段202號","121.543895","24.9820133333333","6500600","新店區"
"231064","719-UM","2018/09/20 20:01:29","新北市新店區安民街5號","121.515198333333","24.9642016666667","6500600","新店區"
"231062","720-UM","2018/09/20 20:08:53","新北市新店區安康路一段76號","121.528238333333","24.96193","6500600","新店區"
"231060","897-TW","2018/09/20 20:08:53","新北市新店區安康路三段358號","121.485963333333","24.95166","6500600","新店區"
"231045","898-TW","2018/09/20 20:08:52","新北市新店區北宜路二段2號","121.547558333333","24.9518633333333","6500600","新店區"
"231043","899-TW","2018/09/20 20:08:56","新北市新店區民族路190號","121.53629","24.9756833333333","6500600","新店區"
"231055","AKT-0513","2018/09/20 20:09:03","新北市新店區北新路一段297巷37號","121.540298333333","24.9684233333333","6500600","新店區"
"241011","013-R5","2018/09/20 20:09:04","新北市三重區三和路三段47巷13號","121.496048333333","25.0716666666667","6500200","三重區"
"241028","022-UY","2018/09/20 20:08:50","新北市三重區中正南路186號","121.493973333333","25.0563","6500200","三重區"
"241008","059-VK","2018/09/20 20:09:06","新北市三重區永福街197巷35號","121.478286666667","25.0743666666667","6500200","三重區"
"241031","061-VK","2018/09/20 20:08:54","新北市三重區過圳街9-1號","121.488808333333","25.0602366666667","6500200","三重區"
"241015","062-VK","2018/09/20 20:09:03","新北市三重區福德北路24號","121.502241666667","25.0648833333333","6500200","三重區"
"241017","063-VK","2018/09/20 20:08:53","新北市三重區大智街108號","121.493225","25.0667333333333","6500200","三重區"
"241024","065-VK","2018/09/20 20:09:02","新北市三重區中正北路165巷2號","121.478758333333","25.0694066666667","6500200","三重區"
"241026","066-VK","2018/09/20 20:09:07","新北市三重區福德南路65巷1號","121.502358333333","25.0605266666667","6500200","三重區"
"241002","090-VK","2018/09/20 20:08:54","新北市三重區仁義街208號","121.496231666667","25.082215","6500200","三重區"
"241003","091-VK","2018/09/20 20:09:05","新北市三重區富華街22號","121.489658333333","25.08251","6500200","三重區"
"251014","742-BX","2018/09/20 20:08:59","新北市淡水區石頭厝1號","121.458741666667","25.2355083333333","6501000","淡水區"
"241005","262-UM","2018/09/20 20:09:00","新北市三重區五華街180巷36號","121.488063333333","25.085155","6500200","三重區"
"241029","265-UM","2018/09/20 20:08:55","新北市三重區光明路23號","121.49115","25.0585633333333","6500200","三重區"
"241016","266-UM","2018/09/20 20:08:46","新北市三重區正德街58號","121.495505","25.063315","6500200","三重區"
"241009","267-UM","2018/09/20 20:09:00","新北市三重區力行路二段206號","121.483628333333","25.07785","6500200","三重區"
"241018","268-UM","2018/09/20 20:08:50","新北市三重區大智街51號","121.492785","25.06766","6500200","三重區"
"241032","269-UM","2018/09/20 20:08:53","新北市三重區捷運路61號","121.483481666667","25.0556133333333","6500200","三重區"
"241013","270-UM","2018/09/20 20:09:03","新北市三重區三和路三段151巷43號","121.493873333333","25.0742983333333","6500200","三重區"
"241025","271-UM","2018/09/20 20:08:50","新北市三重區中正北路169號","121.478305","25.0693666666667","6500200","三重區"
"241007","398-BY","2018/09/20 20:09:01","新北市三重區三和路四段111-9號","121.486523333333","25.0775866666667","6500200","三重區"
"241035","KEA-2210","2018/09/20 20:09:08","新北市三重區平安街53號","121.497836666667","25.0642116666667","6500200","三重區"
"241004","475-VK","2018/09/20 20:09:02","新北市三重區自強路四段107號","121.491576666667","25.0799366666667","6500200","三重區"
"241020","478-VK","2018/09/20 20:09:01","新北市三重區大智街179巷38號","121.490938333333","25.072985","6500200","三重區"
"241014","543-UM","2018/09/20 20:09:01","新北市三重區安和路41號","121.500958333333","25.0694233333333","6500200","三重區"
"241023","545-UM","2018/09/20 20:09:01","新北市三重區頂崁街225號","121.477136666667","25.068175","6500200","三重區"
"241001","547-UM","2018/09/20 20:09:03","新北市三重區溪尾街24-1號","121.49102","25.0763833333333","6500200","三重區"
"241019","KEA-2593","2018/09/20 20:08:55","新北市三重區自強路二段33巷48號","121.4906","25.0698683333333","6500200","三重區"
"241006","AAD-863","2018/09/20 20:08:46","新北市三重區力行路二段57號","121.482273333333","25.0746833333333","6500200","三重區"
"241030","743-BX","2018/09/20 20:08:57","新北市三重區集美街77號","121.488321666667","25.053465","6500200","三重區"
"241022","887-TS","2018/09/20 20:08:57","新北市三重區重陽路二段1號","121.486801666667","25.0617816666667","6500200","三重區"
"241012","941-UM","2018/09/20 20:09:00","新北市三重區仁愛街125巷32號","121.497795","25.0758983333333","6500200","三重區"
"241033","AAC-255","2018/09/20 20:09:06","新北市三重區光復路一段68巷28號","121.470786666667","25.04916","6500200","三重區"
"235066","003-UY","2018/09/20 20:08:59","新北市中和區水源路127巷2弄2號","121.508091666667","25.0040683333333","6500300","中和區"
"235039","097-UM","2018/09/20 20:09:02","新北市中和區大勇街46巷2號","121.517355","24.9936216666667","6500300","中和區"
"235065","098-UM","2018/09/20 20:09:04","新北市中和區永和路90巷2弄17號","121.498038333333","25.00558","6500300","中和區"
"235040","150-BY","2018/09/20 20:08:57","新北市中和區中和路262號","121.508538333333","24.9994766666667","6500300","中和區"
"247012","KEA-2869","2018/09/20 20:09:06","新北市蘆洲區民族路191-1號","121.478553333333","25.088925","6501400","蘆洲區"
"235050","4979-A6","2018/09/20 20:08:57","新北市中和區安樂路49號","121.511991666667","24.9932866666667","6500300","中和區"
"235069","4980-A6","2018/09/20 20:08:56","新北市中和區景新街132巷8-4號","121.504556666667","24.9981133333333","6500300","中和區"
"235070","558-UM","2018/09/20 20:08:52","新北市中和區中正路580號","121.486045","24.994825","6500300","中和區"
"235054","640-BX","2018/09/20 20:08:55","新北市中和區民樂路81號","121.484725","25.0013716666667","6500300","中和區"
"235046","733-UM","2018/09/20 20:09:05","新北市中和區忠孝街31巷25-7號","121.510065","24.9841033333333","6500300","中和區"
"235051","157-BY","2018/09/20 20:08:51","新北市中和區復興路12號","121.505846666667","24.9898416666667","6500300","中和區"
"235037","AAC-213","2018/09/20 20:09:02","新北市中和區立人街3號","121.521803333333","24.9939533333333","6500300","中和區"
"235059","AAC-215","2018/09/20 20:09:05","新北市中和區圓通路335巷39號","121.493953333333","24.989265","6500300","中和區"
"220068","013-TV","2018/09/20 20:08:54","新北市板橋區中山路二段光榮巷30弄23號","121.484185","25.020195","6500100","板橋區"
"220106","075-UY","2018/09/20 20:08:56","新北市板橋區文聖街13號","121.475565","25.0323616666667","6500100","板橋區"
"220069","AAD-861","2018/09/20 20:08:59","新北市板橋區大華街182巷4號","121.458923333333","25.0033666666667","6500100","板橋區"
"247002","893-R6","2018/09/20 20:08:59","新北市蘆洲區永康街6號","121.459261666667","25.086035","6501400","蘆洲區"
"247024","500-BY","2018/09/20 20:08:46","新北市蘆洲區光明路102號","121.463325","25.0880416666667","6501400","蘆洲區"
"247014","339-TH","2018/09/20 20:09:07","新北市蘆洲區中山二路269號","121.469918333333","25.0795266666667","6501400","蘆洲區"
"247006","337-TH","2018/09/20 20:08:57","新北市蘆洲區中山二路286號","121.468781666667","25.0778516666667","6501400","蘆洲區"
"247008","336-TH","2018/09/20 20:09:07","新北市蘆洲區中山一路135巷6弄18號","121.47519","25.0810066666667","6501400","蘆洲區"
"247020","057-VK","2018/09/20 20:08:52","新北市蘆洲區民權路106巷5弄7號","121.474228333333","25.0891283333333","6501400","蘆洲區"
"247010","056-VK","2018/09/20 20:08:48","新北市蘆洲區集賢路406號","121.480065","25.08174","6501400","蘆洲區"
"247018","007-UY","2018/09/20 20:09:01","新北市蘆洲區民族路314巷5號","121.47762","25.0903283333333","6501400","蘆洲區"
"247004","002-UY","2018/09/20 20:08:56","新北市蘆洲區永安南路二段328巷15弄1號","121.456658333333","25.0837583333333","6501400","蘆洲區"
"247022","001-UY","2018/09/20 20:08:59","新北市蘆洲區三民路193號","121.470513333333","25.0876516666667","6501400","蘆洲區"
"226004","312-R5","2018/09/20 20:09:03","新北市平溪區十分里十分街311號","121.775148333333","25.0435216666667","6502400","平溪區"
"224010","AGQ-8101","2018/09/20 20:08:52","新北市瑞芳區輕便路30號","121.84608","25.1106766666667","6501200","瑞芳區"
"224002","639-TC","2018/09/20 20:08:54","新北市瑞芳區明燈路一段45巷1號","121.821563333333","25.106175","6501200","瑞芳區"
"222001","KEA-2212","2018/09/20 20:09:01","新北市深坑區北深路三段187號","121.601268333333","25.0036616666667","6501800","深坑區"
"208002","KEA-2872","2018/09/20 20:09:00","新北市金山區南勢62號","121.627376666667","25.2205316666667","6502700","金山區"
"208003","665-BX","2018/09/20 20:08:52","新北市金山區永興里濆水路1-1號","121.63008","25.2642066666667","6502700","金山區"
"208001","761-BX","2018/09/20 20:08:55","新北市金山區南勢72號","121.62684","25.2203683333333","6502700","金山區"
"251009","008-UM","2018/09/20 20:08:54","新北市淡水區清水街2號","121.445456666667","25.17039","6501000","淡水區"
"251005","010-UM","2018/09/20 20:09:07","新北市淡水區學府路116號","121.45019","25.1723666666667","6501000","淡水區"
"251013","KEA-2871","2018/09/20 20:08:55","新北市淡水區奎柔山路460號","121.463796666667","25.2046533333333","6501000","淡水區"
"251016","179-VK","2018/09/20 20:08:57","新北市淡水區番子田18-6號","121.456193333333","25.2298566666667","6501000","淡水區"
"251015","180-VK","2018/09/20 20:08:56","新北市淡水區淡金路二段507號","121.447076666667","25.18942","6501000","淡水區"
"251008","181-VK","2018/09/20 20:08:58","新北市淡水區淡海路72巷30弄17號","121.425121666667","25.182585","6501000","淡水區"
"251010","413-VK","2018/09/20 20:08:54","新北市淡水區崁頂五路303號","121.424795","25.199165","6501000","淡水區"
"251012","441-VK","2018/09/20 20:08:58","新北市淡水區淡金路三段260號","121.448958333333","25.2065516666667","6501000","淡水區"
"251007","442-VK","2018/09/20 20:08:49","新北市淡水區竿蓁二街37號","121.453763333333","25.162855","6501000","淡水區"
"251004","443-VK","2018/09/20 20:09:02","新北市淡水區民權路177巷45號","121.460641666667","25.1341516666667","6501000","淡水區"
"251006","561-UM","2018/09/20 20:08:55","新北市淡水區北新路141巷29號","121.448135","25.1795966666667","6501000","淡水區"
"251003","766-UM","2018/09/20 20:09:04","新北市淡水區中山北路二段189巷15弄29號","121.443415","25.18418","6501000","淡水區"
"207003","550-UM","2018/09/20 20:08:53","新北市萬里區大鵬里萬里加投186號","121.642825","25.2156783333333","6502800","萬里區"
"207004","225-TW","2018/09/20 20:08:51","新北市萬里區北基里孝七街29號","121.682481666667","25.1767","6502800","萬里區"
"252001","292-VK","2018/09/20 20:09:01","新北市三芝區公正街66號","121.499818333333","25.2574666666667","6502100","三芝區"
"252002","AAC-283","2018/09/20 20:08:49","新北市三芝區三民街2號","121.504011666667","25.2579783333333","6502100","三芝區"
"237001","361-BY","2018/09/20 20:08:52","新北市三峽區隆恩街245號","121.357546666667","24.9408983333333","6500900","三峽區"
"237009","210-TH","2018/09/20 20:09:00","新北市三峽區民族街78巷8號","121.368655","24.9295033333333","6500900","三峽區"
"237008","302-VK","2018/09/20 20:08:49","新北市三峽區中華路43巷12號","121.373065","24.9305783333333","6500900","三峽區"
"237006","5529-G3","2018/09/20 20:08:58","新北市三峽區大利路24號","121.367136666667","24.911665","6500900","三峽區"
"237011","KEA-2596","2018/09/20 20:09:04","新北市三峽區中正路一段532號","121.36886","24.92012","6500900","三峽區"
"237016","649-BX","2018/09/20 20:09:05","新北市三峽區介壽路二段138巷6號","121.395081666667","24.935255","6500900","三峽區"
"237005","AKY-6261","2018/09/20 20:08:55","新北市三峽區三樹路98巷93號","121.382233333333","24.9394533333333","6500900","三峽區"
"236070","105-UM","2018/09/20 20:08:52","新北市土城區中央路三段147巷2弄13號","121.432065","24.9648766666667","6501300","土城區"
"236042","107-UM","2018/09/20 20:09:03","新北市土城區學成路22巷1弄1號","121.45313","24.987145","6501300","土城區"
"236078","166-UM","2018/09/20 20:09:04","新北市土城區三民路61巷1號","121.419668333333","24.9643266666667","6501300","土城區"
"236030","253-BX","2018/09/20 20:09:07","新北市土城區中央路一段120號","121.446368333333","24.9881066666667","6501300","土城區"
"236026","269-VK","2018/09/20 20:09:03","新北市土城區中央路二段293號","121.44458","24.9842583333333","6501300","土城區"
"236014","270-VK","2018/09/20 20:08:52","新北市土城區廣興街36號","121.455271666667","24.99172","6501300","土城區"
"236038","271-VK","2018/09/20 20:09:03","新北市土城區延吉街298號","121.464475","24.98409","6501300","土城區"
"236021","401-BY","2018/09/20 20:08:54","新北市土城區延吉街23巷17號","121.47391","24.98738","6501300","土城區"
"236059","912-UM","2018/09/20 20:08:53","新北市土城區慶安街107號","121.440268333333","24.9720583333333","6501300","土城區"
"236049","913-UM","2018/09/20 20:09:08","新北市土城區清水路269號","121.463633333333","24.9852616666667","6501300","土城區"
"236063","915-UM","2018/09/20 20:08:56","新北市土城區立德路135巷10號","121.464818333333","24.986875","6501300","土城區"
"236055","AAC-216","2018/09/20 20:08:49","新北市土城區中華路一段108號","121.44415","24.98681","6501300","土城區"
"242036","AAC-296","2018/09/20 20:09:06","新北市新莊區建安街9巷9號","121.429258333333","25.026845","6500500","新莊區"
"242058","986-R7","2018/09/20 20:08:47","新北市新莊區八德街142號","121.423758333333","25.0202266666667","6500500","新莊區"
"242056","751-BX","2018/09/20 20:08:52","新北市新莊區新莊路649巷15弄1號","121.445026666667","25.031525","6500500","新莊區"
"242029","705-TV","2018/09/20 20:08:53","新北市新莊區中原路319-1號","121.446653333333","25.054365","6500500","新莊區"
"242027","615-BX","2018/09/20 20:08:58","新北市新莊區幸福路732號","121.448788333333","25.04921","6500500","新莊區"
"242025","613-BX","2018/09/20 20:09:01","新北市新莊區五權一路12巷25弄21號","121.458633333333","25.06468","6500500","新莊區"
"242044","566-BX","2018/09/20 20:09:02","新北市新莊區中正路929巷7弄20號","121.411565","25.02012","6500500","新莊區"
"242048","497-BY","2018/09/20 20:09:06","新北市新莊區四維路182巷8號","121.421875","25.0218316666667","6500500","新莊區"
"242002","440-UM","2018/09/20 20:09:05","新北市新莊區中正路121-1號","121.459968333333","25.0385983333333","6500500","新莊區"
"242039","415-TV","2018/09/20 20:09:01","新北市新莊區龍安路478號","121.426626666667","25.0178783333333","6500500","新莊區"
"242009","413-TV","2018/09/20 20:09:05","新北市新莊區昌平街49號","121.454781666667","25.0528133333333","6500500","新莊區"
"242046","400-BY","2018/09/20 20:09:09","新北市新莊區裕民街55巷14號","121.419088333333","25.0236083333333","6500500","新莊區"
"242023","362-BY","2018/09/20 20:09:00","新北市新莊區化成路608號","121.466195","25.0546833333333","6500500","新莊區"
"242061","353-BY","2018/09/20 20:08:47","新北市新莊區瓊林路96-5號","121.44396","25.0271916666667","6500500","新莊區"
"242011","132-UY","2018/09/20 20:09:08","新北市新莊區中信街54號","121.449185","25.050985","6500500","新莊區"
"242042","133-UY","2018/09/20 20:09:06","新北市新莊區雙鳳路134巷34號","121.412176666667","25.0284816666667","6500500","新莊區"
"242034","135-UY","2018/09/20 20:09:00","新北市新莊區中正路326號","121.446125","25.0348116666667","6500500","新莊區"
"242051","172-VK","2018/09/20 20:08:56","新北市新莊區民安西路172巷2弄4號","121.42585","25.0162","6500500","新莊區"
"242013","173-VK","2018/09/20 20:09:05","新北市新莊區幸福路678巷5號","121.450658333333","25.0496516666667","6500500","新莊區"
"242019","175-VK","2018/09/20 20:09:09","新北市新莊區長青街29號","121.457165","25.0422083333333","6500500","新莊區"
"242007","176-VK","2018/09/20 20:08:55","新北市新莊區思源路419巷1弄1號","121.459343333333","25.0524233333333","6500500","新莊區"
"242017","346-TH","2018/09/20 20:08:54","新北市新莊區中華路二段3巷5號","121.453323333333","25.0454316666667","6500500","新莊區"
"242031","348-TH","2018/09/20 20:09:02","新北市新莊區中正路380號","121.443038333333","25.0341333333333","6500500","新莊區"
"242004","349-TH","2018/09/20 20:09:06","新北市新莊區頭興街10號","121.465195","25.05355","6500500","新莊區"
"242021","350-TH","2018/09/20 20:09:04","新北市新莊區建中街48巷6弄1號","121.448316666667","25.0378383333333","6500500","新莊區"
"242015","351-TH","2018/09/20 20:09:06","新北市新莊區中平路26巷29號","121.446291666667","25.04333","6500500","新莊區"
"221008","489-VK","2018/09/20 20:08:48","新北市汐止區忠三街8號","121.624545","25.0784916666667","6501100","汐止區"
"221036","130-UY","2018/09/20 20:08:55","新北市汐止區新台五路二段23號","121.66267","25.0661533333333","6501100","汐止區"
"221015","131-UY","2018/09/20 20:09:00","新北市汐止區建成路17號","121.664451666667","25.0724666666667","6501100","汐止區"
"221010","269-BY","2018/09/20 20:08:57","新北市汐止區八連路一段206號","121.641341666667","25.0806083333333","6501100","汐止區"
"221012","278-VK","2018/09/20 20:08:59","新北市汐止區汐平路二段66號","121.697871666667","25.0612","6501100","汐止區"
"221023","279-VK","2018/09/20 20:08:57","新北市汐止區明峰街190號","121.628193333333","25.069765","6501100","汐止區"
"221032","280-BY","2018/09/20 20:08:50","新北市汐止區弘道街8巷3弄2號","121.617131666667","25.04809","6501100","汐止區"
"221027","281-BY","2018/09/20 20:09:05","新北市汐止區光明街28號","121.660205","25.0687333333333","6501100","汐止區"
"221029","298-VK","2018/09/20 20:08:52","新北市汐止區樟樹一路135巷20號","121.641435","25.0655816666667","6501100","汐止區"
"221021","299-VK","2018/09/20 20:08:50","新北市汐止區連興街142號","121.653995","25.06148","6501100","汐止區"
"221031","353-TW","2018/09/20 20:09:03","新北市汐止區原興路77號","121.6319","25.0663416666667","6501100","汐止區"
"221035","622-UM","2018/09/20 20:08:54","新北市汐止區長江街69號","121.656848333333","25.0721383333333","6501100","汐止區"
"221025","623-UM","2018/09/20 20:09:02","新北市汐止區秀峰路74號","121.65992","25.06433","6501100","汐止區"
"221038","646-BX","2018/09/20 20:08:50","新北市汐止區大同路三段66-3號","121.668095","25.0771783333333","6501100","汐止區"
"221002","707-TV","2018/09/20 20:08:59","新北市汐止區工建路216號","121.63662","25.0623816666667","6501100","汐止區"
"221018","753-BX","2018/09/20 20:08:59","新北市汐止區招商街145號","121.67057","25.06762","6501100","汐止區"
"220101","245-BX","2018/09/20 20:09:05","新北市板橋區雙十路二段47巷2弄29號","121.475056666667","25.0269166666667","6500100","板橋區"
"220098","257-TC","2018/09/20 20:08:49","新北市板橋區新海路72巷5弄36號","121.461556666667","25.0230383333333","6500100","板橋區"
"220053","285-VK","2018/09/20 20:08:53","新北市板橋區懷仁街91號","121.477486666667","25.0182016666667","6500100","板橋區"
"220083","286-VK","2018/09/20 20:08:53","新北市板橋區僑中二街90巷32號","121.444701666667","25.0094633333333","6500100","板橋區"
"220061","293-UM","2018/09/20 20:08:48","新北市板橋區觀光街82號","121.46958","25.0168316666667","6500100","板橋區"
"220092","307-R5","2018/09/20 20:08:53","新北市板橋區文化路一段139號","121.461821666667","25.01562","6500100","板橋區"
"220080","461-BY","2018/09/20 20:08:57","新北市板橋區大觀路二段153巷44弄23號","121.446126666667","24.9991783333333","6500100","板橋區"
"220103","561-BX","2018/09/20 20:09:04","新北市板橋區自由路26巷12號","121.466178333333","25.0225766666667","6500100","板橋區"
"220081","630-UY","2018/09/20 20:09:00","新北市板橋區僑中一街124巷18弄27號","121.447258333333","25.0136416666667","6500100","板橋區"
"220077","687-BX","2018/09/20 20:09:03","新北市泰山區新五路一段131-1號","121.439591666667","25.06317","6500100","板橋區"
"220093","689-BX","2018/09/20 20:08:59","新北市板橋區長江路一段164號","121.461348333333","25.0303933333333","6500100","板橋區"
"220102","KEA-2699","2018/09/20 20:08:58","新北市板橋區懷德街66巷4-2號","121.477248333333","25.0321816666667","6500100","板橋區"
"220055","827-TW","2018/09/20 20:08:48","新北市板橋區仁愛路86巷13弄1號","121.461073333333","24.9989583333333","6500100","板橋區"
"220067","829-TW","2018/09/20 20:09:02","新北市板橋區中山路一段206巷70號","121.472193333333","25.01333","6500100","板橋區"
"220089","833-TW","2018/09/20 20:09:06","新北市板橋區互助街58號","121.461368333333","25.0268266666667","6500100","板橋區"
"220074","895-R6","2018/09/20 20:09:03","新北市板橋區府中路21號","121.459201666667","25.00943","6500100","板橋區"
"220097","AAC-210","2018/09/20 20:08:54","新北市板橋區光正街9巷22弄12號","121.462166666667","25.0165983333333","6500100","板橋區"
"220070","AAC-253","2018/09/20 20:08:58","新北市板橋區德興街32號","121.453458333333","24.9938533333333","6500100","板橋區"
"235068","KEA-2873","2018/09/20 20:08:57","新北市中和區中山路二段250巷7號","121.49736","25.00303","6500300","中和區"
