"lineid","car","time","location","longitude","latitude","cityid","cityname"
"231059","046-UY","2018/09/20 20:59:09","新北市新店區僑信路104號","121.500051666667","24.9471916666667","6500600","新店區"
"231040","047-UY","2018/09/20 20:59:00","新北市新店區中正路188號","121.540961666667","24.9723166666667","6500600","新店區"
"231052","108-UY","2018/09/20 20:58:47","新北市新店區北宜路一段7號","121.53802","24.958365","6500600","新店區"
"231047","187-VK","2018/09/20 20:58:57","新北市新店區寶元路二段1巷2號","121.550715","24.9840833333333","6500600","新店區"
"231054","KEA-2219","2018/09/20 20:58:53","新北市新店區大新街18號","121.543053333333","24.9686066666667","6500600","新店區"
"231042","268-BY","2018/09/20 20:59:06","新北市新店區寶橋路221號","121.549175","24.9774533333333","6500600","新店區"
"231051","278-BY","2018/09/20 20:59:06","新北市新店區中正路663巷7弄15號","121.532993333333","24.9901233333333","6500600","新店區"
"231050","AAD-862","2018/09/20 20:58:57","新北市新店區三民路75巷2弄2號","121.535768333333","24.9712016666667","6500600","新店區"
"231066","4716-K9","2018/09/20 20:58:50","新北市新店區吉安街34號","121.515936666667","24.9660533333333","6500600","新店區"
"231067","4772-VM","2018/09/20 20:59:04","新北市新店區安康路二段103號","121.512781666667","24.9625966666667","6500600","新店區"
"231065","512-UM","2018/09/20 20:59:05","新北市新店區安祥路69巷87號","121.48347","24.9589883333333","6500600","新店區"
"231063","616-UM","2018/09/20 20:59:07","新北市新店區如意街80號","121.495485","24.9468533333333","6500600","新店區"
"231061","619-UM","2018/09/20 20:58:49","新北市新店區新和街97號","121.521151666667","24.9865833333333","6500600","新店區"
"231068","718-UY","2018/09/20 20:58:54","新北市新店區寶元路二段39號","121.547035","24.9813183333333","6500600","新店區"
"231064","719-UM","2018/09/20 20:53:49","新北市新店區安和路二段173號","121.518553333333","24.9745516666667","6500600","新店區"
"231062","720-UM","2018/09/20 20:58:53","新北市新店區裕合街105號","121.489991666667","24.94952","6500600","新店區"
"231060","897-TW","2018/09/20 20:58:58","新北市新店區安康路三段269號","121.486368333333","24.951715","6500600","新店區"
"231043","899-TW","2018/09/20 20:58:56","新北市新店區中央一街2號","121.528796666667","24.97227","6500600","新店區"
"241011","013-R5","2018/09/20 20:59:04","新北市三重區秀江街119號","121.499685","25.07217","6500200","三重區"
"241028","022-UY","2018/09/20 20:58:50","新北市三重區重新路三段94號","121.492643333333","25.0609383333333","6500200","三重區"
"241008","059-VK","2018/09/20 20:59:06","新北市三重區下竹圍街1號","121.480895","25.07631","6500200","三重區"
"241031","061-VK","2018/09/20 20:58:54","新北市三重區重陽路一段113巷2弄2號","121.487526666667","25.0598716666667","6500200","三重區"
"241015","062-VK","2018/09/20 20:59:03","新北市三重區福德北路46號","121.502043333333","25.06549","6500200","三重區"
"241017","063-VK","2018/09/20 20:58:53","新北市三重區大智街49號","121.492775","25.0675883333333","6500200","三重區"
"241024","065-VK","2018/09/20 20:59:02","新北市三重區大勇街49號","121.48132","25.071995","6500200","三重區"
"241026","066-VK","2018/09/20 20:59:07","新北市三重區文化南路43號","121.50024","25.061485","6500200","三重區"
"241002","090-VK","2018/09/20 20:58:54","新北市三重區五華街7巷10號","121.495536666667","25.080385","6500200","三重區"
"251014","742-BX","2018/09/20 20:58:59","新北市淡水區溪口7-3號","121.455698333333","25.2366116666667","6501000","淡水區"
"241005","262-UM","2018/09/20 20:59:00","新北市三重區五華街167號","121.490136666667","25.085035","6500200","三重區"
"241029","265-UM","2018/09/20 20:59:05","新北市三重區大同南路101巷10弄19號","121.495973333333","25.05837","6500200","三重區"
"241016","266-UM","2018/09/20 20:59:06","新北市三重區自強路一段125號","121.495323333333","25.06645","6500200","三重區"
"241009","267-UM","2018/09/20 20:59:00","新北市三重區三和路四段177-1號","121.482708333333","25.0788433333333","6500200","三重區"
"241018","268-UM","2018/09/20 20:58:50","新北市三重區雙園街103號","121.49376","25.0673","6500200","三重區"
"241032","269-UM","2018/09/20 20:59:03","新北市三重區三陽路133號","121.483276666667","25.058855","6500200","三重區"
"241013","270-UM","2018/09/20 20:59:03","新北市三重區仁賢街12-1號","121.495715","25.0748283333333","6500200","三重區"
"241025","271-UM","2018/09/20 20:58:49","新北市三重區貴陽街18-1號","121.484208333333","25.0619183333333","6500200","三重區"
"241007","398-BY","2018/09/20 20:59:01","新北市三重區慈愛街9號","121.485101666667","25.0784416666667","6500200","三重區"
"241035","KEA-2210","2018/09/20 20:59:08","新北市三重區新北大道一段7號","121.489593333333","25.06129","6500200","三重區"
"241004","475-VK","2018/09/20 20:59:02","新北市三重區溪尾街229號","121.48828","25.0813066666667","6500200","三重區"
"241020","478-VK","2018/09/20 20:59:00","新北市三重區忠孝路二段35號","121.485855","25.07107","6500200","三重區"
"241014","543-UM","2018/09/20 20:59:01","新北市三重區長榮路75號","121.502546666667","25.0691583333333","6500200","三重區"
"241023","545-UM","2018/09/20 20:59:01","新北市三重區忠孝路三段84巷63號","121.482328333333","25.0637566666667","6500200","三重區"
"241001","547-UM","2018/09/20 20:59:03","新北市三重區三和路四段118巷11號","121.488535","25.07462","6500200","三重區"
"241019","KEA-2593","2018/09/20 20:58:55","新北市三重區自強路二段74巷23-1號","121.487935","25.0698233333333","6500200","三重區"
"241006","AAD-863","2018/09/20 20:59:06","新北市三重區永福街39號","121.481293333333","25.0780283333333","6500200","三重區"
"241030","743-BX","2018/09/20 20:58:56","新北市三重區中正南路293號","121.492613333333","25.0519983333333","6500200","三重區"
"241022","887-TS","2018/09/20 20:58:57","新北市三重區中正北路20巷12號","121.48798","25.0625666666667","6500200","三重區"
"241012","941-UM","2018/09/20 20:59:00","新北市三重區仁信街27號","121.501285","25.075565","6500200","三重區"
"241033","AAC-255","2018/09/20 20:59:06","新北市三重區光復路二段1號","121.472203333333","25.05336","6500200","三重區"
"247012","KEA-2869","2018/09/20 20:59:06","新北市蘆洲區民權路6號","121.476941666667","25.0855283333333","6501400","蘆洲區"
"235069","4980-A6","2018/09/20 20:58:56","新北市中和區連城路469巷70弄20號","121.482736666667","24.993985","6500300","中和區"
"247002","893-R6","2018/09/20 20:58:59","新北市蘆洲區永樂街40號","121.45795","25.0883666666667","6501400","蘆洲區"
"247016","546-UM","2018/09/20 20:59:06","新北市蘆洲區正和街92號","121.468188333333","25.0808033333333","6501400","蘆洲區"
"247024","500-BY","2018/09/20 20:59:06","新北市蘆洲區光明路20號","121.461175","25.0864","6501400","蘆洲區"
"247014","339-TH","2018/09/20 20:59:07","新北市蘆洲區得勝街87號","121.473518333333","25.0838016666667","6501400","蘆洲區"
"247006","337-TH","2018/09/20 20:58:57","新北市蘆洲區永安南路二段18號","121.467718333333","25.07721","6501400","蘆洲區"
"247008","336-TH","2018/09/20 20:59:07","新北市蘆洲區民生街76號","121.472873333333","25.07911","6501400","蘆洲區"
"247020","057-VK","2018/09/20 20:58:52","新北市蘆洲區民族路488號","121.471105","25.09128","6501400","蘆洲區"
"247010","056-VK","2018/09/20 20:59:08","新北市蘆洲區鷺江街91號","121.476788333333","25.0836333333333","6501400","蘆洲區"
"247018","007-UY","2018/09/20 20:59:01","新北市蘆洲區民權路136-2號","121.473156666667","25.08884","6501400","蘆洲區"
"247004","002-UY","2018/09/20 20:58:56","新北市蘆洲區永安南路二段266號","121.459226666667","25.0805183333333","6501400","蘆洲區"
"247022","001-UY","2018/09/20 20:58:59","新北市蘆洲區三民路226號","121.468655","25.0895833333333","6501400","蘆洲區"
"251005","010-UM","2018/09/20 20:59:06","新北市淡水區學府路75號","121.448356666667","25.169945","6501000","淡水區"
"251001","011-UM","2018/09/20 20:58:59","新北市淡水區北投子14-5號","121.44898","25.183265","6501000","淡水區"
"251013","KEA-2871","2018/09/20 20:58:55","新北市淡水區行忠路260號","121.459435","25.2004283333333","6501000","淡水區"
"251016","179-VK","2018/09/20 20:58:36","新北市淡水區牛埔子11-1號","121.450383333333","25.218515","6501000","淡水區"
"251015","180-VK","2018/09/20 20:58:56","新北市淡水區淡金路四段542巷17號","121.452703333333","25.227095","6501000","淡水區"
"251010","413-VK","2018/09/20 20:59:00","新北市淡水區淡海路27號","121.423618333333","25.17922","6501000","淡水區"
"251012","441-VK","2018/09/20 20:58:58","新北市淡水區淡金路五段110號","121.456516666667","25.2366383333333","6501000","淡水區"
"251007","442-VK","2018/09/20 20:58:54","新北市淡水區仁愛街2巷31-3號","121.446478333333","25.1711483333333","6501000","淡水區"
"251011","650-BX","2018/09/20 20:59:02","新北市淡水區新民街322巷1號","121.435285","25.183795","6501000","淡水區"
"251002","672-BX","2018/09/20 20:59:07","新北市淡水區英專路67號","121.445583333333","25.171125","6501000","淡水區"
"251003","766-UM","2018/09/20 20:59:04","新北市淡水區新春街125巷5號","121.441431666667","25.1823583333333","6501000","淡水區"
"237001","361-BY","2018/09/20 20:58:52","新北市樹林區柑園街二段276巷12弄15號","121.374375","24.9535933333333","6500900","三峽區"
"242053","442-UM","2018/09/20 20:58:54","新北市樹林區八德街247巷24-3號","121.420188333333","24.97347","6500500","新莊區"
"221027","281-BY","2018/09/20 20:59:05","新北市汐止區汐萬路一段256巷3號","121.65238","25.0746216666667","6501100","汐止區"
"220070","AAC-253","2018/09/20 20:58:58","新北市八里區中山路三段409號","121.368303333333","25.1349016666667","6500100","板橋區"
