"lineid","car","time","location","longitude","latitude","cityid","cityname"
"231059","046-UY","2018/09/20 21:09:00","新北市新店區僑仁路2號","121.49956","24.9515733333333","6500600","新店區"
"231040","047-UY","2018/09/20 21:08:59","新北市新店區北新路一段351號","121.541936666667","24.96941","6500600","新店區"
"231047","187-VK","2018/09/20 21:08:57","新北市新店區文化路45號","121.54453","24.981065","6500600","新店區"
"231054","KEA-2219","2018/09/20 21:08:53","新北市新店區大新街7巷38號","121.544395","24.96769","6500600","新店區"
"231042","268-BY","2018/09/20 21:09:06","新北市新店區寶興路60巷3號","121.549878333333","24.971845","6500600","新店區"
"231051","278-BY","2018/09/20 21:07:45","新北市新店區中正路700巷38號","121.535465","24.9914566666667","6500600","新店區"
"231050","AAD-862","2018/09/20 21:08:57","新北市新店區三民路29巷2弄2號","121.537848333333","24.9699516666667","6500600","新店區"
"231066","4716-K9","2018/09/20 21:08:50","新北市新店區柴埕路116號","121.505175","24.960085","6500600","新店區"
"231067","4772-VM","2018/09/20 21:09:04","新北市新店區安康路二段310號","121.505696666667","24.958145","6500600","新店區"
"231065","512-UM","2018/09/20 21:09:05","新北市新店區安祥路69巷41弄68號","121.482363333333","24.9614833333333","6500600","新店區"
"231063","616-UM","2018/09/20 21:08:58","新北市新店區玫瑰路59巷2號","121.495861666667","24.9456316666667","6500600","新店區"
"231061","619-UM","2018/09/20 21:09:04","新北市新店區永安街58號","121.518608333333","24.9868216666667","6500600","新店區"
"231064","719-UM","2018/09/20 21:08:29","新北市新店區薏仁坑路自強巷1號","121.496811666667","24.9579283333333","6500600","新店區"
"231062","720-UM","2018/09/20 21:08:53","新北市新店區雙城路60巷16弄13號","121.491646666667","24.9479266666667","6500600","新店區"
"231060","897-TW","2018/09/20 21:08:53","新北市新店區薏仁坑路自強巷6號","121.496698333333","24.9584416666667","6500600","新店區"
"241011","013-R5","2018/09/20 21:09:04","新北市三重區秀江街77號","121.500543333333","25.072475","6500200","三重區"
"241028","022-UY","2018/09/20 21:08:50","新北市三重區正義南路60-1號","121.498236666667","25.0606566666667","6500200","三重區"
"241008","059-VK","2018/09/20 21:09:06","新北市三重區三和路二段119號","121.498763333333","25.068965","6500200","三重區"
"241031","061-VK","2018/09/20 21:08:54","新北市三重區重新路四段121號","121.482068333333","25.0505616666667","6500200","三重區"
"241015","062-VK","2018/09/20 21:09:03","新北市三重區長元街82-1號","121.501843333333","25.0662616666667","6500200","三重區"
"241017","063-VK","2018/09/20 21:08:53","新北市三重區國隆路31號","121.492286666667","25.0645866666667","6500200","三重區"
"241024","065-VK","2018/09/20 21:09:02","新北市三重區大勇街49號","121.481295","25.0719833333333","6500200","三重區"
"241026","066-VK","2018/09/20 21:09:07","新北市三重區光興街1號","121.500301666667","25.0603966666667","6500200","三重區"
"241002","090-VK","2018/09/20 21:08:54","新北市三重區五華街21巷1號","121.495066666667","25.0806216666667","6500200","三重區"
"241003","091-VK","2018/09/20 21:09:05","新北市三重區仁義街337-1號","121.495015","25.0848033333333","6500200","三重區"
"251014","742-BX","2018/09/20 21:09:02","新北市淡水區六塊厝3-1號","121.450636666667","25.2406133333333","6501000","淡水區"
"241005","262-UM","2018/09/20 21:09:00","新北市三重區三信路11號","121.488238333333","25.086055","6500200","三重區"
"241029","265-UM","2018/09/20 21:09:05","新北市三重區正義南路111號","121.498186666667","25.05855","6500200","三重區"
"241016","266-UM","2018/09/20 21:09:06","新北市三重區信義西街138號","121.495473333333","25.0642033333333","6500200","三重區"
"241009","267-UM","2018/09/20 21:09:00","新北市三重區車路頭街4巷23號","121.482991666667","25.0701666666667","6500200","三重區"
"241018","268-UM","2018/09/20 21:08:50","新北市三重區正義北路332-1號","121.494318333333","25.0705466666667","6500200","三重區"
"241032","269-UM","2018/09/20 21:08:53","新北市三重區光復路二段175號","121.472996666667","25.0615616666667","6500200","三重區"
"241013","270-UM","2018/09/20 21:09:03","新北市三重區仁賢街12-1號","121.4957","25.0748283333333","6500200","三重區"
"241025","271-UM","2018/09/20 21:09:09","新北市三重區中正北路208巷10弄4號","121.482355","25.0669116666667","6500200","三重區"
"241007","398-BY","2018/09/20 21:09:00","新北市三重區三和路四段145巷85號","121.486391666667","25.0787716666667","6500200","三重區"
"241004","475-VK","2018/09/20 21:09:02","新北市三重區仁愛街423-1號","121.49038","25.08145","6500200","三重區"
"241020","478-VK","2018/09/20 21:09:00","新北市三重區忠孝路二段34號","121.485778333333","25.0710616666667","6500200","三重區"
"241014","543-UM","2018/09/20 21:09:01","新北市三重區三和路二段37-8號","121.50133","25.0674783333333","6500200","三重區"
"241023","545-UM","2018/09/20 21:09:01","新北市三重區忠孝路三段84巷63號","121.482276666667","25.063725","6500200","三重區"
"241001","547-UM","2018/09/20 21:09:03","新北市三重區自強路三段83號","121.487413333333","25.0747816666667","6500200","三重區"
"241019","KEA-2593","2018/09/20 21:08:55","新北市三重區自強路二段74巷21號","121.487978333333","25.069835","6500200","三重區"
"241006","AAD-863","2018/09/20 21:09:06","新北市三重區重陽路三段5巷1號","121.490488333333","25.0656533333333","6500200","三重區"
"241030","743-BX","2018/09/20 21:08:57","新北市三重區五谷王北街20巷15弄2號","121.474975","25.048275","6500200","三重區"
"241022","887-TS","2018/09/20 21:08:57","新北市三重區中正北路64巷24號","121.486101666667","25.0637283333333","6500200","三重區"
"241012","941-UM","2018/09/20 21:09:00","新北市三重區仁信街29號","121.501238333333","25.0755566666667","6500200","三重區"
"241033","AAC-255","2018/09/20 21:09:06","新北市三重區重光街107-2號","121.466351666667","25.0648183333333","6500200","三重區"
"247012","KEA-2869","2018/09/20 21:09:06","新北市蘆洲區民族路31-18號","121.477155","25.08523","6501400","蘆洲區"
"235010","733-UM","2018/09/20 21:09:05","新北市中和區員山路36巷13號","121.484136666667","24.9907966666667","6500300","中和區"
"247002","893-R6","2018/09/20 21:08:59","新北市蘆洲區永樂街38巷40號","121.458605","25.090065","6501400","蘆洲區"
"247024","500-BY","2018/09/20 21:09:06","新北市蘆洲區長興路50巷1號","121.463796666667","25.083795","6501400","蘆洲區"
"247014","339-TH","2018/09/20 21:09:07","新北市蘆洲區中央路155號","121.47267","25.0846983333333","6501400","蘆洲區"
"247006","337-TH","2018/09/20 21:08:57","新北市蘆洲區永安南路二段16巷16-1號","121.468075","25.0776583333333","6501400","蘆洲區"
"247008","336-TH","2018/09/20 21:09:07","新北市蘆洲區民生街30號","121.4746","25.0787916666667","6501400","蘆洲區"
"247020","057-VK","2018/09/20 21:08:52","新北市蘆洲區民族路363號","121.471683333333","25.091615","6501400","蘆洲區"
"247010","056-VK","2018/09/20 21:09:08","新北市蘆洲區鷺江街46號","121.477233333333","25.0831216666667","6501400","蘆洲區"
"247018","007-UY","2018/09/20 21:09:01","新北市蘆洲區民族路408巷10號","121.474833333333","25.0918516666667","6501400","蘆洲區"
"247004","002-UY","2018/09/20 21:08:56","新北市蘆洲區永安南路二段276號","121.458251666667","25.0809033333333","6501400","蘆洲區"
"247022","001-UY","2018/09/20 21:08:59","新北市蘆洲區中正路263巷2號","121.467448333333","25.08749","6501400","蘆洲區"
"251009","008-UM","2018/09/20 21:08:54","新北市淡水區民族路112巷66號","121.462001666667","25.134355","6501000","淡水區"
"251005","010-UM","2018/09/20 21:09:06","新北市淡水區博愛街61號","121.446908333333","25.1689216666667","6501000","淡水區"
"251001","011-UM","2018/09/20 21:08:59","新北市淡水區新市一路三段59號","121.446101666667","25.1835516666667","6501000","淡水區"
"251013","KEA-2871","2018/09/20 21:08:55","新北市淡水區行忠路328號","121.460436666667","25.1996633333333","6501000","淡水區"
"251016","179-VK","2018/09/20 21:08:56","新北市淡水區前洲子2-1號","121.444403333333","25.2167983333333","6501000","淡水區"
"251015","180-VK","2018/09/20 21:08:56","新北市淡水區淡金路四段542巷60號","121.45499","25.2265866666667","6501000","淡水區"
"251010","413-VK","2018/09/20 21:08:54","新北市淡水區中正路一段63巷7弄1號","121.423283333333","25.1773116666667","6501000","淡水區"
"251012","441-VK","2018/09/20 21:08:58","新北市淡水區淡金路五段172號","121.457035","25.2400483333333","6501000","淡水區"
"251011","650-BX","2018/09/20 21:09:03","新北市淡水區新民街180巷7弄35號","121.436955","25.1797716666667","6501000","淡水區"
"251002","672-BX","2018/09/20 21:08:47","新北市淡水區水源街一段145號","121.447345","25.1717966666667","6501000","淡水區"
"251003","766-UM","2018/09/20 21:09:04","新北市淡水區新春街87號","121.438991666667","25.18259","6501000","淡水區"
"237001","361-BY","2018/09/20 21:08:52","新北市三峽區中山路459巷163-3號","121.348721666667","24.9330566666667","6500900","三峽區"
"242053","442-UM","2018/09/20 21:08:54","新北市樹林區中山路三段214號","121.37985","24.9676133333333","6500500","新莊區"
"220070","AAC-253","2018/09/20 21:08:58","新北市八里區下罟子1-14號","121.38949","25.1421666666667","6500100","板橋區"
