"lineid","car","time","location","longitude","latitude","cityid","cityname"
"234005","207-UY","2018/09/20 21:38:55","新北市永和區福和路1號","121.52637","25.00963","6500400","永和區"
"251014","742-BX","2018/09/20 21:38:59","新北市淡水區淡金路三段461巷11-3號","121.450553333333","25.213865","6501000","淡水區"
"241005","262-UM","2018/09/20 21:39:00","新北市三重區碧華街1號","121.4835","25.0811816666667","6500200","三重區"
"241029","265-UM","2018/09/20 21:39:05","新北市八里區中山路三段386號","121.368396666667","25.1359333333333","6500200","三重區"
"247012","KEA-2869","2018/09/20 21:39:06","新北市五股區凌雲路三段24巷7號","121.437493333333","25.1065516666667","6501400","蘆洲區"
"235010","733-UM","2018/09/20 21:14:40","新北市中和區員山路36巷13號","121.48411","24.9908366666667","6500300","中和區"
"251009","008-UM","2018/09/20 21:38:54","新北市淡水區民生路52巷22弄12號","121.462445","25.136965","6501000","淡水區"
"251005","010-UM","2018/09/20 21:39:06","新北市淡水區英專路101巷22號","121.44498","25.1721516666667","6501000","淡水區"
"251001","011-UM","2018/09/20 21:38:59","新北市淡水區新市二路三段152號","121.435386666667","25.19423","6501000","淡水區"
"251016","179-VK","2018/09/20 21:38:56","新北市淡水區淡金路三段70巷1號","121.448253333333","25.2013416666667","6501000","淡水區"
"251008","181-VK","2018/09/20 21:38:58","新北市淡水區水源街二段90號","121.45166","25.174365","6501000","淡水區"
"251010","413-VK","2018/09/20 21:38:54","新北市淡水區沙崙路238號","121.425698333333","25.1846783333333","6501000","淡水區"
"251012","441-VK","2018/09/20 21:38:58","新北市淡水區淡金路四段215號","121.45167","25.2223616666667","6501000","淡水區"
"251007","442-VK","2018/09/20 21:38:53","新北市淡水區淡金路二段605號","121.446306666667","25.1931883333333","6501000","淡水區"
"251004","443-VK","2018/09/20 21:38:58","新北市淡水區民生路14號","121.461016666667","25.1378316666667","6501000","淡水區"
"251006","561-UM","2018/09/20 21:38:55","新北市淡水區中正路11巷28-7號","121.438066666667","25.17076","6501000","淡水區"
"251011","650-BX","2018/09/20 21:39:03","新北市淡水區新春街2號","121.436216666667","25.1808716666667","6501000","淡水區"
"251002","672-BX","2018/09/20 21:39:07","新北市淡水區學府路169號","121.446091666667","25.1742583333333","6501000","淡水區"
"251003","766-UM","2018/09/20 21:39:04","新北市淡水區新春街46號","121.437513333333","25.181695","6501000","淡水區"
"237001","361-BY","2018/09/20 21:38:52","新北市鶯歌區三鶯路5號","121.356896666667","24.9406966666667","6500900","三峽區"
"220070","AAC-253","2018/09/20 21:38:58","新北市板橋區華東街1-10號","121.448638333333","24.9949866666667","6500100","板橋區"
