"lineid","car","time","location","longitude","latitude","cityid","cityname"
"234005","207-UY","2018/09/20 21:48:35","新北市永和區福和路1號","121.526491666667","25.0099733333333","6500400","永和區"
"251014","742-BX","2018/09/20 21:48:59","新北市淡水區崁頂61號","121.440831666667","25.199855","6501000","淡水區"
"241005","262-UM","2018/09/20 21:49:00","新北市蘆洲區中山一路417號","121.46862","25.0762166666667","6500200","三重區"
"247012","KEA-2869","2018/09/20 21:49:06","新北市八里區中山路三段386號","121.368475","25.13589","6501400","蘆洲區"
"251009","008-UM","2018/09/20 21:48:54","新北市淡水區民族路35巷36號","121.464985","25.1366983333333","6501000","淡水區"
"251005","010-UM","2018/09/20 21:49:06","新北市淡水區鄧公路29巷30號","121.452651666667","25.1698983333333","6501000","淡水區"
"251001","011-UM","2018/09/20 21:48:58","新北市淡水區新市二路三段152號","121.435386666667","25.1942533333333","6501000","淡水區"
"251008","181-VK","2018/09/20 21:48:58","新北市淡水區水源街二段30號","121.449825","25.1737116666667","6501000","淡水區"
"251010","413-VK","2018/09/20 21:48:54","新北市淡水區中正路二段208號","121.426305","25.1893283333333","6501000","淡水區"
"251012","441-VK","2018/09/20 21:48:58","新北市淡水區淡金路三段339號","121.448905","25.206575","6501000","淡水區"
"251007","442-VK","2018/09/20 21:48:54","新北市淡水區水源街二段177巷41弄1-1號","121.452765","25.1768816666667","6501000","淡水區"
"251004","443-VK","2018/09/20 21:48:58","新北市淡水區民權路88-2號","121.459025","25.1331133333333","6501000","淡水區"
"251006","561-UM","2018/09/20 21:48:55","新北市淡水區中正路11巷3號","121.43783","25.1707783333333","6501000","淡水區"
"251011","650-BX","2018/09/20 21:49:02","新北市淡水區新民街322巷5弄6號","121.436421666667","25.1828833333333","6501000","淡水區"
"251002","672-BX","2018/09/20 21:49:07","新北市淡水區學府路200號","121.447076666667","25.1763166666667","6501000","淡水區"
"251003","766-UM","2018/09/20 21:49:04","新北市淡水區新春街90號","121.438873333333","25.1823833333333","6501000","淡水區"
"237001","361-BY","2018/09/20 21:42:22","新北市三峽區中山路459巷163-1號","121.349308333333","24.9334333333333","6500900","三峽區"
"220070","AAC-253","2018/09/20 21:48:58","新北市板橋區華東街1-9號","121.448263333333","24.9948616666667","6500100","板橋區"
