"lineid","car","time","location","longitude","latitude","cityid","cityname"
"241005","262-UM","2018/09/20 22:29:00","新北市五股區中興路三段5號","121.449105","25.0797533333333","6500200","三重區"
"247007","336-TH","2018/09/20 22:23:13","新北市五股區中興路三段2巷10號","121.449226666667","25.0808633333333","6501400","蘆洲區"
"251008","181-VK","2018/09/20 22:28:58","新北市淡水區學府路104號","121.449915","25.171745","6501000","淡水區"
"251010","413-VK","2018/09/20 22:28:54","新北市淡水區沙崙路200號","121.424731666667","25.1838733333333","6501000","淡水區"
"251007","442-VK","2018/09/20 22:28:53","新北市淡水區北新路180號","121.449481666667","25.1787316666667","6501000","淡水區"
"251004","443-VK","2018/09/20 22:28:58","新北市淡水區民族路33號","121.462281666667","25.1357566666667","6501000","淡水區"
"251011","650-BX","2018/09/20 22:29:02","新北市淡水區水碓街7號","121.443166666667","25.1771466666667","6501000","淡水區"
