"lineid","car","time","location","longitude","latitude","cityid","cityname"
"248005","653-BX","2018/09/21 06:58:37","新北市五股區中興路二段83巷26-6號","121.459768333333","25.0752433333333","6501500","五股區"
"232003","290-BY","2018/09/21 06:58:49","新北市坪林區桶盤嶼7-1號","121.712456666667","24.953105","6502000","坪林區"
"232015","291-BY","2018/09/21 06:58:50","新北市坪林區粗窟3號","121.68008","24.9356833333333","6502000","坪林區"
"232019","705-BZ","2018/09/21 06:58:17","新北市坪林區坪雙路一段82號","121.717878333333","24.9443416666667","6502000","坪林區"
"232008","758-BX","2018/09/21 06:58:49","新北市坪林區鶯子瀨2-8號","121.706766666667","24.914915","6502000","坪林區"
"244004","248-BX","2018/09/21 06:58:28","新北市林口區民生路131巷2-2號","121.377796666667","25.0889966666667","6501700","林口區"
"235001","611-BX","2018/09/21 06:58:47","新北市中和區圓通路367巷4號","121.491345","24.9892033333333","6500300","中和區"
"223006","022-BY","2018/09/21 06:58:33","新北市石碇區石崁12號","121.655115","24.995555","6501900","石碇區"
"223002","KEA-2673","2018/09/21 06:58:48","新北市石碇區半路店3-1號","121.645596666667","24.96451","6501900","石碇區"
"223003","205-TH","2018/09/21 06:58:38","新北市石碇區石碇東街143號","121.658993333333","24.9890783333333","6501900","石碇區"
"223008","406-TH","2018/09/21 06:58:44","新北市石碇區十八重溪47號","121.675233333333","25.0128966666667","6501900","石碇區"
"223001","592-UM","2018/09/21 06:58:29","新北市石碇區石碇西街9號","121.659126666667","24.9908633333333","6501900","石碇區"
"223004","660-BX","2018/09/21 06:58:44","新北市石碇區碇坪路一段58號","121.657038333333","24.991425","6501900","石碇區"
"223007","661-BX","2018/09/21 06:58:38","新北市石碇區十八重溪45號","121.675538333333","25.0124933333333","6501900","石碇區"
"223005","677-TV","2018/09/21 06:58:47","新北市石碇區碇坪路一段60號","121.657126666667","24.99145","6501900","石碇區"
"227005","282-VK","2018/09/21 06:58:30","新北市雙溪區新基里自強路5號","121.866296666667","25.0390166666667","6502500","雙溪區"
"252003","249-BX","2018/09/21 06:58:47","新北市三芝區中山路二段53號","121.50304","25.2543966666667","6502100","三芝區"
"242001","233-RS","2018/09/21 06:58:46","新北市新莊區中華路二段2號","121.45297","25.0445316666667","6500500","新莊區"
