"lineid","car","time","location","longitude","latitude","cityid","cityname"
"248005","653-BX","2018/05/08 07:58:39","新北市五股區明德路12巷3號","121.43317","25.0716966666667","6501500","五股區"
"244002","248-BX","2018/05/08 08:09:01","新北市林口區下福里66號","121.309226666667","25.114715","6501700","林口區"
"222004","289-BY","2018/05/08 08:09:01","新北市深坑區文化街92號","121.617348333333","25.0019333333333","6501800","深坑區"
"231007","189-VK","2018/05/08 08:09:03","新北市新店區新潭路一段19號","121.523156666667","24.942725","6500600","新店區"
"231009","192-VK","2018/05/08 08:08:48","新北市新店區環河路29巷1-1號","121.535783333333","24.9610583333333","6500600","新店區"
"235001","611-BX","2018/05/08 08:08:44","新北市中和區圓通路367巷33弄109號","121.495235","24.984075","6500300","中和區"
"226005","5620-A6","2018/05/08 08:08:48","新北市平溪區南山里南山坪94號","121.777078333333","25.041285","6502400","平溪區"
"226002","7418-A5","2018/05/08 08:08:49","新北市平溪區十分里姜仔坑2號","121.766636666667","25.035265","6502400","平溪區"
"226006","AGD-0702","2018/05/08 08:09:04","新北市平溪區十分里十分街310號","121.77531","25.0438216666667","6502400","平溪區"
"223006","022-BY","2018/05/08 08:09:03","新北市石碇區摸乳巷5-1號","121.660553333333","24.9851633333333","6501900","石碇區"
"223002","KEA-2673","2018/05/08 07:59:26","新北市石碇區大格門3號","121.668768333333","24.9561533333333","6501900","石碇區"
"223001","205-TH","2018/05/08 07:58:50","新北市石碇區崩山36-1號","121.671165","24.9580716666667","6501900","石碇區"
"223008","406-TH","2018/05/08 08:08:59","新北市石碇區靜安路一段266號","121.684043333333","25.009075","6501900","石碇區"
"223001","592-UM","2018/05/08 08:03:52","新北市石碇區樟空子10-2號","121.666898333333","24.961915","6501900","石碇區"
"223004","660-BX","2018/05/08 08:09:07","新北市石碇區外按11-5號","121.651291666667","24.999415","6501900","石碇區"
"223007","661-BX","2018/05/08 08:08:52","新北市石碇區靜安路一段266號","121.68397","25.0090866666667","6501900","石碇區"
"223005","677-TV","2018/05/08 08:08:47","新北市石碇區外按16-1號","121.650808333333","24.9974216666667","6501900","石碇區"
"227006","282-VK","2018/05/08 08:09:01","新北市雙溪區牡丹里中正路68號","121.864083333333","25.0437816666667","6502500","雙溪區"
"252002","178-VK","2018/05/08 08:08:57","新北市三芝區中山路二段50號","121.503248333333","25.25435","6502100","三芝區"
"252004","249-BX","2018/05/08 08:08:46","新北市三芝區興華里車埕14號","121.501533333333","25.1981166666667","6502100","三芝區"
"252007","AAC-283","2018/05/08 08:08:52","新北市三芝區後厝里土地公坑61-5號","121.464988333333","25.2474366666667","6502100","三芝區"
"237001","159-UY","2018/05/08 08:08:58","新北市三峽區學成路285號","121.376233333333","24.943275","6500900","三峽區"
"236008","165-UM","2018/05/08 08:09:03","新北市土城區青雲路587巷8號","121.463738333333","24.9709133333333","6501300","土城區"
"236002","339-SR","2018/05/08 08:08:48","新北市土城區中州路9號","121.414323333333","24.9575966666667","6501300","土城區"
"236006","498-BY","2018/05/08 08:09:05","新北市土城區永平街51號","121.427756666667","24.9591266666667","6501300","土城區"
"220070","282-UM","2018/05/08 08:09:04","新北市五股區新五路二段347號","121.443705","25.0867366666667","6500100","板橋區"
