"lineid","car","time","location","longitude","latitude","cityid","cityname"
"248005","653-BX","2018/05/08 09:29:05","新北市五股區登林路貿商巷5弄2號","121.429643333333","25.0700116666667","6501500","五股區"
"244002","248-BX","2018/05/08 09:29:01","新北市八里區長道坑23-3號","121.397865","25.107355","6501700","林口區"
"222004","289-BY","2018/05/08 09:29:05","新北市深坑區阿柔洋66號","121.606731666667","24.99857","6501800","深坑區"
"231007","189-VK","2018/05/08 09:29:03","新北市新店區新潭路三段215巷25號","121.50812","24.9040816666667","6500600","新店區"
"231009","192-VK","2018/05/08 09:28:48","新北市新店區平廣路一段185號","121.51787","24.8894566666667","6500600","新店區"
"235001","611-BX","2018/05/08 09:29:04","新北市中和區中山路三段63巷7號","121.477328333333","25.0043316666667","6500300","中和區"
"223001","205-TH","2018/05/08 09:28:49","新北市石碇區二格路11號","121.627753333333","24.963295","6501900","石碇區"
"223005","677-TV","2018/05/08 09:26:19","新北市石碇區碇坪路一段280號","121.676018333333","24.9769683333333","6501900","石碇區"
"227006","282-VK","2018/05/08 09:29:01","新北市雙溪區長源里土地公山2-2號","121.79562","25.0108683333333","6502500","雙溪區"
"227012","030-BX","2018/05/08 09:29:05","新北市坪林區坪雙路三段13號","121.775023333333","24.9679083333333","6502500","雙溪區"
"252004","249-BX","2018/05/08 09:28:46","新北市三芝區福德里大水堀31號","121.510451666667","25.215765","6502100","三芝區"
"252007","AAC-283","2018/05/08 09:28:52","新北市三芝區古庄里四棧橋20號","121.488763333333","25.2612233333333","6502100","三芝區"
"237001","159-UY","2018/05/08 09:28:58","新北市三峽區國際二街61號","121.371115","24.9424533333333","6500900","三峽區"
"236006","498-BY","2018/05/08 09:29:05","新北市土城區承天路88-2號","121.443345","24.96012","6501300","土城區"
