"lineid","car","time","location","longitude","latitude","cityid","cityname"
"248005","653-BX","2018/05/08 09:59:05","新北市五股區新五路二段121號","121.43771","25.0787616666667","6501500","五股區"
"231007","189-VK","2018/05/08 09:59:03","新北市新店區新潭路三段215巷25號","121.508121666667","24.90411","6500600","新店區"
"231009","192-VK","2018/05/08 09:29:28","新北市新店區平廣路一段202巷2弄8號","121.515681666667","24.8892766666667","6500600","新店區"
"227006","282-VK","2018/05/08 09:59:01","新北市雙溪區長源里柑腳18號","121.80469","25.0141716666667","6502500","雙溪區"
"227012","030-BX","2018/05/08 09:59:05","新北市雙溪區泰平里烏山路15號","121.794591666667","24.9503166666667","6502500","雙溪區"
"252004","249-BX","2018/05/08 09:58:46","新北市三芝區福德里土地公埔46-6號","121.511586666667","25.23142","6502100","三芝區"
"252007","AAC-283","2018/05/08 09:58:52","新北市三芝區新庄里新庄子86號","121.511103333333","25.2717166666667","6502100","三芝區"
"237001","159-UY","2018/05/08 09:58:58","新北市樹林區中山路三段210-2號","121.380721666667","24.9668783333333","6500900","三峽區"
"236006","498-BY","2018/05/08 09:59:05","新北市土城區城林路6巷80號","121.438663333333","24.9797633333333","6501300","土城區"
