"lineid","car","time","location","longitude","latitude","cityid","cityname"
"231007","189-VK","2018/05/08 10:29:03","新北市新店區新潭路三段119號","121.508635","24.9111216666667","6500600","新店區"
"231009","192-VK","2018/05/08 10:29:08","新北市新店區小坑一路21-1號","121.531378333333","24.9122316666667","6500600","新店區"
"227006","282-VK","2018/05/08 10:29:01","新北市雙溪區上林里內平林129號","121.82276","25.025405","6502500","雙溪區"
"227012","030-BX","2018/05/08 10:29:05","新北市雙溪區泰平里料角坑42號","121.792228333333","24.954325","6502500","雙溪區"
"237001","159-UY","2018/05/08 10:28:58","新北市三峽區學勤路198-2號","121.377288333333","24.946645","6500900","三峽區"
