"lineid","car","time","location","longitude","latitude","cityid","cityname"
"234044","149-BY","2018/05/08 13:09:12","新北市永和區永元路18巷37號","121.524066666667","25.00031","6500400","永和區"
"234005","207-UY","2018/05/08 13:08:57","新北市永和區中山路一段142號","121.510101666667","25.0096916666667","6500400","永和區"
"234078","298-R6","2018/05/08 13:08:59","新北市永和區福和路152號","121.521613333333","25.0079016666667","6500400","永和區"
"234036","336-UY","2018/05/08 13:09:02","新北市永和區民樂街69巷3號","121.52746","24.9977516666667","6500400","永和區"
"234062","337-UY","2018/05/08 13:09:09","新北市永和區秀朗路二段33號","121.521291666667","25.002445","6500400","永和區"
"234084","338-UY","2018/05/08 13:08:51","新北市永和區永貞路102號","121.51912","25.00451","6500400","永和區"
"234068","552-UM","2018/05/08 13:09:04","新北市永和區豫溪街137巷1弄19號","121.518716666667","25.01041","6500400","永和區"
"234015","745-BX","2018/05/08 13:09:08","新北市永和區文化路90巷9弄2號","121.513731666667","25.0158616666667","6500400","永和區"
"234028","746-BX","2018/05/08 13:09:07","新北市永和區民生路23號","121.522826666667","24.998835","6500400","永和區"
"234052","KEA-2590","2018/05/08 13:09:01","新北市永和區中興街135號","121.518571666667","25.0124866666667","6500400","永和區"
"234012","KEA-2591","2018/05/08 13:09:01","新北市永和區保福路二段20號","121.511041666667","25.01152","6500400","永和區"
"234060","AAD-866","2018/05/08 13:09:06","新北市永和區安樂路304巷7號","121.51439","25.0050316666667","6500400","永和區"
"234040","862-TW","2018/05/08 13:08:59","新北市永和區永貞路334號","121.511213333333","25.0055666666667","6500400","永和區"
"234048","863-TW","2018/05/08 13:09:02","新北市永和區文化路135巷9號","121.510798333333","25.0143566666667","6500400","永和區"
"234025","9371-KE","2018/05/08 13:09:00","新北市永和區永和路一段72巷6號","121.51347","25.006105","6500400","永和區"
"234010","9373-KE","2018/05/08 13:08:57","新北市永和區永和路二段233-1號","121.51529","25.0142966666667","6500400","永和區"
"248017","225-UY","2018/05/08 13:09:04","新北市五股區成泰路三段55號","121.44307","25.08947","6501500","五股區"
"234022","9380-KE","2018/05/08 13:08:49","新北市永和區中興街10巷17號","121.515828333333","25.0112416666667","6500400","永和區"
"234076","969-R7","2018/05/08 13:08:51","新北市永和區民光街7號","121.515398333333","24.9962966666667","6500400","永和區"
"234072","AAC-211","2018/05/08 13:09:07","新北市永和區竹林路217號","121.520776666667","25.00862","6500400","永和區"
"234066","AAC-212","2018/05/08 13:09:00","新北市永和區永和路一段102號","121.513285","25.00707","6500400","永和區"
"234001","AAC-295","2018/05/08 13:09:08","新北市永和區中山路一段30號","121.51355","25.01065","6500400","永和區"
"244002","248-BX","2018/05/08 13:08:55","新北市林口區文化三路二段302號","121.377365","25.0841","6501700","林口區"
"231027","0293-UT","2018/05/08 13:08:54","新北市新店區安華路28-1號","121.519656666667","24.9606133333333","6500600","新店區"
"231001","047-UY","2018/05/08 13:09:08","新北市新店區安華路28-1號","121.519285","24.9609366666667","6500600","新店區"
"231005","106-UY","2018/05/08 13:09:01","新北市新店區安華路28-1號","121.519763333333","24.9607683333333","6500600","新店區"
"231010","107-UY","2018/05/08 13:09:01","新北市新店區安華路28-1號","121.519575","24.9614666666667","6500600","新店區"
"231020","108-UY","2018/05/08 13:09:04","新北市新店區安華路28-1號","121.519343333333","24.9610633333333","6500600","新店區"
"231012","187-VK","2018/05/08 13:08:53","新北市新店區安華路28-1號","121.519626666667","24.961225","6500600","新店區"
"231023","KEA-2219","2018/05/08 13:08:57","新北市新店區安華路28-1號","121.520246666667","24.9610816666667","6500600","新店區"
"231026","256-BX","2018/05/08 13:08:52","新北市新店區安華路28-1號","121.51995","24.9610533333333","6500600","新店區"
"231003","268-BY","2018/05/08 13:09:03","新北市新店區安華路28-1號","121.519385","24.960565","6500600","新店區"
"231018","278-BY","2018/05/08 12:51:31","新北市新店區安華路28-1號","121.51959","24.96095","6500600","新店區"
"231015","AAD-862","2018/05/08 13:09:06","新北市新店區安華路28-1號","121.519655","24.9613166666667","6500600","新店區"
"231038","3712-VJ","2018/05/08 13:08:56","新北市新店區安華路28-1號","121.519206666667","24.9606416666667","6500600","新店區"
"231037","4716-K9","2018/05/08 13:08:58","新北市新店區安華路28-1號","121.519436666667","24.961245","6500600","新店區"
"231025","4715-K9","2018/05/08 13:08:57","新北市新店區安華路1-1號","121.519301666667","24.9605216666667","6500600","新店區"
"231036","512-UM","2018/05/08 13:09:07","新北市新店區安華路28-1號","121.519258333333","24.9612933333333","6500600","新店區"
"231013","513-UM","2018/05/08 13:09:01","新北市新店區安華路28-1號","121.519648333333","24.9613066666667","6500600","新店區"
"231034","616-UM","2018/05/08 13:09:11","新北市新店區安華路28-1號","121.519438333333","24.960575","6500600","新店區"
"231006","617-UM","2018/05/08 13:08:53","新北市新店區安華路28-1號","121.519461666667","24.96091","6500600","新店區"
"231030","619-UM","2018/05/08 13:09:00","新北市新店區安華路28-1號","121.519348333333","24.960995","6500600","新店區"
"231035","719-UM","2018/05/08 13:09:03","新北市新店區安華路28-1號","121.519635","24.96131","6500600","新店區"
"231032","720-UM","2018/05/08 13:08:54","新北市新店區安華路28-1號","121.519276666667","24.96131","6500600","新店區"
"231029","897-TW","2018/05/08 13:08:52","新北市新店區安華路28-1號","121.519651666667","24.9608416666667","6500600","新店區"
"231004","899-TW","2018/05/08 13:08:52","新北市新店區安華路28-1號","121.519168333333","24.9609133333333","6500600","新店區"
"231024","AKT-0513","2018/05/08 13:09:00","新北市新店區安華路28-1號","121.519575","24.9606316666667","6500600","新店區"
"235028","005-UY","2018/05/08 13:08:58","新北市中和區中正路275號","121.495556666667","24.9937483333333","6500300","中和區"
"235027","006-UY","2018/05/08 13:09:03","新北市中和區員山路36巷16-3號","121.484988333333","24.9913933333333","6500300","中和區"
"235011","031-BX","2018/05/08 13:08:56","新北市中和區員山路36巷13號","121.484153333333","24.9910033333333","6500300","中和區"
"235003","097-UM","2018/05/08 13:08:52","新北市中和區和城路一段271巷1號","121.485406666667","24.9921083333333","6500300","中和區"
"235004","150-BY","2018/05/08 13:08:53","新北市中和區中正路283號","121.493846666667","24.9939116666667","6500300","中和區"
"235002","185-VK","2018/05/08 13:09:07","新北市中和區大智街18號","121.520465","24.9919133333333","6500300","中和區"
"235031","255-BX","2018/05/08 13:09:11","新北市中和區新生街177巷12號","121.484188333333","25.0003216666667","6500300","中和區"
"235007","352-BY","2018/05/08 13:09:06","新北市中和區員山路36巷16-8號","121.485393333333","24.9922316666667","6500300","中和區"
"235025","378-QA","2018/05/08 13:09:04","新北市中和區連城路607號","121.478563333333","24.9931533333333","6500300","中和區"
"235033","4980-A6","2018/05/08 13:08:55","新北市中和區員山路36巷16-2號","121.485308333333","24.99176","6500300","中和區"
"235006","551-UM","2018/05/08 13:09:03","新北市中和區中正路272號","121.494958333333","24.9941616666667","6500300","中和區"
"235034","558-UM","2018/05/08 13:09:08","新北市中和區中正路281-10號","121.494111666667","24.9938483333333","6500300","中和區"
"235018","640-BX","2018/05/08 13:08:57","新北市中和區莒光路207號","121.469903333333","24.9957016666667","6500300","中和區"
"235035","783-BX","2018/05/08 13:08:53","新北市中和區板南路520巷15號","121.48375","25.0089683333333","6500300","中和區"
"235026","800-TS","2018/05/08 13:08:54","新北市中和區建一路3號","121.488243333333","25.00409","6500300","中和區"
"235021","801-TS","2018/05/08 13:09:10","新北市中和區員山路36巷16-3號","121.485016666667","24.9917166666667","6500300","中和區"
"235016","805-TS","2018/05/08 13:08:57","新北市中和區中正路637巷52弄1號","121.48545","24.993385","6500300","中和區"
"235017","900-TW","2018/05/08 13:08:59","新北市中和區員山路36巷16-3號","121.484925","24.9917016666667","6500300","中和區"
"235030","911-UM","2018/05/08 13:09:02","新北市中和區光華街17號","121.504608333333","25.004195","6500300","中和區"
"235015","157-BY","2018/05/08 13:09:07","新北市中和區中正路175號","121.497433333333","24.9936283333333","6500300","中和區"
"235001","AAC-213","2018/05/08 13:08:53","新北市中和區景平路155號","121.513656666667","24.9923433333333","6500300","中和區"
"235029","251-BX","2018/05/08 13:09:04","新北市中和區福祥路92號","121.499178333333","25.0058933333333","6500300","中和區"
"228004","212-TW","2018/05/08 13:08:58","新北市貢寮區吉林里內寮街75號","121.89108","24.9719283333333","6502600","貢寮區"
"228005","828-UM","2018/05/08 13:08:56","新北市貢寮區仁理村仁和路49巷4號","121.923285","25.0542666666667","6502600","貢寮區"
"207002","749-BX","2018/05/08 13:09:06","新北市萬里區崁腳里崁腳路166號","121.645046666667","25.1558983333333","6502800","萬里區"
"207001","662-BX","2018/05/08 13:09:00","新北市萬里區萬里里瑪鋉路85號","121.688531666667","25.1768166666667","6502800","萬里區"
"252005","AAC-283","2018/05/08 13:08:51","新北市三芝區埔坪里埔頭坑164號","121.508146666667","25.2477833333333","6502100","三芝區"
"236006","498-BY","2018/05/08 13:09:01","新北市土城區亞洲路60號","121.435056666667","24.9736766666667","6501300","土城區"
"221032","280-BY","2018/05/08 13:09:04","新北市汐止區大同路二段423號","121.658773333333","25.067275","6501100","汐止區"
