"lineid","car","time","location","longitude","latitude","cityid","cityname"
"234044","149-BY","2018/05/08 13:19:08","新北市永和區永元路50號","121.522301666667","25.0010233333333","6500400","永和區"
"234005","207-UY","2018/05/08 13:19:06","新北市永和區中山路一段331號","121.506068333333","25.0060933333333","6500400","永和區"
"234078","298-R6","2018/05/08 13:18:59","新北市永和區福和路7巷5弄5號","121.525395","25.0080916666667","6500400","永和區"
"234036","336-UY","2018/05/08 13:19:08","新北市永和區成功路二段121巷11號","121.527408333333","24.9985","6500400","永和區"
"234062","337-UY","2018/05/08 13:19:09","新北市永和區永元路17巷6弄2號","121.521391666667","25.0006833333333","6500400","永和區"
"234084","338-UY","2018/05/08 13:19:11","新北市永和區永利路72號","121.520276666667","25.00433","6500400","永和區"
"234068","552-UM","2018/05/08 13:19:01","新北市永和區中正路696-1號","121.516608333333","25.0099033333333","6500400","永和區"
"234015","745-BX","2018/05/08 13:19:08","新北市永和區環河西路一段95巷19弄1號","121.511668333333","25.01719","6500400","永和區"
"234028","746-BX","2018/05/08 13:19:07","新北市永和區厚德街68號","121.524006666667","24.998865","6500400","永和區"
"234052","KEA-2590","2018/05/08 13:18:59","新北市永和區中興街12號","121.515708333333","25.0119533333333","6500400","永和區"
"234012","KEA-2591","2018/05/08 13:19:08","新北市永和區信義路34號","121.513578333333","25.012355","6500400","永和區"
"234060","AAD-866","2018/05/08 13:19:06","新北市永和區秀朗路一段175號","121.51702","25.0037733333333","6500400","永和區"
"234040","862-TW","2018/05/08 13:19:04","新北市永和區保平路203巷11號","121.509496666667","25.00526","6500400","永和區"
"234048","863-TW","2018/05/08 13:19:02","新北市永和區仁愛路104巷8號","121.512105","25.0135416666667","6500400","永和區"
"234025","9371-KE","2018/05/08 13:19:00","新北市永和區豫溪街28巷22號","121.514975","25.0089033333333","6500400","永和區"
"234010","9373-KE","2018/05/08 13:18:57","新北市永和區文化路126巷8號","121.51316","25.0158066666667","6500400","永和區"
"248017","225-UY","2018/05/08 13:18:44","新北市五股區御史路162號","121.429071666667","25.1035883333333","6501500","五股區"
"234022","9380-KE","2018/05/08 13:19:10","新北市永和區竹林路91巷15弄1號","121.520313333333","25.01233","6500400","永和區"
"234076","969-R7","2018/05/08 13:18:51","新北市永和區民有街100號","121.517731666667","24.9957866666667","6500400","永和區"
"234072","AAC-211","2018/05/08 13:19:07","新北市永和區竹林路23號","121.517155","25.0147516666667","6500400","永和區"
"234066","AAC-212","2018/05/08 13:19:01","新北市永和區保平路50巷3號","121.511165","25.0073133333333","6500400","永和區"
"234001","AAC-295","2018/05/08 13:19:08","新北市永和區保福路一段94號","121.512081666667","25.0105183333333","6500400","永和區"
"244002","248-BX","2018/05/08 13:18:55","新北市林口區頭湖74-20號","121.367345","25.0910816666667","6501700","林口區"
"231027","0293-UT","2018/05/08 13:18:54","新北市新店區安康路一段186號","121.524788333333","24.9633566666667","6500600","新店區"
"231028","046-UY","2018/05/08 13:18:55","新北市新店區安華路28-1號","121.519606666667","24.9609883333333","6500600","新店區"
"231001","047-UY","2018/05/08 13:19:08","新北市新店區安華路28-1號","121.519311666667","24.960885","6500600","新店區"
"231005","106-UY","2018/05/08 13:19:01","新北市新店區安華路28-1號","121.519748333333","24.9608883333333","6500600","新店區"
"231010","107-UY","2018/05/08 13:19:01","新北市新店區安康路一段156號","121.526231666667","24.9630083333333","6500600","新店區"
"231020","108-UY","2018/05/08 13:19:04","新北市新店區安康路一段20號","121.531085","24.961025","6500600","新店區"
"231012","187-VK","2018/05/08 13:18:53","新北市新店區安康路一段355-3號","121.519811666667","24.9621866666667","6500600","新店區"
"231023","KEA-2219","2018/05/08 13:18:57","新北市新店區安康路一段48號","121.53033","24.96111","6500600","新店區"
"231026","256-BX","2018/05/08 13:18:52","新北市新店區安康路一段105號","121.529101666667","24.9615666666667","6500600","新店區"
"231003","268-BY","2018/05/08 13:19:03","新北市新店區安華路1-1號","121.519355","24.9604883333333","6500600","新店區"
"231018","278-BY","2018/05/08 13:18:51","新北市新店區環河路114巷4-1號","121.536945","24.9644683333333","6500600","新店區"
"231015","AAD-862","2018/05/08 13:19:06","新北市新店區秀山路72號","121.531406666667","24.9608983333333","6500600","新店區"
"231038","3712-VJ","2018/05/08 13:18:56","新北市新店區安華路28-1號","121.519283333333","24.960655","6500600","新店區"
"231037","4716-K9","2018/05/08 13:18:58","新北市新店區安華路28-1號","121.519273333333","24.9611966666667","6500600","新店區"
"231025","4715-K9","2018/05/08 13:18:57","新北市新店區力行路15號","121.536985","24.965295","6500600","新店區"
"231036","512-UM","2018/05/08 13:19:07","新北市新店區安忠路205巷8號","121.509975","24.9553083333333","6500600","新店區"
"231013","513-UM","2018/05/08 13:19:01","新北市新店區安華路28-1號","121.51971","24.9613","6500600","新店區"
"231034","616-UM","2018/05/08 13:18:51","新北市新店區安華路28-1號","121.519408333333","24.9605966666667","6500600","新店區"
"231006","617-UM","2018/05/08 13:18:53","新北市新店區安華路28-1號","121.51949","24.9609266666667","6500600","新店區"
"231030","619-UM","2018/05/08 13:19:00","新北市新店區安華路16號","121.516553333333","24.9580283333333","6500600","新店區"
"231035","719-UM","2018/05/08 13:19:03","新北市新店區安華路28-1號","121.519626666667","24.96129","6500600","新店區"
"231032","720-UM","2018/05/08 13:18:33","新北市新店區安忠路57巷13號","121.51329","24.9574383333333","6500600","新店區"
"231029","897-TW","2018/05/08 13:19:12","新北市新店區安華路28-1號","121.519561666667","24.960865","6500600","新店區"
"231004","899-TW","2018/05/08 13:18:52","新北市新店區安華路28-1號","121.519196666667","24.96088","6500600","新店區"
"231024","AKT-0513","2018/05/08 13:19:00","新北市新店區安康路一段65號","121.530453333333","24.961055","6500600","新店區"
"235028","005-UY","2018/05/08 13:18:58","新北市中和區圓通路177號","121.497566666667","24.99505","6500300","中和區"
"235027","006-UY","2018/05/08 13:19:03","新北市中和區中正路589巷9號","121.485935","24.9940483333333","6500300","中和區"
"235011","031-BX","2018/05/08 13:18:56","新北市中和區中正路33號","121.502211666667","24.9934716666667","6500300","中和區"
"235020","096-UM","2018/05/08 13:18:50","新北市中和區員山路36巷13號","121.484296666667","24.9914316666667","6500300","中和區"
"235003","097-UM","2018/05/08 13:19:12","新北市中和區景平路355號","121.50471","24.9935116666667","6500300","中和區"
"235004","150-BY","2018/05/08 13:11:32","新北市中和區中正路161巷2號","121.49865","24.9936816666667","6500300","中和區"
"235019","183-VK","2018/05/08 13:19:04","新北市中和區中正路637巷52弄1號","121.485486666667","24.99338","6500300","中和區"
"235002","185-VK","2018/05/08 13:19:07","新北市中和區秀朗路三段128巷17弄3號","121.524376666667","24.9934666666667","6500300","中和區"
"235013","186-VK","2018/05/08 13:18:57","新北市中和區員山路36巷13號","121.484283333333","24.9911533333333","6500300","中和區"
"235031","255-BX","2018/05/08 13:19:11","新北市中和區員山路148巷42號","121.482531666667","24.9971","6500300","中和區"
"235036","301-VK","2018/05/08 13:19:03","新北市中和區錦和路111-1號","121.490223333333","24.9951233333333","6500300","中和區"
"235007","352-BY","2018/05/08 13:19:06","新北市中和區景平路377號","121.504108333333","24.993305","6500300","中和區"
"235032","377-QA","2018/05/08 13:18:58","新北市中和區員山路36巷16-2號","121.485203333333","24.9914716666667","6500300","中和區"
"235025","378-QA","2018/05/08 13:19:04","新北市中和區民德路187號","121.46834","24.999325","6500300","中和區"
"235014","4979-A6","2018/05/08 13:19:01","新北市中和區中正路25號","121.502338333333","24.9934933333333","6500300","中和區"
"235033","4980-A6","2018/05/08 13:18:55","新北市中和區圓通路299巷48弄1號","121.49568","24.9909816666667","6500300","中和區"
"235006","551-UM","2018/05/08 13:19:03","新北市中和區景平路166號","121.517096666667","24.9922983333333","6500300","中和區"
"235034","558-UM","2018/05/08 13:19:07","新北市中和區圓通路93號","121.499711666667","24.9968","6500300","中和區"
"235009","565-BX","2018/05/08 13:19:03","新北市中和區中興街147號","121.49999","24.99117","6500300","中和區"
"235018","640-BX","2018/05/08 13:18:57","新北市中和區民享街86巷14號","121.473831666667","25.000835","6500300","中和區"
"235024","647-TV","2018/05/08 13:18:54","新北市中和區中正路637巷60弄61號","121.485561666667","24.9927733333333","6500300","中和區"
"235035","783-BX","2018/05/08 13:18:53","新北市中和區永和路460號","121.483785","25.0119016666667","6500300","中和區"
"235026","800-TS","2018/05/08 13:18:54","新北市中和區景平路999巷1號","121.495541666667","25.0059333333333","6500300","中和區"
"235021","801-TS","2018/05/08 13:19:10","新北市中和區民安街81號","121.477978333333","24.99972","6500300","中和區"
"235016","805-TS","2018/05/08 13:18:57","新北市中和區南山路239號","121.503651666667","24.99307","6500300","中和區"
"235012","896-TW","2018/05/08 13:18:56","新北市中和區員山路36巷16-3號","121.484948333333","24.9918783333333","6500300","中和區"
"235017","900-TW","2018/05/08 13:18:59","新北市中和區員山路36巷16-3號","121.4849","24.99176","6500300","中和區"
"235030","911-UM","2018/05/08 13:19:02","新北市中和區中山路二段121號","121.502763333333","25.003545","6500300","中和區"
"235015","157-BY","2018/05/08 13:19:07","新北市中和區興南路一段71號","121.510141666667","24.9893816666667","6500300","中和區"
"235001","AAC-213","2018/05/08 13:19:14","新北市中和區景德街68號","121.516955","24.9915683333333","6500300","中和區"
"220017","AAD-861","2018/05/08 13:18:59","新北市板橋區華東街1-10號","121.448673333333","24.99503","6500100","板橋區"
"235029","251-BX","2018/05/08 13:19:04","新北市中和區莊敬路49巷20弄18號","121.502608333333","25.0059066666667","6500300","中和區"
"228004","212-TW","2018/05/08 13:18:58","新北市貢寮區吉林里內寮街23號","121.901863333333","24.9844283333333","6502600","貢寮區"
"228005","828-UM","2018/05/08 13:18:56","新北市貢寮區美豐里丹裡街42號","121.90682","25.05975","6502600","貢寮區"
"207002","749-BX","2018/05/08 13:19:06","新北市萬里區崁腳里崁腳路166號","121.645031666667","25.1559066666667","6502800","萬里區"
"207001","662-BX","2018/05/08 13:19:00","新北市萬里區龜吼里玉田路29號","121.680935","25.1953283333333","6502800","萬里區"
"252005","AAC-283","2018/05/08 13:19:11","新北市三芝區八賢里八連溪87號","121.520225","25.22935","6502100","三芝區"
"236006","498-BY","2018/05/08 13:19:01","新北市土城區亞洲路106號","121.4341","24.9724833333333","6501300","土城區"
"221032","280-BY","2018/05/08 13:19:04","新北市汐止區龍安路183號","121.65285","25.0630083333333","6501100","汐止區"
"220028","200-UY","2018/05/08 13:19:00","新北市板橋區華東街1-9號","121.44815","24.99492","6500100","板橋區"
"220025","687-BX","2018/05/08 13:19:05","新北市板橋區華東街1-10號","121.448341666667","24.994985","6500100","板橋區"
