"lineid","car","time","location","longitude","latitude","cityid","cityname"
"234044","149-BY","2018/05/08 13:49:12","新北市永和區永利路125號","121.524015","25.0027933333333","6500400","永和區"
"234005","207-UY","2018/05/08 13:48:57","新北市中和區中和路462號","121.512301666667","25.0037966666667","6500400","永和區"
"234078","298-R6","2018/05/08 13:48:59","新北市永和區永利路81巷19號","121.52223","25.0037916666667","6500400","永和區"
"234036","336-UY","2018/05/08 13:49:02","新北市永和區成功路二段127號","121.526793333333","24.9982716666667","6500400","永和區"
"234062","337-UY","2018/05/08 13:49:10","新北市永和區中正路368巷12號","121.518238333333","25.0008216666667","6500400","永和區"
"234084","338-UY","2018/05/08 13:49:10","新北市永和區中正路479號","121.51702","25.0063833333333","6500400","永和區"
"234068","552-UM","2018/05/08 13:49:01","新北市永和區竹林路88號","121.51942","25.0126033333333","6500400","永和區"
"234015","745-BX","2018/05/08 13:49:08","新北市永和區文化路68號","121.51429","25.0151016666667","6500400","永和區"
"234028","746-BX","2018/05/08 13:49:07","新北市永和區民生路49號","121.522696666667","24.9978516666667","6500400","永和區"
"234052","KEA-2590","2018/05/08 13:48:59","新北市永和區竹林路39巷28弄29號","121.519638333333","25.0143466666667","6500400","永和區"
"234012","KEA-2591","2018/05/08 13:49:01","新北市永和區保安路254號","121.506196666667","25.0126183333333","6500400","永和區"
"234060","AAD-866","2018/05/08 13:49:06","新北市永和區中正路191號","121.517053333333","24.9990516666667","6500400","永和區"
"234040","862-TW","2018/05/08 13:48:59","新北市永和區中和路389巷8號","121.508173333333","25.0009266666667","6500400","永和區"
"234048","863-TW","2018/05/08 13:49:02","新北市永和區保安路101號","121.508101666667","25.014295","6500400","永和區"
"234010","9373-KE","2018/05/08 13:48:57","新北市永和區保生路55號","121.504745","25.0106466666667","6500400","永和區"
"248017","225-UY","2018/05/08 13:49:04","新北市五股區民義路一段304-3號","121.424728333333","25.0936266666667","6501500","五股區"
"234022","9380-KE","2018/05/08 13:49:10","新北市永和區中正路662巷1號","121.516941666667","25.008895","6500400","永和區"
"234076","969-R7","2018/05/08 13:48:56","新北市永和區民權路36巷17號","121.519043333333","24.9989883333333","6500400","永和區"
"234072","AAC-211","2018/05/08 13:49:07","新北市永和區豫溪街213號","121.5242","25.0093766666667","6500400","永和區"
"234066","AAC-212","2018/05/08 13:49:00","新北市永和區保平路236巷24弄1號","121.50802","25.0069516666667","6500400","永和區"
"234001","AAC-295","2018/05/08 13:49:08","新北市永和區永和路一段63號","121.513013333333","25.0068733333333","6500400","永和區"
"244002","248-BX","2018/05/08 13:48:55","新北市林口區南勢里31號","121.352216666667","25.0703566666667","6501700","林口區"
"231027","0293-UT","2018/05/08 13:48:54","新北市新店區中興路一段24號","121.538728333333","24.9583983333333","6500600","新店區"
"231028","046-UY","2018/05/08 13:49:04","新北市新店區安和路二段218-1號","121.517983333333","24.9752066666667","6500600","新店區"
"231001","047-UY","2018/05/08 13:49:08","新北市新店區三民路86號","121.534503333333","24.9728116666667","6500600","新店區"
"231005","106-UY","2018/05/08 13:49:01","新北市新店區寶中路121-1號","121.549651666667","24.9794183333333","6500600","新店區"
"231010","107-UY","2018/05/08 13:49:01","新北市新店區平等街49號","121.536288333333","24.9729866666667","6500600","新店區"
"231020","108-UY","2018/05/08 13:49:04","新北市新店區新烏路二段7號","121.54374","24.929615","6500600","新店區"
"231012","187-VK","2018/05/08 13:48:53","新北市新店區德正街27巷29弄31號","121.545305","24.971915","6500600","新店區"
"231023","KEA-2219","2018/05/08 13:48:57","新北市新店區國校路25號","121.537973333333","24.9562466666667","6500600","新店區"
"231026","256-BX","2018/05/08 13:48:51","新北市新店區三民路159巷19弄48號","121.532208333333","24.9731716666667","6500600","新店區"
"231003","268-BY","2018/05/08 13:49:03","新北市新店區中興路一段161號","121.54253","24.964125","6500600","新店區"
"231018","278-BY","2018/05/08 13:49:11","新北市新店區中正路399巷1號","121.534248333333","24.9771416666667","6500600","新店區"
"231015","AAD-862","2018/05/08 13:49:05","新北市新店區竹林路92號","121.553943333333","24.95022","6500600","新店區"
"231038","3712-VJ","2018/05/08 13:48:56","新北市新店區安華路28-1號","121.520138333333","24.9613866666667","6500600","新店區"
"231037","4716-K9","2018/05/08 13:48:58","新北市新店區安康路二段414巷1-1號","121.496296666667","24.9554483333333","6500600","新店區"
"231025","4715-K9","2018/05/08 13:48:57","新北市新店區中央路13號","121.533368333333","24.9784683333333","6500600","新店區"
"231036","512-UM","2018/05/08 13:49:07","新北市新店區安祥路110巷21號","121.473803333333","24.9562266666667","6500600","新店區"
"231013","513-UM","2018/05/08 13:49:06","新北市新店區二十張路25巷18弄9號","121.539303333333","24.98163","6500600","新店區"
"231034","616-UM","2018/05/08 13:49:11","新北市新店區達觀路14巷2號","121.503408333333","24.9417766666667","6500600","新店區"
"231006","617-UM","2018/05/08 13:48:53","新北市新店區北宜路一段260號","121.545696666667","24.952775","6500600","新店區"
"231002","618-UM","2018/05/08 13:49:10","新北市新店區溪園路245-6號","121.525261666667","24.9832616666667","6500600","新店區"
"231030","619-UM","2018/05/08 13:49:00","新北市新店區安康路一段42號","121.530928333333","24.9610716666667","6500600","新店區"
"231035","719-UM","2018/05/08 13:49:03","新北市新店區安忠路57巷9弄2號","121.51355","24.9582066666667","6500600","新店區"
"231032","720-UM","2018/05/08 13:48:54","新北市新店區華城路36巷33號","121.527416666667","24.9544616666667","6500600","新店區"
"231029","897-TW","2018/05/08 13:48:52","新北市新店區安康路二段125-1號","121.512373333333","24.9608816666667","6500600","新店區"
"231004","899-TW","2018/05/08 13:48:52","新北市新店區中興路二段252號","121.547413333333","24.97596","6500600","新店區"
"231024","AKT-0513","2018/05/08 13:49:00","新北市新店區力行路12號","121.539413333333","24.9646333333333","6500600","新店區"
"235028","005-UY","2018/05/08 13:48:57","新北市中和區景平路545巷10號","121.49807","24.9991083333333","6500300","中和區"
"235027","006-UY","2018/05/08 13:49:11","新北市中和區錦和路115號","121.490566666667","24.9944683333333","6500300","中和區"
"235011","031-BX","2018/05/08 13:48:56","新北市中和區興南路二段34巷20號","121.5061","24.986265","6500300","中和區"
"235020","096-UM","2018/05/08 13:49:11","新北市中和區立德街329號","121.481446666667","25.0104633333333","6500300","中和區"
"235001","097-UM","2018/05/08 13:48:52","新北市中和區大勇街25巷36號","121.515986666667","24.993775","6500300","中和區"
"235019","183-VK","2018/05/08 13:49:04","新北市中和區德光路77巷3號","121.469648333333","25.0034683333333","6500300","中和區"
"235002","185-VK","2018/05/08 13:49:07","新北市中和區立人街24-5號","121.518858333333","24.9942066666667","6500300","中和區"
"235013","186-VK","2018/05/08 13:48:57","新北市中和區景安路177巷21號","121.50628","24.9944033333333","6500300","中和區"
"235031","255-BX","2018/05/08 13:49:11","新北市中和區新生街222號","121.483808333333","24.9984283333333","6500300","中和區"
"235008","293-VK","2018/05/08 13:49:09","新北市中和區中興街121號","121.499935","24.9918916666667","6500300","中和區"
"235036","301-VK","2018/05/08 13:49:03","新北市中和區中山路二段41號","121.50458","25.005105","6500300","中和區"
"235007","352-BY","2018/05/08 13:49:05","新北市中和區成功路54號","121.525991666667","24.9925166666667","6500300","中和區"
"235032","377-QA","2018/05/08 13:48:58","新北市中和區中正路271-3號","121.495835","24.99347","6500300","中和區"
"235025","378-QA","2018/05/08 13:49:04","新北市中和區民治街134巷8號","121.475038333333","25.0020783333333","6500300","中和區"
"235014","4979-A6","2018/05/08 13:49:01","新北市中和區忠孝街62巷9弄10號","121.513161666667","24.9839616666667","6500300","中和區"
"235033","4980-A6","2018/05/08 13:48:55","新北市中和區南山路59號","121.502086666667","24.9983716666667","6500300","中和區"
"235006","551-UM","2018/05/08 13:49:03","新北市中和區秀朗路三段70巷39號","121.525278333333","24.9943483333333","6500300","中和區"
"235034","558-UM","2018/05/08 13:49:07","新北市中和區中和路163號","121.502915","24.9998983333333","6500300","中和區"
"235009","565-BX","2018/05/08 13:49:03","新北市中和區南山路323號","121.505253333333","24.9913433333333","6500300","中和區"
"235018","640-BX","2018/05/08 13:48:57","新北市中和區民享街16號","121.474018333333","25.00389","6500300","中和區"
"235024","647-TV","2018/05/08 13:48:54","新北市中和區中山路三段173號","121.473046666667","25.006205","6500300","中和區"
"235010","733-UM","2018/05/08 13:49:03","新北市中和區仁愛街36巷40號","121.511288333333","24.9864516666667","6500300","中和區"
"235035","783-BX","2018/05/08 13:48:53","新北市中和區立德街26巷13號","121.489895","25.007415","6500300","中和區"
"235026","800-TS","2018/05/08 13:49:13","新北市中和區中山路二段340巷63號","121.492848333333","25.0047733333333","6500300","中和區"
"235021","801-TS","2018/05/08 13:49:10","新北市中和區民安街19號","121.480473333333","25.0006783333333","6500300","中和區"
"235016","805-TS","2018/05/08 13:48:57","新北市中和區興南路二段399巷86號","121.500091666667","24.9783983333333","6500300","中和區"
"235012","896-TW","2018/05/08 13:48:56","新北市中和區南山路389號","121.50651","24.9903266666667","6500300","中和區"
"235017","900-TW","2018/05/08 13:48:59","新北市中和區華福街44號","121.466455","24.9965683333333","6500300","中和區"
"235030","911-UM","2018/05/08 13:49:02","新北市中和區中山路二段131巷33號","121.503793333333","25.00283","6500300","中和區"
"235015","157-BY","2018/05/08 13:49:07","新北市中和區工專路131號","121.508293333333","24.9791033333333","6500300","中和區"
"235001","AAC-213","2018/05/08 13:49:08","新北市中和區秀朗路三段128巷17弄5號","121.524316666667","24.9934683333333","6500300","中和區"
"235023","AAC-215","2018/05/08 13:49:03","新北市中和區圓通路393巷11號","121.489938333333","24.9886416666667","6500300","中和區"
"220016","013-TV","2018/05/08 13:49:08","新北市板橋區民生路二段123號","121.47072","25.0186966666667","6500100","板橋區"
"220013","072-UY","2018/05/08 13:49:06","新北市板橋區漢生東路282號","121.471201666667","25.0090116666667","6500100","板橋區"
"220034","073-UY","2018/05/08 13:49:07","新北市板橋區大智街58號","121.45443","25.0154433333333","6500100","板橋區"
"220105","075-UY","2018/05/08 13:48:55","新北市板橋區民生路二段120號","121.470361666667","25.01977","6500100","板橋區"
"220017","AAD-861","2018/05/08 13:48:59","新北市板橋區館前西路49號","121.457756666667","25.0065083333333","6500100","板橋區"
"247005","336-TH","2018/05/08 13:49:11","新北市蘆洲區中山二路256號","121.469308333333","25.0789466666667","6501400","蘆洲區"
"247007","056-VK","2018/05/08 13:48:58","新北市蘆洲區集賢路395號","121.480696666667","25.0819933333333","6501400","蘆洲區"
"247019","001-UY","2018/05/08 13:49:02","新北市蘆洲區民族路422巷48弄24號","121.474766666667","25.0931533333333","6501400","蘆洲區"
"235029","251-BX","2018/05/08 13:49:04","新北市中和區中山路二段2巷45弄24號","121.501505","25.0069766666667","6500300","中和區"
"228004","212-TW","2018/05/08 13:43:58","新北市貢寮區龍崗里嵩陽街8號","121.901913333333","25.010855","6502600","貢寮區"
"228005","828-UM","2018/05/08 13:48:56","新北市貢寮區美豐里土地公嶺10號","121.889075","25.0585783333333","6502600","貢寮區"
"207002","749-BX","2018/05/08 13:49:06","新北市萬里區崁腳里崁腳路166號","121.645041666667","25.155885","6502800","萬里區"
"207001","662-BX","2018/05/08 13:49:00","新北市金山區坑子內1-3號","121.632278333333","25.2122633333333","6502800","萬里區"
"252005","AAC-283","2018/05/08 13:49:11","新北市三芝區圓山里二坪頂78號","121.541951666667","25.2460033333333","6502100","三芝區"
"236065","105-UM","2018/05/08 13:49:10","新北市土城區城林路6巷80號","121.438665","24.97968","6501300","土城區"
"236040","107-UM","2018/05/08 13:49:08","新北市土城區城林路6巷80號","121.438488333333","24.9797733333333","6501300","土城區"
"236074","166-UM","2018/05/08 13:49:09","新北市土城區永寧路35號","121.430103333333","24.96214","6501300","土城區"
"236029","253-BX","2018/05/08 13:49:06","新北市土城區城林路6巷80號","121.438448333333","24.9798283333333","6501300","土城區"
"236024","269-VK","2018/05/08 13:49:03","新北市土城區中華路二段2號","121.439146666667","24.97974","6501300","土城區"
"236013","270-VK","2018/05/08 13:48:55","新北市土城區城林路6巷80號","121.438598333333","24.97978","6501300","土城區"
"236032","271-VK","2018/05/08 13:48:56","新北市土城區城林路6巷80號","121.438426666667","24.979785","6501300","土城區"
"236017","401-BY","2018/05/08 13:49:05","新北市土城區城林路6巷80號","121.438668333333","24.979745","6501300","土城區"
"236006","498-BY","2018/05/08 13:49:01","新北市土城區員福街62號","121.44009","24.97933","6501300","土城區"
"236057","912-UM","2018/05/08 13:49:01","新北市土城區中華路二段2號","121.439631666667","24.9794433333333","6501300","土城區"
"236045","913-UM","2018/05/08 13:49:04","新北市土城區城林路6巷80號","121.438546666667","24.9797083333333","6501300","土城區"
"236060","915-UM","2018/05/08 13:49:07","新北市土城區城林路6巷80號","121.438436666667","24.9797233333333","6501300","土城區"
"236054","AAC-216","2018/05/08 13:48:55","新北市土城區城林路6巷80號","121.438586666667","24.97973","6501300","土城區"
"220027","145-BY","2018/05/08 13:48:53","新北市板橋區民權路202巷2弄1號","121.459498333333","25.0141216666667","6500100","板橋區"
"220028","200-UY","2018/05/08 13:49:00","新北市板橋區大觀路二段265巷60弄43號","121.441593333333","24.997835","6500100","板橋區"
"220030","610-BX","2018/05/08 13:49:05","新北市板橋區篤行路三段71號","121.42732","24.9855116666667","6500100","板橋區"
"220050","245-BX","2018/05/08 13:48:57","新北市板橋區民生路二段161巷1號","121.470118333333","25.0201133333333","6500100","板橋區"
"220014","255-TC","2018/05/08 13:34:14","新北市板橋區民生路二段120號","121.470453333333","25.0195216666667","6500100","板橋區"
"220052","257-TC","2018/05/08 13:48:52","新北市板橋區民生路二段120號","121.470628333333","25.01956","6500100","板橋區"
"220040","267-BY","2018/05/08 13:49:00","新北市板橋區民生路二段161巷1號","121.469988333333","25.020115","6500100","板橋區"
"220004","276-BY","2018/05/08 13:49:10","新北市板橋區四川路二段96號","121.451646666667","24.99446","6500100","板橋區"
"220020","277-BY","2018/05/08 13:49:06","新北市板橋區金門街21號","121.433521666667","24.9947366666667","6500100","板橋區"
"220019","283-VK","2018/05/08 13:49:11","新北市板橋區忠孝路196巷43號","121.465601666667","25.0017","6500100","板橋區"
"220043","285-UM","2018/05/08 13:49:03","新北市板橋區民生路二段161巷3號","121.470283333333","25.0198233333333","6500100","板橋區"
"220001","285-VK","2018/05/08 13:48:54","新北市板橋區民生路二段80號","121.471858333333","25.0183966666667","6500100","板橋區"
"220031","286-VK","2018/05/08 13:49:12","新北市板橋區大觀路一段38巷156弄137號","121.44357","25.0086266666667","6500100","板橋區"
"220029","287-VK","2018/05/08 13:48:59","新北市板橋區光華街13巷12號","121.4536","25.01145","6500100","板橋區"
"220039","288-VK","2018/05/08 13:49:08","新北市板橋區民生路二段120號","121.470376666667","25.0195983333333","6500100","板橋區"
"220009","293-UM","2018/05/08 13:48:57","新北市板橋區太和街5巷14號","121.473245","25.0199283333333","6500100","板橋區"
"220032","296-UM","2018/05/08 13:49:11","新北市板橋區大觀路二段156巷26號","121.441313333333","24.99984","6500100","板橋區"
"220023","303-R5","2018/05/08 13:49:01","新北市板橋區南雅西路一段174巷1弄2號","121.453013333333","25.0075383333333","6500100","板橋區"
"220010","305-R5","2018/05/08 13:49:03","新北市板橋區中山路二段28號","121.472628333333","25.0151533333333","6500100","板橋區"
"220041","307-R5","2018/05/08 13:48:55","新北市板橋區民生路二段120號","121.470328333333","25.02002","6500100","板橋區"
"220047","317-R6","2018/05/08 13:48:56","新北市板橋區民生路二段120號","121.470521666667","25.019665","6500100","板橋區"
"220012","486-VK","2018/05/08 13:49:05","新北市板橋區民生路二段36-1號","121.47208","25.0167966666667","6500100","板橋區"
"220037","491-VK","2018/05/08 13:48:58","新北市板橋區民生路二段175號","121.469915","25.02024","6500100","板橋區"
"220104","560-BX","2018/05/08 13:48:56","新北市板橋區中正路275巷3弄1號","121.454551666667","25.0185433333333","6500100","板橋區"
"220011","609-BX","2018/05/08 13:48:55","新北市板橋區中山路二段50-1號","121.473163333333","25.01561","6500100","板橋區"
"220003","630-UY","2018/05/08 13:49:05","新北市板橋區新站路12號","121.465905","25.0123983333333","6500100","板橋區"
"220057","686-BX","2018/05/08 13:49:05","新北市板橋區華興街90號","121.456846666667","25.0055116666667","6500100","板橋區"
"220025","687-BX","2018/05/08 13:49:05","新北市板橋區大觀路三段8-1號","121.434578333333","24.9954483333333","6500100","板橋區"
"220042","689-BX","2018/05/08 13:49:09","新北市板橋區民生路二段161巷1號","121.470058333333","25.0202033333333","6500100","板橋區"
"220002","741-BX","2018/05/08 13:49:00","新北市板橋區館前東路21號","121.46035","25.007205","6500100","板橋區"
"220051","KEA-2699","2018/05/08 13:48:55","新北市板橋區民生路二段120號","121.47035","25.0196566666667","6500100","板橋區"
"220014","829-TW","2018/05/08 13:48:58","新北市板橋區民生路二段15號","121.472718333333","25.01605","6500100","板橋區"
"220038","833-TW","2018/05/08 13:48:54","新北市板橋區民生路二段175號","121.469923333333","25.0203","6500100","板橋區"
"220022","895-R6","2018/05/08 13:49:01","新北市板橋區南門街59號","121.45717","25.0083183333333","6500100","板橋區"
"220021","985-R7","2018/05/08 13:49:05","新北市板橋區館前西路109號","121.45689","25.007465","6500100","板橋區"
"220046","AAC-210","2018/05/08 13:47:41","新北市板橋區民生路二段188號","121.470046666667","25.0202683333333","6500100","板橋區"
"220018","AAC-253","2018/05/08 13:49:09","新北市板橋區館前西路7號","121.459085","25.00704","6500100","板橋區"
