"lineid","car","time","location","longitude","latitude","cityid","cityname"
"234062","337-UY","2018/05/08 14:39:09","新北市中和區環河西路三段83號","121.493276666667","25.0079666666667","6500400","永和區"
"234084","338-UY","2018/05/08 14:39:11","新北市永和區中正路555號","121.516781666667","25.0083216666667","6500400","永和區"
"234068","552-UM","2018/05/08 14:39:01","新北市永和區永和路一段2號","121.512591666667","25.0043783333333","6500400","永和區"
"234025","9371-KE","2018/05/08 14:39:05","新北市永和區雙和街11號","121.509573333333","25.00173","6500400","永和區"
"248017","225-UY","2018/05/08 14:23:24","新北市五股區外寮路6-1號","121.425176666667","25.0752233333333","6501500","五股區"
"234072","AAC-211","2018/05/08 14:39:07","新北市永和區環河東路二段8號","121.522128333333","25.013385","6500400","永和區"
"244002","248-BX","2018/05/08 14:39:00","新北市林口區竹林路266號","121.389651666667","25.0807816666667","6501700","林口區"
"231027","0293-UT","2018/05/08 14:38:53","新北市新店區中正路102巷9弄2號","121.543491666667","24.971195","6500600","新店區"
"231028","046-UY","2018/05/08 14:39:15","新北市新店區安成街35號","121.509878333333","24.9611566666667","6500600","新店區"
"231001","047-UY","2018/05/08 14:39:07","新北市新店區中正路30號","121.545271666667","24.969915","6500600","新店區"
"231005","106-UY","2018/05/08 14:39:01","新北市新店區復興路94-1號","121.533233333333","24.9883933333333","6500600","新店區"
"231020","108-UY","2018/05/08 14:39:04","新北市新店區永興路102-4號","121.54643","24.93019","6500600","新店區"
"231012","187-VK","2018/05/08 14:39:12","新北市新店區寶橋路158號","121.548785","24.9771483333333","6500600","新店區"
"231023","KEA-2219","2018/05/08 14:38:57","新北市新店區檳榔路29巷2號","121.541901666667","24.9636366666667","6500600","新店區"
"231003","268-BY","2018/05/08 14:39:03","新北市新店區中興路一段294號","121.546031666667","24.9692966666667","6500600","新店區"
"231018","278-BY","2018/05/08 14:38:51","新北市新店區中央路218號","121.529606666667","24.9731483333333","6500600","新店區"
"231015","AAD-862","2018/05/08 14:39:06","新北市新店區北宜路三段221號","121.59237","24.9532066666667","6500600","新店區"
"231038","3712-VJ","2018/05/08 14:38:55","新北市新店區安康路一段48號","121.530465","24.9611333333333","6500600","新店區"
"231037","4716-K9","2018/05/08 14:38:57","新北市新店區安興路20號","121.515013333333","24.96601","6500600","新店區"
"231036","512-UM","2018/05/08 14:39:07","新北市新店區安祥路106巷147號","121.473411666667","24.95883","6500600","新店區"
"231013","513-UM","2018/05/08 14:39:07","新北市新店區明德路14號","121.542348333333","24.9768916666667","6500600","新店區"
"231034","616-UM","2018/05/08 14:39:11","新北市新店區黎明路53巷1號","121.502261666667","24.9487966666667","6500600","新店區"
"231006","617-UM","2018/05/08 14:38:53","新北市新店區北宜路二段103號","121.550238333333","24.95245","6500600","新店區"
"231002","618-UM","2018/05/08 14:39:10","新北市新店區中正路460號","121.534001666667","24.9793666666667","6500600","新店區"
"231030","619-UM","2018/05/08 14:39:05","新北市新店區安民街189-1號","121.516983333333","24.971125","6500600","新店區"
"231035","719-UM","2018/05/08 14:39:03","新北市新店區安康路二段58巷3號","121.51474","24.9642","6500600","新店區"
"231029","897-TW","2018/05/08 14:39:12","新北市新店區安康路三段552-1號","121.48175","24.9487816666667","6500600","新店區"
"231004","899-TW","2018/05/08 14:39:12","新北市新店區中正路265-1號","121.53798","24.9740566666667","6500600","新店區"
"231024","AKT-0513","2018/05/08 14:39:00","新北市新店區中華路83巷67號","121.538333333333","24.967225","6500600","新店區"
"235027","006-UY","2018/05/08 14:39:03","新北市中和區板南路386號","121.493406666667","24.9993883333333","6500300","中和區"
"235011","031-BX","2018/05/08 14:38:56","新北市中和區捷運路58-3號","121.50743","24.9906616666667","6500300","中和區"
"235020","096-UM","2018/05/08 14:39:11","新北市中和區員山路581巷2弄4-1號","121.478006666667","25.0095416666667","6500300","中和區"
"235003","097-UM","2018/05/08 14:39:12","新北市中和區宜安路56號","121.51179","24.99687","6500300","中和區"
"235004","150-BY","2018/05/08 14:39:13","新北市中和區安平路59號","121.50974","24.99525","6500300","中和區"
"235022","151-BY","2018/05/08 14:39:12","新北市中和區和城路一段271巷1號","121.485488333333","24.99168","6500300","中和區"
"235019","183-VK","2018/05/08 14:39:04","新北市中和區民生街12巷1號","121.47058","25.0056","6500300","中和區"
"235002","185-VK","2018/05/08 14:39:07","新北市中和區立人街69巷7弄2號","121.520093333333","24.99346","6500300","中和區"
"235013","186-VK","2018/05/08 14:38:57","新北市中和區安平路17號","121.509176666667","24.99417","6500300","中和區"
"235031","255-BX","2018/05/08 14:39:11","新北市中和區員山路148巷23弄28號","121.482336666667","24.9977766666667","6500300","中和區"
"235008","293-VK","2018/05/08 14:39:09","新北市中和區捷運路6號","121.510131666667","24.9895616666667","6500300","中和區"
"235036","301-VK","2018/05/08 14:39:03","新北市中和區中山路二段3巷22弄33號","121.505875","25.0041483333333","6500300","中和區"
"235007","352-BY","2018/05/08 14:39:05","新北市中和區南山路201號","121.502918333333","24.994575","6500300","中和區"
"235032","377-QA","2018/05/08 14:38:57","新北市中和區景平路736巷3弄12號","121.497708333333","25.0037266666667","6500300","中和區"
"235025","378-QA","2018/05/08 14:39:04","新北市中和區員山路160號","121.481481666667","24.999695","6500300","中和區"
"235014","4979-A6","2018/05/08 14:39:01","新北市中和區中正路271-1號","121.495728333333","24.9936683333333","6500300","中和區"
"235006","551-UM","2018/05/08 14:39:03","新北市中和區宜安路150號","121.50936","24.99869","6500300","中和區"
"235034","558-UM","2018/05/08 14:39:07","新北市中和區連勝街52號","121.497735","24.9973016666667","6500300","中和區"
"235009","565-BX","2018/05/08 14:39:03","新北市中和區景平路177號","121.512035","24.9925","6500300","中和區"
"235018","640-BX","2018/05/08 14:38:56","新北市中和區國光街102巷2號","121.4703","25.0004133333333","6500300","中和區"
"235024","647-TV","2018/05/08 14:38:54","新北市中和區中山路二段523巷41號","121.482215","25.0031533333333","6500300","中和區"
"235010","733-UM","2018/05/08 14:39:03","新北市中和區四維街40號","121.512351666667","24.9869783333333","6500300","中和區"
"235035","783-BX","2018/05/08 14:38:54","新北市中和區連城路469巷21弄13號","121.484123333333","24.9951283333333","6500300","中和區"
"235021","801-TS","2018/05/08 14:39:10","新北市中和區員山路200號","121.481311666667","25.0005766666667","6500300","中和區"
"235005","802-TS","2018/05/08 14:39:10","新北市中和區宜安路120號","121.51013","24.9980533333333","6500300","中和區"
"235016","805-TS","2018/05/08 14:38:57","新北市中和區華新街206巷20號","121.506183333333","24.9827333333333","6500300","中和區"
"235012","896-TW","2018/05/08 14:38:56","新北市中和區四維街10號","121.513271666667","24.9872883333333","6500300","中和區"
"235017","900-TW","2018/05/08 14:39:02","新北市中和區民德路146巷14號","121.467811666667","25.00051","6500300","中和區"
"235030","911-UM","2018/05/08 14:39:02","新北市中和區景新街135號","121.505855","24.9970683333333","6500300","中和區"
"235015","157-BY","2018/05/08 14:39:07","新北市中和區中興街202巷35號","121.49907","24.9897966666667","6500300","中和區"
"235001","AAC-213","2018/05/08 14:38:53","新北市中和區秀朗路三段135巷2號","121.525145","24.992555","6500300","中和區"
"235023","AAC-215","2018/05/08 14:39:03","新北市中和區圓通路305巷18號","121.49496","24.9891116666667","6500300","中和區"
"220016","013-TV","2018/05/08 14:39:08","新北市板橋區中山路二段412巷16-1號","121.483313333333","25.0202433333333","6500100","板橋區"
"220013","072-UY","2018/05/08 14:39:14","新北市板橋區國泰街39巷5弄22號","121.469001666667","25.0060933333333","6500100","板橋區"
"220034","073-UY","2018/05/08 14:39:05","新北市板橋區中正路1巷4號","121.455666666667","25.0119316666667","6500100","板橋區"
"220105","075-UY","2018/05/08 14:39:13","新北市板橋區民治街26巷18號","121.477338333333","25.0336233333333","6500100","板橋區"
"220017","AAD-861","2018/05/08 14:38:59","新北市板橋區貴興路101號","121.456291666667","25.00177","6500100","板橋區"
"247023","893-R6","2018/05/08 14:39:05","新北市蘆洲區中山二路211號","121.470465","25.0803433333333","6501400","蘆洲區"
"247013","546-UM","2018/05/08 14:39:04","新北市蘆洲區成功路132號","121.472076666667","25.08272","6501400","蘆洲區"
"247009","341-TH","2018/05/08 14:39:01","新北市蘆洲區信義路222巷45號","121.480385","25.0855833333333","6501400","蘆洲區"
"247011","339-TH","2018/05/08 14:38:57","新北市蘆洲區集賢路224巷46弄50-1號","121.481125","25.0877666666667","6501400","蘆洲區"
"247003","337-TH","2018/05/08 14:39:07","新北市蘆洲區永康街79號","121.455745","25.0852466666667","6501400","蘆洲區"
"247005","336-TH","2018/05/08 14:38:52","新北市蘆洲區中華街32號","121.462621666667","25.0811","6501400","蘆洲區"
"247017","057-VK","2018/05/08 14:38:58","新北市蘆洲區民族路402號","121.474785","25.091505","6501400","蘆洲區"
"247007","056-VK","2018/05/08 14:38:58","新北市蘆洲區信義路45號","121.474796666667","25.0795266666667","6501400","蘆洲區"
"247015","007-UY","2018/05/08 14:38:55","新北市蘆洲區正和街86號","121.4683","25.080915","6501400","蘆洲區"
"247001","002-UY","2018/05/08 14:39:01","新北市蘆洲區長安街274巷6弄1號","121.457778333333","25.0870183333333","6501400","蘆洲區"
"247019","001-UY","2018/05/08 14:39:02","新北市蘆洲區民義街62號","121.472821666667","25.0896416666667","6501400","蘆洲區"
"235029","251-BX","2018/05/08 14:39:04","新北市中和區福祥路90巷5號","121.499695","25.00567","6500300","中和區"
"228004","212-TW","2018/05/08 14:38:58","新北市貢寮區福隆里虎子山街9-6號","121.944518333333","25.015425","6502600","貢寮區"
"228005","828-UM","2018/05/08 14:38:55","新北市貢寮區美豐里雞母嶺街6-6號","121.902073333333","25.064245","6502600","貢寮區"
"207002","749-BX","2018/05/08 14:39:06","新北市萬里區崁腳里崁腳路73號","121.647618333333","25.159585","6502800","萬里區"
"207001","662-BX","2018/05/08 14:39:00","新北市萬里區雙興里豐稟路39號","121.642683333333","25.1820383333333","6502800","萬里區"
"252005","AAC-283","2018/05/08 14:39:11","新北市三芝區埔坪里埔頭坑94號","121.509825","25.2503016666667","6502100","三芝區"
"236065","105-UM","2018/05/08 14:39:10","新北市土城區永豐路326號","121.472986666667","24.9775633333333","6501300","土城區"
"236040","107-UM","2018/05/08 14:39:07","新北市土城區裕民路55巷16號","121.44968","24.9888133333333","6501300","土城區"
"236074","166-UM","2018/05/08 14:39:09","新北市土城區中央路四段185巷38號","121.416038333333","24.9558266666667","6501300","土城區"
"236029","253-BX","2018/05/08 14:39:06","新北市土城區中華路二段181號","121.438446666667","24.9748833333333","6501300","土城區"
"236024","269-VK","2018/05/08 14:39:03","新北市土城區忠義路49號","121.440455","24.96917","6501300","土城區"
"236013","270-VK","2018/05/08 14:39:01","新北市土城區清水路196號","121.460236666667","24.981795","6501300","土城區"
"236032","271-VK","2018/05/08 14:39:13","新北市土城區明德路一段291巷16號","121.460361666667","24.9765716666667","6501300","土城區"
"236017","401-BY","2018/05/08 14:39:13","新北市土城區延吉街232號","121.46714","24.9848183333333","6501300","土城區"
"236057","912-UM","2018/05/08 14:39:01","新北市土城區中央路三段285號","121.426005","24.9630516666667","6501300","土城區"
"236045","913-UM","2018/05/08 14:39:04","新北市土城區明德路一段33號","121.464986666667","24.9854266666667","6501300","土城區"
"236060","915-UM","2018/05/08 14:39:07","新北市土城區延壽路13巷7號","121.470855","24.9904933333333","6501300","土城區"
"236054","AAC-216","2018/05/08 14:38:55","新北市土城區中華路一段23號","121.446953333333","24.98909","6501300","土城區"
"220027","145-BY","2018/05/08 14:38:53","新北市板橋區建國街100號","121.45988","25.0173483333333","6500100","板橋區"
"220028","200-UY","2018/05/08 14:39:00","新北市板橋區大觀路二段69巷29號","121.447643333333","25.002135","6500100","板橋區"
"220030","610-BX","2018/05/08 14:39:03","新北市板橋區大觀路三段160巷31弄5號","121.429913333333","24.9938","6500100","板橋區"
"220050","245-BX","2018/05/08 14:39:12","新北市板橋區莊敬路220巷29弄5號","121.472903333333","25.0204283333333","6500100","板橋區"
"220052","257-TC","2018/05/08 14:39:12","新北市板橋區文化路一段288號","121.467398333333","25.02151","6500100","板橋區"
"220040","267-BY","2018/05/08 14:39:00","新北市板橋區懷德街139巷20弄8號","121.48015","25.030525","6500100","板橋區"
"220004","276-BY","2018/05/08 14:39:14","新北市板橋區四川路一段485號","121.457376666667","24.9970966666667","6500100","板橋區"
"220020","277-BY","2018/05/08 14:39:06","新北市板橋區金門街215巷6號","121.433021666667","24.98968","6500100","板橋區"
"220019","283-VK","2018/05/08 14:38:51","新北市板橋區信義路279巷23號","121.46485","24.9903616666667","6500100","板橋區"
"220043","285-UM","2018/05/08 14:39:03","新北市板橋區宏國路44-3號","121.468585","25.03184","6500100","板橋區"
"220001","285-VK","2018/05/08 14:39:14","新北市板橋區中山路二段156號","121.476796666667","25.0171216666667","6500100","板橋區"
"220031","286-VK","2018/05/08 14:39:01","新北市板橋區僑中二街10巷2號","121.446891666667","25.0110066666667","6500100","板橋區"
"220029","287-VK","2018/05/08 14:38:59","新北市板橋區大觀路一段28巷116號","121.449751666667","25.0125916666667","6500100","板橋區"
"220039","288-VK","2018/05/08 14:39:08","新北市板橋區新海路431巷1號","121.45786","25.02737","6500100","板橋區"
"220009","293-UM","2018/05/08 14:38:57","新北市板橋區中山路一段265巷11號","121.468615","25.014665","6500100","板橋區"
"220032","296-UM","2018/05/08 14:39:06","新北市板橋區溪崑二街112巷12號","121.426093333333","24.9890566666667","6500100","板橋區"
"220023","303-R5","2018/05/08 14:39:08","新北市板橋區中正路253巷62號","121.45334","25.0174533333333","6500100","板橋區"
"220010","305-R5","2018/05/08 14:39:03","新北市板橋區三民路二段29巷31弄1號","121.481405","25.0177016666667","6500100","板橋區"
"220041","307-R5","2018/05/08 14:38:54","新北市板橋區陽明街25巷1號","121.46604","25.0217783333333","6500100","板橋區"
"220047","317-R6","2018/05/08 14:38:56","新北市板橋區裕民街75巷2弄16號","121.460423333333","25.0277966666667","6500100","板橋區"
"220012","486-VK","2018/05/08 14:39:05","新北市板橋區中山路一段66號","121.461503333333","25.0098466666667","6500100","板橋區"
"220037","491-VK","2018/05/08 14:38:58","新北市板橋區文化路二段404號","121.473816666667","25.031425","6500100","板橋區"
"220104","560-BX","2018/05/08 14:38:56","新北市板橋區金華街114號","121.458996666667","25.0208666666667","6500100","板橋區"
"220011","609-BX","2018/05/08 14:38:55","新北市板橋區三民路一段1巷28號","121.480225","25.02445","6500100","板橋區"
"220003","630-UY","2018/05/08 14:39:05","新北市板橋區國慶路149巷15號","121.461051666667","24.997195","6500100","板橋區"
"220005","686-BX","2018/05/08 14:39:05","新北市板橋區和平路安樂巷21號","121.461561666667","24.9938583333333","6500100","板橋區"
"220025","687-BX","2018/05/08 14:39:08","新北市板橋區僑中二街116巷2號","121.445685","25.006495","6500100","板橋區"
"220042","689-BX","2018/05/08 14:39:09","新北市板橋區新海路378號","121.45924","25.0258816666667","6500100","板橋區"
"220002","741-BX","2018/05/08 14:39:00","新北市板橋區實踐路65巷43號","121.465118333333","25.0063783333333","6500100","板橋區"
"220051","KEA-2699","2018/05/08 14:38:58","新北市板橋區雙十路二段70巷35號","121.476165","25.028815","6500100","板橋區"
"220014","829-TW","2018/05/08 14:38:57","新北市板橋區漢生東路313巷2弄38號","121.47247","25.0077666666667","6500100","板橋區"
"220045","830-TW","2018/05/08 14:39:04","新北市板橋區文化路一段362-3號","121.468848333333","25.0233133333333","6500100","板橋區"
"220038","833-TW","2018/05/08 14:38:54","新北市板橋區雨農路4-3號","121.46248","25.024905","6500100","板橋區"
"220022","895-R6","2018/05/08 14:39:01","新北市板橋區縣民大道一段297號","121.461176666667","25.01065","6500100","板橋區"
"220021","985-R7","2018/05/08 14:39:05","新北市板橋區中正路332-11號","121.45426","25.02318","6500100","板橋區"
"220046","AAC-210","2018/05/08 14:39:04","新北市板橋區漢生西路89巷2弄11號","121.461726666667","25.0195816666667","6500100","板橋區"
"220018","AAC-253","2018/05/08 14:39:09","新北市板橋區民族路229號","121.469778333333","25.007165","6500100","板橋區"
