"lineid","car","time","location","longitude","latitude","cityid","cityname"
"234084","338-UY","2018/05/08 14:59:10","新北市永和區光復街30號","121.516595","25.01741","6500400","永和區"
"234025","9371-KE","2018/05/08 14:59:00","新北市永和區水源街21巷14弄3號","121.511395","25.0037166666667","6500400","永和區"
"248017","225-UY","2018/05/08 14:59:13","新北市五股區登林路106巷12號","121.42671","25.0713283333333","6501500","五股區"
"244002","248-BX","2018/05/08 14:59:00","新北市林口區竹林路267號","121.389613333333","25.080825","6501700","林口區"
"231028","046-UY","2018/05/08 14:58:54","新北市新店區安康路二段330號","121.504343333333","24.9579466666667","6500600","新店區"
"231001","047-UY","2018/05/08 14:59:07","新北市新店區中正路272號","121.538871666667","24.97357","6500600","新店區"
"231005","106-UY","2018/05/08 14:59:01","新北市新店區寶慶街66號","121.541903333333","24.9867533333333","6500600","新店區"
"231020","108-UY","2018/05/08 14:59:03","新北市新店區永福路54-2號","121.558216666667","24.9286933333333","6500600","新店區"
"231012","187-VK","2018/05/08 14:59:12","新北市新店區寶橋路85巷5弄3號","121.546005","24.975645","6500600","新店區"
"231023","KEA-2219","2018/05/08 14:58:57","新北市新店區檳榔路174號","121.544216666667","24.96177","6500600","新店區"
"231026","256-BX","2018/05/08 14:58:58","新北市新店區博愛街15號","121.54114","24.9734283333333","6500600","新店區"
"231003","268-BY","2018/05/08 14:59:11","新北市新店區五峰路57-1號","121.54707","24.9708083333333","6500600","新店區"
"231018","278-BY","2018/05/08 14:59:11","新北市新店區中央六街5號","121.530296666667","24.9744916666667","6500600","新店區"
"231015","AAD-862","2018/05/08 14:59:05","新北市新店區銀河路75號","121.578376666667","24.9581166666667","6500600","新店區"
"231038","3712-VJ","2018/05/08 14:58:56","新北市新店區安華路28-1號","121.519586666667","24.9608416666667","6500600","新店區"
"231037","4716-K9","2018/05/08 14:58:57","新北市新店區安德街60巷35號","121.51081","24.9636066666667","6500600","新店區"
"231025","4715-K9","2018/05/08 14:58:57","新北市新店區大同街22號","121.539221666667","24.9802083333333","6500600","新店區"
"231036","512-UM","2018/05/08 14:59:07","新北市新店區安祥路102巷30弄13號","121.484606666667","24.9635616666667","6500600","新店區"
"231034","616-UM","2018/05/08 14:59:10","新北市新店區玫瑰路4-1號","121.493593333333","24.9514083333333","6500600","新店區"
"231006","617-UM","2018/05/08 14:58:53","新北市新店區新坡一街72號","121.548953333333","24.9645483333333","6500600","新店區"
"231002","618-UM","2018/05/08 14:59:10","新北市新店區民權路100號","121.536188333333","24.98291","6500600","新店區"
"231030","619-UM","2018/05/08 14:59:00","新北市新店區安民街341-1號","121.51676","24.9749366666667","6500600","新店區"
"231035","719-UM","2018/05/08 14:59:03","新北市新店區安和路二段220號","121.518361666667","24.976665","6500600","新店區"
"231039","719-UY","2018/05/08 14:59:09","新北市新店區民權路10號","121.542401666667","24.9829133333333","6500600","新店區"
"231032","720-UM","2018/05/08 14:59:00","新北市新店區安康路三段311號","121.485805","24.9511766666667","6500600","新店區"
"231029","897-TW","2018/05/08 14:58:52","新北市新店區安康路三段664號","121.476196666667","24.9443183333333","6500600","新店區"
"231004","899-TW","2018/05/08 14:59:12","新北市新店區民族路59號","121.53986","24.9784866666667","6500600","新店區"
"231024","AKT-0513","2018/05/08 14:59:00","新北市新店區中華路83巷67號","121.53831","24.9672866666667","6500600","新店區"
"235020","096-UM","2018/05/08 14:59:10","新北市中和區漢民路416號","121.472325","25.006805","6500300","中和區"
"235003","097-UM","2018/05/08 14:59:12","新北市中和區安樂路143巷11號","121.51406","24.9971616666667","6500300","中和區"
"235004","150-BY","2018/05/08 14:59:13","新北市中和區景安路79巷27-3號","121.507056666667","24.9965216666667","6500300","中和區"
"235022","151-BY","2018/05/08 14:58:52","新北市中和區員山路146巷13號","121.48212","24.9968516666667","6500300","中和區"
"235013","186-VK","2018/05/08 14:58:57","新北市中和區中正路4號","121.503141666667","24.9939816666667","6500300","中和區"
"235031","255-BX","2018/05/08 14:48:11","新北市中和區中正路751巷3弄1號","121.484408333333","24.99966","6500300","中和區"
"235008","293-VK","2018/05/08 14:59:09","新北市中和區中正路93號","121.500178333333","24.99333","6500300","中和區"
"235036","301-VK","2018/05/08 14:59:03","新北市中和區中和路49號","121.500155","25.0013333333333","6500300","中和區"
"235007","352-BY","2018/05/08 14:59:09","新北市中和區華新街232巷2號","121.505951666667","24.9818566666667","6500300","中和區"
"235032","377-QA","2018/05/08 14:58:57","新北市中和區永和路24號","121.499423333333","25.003435","6500300","中和區"
"235014","4979-A6","2018/05/08 14:59:01","新北市中和區景平路276-1號","121.513946666667","24.9924333333333","6500300","中和區"
"235033","4980-A6","2018/05/08 14:59:15","新北市中和區南山路4巷11號","121.50122","24.998845","6500300","中和區"
"235034","558-UM","2018/05/08 14:59:07","新北市中和區圓通路118號","121.49922","24.9962483333333","6500300","中和區"
"235018","640-BX","2018/05/08 14:58:57","新北市中和區莒光路104號","121.472431666667","25.0022433333333","6500300","中和區"
"235010","733-UM","2018/05/08 14:59:03","新北市中和區興南路一段105巷20弄6號","121.510376666667","24.98555","6500300","中和區"
"235035","783-BX","2018/05/08 14:58:53","新北市中和區中正路806號","121.485133333333","25.0022633333333","6500300","中和區"
"235012","896-TW","2018/05/08 14:58:56","新北市中和區忠孝街1巷2-1號","121.509213333333","24.9830916666667","6500300","中和區"
"235030","911-UM","2018/05/08 14:59:02","新北市中和區中山路二段22號","121.504796666667","25.0053383333333","6500300","中和區"
"235015","157-BY","2018/05/08 14:59:09","新北市中和區中興街118巷8號","121.499881666667","24.9934233333333","6500300","中和區"
"235001","AAC-213","2018/05/08 14:58:53","新北市中和區自強路52號","121.520126666667","24.994815","6500300","中和區"
"235023","AAC-215","2018/05/08 14:59:03","新北市中和區圓通路335巷7號","121.493061666667","24.9896666666667","6500300","中和區"
"220016","013-TV","2018/05/08 14:58:48","新北市板橋區中山路二段318巷4號","121.480221666667","25.0191516666667","6500100","板橋區"
"220013","072-UY","2018/05/08 14:59:06","新北市板橋區民生路一段73巷8號","121.474571666667","25.0136966666667","6500100","板橋區"
"220105","075-UY","2018/05/08 14:58:55","新北市板橋區文聖街13號","121.475545","25.0323616666667","6500100","板橋區"
"220017","AAD-861","2018/05/08 14:58:59","新北市板橋區貴興路111號","121.455828333333","25.0025533333333","6500100","板橋區"
"247006","336-TH","2018/05/08 14:49:55","新北市五股區中興路三段163號","121.449191666667","25.080685","6501400","蘆洲區"
"235029","251-BX","2018/05/08 14:59:04","新北市中和區永和路108號","121.496551666667","25.0057016666667","6500300","中和區"
"228004","212-TW","2018/05/08 14:58:58","新北市貢寮區雙玉里田寮洋街25-1號","121.929735","25.017705","6502600","貢寮區"
"207002","749-BX","2018/05/08 14:59:06","新北市萬里區崁腳里崁腳路73號","121.647645","25.1595966666667","6502800","萬里區"
"207001","662-BX","2018/05/08 14:59:00","新北市萬里區雙興里麗水路8-1號","121.64984","25.1874483333333","6502800","萬里區"
"236065","105-UM","2018/05/08 14:59:10","新北市土城區裕生路71號","121.447075","24.9846866666667","6501300","土城區"
"236040","107-UM","2018/05/08 14:59:07","新北市土城區學府路一段226號","121.452026666667","24.9850466666667","6501300","土城區"
"236074","166-UM","2018/05/08 14:59:14","新北市土城區中州路12巷28號","121.41536","24.95767","6501300","土城區"
"236029","253-BX","2018/05/08 14:59:06","新北市土城區福仁街11號","121.440841666667","24.9765883333333","6501300","土城區"
"236024","269-VK","2018/05/08 14:59:03","新北市土城區金城路一段129巷31號","121.44486","24.97464","6501300","土城區"
"236013","270-VK","2018/05/08 14:59:15","新北市土城區永豐路17-1號","121.462553333333","24.9882466666667","6501300","土城區"
"236032","271-VK","2018/05/08 14:59:10","新北市土城區清水路183號","121.459565","24.9815216666667","6501300","土城區"
"236017","401-BY","2018/05/08 14:59:05","新北市土城區延吉街217巷3弄1號","121.468751666667","24.984875","6501300","土城區"
"236057","912-UM","2018/05/08 14:59:00","新北市土城區清水路3號","121.452906666667","24.9802466666667","6501300","土城區"
"236045","913-UM","2018/05/08 14:59:04","新北市土城區明德路一段398-1號","121.453636666667","24.9791116666667","6501300","土城區"
"236060","915-UM","2018/05/08 14:59:07","新北市土城區延和路88巷10弄1號","121.466765","24.988925","6501300","土城區"
"236054","AAC-216","2018/05/08 14:58:55","新北市土城區學成路99巷1號","121.450386666667","24.9888066666667","6501300","土城區"
"221002","707-TV","2018/05/08 14:59:09","新北市汐止區莊敬街19巷1號","121.657351666667","25.0614816666667","6501100","汐止區"
"220027","145-BY","2018/05/08 14:58:53","新北市板橋區大觀路一段28巷1弄57-9號","121.451593333333","25.0071016666667","6500100","板橋區"
"220050","245-BX","2018/05/08 14:59:08","新北市板橋區縣民大道三段35號","121.473888333333","25.0207566666667","6500100","板橋區"
"220052","257-TC","2018/05/08 14:59:12","新北市板橋區自由路46號","121.465683333333","25.0233","6500100","板橋區"
"220040","267-BY","2018/05/08 14:59:00","新北市板橋區民治街119巷7號","121.47857","25.0307133333333","6500100","板橋區"
"220020","277-BY","2018/05/08 14:59:06","新北市板橋區大觀路二段435-1號","121.44677","24.9947283333333","6500100","板橋區"
"220019","283-VK","2018/05/08 14:59:11","新北市板橋區和平路14巷38號","121.461791666667","24.9915916666667","6500100","板橋區"
"220043","285-UM","2018/05/08 14:59:03","新北市板橋區文德路11號","121.462718333333","25.0244283333333","6500100","板橋區"
"220001","285-VK","2018/05/08 14:59:11","新北市板橋區永豐街87號","121.473621666667","25.0190333333333","6500100","板橋區"
"220031","286-VK","2018/05/08 14:58:52","新北市板橋區僑中二街104巷20號","121.445233333333","25.008105","6500100","板橋區"
"220029","287-VK","2018/05/08 14:58:59","新北市板橋區僑中一街102巷5弄9號","121.446351666667","25.0126583333333","6500100","板橋區"
"220039","288-VK","2018/05/08 14:59:08","新北市板橋區幸福路32巷55號","121.46041","25.0220583333333","6500100","板橋區"
"220009","293-UM","2018/05/08 14:58:57","新北市板橋區觀光街33巷19號","121.47102","25.0157816666667","6500100","板橋區"
"220023","303-R5","2018/05/08 14:59:04","新北市板橋區金華街10巷87-1號","121.45843","25.0204483333333","6500100","板橋區"
"220010","305-R5","2018/05/08 14:59:03","新北市板橋區中山路二段519號","121.483023333333","25.0212333333333","6500100","板橋區"
"220041","307-R5","2018/05/08 14:59:09","新北市板橋區裕民街126號","121.458955","25.0275233333333","6500100","板橋區"
"220047","317-R6","2018/05/08 14:58:56","新北市板橋區新海路72巷15號","121.462548333333","25.0221733333333","6500100","板橋區"
"220012","486-VK","2018/05/08 14:59:05","新北市板橋區漢生東路217號","121.47077","25.0100033333333","6500100","板橋區"
"220037","491-VK","2018/05/08 14:58:58","新北市板橋區懷德街187-3號","121.479751666667","25.0296416666667","6500100","板橋區"
"220104","560-BX","2018/05/08 14:58:56","新北市板橋區僑中一街124巷74-5號","121.448056666667","25.0176833333333","6500100","板橋區"
"220011","609-BX","2018/05/08 14:58:55","新北市板橋區中山路二段387號","121.480246666667","25.0193683333333","6500100","板橋區"
"220003","630-UY","2018/05/08 14:59:05","新北市板橋區國慶路213巷5號","121.46305","24.9972183333333","6500100","板橋區"
"220005","686-BX","2018/05/08 14:59:04","新北市板橋區南雅南路二段144巷55號","121.450243333333","24.9951383333333","6500100","板橋區"
"220025","687-BX","2018/05/08 14:59:04","新北市板橋區僑中一街124巷22號","121.446238333333","25.014165","6500100","板橋區"
"220042","689-BX","2018/05/08 14:59:09","新北市板橋區長江路二段333號","121.471598333333","25.0335516666667","6500100","板橋區"
"220051","KEA-2699","2018/05/08 14:58:55","新北市板橋區仁化街42巷26號","121.475628333333","25.0308966666667","6500100","板橋區"
"220014","829-TW","2018/05/08 14:58:57","新北市板橋區長安街331巷19弄13號","121.473421666667","25.0122633333333","6500100","板橋區"
"220045","830-TW","2018/05/08 14:59:14","新北市板橋區莒光路79巷13-3號","121.472061666667","25.0246583333333","6500100","板橋區"
"220038","833-TW","2018/05/08 14:58:54","新北市板橋區新海路181號","121.458365","25.023945","6500100","板橋區"
"220022","895-R6","2018/05/08 14:59:09","新北市板橋區南雅南路一段7巷22弄2號","121.455906666667","25.0048283333333","6500100","板橋區"
"220021","985-R7","2018/05/08 14:59:05","新北市板橋區南雅西路二段2-1號","121.453171666667","25.0088033333333","6500100","板橋區"
"220046","AAC-210","2018/05/08 14:59:10","新北市板橋區光正街18巷11號","121.462585","25.01768","6500100","板橋區"
"220018","AAC-253","2018/05/08 14:59:09","新北市板橋區四川路一段469號","121.457186666667","24.9975566666667","6500100","板橋區"
