"lineid","car","time","location","longitude","latitude","cityid","cityname"
"231028","046-UY","2018/05/08 15:29:14","新北市新店區僑信路78號","121.499651666667","24.948415","6500600","新店區"
"231005","106-UY","2018/05/08 15:29:01","新北市新店區建國路293巷2號","121.536878333333","24.98638","6500600","新店區"
"231020","108-UY","2018/05/08 15:29:03","新北市新店區花園一路一段2號","121.552845","24.9325516666667","6500600","新店區"
"231012","187-VK","2018/05/08 15:28:53","新北市新店區寶慶街58巷2號","121.542248333333","24.986755","6500600","新店區"
"231023","KEA-2219","2018/05/08 15:28:57","新北市新店區北新路一段96巷23號","121.542871666667","24.9687366666667","6500600","新店區"
"231026","256-BX","2018/05/08 15:28:58","新北市新店區三民路117巷5弄2號","121.534176666667","24.9712083333333","6500600","新店區"
"231003","268-BY","2018/05/08 15:29:02","新北市新店區寶高路120巷1號","121.554605","24.976115","6500600","新店區"
"231018","278-BY","2018/05/08 15:29:11","新北市新店區中央五街11-1號","121.529796666667","24.9742383333333","6500600","新店區"
"231015","AAD-862","2018/05/08 15:29:05","新北市新店區明山路45號","121.563776666667","24.9558583333333","6500600","新店區"
"231038","3712-VJ","2018/05/08 15:28:56","新北市新店區安華路28-1號","121.519645","24.960885","6500600","新店區"
"231037","4716-K9","2018/05/08 15:28:57","新北市新店區安興路91巷28-1號","121.512283333333","24.9749366666667","6500600","新店區"
"231025","4715-K9","2018/05/08 15:28:57","新北市新店區安康路二段2號","121.51647","24.9638383333333","6500600","新店區"
"231036","512-UM","2018/05/08 15:29:07","新北市新店區安祥路69巷54弄25號","121.482306666667","24.95918","6500600","新店區"
"231034","616-UM","2018/05/08 15:29:10","新北市新店區富貴街10巷1號","121.49411","24.9494766666667","6500600","新店區"
"231002","618-UM","2018/05/08 15:29:10","新北市新店區環河路112-1號","121.534913333333","24.9673466666667","6500600","新店區"
"231030","619-UM","2018/05/08 15:29:06","新北市新店區安和路三段29-1號","121.51755","24.9814766666667","6500600","新店區"
"231035","719-UM","2018/05/08 15:29:03","新北市新店區安興路96-1號","121.515218333333","24.97653","6500600","新店區"
"231039","719-UY","2018/05/08 15:29:09","新北市新店區寶元路一段95-1號","121.543701666667","24.984905","6500600","新店區"
"231032","720-UM","2018/05/08 15:29:13","新北市新店區和成街18巷41號","121.488653333333","24.9463133333333","6500600","新店區"
"231029","897-TW","2018/05/08 15:29:12","新北市新店區安康路三段525巷50號","121.482165","24.9454","6500600","新店區"
"231004","899-TW","2018/05/08 15:29:12","新北市新店區民族路108號","121.538145","24.97739","6500600","新店區"
"241017","063-VK","2018/05/08 15:29:05","新北市三重區重新路四段121號","121.484971666667","25.0519416666667","6500200","三重區"
"241013","270-UM","2018/05/08 15:29:03","新北市三重區捷運路36號","121.483341666667","25.0542266666667","6500200","三重區"
"241007","398-BY","2018/05/08 15:29:12","新北市三重區重新路四段121號","121.485233333333","25.0520383333333","6500200","三重區"
"241014","543-UM","2018/05/08 15:28:55","新北市三重區重新路四段121號","121.485106666667","25.0520616666667","6500200","三重區"
"241029","942-UM","2018/05/08 15:28:59","新北市三重區重新路四段121號","121.485026666667","25.0519483333333","6500200","三重區"
"241033","AAC-255","2018/05/08 15:29:03","新北市三重區成功路112-4號","121.48579","25.0521166666667","6500200","三重區"
"235003","097-UM","2018/05/08 15:29:12","新北市中和區員山路35-1號","121.481286666667","24.9893566666667","6500300","中和區"
"235014","4979-A6","2018/05/08 15:29:01","新北市中和區景平路385巷9弄22號","121.501813333333","24.9940683333333","6500300","中和區"
"235033","4980-A6","2018/05/08 15:28:55","新北市中和區中正路653號","121.485103333333","24.996025","6500300","中和區"
"235023","AAC-215","2018/05/08 15:29:03","新北市中和區員山路5-5號","121.483225","24.9844233333333","6500300","中和區"
"236065","105-UM","2018/05/08 15:29:10","新北市土城區中正路1號","121.442016666667","24.9750566666667","6501300","土城區"
"236040","107-UM","2018/05/08 15:29:07","新北市土城區學成路22巷3號","121.453411666667","24.9873433333333","6501300","土城區"
"236074","166-UM","2018/05/08 15:29:09","新北市土城區中央路四段207號","121.413978333333","24.9560216666667","6501300","土城區"
"236029","253-BX","2018/05/08 15:29:06","新北市土城區中央路一段118巷1弄20號","121.4456","24.98759","6501300","土城區"
"236024","269-VK","2018/05/08 15:29:03","新北市土城區明德路二段102巷10號","121.445533333333","24.98447","6501300","土城區"
"236013","270-VK","2018/05/08 15:29:15","新北市土城區廣明街23巷24號","121.454641666667","24.9922416666667","6501300","土城區"
"236032","271-VK","2018/05/08 15:28:56","新北市土城區延吉街353巷8號","121.464561666667","24.98355","6501300","土城區"
"236017","401-BY","2018/05/08 15:29:05","新北市土城區延吉街137巷11號","121.470948333333","24.9857833333333","6501300","土城區"
"236057","912-UM","2018/05/08 15:29:00","新北市土城區中央路一段315號","121.443898333333","24.9833516666667","6501300","土城區"
"236045","913-UM","2018/05/08 15:29:04","新北市土城區金城路二段376號","121.463051666667","24.985545","6501300","土城區"
"236060","915-UM","2018/05/08 15:29:07","新北市土城區延和路18巷13號","121.464833333333","24.9877533333333","6501300","土城區"
"236054","AAC-216","2018/05/08 15:29:15","新北市土城區金城路三段197號","121.470216666667","24.9890816666667","6501300","土城區"
"220050","245-BX","2018/05/08 15:28:56","新北市板橋區漢生東路83巷1號","121.466485","25.0159866666667","6500100","板橋區"
"220052","257-TC","2018/05/08 15:29:12","新北市板橋區漢生東路41-2號","121.465736666667","25.0168716666667","6500100","板橋區"
"220104","560-BX","2018/05/08 15:28:56","新北市林口區太平里180號","121.367096666667","25.1338316666667","6500100","板橋區"
"220005","686-BX","2018/05/08 15:15:19","新北市板橋區華東街1-9號","121.44825","24.9949083333333","6500100","板橋區"
"220038","833-TW","2018/05/08 15:28:54","新北市板橋區四維路325號","121.462716666667","25.029295","6500100","板橋區"
