"lineid","car","time","location","longitude","latitude","cityid","cityname"
"234067","AAC-212","2018/05/08 16:00:58","新北市永和區福和路1號","121.526381666667","25.0095883333333","6500400","永和區"
"231046","107-UY","2018/05/08 16:09:03","新北市新店區灣潭路2-22號","121.536435","24.94829","6500600","新店區"
"231012","187-VK","2018/05/08 16:08:53","新北市新店區安興路43號","121.516566666667","24.9714216666667","6500600","新店區"
"231018","278-BY","2018/05/08 16:09:11","新北市新店區中正路694巷15號","121.535378333333","24.9908833333333","6500600","新店區"
"231037","4716-K9","2018/05/08 16:08:57","新北市新店區薏仁坑路自強巷6號","121.49662","24.9583583333333","6500600","新店區"
"231035","719-UM","2018/05/08 16:09:03","新北市新店區薏仁坑路自強巷6號","121.496795","24.9583383333333","6500600","新店區"
"241011","013-R5","2018/05/08 16:09:13","新北市三重區三和路三段110號","121.493988333333","25.07228","6500200","三重區"
"241028","022-UY","2018/05/08 16:09:10","新北市三重區正義南路62號","121.498733333333","25.0587266666667","6500200","三重區"
"241008","059-VK","2018/05/08 16:09:00","新北市三重區忠孝路二段126號","121.48285","25.0686766666667","6500200","三重區"
"241015","062-VK","2018/05/08 16:09:01","新北市三重區三和路一段2號","121.503948333333","25.0642333333333","6500200","三重區"
"241017","063-VK","2018/05/08 16:09:05","新北市三重區民生街74號","121.490406666667","25.06499","6500200","三重區"
"241024","065-VK","2018/05/08 16:09:06","新北市三重區中正北路145巷9弄4號","121.48526","25.0679366666667","6500200","三重區"
"241026","066-VK","2018/05/08 16:09:01","新北市三重區重新路二段79號","121.497523333333","25.0614433333333","6500200","三重區"
"241003","091-VK","2018/05/08 16:09:10","新北市三重區自強路五段112號","121.496956666667","25.083615","6500200","三重區"
"241005","262-UM","2018/05/08 16:09:08","新北市三重區集賢路108號","121.492205","25.0898866666667","6500200","三重區"
"241016","265-UM","2018/05/08 16:09:02","新北市三重區大仁街92號","121.49291","25.0655166666667","6500200","三重區"
"241022","267-UM","2018/05/08 16:08:56","新北市三重區中正北路174-7號","121.483458333333","25.06677","6500200","三重區"
"241018","268-UM","2018/05/08 16:09:06","新北市三重區明志街55號","121.491408333333","25.0638983333333","6500200","三重區"
"241013","270-UM","2018/05/08 16:09:02","新北市三重區文化北路248號","121.497336666667","25.0701416666667","6500200","三重區"
"241025","271-UM","2018/05/08 16:08:55","新北市三重區忠孝路三段40巷18號","121.48224","25.0664416666667","6500200","三重區"
"241007","398-BY","2018/05/08 16:09:12","新北市三重區慈愛街10號","121.48452","25.0784483333333","6500200","三重區"
"241004","475-VK","2018/05/08 16:08:58","新北市三重區河邊北街329號","121.502643333333","25.0753216666667","6500200","三重區"
"241014","543-UM","2018/05/08 16:08:55","新北市三重區福德南路54-1號","121.50309","25.0620216666667","6500200","三重區"
"241023","545-UM","2018/05/08 16:09:12","新北市三重區力行路一段62號","121.484346666667","25.06938","6500200","三重區"
"241001","547-UM","2018/05/08 16:09:09","新北市三重區忠孝路二段1號","121.487111666667","25.0715366666667","6500200","三重區"
"241019","KEA-2593","2018/05/08 16:09:11","新北市三重區新北大道一段56號","121.487376666667","25.0613866666667","6500200","三重區"
"241006","AAD-863","2018/05/08 16:09:05","新北市三重區力行路二段90號","121.48197","25.0743333333333","6500200","三重區"
"241002","887-TS","2018/05/08 16:09:13","新北市三重區仁義街91號","121.499736666667","25.0797033333333","6500200","三重區"
"241012","941-UM","2018/05/08 16:09:15","新北市三重區文化北路132巷35號","121.49773","25.066575","6500200","三重區"
"241029","942-UM","2018/05/08 16:08:59","新北市三重區同安街18號","121.496358333333","25.056865","6500200","三重區"
"241033","AAC-255","2018/05/08 16:09:03","新北市三重區重新路五段326巷25-1號","121.477641666667","25.0459783333333","6500200","三重區"
"235003","097-UM","2018/05/08 16:09:12","新北市土城區青雲路483巷13弄60號","121.460281666667","24.97519","6500300","中和區"
"235026","800-TS","2018/05/08 16:09:13","新北市中和區中山路二段332巷9號","121.494266666667","25.0027033333333","6500300","中和區"
"224007","275-VK","2018/05/08 16:09:16","新北市瑞芳區粗坑口路66號","121.761303333333","25.0989566666667","6501200","瑞芳區"
"224005","271-BY","2018/05/08 16:07:44","新北市瑞芳區大寮路356-1號","121.784568333333","25.1032783333333","6501200","瑞芳區"
"227009","642-TC","2018/05/08 16:09:07","新北市雙溪區三港里雙澳路70-1號","121.881418333333","25.0543666666667","6502500","雙溪區"
"227003","400-TW","2018/05/08 16:09:07","新北市雙溪區上林里內平林47號","121.833311666667","25.0304366666667","6502500","雙溪區"
"251013","KEA-2871","2018/05/08 16:09:13","新北市淡水區中正路一段37號","121.425583333333","25.1767816666667","6501000","淡水區"
"251008","181-VK","2018/05/08 16:09:01","新北市淡水區中正路20巷1號","121.437215","25.1730766666667","6501000","淡水區"
