"lineid","car","time","location","longitude","latitude","cityid","cityname"
"234067","AAC-212","2018/05/08 16:00:58","新北市永和區福和路1號","121.526381666667","25.0095883333333","6500400","永和區"
"231046","107-UY","2018/05/08 16:19:03","新北市新店區灣潭路3-3號","121.538258333333","24.9507833333333","6500600","新店區"
"231018","278-BY","2018/05/08 16:19:11","新北市新店區中正路700巷82號","121.53592","24.993225","6500600","新店區"
"241011","013-R5","2018/05/08 16:19:08","新北市三重區龍濱路285號","121.50115","25.0733433333333","6500200","三重區"
"241028","022-UY","2018/05/08 16:19:09","新北市三重區大同南路174號","121.496668333333","25.0571833333333","6500200","三重區"
"241008","059-VK","2018/05/08 16:18:59","新北市三重區永福街175-1號","121.47889","25.07536","6500200","三重區"
"241009","060-VK","2018/05/08 16:19:10","新北市三重區仁愛街543號","121.4866","25.08201","6500200","三重區"
"241031","061-VK","2018/05/08 16:19:15","新北市三重區重新路四段254號","121.485661666667","25.0532733333333","6500200","三重區"
"241015","062-VK","2018/05/08 16:19:01","新北市三重區福德北路77號","121.501948333333","25.06583","6500200","三重區"
"241017","063-VK","2018/05/08 16:19:05","新北市三重區大同北路91號","121.494743333333","25.06363","6500200","三重區"
"241024","065-VK","2018/05/08 16:19:06","新北市三重區中正北路278號","121.480818333333","25.0685783333333","6500200","三重區"
"241026","066-VK","2018/05/08 16:18:58","新北市三重區正義南路40號","121.498253333333","25.0609216666667","6500200","三重區"
"241003","091-VK","2018/05/08 16:18:50","新北市三重區五華街63巷14號","121.493618333333","25.0831866666667","6500200","三重區"
"241005","262-UM","2018/05/08 16:19:08","新北市三重區溪尾街305號","121.487485","25.0837666666667","6500200","三重區"
"241016","265-UM","2018/05/08 16:19:05","新北市三重區大仁街94號","121.49293","25.0655133333333","6500200","三重區"
"241022","267-UM","2018/05/08 16:18:56","新北市三重區過圳街3號","121.489333333333","25.058545","6500200","三重區"
"241018","268-UM","2018/05/08 16:19:06","新北市三重區重陽路三段43號","121.48943","25.0670816666667","6500200","三重區"
"241013","270-UM","2018/05/08 16:19:02","新北市三重區三和路三段83巷82號","121.49719","25.0729533333333","6500200","三重區"
"241025","271-UM","2018/05/08 16:18:55","新北市三重區中正北路560巷98號","121.471706666667","25.0682516666667","6500200","三重區"
"241007","398-BY","2018/05/08 16:19:12","新北市三重區仁美街83號","121.48621","25.0794916666667","6500200","三重區"
"241004","475-VK","2018/05/08 16:18:58","新北市三重區五華街74號","121.493471666667","25.081985","6500200","三重區"
"241014","543-UM","2018/05/08 16:19:16","新北市三重區龍濱路165號","121.502405","25.0697616666667","6500200","三重區"
"241023","545-UM","2018/05/08 16:19:12","新北市三重區忠孝路二段138號","121.482601666667","25.0682283333333","6500200","三重區"
"241001","547-UM","2018/05/08 16:19:09","新北市三重區自強路四段87號","121.491073333333","25.0793166666667","6500200","三重區"
"241019","KEA-2593","2018/05/08 16:19:11","新北市三重區重陽路三段97號","121.490173333333","25.06804","6500200","三重區"
"241006","AAD-863","2018/05/08 16:19:11","新北市三重區永福街46巷41弄1號","121.482266666667","25.0773166666667","6500200","三重區"
"241002","887-TS","2018/05/08 16:19:13","新北市三重區仁義街91號","121.499728333333","25.0797016666667","6500200","三重區"
"241012","941-UM","2018/05/08 16:18:57","新北市三重區龍門路292號","121.502311666667","25.07426","6500200","三重區"
"241029","942-UM","2018/05/08 16:18:59","新北市三重區中正南路165號","121.493753333333","25.055905","6500200","三重區"
"241033","AAC-255","2018/05/08 16:19:03","新北市三重區五谷王南街8號","121.47484","25.0469083333333","6500200","三重區"
"235026","800-TS","2018/05/08 16:19:13","新北市中和區建八路139巷6號","121.490203333333","24.999155","6500300","中和區"
"235065","251-BX","2018/05/08 16:10:56","新北市中和區員山路36巷16-3號","121.485003333333","24.991205","6500300","中和區"
"224007","275-VK","2018/05/08 16:19:16","新北市瑞芳區大埔路172-1號","121.762256666667","25.10223","6501200","瑞芳區"
"224005","271-BY","2018/05/08 16:18:56","新北市瑞芳區瑞濱路185號","121.816571666667","25.113585","6501200","瑞芳區"
"227009","642-TC","2018/05/08 16:19:07","新北市雙溪區三港里雙澳路80號","121.883801666667","25.0538766666667","6502500","雙溪區"
"227003","400-TW","2018/05/08 16:19:07","新北市雙溪區上林里內平林80號","121.828291666667","25.0279433333333","6502500","雙溪區"
"251013","KEA-2871","2018/05/08 16:18:54","新北市淡水區北新路100號","121.447348333333","25.17844","6501000","淡水區"
"251008","181-VK","2018/05/08 16:18:54","新北市淡水區中正東路二段48巷20號","121.45725","25.1585266666667","6501000","淡水區"
