"lineid","car","time","location","longitude","latitude","cityid","cityname"
"234026","9371-KE","2018/05/08 17:48:46","新北市永和區和平街95巷4弄8號","121.510968333333","25.00972","6500400","永和區"
"249005","172-UM","2018/05/08 17:48:53","新北市八里區荖阡坑路28-5號","121.402735","25.1299616666667","6502300","八里區"
"249001","173-UM","2018/05/08 17:48:38","新北市八里區龍米路二段141號","121.44434","25.1488716666667","6502300","八里區"
"249004","303-UY","2018/05/08 17:48:54","新北市八里區中華路一段309巷13號","121.41611","25.15455","6502300","八里區"
"249002","305-UY","2018/05/08 17:48:35","新北市八里區龍形五街37巷6號","121.448763333333","25.132655","6502300","八里區"
"249003","759-BX","2018/05/08 17:48:49","新北市八里區中山路二段56巷1號","121.407375","25.1543516666667","6502300","八里區"
"248008","095-VK","2018/05/08 17:48:52","新北市五股區中興路二段37巷28號","121.460225","25.0750133333333","6501500","五股區"
"232011","375-UM","2018/05/08 17:48:52","新北市坪林區北宜路八段256號","121.709425","24.9350466666667","6502000","坪林區"
"244013","069-UM","2018/05/08 17:48:46","新北市林口區中正路507號","121.383135","25.077585","6501700","林口區"
"244007","080-UY","2018/05/08 17:48:51","新北市林口區佳林路21號","121.386891666667","25.0820866666667","6501700","林口區"
"244019","403-UM","2018/05/08 17:48:44","新北市林口區忠孝路535號","121.371998333333","25.0689266666667","6501700","林口區"
"244009","410-SL","2018/05/08 17:48:35","新北市林口區中北三街55號","121.384721666667","25.08591","6501700","林口區"
"244023","483-VK","2018/05/08 17:48:53","新北市林口區東湖路2號","121.389273333333","25.0737533333333","6501700","林口區"
"244025","837-TS","2018/05/08 17:48:48","新北市林口區忠孝三路1-1號","121.361466666667","25.0690316666667","6501700","林口區"
"244021","838-TS","2018/05/08 17:48:44","新北市林口區仁愛路一段123巷15號","121.398086666667","25.071185","6501700","林口區"
"222002","659-BX","2018/05/08 17:48:45","新北市深坑區平埔街22巷8號","121.615001666667","25.000855","6501800","深坑區"
"231046","107-UY","2018/05/08 17:48:43","新北市新店區康雅崙路3號","121.540263333333","24.9258916666667","6500600","新店區"
"231055","AKT-0513","2018/05/08 17:48:53","新北市新店區安華路1-1號","121.519355","24.960435","6500600","新店區"
"241024","065-VK","2018/05/08 17:48:46","新北市三重區車路頭街60號","121.483651666667","25.0724566666667","6500200","三重區"
"241016","265-UM","2018/05/08 17:48:42","新北市三重區新北大道一段7號","121.489703333333","25.0614","6500200","三重區"
"241033","AAC-255","2018/05/08 17:48:42","新北市三重區光復路一段11號","121.472166666667","25.0471933333333","6500200","三重區"
"235038","185-VK","2018/05/08 17:48:47","新北市中和區中正路637巷52弄1號","121.48539","24.9933933333333","6500300","中和區"
"235046","733-UM","2018/05/08 17:29:22","新北市中和區員山路36巷13號","121.48416","24.9909116666667","6500300","中和區"
"247024","893-R6","2018/05/08 17:48:38","新北市蘆洲區長樂路233巷3號","121.46138","25.0899683333333","6501400","蘆洲區"
"247014","546-UM","2018/05/08 17:48:55","新北市蘆洲區保和街69巷2弄1號","121.469511666667","25.0857366666667","6501400","蘆洲區"
"247022","500-BY","2018/05/08 17:48:39","新北市蘆洲區中正路270巷19號","121.465986666667","25.090135","6501400","蘆洲區"
"247010","341-TH","2018/05/08 17:48:44","新北市蘆洲區民族路57號","121.478858333333","25.085575","6501400","蘆洲區"
"247012","339-TH","2018/05/08 17:48:40","新北市蘆洲區復興路154號","121.477285","25.0879966666667","6501400","蘆洲區"
"247004","337-TH","2018/05/08 17:48:51","新北市蘆洲區長安街196號","121.45871","25.0839566666667","6501400","蘆洲區"
"247006","336-TH","2018/05/08 17:48:45","新北市蘆洲區九芎街105號","121.465825","25.079665","6501400","蘆洲區"
"247018","057-VK","2018/05/08 17:48:43","新北市蘆洲區環堤大道398號","121.479398333333","25.095805","6501400","蘆洲區"
"247008","056-VK","2018/05/08 17:48:23","新北市蘆洲區中山一路186號","121.473873333333","25.0809283333333","6501400","蘆洲區"
"247016","007-UY","2018/05/08 17:48:54","新北市蘆洲區中正路185巷23弄4號","121.467115","25.08452","6501400","蘆洲區"
"247002","002-UY","2018/05/08 17:48:49","新北市蘆洲區環堤大道224號","121.458036666667","25.0927566666667","6501400","蘆洲區"
"247020","001-UY","2018/05/08 17:48:53","新北市蘆洲區民義街75號","121.473303333333","25.0901766666667","6501400","蘆洲區"
"235065","251-BX","2018/05/08 17:48:45","新北市中和區員山路36巷16-3號","121.484948333333","24.99136","6500300","中和區"
"228001","212-TW","2018/05/08 17:48:55","新北市貢寮區仁理村仁愛路95-1號","121.927658333333","25.05544","6502600","貢寮區"
"228002","663-BX","2018/05/08 17:48:47","新北市貢寮區福隆里龜壽谷街11-1號","121.955403333333","25.0065083333333","6502600","貢寮區"
"228003","828-UM","2018/05/08 17:48:49","新北市貢寮區真理里美艷山街6-2號","121.928795","25.060765","6502600","貢寮區"
"224010","AGQ-8101","2018/05/08 17:47:45","新北市瑞芳區明燈路一段13號","121.825686666667","25.1087866666667","6501200","瑞芳區"
"224006","676-BX","2018/05/08 17:48:37","新北市瑞芳區瑞興新村12巷1號","121.78843","25.1083233333333","6501200","瑞芳區"
"224008","285-BY","2018/05/08 17:48:50","新北市瑞芳區明燈路1段50-1號","121.81991","25.1072433333333","6501200","瑞芳區"
"224007","275-VK","2018/05/08 17:20:28","新北市瑞芳區大寮路356-1號","121.784718333333","25.1033616666667","6501200","瑞芳區"
"224009","273-VK","2018/05/08 17:48:48","新北市瑞芳區金光路255號","121.85017","25.1077383333333","6501200","瑞芳區"
"224005","271-BY","2018/05/08 17:48:35","新北市瑞芳區瑞濱路55-3號","121.82578","25.1211383333333","6501200","瑞芳區"
"227009","642-TC","2018/05/08 17:48:47","新北市雙溪區三貂里定福路1-2號","121.850765","25.06348","6502500","雙溪區"
"222001","KEA-2212","2018/05/08 17:48:37","新北市深坑區文山路三段110號","121.608623333333","24.9994533333333","6501800","深坑區"
"208003","665-BX","2018/05/08 17:48:35","新北市金山區磺清路135號","121.6394","25.2276533333333","6502700","金山區"
"251009","008-UM","2018/05/08 17:48:46","新北市淡水區長興街43-2號","121.44417","25.1716166666667","6501000","淡水區"
"251004","009-UM","2018/05/08 17:48:43","新北市淡水區民權一街33-3號","121.459333333333","25.1363216666667","6501000","淡水區"
"251005","010-UM","2018/05/08 17:48:45","新北市淡水區學府路102巷2號","121.450428333333","25.1719266666667","6501000","淡水區"
"251001","011-UM","2018/05/08 17:48:34","新北市淡水區民權路92巷35-1號","121.462278333333","25.1266716666667","6501000","淡水區"
"251013","KEA-2871","2018/05/08 17:48:53","新北市淡水區泉洲厝31號","121.479598333333","25.1910716666667","6501000","淡水區"
"251014","180-VK","2018/05/08 17:48:41","新北市淡水區公埔子16-6號","121.48103","25.224575","6501000","淡水區"
"251008","181-VK","2018/05/08 17:48:54","新北市淡水區八勢路一段127號","121.46707","25.1571166666667","6501000","淡水區"
"251015","182-VK","2018/05/08 17:48:53","新北市淡水區興福寮1-8號","121.48978","25.164015","6501000","淡水區"
"251010","413-VK","2018/05/08 17:48:53","新北市淡水區淡海路280巷33弄34-2號","121.41846","25.1883516666667","6501000","淡水區"
"251012","441-VK","2018/05/08 17:48:54","新北市淡水區北新路一段606號","121.472133333333","25.1848316666667","6501000","淡水區"
"251007","442-VK","2018/05/08 17:48:50","新北市淡水區民生路16巷1號","121.460908333333","25.1375916666667","6501000","淡水區"
"251006","561-UM","2018/05/08 17:48:51","新北市淡水區中山北路一段45巷17號","121.44098","25.1758366666667","6501000","淡水區"
"251016","575-R6","2018/05/08 17:48:52","新北市淡水區埤島39-15號","121.452793333333","25.1959066666667","6501000","淡水區"
"251011","650-BX","2018/05/08 17:48:22","新北市淡水區吳(仔)厝38號","121.479543333333","25.149635","6501000","淡水區"
"251002","672-BX","2018/05/08 17:48:43","新北市淡水區中山路70-1號","121.443238333333","25.170625","6501000","淡水區"
"251003","766-UM","2018/05/08 17:48:40","新北市淡水區大忠街5巷1號","121.443151666667","25.1764216666667","6501000","淡水區"
"207003","550-UM","2018/05/08 17:48:25","新北市萬里區野柳里東澳路66號","121.692713333333","25.2009183333333","6502800","萬里區"
"207004","225-TW","2018/05/08 17:48:44","新北市萬里區萬里里瑪鋉頂街61號","121.688408333333","25.1804583333333","6502800","萬里區"
"252002","178-VK","2018/05/08 17:48:35","新北市三芝區智成街30號","121.503973333333","25.25657","6502100","三芝區"
"252001","702-TV","2018/05/08 17:48:55","新北市三芝區淡金路一段61號","121.500345","25.2588916666667","6502100","三芝區"
"208001","170-UY","2018/05/08 17:48:45","新北市金山區磺清路108巷2號","121.639825","25.228275","6502700","金山區"
"237004","KEA-2597","2018/05/08 17:48:39","新北市三峽區中山路186號","121.363946666667","24.936775","6500900","三峽區"
"237011","572-TV","2018/05/08 17:48:45","新北市三峽區中正路一段48號","121.375236666667","24.9303916666667","6500900","三峽區"
"237009","210-TH","2018/05/08 17:48:47","新北市三峽區文化路248號","121.367256666667","24.9359633333333","6500900","三峽區"
"237013","252-BX","2018/05/08 17:48:48","新北市三峽區愛國路8號","121.374148333333","24.9338533333333","6500900","三峽區"
"237012","275-BY","2018/05/08 17:48:53","新北市三峽區文化路242號","121.36754","24.93581","6500900","三峽區"
"237014","433-BY","2018/05/08 17:48:37","新北市三峽區文化路212號","121.368811666667","24.9359916666667","6500900","三峽區"
"237006","5529-G3","2018/05/08 17:48:56","新北市三峽區介壽路二段32號","121.390975","24.935255","6500900","三峽區"
"237016","649-BX","2018/05/08 17:32:21","新北市三峽區中山路190號","121.363685","24.9369133333333","6500900","三峽區"
"237010","706-TV","2018/05/08 17:48:51","新北市三峽區中山路167號","121.36457","24.9364816666667","6500900","三峽區"
"237005","AKY-6261","2018/05/08 17:48:55","新北市三峽區中山路459巷90-1號","121.354905","24.936125","6500900","三峽區"
"236070","105-UM","2018/05/08 17:48:44","新北市土城區明德路一段280號","121.457578333333","24.9774","6501300","土城區"
"236042","107-UM","2018/05/08 17:48:45","新北市土城區城林路6巷80號","121.438653333333","24.9796883333333","6501300","土城區"
"236079","166-UM","2018/05/08 17:48:49","新北市土城區永寧路18號","121.43033","24.96254","6501300","土城區"
"236030","253-BX","2018/05/08 17:48:45","新北市土城區城林路6巷80號","121.438705","24.97965","6501300","土城區"
"236026","269-VK","2018/05/08 17:48:42","新北市土城區城林路6巷80號","121.438495","24.9796216666667","6501300","土城區"
"236014","270-VK","2018/05/08 17:48:51","新北市土城區城林路6巷80號","121.438483333333","24.97962","6501300","土城區"
"236038","271-VK","2018/05/08 17:48:48","新北市土城區城林路6巷80號","121.438505","24.9797683333333","6501300","土城區"
"236059","912-UM","2018/05/08 17:48:41","新北市土城區中華路二段80號","121.438693333333","24.97558","6501300","土城區"
"236049","913-UM","2018/05/08 17:48:39","新北市土城區城林路6巷80號","121.438518333333","24.9797216666667","6501300","土城區"
"236063","915-UM","2018/05/08 17:48:46","新北市土城區城林路6巷80號","121.438628333333","24.9797633333333","6501300","土城區"
"236055","AAC-216","2018/05/08 17:48:40","新北市土城區城林路6巷80號","121.438541666667","24.9795983333333","6501300","土城區"
"242034","AAC-296","2018/05/08 17:48:36","新北市新莊區新莊路662號","121.442423333333","25.03272","6500500","新莊區"
"242058","986-R7","2018/05/08 17:48:48","新北市新莊區中正路726-1號","121.415956666667","25.0242433333333","6500500","新莊區"
"242027","615-BX","2018/05/08 17:48:39","新北市新莊區福壽街167號","121.458015","25.0536883333333","6500500","新莊區"
"242025","613-BX","2018/05/08 17:48:55","新北市三重區新北大道二段69號","121.4688","25.0613916666667","6500500","新莊區"
"242029","612-BX","2018/05/08 17:48:36","新北市新莊區復興路一段4號","121.445648333333","25.0413116666667","6500500","新莊區"
"242042","566-BX","2018/05/08 17:48:51","新北市泰山區貴陽街29號","121.422338333333","25.0331366666667","6500500","新莊區"
"242046","497-BY","2018/05/08 17:48:53","新北市新莊區中正路613號","121.432531666667","25.0318233333333","6500500","新莊區"
"242044","442-UM","2018/05/08 17:48:48","新北市新莊區中正路700-26號","121.417691666667","25.02664","6500500","新莊區"
"242051","441-UM","2018/05/08 17:48:40","新北市新莊區西盛街257巷19號","121.428851666667","25.0159","6500500","新莊區"
"242056","440-UM","2018/05/08 17:48:47","新北市新莊區瓊林路38巷39號","121.446501666667","25.0303916666667","6500500","新莊區"
"242007","413-TV","2018/05/08 17:48:38","新北市新莊區福樂街132巷1號","121.456708333333","25.048165","6500500","新莊區"
"242023","362-BY","2018/05/08 17:48:35","新北市新莊區福樂街47號","121.45759","25.0473033333333","6500500","新莊區"
"242061","353-BY","2018/05/08 17:48:49","新北市新莊區瓊林南路134號","121.434851666667","25.0081616666667","6500500","新莊區"
"242039","133-UY","2018/05/08 17:48:46","新北市新莊區民安路206號","121.425743333333","25.0230483333333","6500500","新莊區"
"242032","135-UY","2018/05/08 17:48:47","新北市新莊區新泰路357巷3弄19號","121.442325","25.0407966666667","6500500","新莊區"
"242048","172-VK","2018/05/08 17:48:35","新北市新莊區萬安街60巷7號","121.420416666667","25.0234983333333","6500500","新莊區"
"242017","175-VK","2018/05/08 17:48:42","新北市新莊區永安街84號","121.450721666667","25.044635","6500500","新莊區"
"242005","176-VK","2018/05/08 17:48:45","新北市新莊區自立街246號","121.458705","25.0454783333333","6500500","新莊區"
"242015","346-TH","2018/05/08 17:48:41","新北市新莊區新泰路462號","121.4433","25.04477","6500500","新莊區"
"242009","347-TH","2018/05/08 17:48:49","新北市新莊區昌明街30巷10號","121.456778333333","25.052775","6500500","新莊區"
"242021","348-TH","2018/05/08 17:48:37","新北市新莊區永寧街32巷1號","121.452913333333","25.03945","6500500","新莊區"
"242037","349-TH","2018/05/08 17:48:49","新北市新莊區後港一路86號","121.427416666667","25.0265883333333","6500500","新莊區"
"242019","350-TH","2018/05/08 17:48:45","新北市新莊區復興路二段164號","121.457923333333","25.0443216666667","6500500","新莊區"
"242013","351-TH","2018/05/08 17:48:47","新北市新莊區中誠街168號","121.448126666667","25.0474983333333","6500500","新莊區"
"238015","755-BX","2018/05/08 17:48:52","新北市樹林區長壽街25巷8號","121.42041","24.9947316666667","6500700","樹林區"
"238023","601-UM","2018/05/08 17:48:52","新北市樹林區龍興街14巷25號","121.401903333333","25.0157483333333","6500700","樹林區"
"238019","599-UM","2018/05/08 17:48:43","新北市樹林區太順街7號","121.419881666667","24.9802333333333","6500700","樹林區"
"238018","571-TV","2018/05/08 17:48:43","新北市樹林區博愛街163-1號","121.425356666667","24.990045","6500700","樹林區"
"238022","KEA-2213","2018/05/08 17:48:37","新北市樹林區太順街62巷2號","121.417836666667","24.9794016666667","6500700","樹林區"
"238021","KEA-2539","2018/05/08 17:48:48","新北市樹林區柑園街一段57號","121.402818333333","24.960295","6500700","樹林區"
"238025","303-VK","2018/05/08 17:48:52","新北市樹林區三俊街30號","121.411631666667","25.0154866666667","6500700","樹林區"
"238017","283-BY","2018/05/08 17:48:48","新北市樹林區俊德街51號","121.415488333333","25.0132833333333","6500700","樹林區"
"238014","282-BY","2018/05/08 17:48:38","新北市樹林區大安路161號","121.421485","24.99661","6500700","樹林區"
"238020","268-VK","2018/05/08 17:48:50","新北市樹林區三俊街285號","121.42329","25.0140766666667","6500700","樹林區"
"238026","172-UY","2018/05/08 17:48:37","新北市樹林區八德街584號","121.398686666667","24.9701166666667","6500700","樹林區"
"238003","169-UY","2018/05/08 17:48:52","新北市樹林區復興路308巷1弄7號","121.416456666667","24.9870683333333","6500700","樹林區"
"239007","AAC-297","2018/05/08 17:48:38","新北市鶯歌區二甲路12-2號","121.345963333333","24.934615","6500800","鶯歌區"
"239006","891-R6","2018/05/08 17:48:39","新北市鶯歌區鶯桃路455巷10弄1號","121.331505","24.9638266666667","6500800","鶯歌區"
"239008","527-UM","2018/05/08 17:48:38","新北市鶯歌區香賓街29巷1號","121.337821666667","24.9796016666667","6500800","鶯歌區"
"239005","526-UM","2018/05/08 17:48:37","新北市鶯歌區鳳吉五街18號","121.327015","24.9723016666667","6500800","鶯歌區"
"239001","417-VK","2018/05/08 17:48:42","新北市鶯歌區中正三路412號","121.324631666667","24.9346616666667","6500800","鶯歌區"
"239003","360-BY","2018/05/08 17:48:47","新北市鶯歌區永吉街45號","121.335546666667","24.9571816666667","6500800","鶯歌區"
"239002","359-BY","2018/05/08 17:48:36","新北市鶯歌區光明街204號","121.34304","24.955825","6500800","鶯歌區"
"239004","193-VK","2018/05/08 17:48:42","新北市鶯歌區文化路134號","121.35193","24.95137","6500800","鶯歌區"
"221008","489-VK","2018/05/08 17:48:38","新北市汐止區康寧街901號","121.651378333333","25.0749566666667","6501100","汐止區"
"221036","130-UY","2018/05/08 17:48:49","新北市汐止區汐萬路一段160號","121.65258","25.0715633333333","6501100","汐止區"
"221010","269-BY","2018/05/08 17:48:51","新北市汐止區汐萬路二段109號","121.648313333333","25.0837016666667","6501100","汐止區"
"221012","278-VK","2018/05/08 17:48:36","新北市汐止區長江街11號","121.654726666667","25.0711716666667","6501100","汐止區"
"221023","279-VK","2018/05/08 17:48:42","新北市汐止區民族一街14號","121.635046666667","25.0710483333333","6501100","汐止區"
"221027","281-BY","2018/05/08 17:48:48","新北市汐止區汐萬路一段256巷1號","121.651798333333","25.0749216666667","6501100","汐止區"
"221021","299-VK","2018/05/08 17:48:50","新北市汐止區水源路一段16號","121.65712","25.0666783333333","6501100","汐止區"
"221031","353-TW","2018/05/08 17:48:52","新北市汐止區工建路202號","121.636766666667","25.0626033333333","6501100","汐止區"
"221035","622-UM","2018/05/08 17:48:43","新北市汐止區汐萬路一段191號","121.652395","25.07171","6501100","汐止區"
"221025","623-UM","2018/05/08 17:48:42","新北市汐止區大同路二段179號","121.65172","25.064255","6501100","汐止區"
"221038","646-BX","2018/05/08 17:48:50","新北市汐止區汐萬路一段312號","121.650576666667","25.0753983333333","6501100","汐止區"
"221002","707-TV","2018/05/08 17:48:37","新北市汐止區康寧街901號","121.651541666667","25.0750083333333","6501100","汐止區"
"221018","753-BX","2018/05/08 17:48:43","新北市汐止區汐萬路一段20號","121.655951666667","25.0675483333333","6501100","汐止區"
"242002","KEA-2550","2018/05/08 17:48:43","新北市新莊區景德路192號","121.450036666667","25.0341233333333","6500500","新莊區"
"242054","281-VK","2018/05/08 17:48:45","新北市新莊區新樹路583號","121.432878333333","25.0068283333333","6500500","新莊區"
