"lineid","car","time","location","longitude","latitude","cityid","cityname"
"234046","149-BY","2018/05/08 20:08:50","新北市永和區得和路317號","121.523271666667","24.999655","6500400","永和區"
"234007","207-UY","2018/05/08 20:08:53","新北市永和區保生路22巷15號","121.507018333333","25.00813","6500400","永和區"
"234081","298-R6","2018/05/08 20:08:46","新北市永和區永亨路105巷2號","121.523481666667","25.0049583333333","6500400","永和區"
"234038","336-UY","2018/05/08 20:08:45","新北市永和區成功路一段52號","121.526928333333","25.0040466666667","6500400","永和區"
"234064","337-UY","2018/05/08 20:08:41","新北市永和區得和路269號","121.521585","24.99971","6500400","永和區"
"234086","338-UY","2018/05/08 20:08:43","新北市永和區福和路201號","121.519428333333","25.007535","6500400","永和區"
"234070","552-UM","2018/05/08 20:08:53","新北市永和區福和路239-1號","121.518326666667","25.0075","6500400","永和區"
"234017","745-BX","2018/05/08 20:08:49","新北市永和區文化路47號","121.514441666667","25.015015","6500400","永和區"
"234030","746-BX","2018/05/08 20:08:55","新北市永和區民權路49巷35號","121.521911666667","24.9976633333333","6500400","永和區"
"234054","KEA-2590","2018/05/08 20:08:39","新北市永和區博愛街47巷1號","121.519326666667","25.0160316666667","6500400","永和區"
"234013","KEA-2591","2018/05/08 20:08:42","新北市永和區永貞路435號","121.506876666667","25.009955","6500400","永和區"
"234061","AAD-866","2018/05/08 20:08:44","新北市永和區中正路151巷8弄2號","121.516005","24.998665","6500400","永和區"
"234042","862-TW","2018/05/08 20:08:47","新北市永和區雙和街64巷25號","121.509728333333","25.003275","6500400","永和區"
"234050","863-TW","2018/05/08 20:08:47","新北市永和區環河西路二段109號","121.50631","25.0146333333333","6500400","永和區"
"234011","9373-KE","2018/05/08 20:08:45","新北市永和區仁愛路352巷92弄18號","121.501328333333","25.00828","6500400","永和區"
"249005","172-UM","2018/05/08 20:08:53","新北市八里區下罟子61號","121.387228333333","25.1363316666667","6502300","八里區"
"249001","173-UM","2018/05/08 20:08:49","新北市八里區中華路二段312號","121.403701666667","25.1484533333333","6502300","八里區"
"249004","303-UY","2018/05/08 20:08:53","新北市八里區中山路一段398巷52號","121.411306666667","25.1589516666667","6502300","八里區"
"249002","305-UY","2018/05/08 20:08:55","新北市八里區龍米路一段30巷8號","121.457083333333","25.1166566666667","6502300","八里區"
"249003","759-BX","2018/05/08 20:08:45","新北市八里區中山路二段540巷28號","121.397156666667","25.147065","6502300","八里區"
"248016","026-BX","2018/05/08 20:08:40","新北市五股區成泰路三段577巷80弄82號","121.448878333333","25.1047616666667","6501500","五股區"
"248008","095-VK","2018/05/08 20:08:53","新北市五股區中興路一段1巷12弄3號","121.469321666667","25.0712633333333","6501500","五股區"
"248012","247-BX","2018/05/08 20:08:55","新北市五股區六合街97號","121.429861666667","25.0901433333333","6501500","五股區"
"248014","261-SL","2018/05/08 20:08:40","新北市五股區成泰路二段147巷22-3號","121.438131666667","25.0871283333333","6501500","五股區"
"248010","272-BY","2018/05/08 20:08:55","新北市五股區成泰路一段15號","121.433735","25.0667983333333","6501500","五股區"
"248004","677-BX","2018/05/08 20:08:58","新北市五股區成泰路一段88號","121.435808333333","25.0710866666667","6501500","五股區"
"248002","678-BX","2018/05/08 20:08:41","新北市五股區成泰路三段277號","121.447105","25.0941033333333","6501500","五股區"
"234023","9380-KE","2018/05/08 20:08:41","新北市永和區中正路702巷8號","121.516351666667","25.01027","6500400","永和區"
"234077","969-R7","2018/05/08 20:08:41","新北市永和區民光街22巷2號","121.516023333333","24.9957683333333","6500400","永和區"
"234074","AAC-211","2018/05/08 20:08:50","新北市永和區豫溪街169巷2號","121.522006666667","25.0105666666667","6500400","永和區"
"234067","AAC-212","2018/05/08 20:08:41","新北市永和區永貞路354號","121.510353333333","25.0064483333333","6500400","永和區"
"234003","AAC-295","2018/05/08 20:08:58","新北市永和區中正路531號","121.516688333333","25.0077183333333","6500400","永和區"
"243013","AAD-798","2018/05/08 20:08:55","新北市泰山區明志路三段74巷23號","121.423943333333","25.041715","6501600","泰山區"
"243009","297-R6","2018/05/08 20:08:42","新北市泰山區泰林路二段138號","121.434286666667","25.0598433333333","6501600","泰山區"
"243016","380-SR","2018/05/08 20:08:46","新北市泰山區新北大道六段217號","121.425143333333","25.0350316666667","6501600","泰山區"
"243015","421-VK","2018/05/08 20:08:57","新北市泰山區明志路一段398號","121.430735","25.0572333333333","6501600","泰山區"
"243011","KEA-2215","2018/05/08 20:08:45","新北市泰山區明志路三段182巷42號","121.423151666667","25.03958","6501600","泰山區"
"243010","KEA-2216","2018/05/08 20:08:49","新北市泰山區明志路二段136巷11號","121.426501666667","25.0514666666667","6501600","泰山區"
"243012","646-TV","2018/05/08 20:08:50","新北市泰山區楓江路86巷16-1號","121.437391666667","25.0625016666667","6501600","泰山區"
"243014","680-BX","2018/05/08 20:08:52","新北市五股區成泰路一段1號","121.43352","25.0663583333333","6501600","泰山區"
"222003","436-BY","2018/05/08 20:08:51","新北市深坑區埔新街60號","121.620245","25.002525","6501800","深坑區"
"222002","659-BX","2018/05/08 20:08:44","新北市深坑區北深路三段127號","121.6043","25.00241","6501800","深坑區"
"231059","046-UY","2018/05/08 20:08:57","新北市新店區安成街28-1號","121.510223333333","24.9610166666667","6500600","新店區"
"231040","047-UY","2018/05/08 20:08:45","新北市新店區中正路30號","121.545183333333","24.9697916666667","6500600","新店區"
"231044","106-UY","2018/05/08 20:08:53","新北市新店區寶慶街58巷12號","121.542151666667","24.9873683333333","6500600","新店區"
"231053","108-UY","2018/05/08 20:08:40","新北市新店區新烏路三段寶島巷4號","121.551423333333","24.8990933333333","6500600","新店區"
"231048","187-VK","2018/05/08 20:08:54","新北市新店區寶橋路61號","121.545196666667","24.9749883333333","6500600","新店區"
"231054","KEA-2219","2018/05/08 20:08:52","新北市新店區檳榔路7號","121.541003333333","24.9649516666667","6500600","新店區"
"231057","256-BX","2018/05/08 20:08:49","新北市新店區花園一路一段2號","121.553126666667","24.9324366666667","6500600","新店區"
"231042","268-BY","2018/05/08 20:08:51","新北市新店區中興路二段31號","121.546058333333","24.9696533333333","6500600","新店區"
"231051","278-BY","2018/05/08 20:08:42","新北市新店區中央七街3號","121.530566666667","24.9747533333333","6500600","新店區"
"231050","AAD-862","2018/05/08 20:08:59","新北市新店區北宜路一段2號","121.537848333333","24.9586916666667","6500600","新店區"
"231058","3713-VJ","2018/05/08 20:08:39","新北市新店區安德街116巷26弄3號","121.508831666667","24.9619516666667","6500600","新店區"
"231056","4715-K9","2018/05/08 20:08:55","新北市新店區中正路275巷11號","121.537341666667","24.9737416666667","6500600","新店區"
"231067","4772-VM","2018/05/08 20:08:54","新北市新店區溪洲路8巷94號","121.533203333333","24.9627466666667","6500600","新店區"
"231065","512-UM","2018/05/08 20:08:40","新北市新店區安祥路106巷288號","121.472588333333","24.958235","6500600","新店區"
"231049","513-UM","2018/05/08 20:08:55","新北市新店區北新路二段139巷12弄1號","121.5421","24.9759816666667","6500600","新店區"
"231063","616-UM","2018/05/08 20:08:54","新北市新店區黎明路53巷1號","121.502308333333","24.948705","6500600","新店區"
"231045","617-UM","2018/05/08 20:08:45","新北市新店區北宜路一段121-3號","121.54039","24.9538483333333","6500600","新店區"
"231041","618-UM","2018/05/08 20:08:50","新北市新店區中正路460號","121.533991666667","24.9793766666667","6500600","新店區"
"231061","619-UM","2018/05/08 20:08:45","新北市新店區安興路92號","121.515201666667","24.9762216666667","6500600","新店區"
"231064","719-UM","2018/05/08 20:08:38","新北市新店區安民街3巷6弄2號","121.514786666667","24.9643283333333","6500600","新店區"
"231068","719-UY","2018/05/08 20:08:49","新北市新店區中興路三段202號","121.543875","24.9819783333333","6500600","新店區"
"231062","720-UM","2018/05/08 20:08:46","新北市新店區安康路二段99號","121.512988333333","24.96263","6500600","新店區"
"231060","897-TW","2018/05/08 20:08:49","新北市新店區安康路三段486號","121.483253333333","24.9499866666667","6500600","新店區"
"231043","899-TW","2018/05/08 20:08:42","新北市新店區民族路219號","121.536826666667","24.9759483333333","6500600","新店區"
"231055","AKT-0513","2018/05/08 20:08:53","新北市新店區北新路一段303號","121.541356666667","24.9676433333333","6500600","新店區"
"241011","013-R5","2018/05/08 20:08:45","新北市三重區三和路三段47巷15號","121.496091666667","25.0716983333333","6500200","三重區"
"241028","022-UY","2018/05/08 20:08:40","新北市三重區仁化街163號","121.494768333333","25.05702","6500200","三重區"
"241008","059-VK","2018/05/08 20:08:42","新北市三重區永福街197巷17號","121.47881","25.0744433333333","6500200","三重區"
"241009","060-VK","2018/05/08 20:08:50","新北市三重區三和路四段382巷153號","121.478941666667","25.0780966666667","6500200","三重區"
"241031","061-VK","2018/05/08 20:08:55","新北市三重區重新路四段1號","121.489228333333","25.058445","6500200","三重區"
"241015","062-VK","2018/05/08 20:08:49","新北市三重區福德北路45號","121.502251666667","25.0649566666667","6500200","三重區"
"241017","063-VK","2018/05/08 20:08:45","新北市三重區自強路一段236號","121.493175","25.0669166666667","6500200","三重區"
"241024","065-VK","2018/05/08 20:08:46","新北市三重區中正北路284號","121.480513333333","25.0686283333333","6500200","三重區"
"241026","066-VK","2018/05/08 20:08:44","新北市三重區福德南路59-4號","121.50262","25.060875","6500200","三重區"
"241003","091-VK","2018/05/08 20:08:56","新北市三重區碧華街378號","121.490978333333","25.0843233333333","6500200","三重區"
"241005","262-UM","2018/05/08 20:08:48","新北市三重區五華街180巷32號","121.488","25.0853583333333","6500200","三重區"
"241016","265-UM","2018/05/08 20:08:52","新北市三重區大同北路97-3號","121.494365","25.0636433333333","6500200","三重區"
"241022","267-UM","2018/05/08 20:08:56","新北市三重區新北大道一段17號","121.487953333333","25.061185","6500200","三重區"
"241018","268-UM","2018/05/08 20:08:51","新北市三重區正義北路256巷111號","121.493553333333","25.06794","6500200","三重區"
"241032","269-UM","2018/05/08 20:08:53","新北市三重區捷運路55號","121.4836","25.0555916666667","6500200","三重區"
"241013","270-UM","2018/05/08 20:08:37","新北市三重區三和路三段139巷38號","121.494","25.0741266666667","6500200","三重區"
"241025","271-UM","2018/05/08 20:08:55","新北市三重區中正北路430號","121.474516666667","25.0710583333333","6500200","三重區"
"241007","398-BY","2018/05/08 20:08:52","新北市三重區仁美街51號","121.48727","25.0778833333333","6500200","三重區"
"241035","462-BY","2018/05/08 20:08:47","新北市三重區文化北路24號","121.499111666667","25.0644083333333","6500200","三重區"
"241004","475-VK","2018/05/08 20:08:49","新北市三重區仁愛街385號","121.491388333333","25.080595","6500200","三重區"
"241020","478-VK","2018/05/08 20:08:51","新北市三重區後竹圍街2巷1弄2號","121.491691666667","25.07329","6500200","三重區"
"241030","480-VK","2018/05/08 20:08:47","新北市三重區成功路145巷33號","121.487703333333","25.0531966666667","6500200","三重區"
"241014","543-UM","2018/05/08 20:08:55","新北市三重區長樂街118號","121.501786666667","25.06961","6500200","三重區"
"241023","545-UM","2018/05/08 20:08:48","新北市三重區頂崁街220巷2號","121.476973333333","25.06809","6500200","三重區"
"241001","547-UM","2018/05/08 20:08:43","新北市三重區溪尾街26號","121.491023333333","25.0764583333333","6500200","三重區"
"241019","KEA-2593","2018/05/08 20:08:50","新北市三重區自強路二段33巷54號","121.490728333333","25.069895","6500200","三重區"
"241006","AAD-863","2018/05/08 20:08:49","新北市三重區力行路二段138-1號","121.482331666667","25.075645","6500200","三重區"
"241002","887-TS","2018/05/08 20:08:55","新北市三重區仁忠街47號","121.495165","25.0815683333333","6500200","三重區"
"241012","941-UM","2018/05/08 20:08:52","新北市三重區仁愛街125巷32號","121.497746666667","25.0761816666667","6500200","三重區"
"241029","942-UM","2018/05/08 20:08:40","新北市三重區光明路32巷18號","121.491803333333","25.0587316666667","6500200","三重區"
"241033","AAC-255","2018/05/08 20:08:48","新北市三重區光復路一段68巷18號","121.471185","25.04924","6500200","三重區"
"235039","097-UM","2018/05/08 20:08:51","新北市中和區景平路278巷16弄8號","121.51421","24.9934933333333","6500300","中和區"
"235040","150-BY","2018/05/08 20:08:30","新北市中和區保健路10巷23弄14號","121.508475","24.9970183333333","6500300","中和區"
"235058","151-BY","2018/05/08 20:08:45","新北市中和區員山路146巷1號","121.481491666667","24.9969083333333","6500300","中和區"
"235068","377-QA","2018/05/08 20:08:51","新北市中和區中山路二段262號","121.49728","25.00258","6500300","中和區"
"235050","4979-A6","2018/05/08 20:08:56","新北市中和區安樂路41號","121.511915","24.9931983333333","6500300","中和區"
"235069","4980-A6","2018/05/08 20:08:48","新北市中和區景新街34巷2弄5號","121.503026666667","24.999105","6500300","中和區"
"235070","558-UM","2018/05/08 20:08:54","新北市中和區中正路422號","121.491746666667","24.9942966666667","6500300","中和區"
"235066","911-UM","2018/05/08 20:08:43","新北市中和區保平路300號","121.507723333333","25.0046316666667","6500300","中和區"
"235051","157-BY","2018/05/08 20:08:39","新北市中和區景安路220巷1弄2號","121.503236666667","24.9908833333333","6500300","中和區"
"235059","AAC-215","2018/05/08 20:08:51","新北市中和區圓通路335巷33弄3號","121.49321","24.9893083333333","6500300","中和區"
"220068","013-TV","2018/05/08 20:08:47","新北市板橋區中山路二段312號","121.479966666667","25.0190216666667","6500100","板橋區"
"220069","AAD-861","2018/05/08 20:08:51","新北市板橋區大明街20巷19弄20號","121.45789","25.003205","6500100","板橋區"
"247024","893-R6","2018/05/08 20:08:56","新北市蘆洲區光明路139號","121.464186666667","25.0884683333333","6501400","蘆洲區"
"247014","546-UM","2018/05/08 20:08:51","新北市蘆洲區中山二路245號","121.470345","25.07956","6501400","蘆洲區"
"247022","500-BY","2018/05/08 20:08:41","新北市蘆洲區三民路144號","121.470611666667","25.0879366666667","6501400","蘆洲區"
"247010","341-TH","2018/05/08 20:08:39","新北市蘆洲區集賢路401號","121.480283333333","25.0819133333333","6501400","蘆洲區"
"247012","339-TH","2018/05/08 20:08:42","新北市蘆洲區民族路191號","121.478721666667","25.0889383333333","6501400","蘆洲區"
"247004","337-TH","2018/05/08 20:08:50","新北市蘆洲區永安南路二段328巷15弄1號","121.456718333333","25.083595","6501400","蘆洲區"
"247006","336-TH","2018/05/08 20:08:42","新北市蘆洲區中山二路286號","121.468861666667","25.077855","6501400","蘆洲區"
"247018","057-VK","2018/05/08 20:08:54","新北市蘆洲區民族路314巷5號","121.477581666667","25.0903766666667","6501400","蘆洲區"
"247016","007-UY","2018/05/08 20:08:57","新北市蘆洲區光華路180號","121.46483","25.082055","6501400","蘆洲區"
"247002","002-UY","2018/05/08 20:08:38","新北市蘆洲區永康街2巷10號","121.45935","25.0862183333333","6501400","蘆洲區"
"247020","001-UY","2018/05/08 20:08:53","新北市蘆洲區民權路106巷5弄2-1號","121.474341666667","25.0890233333333","6501400","蘆洲區"
"226004","312-R5","2018/05/08 20:08:28","新北市平溪區石底里公園街18-3號","121.733788333333","25.02524","6502400","平溪區"
"235065","251-BX","2018/05/08 20:08:45","新北市中和區永和路90巷2弄22號","121.498235","25.00542","6500300","中和區"
"222001","KEA-2212","2018/05/08 20:08:56","新北市深坑區北深路三段187號","121.60129","25.0037033333333","6501800","深坑區"
"208002","KEA-2872","2018/05/08 20:08:55","新北市金山區環金路159號","121.634185","25.2177616666667","6502700","金山區"
"251009","008-UM","2018/05/08 20:08:56","新北市淡水區清水街1-5號","121.44533","25.1703983333333","6501000","淡水區"
"251004","009-UM","2018/05/08 20:08:41","新北市淡水區民族路29巷62號","121.462051666667","25.1368966666667","6501000","淡水區"
"251001","011-UM","2018/05/08 20:08:54","新北市淡水區淡金路二段599號","121.445943333333","25.19249","6501000","淡水區"
"251013","KEA-2871","2018/05/08 20:08:53","新北市淡水區奎柔山路456號","121.46359","25.204575","6501000","淡水區"
"251014","180-VK","2018/05/08 20:08:41","新北市淡水區石頭厝1號","121.458738333333","25.2355266666667","6501000","淡水區"
"251008","181-VK","2018/05/08 20:08:54","新北市淡水區沙崙路133號","121.422735","25.1827216666667","6501000","淡水區"
"251015","182-VK","2018/05/08 20:08:53","新北市淡水區淡金路二段270-1號","121.447255","25.1886083333333","6501000","淡水區"
"251010","413-VK","2018/05/08 20:08:52","新北市淡水區崁頂五路303號","121.424756666667","25.199125","6501000","淡水區"
"251012","441-VK","2018/05/08 20:08:53","新北市淡水區淡金路三段224號","121.448926666667","25.2048616666667","6501000","淡水區"
"251006","561-UM","2018/05/08 20:08:50","新北市淡水區北新路141巷29號","121.448235","25.1796266666667","6501000","淡水區"
"251016","575-R6","2018/05/08 20:08:37","新北市淡水區番子田18-11號","121.455775","25.2300883333333","6501000","淡水區"
"251002","672-BX","2018/05/08 20:08:43","新北市淡水區中正路288號","121.437751666667","25.1720616666667","6501000","淡水區"
"251003","766-UM","2018/05/08 20:08:40","新北市淡水區中山北路二段189巷15弄29號","121.443391666667","25.1842583333333","6501000","淡水區"
"207003","550-UM","2018/05/08 20:08:45","新北市萬里區大鵬里萬里加投192號","121.642836666667","25.2156883333333","6502800","萬里區"
"207004","225-TW","2018/05/08 20:08:44","新北市萬里區北基里愛二街2號","121.682465","25.176805","6502800","萬里區"
"252002","178-VK","2018/05/08 20:08:54","新北市三芝區中正路一段70號","121.504056666667","25.25786","6502100","三芝區"
"252001","702-TV","2018/05/08 20:08:55","新北市三芝區公正街66號","121.499775","25.2574483333333","6502100","三芝區"
"237013","252-BX","2018/05/08 20:08:47","新北市樹林區中山路三段210-2號","121.380821666667","24.9670883333333","6500900","三峽區"
"237014","433-BY","2018/05/08 20:08:36","新北市三峽區中正路一段357號","121.37088","24.92294","6500900","三峽區"
"237006","5529-G3","2018/05/08 20:08:56","新北市三峽區中正路二段299巷1號","121.366351666667","24.9109233333333","6500900","三峽區"
"237016","649-BX","2018/05/08 20:07:41","新北市三峽區介壽路二段138巷1弄160-1號","121.402121666667","24.9286216666667","6500900","三峽區"
"237005","AKY-6261","2018/05/08 20:08:54","新北市三峽區三樹路98巷74弄28號","121.384986666667","24.9384566666667","6500900","三峽區"
"236070","105-UM","2018/05/08 20:08:44","新北市土城區中央路三段128-2號","121.434865","24.9660083333333","6501300","土城區"
"236042","107-UM","2018/05/08 20:08:44","新北市土城區學成路22巷2弄2號","121.45319","24.9871033333333","6501300","土城區"
"236079","166-UM","2018/05/08 20:08:29","新北市土城區福安街72-1號","121.41819","24.9644433333333","6501300","土城區"
"236030","253-BX","2018/05/08 20:08:44","新北市土城區中央路一段118巷1弄1號","121.446166666667","24.9881466666667","6501300","土城區"
"236026","269-VK","2018/05/08 20:08:42","新北市土城區中央路一段267巷15號","121.44565","24.9849916666667","6501300","土城區"
"236014","270-VK","2018/05/08 20:08:51","新北市土城區廣明街2號","121.45606","24.9917566666667","6501300","土城區"
"236038","271-VK","2018/05/08 20:08:48","新北市土城區延吉街353巷6號","121.464553333333","24.9836666666667","6501300","土城區"
"236021","401-BY","2018/05/08 20:08:55","新北市土城區和城路二段253-8號","121.473625","24.987245","6501300","土城區"
"236059","912-UM","2018/05/08 20:08:41","新北市土城區中央路二段160號","121.44193","24.9766","6501300","土城區"
"236049","913-UM","2018/05/08 20:08:39","新北市土城區金城路三段6號","121.464463333333","24.9858733333333","6501300","土城區"
"236063","915-UM","2018/05/08 20:08:46","新北市土城區金城路三段33巷17號","121.465136666667","24.987165","6501300","土城區"
"236055","AAC-216","2018/05/08 20:08:40","新北市土城區中華路一段177號","121.443421666667","24.98585","6501300","土城區"
"242034","AAC-296","2018/05/08 20:08:55","新北市新莊區建中街105號","121.446595","25.0360833333333","6500500","新莊區"
"242058","986-R7","2018/05/08 20:08:47","新北市新莊區八德街160號","121.423538333333","25.0198216666667","6500500","新莊區"
"242027","615-BX","2018/05/08 20:08:49","新北市新莊區中平路278號","121.444838333333","25.0506683333333","6500500","新莊區"
"242025","613-BX","2018/05/08 20:08:54","新北市新莊區五權一路12巷25弄7號","121.458146666667","25.0643233333333","6500500","新莊區"
"242029","612-BX","2018/05/08 20:08:39","新北市新莊區中原路351號","121.445025","25.05425","6500500","新莊區"
"242042","566-BX","2018/05/08 20:08:57","新北市新莊區青山路一段179號","121.400373333333","25.030295","6500500","新莊區"
"242046","497-BY","2018/05/08 20:08:48","新北市新莊區裕民街103巷19號","121.419488333333","25.0228633333333","6500500","新莊區"
"242044","442-UM","2018/05/08 20:08:52","新北市新莊區中正路895-32號","121.41231","25.021545","6500500","新莊區"
"242051","441-UM","2018/05/08 20:08:45","新北市新莊區民安西路172巷6弄1號","121.425143333333","25.016255","6500500","新莊區"
"242056","440-UM","2018/05/08 20:08:38","新北市新莊區新莊路649巷15弄1號","121.445043333333","25.0315366666667","6500500","新莊區"
"242007","413-TV","2018/05/08 20:08:49","新北市新莊區思源路419巷1弄2號","121.459215","25.05239","6500500","新莊區"
"242023","362-BY","2018/05/08 20:08:56","新北市新莊區化成路568號","121.466158333333","25.0541033333333","6500500","新莊區"
"242061","353-BY","2018/05/08 20:08:53","新北市新莊區瓊林路瓊英巷1弄1號","121.443828333333","25.0271866666667","6500500","新莊區"
"242039","133-UY","2018/05/08 20:08:46","新北市新莊區民安西路80號","121.427068333333","25.0196833333333","6500500","新莊區"
"242032","135-UY","2018/05/08 20:08:56","新北市新莊區中正路362號","121.443173333333","25.0342233333333","6500500","新莊區"
"242048","172-VK","2018/05/08 20:08:55","新北市新莊區四維路182巷8號","121.421925","25.0219066666667","6500500","新莊區"
"242011","173-VK","2018/05/08 20:08:38","新北市新莊區中和街210號","121.447985","25.050645","6500500","新莊區"
"242017","175-VK","2018/05/08 20:08:47","新北市新莊區中港一街4號","121.451825","25.0458533333333","6500500","新莊區"
"242005","176-VK","2018/05/08 20:08:45","新北市新莊區頭興街1-4號","121.46411","25.053465","6500500","新莊區"
"242015","346-TH","2018/05/08 20:08:54","新北市新莊區中平路26巷45號","121.44703","25.04343","6500500","新莊區"
"242009","347-TH","2018/05/08 20:08:43","新北市新莊區昌盛街22號","121.453838333333","25.049925","6500500","新莊區"
"242021","348-TH","2018/05/08 20:08:51","新北市新莊區中興街41號","121.44915","25.0368883333333","6500500","新莊區"
"242037","349-TH","2018/05/08 20:08:48","新北市新莊區建安街9巷7號","121.429148333333","25.0267516666667","6500500","新莊區"
"242019","350-TH","2018/05/08 20:08:52","新北市新莊區長青街29號","121.457151666667","25.0421966666667","6500500","新莊區"
"242013","351-TH","2018/05/08 20:08:38","新北市新莊區幸福路710巷5弄16號","121.449205","25.0497616666667","6500500","新莊區"
"221008","489-VK","2018/05/08 20:08:58","台北市內湖區安泰街2號","121.619465","25.0733833333333","6501100","汐止區"
"221036","130-UY","2018/05/08 20:08:49","新北市汐止區新台五路二段41巷1號","121.663051666667","25.0665966666667","6501100","汐止區"
"221015","131-UY","2018/05/08 20:08:51","新北市汐止區建成路17號","121.664485","25.0726016666667","6501100","汐止區"
"221010","269-BY","2018/05/08 20:08:47","新北市汐止區八連路一段338號","121.64036","25.0880366666667","6501100","汐止區"
"221012","278-VK","2018/05/08 20:08:55","新北市汐止區汐平路二段55號","121.699188333333","25.0608216666667","6501100","汐止區"
"221023","279-VK","2018/05/08 20:08:42","新北市汐止區明峰街298巷7弄4號","121.6248","25.0690883333333","6501100","汐止區"
"221032","280-BY","2018/05/08 20:08:37","新北市汐止區弘道街9巷2弄2號","121.617036666667","25.04884","6501100","汐止區"
"221027","281-BY","2018/05/08 20:08:48","新北市汐止區中正路133號","121.660053333333","25.0692583333333","6501100","汐止區"
"221021","299-VK","2018/05/08 20:08:50","新北市汐止區莊敬街115號","121.655373333333","25.0610616666667","6501100","汐止區"
"221031","353-TW","2018/05/08 20:08:52","新北市汐止區原興路76巷1號","121.631911666667","25.06649","6501100","汐止區"
"221035","622-UM","2018/05/08 20:08:58","新北市汐止區長江街79巷16號","121.657948333333","25.072835","6501100","汐止區"
"221025","623-UM","2018/05/08 20:08:42","新北市汐止區秀峰路64號","121.659765","25.0646016666667","6501100","汐止區"
"221038","646-BX","2018/05/08 20:08:50","新北市汐止區大同路三段66-3號","121.668043333333","25.0772733333333","6501100","汐止區"
"221033","647-BX","2018/05/08 19:45:41","新北市汐止區東勢街4號","121.629743333333","25.0403783333333","6501100","汐止區"
"221002","707-TV","2018/05/08 20:08:57","新北市汐止區中興路27巷6弄7號","121.634778333333","25.060845","6501100","汐止區"
"221018","753-BX","2018/05/08 20:08:43","新北市汐止區茄興街16號","121.673391666667","25.0670933333333","6501100","汐止區"
"220080","200-UY","2018/05/08 20:08:50","新北市板橋區大觀路二段179巷10號","121.445293333333","24.9997816666667","6500100","板橋區"
"242002","KEA-2550","2018/05/08 20:08:43","新北市新莊區中正路55-4號","121.461873333333","25.0397516666667","6500500","新莊區"
"220101","245-BX","2018/05/08 20:08:58","新北市板橋區雙十路二段4號","121.477386666667","25.0253583333333","6500100","板橋區"
"220103","257-TC","2018/05/08 20:08:53","新北市板橋區自由路3號","121.465358333333","25.0224433333333","6500100","板橋區"
"220072","277-BY","2018/05/08 20:08:53","新北市板橋區金門街107號","121.43324","24.9921183333333","6500100","板橋區"
"220071","283-VK","2018/05/08 20:08:50","新北市板橋區干城路167號","121.4611","24.9915766666667","6500100","板橋區"
"220053","285-VK","2018/05/08 20:08:43","新北市板橋區懷仁街93號","121.477623333333","25.0182433333333","6500100","板橋區"
"220083","286-VK","2018/05/08 20:08:52","新北市板橋區僑中二街12巷18號","121.44608","25.0107616666667","6500100","板橋區"
"220081","287-VK","2018/05/08 20:08:51","新北市板橋區僑中一街124巷20弄37號","121.44766","25.0139033333333","6500100","板橋區"
"220061","293-UM","2018/05/08 20:08:55","新北市板橋區觀光街57巷15弄1號","121.470238333333","25.016075","6500100","板橋區"
"242054","281-VK","2018/05/08 20:08:56","新北市新莊區西盛街421號","121.427291666667","25.0122066666667","6500500","新莊區"
"220092","307-R5","2018/05/08 20:08:45","新北市板橋區文化路一段45巷10號","121.460271666667","25.0137333333333","6500100","板橋區"
"220098","317-R6","2018/05/08 20:08:54","新北市板橋區新海路72巷5弄5號","121.461925","25.02229","6500100","板橋區"
"220064","486-VK","2018/05/08 20:08:57","新北市板橋區板新路33號","121.474215","25.012955","6500100","板橋區"
"220088","491-VK","2018/05/08 20:08:47","新北市板橋區仁化街178號","121.478406666667","25.0338966666667","6500100","板橋區"
"220035","560-BX","2018/05/08 20:08:43","新北市板橋區新生街37號","121.456755","25.0211183333333","6500100","板橋區"
"220055","630-UY","2018/05/08 20:08:45","新北市板橋區仁愛路86巷13弄1號","121.46113","24.99897","6500100","板橋區"
"220093","689-BX","2018/05/08 20:08:46","新北市板橋區民生路三段315號","121.462065","25.0307","6500100","板橋區"
"220102","KEA-2699","2018/05/08 20:08:49","新北市板橋區懷德街76巷10號","121.477536666667","25.0317","6500100","板橋區"
"220067","829-TW","2018/05/08 20:08:38","新北市板橋區中山路一段206巷68號","121.472091666667","25.013265","6500100","板橋區"
"220089","833-TW","2018/05/08 20:08:59","新北市板橋區互助街56號","121.461423333333","25.026805","6500100","板橋區"
"220074","895-R6","2018/05/08 20:08:57","新北市板橋區館前西路120號","121.456766666667","25.0075766666667","6500100","板橋區"
"220073","985-R7","2018/05/08 20:08:42","新北市板橋區大觀路一段18號","121.450348333333","25.008535","6500100","板橋區"
"220097","AAC-210","2018/05/08 20:08:45","新北市板橋區文化路一段221巷26號","121.462785","25.017905","6500100","板橋區"
"220070","AAC-253","2018/05/08 20:08:55","新北市板橋區四川路二段99巷24弄43號","121.453275","24.9936083333333","6500100","板橋區"
