"lineid","car","time","location","longitude","latitude","cityid","cityname"
"241005","262-UM","2018/05/08 21:48:48","新北市三重區碧華街409號","121.493283333333","25.085925","6500200","三重區"
"235010","733-UM","2018/05/08 21:40:10","新北市中和區員山路36巷13號","121.484105","24.9908466666667","6500300","中和區"
"251009","008-UM","2018/05/08 21:48:55","新北市淡水區民生路52巷22弄12號","121.462418333333","25.1369483333333","6501000","淡水區"
"251004","009-UM","2018/05/08 21:48:41","新北市淡水區民權路92巷35-1號","121.462178333333","25.1267466666667","6501000","淡水區"
"251005","010-UM","2018/05/08 21:48:54","新北市淡水區鄧公路30巷24號","121.453376666667","25.1697916666667","6501000","淡水區"
"251001","011-UM","2018/05/08 21:48:54","新北市淡水區沙崙路二段112號","121.433865","25.19839","6501000","淡水區"
"251014","180-VK","2018/05/08 21:48:52","新北市淡水區淡金路二段519號","121.446933333333","25.19073","6501000","淡水區"
"251008","181-VK","2018/05/08 21:48:54","新北市淡水區學府路104號","121.449846666667","25.1717966666667","6501000","淡水區"
"251010","413-VK","2018/05/08 21:48:52","新北市淡水區中正路二段210號","121.426343333333","25.1894733333333","6501000","淡水區"
"251012","441-VK","2018/05/08 21:48:53","新北市淡水區淡金路三段339號","121.448908333333","25.2065633333333","6501000","淡水區"
"251007","442-VK","2018/05/08 21:48:48","新北市淡水區水源街二段177巷41弄3號","121.452983333333","25.1766866666667","6501000","淡水區"
"251006","561-UM","2018/05/08 21:48:50","新北市淡水區中正路11巷3號","121.437798333333","25.1707516666667","6501000","淡水區"
"251011","650-BX","2018/05/08 21:48:48","新北市淡水區新民街322巷9號","121.436368333333","25.1828666666667","6501000","淡水區"
"251002","672-BX","2018/05/08 21:48:42","新北市淡水區大忠街159號","121.448275","25.17654","6501000","淡水區"
"251003","766-UM","2018/05/08 21:49:00","新北市淡水區新春街81號","121.438741666667","25.1823116666667","6501000","淡水區"
"220070","AAC-253","2018/05/08 21:48:55","新北市板橋區華東街1-9號","121.44827","24.9948666666667","6500100","板橋區"
