"lineid","car","time","location","longitude","latitude","cityid","cityname"
"251004","009-UM","2018/05/08 22:18:41","新北市淡水區民族路72號","121.462235","25.1356766666667","6501000","淡水區"
"251008","181-VK","2018/05/08 22:18:54","新北市淡水區學府路104號","121.449865","25.17179","6501000","淡水區"
"251010","413-VK","2018/05/08 22:18:52","新北市淡水區沙崙路200號","121.424756666667","25.1839233333333","6501000","淡水區"
"251007","442-VK","2018/05/08 22:18:48","新北市淡水區北新路180號","121.449385","25.178775","6501000","淡水區"
"251011","650-BX","2018/05/08 22:18:48","新北市淡水區水碓街7號","121.443215","25.1771616666667","6501000","淡水區"
"251003","766-UM","2018/05/08 22:18:40","新北市淡水區下圭柔山90-8號","121.432153333333","25.2120383333333","6501000","淡水區"
