"lineid","car","time","location","longitude","latitude","cityid","cityname"
"231007","189-VK","2018/07/07 10:39:36","新北市新店區新潭路三段80巷1號","121.502856666667","24.9102566666667","6500600","新店區"
"231008","192-VK","2018/07/07 10:39:35","新北市新店區廣興路30-1號","121.540198333333","24.911985","6500600","新店區"
"227006","282-VK","2018/07/07 10:39:33","新北市雙溪區新基里新基北街78號","121.870055","25.03903","6502500","雙溪區"
"252007","AAC-283","2018/07/07 10:39:46","新北市三芝區新庄里番社后3號","121.501858333333","25.26628","6502100","三芝區"
"220032","568-UM","2018/07/07 10:39:48","新北市板橋區民生路二段226巷15號","121.470526666667","25.02191","6500100","板橋區"
