"lineid","car","time","location","longitude","latitude","cityid","cityname"
"234044","148-BY","2018/07/07 13:09:44","新北市永和區永元路18巷18號","121.523155","25.00016","6500400","永和區"
"234070","149-BY","2018/07/07 13:09:34","新北市永和區四維街62號","121.524401666667","24.998225","6500400","永和區"
"234005","207-UY","2018/07/07 13:09:45","新北市永和區中山路一段211號","121.508776666667","25.0083833333333","6500400","永和區"
"234078","298-R6","2018/07/07 13:09:39","新北市永和區永亨路83號","121.521908333333","25.005675","6500400","永和區"
"234036","336-UY","2018/07/07 13:09:39","新北市永和區民樂街69巷2號","121.527371666667","24.9976733333333","6500400","永和區"
"234062","337-UY","2018/07/07 13:09:51","新北市永和區秀朗路二段46號","121.521351666667","25.002365","6500400","永和區"
"234068","552-UM","2018/07/07 13:09:41","新北市永和區豫溪街137巷2號","121.519808333333","25.0104633333333","6500400","永和區"
"234084","553-UM","2018/07/07 13:09:49","新北市永和區永利路4巷22號","121.517555","25.005055","6500400","永和區"
"234015","745-BX","2018/07/07 13:09:46","新北市永和區文化路90巷17號","121.513713333333","25.0161883333333","6500400","永和區"
"234028","746-BX","2018/07/07 13:09:40","新北市永和區四維街91號","121.524441666667","24.99818","6500400","永和區"
"234052","KEA-2590","2018/07/07 13:09:35","新北市永和區中興街133巷6號","121.51874","25.0126633333333","6500400","永和區"
"234012","KEA-2591","2018/07/07 13:09:45","新北市永和區保福路二段30號","121.511003333333","25.0116466666667","6500400","永和區"
"234060","AAD-866","2018/07/07 13:09:46","新北市永和區安樂路306號","121.514425","25.0054633333333","6500400","永和區"
"234040","862-TW","2018/07/07 13:09:50","新北市永和區永和路一段49巷3弄81號","121.511883333333","25.0061166666667","6500400","永和區"
"234048","863-TW","2018/07/07 13:09:52","新北市永和區文化路135巷9號","121.510713333333","25.014695","6500400","永和區"
"234025","9371-KE","2018/07/07 13:09:52","新北市永和區秀朗路一段10巷19號","121.513495","25.0061633333333","6500400","永和區"
"234010","9373-KE","2018/07/07 13:09:37","新北市永和區仁愛路31巷7弄1號","121.514296666667","25.0129133333333","6500400","永和區"
"248017","225-UY","2018/07/07 13:09:42","新北市五股區成泰路三段101-1號","121.444208333333","25.0902283333333","6501500","五股區"
"234022","9380-KE","2018/07/07 13:09:54","新北市永和區中興街10巷21號","121.515918333333","25.01114","6500400","永和區"
"234076","969-R7","2018/07/07 13:09:50","新北市永和區民光街22巷2號","121.51592","24.9957733333333","6500400","永和區"
"234072","AAC-211","2018/07/07 13:09:52","新北市永和區竹林路198號","121.520486666667","25.009435","6500400","永和區"
"234066","AAC-212","2018/07/07 13:09:44","新北市永和區永和路一段65巷2號","121.512868333333","25.0072166666667","6500400","永和區"
"234001","AAC-295","2018/07/07 13:09:41","新北市永和區中山路一段151號","121.51009","25.0093083333333","6500400","永和區"
"244005","248-BX","2018/07/07 13:09:41","新北市林口區中山路564-1號","121.378165","25.0837116666667","6501700","林口區"
"231005","001-UM","2018/07/07 13:09:44","新北市新店區安華路28-1號","121.519503333333","24.9609383333333","6500600","新店區"
"231002","002-UM","2018/07/07 13:09:34","新北市新店區安華路28-1號","121.51964","24.9608083333333","6500600","新店區"
"231027","0293-UT","2018/07/07 13:09:40","新北市新店區安華路28-1號","121.519521666667","24.960535","6500600","新店區"
"231001","047-UY","2018/07/07 13:09:40","新北市新店區安華路28-1號","121.5193","24.96089","6500600","新店區"
"231036","110-UY","2018/07/07 13:09:48","新北市新店區安一路一段1-1號","121.519975","24.9612183333333","6500600","新店區"
"231012","187-VK","2018/07/07 13:09:37","新北市新店區安一路一段1-1號","121.519536666667","24.9611833333333","6500600","新店區"
"231010","188-VK","2018/07/07 13:09:34","新北市新店區安一路一段1-1號","121.519335","24.9612233333333","6500600","新店區"
"231023","KEA-2219","2018/07/07 13:09:42","新北市新店區安一路一段1-1號","121.51989","24.9611333333333","6500600","新店區"
"231026","256-BX","2018/07/07 13:09:38","新北市新店區安一路一段1-1號","121.51961","24.9610833333333","6500600","新店區"
"231003","268-BY","2018/07/07 13:09:48","新北市新店區安華路28-1號","121.51939","24.9606666666667","6500600","新店區"
"231018","278-BY","2018/07/07 13:09:36","新北市新店區安一路一段1-1號","121.520065","24.9612883333333","6500600","新店區"
"231017","AAD-862","2018/07/07 13:09:49","新北市新店區安一路一段1-1號","121.520066666667","24.9612316666667","6500600","新店區"
"231028","355-BY","2018/07/07 13:09:39","新北市新店區安華路28-1號","121.519271666667","24.9608733333333","6500600","新店區"
"231038","3712-VJ","2018/07/07 13:09:47","新北市新店區安華路28-1號","121.519276666667","24.9606516666667","6500600","新店區"
"231037","4716-K9","2018/07/07 13:09:42","新北市新店區安華路28-1號","121.519688333333","24.9610116666667","6500600","新店區"
"231025","4715-K9","2018/07/07 13:09:37","新北市新店區安華路8號","121.519796666667","24.9622266666667","6500600","新店區"
"231013","513-UM","2018/07/07 13:09:41","新北市新店區安一路一段1-1號","121.519618333333","24.9611433333333","6500600","新店區"
"231006","617-UM","2018/07/07 13:09:37","新北市新店區安華路28-1號","121.519453333333","24.960935","6500600","新店區"
"231030","619-UM","2018/07/07 13:09:39","新北市新店區安華路28-1號","121.519566666667","24.9609983333333","6500600","新店區"
"231034","641-BX","2018/07/07 13:09:41","新北市新店區安華路28-1號","121.519495","24.9605466666667","6500600","新店區"
"231035","719-UM","2018/07/07 13:09:41","新北市新店區安一路一段1-1號","121.519535","24.961345","6500600","新店區"
"231020","719-UY","2018/07/07 13:09:36","新北市新店區安一路一段1-1號","121.519431666667","24.9611133333333","6500600","新店區"
"231033","720-UM","2018/07/07 13:09:44","新北市新店區安一路一段1-1號","121.519048333333","24.9611716666667","6500600","新店區"
"231029","897-TW","2018/07/07 13:09:37","新北市新店區安華路28-1號","121.51957","24.9607266666667","6500600","新店區"
"231004","899-TW","2018/07/07 13:09:40","新北市新店區安華路28-1號","121.519281666667","24.9608533333333","6500600","新店區"
"231024","AKT-0513","2018/07/07 13:09:53","新北市新店區安華路1-1號","121.519455","24.9605066666667","6500600","新店區"
"235028","005-UY","2018/07/07 13:09:36","新北市中和區中正路275號","121.495458333333","24.9937116666667","6500300","中和區"
"235027","006-UY","2018/07/07 13:09:33","新北市中和區員山路36巷16-3號","121.484945","24.9914883333333","6500300","中和區"
"235003","097-UM","2018/07/07 13:09:50","新北市中和區中正路256號","121.495466666667","24.9939466666667","6500300","中和區"
"235029","098-UM","2018/07/07 13:09:50","新北市中和區福祥路90巷1號","121.499238333333","25.0055983333333","6500300","中和區"
"235022","151-BY","2018/07/07 13:09:36","新北市中和區圓通路367巷59弄2號","121.492341666667","24.9834383333333","6500300","中和區"
"235002","185-VK","2018/07/07 13:09:45","新北市中和區自立路3號","121.52255","24.9967033333333","6500300","中和區"
"235031","255-BX","2018/07/07 12:58:53","新北市中和區中正路860號","121.48419","25.0053033333333","6500300","中和區"
"235007","352-BY","2018/07/07 13:09:51","新北市中和區中正路589巷15號","121.485613333333","24.9935133333333","6500300","中和區"
"235006","KEA-2878","2018/07/07 13:09:39","新北市中和區中正路244號","121.495881666667","24.9940216666667","6500300","中和區"
"235014","4979-A6","2018/07/07 13:09:42","新北市中和區中正路637巷52弄1號","121.485363333333","24.9934516666667","6500300","中和區"
"235034","558-UM","2018/07/07 13:09:33","新北市中和區圓通路183號","121.497471666667","24.99478","6500300","中和區"
"235009","565-BX","2018/07/07 13:09:44","新北市中和區員山路36巷13號","121.48418","24.991045","6500300","中和區"
"235018","640-BX","2018/07/07 13:09:49","新北市中和區國光街6巷2號","121.47209","25.0002866666667","6500300","中和區"
"235024","647-TV","2018/07/07 13:09:52","新北市中和區連城路469巷8號","121.483565","24.9954683333333","6500300","中和區"
"235011","732-UM","2018/07/07 13:09:43","新北市中和區建八路1號","121.48552","24.9985783333333","6500300","中和區"
"235035","783-BX","2018/07/07 13:09:33","新北市中和區板南路520巷15號","121.48373","25.0089083333333","6500300","中和區"
"235026","800-TS","2018/07/07 13:08:32","新北市中和區中正路748號","121.485726666667","24.9985","6500300","中和區"
"235021","801-TS","2018/07/07 13:09:50","新北市中和區員山路36巷16-8號","121.485523333333","24.9923133333333","6500300","中和區"
"235005","802-TS","2018/07/07 13:09:38","新北市中和區錦和路350-1號","121.490196666667","24.9935616666667","6500300","中和區"
"235016","805-TS","2018/07/07 13:09:44","新北市中和區連城路259號","121.492706666667","24.9966616666667","6500300","中和區"
"235012","896-TW","2018/07/07 13:09:39","新北市中和區員山路36巷16-3號","121.484943333333","24.9918616666667","6500300","中和區"
"235017","900-TW","2018/07/07 13:09:43","新北市中和區員山路36巷16-3號","121.484931666667","24.9918466666667","6500300","中和區"
"235062","911-UM","2018/07/07 13:09:52","新北市中和區中正路395號","121.489905","24.9939383333333","6500300","中和區"
"235015","157-BY","2018/07/07 13:09:49","新北市中和區南山路287號","121.504365","24.9920533333333","6500300","中和區"
"235001","AAC-213","2018/07/07 13:09:44","新北市中和區景平路149號","121.513911666667","24.9921383333333","6500300","中和區"
"228005","097-TW","2018/07/07 13:09:42","新北市貢寮區仁理村仁和路2-2號","121.92326","25.04848","6502600","貢寮區"
"228004","212-TW","2018/07/07 13:09:46","新北市貢寮區吉林里內寮街75號","121.891035","24.97183","6502600","貢寮區"
"253003","6232-TK","2018/07/07 13:09:33","新北市石門區石崩山24號","121.564226666667","25.2800616666667","6502200","石門區"
"253001","6251-TK","2018/07/07 13:09:37","新北市石門區老梅路43-2號","121.545403333333","25.2896116666667","6502200","石門區"
"253002","637-UY","2018/07/07 13:09:47","新北市石門區老崩山36-5號","121.55674","25.27399","6502200","石門區"
"253004","8270-PC","2018/07/07 13:09:50","新北市石門區阿里荖15號","121.607986666667","25.2802816666667","6502200","石門區"
"207002","749-BX","2018/07/07 13:06:23","新北市萬里區溪底里香員林路7號","121.63255","25.16456","6502800","萬里區"
"252005","073-UM","2018/07/07 13:09:56","新北市三芝區八賢里八連溪19號","121.51085","25.2417533333333","6502100","三芝區"
"207001","662-BX","2018/07/07 13:09:52","新北市萬里區萬里里瑪鋉路139號","121.689323333333","25.1776033333333","6502800","萬里區"
"236006","498-BY","2018/07/07 13:09:52","新北市土城區亞洲路104號","121.434253333333","24.972355","6501300","土城區"
"242048","172-VK","2018/07/07 13:09:40","新北市新莊區中平路26巷30號","121.446093333333","25.0431183333333","6500500","新莊區"
"221032","280-BY","2018/07/07 13:09:53","新北市汐止區連興街62號","121.654181666667","25.0632716666667","6501100","汐止區"
"221031","353-TW","2018/07/07 13:09:50","新北市汐止區水源路二段24號","121.654541666667","25.0575666666667","6501100","汐止區"
"220021","985-R7","2018/07/07 13:09:36","新北市板橋區華東街1-10號","121.448305","24.99502","6500100","板橋區"
"235025","KEA-2875","2018/07/07 13:09:35","新北市土城區金城路三段216號","121.472055","24.990025","6500300","中和區"
