"lineid","car","time","location","longitude","latitude","cityid","cityname"
"234044","148-BY","2018/07/07 13:19:44","新北市永和區得和路375號","121.524711666667","24.9996033333333","6500400","永和區"
"234070","149-BY","2018/07/07 13:19:54","新北市永和區得和路372號","121.524525","24.9991866666667","6500400","永和區"
"234005","207-UY","2018/07/07 13:19:45","新北市永和區中山路一段326號","121.50625","25.00645","6500400","永和區"
"234078","298-R6","2018/07/07 13:19:39","新北市永和區福和路7巷8-1號","121.525233333333","25.0078516666667","6500400","永和區"
"234036","336-UY","2018/07/07 13:19:39","新北市永和區民樂街49號","121.527495","24.9988466666667","6500400","永和區"
"234062","337-UY","2018/07/07 13:19:39","新北市永和區永元路17巷15號","121.521248333333","25.000725","6500400","永和區"
"234068","552-UM","2018/07/07 13:19:41","新北市永和區中正路666巷8號","121.517105","25.0090166666667","6500400","永和區"
"234084","553-UM","2018/07/07 13:19:42","新北市永和區永利路120號","121.521685","25.0031083333333","6500400","永和區"
"234015","745-BX","2018/07/07 13:19:46","新北市永和區環河西路一段85巷4弄20號","121.512103333333","25.016965","6500400","永和區"
"234028","746-BX","2018/07/07 13:19:40","新北市永和區厚德街89號","121.52401","24.9988016666667","6500400","永和區"
"234052","KEA-2590","2018/07/07 13:19:46","新北市永和區中興街27號","121.516078333333","25.0119283333333","6500400","永和區"
"234012","KEA-2591","2018/07/07 13:19:45","新北市永和區信義路56號","121.512996666667","25.0125433333333","6500400","永和區"
"234060","AAD-866","2018/07/07 13:19:46","新北市永和區秀朗路一段175號","121.517071666667","25.00361","6500400","永和區"
"234040","862-TW","2018/07/07 13:19:50","新北市永和區保平路151巷3號","121.510108333333","25.0056366666667","6500400","永和區"
"234048","863-TW","2018/07/07 13:19:52","新北市永和區保福路二段88巷19號","121.511536666667","25.0138133333333","6500400","永和區"
"234025","9371-KE","2018/07/07 13:19:52","新北市永和區豫溪街42巷11號","121.515448333333","25.0092816666667","6500400","永和區"
"234010","9373-KE","2018/07/07 13:19:38","新北市永和區永和路二段425巷64號","121.513653333333","25.017275","6500400","永和區"
"248017","225-UY","2018/07/07 13:19:42","新北市五股區御史路203號","121.431936666667","25.0996633333333","6501500","五股區"
"234022","9380-KE","2018/07/07 13:19:37","新北市永和區竹林路105號","121.519783333333","25.011885","6500400","永和區"
"234076","969-R7","2018/07/07 13:19:50","新北市永和區民有街21巷2號","121.516698333333","24.9964633333333","6500400","永和區"
"234072","AAC-211","2018/07/07 13:19:51","新北市永和區竹林路44號","121.517608333333","25.0143433333333","6500400","永和區"
"234066","AAC-212","2018/07/07 13:19:44","新北市永和區保平路50巷2號","121.511296666667","25.0072333333333","6500400","永和區"
"234001","AAC-295","2018/07/07 13:19:41","新北市永和區和平街109巷2號","121.510893333333","25.009905","6500400","永和區"
"244005","248-BX","2018/07/07 13:19:41","新北市林口區南勢里89號","121.347143333333","25.0774283333333","6501700","林口區"
"231005","001-UM","2018/07/07 13:19:43","新北市新店區安華路28-1號","121.519481666667","24.9609283333333","6500600","新店區"
"231002","002-UM","2018/07/07 13:19:54","新北市新店區安華路28-1號","121.519698333333","24.9608233333333","6500600","新店區"
"231027","0293-UT","2018/07/07 13:19:40","新北市新店區北新路一段89號","121.538386666667","24.9613183333333","6500600","新店區"
"231001","047-UY","2018/07/07 13:19:40","新北市新店區安華路28-1號","121.519325","24.9608783333333","6500600","新店區"
"231036","110-UY","2018/07/07 13:19:48","新北市新店區安忠路205巷8號","121.508741666667","24.9547316666667","6500600","新店區"
"231012","187-VK","2018/07/07 13:19:37","新北市新店區安康路一段111號","121.528576666667","24.9617266666667","6500600","新店區"
"231010","188-VK","2018/07/07 13:19:54","新北市新店區安康路一段44號","121.530755","24.961005","6500600","新店區"
"231023","KEA-2219","2018/07/07 13:19:42","新北市新店區安康路一段3-1號","121.535153333333","24.9608666666667","6500600","新店區"
"231026","256-BX","2018/07/07 13:19:38","新北市新店區安一路一段1-1號","121.519623333333","24.961075","6500600","新店區"
"231003","268-BY","2018/07/07 13:19:48","新北市新店區安華路28-1號","121.519765","24.9607433333333","6500600","新店區"
"231018","278-BY","2018/07/07 13:19:36","新北市新店區中央路177-1號","121.535061666667","24.96951","6500600","新店區"
"231017","AAD-862","2018/07/07 13:19:49","新北市新店區安康路一段85號","121.529336666667","24.96149","6500600","新店區"
"231028","355-BY","2018/07/07 13:19:39","新北市新店區安華路28-1號","121.519318333333","24.9608666666667","6500600","新店區"
"231038","3712-VJ","2018/07/07 13:19:47","新北市新店區安華路28-1號","121.51923","24.9607016666667","6500600","新店區"
"231037","4716-K9","2018/07/07 13:19:42","新北市新店區安華路28-1號","121.519758333333","24.96104","6500600","新店區"
"231025","4715-K9","2018/07/07 13:19:37","新北市新店區中央五街17號","121.529476666667","24.9744666666667","6500600","新店區"
"231013","513-UM","2018/07/07 13:19:41","新北市新店區安一路一段1-1號","121.519621666667","24.9611633333333","6500600","新店區"
"231006","617-UM","2018/07/07 13:19:37","新北市新店區安華路28-1號","121.51945","24.9609166666667","6500600","新店區"
"231030","619-UM","2018/07/07 13:19:39","新北市新店區安華路28-1號","121.519451666667","24.9609483333333","6500600","新店區"
"231034","641-BX","2018/07/07 13:19:41","新北市新店區安華路28-1號","121.519565","24.9605866666667","6500600","新店區"
"231035","719-UM","2018/07/07 13:19:41","新北市新店區安一路一段1-1號","121.519535","24.9613316666667","6500600","新店區"
"231020","719-UY","2018/07/07 13:19:36","新北市新店區安一路一段1-1號","121.51946","24.96122","6500600","新店區"
"231033","720-UM","2018/07/07 13:19:44","新北市新店區安一路一段1-1號","121.519366666667","24.9611966666667","6500600","新店區"
"231029","897-TW","2018/07/07 13:19:37","新北市新店區安華路28-1號","121.519528333333","24.9607316666667","6500600","新店區"
"231004","899-TW","2018/07/07 13:19:20","新北市新店區安華路28-1號","121.51915","24.96086","6500600","新店區"
"231024","AKT-0513","2018/07/07 13:19:53","新北市新店區光明街298號","121.540446666667","24.9648116666667","6500600","新店區"
"235030","003-UY","2018/07/07 13:19:45","新北市中和區中山路二段122號","121.502565","25.0037116666667","6500300","中和區"
"235028","005-UY","2018/07/07 13:19:56","新北市中和區圓通路165-1號","121.497795","24.99537","6500300","中和區"
"235027","006-UY","2018/07/07 13:19:54","新北市中和區中正路637巷52弄1號","121.485431666667","24.9935216666667","6500300","中和區"
"235003","097-UM","2018/07/07 13:19:50","新北市中和區安平路59號","121.509648333333","24.9949283333333","6500300","中和區"
"235029","098-UM","2018/07/07 13:19:43","新北市中和區莊敬路49巷20弄22號","121.502726666667","25.0057716666667","6500300","中和區"
"235022","151-BY","2018/07/07 13:19:36","新北市中和區圓通路367巷17號","121.492588333333","24.9865283333333","6500300","中和區"
"235019","183-VK","2018/07/07 13:19:52","新北市中和區員山路72-2號","121.481146666667","24.9935616666667","6500300","中和區"
"235002","185-VK","2018/07/07 13:19:45","新北市中和區大智街57號","121.521125","24.9920666666667","6500300","中和區"
"235013","186-VK","2018/07/07 13:19:46","新北市中和區錦和路350-1號","121.490343333333","24.99356","6500300","中和區"
"235031","255-BX","2018/07/07 13:16:53","新北市中和區新生街232號","121.483991666667","24.9982016666667","6500300","中和區"
"235036","301-VK","2018/07/07 13:19:40","新北市中和區連城路285號","121.490286666667","24.9964233333333","6500300","中和區"
"235007","352-BY","2018/07/07 13:19:51","新北市中和區景平路375號","121.504151666667","24.993315","6500300","中和區"
"235006","KEA-2878","2018/07/07 13:19:39","新北市中和區景平路159巷29弄5號","121.513013333333","24.991325","6500300","中和區"
"235014","4979-A6","2018/07/07 13:19:41","新北市中和區捷運路61巷9號","121.509178333333","24.98938","6500300","中和區"
"235033","4980-A6","2018/07/07 13:19:42","新北市中和區圓通路248-1號","121.494516666667","24.9920333333333","6500300","中和區"
"235034","558-UM","2018/07/07 13:19:33","新北市中和區圓通路78號","121.50003","24.99704","6500300","中和區"
"235009","565-BX","2018/07/07 13:19:44","新北市中和區復興路75號","121.5036","24.990195","6500300","中和區"
"235018","640-BX","2018/07/07 13:19:49","新北市中和區民享街86巷26號","121.473373333333","25.0007016666667","6500300","中和區"
"235024","647-TV","2018/07/07 13:19:52","新北市中和區員山路283號","121.48117","24.9997066666667","6500300","中和區"
"235011","732-UM","2018/07/07 13:19:43","新北市中和區南山路493號","121.507976666667","24.9878666666667","6500300","中和區"
"235035","783-BX","2018/07/07 13:19:52","新北市中和區中板路18巷3弄28號","121.483315","25.0134033333333","6500300","中和區"
"235026","800-TS","2018/07/07 13:19:48","新北市中和區景平路999巷2號","121.495381666667","25.005955","6500300","中和區"
"235021","801-TS","2018/07/07 13:19:50","新北市中和區民安街81號","121.477983333333","24.9997766666667","6500300","中和區"
"235005","802-TS","2018/07/07 13:19:38","新北市中和區景安路2號","121.507926666667","24.99918","6500300","中和區"
"235016","805-TS","2018/07/07 13:19:44","新北市中和區南山路541號","121.508008333333","24.9867783333333","6500300","中和區"
"235012","896-TW","2018/07/07 13:19:39","新北市中和區錦和路350-1號","121.490278333333","24.993555","6500300","中和區"
"235017","900-TW","2018/07/07 13:19:43","新北市中和區中正路637巷52弄3號","121.485231666667","24.9937916666667","6500300","中和區"
"235062","911-UM","2018/07/07 13:15:52","新北市中和區中正路211巷40-5號","121.49786","24.9924983333333","6500300","中和區"
"235015","157-BY","2018/07/07 13:19:52","新北市中和區忠孝街29號","121.510473333333","24.9829783333333","6500300","中和區"
"235001","AAC-213","2018/07/07 13:19:44","新北市中和區景德街86號","121.516358333333","24.9914266666667","6500300","中和區"
"228005","097-TW","2018/07/07 13:19:22","新北市貢寮區美豐里丹裡街18-2號","121.911926666667","25.058235","6502600","貢寮區"
"228004","212-TW","2018/07/07 13:19:26","新北市貢寮區吉林里內寮街21號","121.901651666667","24.9836666666667","6502600","貢寮區"
"253003","6232-TK","2018/07/07 13:19:52","新北市石門區內石門89-2號","121.56676","25.2661516666667","6502200","石門區"
"253001","6251-TK","2018/07/07 13:19:37","新北市石門區楓林6-1號","121.537761666667","25.2960883333333","6502200","石門區"
"253002","637-UY","2018/07/07 13:19:47","新北市石門區大溪墘9-7號","121.55265","25.2749683333333","6502200","石門區"
"253004","8270-PC","2018/07/07 13:19:50","新北市石門區阿里荖54號","121.609483333333","25.2736016666667","6502200","石門區"
"207002","749-BX","2018/07/07 13:19:42","新北市萬里區崁腳里崁腳路166號","121.645036666667","25.1558533333333","6502800","萬里區"
"252005","073-UM","2018/07/07 13:19:36","新北市三芝區八賢里八連溪68號","121.5181","25.230995","6502100","三芝區"
"207001","662-BX","2018/07/07 13:19:52","新北市萬里區龜吼里玉田路29號","121.680805","25.1949533333333","6502800","萬里區"
"236006","498-BY","2018/07/07 13:19:52","新北市土城區亞洲路134號","121.433713333333","24.9717016666667","6501300","土城區"
"242048","172-VK","2018/07/07 13:19:40","新北市新莊區新泰路300號","121.445548333333","25.04103","6500500","新莊區"
"221032","280-BY","2018/07/07 13:19:32","新北市汐止區大同路二段312巷16弄9號","121.655746666667","25.0652983333333","6501100","汐止區"
"221031","353-TW","2018/07/07 13:19:50","新北市汐止區水源路二段72巷31弄9號","121.655898333333","25.0547883333333","6501100","汐止區"
"220002","741-BX","2018/07/07 13:19:51","新北市板橋區華東街1-9號","121.44807","24.9949216666667","6500100","板橋區"
"220025","806-UM","2018/07/07 13:19:44","新北市板橋區華東街1-10號","121.448303333333","24.9950233333333","6500100","板橋區"
"220021","985-R7","2018/07/07 13:19:36","新北市板橋區華東街1-10號","121.448325","24.99496","6500100","板橋區"
"235025","KEA-2875","2018/07/07 13:19:35","新北市中和區國光街107巷4弄20號","121.46988","24.9993083333333","6500300","中和區"
