"lineid","car","time","location","longitude","latitude","cityid","cityname"
"234044","148-BY","2018/07/07 13:49:44","新北市永和區永利路358號","121.526228333333","25.0032633333333","6500400","永和區"
"234070","149-BY","2018/07/07 13:49:34","新北市中和區永貞路264號","121.51378","25.0037416666667","6500400","永和區"
"234005","207-UY","2018/07/07 13:49:45","新北市中和區中和路378巷2-1號","121.510848333333","25.002035","6500400","永和區"
"234078","298-R6","2018/07/07 13:49:39","新北市永和區永亨路98號","121.523021666667","25.0048533333333","6500400","永和區"
"234036","336-UY","2018/07/07 13:49:39","新北市永和區民樂街49號","121.527543333333","24.9988166666667","6500400","永和區"
"234062","337-UY","2018/07/07 13:49:39","新北市永和區中正路368巷5號","121.518005","25.0009516666667","6500400","永和區"
"234068","552-UM","2018/07/07 13:49:41","新北市永和區竹林路117-1號","121.520001666667","25.011585","6500400","永和區"
"234084","553-UM","2018/07/07 13:49:48","新北市永和區福和路278號","121.517951666667","25.007625","6500400","永和區"
"234015","745-BX","2018/07/07 13:49:46","新北市永和區文化路9巷2號","121.515306666667","25.014875","6500400","永和區"
"234028","746-BX","2018/07/07 13:49:40","新北市永和區民生路47巷10號","121.523578333333","24.9977183333333","6500400","永和區"
"234052","KEA-2590","2018/07/07 13:49:34","新北市永和區竹林路39巷28弄21號","121.519965","25.0144433333333","6500400","永和區"
"234012","KEA-2591","2018/07/07 13:49:45","新北市永和區仁愛路200號","121.509355","25.012405","6500400","永和區"
"234060","AAD-866","2018/07/07 13:49:51","新北市永和區中正路285號","121.517373333333","25.0011983333333","6500400","永和區"
"234040","862-TW","2018/07/07 13:49:50","新北市永和區中和路421巷5弄18號","121.508245","25.0006083333333","6500400","永和區"
"234048","863-TW","2018/07/07 13:49:52","新北市永和區保安路144號","121.508568333333","25.0149183333333","6500400","永和區"
"234010","9373-KE","2018/07/07 13:49:37","新北市永和區保安路119號","121.50776","25.0138033333333","6500400","永和區"
"248017","225-UY","2018/07/07 13:48:22","新北市五股區民義路二段22巷26-2號","121.423855","25.0989316666667","6501500","五股區"
"234022","9380-KE","2018/07/07 13:49:37","新北市永和區中正路700號","121.516306666667","25.0099083333333","6500400","永和區"
"234076","969-R7","2018/07/07 13:49:50","新北市永和區民權路34號","121.520123333333","24.998905","6500400","永和區"
"234072","AAC-211","2018/07/07 13:49:51","新北市永和區豫溪街207巷4號","121.523746666667","25.00965","6500400","永和區"
"234066","AAC-212","2018/07/07 13:49:52","新北市永和區永貞路355巷3號","121.508926666667","25.00747","6500400","永和區"
"234001","AAC-295","2018/07/07 13:49:40","新北市永和區永和路一段107號","121.513951666667","25.0079383333333","6500400","永和區"
"231005","001-UM","2018/07/07 13:49:43","新北市新店區寶中路94-1號","121.549026666667","24.9800266666667","6500600","新店區"
"231002","002-UM","2018/07/07 13:49:54","新北市新店區溪園路389-7號","121.52365","24.9790016666667","6500600","新店區"
"231027","0293-UT","2018/07/07 13:49:40","新北市新店區中興路一段24號","121.538716666667","24.9582683333333","6500600","新店區"
"231001","047-UY","2018/07/07 13:49:40","新北市新店區三民路107號","121.53513","24.97211","6500600","新店區"
"231036","110-UY","2018/07/07 13:49:48","新北市新店區安祥路140號","121.474466666667","24.9559033333333","6500600","新店區"
"231012","187-VK","2018/07/07 13:49:37","新北市新店區德正街27巷29弄7號","121.54543","24.971765","6500600","新店區"
"231010","188-VK","2018/07/07 13:49:54","新北市新店區平等街48巷8號","121.535828333333","24.97306","6500600","新店區"
"231023","KEA-2219","2018/07/07 13:49:42","新北市新店區北宜路一段28號","121.538141666667","24.9569983333333","6500600","新店區"
"231026","256-BX","2018/07/07 13:49:38","新北市新店區三民路159巷19弄31號","121.532221666667","24.9731616666667","6500600","新店區"
"231003","268-BY","2018/07/07 13:49:48","新北市新店區中興路一段162號","121.542576666667","24.964055","6500600","新店區"
"231018","278-BY","2018/07/07 13:49:56","新北市新店區中正路404號","121.534638333333","24.9775733333333","6500600","新店區"
"231017","AAD-862","2018/07/07 13:49:49","新北市新店區竹林路71-7號","121.553613333333","24.95133","6500600","新店區"
"231028","355-BY","2018/07/07 13:49:39","新北市新店區安和路2段237-1號","121.517131666667","24.97647","6500600","新店區"
"231038","3712-VJ","2018/07/07 13:49:47","新北市新店區安華路30巷3號","121.519608333333","24.9592183333333","6500600","新店區"
"231037","4716-K9","2018/07/07 13:49:42","新北市新店區安康路三段359巷12弄4號","121.484468333333","24.9499633333333","6500600","新店區"
"231025","4715-K9","2018/07/07 13:49:37","新北市新店區中正路374號","121.535026666667","24.9764383333333","6500600","新店區"
"231013","513-UM","2018/07/07 13:49:41","新北市新店區二十張路19號","121.539296666667","24.9821233333333","6500600","新店區"
"231006","617-UM","2018/07/07 13:49:37","新北市新店區北宜路一段278號","121.546325","24.9526366666667","6500600","新店區"
"231030","619-UM","2018/07/07 13:49:40","新北市新店區安康路一段50號","121.5302","24.9611633333333","6500600","新店區"
"231034","641-BX","2018/07/07 13:49:41","新北市新店區達觀路16號","121.503131666667","24.940665","6500600","新店區"
"231035","719-UM","2018/07/07 13:49:41","新北市新店區安忠路57巷18號","121.513046666667","24.9588416666667","6500600","新店區"
"231020","719-UY","2018/07/07 13:49:36","新北市新店區永興路95-3號","121.544495","24.9326033333333","6500600","新店區"
"231033","720-UM","2018/07/07 13:49:44","新北市新店區莒光路44巷21弄11-3號","121.518421666667","24.952195","6500600","新店區"
"231029","897-TW","2018/07/07 13:49:54","新北市新店區安康路二段136號","121.512513333333","24.962035","6500600","新店區"
"231004","899-TW","2018/07/07 13:49:40","新北市新店區寶橋路132號","121.547425","24.9761466666667","6500600","新店區"
"231024","AKT-0513","2018/07/07 13:49:53","新北市新店區北新路一段271巷26號","121.540113333333","24.9672533333333","6500600","新店區"
"235030","003-UY","2018/07/07 13:49:45","新北市中和區水源路7巷29號","121.504103333333","25.003955","6500300","中和區"
"235028","005-UY","2018/07/07 13:49:36","新北市中和區泰和街3號","121.499803333333","25.0007283333333","6500300","中和區"
"235027","006-UY","2018/07/07 13:49:54","新北市中和區連城路319巷11弄10號","121.489561666667","24.99493","6500300","中和區"
"235020","096-UM","2018/07/07 13:49:38","新北市中和區中正路1192號","121.480551666667","25.01037","6500300","中和區"
"235003","097-UM","2018/07/07 13:49:50","新北市中和區大勇街32號","121.517278333333","24.9931383333333","6500300","中和區"
"235029","098-UM","2018/07/07 13:49:53","新北市中和區勝利路35巷9弄8號","121.4996","25.007125","6500300","中和區"
"235004","150-BY","2018/07/07 13:49:41","新北市中和區保健路50巷25號","121.509985","24.99616","6500300","中和區"
"235022","151-BY","2018/07/07 13:49:36","新北市中和區連城路506號","121.47712","24.9921466666667","6500300","中和區"
"235019","183-VK","2018/07/07 13:49:52","新北市中和區德光路70號","121.469381666667","25.0037816666667","6500300","中和區"
"235002","185-VK","2018/07/07 13:49:45","新北市中和區自強路60號","121.520053333333","24.994475","6500300","中和區"
"235013","186-VK","2018/07/07 13:49:46","新北市中和區景安路177巷21號","121.506295","24.994405","6500300","中和區"
"235031","255-BX","2018/07/07 13:39:53","新北市中和區新生街186巷5弄35-1號","121.483088333333","24.9989383333333","6500300","中和區"
"235008","293-VK","2018/07/07 13:49:49","新北市中和區中興街123號","121.49994","24.991765","6500300","中和區"
"235036","301-VK","2018/07/07 13:49:40","新北市中和區中山路二段86號","121.503453333333","25.0043683333333","6500300","中和區"
"235007","352-BY","2018/07/07 13:49:51","新北市中和區景平路1號","121.525715","24.99014","6500300","中和區"
"235006","KEA-2878","2018/07/07 13:49:39","新北市中和區秀朗路三段117號","121.525945","24.9932733333333","6500300","中和區"
"235014","4979-A6","2018/07/07 13:49:41","新北市中和區忠孝街62巷32號","121.512911666667","24.9835116666667","6500300","中和區"
"235033","4980-A6","2018/07/07 13:49:42","新北市中和區南山路81巷19號","121.502535","24.9980866666667","6500300","中和區"
"235034","558-UM","2018/07/07 13:49:53","新北市中和區中和路138號","121.5036","24.999775","6500300","中和區"
"235009","565-BX","2018/07/07 13:49:04","新北市中和區南山路323號","121.505051666667","24.9913216666667","6500300","中和區"
"235018","640-BX","2018/07/07 13:49:49","新北市中和區自治街30號","121.47496","25.0031766666667","6500300","中和區"
"235024","647-TV","2018/07/07 13:49:52","新北市中和區中山路三段173號","121.473025","25.00618","6500300","中和區"
"235011","732-UM","2018/07/07 13:49:43","新北市中和區興南路二段34巷57弄2號","121.504881666667","24.98568","6500300","中和區"
"235010","733-UM","2018/07/07 13:49:35","新北市中和區仁愛街36巷43號","121.51126","24.9866833333333","6500300","中和區"
"235035","783-BX","2018/07/07 13:49:53","新北市中和區立言街50號","121.488338333333","25.0066966666667","6500300","中和區"
"235026","800-TS","2018/07/07 13:49:48","新北市中和區中山路二段276號","121.49659","25.0024583333333","6500300","中和區"
"235021","801-TS","2018/07/07 13:49:50","新北市中和區民安街25巷23號","121.480596666667","24.99984","6500300","中和區"
"235005","802-TS","2018/07/07 13:49:38","新北市永和區中和路603號","121.512308333333","25.0041683333333","6500300","中和區"
"235016","805-TS","2018/07/07 13:49:44","新北市中和區興南路二段399巷86號","121.500116666667","24.9784166666667","6500300","中和區"
"235012","896-TW","2018/07/07 13:49:51","新北市中和區南山路407號","121.506893333333","24.989825","6500300","中和區"
"235017","900-TW","2018/07/07 13:49:43","新北市中和區華福街44號","121.466445","24.9965616666667","6500300","中和區"
"235062","911-UM","2018/07/07 13:49:32","新北市中和區中山路二段195號","121.499991666667","25.00251","6500300","中和區"
"235015","157-BY","2018/07/07 13:49:50","新北市中和區忠孝街14號","121.510316666667","24.982675","6500300","中和區"
"235001","AAC-213","2018/07/07 13:49:44","新北市中和區秀朗路三段128巷17弄5號","121.524376666667","24.993365","6500300","中和區"
"235023","AAC-215","2018/07/07 13:49:35","新北市中和區圓通路395號","121.489625","24.98907","6500300","中和區"
"220016","013-TV","2018/07/07 13:49:48","新北市板橋區富山街109巷12號","121.476008333333","25.0216933333333","6500100","板橋區"
"220003","015-TV","2018/07/07 13:49:35","新北市板橋區中山路一段69號","121.4613","25.0099533333333","6500100","板橋區"
"220013","072-UY","2018/07/07 13:49:40","新北市板橋區民族路247巷5弄42號","121.47026","25.00843","6500100","板橋區"
"220105","075-UY","2018/07/07 13:49:42","新北市板橋區民生路二段161巷5號","121.470235","25.0197233333333","6500100","板橋區"
"220017","AAD-861","2018/07/07 13:49:54","新北市板橋區大華街28號","121.458991666667","25.005905","6500100","板橋區"
"247009","341-TH","2018/07/07 13:49:46","新北市蘆洲區復興路357號","121.487868333333","25.0926966666667","6501400","蘆洲區"
"247005","336-TH","2018/07/07 13:49:43","新北市蘆洲區和平路77號","121.469291666667","25.0790183333333","6501400","蘆洲區"
"247007","056-VK","2018/07/07 13:49:34","新北市三重區仁安街65號","121.483966666667","25.0844166666667","6501400","蘆洲區"
"228005","097-TW","2018/07/07 13:49:42","新北市貢寮區美豐里土地公嶺10號","121.890213333333","25.0571316666667","6502600","貢寮區"
"228004","212-TW","2018/07/07 13:49:46","新北市貢寮區龍崗里嵩陽街40號","121.905473333333","25.0149616666667","6502600","貢寮區"
"253003","6232-TK","2018/07/07 13:49:33","新北市石門區尖子鹿11號","121.575651666667","25.28011","6502200","石門區"
"253001","6251-TK","2018/07/07 13:49:37","新北市石門區下員坑16-20號","121.508991666667","25.2795616666667","6502200","石門區"
"253002","637-UY","2018/07/07 13:49:47","新北市石門區尖山湖18號","121.558593333333","25.24701","6502200","石門區"
"253004","8270-PC","2018/07/07 13:49:50","新北市石門區阿里荖48號","121.603355","25.2754016666667","6502200","石門區"
"207002","749-BX","2018/07/07 13:49:42","新北市萬里區崁腳里崁腳路166號","121.645053333333","25.1559083333333","6502800","萬里區"
"252005","073-UM","2018/07/07 13:49:36","新北市三芝區圓山里二坪頂46號","121.539966666667","25.2285283333333","6502100","三芝區"
"207001","662-BX","2018/07/07 13:49:52","新北市萬里區磺潭里公館崙17-1號","121.640256666667","25.2131483333333","6502800","萬里區"
"236068","105-UM","2018/07/07 13:49:40","新北市土城區城林路6巷80號","121.43867","24.9796783333333","6501300","土城區"
"236040","107-UM","2018/07/07 13:49:44","新北市土城區城林路6巷80號","121.438486666667","24.9797416666667","6501300","土城區"
"236074","166-UM","2018/07/07 13:49:36","新北市土城區中央路三段180號","121.430768333333","24.9650333333333","6501300","土城區"
"236029","253-BX","2018/07/07 13:49:42","新北市土城區城林路6巷80號","121.438545","24.979715","6501300","土城區"
"236017","401-BY","2018/07/07 13:49:51","新北市土城區城林路6巷80號","121.438461666667","24.9797833333333","6501300","土城區"
"236006","498-BY","2018/07/07 13:49:52","新北市土城區中央路一段365巷1弄1號","121.443378333333","24.9808816666667","6501300","土城區"
"236013","752-BX","2018/07/07 13:49:52","新北市土城區城林路6巷80號","121.438613333333","24.979745","6501300","土城區"
"236057","912-UM","2018/07/07 13:49:53","新北市土城區中華路二段80號","121.438666666667","24.975595","6501300","土城區"
"236045","913-UM","2018/07/07 13:49:43","新北市土城區城林路6巷80號","121.438605","24.97968","6501300","土城區"
"236060","915-UM","2018/07/07 13:49:44","新北市土城區城林路6巷80號","121.438511666667","24.97968","6501300","土城區"
"236054","AAC-216","2018/07/07 13:49:47","新北市土城區城林路6巷80號","121.43858","24.9797266666667","6501300","土城區"
"242048","172-VK","2018/07/07 13:40:20","新北市新莊區利濟街10號","121.453076666667","25.0335883333333","6500500","新莊區"
"220027","145-BY","2018/07/07 13:49:49","新北市板橋區民權路202巷6弄2號","121.460076666667","25.01453","6500100","板橋區"
"220028","200-UY","2018/07/07 13:49:53","新北市板橋區大觀路二段265巷60弄41號","121.441628333333","24.9976583333333","6500100","板橋區"
"220030","610-BX","2018/07/07 13:49:37","新北市板橋區篤行路三段玉平巷74號","121.427915","24.9858","6500100","板橋區"
"220050","245-BX","2018/07/07 13:49:36","新北市板橋區民生路二段120號","121.470628333333","25.01956","6500100","板橋區"
"220004","276-BY","2018/07/07 13:49:52","新北市板橋區四川路二段23-3號","121.45456","24.9956116666667","6500100","板橋區"
"220020","277-BY","2018/07/07 13:49:47","新北市板橋區金門街47巷18號","121.43399","24.9932","6500100","板橋區"
"220019","283-VK","2018/07/07 13:49:42","新北市板橋區重慶路245巷60號","121.46534","25.0009533333333","6500100","板橋區"
"220043","285-UM","2018/07/07 13:49:54","新北市板橋區民生路二段161巷1號","121.470105","25.0198616666667","6500100","板橋區"
"220031","286-VK","2018/07/07 13:49:49","新北市板橋區大觀路一段38巷156弄127號","121.443338333333","25.0081266666667","6500100","板橋區"
"220029","287-VK","2018/07/07 13:49:48","新北市板橋區光華街6號","121.454198333333","25.0114083333333","6500100","板橋區"
"220039","288-VK","2018/07/07 13:49:48","新北市板橋區民生路二段120號","121.470455","25.0195766666667","6500100","板橋區"
"220009","293-UM","2018/07/07 13:49:52","新北市板橋區民生路二段123號","121.470591666667","25.018525","6500100","板橋區"
"220001","299-UM","2018/07/07 13:49:46","新北市板橋區介壽街119號","121.470561666667","25.0186583333333","6500100","板橋區"
"220023","303-R5","2018/07/07 13:49:37","新北市板橋區南雅東路106號","121.453488333333","25.008095","6500100","板橋區"
"220010","305-R5","2018/07/07 13:49:46","新北市板橋區中山路二段40巷17號","121.47333","25.0148566666667","6500100","板橋區"
"220041","307-R5","2018/07/07 13:49:42","新北市板橋區民生路二段120號","121.470533333333","25.0195583333333","6500100","板橋區"
"220047","317-R6","2018/07/07 13:49:52","新北市板橋區民生路二段120號","121.470556666667","25.0197233333333","6500100","板橋區"
"220012","486-VK","2018/07/07 13:49:36","新北市板橋區民生路二段36-1號","121.472206666667","25.0166583333333","6500100","板橋區"
"220037","491-VK","2018/07/07 13:49:38","新北市板橋區民生路二段175號","121.469935","25.0202533333333","6500100","板橋區"
"220104","560-BX","2018/07/07 13:49:51","新北市板橋區中正路325巷30-2號","121.452993333333","25.01876","6500100","板橋區"
"220052","561-BX","2018/07/07 13:49:53","新北市板橋區民生路二段89-6號","121.470506666667","25.019345","6500100","板橋區"
"220011","609-BX","2018/07/07 13:49:39","新北市板橋區中山路二段37號","121.473081666667","25.01575","6500100","板橋區"
"220034","630-UY","2018/07/07 13:49:48","新北市板橋區南雅西路二段192巷18號","121.452351666667","25.0139733333333","6500100","板橋區"
"220005","686-BX","2018/07/07 13:49:38","新北市板橋區館前西路29號","121.458443333333","25.0067733333333","6500100","板橋區"
"220042","689-BX","2018/07/07 13:49:50","新北市板橋區民生路二段171號","121.469858333333","25.0200983333333","6500100","板橋區"
"220002","741-BX","2018/07/07 13:49:51","新北市板橋區後埔街19號","121.460428333333","25.0066383333333","6500100","板橋區"
"220051","KEA-2699","2018/07/07 13:49:38","新北市板橋區民生路二段161巷1號","121.470121666667","25.0199816666667","6500100","板橋區"
"220025","806-UM","2018/07/07 13:49:44","新北市板橋區大觀路二段265巷7-6號","121.443136666667","24.9945166666667","6500100","板橋區"
"220014","829-TW","2018/07/07 13:49:42","新北市板橋區三民路二段正隆巷40號","121.47704","25.0137666666667","6500100","板橋區"
"220038","833-TW","2018/07/07 13:49:37","新北市板橋區民生路二段175號","121.469918333333","25.02024","6500100","板橋區"
"220022","895-R6","2018/07/07 13:49:43","新北市板橋區府中路53號","121.458578333333","25.0093833333333","6500100","板橋區"
"220021","985-R7","2018/07/07 13:49:36","新北市板橋區府中路67號","121.458086666667","25.0094066666667","6500100","板橋區"
"220018","AAC-253","2018/07/07 13:49:52","新北市板橋區四川路一段105號","121.459745","25.0053","6500100","板橋區"
"235032","KEA-2873","2018/07/07 13:49:42","新北市中和區圓通路202號","121.496211666667","24.9941716666667","6500300","中和區"
"235025","KEA-2875","2018/07/07 13:49:35","新北市中和區民治街130巷12號","121.474623333333","25.002655","6500300","中和區"
