"lineid","car","time","location","longitude","latitude","cityid","cityname"
"234044","148-BY","2018/07/07 14:09:44","新北市永和區得和路388號","121.525136666667","24.9991983333333","6500400","永和區"
"234070","149-BY","2018/07/07 14:09:54","新北市永和區民權路40號","121.520153333333","24.9987883333333","6500400","永和區"
"234078","298-R6","2018/07/07 14:09:39","新北市永和區國中路53號","121.524535","25.0061216666667","6500400","永和區"
"234036","336-UY","2018/07/07 14:09:39","新北市永和區成功路一段64巷1號","121.526658333333","25.0034933333333","6500400","永和區"
"234062","337-UY","2018/07/07 14:09:39","新北市永和區永利路152號","121.522473333333","25.0027383333333","6500400","永和區"
"234068","552-UM","2018/07/07 14:09:41","新北市永和區福和路223號","121.518821666667","25.00747","6500400","永和區"
"234084","553-UM","2018/07/07 14:09:42","新北市永和區中正路664號","121.516783333333","25.00889","6500400","永和區"
"234015","745-BX","2018/07/07 14:09:46","新北市永和區仁愛路35號","121.514171666667","25.0133316666667","6500400","永和區"
"234028","746-BX","2018/07/07 14:09:40","新北市永和區民生路46巷36號","121.521376666667","24.9968983333333","6500400","永和區"
"234052","KEA-2590","2018/07/07 14:09:34","新北市永和區博愛街20巷2號","121.51771","25.0157233333333","6500400","永和區"
"234012","KEA-2591","2018/07/07 14:09:45","新北市永和區永貞路419號","121.507255","25.0094066666667","6500400","永和區"
"234060","AAD-866","2018/07/07 14:09:46","新北市中和區安平路222號","121.51404","25.0002783333333","6500400","永和區"
"234040","862-TW","2018/07/07 14:09:50","新北市永和區雙和街24號","121.508926666667","25.0023283333333","6500400","永和區"
"234048","863-TW","2018/07/07 14:09:53","新北市永和區環河西路二段133號","121.506016666667","25.014245","6500400","永和區"
"234025","9371-KE","2018/07/07 14:09:52","新北市永和區安樂路272巷9弄7號","121.51499","25.0045733333333","6500400","永和區"
"234010","9373-KE","2018/07/07 14:09:50","新北市永和區仁愛路352巷122弄17號","121.500921666667","25.0089433333333","6500400","永和區"
"248017","225-UY","2018/07/07 14:09:42","新北市五股區民義路一段255-6號","121.426041666667","25.0914966666667","6501500","五股區"
"234022","9380-KE","2018/07/07 14:09:45","新北市永和區博愛街32巷13號","121.518845","25.0153433333333","6500400","永和區"
"234076","969-R7","2018/07/07 14:09:50","新北市永和區民治街59巷11號","121.5186","24.997245","6500400","永和區"
"234072","AAC-211","2018/07/07 14:09:51","新北市永和區竹林路201巷24弄8號","121.522405","25.0095466666667","6500400","永和區"
"234066","AAC-212","2018/07/07 14:09:45","新北市永和區保平路236巷1弄2號","121.508901666667","25.0057633333333","6500400","永和區"
"234001","AAC-295","2018/07/07 14:09:53","新北市永和區中正路706號","121.516163333333","25.0100433333333","6500400","永和區"
"231005","001-UM","2018/07/07 14:09:43","新北市新店區中興路三段254號","121.542823333333","24.9841216666667","6500600","新店區"
"231002","002-UM","2018/07/07 14:09:54","新北市新店區中正路500號","121.534088333333","24.982085","6500600","新店區"
"231027","0293-UT","2018/07/07 14:09:40","新北市新店區光明街94號","121.538875","24.9603983333333","6500600","新店區"
"231001","047-UY","2018/07/07 14:09:49","新北市新店區中華路39號","121.540216666667","24.967625","6500600","新店區"
"231036","110-UY","2018/07/07 14:09:48","新北市新店區安祥路109巷1弄41號","121.477091666667","24.9603833333333","6500600","新店區"
"231012","187-VK","2018/07/07 14:09:57","新北市新店區五峰路140號","121.544663333333","24.965695","6500600","新店區"
"231010","188-VK","2018/07/07 14:09:34","新北市新店區安一路一段1-1號","121.519711666667","24.9610583333333","6500600","新店區"
"231023","KEA-2219","2018/07/07 14:09:42","新北市新店區文中路45號","121.539703333333","24.9566833333333","6500600","新店區"
"231003","268-BY","2018/07/07 14:09:48","新北市新店區中興路一段24號","121.53866","24.9581366666667","6500600","新店區"
"231018","278-BY","2018/07/07 14:09:36","新北市新店區中央四街43號","121.528145","24.9749366666667","6500600","新店區"
"231017","AAD-862","2018/07/07 14:09:49","新北市新店區中生路92號","121.565135","24.951125","6500600","新店區"
"231028","355-BY","2018/07/07 14:09:39","新北市新店區安業街1-1號","121.516581666667","24.97863","6500600","新店區"
"231038","3712-VJ","2018/07/07 14:09:47","新北市新店區安康路一段98號","121.527491666667","24.962275","6500600","新店區"
"231037","4716-K9","2018/07/07 14:09:42","新北市新店區安康路二段341巷14號","121.496376666667","24.95481","6500600","新店區"
"231025","4715-K9","2018/07/07 14:09:37","新北市新店區二十張路129巷5弄3號","121.536618333333","24.9787833333333","6500600","新店區"
"231013","513-UM","2018/07/07 14:09:55","新北市新店區北新路三段65巷34弄6號","121.540055","24.9812983333333","6500600","新店區"
"231006","617-UM","2018/07/07 14:09:37","新北市新店區北宜路二段417號","121.55999","24.9544766666667","6500600","新店區"
"231030","619-UM","2018/07/07 14:09:39","新北市新店區安民街115巷28號","121.515191666667","24.9675816666667","6500600","新店區"
"231034","641-BX","2018/07/07 14:09:41","新北市新店區車子路11號","121.50298","24.951695","6500600","新店區"
"231035","719-UM","2018/07/07 14:09:41","新北市新店區安和路一段55號","121.517563333333","24.9662183333333","6500600","新店區"
"231020","719-UY","2018/07/07 14:09:36","新北市新店區屈尺路83-1號","121.54449","24.9224316666667","6500600","新店區"
"231033","720-UM","2018/07/07 14:09:44","新北市新店區永業路41號","121.532471666667","24.9552","6500600","新店區"
"231029","897-TW","2018/07/07 14:09:37","新北市新店區安康路二段157號","121.510436666667","24.9593333333333","6500600","新店區"
"231004","899-TW","2018/07/07 14:09:40","新北市新店區北新路二段162號","121.542961666667","24.9756416666667","6500600","新店區"
"231024","AKT-0513","2018/07/07 14:09:53","新北市新店區安康路二段414巷2號","121.495943333333","24.957675","6500600","新店區"
"235030","003-UY","2018/07/07 14:09:45","新北市中和區廣福路30號","121.504743333333","25.00236","6500300","中和區"
"235028","005-UY","2018/07/07 14:09:56","新北市中和區景平路634-9號","121.498606666667","24.9995383333333","6500300","中和區"
"235027","006-UY","2018/07/07 14:09:33","新北市中和區連城路249巷3號","121.493701666667","24.9968916666667","6500300","中和區"
"235020","096-UM","2018/07/07 14:09:52","新北市中和區中山路三段1號","121.479848333333","25.0059583333333","6500300","中和區"
"235003","097-UM","2018/07/07 14:09:50","新北市中和區秀峰街64號","121.52069","24.9904533333333","6500300","中和區"
"235029","098-UM","2018/07/07 14:09:43","新北市中和區中山路二段64巷12弄16號","121.504103333333","25.0054216666667","6500300","中和區"
"235004","150-BY","2018/07/07 14:09:41","新北市中和區保健路76巷10號","121.511293333333","24.995975","6500300","中和區"
"235022","151-BY","2018/07/07 14:09:42","新北市中和區員山路82巷10弄2號","121.481416666667","24.994025","6500300","中和區"
"235019","183-VK","2018/07/07 14:09:52","新北市中和區德光路69號","121.469636666667","25.0037516666667","6500300","中和區"
"235002","185-VK","2018/07/07 14:09:45","新北市中和區大仁街20巷43號","121.519151666667","24.9931716666667","6500300","中和區"
"235013","186-VK","2018/07/07 14:09:46","新北市中和區明禮街45號","121.504055","24.996485","6500300","中和區"
"235031","255-BX","2018/07/07 14:09:53","新北市中和區新生街203號","121.483851666667","24.9999766666667","6500300","中和區"
"235008","293-VK","2018/07/07 14:09:49","新北市中和區中興街202巷51號","121.498516666667","24.9894583333333","6500300","中和區"
"235036","301-VK","2018/07/07 14:09:46","新北市中和區景平路665號","121.496481666667","25.00262","6500300","中和區"
"235007","352-BY","2018/07/07 14:09:51","新北市中和區景平路12號","121.52389","24.9905033333333","6500300","中和區"
"235006","KEA-2878","2018/07/07 14:09:39","新北市中和區自立路179號","121.523473333333","24.9918983333333","6500300","中和區"
"235014","4979-A6","2018/07/07 14:09:42","新北市中和區復興路280巷24號","121.502003333333","24.9918333333333","6500300","中和區"
"235033","4980-A6","2018/07/07 14:09:42","新北市中和區中和路217巷16號","121.504708333333","25.00036","6500300","中和區"
"235034","558-UM","2018/07/07 14:09:53","新北市中和區中和路17號","121.499826666667","25.002055","6500300","中和區"
"235009","565-BX","2018/07/07 14:09:44","新北市中和區景新街467巷15弄11號","121.513731666667","24.988745","6500300","中和區"
"235018","640-BX","2018/07/07 14:09:49","新北市中和區民德路150號","121.46858","25.000115","6500300","中和區"
"235024","647-TV","2018/07/07 14:09:52","新北市中和區中山路三段89號","121.475503333333","25.0058866666667","6500300","中和區"
"235011","732-UM","2018/07/07 14:09:54","新北市中和區興南路一段50號","121.510966666667","24.9905533333333","6500300","中和區"
"235010","733-UM","2018/07/07 14:09:55","新北市中和區忠孝街1巷14號","121.508655","24.98367","6500300","中和區"
"235035","783-BX","2018/07/07 14:09:53","新北市中和區中正路801號","121.48497","25.000925","6500300","中和區"
"235026","800-TS","2018/07/07 14:09:28","新北市中和區橋安街27號","121.492296666667","25.0046433333333","6500300","中和區"
"235021","801-TS","2018/07/07 14:09:49","新北市中和區民利街53號","121.479375","24.9987816666667","6500300","中和區"
"235005","802-TS","2018/07/07 14:09:55","新北市中和區中安街178巷4號","121.510871666667","24.9993766666667","6500300","中和區"
"235016","805-TS","2018/07/07 14:09:44","新北市中和區興南路二段142巷23號","121.503133333333","24.9836983333333","6500300","中和區"
"235012","896-TW","2018/07/07 14:09:39","新北市中和區工專路147號","121.50853","24.9788916666667","6500300","中和區"
"235017","900-TW","2018/07/07 14:09:50","新北市中和區華福街73號","121.467225","24.99673","6500300","中和區"
"235015","157-BY","2018/07/07 14:09:49","新北市中和區捷運路6號","121.510158333333","24.98943","6500300","中和區"
"235001","AAC-213","2018/07/07 14:09:44","新北市中和區秀朗路三段50巷8弄1號","121.524806666667","24.99512","6500300","中和區"
"235023","AAC-215","2018/07/07 14:09:55","新北市中和區圓通路294-4號","121.488805","24.9892583333333","6500300","中和區"
"220016","013-TV","2018/07/07 14:09:48","新北市板橋區翠華街6巷5號","121.480556666667","25.023985","6500100","板橋區"
"220003","015-TV","2018/07/07 14:09:35","新北市板橋區新民街39號","121.463846666667","25.0106666666667","6500100","板橋區"
"220013","072-UY","2018/07/07 14:09:48","新北市板橋區民族路219巷77號","121.46885","25.0090016666667","6500100","板橋區"
"220105","075-UY","2018/07/07 14:09:50","新北市板橋區雙十路三段9號","121.471536666667","25.0300516666667","6500100","板橋區"
"220017","AAD-861","2018/07/07 14:09:54","新北市板橋區四川路一段136號","121.45992","25.0038","6500100","板橋區"
"247023","893-R6","2018/07/07 14:09:56","新北市蘆洲區光榮路112號","121.464471666667","25.0893166666667","6501400","蘆洲區"
"247013","546-UM","2018/07/07 14:09:40","新北市蘆洲區三民路135號","121.472013333333","25.0865266666667","6501400","蘆洲區"
"247021","500-BY","2018/07/07 14:09:56","新北市蘆洲區三民路165號","121.471263333333","25.08717","6501400","蘆洲區"
"247009","341-TH","2018/07/07 14:09:46","新北市蘆洲區信義路283號","121.478551666667","25.08531","6501400","蘆洲區"
"247011","339-TH","2018/07/07 14:09:35","新北市蘆洲區信義路347號","121.477765","25.0872733333333","6501400","蘆洲區"
"247003","337-TH","2018/07/07 14:09:46","新北市蘆洲區中華街6巷52號","121.46239","25.0825833333333","6501400","蘆洲區"
"247005","336-TH","2018/07/07 14:09:43","新北市蘆洲區永安南路二段16巷17弄26號","121.467148333333","25.0780816666667","6501400","蘆洲區"
"247017","057-VK","2018/07/07 14:09:42","新北市蘆洲區復興路141號","121.47788","25.0889516666667","6501400","蘆洲區"
"247007","056-VK","2018/07/07 14:09:34","新北市蘆洲區中山一路212號","121.473281666667","25.0806033333333","6501400","蘆洲區"
"247015","007-UY","2018/07/07 14:09:53","新北市蘆洲區光華路46巷8號","121.468631666667","25.0834116666667","6501400","蘆洲區"
"247001","002-UY","2018/07/07 14:09:49","新北市蘆洲區環堤大道214號","121.457686666667","25.0918933333333","6501400","蘆洲區"
"247019","001-UY","2018/07/07 14:09:41","新北市蘆洲區民族路426巷42號","121.473015","25.09327","6501400","蘆洲區"
"228005","097-TW","2018/07/07 14:09:42","新北市雙溪區三港里雙澳路100號","121.888636666667","25.0560566666667","6502600","貢寮區"
"228004","212-TW","2018/07/07 14:09:46","新北市貢寮區雙玉里下雙溪街6-2號","121.91435","25.015735","6502600","貢寮區"
"253003","6232-TK","2018/07/07 14:09:52","新北市石門區內石門62號","121.577923333333","25.26581","6502200","石門區"
"253001","6251-TK","2018/07/07 14:09:37","新北市石門區八甲74號","121.529476666667","25.2651766666667","6502200","石門區"
"253002","637-UY","2018/07/07 14:09:47","新北市石門區七股20-1號","121.551368333333","25.267265","6502200","石門區"
"253004","8270-PC","2018/07/07 14:09:50","新北市石門區坪林21號","121.593178333333","25.2687","6502200","石門區"
"207002","749-BX","2018/07/07 14:09:51","新北市萬里區溪底里瑞泉路12號","121.603613333333","25.1451583333333","6502800","萬里區"
"252005","073-UM","2018/07/07 14:09:36","新北市三芝區圓山里二坪頂47號","121.537873333333","25.24518","6502100","三芝區"
"207001","662-BX","2018/07/07 14:09:52","新北市萬里區磺潭里清水18號","121.637858333333","25.197825","6502800","萬里區"
"236068","105-UM","2018/07/07 14:09:40","新北市土城區明德路一段199號","121.463718333333","24.9788666666667","6501300","土城區"
"236040","107-UM","2018/07/07 14:09:44","新北市土城區中華路一段259號","121.440438333333","24.98073","6501300","土城區"
"236074","166-UM","2018/07/07 14:09:36","新北市土城區永寧路32巷41弄1號","121.428053333333","24.960855","6501300","土城區"
"236029","253-BX","2018/07/07 14:09:41","新北市土城區城林路6巷80號","121.438545","24.979715","6501300","土城區"
"236024","269-VK","2018/07/07 14:09:44","新北市土城區承天路26號","121.439616666667","24.963155","6501300","土城區"
"236032","271-VK","2018/07/07 14:09:50","新北市土城區明德路一段280號","121.457631666667","24.9774083333333","6501300","土城區"
"236017","401-BY","2018/07/07 14:09:51","新北市土城區城林路6巷80號","121.438453333333","24.9797916666667","6501300","土城區"
"236006","498-BY","2018/07/07 14:09:54","新北市土城區中華路一段70巷30號","121.443768333333","24.9894633333333","6501300","土城區"
"236013","752-BX","2018/07/07 14:09:32","新北市土城區中央路二段61巷50弄2號","121.44427","24.97833","6501300","土城區"
"236057","912-UM","2018/07/07 14:09:53","新北市土城區中央路四段83號","121.417091666667","24.958115","6501300","土城區"
"236045","913-UM","2018/07/07 14:09:43","新北市土城區明德路一段365-1號","121.45355","24.9790533333333","6501300","土城區"
"236060","915-UM","2018/07/07 14:09:44","新北市土城區金城路二段394號","121.46377","24.9856733333333","6501300","土城區"
"236054","AAC-216","2018/07/07 14:09:47","新北市土城區中華路二段62號","121.4389","24.9766016666667","6501300","土城區"
"242048","172-VK","2018/07/07 14:09:40","新北市樹林區中山路三段210-2號","121.381728333333","24.9656766666667","6500500","新莊區"
"220027","145-BY","2018/07/07 14:09:49","新北市板橋區民權路260巷24號","121.458743333333","25.015215","6500100","板橋區"
"220028","200-UY","2018/07/07 14:09:53","新北市板橋區大觀路二段5-1號","121.447181666667","25.003895","6500100","板橋區"
"220030","610-BX","2018/07/07 14:09:37","新北市板橋區溪崑二街77號","121.427965","24.9900616666667","6500100","板橋區"
"220050","245-BX","2018/07/07 14:09:56","新北市板橋區民生路二段161巷5號","121.47022","25.01976","6500100","板橋區"
"220040","267-BY","2018/07/07 14:09:51","新北市板橋區縣民大道三段247巷32-2號","121.482038333333","25.0266233333333","6500100","板橋區"
"220004","276-BY","2018/07/07 14:09:52","新北市板橋區信義路74巷1弄15號","121.457611666667","24.9927533333333","6500100","板橋區"
"220019","283-VK","2018/07/07 14:09:55","新北市板橋區大豐街122號","121.461131666667","25.0011466666667","6500100","板橋區"
"220043","285-UM","2018/07/07 14:09:35","新北市板橋區光武街138號","121.465385","25.0299683333333","6500100","板橋區"
"220031","286-VK","2018/07/07 14:09:40","新北市板橋區大觀路二段174巷194號","121.442228333333","25.0039316666667","6500100","板橋區"
"220029","287-VK","2018/07/07 14:09:48","新北市板橋區南雅西路二段203號","121.451708333333","25.0133683333333","6500100","板橋區"
"220039","288-VK","2018/07/07 14:09:48","新北市板橋區裕民街29號","121.461883333333","25.0288433333333","6500100","板橋區"
"220009","293-UM","2018/07/07 14:09:52","新北市板橋區三民路二段21巷45號","121.480605","25.01833","6500100","板橋區"
"220001","299-UM","2018/07/07 14:09:46","新北市板橋區懷仁街13號","121.476173333333","25.01996","6500100","板橋區"
"220023","303-R5","2018/07/07 14:09:37","新北市板橋區林園街36號","121.453963333333","25.01025","6500100","板橋區"
"220010","305-R5","2018/07/07 14:09:46","新北市板橋區三民路二段居仁巷2弄21號","121.479835","25.0128766666667","6500100","板橋區"
"220041","307-R5","2018/07/07 14:09:42","新北市板橋區文化路二段31號","121.468815","25.024705","6500100","板橋區"
"220047","317-R6","2018/07/07 14:09:51","新北市板橋區自由路49號","121.465608333333","25.0235666666667","6500100","板橋區"
"220012","486-VK","2018/07/07 14:09:36","新北市板橋區中山路二段15號","121.472173333333","25.0149683333333","6500100","板橋區"
"220037","491-VK","2018/07/07 14:09:38","新北市板橋區文化路二段182巷3弄36號","121.472273333333","25.0283383333333","6500100","板橋區"
"220104","560-BX","2018/07/07 14:09:52","新北市板橋區中正路413巷8號","121.453708333333","25.02274","6500100","板橋區"
"220052","561-BX","2018/07/07 14:09:53","新北市板橋區文化路一段188巷9弄114號","121.468685","25.019355","6500100","板橋區"
"220020","568-UM","2018/07/07 14:09:43","新北市板橋區金門街19巷8號","121.434013333333","24.994865","6500100","板橋區"
"220011","609-BX","2018/07/07 14:09:39","新北市板橋區三民路二段120號","121.47914","25.01649","6500100","板橋區"
"220034","630-UY","2018/07/07 14:09:48","新北市板橋區中正路236巷34號","121.457021666667","25.0191633333333","6500100","板橋區"
"220005","686-BX","2018/07/07 14:09:45","新北市板橋區重慶路290-3號","121.463683333333","24.9988383333333","6500100","板橋區"
"220042","689-BX","2018/07/07 14:09:50","新北市板橋區民生路三段153號","121.46591","25.02667","6500100","板橋區"
"220002","741-BX","2018/07/07 14:09:51","新北市板橋區重慶路71號","121.461858333333","25.00683","6500100","板橋區"
"220051","KEA-2699","2018/07/07 14:09:51","新北市板橋區田單街49巷1弄1號","121.4827","25.0283866666667","6500100","板橋區"
"220025","806-UM","2018/07/07 14:09:44","新北市板橋區大觀路二段297號","121.442146666667","24.9987583333333","6500100","板橋區"
"220014","829-TW","2018/07/07 14:09:40","新北市板橋區中山路二段90巷41號","121.476225","25.01487","6500100","板橋區"
"220045","830-TW","2018/07/07 14:09:55","新北市板橋區大同街9號","121.47706","25.0269483333333","6500100","板橋區"
"220038","833-TW","2018/07/07 14:09:43","新北市板橋區文化路二段382號","121.473258333333","25.0310616666667","6500100","板橋區"
"220022","895-R6","2018/07/07 14:09:43","新北市板橋區林園街7-1號","121.454073333333","25.0092933333333","6500100","板橋區"
"220021","985-R7","2018/07/07 14:09:36","新北市板橋區中正路199號","121.456336666667","25.0171583333333","6500100","板橋區"
"220046","AAC-210","2018/07/07 14:09:42","新北市板橋區新海路135巷33號","121.45995","25.0228383333333","6500100","板橋區"
"220018","AAC-253","2018/07/07 14:09:52","新北市板橋區忠孝路86號","121.461553333333","25.002115","6500100","板橋區"
"235032","KEA-2873","2018/07/07 14:09:42","新北市中和區圓通路158巷3-1號","121.497681666667","24.9961866666667","6500300","中和區"
"235025","KEA-2875","2018/07/07 14:09:45","新北市中和區員山路326號","121.481505","25.003005","6500300","中和區"
