"lineid","car","time","location","longitude","latitude","cityid","cityname"
"234070","149-BY","2018/07/07 14:39:54","新北市八里區荖阡坑路34-2號","121.40074","25.131085","6500400","永和區"
"234062","337-UY","2018/07/07 14:39:39","新北市永和區環河西路二段205號","121.50174","25.0109016666667","6500400","永和區"
"234028","746-BX","2018/07/07 14:39:39","新北市永和區民族街178巷5弄2號","121.51767","24.996865","6500400","永和區"
"234052","KEA-2590","2018/07/07 14:39:53","新北市永和區環河東路一段80號","121.519598333333","25.0164816666667","6500400","永和區"
"234025","9371-KE","2018/07/07 14:39:52","新北市永和區中和路501巷5號","121.510488333333","25.0027016666667","6500400","永和區"
"248017","225-UY","2018/07/07 14:22:22","新北市五股區壟路16號","121.415006666667","25.0854116666667","6501500","五股區"
"234072","AAC-211","2018/07/07 14:39:52","新北市永和區環河東路二段48號","121.523043333333","25.0119383333333","6500400","永和區"
"231005","001-UM","2018/07/07 14:39:43","新北市新店區復興路2號","121.532421666667","24.98827","6500600","新店區"
"231002","002-UM","2018/07/07 14:39:54","新北市新店區中正路468號","121.534021666667","24.9794033333333","6500600","新店區"
"231027","0293-UT","2018/07/07 14:39:40","新北市新店區中正路232號","121.53991","24.9728916666667","6500600","新店區"
"231001","047-UY","2018/07/07 14:39:40","新北市新店區中正路35號","121.545045","24.9695633333333","6500600","新店區"
"231036","110-UY","2018/07/07 14:39:48","新北市新店區安祥路106-4號","121.478108333333","24.9617316666667","6500600","新店區"
"231012","187-VK","2018/07/07 14:39:37","新北市新店區寶宏路6-3號","121.549095","24.97656","6500600","新店區"
"231023","KEA-2219","2018/07/07 14:39:54","新北市新店區檳榔路57號","121.543443333333","24.9625533333333","6500600","新店區"
"231003","268-BY","2018/07/07 14:39:47","新北市新店區中正路5號","121.545813333333","24.9691033333333","6500600","新店區"
"231018","278-BY","2018/07/07 14:39:56","新北市新店區中央二街5巷1號","121.529186666667","24.9727466666667","6500600","新店區"
"231017","AAD-862","2018/07/07 14:39:49","新北市新店區北宜路三段221號","121.59242","24.9531666666667","6500600","新店區"
"231028","355-BY","2018/07/07 14:39:40","新北市新店區安德街64號","121.510671666667","24.961945","6500600","新店區"
"231038","3712-VJ","2018/07/07 14:39:47","新北市新店區安康路一段160號","121.526163333333","24.9630116666667","6500600","新店區"
"231037","4716-K9","2018/07/07 14:39:42","新北市新店區柴埕路52巷12號","121.511805","24.9649283333333","6500600","新店區"
"231013","513-UM","2018/07/07 14:39:41","新北市新店區北新路二段139巷12弄2號","121.542165","24.97603","6500600","新店區"
"231006","617-UM","2018/07/07 14:39:57","新北市新店區北宜路二段115號","121.550648333333","24.9526933333333","6500600","新店區"
"231030","619-UM","2018/07/07 14:39:51","新北市新店區安民街202號","121.517178333333","24.9718283333333","6500600","新店區"
"231034","641-BX","2018/07/07 14:39:41","新北市新店區黎明路51巷2號","121.501976666667","24.949125","6500600","新店區"
"231035","719-UM","2018/07/07 14:31:41","新北市新店區安民街10號","121.515281666667","24.9642666666667","6500600","新店區"
"231020","719-UY","2018/07/07 14:39:36","新北市新店區桂山路81巷1號","121.567515","24.8991583333333","6500600","新店區"
"231029","897-TW","2018/07/07 14:39:37","新北市新店區安康路三段515號","121.482083333333","24.9488783333333","6500600","新店區"
"231004","899-TW","2018/07/07 14:39:44","新北市新店區中正路273號","121.537633333333","24.974215","6500600","新店區"
"231024","AKT-0513","2018/07/07 14:39:52","新北市新店區新生街5巷13號","121.539791666667","24.9656866666667","6500600","新店區"
"235030","003-UY","2018/07/07 14:39:45","新北市中和區南華路89號","121.505683333333","24.99741","6500300","中和區"
"235028","005-UY","2018/07/07 14:39:36","新北市中和區圓通路40號","121.500991666667","24.99777","6500300","中和區"
"235027","006-UY","2018/07/07 14:39:53","新北市中和區連城路263巷20號","121.492543333333","24.994815","6500300","中和區"
"235020","096-UM","2018/07/07 14:39:38","新北市中和區員山路581巷31弄20號","121.476773333333","25.0103633333333","6500300","中和區"
"235003","097-UM","2018/07/07 14:39:50","新北市中和區宜安路59號","121.511583333333","24.9969083333333","6500300","中和區"
"235029","098-UM","2018/07/07 14:39:43","新北市中和區永和路39巷2號","121.498065","25.00504","6500300","中和區"
"235004","150-BY","2018/07/07 14:39:41","新北市中和區安和路43號","121.509618333333","24.9948066666667","6500300","中和區"
"235022","151-BY","2018/07/07 14:39:56","新北市中和區員山路134號","121.48128","24.9963333333333","6500300","中和區"
"235019","183-VK","2018/07/07 14:39:52","新北市中和區民生街15號","121.471285","25.0058816666667","6500300","中和區"
"235002","185-VK","2018/07/07 14:39:45","新北市中和區自強路27巷22號","121.521663333333","24.9932883333333","6500300","中和區"
"235013","186-VK","2018/07/07 14:39:46","新北市中和區明禮街25巷2號","121.504395","24.9960983333333","6500300","中和區"
"235031","255-BX","2018/07/07 14:39:53","新北市中和區新生街186巷1弄21號","121.483441666667","24.9988916666667","6500300","中和區"
"235008","293-VK","2018/07/07 14:39:49","新北市中和區捷運路75號","121.508608333333","24.99003","6500300","中和區"
"235036","301-VK","2018/07/07 14:39:40","新北市中和區廣福路72號","121.503238333333","25.0015883333333","6500300","中和區"
"235007","352-BY","2018/07/07 14:39:51","新北市中和區南山路92號","121.50279","24.9948433333333","6500300","中和區"
"235006","KEA-2878","2018/07/07 14:39:38","新北市中和區景安路79巷3號","121.506771666667","24.9972933333333","6500300","中和區"
"235014","4979-A6","2018/07/07 14:39:41","新北市中和區中正路271-1號","121.4957","24.993585","6500300","中和區"
"235034","558-UM","2018/07/07 14:39:53","新北市中和區連城路127巷35號","121.497406666667","24.99707","6500300","中和區"
"235009","565-BX","2018/07/07 14:39:44","新北市中和區景平路314號","121.512418333333","24.9927333333333","6500300","中和區"
"235018","640-BX","2018/07/07 14:39:50","新北市中和區莒光路132號","121.472508333333","25.0014183333333","6500300","中和區"
"235024","647-TV","2018/07/07 14:39:52","新北市中和區中山路二段523巷10弄2號","121.481585","25.0045516666667","6500300","中和區"
"235011","732-UM","2018/07/07 14:39:23","新北市中和區南山路325-1號","121.50521","24.991155","6500300","中和區"
"235010","733-UM","2018/07/07 14:39:35","新北市中和區忠孝街67號","121.511903333333","24.9847783333333","6500300","中和區"
"235026","800-TS","2018/07/07 14:39:48","新北市中和區建六路55號","121.486341666667","25.00215","6500300","中和區"
"235021","801-TS","2018/07/07 14:39:49","新北市中和區員山路182號","121.48133","25.00024","6500300","中和區"
"235005","802-TS","2018/07/07 14:39:38","新北市中和區宜安路63號","121.511325","24.9969833333333","6500300","中和區"
"235016","805-TS","2018/07/07 14:39:44","新北市中和區華新街192巷2-1號","121.50681","24.9823816666667","6500300","中和區"
"235012","896-TW","2018/07/07 14:39:39","新北市中和區景新街499號","121.514003333333","24.986965","6500300","中和區"
"235017","900-TW","2018/07/07 14:39:43","新北市中和區民德路146巷5弄1號","121.468083333333","25.0003916666667","6500300","中和區"
"235015","157-BY","2018/07/07 14:39:49","新北市中和區中興街180巷50弄3號","121.498641666667","24.9890383333333","6500300","中和區"
"235001","AAC-213","2018/07/07 14:39:44","新北市中和區自立路68號","121.523833333333","24.9911933333333","6500300","中和區"
"235023","AAC-215","2018/07/07 14:39:35","新北市中和區圓通路335巷1弄24號","121.4934","24.9905233333333","6500300","中和區"
"220016","013-TV","2018/07/07 14:39:55","新北市板橋區中山路二段416巷3弄1號","121.483385","25.02063","6500100","板橋區"
"220003","015-TV","2018/07/07 14:39:35","新北市板橋區國慶路149巷13弄12-4號","121.460405","24.9970733333333","6500100","板橋區"
"220013","072-UY","2018/07/07 14:39:40","新北市板橋區國泰街39巷3弄2號","121.468513333333","25.0062216666667","6500100","板橋區"
"220105","075-UY","2018/07/07 14:39:42","新北市板橋區雙十路三段9號","121.471783333333","25.0302933333333","6500100","板橋區"
"220017","AAD-861","2018/07/07 14:39:34","新北市板橋區南雅南路二段18號","121.454446666667","25.0035633333333","6500100","板橋區"
"247023","893-R6","2018/07/07 14:39:56","新北市蘆洲區正和街63巷16號","121.469136666667","25.0807316666667","6501400","蘆洲區"
"247013","546-UM","2018/07/07 14:39:40","新北市蘆洲區得勝街145號","121.471723333333","25.0831116666667","6501400","蘆洲區"
"247009","341-TH","2018/07/07 14:39:46","新北市蘆洲區信義路222巷38號","121.480941666667","25.0854666666667","6501400","蘆洲區"
"247011","339-TH","2018/07/07 14:39:55","新北市蘆洲區民族路137號","121.4797","25.0874016666667","6501400","蘆洲區"
"247005","336-TH","2018/07/07 14:39:23","新北市蘆洲區中華街35巷1號","121.46338","25.0813483333333","6501400","蘆洲區"
"247007","056-VK","2018/07/07 14:39:34","新北市蘆洲區信義路34巷1號","121.47463","25.0794166666667","6501400","蘆洲區"
"247015","007-UY","2018/07/07 14:39:53","新北市蘆洲區正和街53號","121.469003333333","25.0813683333333","6501400","蘆洲區"
"247001","002-UY","2018/07/07 14:39:49","新北市蘆洲區長安街274巷1號","121.457651666667","25.08713","6501400","蘆洲區"
"247019","001-UY","2018/07/07 14:39:41","新北市蘆洲區民義街86巷1號","121.473763333333","25.090225","6501400","蘆洲區"
"228005","097-TW","2018/07/07 14:39:41","新北市貢寮區美豐里雞母嶺街7號","121.902075","25.0642833333333","6502600","貢寮區"
"228004","212-TW","2018/07/07 14:39:46","新北市貢寮區福隆里龜壽谷街30-5號","121.946878333333","25.013975","6502600","貢寮區"
"253003","6232-TK","2018/07/07 14:39:52","新北市石門區尖子鹿29號","121.582933333333","25.2623383333333","6502200","石門區"
"253001","6251-TK","2018/07/07 14:39:57","新北市石門區崁子腳91號","121.530468333333","25.278735","6502200","石門區"
"253002","637-UY","2018/07/07 14:34:27","新北市三芝區橫山里橫山39-5號","121.545768333333","25.253195","6502200","石門區"
"253004","8270-PC","2018/07/07 14:39:50","新北市石門區內阿里磅47號","121.581401666667","25.2393816666667","6502200","石門區"
"207002","749-BX","2018/07/07 14:39:42","新北市萬里區崁腳里崁腳路92號","121.646935","25.1596116666667","6502800","萬里區"
"252005","073-UM","2018/07/07 14:39:36","新北市三芝區橫山里大坑98-1號","121.526151666667","25.2613266666667","6502100","三芝區"
"207001","662-BX","2018/07/07 14:39:32","新北市萬里區磺潭里員潭路59號","121.643285","25.1903483333333","6502800","萬里區"
"236068","105-UM","2018/07/07 14:39:40","新北市土城區永豐路211-2號","121.474685","24.97596","6501300","土城區"
"236040","107-UM","2018/07/07 14:39:51","新北市土城區裕民路56號","121.448861666667","24.9878816666667","6501300","土城區"
"236074","166-UM","2018/07/07 14:39:56","新北市土城區中央路四段52巷10號","121.420008333333","24.9608866666667","6501300","土城區"
"236029","253-BX","2018/07/07 14:39:41","新北市土城區中華路二段199號","121.438005","24.9740866666667","6501300","土城區"
"236024","269-VK","2018/07/07 14:39:44","新北市土城區千歲路13號","121.44087","24.9695283333333","6501300","土城區"
"236032","271-VK","2018/07/07 14:39:50","新北市土城區明德路一段313巷1弄1號","121.459565","24.9767483333333","6501300","土城區"
"236017","401-BY","2018/07/07 14:39:51","新北市土城區延吉街253巷1號","121.467571666667","24.9846766666667","6501300","土城區"
"236013","752-BX","2018/07/07 14:39:32","新北市土城區清水路222號","121.4609","24.9822083333333","6501300","土城區"
"236057","912-UM","2018/07/07 14:39:53","新北市土城區中央路三段193號","121.430285","24.9646816666667","6501300","土城區"
"236045","913-UM","2018/07/07 14:39:42","新北市土城區金城路三段1號","121.46427","24.98603","6501300","土城區"
"236060","915-UM","2018/07/07 14:39:44","新北市土城區延壽路55巷9弄2號","121.469466666667","24.9916116666667","6501300","土城區"
"236054","AAC-216","2018/07/07 14:39:47","新北市土城區中華路一段45號","121.44576","24.988365","6501300","土城區"
"220027","145-BY","2018/07/07 14:39:49","新北市板橋區建國街54巷27號","121.459885","25.0170766666667","6500100","板橋區"
"220028","200-UY","2018/07/07 14:39:53","新北市板橋區大觀路二段37巷38號","121.448593333333","25.0026316666667","6500100","板橋區"
"220030","610-BX","2018/07/07 14:39:37","新北市板橋區大觀路三段263號","121.429161666667","24.9921116666667","6500100","板橋區"
"220050","245-BX","2018/07/07 14:39:37","新北市板橋區莊敬路241號","121.472916666667","25.0214516666667","6500100","板橋區"
"220040","267-BY","2018/07/07 14:39:40","新北市板橋區懷德街139巷20弄1號","121.480195","25.03078","6500100","板橋區"
"220004","276-BY","2018/07/07 14:39:52","新北市板橋區德興街37巷13號","121.45402","24.99394","6500100","板橋區"
"220019","283-VK","2018/07/07 14:39:55","新北市板橋區信義路32號","121.457226666667","24.994965","6500100","板橋區"
"220043","285-UM","2018/07/07 14:39:54","新北市板橋區長江路二段256號","121.469196666667","25.0324516666667","6500100","板橋區"
"220031","286-VK","2018/07/07 14:39:40","新北市板橋區僑中二街124巷2號","121.445418333333","25.005325","6500100","板橋區"
"220029","287-VK","2018/07/07 14:39:53","新北市板橋區大觀路一段29巷59號","121.450415","25.0069016666667","6500100","板橋區"
"220039","288-VK","2018/07/07 14:39:48","新北市板橋區龍泉街54巷8弄14號","121.45745","25.0269333333333","6500100","板橋區"
"220009","293-UM","2018/07/07 14:39:52","新北市板橋區板新路202號","121.468956666667","25.016125","6500100","板橋區"
"220001","299-UM","2018/07/07 14:39:52","新北市板橋區懷仁街87號","121.477426666667","25.0183116666667","6500100","板橋區"
"220023","303-R5","2018/07/07 14:39:37","新北市板橋區大仁街110巷22號","121.452641666667","25.01658","6500100","板橋區"
"220010","305-R5","2018/07/07 14:39:46","新北市板橋區三民路二段29巷5號","121.48157","25.0180683333333","6500100","板橋區"
"220041","307-R5","2018/07/07 14:39:42","新北市板橋區陽明街27巷6號","121.465518333333","25.0216366666667","6500100","板橋區"
"220047","317-R6","2018/07/07 14:39:54","新北市板橋區四維路279巷79弄3號","121.459983333333","25.0271666666667","6500100","板橋區"
"220012","486-VK","2018/07/07 14:39:46","新北市板橋區民族路50號","121.462291666667","25.0095866666667","6500100","板橋區"
"220037","491-VK","2018/07/07 14:39:37","新北市板橋區文化路二段445號","121.47534","25.03332","6500100","板橋區"
"220104","560-BX","2018/07/07 14:39:51","新北市板橋區金華街102號","121.458541666667","25.0207116666667","6500100","板橋區"
"220052","561-BX","2018/07/07 14:39:53","新北市板橋區陽明街23巷8弄2號","121.465816666667","25.0206083333333","6500100","板橋區"
"220020","568-UM","2018/07/07 14:39:51","新北市板橋區篤行路二段151巷6號","121.430088333333","24.9876716666667","6500100","板橋區"
"220011","609-BX","2018/07/07 14:39:38","新北市板橋區三民路二段31號","121.479325","25.0178966666667","6500100","板橋區"
"220034","630-UY","2018/07/07 14:39:48","新北市板橋區國光路171號","121.460483333333","25.0185016666667","6500100","板橋區"
"220005","686-BX","2018/07/07 14:39:38","新北市板橋區廣和街60號","121.461988333333","24.9939666666667","6500100","板橋區"
"220042","689-BX","2018/07/07 14:39:51","新北市板橋區新海路466號","121.457661666667","25.0283616666667","6500100","板橋區"
"220002","741-BX","2018/07/07 14:39:54","新北市板橋區忠孝路196-2號","121.465346666667","25.0025983333333","6500100","板橋區"
"220051","KEA-2699","2018/07/07 14:39:47","新北市板橋區雙十路二段70巷3號","121.475448333333","25.0282583333333","6500100","板橋區"
"220025","806-UM","2018/07/07 14:39:44","新北市板橋區僑中三街7號","121.446568333333","25.0044833333333","6500100","板橋區"
"220014","829-TW","2018/07/07 14:39:40","新北市板橋區長安街259巷14號","121.473056666667","25.0108283333333","6500100","板橋區"
"220045","830-TW","2018/07/07 14:39:00","新北市板橋區民生路二段240巷61號","121.469963333333","25.022915","6500100","板橋區"
"220038","833-TW","2018/07/07 14:39:37","新北市板橋區陽明街249號","121.462783333333","25.025065","6500100","板橋區"
"220022","895-R6","2018/07/07 14:39:43","新北市板橋區府中路29-2號","121.458513333333","25.0080766666667","6500100","板橋區"
"220021","985-R7","2018/07/07 14:39:52","新北市板橋區南雅西路二段226號","121.452233333333","25.0155066666667","6500100","板橋區"
"220046","AAC-210","2018/07/07 14:39:42","新北市板橋區漢生西路89巷3號","121.462348333333","25.019295","6500100","板橋區"
"220018","AAC-253","2018/07/07 14:39:52","新北市板橋區民族路292號","121.470368333333","25.0067916666667","6500100","板橋區"
"235032","KEA-2873","2018/07/07 14:39:42","新北市中和區莊敬路1-6號","121.499396666667","25.0043416666667","6500300","中和區"
"235025","KEA-2875","2018/07/07 14:39:42","新北市中和區員山路174巷24號","121.481871666667","24.999765","6500300","中和區"
