"lineid","car","time","location","longitude","latitude","cityid","cityname"
"234070","149-BY","2018/07/07 14:49:54","新北市林口區太平里180號","121.366461666667","25.1342566666667","6500400","永和區"
"234028","746-BX","2018/07/07 14:49:39","新北市中和區中正路953號","121.48343","25.0070883333333","6500400","永和區"
"234052","KEA-2590","2018/07/07 14:49:54","新北市板橋區萬安街85巷18-1號","121.484323333333","25.0258766666667","6500400","永和區"
"234025","9371-KE","2018/07/07 14:49:52","新北市永和區雙和街25巷5號","121.508993333333","25.0019383333333","6500400","永和區"
"248017","225-UY","2018/07/07 14:22:22","新北市五股區壟路16號","121.415006666667","25.0854116666667","6501500","五股區"
"231005","001-UM","2018/07/07 14:49:43","新北市新店區復興路2號","121.532451666667","24.9882733333333","6500600","新店區"
"231002","002-UM","2018/07/07 14:49:54","新北市新店區民權路45號","121.54","24.9827883333333","6500600","新店區"
"231027","0293-UT","2018/07/07 14:49:40","新北市新店區安興路131巷2號","121.515753333333","24.979295","6500600","新店區"
"231001","047-UY","2018/07/07 14:49:40","新北市新店區三民路127號","121.534583333333","24.9723583333333","6500600","新店區"
"231036","110-UY","2018/07/07 14:49:47","新北市新店區安祥路106巷46號","121.4769","24.9616183333333","6500600","新店區"
"231012","187-VK","2018/07/07 14:49:37","新北市新店區永華街32號","121.54459","24.9755116666667","6500600","新店區"
"231023","KEA-2219","2018/07/07 14:49:42","新北市新店區檳榔路109號","121.544463333333","24.9616733333333","6500600","新店區"
"231026","256-BX","2018/07/07 14:49:43","新北市新店區安康路一段222-2號","121.522961666667","24.9636466666667","6500600","新店區"
"231003","268-BY","2018/07/07 14:49:47","新北市新店區中興路二段55號","121.54656","24.9702566666667","6500600","新店區"
"231018","278-BY","2018/07/07 14:49:36","新北市新店區中央六街3號","121.530431666667","24.9744866666667","6500600","新店區"
"231017","AAD-862","2018/07/07 14:49:49","新北市新店區北宜路三段26號","121.567086666667","24.9524566666667","6500600","新店區"
"231028","355-BY","2018/07/07 14:49:39","新北市新店區安德街116巷36號","121.508611666667","24.9612233333333","6500600","新店區"
"231038","3712-VJ","2018/07/07 14:49:47","新北市新店區安華路28-1號","121.519606666667","24.9610066666667","6500600","新店區"
"231013","513-UM","2018/07/07 14:49:41","新北市新店區北新路二段35號","121.542828333333","24.9724366666667","6500600","新店區"
"231006","617-UM","2018/07/07 14:49:37","新北市新店區北宜路一段107-1號","121.539446666667","24.9551516666667","6500600","新店區"
"231030","619-UM","2018/07/07 14:49:39","新北市新店區安民街367號","121.516553333333","24.975945","6500600","新店區"
"231034","641-BX","2018/07/07 14:49:41","新北市新店區玫瑰路4-1號","121.493586666667","24.9513666666667","6500600","新店區"
"231039","718-UY","2018/07/07 14:49:40","新北市新店區安華路28-1號","121.519285","24.9609566666667","6500600","新店區"
"231035","719-UM","2018/07/07 14:46:22","新北市新店區安和路二段160號","121.51979","24.97354","6500600","新店區"
"231020","719-UY","2018/07/07 14:49:56","新北市新店區桂山路37號","121.562686666667","24.9042116666667","6500600","新店區"
"231033","720-UM","2018/07/07 14:49:44","新北市新店區安泰路22號","121.485453333333","24.948415","6500600","新店區"
"231029","897-TW","2018/07/07 14:49:37","新北市新店區錦秀路61號","121.479013333333","24.9429766666667","6500600","新店區"
"231004","899-TW","2018/07/07 14:49:40","新北市新店區建國路131號","121.53939","24.97816","6500600","新店區"
"231024","AKT-0513","2018/07/07 14:49:52","新北市新店區力行路96號","121.538128333333","24.9668733333333","6500600","新店區"
"235030","003-UY","2018/07/07 14:49:45","新北市中和區南工路36號","121.50585","25.00111","6500300","中和區"
"235020","096-UM","2018/07/07 14:49:37","新北市中和區中山路三段116號","121.476078333333","25.0061633333333","6500300","中和區"
"235003","097-UM","2018/07/07 14:49:50","新北市永和區安樂路104巷2弄2號","121.514231666667","24.9995583333333","6500300","中和區"
"235029","098-UM","2018/07/07 14:49:43","新北市中和區永和路90巷2弄17號","121.498121666667","25.0055766666667","6500300","中和區"
"235004","150-BY","2018/07/07 14:49:41","新北市中和區保健路8巷25號","121.507675","24.9976633333333","6500300","中和區"
"235022","151-BY","2018/07/07 14:49:56","新北市中和區員山路150巷2弄23號","121.481753333333","24.9977083333333","6500300","中和區"
"235019","183-VK","2018/07/07 14:49:52","新北市中和區民德路16號","121.468766666667","25.0026083333333","6500300","中和區"
"235002","185-VK","2018/07/07 14:49:45","新北市永和區民族街81巷62號","121.520386666667","24.9964516666667","6500300","中和區"
"235013","186-VK","2018/07/07 14:49:46","新北市中和區景平路401號","121.502335","24.9947066666667","6500300","中和區"
"235031","255-BX","2018/07/07 14:49:53","新北市中和區中正路828號","121.484976666667","25.0036116666667","6500300","中和區"
"235008","293-VK","2018/07/07 14:49:49","新北市中和區南山路399巷10號","121.507045","24.9904733333333","6500300","中和區"
"235036","301-VK","2018/07/07 14:49:49","新北市中和區中和路81號","121.500915","25.0007833333333","6500300","中和區"
"235007","352-BY","2018/07/07 14:49:51","新北市中和區安和路31號","121.510118333333","24.9943866666667","6500300","中和區"
"235006","KEA-2878","2018/07/07 14:49:38","新北市中和區連勝街66號","121.497088333333","24.9969","6500300","中和區"
"235014","4979-A6","2018/07/07 14:49:54","新北市中和區景平路241巷82弄40號","121.50621","24.9925833333333","6500300","中和區"
"235033","4980-A6","2018/07/07 14:49:42","新北市中和區員山路36巷16-8號","121.485478333333","24.9924616666667","6500300","中和區"
"235034","558-UM","2018/07/07 14:49:53","新北市中和區景平路511號","121.49934","24.998825","6500300","中和區"
"235018","640-BX","2018/07/07 14:49:49","新北市中和區莒光路72號","121.472263333333","25.0030866666667","6500300","中和區"
"235024","647-TV","2018/07/07 14:49:52","新北市中和區員山路429號","121.48079","25.0036033333333","6500300","中和區"
"235011","732-UM","2018/07/07 14:49:43","新北市中和區和平街110號","121.507036666667","24.99138","6500300","中和區"
"235010","733-UM","2018/07/07 14:49:55","新北市中和區四維街40號","121.51231","24.9869966666667","6500300","中和區"
"235026","800-TS","2018/07/07 14:49:48","新北市中和區中山路二段346號","121.493261666667","25.0023566666667","6500300","中和區"
"235016","805-TS","2018/07/07 14:49:44","新北市中和區華新街144巷8號","121.507678333333","24.9829116666667","6500300","中和區"
"235012","896-TW","2018/07/07 14:49:39","新北市中和區忠孝街99號","121.512106666667","24.9858733333333","6500300","中和區"
"235017","900-TW","2018/07/07 14:49:43","新北市中和區國光街189巷20號","121.467718333333","25.0009716666667","6500300","中和區"
"235015","157-BY","2018/07/07 14:49:49","新北市中和區景安路247巷7號","121.504333333333","24.9905733333333","6500300","中和區"
"235001","AAC-213","2018/07/07 14:49:44","新北市中和區自立路99巷22弄9號","121.523395","24.994045","6500300","中和區"
"235023","AAC-215","2018/07/07 14:49:55","新北市中和區圓通路305巷5弄19號","121.49415","24.990315","6500300","中和區"
"220016","013-TV","2018/07/07 14:49:48","新北市板橋區光復街202巷6-1號","121.486101666667","25.0202583333333","6500100","板橋區"
"220003","015-TV","2018/07/07 14:49:55","新北市板橋區仁愛路49巷1號","121.45987","24.99946","6500100","板橋區"
"220013","072-UY","2018/07/07 14:49:40","新北市板橋區海山路39號","121.467225","25.0097216666667","6500100","板橋區"
"220105","075-UY","2018/07/07 14:49:43","新北市板橋區文化路二段620號","121.478305","25.0356766666667","6500100","板橋區"
"220017","AAD-861","2018/07/07 14:49:54","新北市板橋區貴興路50號","121.457081666667","25.003175","6500100","板橋區"
"247001","002-UY","2018/07/07 14:46:49","新北市蘆洲區永康街2巷31號","121.45892","25.08657","6501400","蘆洲區"
"228005","097-TW","2018/07/07 14:49:46","新北市貢寮區美豐里丹裡街65號","121.909076666667","25.0589066666667","6502600","貢寮區"
"228004","212-TW","2018/07/07 14:49:46","新北市貢寮區福隆里福隆街2巷29號","121.946305","25.0157533333333","6502600","貢寮區"
"253003","6232-TK","2018/07/07 14:49:52","新北市石門區尖子鹿89號","121.579083333333","25.2900083333333","6502200","石門區"
"253001","6251-TK","2018/07/07 14:49:37","新北市石門區崁子腳35-2號","121.539931666667","25.2696716666667","6502200","石門區"
"253002","637-UY","2018/07/07 14:49:47","新北市石門區七股14號","121.547376666667","25.2670533333333","6502200","石門區"
"253004","8270-PC","2018/07/07 14:49:50","新北市石門區阿里磅90號","121.589678333333","25.25987","6502200","石門區"
"207002","749-BX","2018/07/07 14:49:42","新北市萬里區崁腳里崁腳路73號","121.647673333333","25.15957","6502800","萬里區"
"252005","073-UM","2018/07/07 14:49:56","新北市三芝區茂長里陳厝坑18號","121.518561666667","25.255675","6502100","三芝區"
"207001","662-BX","2018/07/07 14:48:52","新北市萬里區雙興里二坪路1-2號","121.648595","25.1783416666667","6502800","萬里區"
"236068","105-UM","2018/07/07 14:49:39","新北市土城區明德路一段369號","121.455591666667","24.9779516666667","6501300","土城區"
"236040","107-UM","2018/07/07 14:49:44","新北市土城區裕民路136巷4弄1號","121.45105","24.9855833333333","6501300","土城區"
"236074","166-UM","2018/07/07 14:49:56","新北市土城區中央路四段185巷32弄1號","121.415853333333","24.955815","6501300","土城區"
"236029","253-BX","2018/07/07 14:49:41","新北市土城區忠義路30號","121.440498333333","24.9699516666667","6501300","土城區"
"236024","269-VK","2018/07/07 14:49:53","新北市土城區慶安街70號","121.440781666667","24.9729383333333","6501300","土城區"
"236032","271-VK","2018/07/07 14:49:50","新北市土城區青仁路51號","121.461511666667","24.97954","6501300","土城區"
"236017","401-BY","2018/07/07 14:49:51","新北市土城區金城路三段52巷1號","121.466095","24.9864366666667","6501300","土城區"
"236013","752-BX","2018/07/07 14:48:32","新北市土城區金城路二段368號","121.46246","24.9853433333333","6501300","土城區"
"236057","912-UM","2018/07/07 14:49:53","新北市土城區金城路一段118號","121.44563","24.9743183333333","6501300","土城區"
"236045","913-UM","2018/07/07 14:49:42","新北市土城區青雲路107-1號","121.459088333333","24.98546","6501300","土城區"
"236060","915-UM","2018/07/07 14:49:44","新北市土城區金城路三段253號","121.471631666667","24.9900133333333","6501300","土城區"
"236054","AAC-216","2018/07/07 14:49:47","新北市土城區裕民路202號","121.453213333333","24.9846233333333","6501300","土城區"
"220027","145-BY","2018/07/07 14:49:49","新北市板橋區中正路183巷42號","121.455105","25.0161133333333","6500100","板橋區"
"220028","200-UY","2018/07/07 14:49:53","新北市板橋區大觀路二段163巷6號","121.445676666667","25.0003066666667","6500100","板橋區"
"220030","610-BX","2018/07/07 14:49:57","新北市板橋區溪崑二街70號","121.427888333333","24.9903033333333","6500100","板橋區"
"220050","245-BX","2018/07/07 14:49:56","新北市板橋區縣民大道三段93巷24號","121.475016666667","25.0224366666667","6500100","板橋區"
"220040","267-BY","2018/07/07 14:49:40","新北市板橋區民治街92號","121.479203333333","25.03177","6500100","板橋區"
"220004","276-BY","2018/07/07 14:49:51","新北市板橋區華東街262號","121.452671666667","25.0007316666667","6500100","板橋區"
"220019","283-VK","2018/07/07 14:49:55","新北市板橋區廣權路79號","121.463996666667","24.9922966666667","6500100","板橋區"
"220043","285-UM","2018/07/07 14:49:54","新北市板橋區溪頭街2號","121.457473333333","25.0289166666667","6500100","板橋區"
"220031","286-VK","2018/07/07 14:49:40","新北市板橋區僑中二街12巷10號","121.446425","25.0106633333333","6500100","板橋區"
"220029","287-VK","2018/07/07 14:49:48","新北市板橋區僑中一街80巷5弄2-4號","121.447878333333","25.0126633333333","6500100","板橋區"
"220039","288-VK","2018/07/07 14:49:47","新北市板橋區龍泉街131號","121.457376666667","25.0239016666667","6500100","板橋區"
"220009","293-UM","2018/07/07 14:49:54","新北市板橋區觀光街33巷17號","121.47105","25.015825","6500100","板橋區"
"220001","299-UM","2018/07/07 14:49:53","新北市板橋區中山路二段60巷13號","121.474258333333","25.0151383333333","6500100","板橋區"
"220023","303-R5","2018/07/07 14:49:37","新北市板橋區金華街3號","121.455561666667","25.020145","6500100","板橋區"
"220010","305-R5","2018/07/07 14:49:46","新北市板橋區光復街33巷11號","121.481921666667","25.01895","6500100","板橋區"
"220041","307-R5","2018/07/07 14:49:42","新北市板橋區四維路259巷21號","121.462308333333","25.027605","6500100","板橋區"
"220047","317-R6","2018/07/07 14:49:51","新北市板橋區英士路179號","121.459226666667","25.0237516666667","6500100","板橋區"
"220012","486-VK","2018/07/07 14:49:36","新北市板橋區忠孝路191號","121.464615","25.0025766666667","6500100","板橋區"
"220037","491-VK","2018/07/07 14:49:38","新北市板橋區懷德街66巷36號","121.476285","25.031615","6500100","板橋區"
"220104","560-BX","2018/07/07 14:49:51","新北市板橋區新生街87巷20號","121.457205","25.02208","6500100","板橋區"
"220052","561-BX","2018/07/07 14:49:53","新北市板橋區陽明街29巷36號","121.463555","25.0227333333333","6500100","板橋區"
"220020","568-UM","2018/07/07 14:49:43","新北市板橋區金門街235巷6號","121.432546666667","24.9891983333333","6500100","板橋區"
"220011","609-BX","2018/07/07 14:49:52","新北市板橋區萬安街53巷38號","121.482873333333","25.02365","6500100","板橋區"
"220034","630-UY","2018/07/07 14:49:48","新北市板橋區中正路185號","121.45655","25.0167433333333","6500100","板橋區"
"220005","686-BX","2018/07/07 14:49:44","新北市板橋區廣權路12號","121.460585","24.9910983333333","6500100","板橋區"
"220042","689-BX","2018/07/07 14:49:50","新北市板橋區長江路二段146-1號","121.466365","25.0317866666667","6500100","板橋區"
"220002","741-BX","2018/07/07 14:49:51","新北市板橋區忠孝路忠義巷15弄2號","121.465931666667","25.0037866666667","6500100","板橋區"
"220051","KEA-2699","2018/07/07 14:49:38","新北市板橋區仁化街45號","121.474886666667","25.0316983333333","6500100","板橋區"
"220025","806-UM","2018/07/07 14:49:44","新北市板橋區僑中一街102巷3弄15-3號","121.446063333333","25.01232","6500100","板橋區"
"220014","829-TW","2018/07/07 14:49:40","新北市板橋區漢生東路193巷45弄15號","121.47207","25.01242","6500100","板橋區"
"220045","830-TW","2018/07/07 14:49:55","新北市板橋區文化路二段124巷34弄6號","121.471118333333","25.0253383333333","6500100","板橋區"
"220038","833-TW","2018/07/07 14:49:37","新北市板橋區龍泉街82巷13號","121.455755","25.0255133333333","6500100","板橋區"
"220022","895-R6","2018/07/07 14:49:43","新北市板橋區民權路65號","121.461631666667","25.0112966666667","6500100","板橋區"
"220021","985-R7","2018/07/07 14:49:45","新北市板橋區館前西路168-1號","121.452298333333","25.0085766666667","6500100","板橋區"
"220046","AAC-210","2018/07/07 14:49:42","新北市板橋區漢生西路58巷12號","121.463671666667","25.0189633333333","6500100","板橋區"
"220018","AAC-253","2018/07/07 14:49:52","新北市板橋區民族路61號","121.465041666667","25.0086083333333","6500100","板橋區"
"235032","KEA-2873","2018/07/07 14:49:42","新北市中和區中山路二段252號","121.497618333333","25.002685","6500300","中和區"
