"lineid","car","time","location","longitude","latitude","cityid","cityname"
"234070","149-BY","2018/07/07 15:09:54","新北市五股區凌雲路二段18巷12號","121.444815","25.1068666666667","6500400","永和區"
"234028","746-BX","2018/07/07 15:09:39","新北市八里區商港路86號","121.395281666667","25.1463866666667","6500400","永和區"
"234052","KEA-2590","2018/07/07 15:09:53","新北市八里區中山路三段385號","121.371646666667","25.1376416666667","6500400","永和區"
"234025","9371-KE","2018/07/07 15:09:52","新北市永和區保生路55號","121.50467","25.0106916666667","6500400","永和區"
"248017","225-UY","2018/07/07 15:09:29","新北市五股區登林路93-20號","121.418998333333","25.0732766666667","6501500","五股區"
"231005","001-UM","2018/07/07 15:09:43","新北市新店區北新路三段126號","121.541643333333","24.9817466666667","6500600","新店區"
"231002","002-UM","2018/07/07 15:09:54","新北市新店區中正路696號","121.53401","24.9905516666667","6500600","新店區"
"231001","047-UY","2018/07/07 15:09:47","新北市新店區中正路213號","121.539795","24.972805","6500600","新店區"
"231036","110-UY","2018/07/07 15:09:48","新北市新店區安祥路104巷59號","121.483031666667","24.9637916666667","6500600","新店區"
"231012","187-VK","2018/07/07 15:09:57","新北市新店區寶元路一段65號","121.54217","24.9858016666667","6500600","新店區"
"231023","KEA-2219","2018/07/07 15:09:42","新北市新店區檳榔路174號","121.544186666667","24.9617516666667","6500600","新店區"
"231026","256-BX","2018/07/07 15:09:44","新北市新店區建安街11號","121.539933333333","24.9753866666667","6500600","新店區"
"231003","268-BY","2018/07/07 15:09:47","新北市新店區中興路二段239號","121.54736","24.9755916666667","6500600","新店區"
"231018","278-BY","2018/07/07 15:09:36","新北市新店區中央七街121號","121.525238333333","24.9779983333333","6500600","新店區"
"231017","AAD-862","2018/07/07 15:02:10","新北市新店區明山路5號","121.563448333333","24.9556483333333","6500600","新店區"
"231028","355-BY","2018/07/07 15:09:39","新北市新店區僑愛七路53號","121.501528333333","24.9447166666667","6500600","新店區"
"231038","3712-VJ","2018/07/07 15:09:47","新北市新店區安華路28-1號","121.519605","24.9609566666667","6500600","新店區"
"231006","617-UM","2018/07/07 15:09:37","新北市新店區新坡一街12號","121.548391666667","24.9618716666667","6500600","新店區"
"231030","619-UM","2018/07/07 15:09:39","新北市新店區安民街341-1號","121.516815","24.9748733333333","6500600","新店區"
"231034","641-BX","2018/07/07 15:09:41","新北市新店區玫瑰路4-1號","121.493655","24.9513733333333","6500600","新店區"
"231039","718-UY","2018/07/07 15:09:40","新北市新店區北新路三段82號","121.54226","24.98077","6500600","新店區"
"231035","719-UM","2018/07/07 15:09:51","新北市新店區安和路三段120巷14號","121.517656666667","24.985785","6500600","新店區"
"231020","719-UY","2018/07/07 15:09:56","新北市新店區永福路13-1號","121.549193333333","24.9293033333333","6500600","新店區"
"231033","720-UM","2018/07/07 15:09:44","新北市新店區安泰路125-1號","121.487445","24.9401816666667","6500600","新店區"
"231029","897-TW","2018/07/07 15:09:37","新北市新店區安康路三段738號","121.473858333333","24.94198","6500600","新店區"
"231004","899-TW","2018/07/07 15:09:40","新北市新店區建國路29號","121.540168333333","24.97408","6500600","新店區"
"231024","AKT-0513","2018/07/07 15:09:52","新北市新店區北新路一段297巷32號","121.540483333333","24.9682966666667","6500600","新店區"
"241013","270-UM","2018/07/07 15:09:46","新北市三重區重新路四段121號","121.484821666667","25.0525183333333","6500200","三重區"
"235030","003-UY","2018/07/07 15:09:45","新北市中和區保平路231號","121.50797","25.0042183333333","6500300","中和區"
"235003","097-UM","2018/07/07 15:09:50","新北市中和區安樂路217巷14號","121.513905","24.9986533333333","6500300","中和區"
"235004","150-BY","2018/07/07 15:09:41","新北市中和區景安路79巷23號","121.507158333333","24.996725","6500300","中和區"
"235036","301-VK","2018/07/07 15:09:40","新北市中和區建八路1號","121.4854","24.9985983333333","6500300","中和區"
"235007","352-BY","2018/07/07 15:09:51","新北市中和區興南路二段159巷7號","121.505258333333","24.9832","6500300","中和區"
"235006","KEA-2878","2018/07/07 15:09:38","新北市三峽區隆恩街551號","121.357493333333","24.9400783333333","6500300","中和區"
"235014","4979-A6","2018/07/07 15:09:21","新北市中和區安樂路37號","121.5119","24.9930416666667","6500300","中和區"
"235033","4980-A6","2018/07/07 15:09:42","新北市中和區景新街104號","121.50491","24.9984216666667","6500300","中和區"
"235034","558-UM","2018/07/07 15:09:53","新北市中和區中正路440號","121.491033333333","24.9942683333333","6500300","中和區"
"235026","800-TS","2018/07/07 15:09:48","新北市中和區永和路204號","121.491966666667","25.0073183333333","6500300","中和區"
"235012","896-TW","2018/07/07 15:09:44","新北市中和區興南路一段143號","121.50879","24.9874033333333","6500300","中和區"
"235023","AAC-215","2018/07/07 15:09:55","新北市中和區圓通路367巷13弄24號","121.493126666667","24.9882166666667","6500300","中和區"
"220016","013-TV","2018/07/07 15:09:48","新北市板橋區光復街234-1號","121.484681666667","25.0214983333333","6500100","板橋區"
"220003","015-TV","2018/07/07 15:09:55","新北市板橋區仁愛路28號","121.45886","24.99939","6500100","板橋區"
"220017","AAD-861","2018/07/07 15:09:54","新北市板橋區貴興路127號","121.455336666667","25.002135","6500100","板橋區"
"247020","001-UY","2018/07/07 14:56:58","新北市五股區中興路三段2巷10號","121.449243333333","25.0808783333333","6501400","蘆洲區"
"253003","6232-TK","2018/07/07 15:09:52","新北市石門區阿里磅1號","121.591343333333","25.2909183333333","6502200","石門區"
"253001","6251-TK","2018/07/07 15:09:37","新北市石門區中央路1-10號","121.561718333333","25.290915","6502200","石門區"
"253002","637-UY","2018/07/07 15:09:47","新北市石門區中央路1-9號","121.563236666667","25.2908783333333","6502200","石門區"
"253004","8270-PC","2018/07/07 15:09:50","新北市石門區小坑23號","121.59417","25.2785133333333","6502200","石門區"
"207002","749-BX","2018/07/07 15:09:42","新北市萬里區崁腳里內中福路66號","121.65536","25.1668116666667","6502800","萬里區"
"207001","662-BX","2018/07/07 15:09:52","新北市萬里區雙興里麗水路8-1號","121.64991","25.187245","6502800","萬里區"
"236068","105-UM","2018/07/07 15:09:55","新北市土城區中華路一段3號","121.447211666667","24.9896233333333","6501300","土城區"
"236040","107-UM","2018/07/07 15:09:44","新北市土城區清水路87號","121.456201666667","24.9817216666667","6501300","土城區"
"236074","166-UM","2018/07/07 15:09:56","新北市土城區中州路3巷43號","121.41336","24.9563816666667","6501300","土城區"
"236029","253-BX","2018/07/07 15:09:41","新北市土城區福祥街64號","121.441531666667","24.9815583333333","6501300","土城區"
"236024","269-VK","2018/07/07 15:09:52","新北市土城區中正路67巷13號","121.444405","24.9761466666667","6501300","土城區"
"236032","271-VK","2018/07/07 15:09:50","新北市土城區國際路156號","121.46785","24.97646","6501300","土城區"
"236017","401-BY","2018/07/07 15:09:51","新北市土城區峰廷街3號","121.469133333333","24.9873566666667","6501300","土城區"
"236013","752-BX","2018/07/07 15:09:52","新北市土城區學府路一段23巷21-1號","121.457781666667","24.9871516666667","6501300","土城區"
"236057","912-UM","2018/07/07 15:09:52","新北市土城區忠義路46號","121.440405","24.9693933333333","6501300","土城區"
"236045","913-UM","2018/07/07 15:09:42","新北市土城區清水路259號","121.46293","24.984285","6501300","土城區"
"236060","915-UM","2018/07/07 15:09:44","新北市土城區延平街35號","121.468053333333","24.99193","6501300","土城區"
"236054","AAC-216","2018/07/07 15:09:47","新北市土城區學府路一段276號","121.44988","24.98294","6501300","土城區"
"220050","245-BX","2018/07/07 15:09:56","新北市板橋區雙十路二段47巷2弄21號","121.475476666667","25.0267583333333","6500100","板橋區"
"220031","286-VK","2018/07/07 15:09:48","新北市板橋區僑中二街100巷10號","121.445523333333","25.008535","6500100","板橋區"
"220029","287-VK","2018/07/07 15:09:48","新北市板橋區僑中一街80巷1弄17號","121.446731666667","25.0119866666667","6500100","板橋區"
"220009","293-UM","2018/07/07 15:09:52","新北市板橋區四川路一段279號","121.459545","25.0019766666667","6500100","板橋區"
"220041","307-R5","2018/07/07 15:09:42","新北市板橋區文化路一段45巷6號","121.460175","25.0135016666667","6500100","板橋區"
"220037","491-VK","2018/07/07 15:09:37","新北市板橋區民治街84號","121.479445","25.03213","6500100","板橋區"
"220052","561-BX","2018/07/07 15:09:53","新北市板橋區陽明街279巷35-2號","121.46108","25.02568","6500100","板橋區"
"220020","568-UM","2018/07/07 15:09:44","新北市板橋區金門街109巷7號","121.433441666667","24.99189","6500100","板橋區"
"220011","609-BX","2018/07/07 15:09:38","新北市板橋區三民路一段98號","121.479303333333","25.0213483333333","6500100","板橋區"
"220042","689-BX","2018/07/07 15:09:50","新北市板橋區長江路三段2號","121.471711666667","25.0335066666667","6500100","板橋區"
"220051","KEA-2699","2018/07/07 15:09:38","新北市板橋區縣民大道三段155號","121.478826666667","25.0241766666667","6500100","板橋區"
"220014","829-TW","2018/07/07 15:09:40","新北市板橋區觀光街79巷2號","121.46913","25.0170366666667","6500100","板橋區"
"220045","830-TW","2018/07/07 15:09:35","新北市三重區頂崁街23號","121.476811666667","25.0563016666667","6500100","板橋區"
"220038","833-TW","2018/07/07 15:09:47","新北市板橋區互助街66號","121.461136666667","25.0266383333333","6500100","板橋區"
"220046","AAC-210","2018/07/07 15:09:42","新北市板橋區光正街45巷6弄15號","121.46113","25.0170216666667","6500100","板橋區"
"220018","AAC-253","2018/07/07 15:09:52","新北市板橋區德興街41號","121.453466666667","24.9935833333333","6500100","板橋區"
