"lineid","car","time","location","longitude","latitude","cityid","cityname"
"234070","149-BY","2018/07/07 15:55:47","新北市永和區福和路1號","121.526346666667","25.0098733333333","6500400","永和區"
"234042","862-TW","2018/07/07 15:59:22","新北市永和區福和路1號","121.526328333333","25.009765","6500400","永和區"
"231046","188-VK","2018/07/07 16:19:19","新北市新店區灣潭路3-3號","121.538246666667","24.9507916666667","6500600","新店區"
"231018","278-BY","2018/07/07 16:19:16","新北市新店區中正路700巷82號","121.535818333333","24.9931116666667","6500600","新店區"
"231038","3712-VJ","2018/07/07 16:19:26","新北市新店區安康路二段269號","121.504461666667","24.9572666666667","6500600","新店區"
"241011","013-R5","2018/07/07 16:19:22","新北市三重區龍濱路285號","121.50114","25.07332","6500200","三重區"
"241028","022-UY","2018/07/07 16:19:26","新北市三重區正義南路171號","121.498996666667","25.0573233333333","6500200","三重區"
"241008","059-VK","2018/07/07 16:19:13","新北市三重區永福街112號","121.479078333333","25.0754633333333","6500200","三重區"
"241022","060-VK","2018/07/07 16:19:20","新北市三重區過圳街31巷2號","121.48918","25.0606633333333","6500200","三重區"
"241015","062-VK","2018/07/07 16:19:13","新北市三重區三和路一段99號","121.501981666667","25.0663183333333","6500200","三重區"
"241024","065-VK","2018/07/07 16:19:28","新北市三重區中正北路145巷1弄15號","121.483478333333","25.0671583333333","6500200","三重區"
"241026","066-VK","2018/07/07 16:19:14","新北市三重區正義南路50號","121.498476666667","25.06083","6500200","三重區"
"241002","090-VK","2018/07/07 16:19:29","新北市三重區仁義街91號","121.499766666667","25.079515","6500200","三重區"
"241003","091-VK","2018/07/07 16:19:10","新北市三重區五華街59號","121.492776666667","25.082545","6500200","三重區"
"241005","262-UM","2018/07/07 16:19:25","新北市三重區溪尾街305號","121.487568333333","25.0836966666667","6500200","三重區"
"241016","266-UM","2018/07/07 16:19:22","新北市三重區大仁街37號","121.492946666667","25.0653666666667","6500200","三重區"
"241009","267-UM","2018/07/07 16:19:20","新北市三重區溪尾街196巷3號","121.48798","25.0809033333333","6500200","三重區"
"241018","268-UM","2018/07/07 16:19:27","新北市三重區重陽路三段7號","121.488885","25.0663516666667","6500200","三重區"
"241032","269-UM","2018/07/07 16:19:09","新北市三重區三陽路116巷4號","121.48309","25.05811","6500200","三重區"
"241013","270-UM","2018/07/07 16:19:26","新北市三重區仁愛街50號","121.496088333333","25.0727016666667","6500200","三重區"
"241025","271-UM","2018/07/07 16:19:17","新北市三重區中正北路560巷100弄2號","121.472591666667","25.0682333333333","6500200","三重區"
"241007","398-BY","2018/07/07 16:19:25","新北市三重區仁美街83號","121.486223333333","25.0795083333333","6500200","三重區"
"241031","413-TH","2018/07/07 16:19:10","新北市三重區重新路四段138號","121.486536666667","25.0563083333333","6500200","三重區"
"241004","475-VK","2018/07/07 16:19:22","新北市三重區自強路五段64號","121.493913333333","25.0815866666667","6500200","三重區"
"241030","480-VK","2018/07/07 16:19:19","新北市三重區重新路四段254號","121.485071666667","25.0531733333333","6500200","三重區"
"241014","543-UM","2018/07/07 16:19:14","新北市三重區河邊北街96-1號","121.504041666667","25.06995","6500200","三重區"
"241023","545-UM","2018/07/07 16:19:13","新北市三重區中正北路145巷4弄13號","121.483118333333","25.0678283333333","6500200","三重區"
"241001","547-UM","2018/07/07 16:19:15","新北市三重區自強路四段87號","121.49107","25.0793566666667","6500200","三重區"
"241019","KEA-2593","2018/07/07 16:19:19","新北市三重區重陽路三段97號","121.490305","25.068055","6500200","三重區"
"241006","AAD-863","2018/07/07 16:19:24","新北市三重區永福街46巷31弄7號","121.481893333333","25.0775366666667","6500200","三重區"
"241020","743-BX","2018/07/07 16:19:26","新北市三重區忠孝路二段65巷8號","121.484548333333","25.070785","6500200","三重區"
"241017","887-TS","2018/07/07 16:19:25","新北市三重區大同北路81號","121.494968333333","25.0636283333333","6500200","三重區"
"241012","941-UM","2018/07/07 16:19:22","新北市三重區龍門路255號","121.502428333333","25.0741833333333","6500200","三重區"
"241029","942-UM","2018/07/07 16:19:19","新北市三重區環河南路220-8號","121.49333","25.05266","6500200","三重區"
"241033","AAC-255","2018/07/07 16:19:15","新北市三重區重新路五段440號","121.4749","25.0472416666667","6500200","三重區"
"235064","005-UY","2018/07/07 16:19:16","新北市中和區員山路36巷16-3號","121.485096666667","24.9913616666667","6500300","中和區"
"224007","275-VK","2018/07/07 16:19:21","新北市瑞芳區大埔路108號","121.762355","25.1018983333333","6501200","瑞芳區"
"224005","271-BY","2018/07/07 16:19:09","新北市瑞芳區三爪子坑路32巷124號","121.809166666667","25.1066866666667","6501200","瑞芳區"
"227010","642-TC","2018/07/07 16:19:09","新北市雙溪區三港里雙澳路80號","121.883776666667","25.0538616666667","6502500","雙溪區"
"227002","400-TW","2018/07/07 16:19:14","新北市雙溪區上林里內平林80號","121.828328333333","25.0279416666667","6502500","雙溪區"
"251013","KEA-2871","2018/07/07 16:19:13","新北市淡水區北新路二段87號","121.481668333333","25.185325","6501000","淡水區"
"251014","180-VK","2018/07/07 16:19:17","新北市淡水區淡金路三段212號","121.448948333333","25.2043333333333","6501000","淡水區"
"251008","181-VK","2018/07/07 16:19:23","新北市淡水區中正東路40號","121.44983","25.1653183333333","6501000","淡水區"
"235061","KEA-2875","2018/07/07 16:10:58","新北市中和區員山路36巷16-2號","121.485303333333","24.99164","6500300","中和區"
