"lineid","car","time","location","longitude","latitude","cityid","cityname"
"249005","172-UM","2018/07/07 16:39:13","新北市八里區忠孝路423號","121.41467","25.161375","6502300","八里區"
"249002","305-UY","2018/07/07 16:39:23","新北市八里區大崁腳48-53號","121.424896666667","25.159485","6502300","八里區"
"231046","188-VK","2018/07/07 16:39:20","新北市新店區灣潭路55號","121.54067","24.942615","6500600","新店區"
"241011","013-R5","2018/07/07 16:39:22","新北市三重區仁愛街51號","121.496528333333","25.0719216666667","6500200","三重區"
"241028","022-UY","2018/07/07 16:39:07","新北市三重區中正南路1號","121.49321","25.0605","6500200","三重區"
"241008","059-VK","2018/07/07 16:39:13","新北市三重區永安北路一段27巷29號","121.477365","25.075505","6500200","三重區"
"241022","060-VK","2018/07/07 16:39:20","新北市三重區新北大道一段108號","121.485121666667","25.06165","6500200","三重區"
"241015","062-VK","2018/07/07 16:39:13","新北市三重區文化北路33-8號","121.49913","25.06483","6500200","三重區"
"241024","065-VK","2018/07/07 16:39:08","新北市三重區中正北路315巷16弄7號","121.475491666667","25.07164","6500200","三重區"
"241026","066-VK","2018/07/07 16:39:14","新北市三重區中央南路20號","121.501475","25.0625866666667","6500200","三重區"
"241002","090-VK","2018/07/07 16:39:09","新北市三重區仁義街239號","121.496331666667","25.0825933333333","6500200","三重區"
"241003","091-VK","2018/07/07 16:39:10","新北市三重區五華街108-2號","121.492431666667","25.0827166666667","6500200","三重區"
"241005","262-UM","2018/07/07 16:39:25","新北市三重區溪尾街279號","121.487401666667","25.0824816666667","6500200","三重區"
"241016","266-UM","2018/07/07 16:39:22","新北市三重區大智街5號","121.494833333333","25.0649066666667","6500200","三重區"
"241009","267-UM","2018/07/07 16:39:20","新北市三重區三和路四段203巷86號","121.484066666667","25.08001","6500200","三重區"
"241018","268-UM","2018/07/07 16:39:27","新北市三重區正義北路338巷48號","121.493231666667","25.0703233333333","6500200","三重區"
"241032","269-UM","2018/07/07 16:39:29","新北市三重區三民街28號","121.4857","25.06118","6500200","三重區"
"241013","270-UM","2018/07/07 16:39:06","新北市三重區三和路三段101巷11號","121.494871666667","25.0726566666667","6500200","三重區"
"241025","271-UM","2018/07/07 16:39:17","新北市三重區中正北路291號","121.47465","25.0712033333333","6500200","三重區"
"241007","398-BY","2018/07/07 16:39:06","新北市三重區仁美街85號","121.48609","25.0796583333333","6500200","三重區"
"241031","413-TH","2018/07/07 16:39:10","新北市三重區重新路四段53號","121.48774","25.05732","6500200","三重區"
"241004","475-VK","2018/07/07 16:39:22","新北市三重區五福街32號","121.492398333333","25.0811233333333","6500200","三重區"
"241030","480-VK","2018/07/07 16:39:19","新北市三重區環河南路286號","121.488931666667","25.049005","6500200","三重區"
"241014","543-UM","2018/07/07 16:39:14","新北市三重區龍濱路21號","121.502978333333","25.0679783333333","6500200","三重區"
"241023","545-UM","2018/07/07 16:39:13","新北市三重區忠孝路三段50巷43號","121.482816666667","25.0643916666667","6500200","三重區"
"241001","547-UM","2018/07/07 16:39:15","新北市三重區仁愛街266號","121.49293","25.078245","6500200","三重區"
"241019","KEA-2593","2018/07/07 16:39:19","新北市三重區力行路一段15號","121.488101666667","25.0668533333333","6500200","三重區"
"241006","AAD-863","2018/07/07 16:39:24","新北市三重區車路頭街138-4號","121.483776666667","25.0754116666667","6500200","三重區"
"241020","743-BX","2018/07/07 16:32:06","新北市三重區車路頭街34巷1號","121.483798333333","25.0716466666667","6500200","三重區"
"241017","887-TS","2018/07/07 16:39:25","新北市三重區國隆路2巷1號","121.493653333333","25.0634616666667","6500200","三重區"
"241012","941-UM","2018/07/07 16:39:21","新北市三重區仁興街4巷15號","121.499518333333","25.0737","6500200","三重區"
"241029","942-UM","2018/07/07 16:39:26","新北市三重區集美街116號","121.488843333333","25.0539966666667","6500200","三重區"
"241033","AAC-255","2018/07/07 16:39:15","新北市三重區光復路二段11號","121.472138333333","25.0541616666667","6500200","三重區"
"235064","005-UY","2018/07/07 16:39:16","新北市中和區員山路36巷16-3號","121.485061666667","24.9913466666667","6500300","中和區"
"235046","733-UM","2018/07/07 16:35:40","新北市中和區員山路36巷13號","121.484123333333","24.9909933333333","6500300","中和區"
"247006","336-TH","2018/07/07 16:39:18","新北市五股區中興路三段160號","121.445403333333","25.080725","6501400","蘆洲區"
"247008","056-VK","2018/07/07 16:39:28","新北市蘆洲區永安南路二段246號","121.460051666667","25.0799616666667","6501400","蘆洲區"
"247020","001-UY","2018/07/07 16:39:21","新北市五股區凌雲路一段21號","121.453893333333","25.099715","6501400","蘆洲區"
"228002","663-BX","2018/07/07 16:39:31","新北市貢寮區貢寮里朝陽街28號","121.911228333333","25.0215866666667","6502600","貢寮區"
"224008","285-BY","2018/07/07 16:39:22","新北市瑞芳區大寮路356-1號","121.784991666667","25.1033816666667","6501200","瑞芳區"
"224007","275-VK","2018/07/07 16:39:21","新北市瑞芳區中央路47號","121.762005","25.1028233333333","6501200","瑞芳區"
"224005","271-BY","2018/07/07 16:39:09","新北市瑞芳區洞頂路210-4號","121.861343333333","25.1246083333333","6501200","瑞芳區"
"227010","642-TC","2018/07/07 16:39:09","新北市雙溪區牡丹里中正路63號","121.865703333333","25.043255","6502500","雙溪區"
"227002","400-TW","2018/07/07 16:39:14","新北市雙溪區外柑里外柑腳54號","121.808025","25.0178533333333","6502500","雙溪區"
"251013","KEA-2871","2018/07/07 16:39:13","新北市淡水區楓樹湖12-1號","121.498618333333","25.1876266666667","6501000","淡水區"
"251016","179-VK","2018/07/07 16:39:12","新北市淡水區新市一路三段38號","121.445968333333","25.1829866666667","6501000","淡水區"
"251014","180-VK","2018/07/07 16:39:24","新北市淡水區淡金路四段476號","121.452428333333","25.2238883333333","6501000","淡水區"
"251008","181-VK","2018/07/07 16:39:14","台北市北投區中央北路四段30巷150-3號","121.47363","25.13987","6501000","淡水區"
"252002","178-VK","2018/07/07 16:39:12","新北市三芝區觀海街2號","121.510243333333","25.258175","6502100","三芝區"
"239007","AAC-297","2018/07/07 16:39:24","新北市鶯歌區二甲路13-16號","121.344831666667","24.935335","6500800","鶯歌區"
"235061","KEA-2875","2018/07/07 16:10:58","新北市中和區員山路36巷16-2號","121.485303333333","24.99164","6500300","中和區"
