"lineid","car","time","location","longitude","latitude","cityid","cityname"
"234042","862-TW","2018/07/07 17:38:41","新北市永和區福和路1號","121.526356666667","25.009785","6500400","永和區"
"234026","9371-KE","2018/07/07 17:39:22","新北市永和區中正路730號","121.51547","25.010115","6500400","永和區"
"234010","9373-KE","2018/07/07 17:36:52","新北市永和區福和路1號","121.525583333333","25.0093483333333","6500400","永和區"
"249005","172-UM","2018/07/07 17:39:13","新北市八里區荖阡坑路34-1號","121.402903333333","25.1296266666667","6502300","八里區"
"249001","173-UM","2018/07/07 17:39:23","新北市八里區龍米路二段140巷136號","121.438451666667","25.154325","6502300","八里區"
"249004","303-UY","2018/07/07 17:39:21","新北市八里區大崁一街8號","121.420316666667","25.15818","6502300","八里區"
"249002","305-UY","2018/07/07 17:38:23","新北市八里區石壁腳9號","121.44439","25.1349483333333","6502300","八里區"
"249003","759-BX","2018/07/07 17:39:22","新北市八里區中山路二段145號","121.405145","25.1512533333333","6502300","八里區"
"232011","375-UM","2018/07/07 17:39:28","新北市坪林區水柳腳34號","121.710168333333","24.9352933333333","6502000","坪林區"
"244007","080-UY","2018/07/07 17:39:19","新北市林口區文化一路二段303號","121.38572","25.085705","6501700","林口區"
"244019","403-UM","2018/07/07 17:39:12","新北市林口區忠孝路531巷21號","121.372428333333","25.06961","6501700","林口區"
"244013","742-UY","2018/07/07 17:39:26","新北市林口區文化一路二段200號","121.383071666667","25.0807933333333","6501700","林口區"
"244009","410-SL","2018/07/07 17:39:13","新北市林口區寶林路103號","121.383636666667","25.0849983333333","6501700","林口區"
"244023","483-VK","2018/07/07 17:39:23","新北市林口區東湖一街7號","121.38692","25.0731116666667","6501700","林口區"
"244017","485-VK","2018/07/07 17:39:10","新北市林口區文化一路一段57-2號","121.371245","25.06981","6501700","林口區"
"244011","657-BX","2018/07/07 17:39:18","新北市林口區佳林路211號","121.38424","25.0770166666667","6501700","林口區"
"244025","837-TS","2018/07/07 17:39:18","新北市林口區忠孝路256巷17號","121.365105","25.0738166666667","6501700","林口區"
"244021","838-TS","2018/07/07 17:39:21","新北市林口區粉寮路一段77號","121.39662","25.0788083333333","6501700","林口區"
"222003","436-BY","2018/07/07 17:39:30","新北市深坑區深南路51-1號","121.621283333333","25.0097133333333","6501800","深坑區"
"231046","188-VK","2018/07/07 17:39:19","新北市新店區直潭路92-1號","121.530813333333","24.93725","6500600","新店區"
"231055","AKT-0513","2018/07/07 17:39:16","新北市新店區安華路3號","121.519345","24.9596833333333","6500600","新店區"
"241024","065-VK","2018/07/07 17:39:28","新北市三重區大勇街6號","121.483158333333","25.0714483333333","6500200","三重區"
"241005","262-UM","2018/07/07 17:39:25","新北市三重區仁愛街519號","121.4873","25.0822666666667","6500200","三重區"
"241016","266-UM","2018/07/07 17:39:22","新北市三重區正義北路15號","121.49773","25.0628666666667","6500200","三重區"
"241025","271-UM","2018/07/07 17:39:17","新北市五股區成泰路四段22巷6-4號","121.454216666667","25.10491","6500200","三重區"
"241007","398-BY","2018/07/07 17:39:25","新北市三重區車路頭街163號","121.483646666667","25.0773466666667","6500200","三重區"
"241004","475-VK","2018/07/07 17:39:22","新北市三重區集賢路102號","121.49205","25.0888566666667","6500200","三重區"
"241014","543-UM","2018/07/07 17:39:14","新北市三重區河邊北街70-3號","121.504356666667","25.0683616666667","6500200","三重區"
"241023","545-UM","2018/07/07 17:39:13","新北市三重區忠孝路三段50巷98號","121.483606666667","25.0643016666667","6500200","三重區"
"241019","KEA-2593","2018/07/07 17:39:19","新北市三重區六張街205號","121.488665","25.068615","6500200","三重區"
"241006","AAD-863","2018/07/07 17:39:23","新北市八里區中山路三段369號","121.373185","25.1381833333333","6500200","三重區"
"241012","941-UM","2018/07/07 17:39:22","新北市三重區仁興街39巷54號","121.50127","25.0766683333333","6500200","三重區"
"241033","AAC-255","2018/07/07 17:39:15","新北市三重區光復路一段51號","121.472263333333","25.0489183333333","6500200","三重區"
"235064","005-UY","2018/07/07 17:39:09","新北市中和區員山路36巷16-3號","121.485076666667","24.99127","6500300","中和區"
"235046","733-UM","2018/07/07 17:29:14","新北市中和區員山路36巷12號","121.48396","24.990835","6500300","中和區"
"247024","893-R6","2018/07/07 17:39:10","新北市蘆洲區長樂路125-1號","121.462081666667","25.0880833333333","6501400","蘆洲區"
"247014","546-UM","2018/07/07 17:39:10","新北市蘆洲區中山二路112號","121.47225","25.0817183333333","6501400","蘆洲區"
"247022","500-BY","2018/07/07 17:39:16","新北市蘆洲區三民路285號","121.467226666667","25.09021","6501400","蘆洲區"
"247009","341-TH","2018/07/07 17:39:24","新北市蘆洲區中山一路74巷51號","121.479735","25.0814666666667","6501400","蘆洲區"
"247012","339-TH","2018/07/07 17:39:14","新北市蘆洲區民權路3巷10號","121.476023333333","25.085365","6501400","蘆洲區"
"247004","337-TH","2018/07/07 17:39:18","新北市蘆洲區長安街170號","121.459193333333","25.083345","6501400","蘆洲區"
"247006","336-TH","2018/07/07 17:39:18","新北市蘆洲區長安街60號","121.46299","25.0798533333333","6501400","蘆洲區"
"247018","057-VK","2018/07/07 17:39:14","新北市蘆洲區三民路110巷47號","121.472621666667","25.0880366666667","6501400","蘆洲區"
"247008","056-VK","2018/07/07 17:39:28","新北市蘆洲區民生街131巷3號","121.472481666667","25.0786483333333","6501400","蘆洲區"
"247016","007-UY","2018/07/07 17:39:25","新北市蘆洲區光華路70巷6號","121.467905","25.083415","6501400","蘆洲區"
"247002","002-UY","2018/07/07 17:39:12","新北市蘆洲區永平街63號","121.457431666667","25.0914883333333","6501400","蘆洲區"
"247020","001-UY","2018/07/07 17:39:21","新北市蘆洲區民族路464號","121.471873333333","25.0917633333333","6501400","蘆洲區"
"228003","097-TW","2018/07/07 17:39:28","新北市貢寮區仁理村仁和路33號","121.923955","25.0537983333333","6502600","貢寮區"
"228002","663-BX","2018/07/07 17:39:31","新北市貢寮區福隆里龜壽谷街27號","121.952215","25.0126516666667","6502600","貢寮區"
"224006","676-BX","2018/07/07 17:39:17","新北市瑞芳區傑魚坑路2號","121.795348333333","25.1103316666667","6501200","瑞芳區"
"224008","285-BY","2018/07/07 17:39:22","新北市瑞芳區瑞柑新村30號","121.828986666667","25.1067716666667","6501200","瑞芳區"
"224009","273-VK","2018/07/07 17:39:26","新北市瑞芳區烏勢巷145號","121.847945","25.1092183333333","6501200","瑞芳區"
"224005","271-BY","2018/07/07 17:39:29","新北市瑞芳區海濱路8-6號","121.831711666667","25.1261416666667","6501200","瑞芳區"
"227010","642-TC","2018/07/07 17:39:29","新北市雙溪區三貂里政光路3-1號","121.850768333333","25.0633833333333","6502500","雙溪區"
"251009","008-UM","2018/07/07 17:39:13","新北市淡水區中正路32號","121.443913333333","25.1691683333333","6501000","淡水區"
"251004","009-UM","2018/07/07 17:39:11","新北市淡水區中正東路二段141號","121.459241666667","25.148035","6501000","淡水區"
"251001","011-UM","2018/07/07 17:39:23","新北市淡水區民權路92巷35-1號","121.462228333333","25.1266383333333","6501000","淡水區"
"251013","KEA-2871","2018/07/07 17:39:13","新北市淡水區演戲埔腳12-1號","121.469295","25.194415","6501000","淡水區"
"251016","179-VK","2018/07/07 17:39:12","新北市淡水區埤島39-15號","121.452743333333","25.1958733333333","6501000","淡水區"
"251014","180-VK","2018/07/07 17:39:24","新北市淡水區公埔子16-6號","121.479676666667","25.2256166666667","6501000","淡水區"
"251008","181-VK","2018/07/07 17:39:14","新北市淡水區八勢路一段123巷10號","121.466566666667","25.1570783333333","6501000","淡水區"
"251015","182-VK","2018/07/07 17:37:52","新北市淡水區樹林口16號","121.477448333333","25.167195","6501000","淡水區"
"251010","413-VK","2018/07/07 17:39:18","新北市淡水區淡海路292號","121.419111666667","25.1889116666667","6501000","淡水區"
"251012","441-VK","2018/07/07 17:39:13","新北市淡水區北新路200巷8號","121.451773333333","25.17966","6501000","淡水區"
"251007","442-VK","2018/07/07 17:39:23","新北市淡水區民族路33巷2號","121.464313333333","25.1374383333333","6501000","淡水區"
"251005","443-VK","2018/07/07 17:39:22","新北市淡水區鄧公路33巷1號","121.451431666667","25.1711083333333","6501000","淡水區"
"251006","561-UM","2018/07/07 17:39:19","新北市淡水區大信街32號","121.442075","25.1771266666667","6501000","淡水區"
"251011","650-BX","2018/07/07 17:39:21","新北市淡水區小坪頂23-1號","121.48482","25.1566083333333","6501000","淡水區"
"251002","672-BX","2018/07/07 17:39:14","新北市淡水區清水街250號","121.440433333333","25.1722066666667","6501000","淡水區"
"251003","673-BX","2018/07/07 17:39:17","新北市淡水區中山北路一段71號","121.442061666667","25.17594","6501000","淡水區"
"207003","550-UM","2018/07/07 17:39:25","新北市萬里區龜吼里漁澳路64-2號","121.68766","25.1956533333333","6502800","萬里區"
"207004","225-TW","2018/07/07 17:39:18","新北市萬里區中幅里中福路19號","121.683343333333","25.164515","6502800","萬里區"
"252002","178-VK","2018/07/07 17:39:12","新北市三芝區智成街85號","121.505128333333","25.2556383333333","6502100","三芝區"
"252001","292-VK","2018/07/07 17:39:16","新北市三芝區淡金路一段83號","121.502086666667","25.258965","6502100","三芝區"
"237009","210-TH","2018/07/07 17:39:14","新北市三峽區中山路459巷163-3號","121.348645","24.9329433333333","6500900","三峽區"
"237013","252-BX","2018/07/07 17:39:12","新北市三峽區中華路8-1號","121.374965","24.9329916666667","6500900","三峽區"
"237012","275-BY","2018/07/07 17:39:12","新北市三峽區中山路459巷163-3號","121.348986666667","24.93314","6500900","三峽區"
"237006","5529-G3","2018/07/07 17:39:14","新北市三峽區介壽路一段498號","121.38576","24.932315","6500900","三峽區"
"237016","649-BX","2018/07/07 17:39:11","新北市三峽區白雞28號","121.36892","24.91239","6500900","三峽區"
"236070","105-UM","2018/07/07 17:39:17","新北市土城區城林路6巷80號","121.438461666667","24.9795883333333","6501300","土城區"
"236042","107-UM","2018/07/07 17:39:16","新北市土城區城林路6巷80號","121.438508333333","24.979765","6501300","土城區"
"236079","166-UM","2018/07/07 17:39:25","新北市土城區城林路6巷80號","121.43845","24.9796316666667","6501300","土城區"
"236038","271-VK","2018/07/07 17:39:15","新北市土城區城林路6巷80號","121.438438333333","24.97975","6501300","土城區"
"236014","752-BX","2018/07/07 17:39:27","新北市土城區城林路6巷80號","121.438528333333","24.9796183333333","6501300","土城區"
"236049","913-UM","2018/07/07 17:39:11","新北市土城區城林路6巷80號","121.43845","24.979595","6501300","土城區"
"242034","AAC-296","2018/07/07 17:39:11","新北市新莊區新莊路504號","121.446123333333","25.0332333333333","6500500","新莊區"
"242058","986-R7","2018/07/07 17:39:21","新北市新莊區中正路690號","121.42041","25.02832","6500500","新莊區"
"242053","751-BX","2018/07/07 17:39:23","新北市新莊區新樹路699巷9號","121.432573333333","25.0018416666667","6500500","新莊區"
"242027","615-BX","2018/07/07 17:39:11","新北市新莊區福壽街105號","121.457976666667","25.0507283333333","6500500","新莊區"
"242025","613-BX","2018/07/07 17:39:29","新北市新莊區思源路108號","121.460103333333","25.0465733333333","6500500","新莊區"
"242029","612-BX","2018/07/07 17:39:21","新北市新莊區復興路一段143號","121.45022","25.0433416666667","6500500","新莊區"
"242042","566-BX","2018/07/07 17:39:20","新北市新莊區中正路514巷17號","121.43305","25.032975","6500500","新莊區"
"242046","497-BY","2018/07/07 17:39:13","新北市新莊區中正路589號","121.43413","25.0324066666667","6500500","新莊區"
"242051","441-UM","2018/07/07 17:39:18","新北市新莊區西盛街201巷13號","121.429011666667","25.016935","6500500","新莊區"
"242056","440-UM","2018/07/07 17:39:18","新北市新莊區泰豐街28號","121.448401666667","25.0318083333333","6500500","新莊區"
"242007","413-TV","2018/07/07 17:39:20","新北市新莊區福樂街118巷5號","121.457278333333","25.048065","6500500","新莊區"
"242044","400-BY","2018/07/07 17:39:23","新北市新莊區中正路871巷26號","121.419455","25.026475","6500500","新莊區"
"242023","362-BY","2018/07/07 17:39:22","新北市新莊區公園路129-5號","121.457491666667","25.0408166666667","6500500","新莊區"
"242061","353-BY","2018/07/07 17:39:31","新北市新莊區瓊林南路90號","121.434151666667","25.0122783333333","6500500","新莊區"
"242009","132-UY","2018/07/07 17:39:23","新北市新莊區昌明街14巷2弄1號","121.457385","25.0527533333333","6500500","新莊區"
"242039","133-UY","2018/07/07 17:39:18","新北市新莊區民安路322號","121.429031666667","25.0219516666667","6500500","新莊區"
"242031","135-UY","2018/07/07 17:39:23","新北市新莊區新泰路380號","121.444156666667","25.04323","6500500","新莊區"
"242048","172-VK","2018/07/07 17:39:30","新北市新莊區萬安街141號","121.420531666667","25.0218333333333","6500500","新莊區"
"242011","173-VK","2018/07/07 17:39:22","新北市新莊區中港路556-1號","121.451613333333","25.05305","6500500","新莊區"
"242017","175-VK","2018/07/07 17:39:10","新北市新莊區復興路一段149巷21弄18號","121.449515","25.0441216666667","6500500","新莊區"
"242004","176-VK","2018/07/07 17:39:19","新北市新莊區自立街184號","121.456161666667","25.045435","6500500","新莊區"
"242015","346-TH","2018/07/07 17:39:13","新北市新莊區新泰路316號","121.445151666667","25.04154","6500500","新莊區"
"242036","347-TH","2018/07/07 17:39:20","新北市新莊區建福路59巷44號","121.42875","25.0277266666667","6500500","新莊區"
"242002","349-TH","2018/07/07 17:39:23","新北市新莊區新莊路298號","121.451141666667","25.033725","6500500","新莊區"
"242019","350-TH","2018/07/07 17:39:12","新北市新莊區中港路181號","121.454948333333","25.0415516666667","6500500","新莊區"
"242013","351-TH","2018/07/07 17:39:13","新北市新莊區中誠街98號","121.449915","25.0477583333333","6500500","新莊區"
"238015","755-BX","2018/07/07 17:39:25","新北市樹林區啟智街34號","121.420745","24.9932466666667","6500700","樹林區"
"238023","601-UM","2018/07/07 17:39:02","新北市樹林區三福街134號","121.405713333333","25.0162566666667","6500700","樹林區"
"238019","599-UM","2018/07/07 17:39:13","新北市樹林區太順街13號","121.419595","24.9801083333333","6500700","樹林區"
"238018","571-TV","2018/07/07 17:39:26","新北市樹林區保安街一段22-5號","121.427155","24.9934116666667","6500700","樹林區"
"238022","KEA-2213","2018/07/07 17:39:12","新北市樹林區中華路187巷1號","121.420521666667","24.9815966666667","6500700","樹林區"
"238021","KEA-2539","2018/07/07 17:39:10","新北市樹林區柑園街一段271-1號","121.394356666667","24.956375","6500700","樹林區"
"238025","303-VK","2018/07/07 17:39:27","新北市樹林區保安街二段217號","121.413308333333","25.0042","6500700","樹林區"
"238017","283-BY","2018/07/07 17:39:22","新北市樹林區三德街30巷33號","121.414788333333","25.0122166666667","6500700","樹林區"
"238014","282-BY","2018/07/07 17:39:16","新北市樹林區保安街一段313巷28號","121.416966666667","24.997425","6500700","樹林區"
"238020","268-VK","2018/07/07 17:39:18","新北市樹林區俊英街276號","121.424111666667","25.0127583333333","6500700","樹林區"
"238026","172-UY","2018/07/07 17:39:14","新北市樹林區新興街27-9號","121.400128333333","24.9726","6500700","樹林區"
"239007","AAC-297","2018/07/07 17:39:24","新北市鶯歌區鶯桃路182巷22號","121.337433333333","24.9561683333333","6500800","鶯歌區"
"239006","891-R6","2018/07/07 17:39:26","新北市鶯歌區永和街34巷23號","121.333843333333","24.96713","6500800","鶯歌區"
"239008","527-UM","2018/07/07 17:39:22","新北市鶯歌區大湖路732巷15弄4號","121.3328","24.977815","6500800","鶯歌區"
"239005","526-UM","2018/07/07 17:39:16","新北市鶯歌區鶯桃路二段21號","121.325576666667","24.97211","6500800","鶯歌區"
"239001","417-VK","2018/07/07 17:39:10","新北市鶯歌區中正三路176-1號","121.333376666667","24.9384333333333","6500800","鶯歌區"
"239003","360-BY","2018/07/07 17:39:26","新北市鶯歌區鶯桃路206巷54號","121.33806","24.9601483333333","6500800","鶯歌區"
"239002","359-BY","2018/07/07 17:39:25","新北市鶯歌區育智路82-1號","121.345116666667","24.9549066666667","6500800","鶯歌區"
"239004","193-VK","2018/07/07 17:39:28","新北市鶯歌區三鶯路128號","121.359638333333","24.944255","6500800","鶯歌區"
"221008","489-VK","2018/07/07 17:39:14","新北市汐止區康寧街901號","121.65129","25.0749966666667","6501100","汐止區"
"221015","131-UY","2018/07/07 17:39:21","新北市汐止區康寧街901號","121.650788333333","25.0752666666667","6501100","汐止區"
"221010","269-BY","2018/07/07 17:39:22","新北市汐止區汐萬路一段418巷27號","121.650095","25.0788916666667","6501100","汐止區"
"221031","353-TW","2018/07/07 17:39:17","新北市汐止區汐萬路一段256巷1號","121.651733333333","25.0748466666667","6501100","汐止區"
"221033","647-BX","2018/07/07 17:39:20","新北市汐止區林森街132巷6弄6號","121.624541666667","25.040535","6501100","汐止區"
"242021","281-VK","2018/07/07 17:39:27","新北市新莊區中華路一段65號","121.452121666667","25.0394733333333","6500500","新莊區"
