"lineid","car","time","location","longitude","latitude","cityid","cityname"
"234042","862-TW","2018/07/07 17:38:41","新北市永和區福和路1號","121.526356666667","25.009785","6500400","永和區"
"234026","9371-KE","2018/07/07 17:49:25","新北市永和區和平街107號","121.510976666667","25.0098116666667","6500400","永和區"
"234010","9373-KE","2018/07/07 17:36:52","新北市永和區福和路1號","121.525583333333","25.0093483333333","6500400","永和區"
"249005","172-UM","2018/07/07 17:49:12","新北市八里區荖阡坑路34-2號","121.402395","25.1309483333333","6502300","八里區"
"249001","173-UM","2018/07/07 17:49:23","新北市八里區龍米路二段135號","121.444718333333","25.1480583333333","6502300","八里區"
"249004","303-UY","2018/07/07 17:49:21","新北市八里區中華路一段309巷19-13號","121.41734","25.153355","6502300","八里區"
"249002","305-UY","2018/07/07 17:49:23","新北市八里區龍形五街37巷2號","121.44866","25.1327183333333","6502300","八里區"
"249003","759-BX","2018/07/07 17:49:22","新北市八里區中山路二段125號","121.405456666667","25.1518316666667","6502300","八里區"
"248020","225-UY","2018/07/07 17:49:23","新北市五股區中興路二段83巷26-6號","121.459958333333","25.0753133333333","6501500","五股區"
"248002","678-BX","2018/07/07 17:49:12","新北市五股區中興路二段37巷26號","121.460326666667","25.0750316666667","6501500","五股區"
"232011","375-UM","2018/07/07 17:49:28","新北市坪林區北宜路八段96號","121.705743333333","24.9349316666667","6502000","坪林區"
"244007","080-UY","2018/07/07 17:49:19","新北市林口區竹林路548號","121.387266666667","25.0847966666667","6501700","林口區"
"244019","403-UM","2018/07/07 17:49:12","新北市林口區麗園路121號","121.371593333333","25.067535","6501700","林口區"
"244013","742-UY","2018/07/07 17:49:26","新北市林口區中正路432號","121.384166666667","25.07777","6501700","林口區"
"244009","410-SL","2018/07/07 17:49:13","新北市林口區林口路303號","121.385566666667","25.0851483333333","6501700","林口區"
"244023","483-VK","2018/07/07 17:49:23","新北市林口區東湖路93巷95號","121.385688333333","25.0704183333333","6501700","林口區"
"244017","485-VK","2018/07/07 17:49:10","新北市林口區文化二路一段260巷1號","121.371395","25.0734633333333","6501700","林口區"
"244011","657-BX","2018/07/07 17:49:18","新北市林口區仁愛路一段669號","121.387651666667","25.0766883333333","6501700","林口區"
"244025","837-TS","2018/07/07 17:49:18","新北市林口區三民路122號","121.360446666667","25.0705816666667","6501700","林口區"
"244021","838-TS","2018/07/07 17:49:21","新北市林口區仁愛路一段123巷48號","121.397058333333","25.0708783333333","6501700","林口區"
"222002","016-RS","2018/07/07 17:49:23","新北市深坑區平埔街22巷17弄1號","121.614838333333","25.0008783333333","6501800","深坑區"
"222003","436-BY","2018/07/07 17:49:10","新北市深坑區阿柔洋60-1號","121.608598333333","24.9985","6501800","深坑區"
"231046","188-VK","2018/07/07 17:49:27","新北市新店區康雅崙路70號","121.533931666667","24.9266633333333","6500600","新店區"
"231055","AKT-0513","2018/07/07 17:49:16","新北市新店區安華路28-1號","121.519566666667","24.9606466666667","6500600","新店區"
"241024","065-VK","2018/07/07 17:49:28","新北市三重區車路頭街62巷53號","121.48281","25.0724133333333","6500200","三重區"
"241016","266-UM","2018/07/07 17:49:22","新北市三重區新北大道一段3-1號","121.490226666667","25.0613883333333","6500200","三重區"
"241025","271-UM","2018/07/07 17:49:17","新北市八里區中山路三段386號","121.368483333333","25.1358416666667","6500200","三重區"
"241004","475-VK","2018/07/07 17:49:22","新北市蘆洲區環堤大道92號","121.455315","25.085355","6500200","三重區"
"241006","AAD-863","2018/07/07 17:49:23","新北市八里區中山路三段382號","121.368683333333","25.1358533333333","6500200","三重區"
"241033","AAC-255","2018/07/07 17:49:15","新北市三重區重新路五段559號","121.470468333333","25.04598","6500200","三重區"
"235064","005-UY","2018/07/07 17:49:29","新北市中和區員山路36巷16-3號","121.485026666667","24.9912133333333","6500300","中和區"
"235063","006-UY","2018/07/07 17:49:16","新北市中和區員山路36巷16-2號","121.485228333333","24.99127","6500300","中和區"
"235065","098-UM","2018/07/07 17:49:19","新北市中和區員山路36巷16-2號","121.485413333333","24.9911633333333","6500300","中和區"
"235058","151-BY","2018/07/07 17:49:11","新北市中和區員山路36巷16-2號","121.485225","24.991605","6500300","中和區"
"235046","733-UM","2018/07/07 17:29:14","新北市中和區員山路36巷12號","121.48396","24.990835","6500300","中和區"
"247024","893-R6","2018/07/07 17:49:10","新北市蘆洲區光榮路61巷32號","121.461276666667","25.0894716666667","6501400","蘆洲區"
"247014","546-UM","2018/07/07 17:49:30","新北市蘆洲區保和街69巷31號","121.469855","25.08527","6501400","蘆洲區"
"247022","500-BY","2018/07/07 17:49:16","新北市蘆洲區中正路377號","121.464626666667","25.090745","6501400","蘆洲區"
"247009","341-TH","2018/07/07 17:49:28","新北市蘆洲區信義路214號","121.479041666667","25.0850416666667","6501400","蘆洲區"
"247012","339-TH","2018/07/07 17:49:14","新北市蘆洲區復興路107號","121.476958333333","25.0878316666667","6501400","蘆洲區"
"247004","337-TH","2018/07/07 17:49:28","新北市蘆洲區長安街267巷11號","121.457608333333","25.0833516666667","6501400","蘆洲區"
"247006","336-TH","2018/07/07 17:49:18","新北市蘆洲區九芎街90巷8號","121.465775","25.0802533333333","6501400","蘆洲區"
"247018","057-VK","2018/07/07 17:49:14","新北市蘆洲區民族路231號","121.477383333333","25.0898133333333","6501400","蘆洲區"
"247008","056-VK","2018/07/07 17:49:28","新北市蘆洲區信義路37巷7號","121.474266666667","25.0798516666667","6501400","蘆洲區"
"247016","007-UY","2018/07/07 17:49:25","新北市蘆洲區中正路185巷23弄21號","121.467581666667","25.0840883333333","6501400","蘆洲區"
"247002","002-UY","2018/07/07 17:49:12","新北市蘆洲區永平街32巷21弄34號","121.457863333333","25.0924266666667","6501400","蘆洲區"
"247020","001-UY","2018/07/07 17:49:21","新北市蘆洲區民義街71巷6號","121.473078333333","25.0903","6501400","蘆洲區"
"228003","097-TW","2018/07/07 17:49:28","新北市貢寮區真理里美艷山街5-1號","121.92656","25.0596033333333","6502600","貢寮區"
"228001","212-TW","2018/07/07 17:49:13","新北市貢寮區仁理村仁愛路95-1號","121.927671666667","25.055415","6502600","貢寮區"
"228002","663-BX","2018/07/07 17:49:11","新北市貢寮區福隆里外隆林街15號","121.958751666667","25.00369","6502600","貢寮區"
"224006","676-BX","2018/07/07 17:49:17","新北市瑞芳區傑魚坑路183號","121.788428333333","25.1082916666667","6501200","瑞芳區"
"224008","285-BY","2018/07/07 17:49:21","新北市瑞芳區明燈路一段100號","121.819203333333","25.1078333333333","6501200","瑞芳區"
"224009","273-VK","2018/07/07 17:49:26","新北市瑞芳區山尖路173號","121.852298333333","25.1117116666667","6501200","瑞芳區"
"224005","271-BY","2018/07/07 17:49:09","新北市瑞芳區海濱路38-1號","121.831166666667","25.1235216666667","6501200","瑞芳區"
"227010","642-TC","2018/07/07 17:49:29","新北市雙溪區三貂里政光路3-1號","121.850801666667","25.0633916666667","6502500","雙溪區"
"253006","295-VK","2018/07/07 17:49:21","新北市石門區中央路6號","121.566541666667","25.29141","6502200","石門區"
"208002","KEA-2872","2018/07/07 17:49:15","新北市金山區磺清路135號","121.639183333333","25.2277733333333","6502700","金山區"
"208003","665-BX","2018/07/07 17:49:28","新北市金山區磺清路135號","121.639155","25.2277366666667","6502700","金山區"
"251009","008-UM","2018/07/07 17:49:13","新北市淡水區長興街48號","121.444231666667","25.1716583333333","6501000","淡水區"
"251004","009-UM","2018/07/07 17:49:11","新北市淡水區民權一街3號","121.459236666667","25.1368866666667","6501000","淡水區"
"251001","011-UM","2018/07/07 17:49:23","新北市淡水區自強路201巷35號","121.462266666667","25.1267216666667","6501000","淡水區"
"251013","KEA-2871","2018/07/07 17:49:13","新北市淡水區泉洲厝31號","121.479618333333","25.1910266666667","6501000","淡水區"
"251016","179-VK","2018/07/07 17:49:12","新北市淡水區埤島39-15號","121.452741666667","25.1958766666667","6501000","淡水區"
"251014","180-VK","2018/07/07 17:49:24","新北市淡水區公埔子16-6號","121.481018333333","25.2245633333333","6501000","淡水區"
"251008","181-VK","2018/07/07 17:49:14","新北市淡水區八勢路一段147號","121.467461666667","25.157295","6501000","淡水區"
"251015","182-VK","2018/07/07 17:49:12","新北市淡水區興福寮1-7號","121.487195","25.16549","6501000","淡水區"
"251010","413-VK","2018/07/07 17:49:18","新北市淡水區淡海路280巷33弄34-2號","121.418726666667","25.1885816666667","6501000","淡水區"
"251012","441-VK","2018/07/07 17:49:13","新北市淡水區北投子86-5號","121.46929","25.183525","6501000","淡水區"
"251007","442-VK","2018/07/07 17:49:23","新北市淡水區民生路16巷12號","121.461243333333","25.13746","6501000","淡水區"
"251005","443-VK","2018/07/07 17:49:22","新北市淡水區學府路100巷1號","121.450325","25.1718633333333","6501000","淡水區"
"251006","561-UM","2018/07/07 17:49:19","新北市淡水區大信街1巷16號","121.440338333333","25.1767366666667","6501000","淡水區"
"251011","650-BX","2018/07/07 17:49:01","新北市淡水區吳(仔)厝70號","121.47957","25.149645","6501000","淡水區"
"251002","672-BX","2018/07/07 17:49:14","新北市淡水區中山路38號","121.444316666667","25.1699483333333","6501000","淡水區"
"251003","673-BX","2018/07/07 17:49:17","新北市淡水區大忠街5巷2號","121.443136666667","25.176305","6501000","淡水區"
"207003","550-UM","2018/07/07 17:49:25","新北市萬里區野柳里東澳路55號","121.692008333333","25.20327","6502800","萬里區"
"207004","225-TW","2018/07/07 17:49:18","新北市萬里區萬里里瑪鋉頂街61號","121.688393333333","25.1804516666667","6502800","萬里區"
"252002","178-VK","2018/07/07 17:49:12","新北市三芝區智成街43號","121.504126666667","25.256385","6502100","三芝區"
"252001","292-VK","2018/07/07 17:49:24","新北市三芝區中興街一段8號","121.497445","25.25948","6502100","三芝區"
"237004","KEA-2597","2018/07/07 17:49:10","新北市三峽區中山路66號","121.367246666667","24.9348983333333","6500900","三峽區"
"237009","210-TH","2018/07/07 17:49:14","新北市三峽區大勇路3巷24號","121.368018333333","24.93686","6500900","三峽區"
"237013","252-BX","2018/07/07 17:49:32","新北市三峽區愛國路33-9號","121.374908333333","24.9328583333333","6500900","三峽區"
"237012","275-BY","2018/07/07 17:49:12","新北市三峽區民生街79號","121.374758333333","24.93588","6500900","三峽區"
"237008","302-VK","2018/07/07 17:49:25","新北市三峽區正義街2號","121.369703333333","24.9200716666667","6500900","三峽區"
"237006","5529-G3","2018/07/07 17:49:14","新北市三峽區介壽路二段38巷8號","121.391356666667","24.935045","6500900","三峽區"
"237016","649-BX","2018/07/07 17:49:31","新北市三峽區白雞129-1號","121.3962","24.9082116666667","6500900","三峽區"
"237010","706-TV","2018/07/07 17:49:20","新北市三峽區文化路242號","121.367471666667","24.93583","6500900","三峽區"
"236070","105-UM","2018/07/07 17:49:17","新北市土城區青雲路322巷18號","121.457731666667","24.9764433333333","6501300","土城區"
"236042","107-UM","2018/07/07 17:49:16","新北市土城區城林路6巷80號","121.438483333333","24.9797933333333","6501300","土城區"
"236079","166-UM","2018/07/07 17:49:25","新北市土城區中華路二段243號","121.437458333333","24.97256","6501300","土城區"
"236030","253-BX","2018/07/07 17:49:14","新北市土城區城林路6巷80號","121.438631666667","24.9796766666667","6501300","土城區"
"236026","269-VK","2018/07/07 17:49:28","新北市土城區中華路二段2號","121.43913","24.9797016666667","6501300","土城區"
"236038","271-VK","2018/07/07 17:49:15","新北市土城區城林路6巷80號","121.43848","24.9797583333333","6501300","土城區"
"236014","752-BX","2018/07/07 17:49:27","新北市土城區城林路6巷80號","121.438545","24.979585","6501300","土城區"
"236059","912-UM","2018/07/07 17:49:18","新北市土城區中華路二段126號","121.437815","24.97364","6501300","土城區"
"236049","913-UM","2018/07/07 17:49:11","新北市土城區城林路6巷80號","121.43846","24.979545","6501300","土城區"
"242034","AAC-296","2018/07/07 17:49:31","新北市新莊區新莊路783號","121.44112","25.032665","6500500","新莊區"
"242058","986-R7","2018/07/07 17:49:29","新北市新莊區中正路730-13號","121.414521666667","25.0234233333333","6500500","新莊區"
"242053","751-BX","2018/07/07 17:49:23","新北市新莊區民安西路470-1號","121.431753333333","25.0078783333333","6500500","新莊區"
"242027","615-BX","2018/07/07 17:49:11","新北市新莊區福壽街165號","121.457933333333","25.0535483333333","6500500","新莊區"
"242025","613-BX","2018/07/07 17:49:23","新北市三重區新北大道二段27號","121.471231666667","25.0612966666667","6500500","新莊區"
"242029","612-BX","2018/07/07 17:49:21","新北市新莊區復興路一段2號","121.445535","25.041265","6500500","新莊區"
"242042","566-BX","2018/07/07 17:49:20","新北市新莊區中正路612-1號","121.426133333333","25.0302433333333","6500500","新莊區"
"242046","497-BY","2018/07/07 17:49:13","新北市新莊區建國一路23號","121.434073333333","25.031555","6500500","新莊區"
"242051","441-UM","2018/07/07 17:49:17","新北市新莊區西盛街232巷20號","121.427303333333","25.0164433333333","6500500","新莊區"
"242056","440-UM","2018/07/07 17:49:23","新北市新莊區瓊林路38巷39號","121.446516666667","25.0303466666667","6500500","新莊區"
"242007","413-TV","2018/07/07 17:49:20","新北市新莊區福樂街122號","121.456963333333","25.0478116666667","6500500","新莊區"
"242044","400-BY","2018/07/07 17:49:30","新北市新莊區雙鳳路9號","121.41711","25.0266966666667","6500500","新莊區"
"242023","362-BY","2018/07/07 17:49:22","新北市新莊區福樂街78號","121.457665","25.0467733333333","6500500","新莊區"
"242061","353-BY","2018/07/07 17:49:11","新北市新莊區新樹路603號","121.433231666667","25.0057083333333","6500500","新莊區"
"242009","132-UY","2018/07/07 17:49:03","新北市新莊區昌明街30巷7號","121.456631666667","25.05309","6500500","新莊區"
"242039","133-UY","2018/07/07 17:48:59","新北市新莊區民安路170號","121.425081666667","25.0240766666667","6500500","新莊區"
"242031","135-UY","2018/07/07 17:49:23","新北市新莊區新泰路357巷3弄5號","121.442358333333","25.0411","6500500","新莊區"
"242048","172-VK","2018/07/07 17:49:10","新北市新莊區萬安街62號","121.420915","25.0235283333333","6500500","新莊區"
"242011","173-VK","2018/07/07 17:49:08","新北市新莊區中港路684號","121.450833333333","25.0566683333333","6500500","新莊區"
"242017","175-VK","2018/07/07 17:49:10","新北市新莊區永安街62號","121.451148333333","25.044715","6500500","新莊區"
"242004","176-VK","2018/07/07 17:49:19","新北市新莊區自立街244號","121.458581666667","25.0455116666667","6500500","新莊區"
"242015","346-TH","2018/07/07 17:49:12","新北市新莊區新泰路478號","121.442808333333","25.04538","6500500","新莊區"
"242036","347-TH","2018/07/07 17:49:20","新北市新莊區建福路57號","121.426835","25.0273966666667","6500500","新莊區"
"242002","349-TH","2018/07/07 17:49:19","新北市新莊區景德路87號","121.452178333333","25.03492","6500500","新莊區"
"242019","350-TH","2018/07/07 17:49:13","新北市新莊區民樂街48號","121.458048333333","25.0415283333333","6500500","新莊區"
"242013","351-TH","2018/07/07 17:49:25","新北市新莊區中誠街166巷2號","121.44817","25.0476466666667","6500500","新莊區"
"238015","755-BX","2018/07/07 17:49:25","新北市樹林區長壽街25巷1弄1號","121.4205","24.994695","6500700","樹林區"
"238023","601-UM","2018/07/07 17:49:28","新北市樹林區龍興街32巷24號","121.402035","25.0156033333333","6500700","樹林區"
"238019","599-UM","2018/07/07 17:49:13","新北市樹林區太平路196-1號","121.418545","24.97574","6500700","樹林區"
"238018","571-TV","2018/07/07 17:49:26","新北市樹林區鎮前街142號","121.424655","24.990455","6500700","樹林區"
"238022","KEA-2213","2018/07/07 17:49:12","新北市樹林區太順街62巷3弄8號","121.417241666667","24.979665","6500700","樹林區"
"238021","KEA-2539","2018/07/07 17:49:10","新北市樹林區柑園街一段60號","121.402923333333","24.9603116666667","6500700","樹林區"
"238025","303-VK","2018/07/07 17:49:26","新北市樹林區三俊街45號","121.412685","25.015665","6500700","樹林區"
"238017","283-BY","2018/07/07 17:49:22","新北市樹林區三德街1號","121.412693333333","25.012695","6500700","樹林區"
"238014","282-BY","2018/07/07 17:49:23","新北市樹林區大安路145巷4號","121.422236666667","24.9966933333333","6500700","樹林區"
"238020","268-VK","2018/07/07 17:49:18","新北市新莊區龍安路254巷18-1號","121.420643333333","25.0183883333333","6500700","樹林區"
"238026","172-UY","2018/07/07 17:49:14","新北市樹林區中洲街51巷4號","121.396728333333","24.97099","6500700","樹林區"
"238016","169-UY","2018/07/07 17:49:20","新北市樹林區啟智街137巷9弄2號","121.417638333333","24.9880233333333","6500700","樹林區"
"239007","AAC-297","2018/07/07 17:49:24","新北市鶯歌區鶯桃路94巷17號","121.340325","24.95414","6500800","鶯歌區"
"239006","891-R6","2018/07/07 17:49:26","新北市鶯歌區鶯桃路438號","121.333028333333","24.964755","6500800","鶯歌區"
"239008","527-UM","2018/07/07 17:49:22","新北市鶯歌區香賓街17號","121.33712","24.9797466666667","6500800","鶯歌區"
"239005","526-UM","2018/07/07 17:49:16","新北市鶯歌區鳳吉四街22號","121.326921666667","24.9726716666667","6500800","鶯歌區"
"239001","417-VK","2018/07/07 17:49:10","新北市鶯歌區中正三路328號","121.327801666667","24.93505","6500800","鶯歌區"
"239003","360-BY","2018/07/07 17:49:26","新北市鶯歌區永吉街46巷37號","121.33474","24.9575383333333","6500800","鶯歌區"
"239002","359-BY","2018/07/07 17:49:25","新北市鶯歌區永明街135號","121.3428","24.9556566666667","6500800","鶯歌區"
"239004","193-VK","2018/07/07 17:49:08","新北市鶯歌區文化路136巷52號","121.350963333333","24.950575","6500800","鶯歌區"
"221008","489-VK","2018/07/07 17:49:14","新北市汐止區汐萬路一段333巷23號","121.64792","25.076215","6501100","汐止區"
"221036","130-UY","2018/07/07 17:49:13","新北市汐止區汐萬路一段227號","121.651821666667","25.07267","6501100","汐止區"
"221015","131-UY","2018/07/07 17:49:21","新北市汐止區長江街256巷3號","121.66523","25.080285","6501100","汐止區"
"221010","269-BY","2018/07/07 17:49:22","新北市汐止區汐萬路二段126號","121.64824","25.0852966666667","6501100","汐止區"
"221012","278-VK","2018/07/07 17:49:16","新北市汐止區吉祥街27巷16號","121.666711666667","25.0811366666667","6501100","汐止區"
"221032","280-BY","2018/07/07 17:49:18","新北市汐止區樟樹二路101號","121.640171666667","25.0661933333333","6501100","汐止區"
"221027","281-BY","2018/07/07 17:49:17","新北市汐止區康寧街901號","121.651153333333","25.0751383333333","6501100","汐止區"
"221029","298-VK","2018/07/07 17:49:22","新北市汐止區康寧街901號","121.651646666667","25.0748483333333","6501100","汐止區"
"221031","353-TW","2018/07/07 17:49:17","新北市汐止區中興路96巷1-3號","121.63548","25.0625866666667","6501100","汐止區"
"221035","622-UM","2018/07/07 17:49:24","新北市汐止區汐萬路一段211巷15號","121.651381666667","25.0717466666667","6501100","汐止區"
"221025","623-UM","2018/07/07 17:49:19","新北市汐止區大同路二段187巷33號","121.651853333333","25.0656033333333","6501100","汐止區"
"221038","646-BX","2018/07/07 17:49:24","新北市汐止區汐萬路一段208號","121.652093333333","25.072325","6501100","汐止區"
"221033","647-BX","2018/07/07 17:49:20","新北市汐止區林森街78號","121.623768333333","25.0403566666667","6501100","汐止區"
"221002","707-TV","2018/07/07 17:49:26","新北市汐止區康寧街901號","121.651326666667","25.0749983333333","6501100","汐止區"
"221002","753-BX","2018/07/07 17:49:17","新北市汐止區大同路二段341-1號","121.656146666667","25.067245","6501100","汐止區"
"242021","281-VK","2018/07/07 17:49:27","新北市新莊區復興路一段222號","121.453106666667","25.0438083333333","6500500","新莊區"
