"lineid","car","time","location","longitude","latitude","cityid","cityname"
"234046","148-BY","2018/07/07 19:39:09","新北市永和區永元路122號","121.52303","25.0026466666667","6500400","永和區"
"234007","207-UY","2018/07/07 19:39:24","新北市永和區中和路423號","121.509305","25.0007033333333","6500400","永和區"
"234081","298-R6","2018/07/07 19:39:14","新北市永和區國中路104巷11號","121.524643333333","25.0071416666667","6500400","永和區"
"234038","336-UY","2018/07/07 19:39:20","新北市永和區民樂街29號","121.52776","25.0014916666667","6500400","永和區"
"234064","337-UY","2018/07/07 19:39:20","新北市永和區秀朗路一段192巷6弄14號","121.51907","25.00229","6500400","永和區"
"234070","552-UM","2018/07/07 19:39:10","新北市永和區永和路二段207號","121.515453333333","25.0137583333333","6500400","永和區"
"234086","553-UM","2018/07/07 19:39:14","新北市永和區永亨路127號","121.524521666667","25.0040916666667","6500400","永和區"
"234017","745-BX","2018/07/07 19:39:24","新北市永和區永和路二段425巷75弄5號","121.513503333333","25.0171066666667","6500400","永和區"
"234030","746-BX","2018/07/07 19:39:10","新北市永和區民生路35號","121.52281","24.9981716666667","6500400","永和區"
"234054","KEA-2590","2018/07/07 19:39:07","新北市永和區竹林路39巷22號","121.518968333333","25.014775","6500400","永和區"
"234013","KEA-2591","2018/07/07 19:39:12","新北市永和區永平路203巷1號","121.509361666667","25.0098733333333","6500400","永和區"
"234061","AAD-866","2018/07/07 19:39:08","新北市永和區中正路399號","121.517108333333","25.0042916666667","6500400","永和區"
"234042","862-TW","2018/07/07 19:39:01","新北市永和區永貞路304號","121.512016666667","25.0047183333333","6500400","永和區"
"234050","863-TW","2018/07/07 19:39:10","新北市永和區保福路二段163巷2號","121.509388333333","25.0147816666667","6500400","永和區"
"234026","9371-KE","2018/07/07 19:39:22","新北市永和區中和路501巷5號","121.510433333333","25.00265","6500400","永和區"
"249004","303-UY","2018/07/07 19:39:14","新北市八里區中山路一段268巷5弄11號","121.414361666667","25.1603266666667","6502300","八里區"
"249002","305-UY","2018/07/07 19:38:25","新北市八里區頂寮二街33-1號","121.450316666667","25.125215","6502300","八里區"
"249003","759-BX","2018/07/07 19:39:15","新北市八里區華峰三街29號","121.399426666667","25.1458883333333","6502300","八里區"
"248016","026-BX","2018/07/07 19:39:16","新北市五股區成泰路四段26號","121.454771666667","25.1080833333333","6501500","五股區"
"248008","095-VK","2018/07/07 19:39:10","新北市五股區四維路116-7號","121.468345","25.074405","6501500","五股區"
"248020","225-UY","2018/07/07 19:39:10","新北市五股區中直路30號","121.423368333333","25.1125516666667","6501500","五股區"
"248012","247-BX","2018/07/07 19:39:09","新北市五股區成泰路二段25號","121.437133333333","25.0816116666667","6501500","五股區"
"248014","261-SL","2018/07/07 19:39:23","新北市五股區五福路52巷3弄8號","121.43338","25.0901","6501500","五股區"
"248010","272-BY","2018/07/07 19:39:20","新北市五股區自強路115號","121.432266666667","25.0705066666667","6501500","五股區"
"248004","677-BX","2018/07/07 19:39:25","新北市五股區成泰路二段7號","121.437013333333","25.08131","6501500","五股區"
"248002","678-BX","2018/07/07 19:39:12","新北市五股區成泰路三段577巷77號","121.449726666667","25.1036966666667","6501500","五股區"
"234023","9380-KE","2018/07/07 19:39:08","新北市永和區竹林路91巷51弄2號","121.52165","25.0133166666667","6500400","永和區"
"234077","969-R7","2018/07/07 19:39:21","新北市永和區民族街67巷12號","121.519108333333","24.9971383333333","6500400","永和區"
"234074","AAC-211","2018/07/07 19:39:22","新北市永和區竹林路225巷15號","121.521648333333","25.0085716666667","6500400","永和區"
"234067","AAC-212","2018/07/07 19:39:09","新北市永和區永貞路375號","121.508405","25.008285","6500400","永和區"
"234003","AAC-295","2018/07/07 19:39:12","新北市永和區安樂路348號","121.514525","25.00643","6500400","永和區"
"244019","403-UM","2018/07/07 19:39:12","新北市林口區太平里181號","121.36526","25.1350466666667","6501700","林口區"
"243010","267-VK","2018/07/07 19:39:22","新北市泰山區民生路79號","121.431871666667","25.0516","6501600","泰山區"
"243013","AAD-798","2018/07/07 19:39:18","新北市泰山區應化街7號","121.423868333333","25.0437083333333","6501600","泰山區"
"243009","297-R6","2018/07/07 19:39:13","新北市泰山區美寧街58號","121.43083","25.064685","6501600","泰山區"
"243016","380-SR","2018/07/07 19:39:02","新北市泰山區明志路三段206巷17號","121.422216666667","25.03722","6501600","泰山區"
"243015","421-VK","2018/07/07 19:38:55","新北市泰山區文程路19-1號","121.428253333333","25.049375","6501600","泰山區"
"243011","KEA-2215","2018/07/07 19:39:17","新北市泰山區貴子路67巷17弄1號","121.430786666667","25.040665","6501600","泰山區"
"243012","646-TV","2018/07/07 19:39:10","新北市泰山區全興路167號","121.434688333333","25.0557666666667","6501600","泰山區"
"243014","680-BX","2018/07/07 19:39:09","新北市泰山區仁愛路41號","121.432358333333","25.0551416666667","6501600","泰山區"
"222002","016-RS","2018/07/07 19:39:23","新北市深坑區北深路一段177號","121.632515","25.010875","6501800","深坑區"
"222003","436-BY","2018/07/07 19:39:10","新北市深坑區深南路51-1號","121.62127","25.009815","6501800","深坑區"
"231044","001-UM","2018/07/07 19:39:21","新北市新店區北新路三段111號","121.541436666667","24.9823316666667","6500600","新店區"
"231041","002-UM","2018/07/07 19:39:14","新北市新店區中正路485號","121.533856666667","24.98204","6500600","新店區"
"231040","047-UY","2018/07/07 19:39:28","新北市新店區中正路75巷71號","121.54316","24.9687766666667","6500600","新店區"
"231065","110-UY","2018/07/07 19:39:21","新北市新店區安祥路109巷33號","121.476408333333","24.959435","6500600","新店區"
"231048","187-VK","2018/07/07 19:39:09","新北市新店區中興路一段288巷7號","121.54633","24.9687833333333","6500600","新店區"
"231046","188-VK","2018/07/07 19:39:19","新北市新店區自由街13號","121.535551666667","24.9748533333333","6500600","新店區"
"231054","KEA-2219","2018/07/07 19:39:17","新北市新店區文中路40號","121.539571666667","24.9565433333333","6500600","新店區"
"231057","256-BX","2018/07/07 19:39:20","新北市新店區橘園一路11號","121.54793","24.9340416666667","6500600","新店區"
"231042","268-BY","2018/07/07 19:39:19","新北市新店區中興路一段203號","121.543655","24.96567","6500600","新店區"
"231051","278-BY","2018/07/07 19:39:14","新北市新店區中央四街29號","121.528718333333","24.974425","6500600","新店區"
"231050","AAD-862","2018/07/07 19:39:17","新北市新店區秀水路19號","121.554838333333","24.9549333333333","6500600","新店區"
"231059","355-BY","2018/07/07 19:39:11","新北市新店區安和路三段109號","121.517593333333","24.98464","6500600","新店區"
"231058","3713-VJ","2018/07/07 19:39:15","新北市新店區中正路102巷4號","121.543326666667","24.970905","6500600","新店區"
"231066","4716-K9","2018/07/07 19:39:20","新北市新店區安康路三段165巷4號","121.489575","24.9513216666667","6500600","新店區"
"231056","4715-K9","2018/07/07 19:39:11","新北市新店區安興路137號","121.516335","24.9794033333333","6500600","新店區"
"231067","4772-VM","2018/07/07 19:39:17","新北市新店區安康路二段320巷15弄18號","121.50235","24.959075","6500600","新店區"
"231049","513-UM","2018/07/07 19:39:07","新北市新店區大豐路43號","121.540265","24.9798466666667","6500600","新店區"
"231063","616-UM","2018/07/07 19:39:07","新北市新店區達觀路41號","121.502823333333","24.9381966666667","6500600","新店區"
"231061","619-UM","2018/07/07 19:39:18","新北市新店區安民街46號","121.515948333333","24.9655133333333","6500600","新店區"
"231064","719-UM","2018/07/07 19:39:25","新北市新店區安和路一段52巷2-1號","121.517686666667","24.9663933333333","6500600","新店區"
"231052","719-UY","2018/07/07 19:39:19","新北市新店區新烏路二段468號","121.552543333333","24.9083566666667","6500600","新店區"
"231062","720-UM","2018/07/07 19:39:28","新北市新店區碧潭路60號","121.534518333333","24.9569066666667","6500600","新店區"
"231060","897-TW","2018/07/07 19:39:27","新北市新店區安康路二段208號","121.510218333333","24.9595183333333","6500600","新店區"
"231045","898-TW","2018/07/07 19:39:21","新北市新店區北宜路二段208號","121.55937","24.9543066666667","6500600","新店區"
"231043","899-TW","2018/07/07 19:39:11","新北市新店區北新路二段10號","121.542785","24.9711516666667","6500600","新店區"
"231055","AKT-0513","2018/07/07 19:39:16","新北市新店區新生街5巷13號","121.539811666667","24.9656766666667","6500600","新店區"
"241011","013-R5","2018/07/07 19:39:16","新北市三重區秀江街196號","121.497623333333","25.0716216666667","6500200","三重區"
"241028","022-UY","2018/07/07 19:39:26","新北市三重區中正南路163號","121.493786666667","25.056065","6500200","三重區"
"241008","059-VK","2018/07/07 19:39:18","新北市三重區永福街135巷18號","121.478085","25.0769783333333","6500200","三重區"
"241022","060-VK","2018/07/07 19:39:19","新北市三重區中正北路166號","121.484181666667","25.0660566666667","6500200","三重區"
"241015","062-VK","2018/07/07 19:39:28","新北市三重區福德北路55號","121.502141666667","25.0652266666667","6500200","三重區"
"241026","066-VK","2018/07/07 19:39:10","新北市三重區文化南路65巷10號","121.499711666667","25.060795","6500200","三重區"
"241003","091-VK","2018/07/07 19:39:22","新北市三重區五華街93巷70號","121.494266666667","25.0852883333333","6500200","三重區"
"241009","267-UM","2018/07/07 19:39:20","新北市三重區三和路四段406巷8號","121.480903333333","25.0795666666667","6500200","三重區"
"241032","269-UM","2018/07/07 19:39:23","新北市三重區重陽路一段60巷73號","121.484346666667","25.0582483333333","6500200","三重區"
"241013","270-UM","2018/07/07 19:39:12","新北市三重區仁賢街7號","121.495871666667","25.0746033333333","6500200","三重區"
"241025","271-UM","2018/07/07 19:39:16","新北市三重區頂崁街206巷1弄8號","121.47682","25.0668633333333","6500200","三重區"
"241007","398-BY","2018/07/07 19:39:25","新北市三重區三和路四段125巷65號","121.48708","25.0784316666667","6500200","三重區"
"241035","KEA-2210","2018/07/07 19:39:19","新北市三重區正義北路99號","121.496985","25.0653716666667","6500200","三重區"
"241031","413-TH","2018/07/07 19:39:10","新北市三重區重新路四段256號","121.485931666667","25.0533416666667","6500200","三重區"
"241004","475-VK","2018/07/07 19:39:17","新北市三重區五華街74號","121.493343333333","25.08202","6500200","三重區"
"241030","480-VK","2018/07/07 19:39:19","新北市三重區新興路30-1號","121.491803333333","25.0531116666667","6500200","三重區"
"241014","543-UM","2018/07/07 19:39:14","新北市三重區河邊北街84號","121.50426","25.069295","6500200","三重區"
"241023","545-UM","2018/07/07 19:39:13","新北市三重區忠孝路三段99巷16號","121.479596666667","25.064255","6500200","三重區"
"241001","547-UM","2018/07/07 19:39:15","新北市三重區仁愛街315巷35號","121.494033333333","25.0799666666667","6500200","三重區"
"241019","KEA-2593","2018/07/07 19:39:11","新北市三重區六張街194巷2弄1號","121.488551666667","25.0682383333333","6500200","三重區"
"241006","AAD-863","2018/07/07 19:39:23","新北市三重區聯華街110號","121.485215","25.0751","6500200","三重區"
"241020","743-BX","2018/07/07 19:30:28","新北市三重區三和路四段20巷11號","121.490538333333","25.0739166666667","6500200","三重區"
"241017","887-TS","2018/07/07 19:39:24","新北市三重區重陽路三段5巷30號","121.491268333333","25.065445","6500200","三重區"
"241012","941-UM","2018/07/07 19:39:21","新北市三重區河邊北街256巷39號","121.5004","25.0758633333333","6500200","三重區"
"241029","942-UM","2018/07/07 19:39:15","新北市三重區同安街122-1號","121.493336666667","25.0559716666667","6500200","三重區"
"235066","003-UY","2018/07/07 19:39:09","新北市中和區景新街164號","121.505788333333","24.99708","6500300","中和區"
"235064","005-UY","2018/07/07 19:39:29","新北市中和區南山路123號","121.502356666667","24.997155","6500300","中和區"
"235063","006-UY","2018/07/07 19:39:16","新北市中和區連城路139巷66號","121.496721666667","24.9967116666667","6500300","中和區"
"235056","096-UM","2018/07/07 19:39:10","新北市中和區員山路581巷2弄1號","121.47793","25.0093166666667","6500300","中和區"
"235039","097-UM","2018/07/07 19:39:07","新北市中和區景德街1號","121.519258333333","24.991275","6500300","中和區"
"235065","098-UM","2018/07/07 19:39:18","新北市中和區永和路24號","121.49943","25.00355","6500300","中和區"
"235040","150-BY","2018/07/07 19:39:24","新北市中和區保健路44巷23號","121.508978333333","24.99657","6500300","中和區"
"235058","151-BY","2018/07/07 19:39:10","新北市中和區員山路124巷42號","121.482613333333","24.99609","6500300","中和區"
"235055","183-VK","2018/07/07 19:39:26","新北市中和區中山路三段179巷5號","121.472966666667","25.00591","6500300","中和區"
"235038","185-VK","2018/07/07 19:39:29","新北市中和區自立路20巷1號","121.522141666667","24.9934083333333","6500300","中和區"
"235049","186-VK","2018/07/07 19:39:10","新北市中和區景新街220號","121.507238333333","24.9950933333333","6500300","中和區"
"235067","255-BX","2018/07/07 19:39:11","新北市中和區新生街196號","121.483795","24.999355","6500300","中和區"
"235044","293-VK","2018/07/07 19:39:08","新北市中和區南山路310號","121.50787","24.9868883333333","6500300","中和區"
"235072","301-VK","2018/07/07 19:39:11","新北市中和區連城路263巷4弄4號","121.491601666667","24.9957833333333","6500300","中和區"
"235043","352-BY","2018/07/07 19:39:13","新北市中和區興南路一段86號","121.509978333333","24.9893333333333","6500300","中和區"
"235042","KEA-2878","2018/07/07 19:39:14","新北市中和區景安路79巷37弄1號","121.507565","24.9964233333333","6500300","中和區"
"235050","4979-A6","2018/07/07 19:39:27","新北市中和區錦和路350-1號","121.490245","24.9935466666667","6500300","中和區"
"235070","558-UM","2018/07/07 19:39:17","新北市中和區連勝街37號","121.498321666667","24.9977016666667","6500300","中和區"
"235045","565-BX","2018/07/07 19:39:24","新北市中和區景新街487號","121.513633333333","24.9874233333333","6500300","中和區"
"235054","640-BX","2018/07/07 19:39:22","新北市中和區國光街107巷2弄29號","121.46929","24.998935","6500300","中和區"
"235060","647-TV","2018/07/07 19:39:23","新北市中和區新生街112巷16號","121.482746666667","25.0029533333333","6500300","中和區"
"235047","732-UM","2018/07/07 19:39:23","新北市中和區景安路203巷1號","121.505066666667","24.992675","6500300","中和區"
"235046","733-UM","2018/07/07 19:39:12","新北市中和區景新街496巷11號","121.513535","24.98673","6500300","中和區"
"235071","783-BX","2018/07/07 19:39:20","新北市中和區中正路839巷29號","121.483548333333","25.00229","6500300","中和區"
"235057","801-TS","2018/07/07 19:39:11","新北市中和區員山路341號","121.481253333333","25.0015833333333","6500300","中和區"
"235041","802-TS","2018/07/07 19:39:16","新北市中和區永貞路292號","121.512743333333","25.0042066666667","6500300","中和區"
"235052","805-TS","2018/07/07 19:39:08","新北市中和區華新街206巷14號","121.50635","24.9824683333333","6500300","中和區"
"235048","896-TW","2018/07/07 19:39:15","新北市中和區忠孝街1巷2-1號","121.509181666667","24.9830316666667","6500300","中和區"
"235053","900-TW","2018/07/07 19:39:23","新北市中和區國光街184巷2號","121.466906666667","25.0019933333333","6500300","中和區"
"235051","157-BY","2018/07/07 19:39:18","新北市中和區中興街132巷24號","121.49882","24.99178","6500300","中和區"
"235037","AAC-213","2018/07/07 19:39:18","新北市中和區成功路6號","121.526168333333","24.9938416666667","6500300","中和區"
"235059","AAC-215","2018/07/07 19:39:19","新北市中和區錦和路203巷7號","121.49119","24.9905383333333","6500300","中和區"
"220068","013-TV","2018/07/07 19:39:19","新北市板橋區中山路二段531巷34號","121.482831666667","25.02233","6500100","板橋區"
"220055","015-TV","2018/07/07 19:39:09","新北市板橋區國慶路149巷13弄12-4號","121.460378333333","24.9970516666667","6500100","板橋區"
"220065","072-UY","2018/07/07 19:39:08","新北市板橋區國泰街39巷2弄1號","121.468426666667","25.0063083333333","6500100","板橋區"
"220106","075-UY","2018/07/07 19:39:24","新北市板橋區江寧路三段46號","121.471626666667","25.0318866666667","6500100","板橋區"
"220069","AAD-861","2018/07/07 19:39:19","新北市板橋區稚暉街2巷46號","121.455256666667","25.002975","6500100","板橋區"
"247004","337-TH","2018/07/07 19:39:17","新北市蘆洲區長安街98巷9號","121.462525","25.0815016666667","6501400","蘆洲區"
"247008","056-VK","2018/07/07 19:39:20","新北市蘆洲區中山一路161號","121.475463333333","25.081605","6501400","蘆洲區"
"247002","002-UY","2018/07/07 19:39:18","新北市蘆洲區永平街32巷74號","121.460658333333","25.0935116666667","6501400","蘆洲區"
"226004","312-R5","2018/07/07 19:39:28","新北市平溪區十分里十分街56號","121.775438333333","25.0413416666667","6502400","平溪區"
"228003","097-TW","2018/07/07 19:39:28","新北市貢寮區真理里美艷山街15-3號","121.923706666667","25.06804","6502600","貢寮區"
"228001","212-TW","2018/07/07 19:39:12","新北市貢寮區真理里延平街49號","121.924548333333","25.0556216666667","6502600","貢寮區"
"224010","AGQ-8101","2018/07/07 19:37:01","新北市瑞芳區基山街152號","121.843076666667","25.108205","6501200","瑞芳區"
"224002","639-TC","2018/07/07 19:39:24","新北市瑞芳區三爪子坑路13巷153號","121.815081666667","25.1062883333333","6501200","瑞芳區"
"227010","642-TC","2018/07/07 19:39:09","新北市雙溪區新基里新基北街22號","121.867195","25.038915","6502500","雙溪區"
"227002","400-TW","2018/07/07 19:39:09","新北市雙溪區雙溪里內挖路4號","121.863548333333","25.036015","6502500","雙溪區"
"253006","295-VK","2018/07/07 19:39:21","新北市石門區小坑12-8號","121.595366666667","25.284985","6502200","石門區"
"222001","KEA-2212","2018/07/07 19:39:22","新北市深坑區深坑街150號","121.613031666667","25.0013466666667","6501800","深坑區"
"208002","KEA-2872","2018/07/07 19:39:14","新北市金山區中山路313巷21號","121.63515","25.2230816666667","6502700","金山區"
"208003","665-BX","2018/07/07 19:39:08","新北市金山區仁愛路1巷1號","121.638508333333","25.2200216666667","6502700","金山區"
"208001","761-BX","2018/07/07 19:39:21","新北市金山區南勢湖2號","121.62253","25.2194966666667","6502700","金山區"
"251009","008-UM","2018/07/07 19:39:13","新北市淡水區中山北路一段198巷11號","121.445303333333","25.179285","6501000","淡水區"
"251001","011-UM","2018/07/07 19:39:23","新北市淡水區民權路39號","121.459731666667","25.140685","6501000","淡水區"
"251013","KEA-2871","2018/07/07 19:39:12","新北市淡水區頂田寮路147號","121.462296666667","25.21647","6501000","淡水區"
"251016","179-VK","2018/07/07 19:39:12","新北市淡水區下圭柔山119-51號","121.450716666667","25.208495","6501000","淡水區"
"251014","180-VK","2018/07/07 19:39:24","新北市淡水區北勢子14-2號","121.47595","25.2309883333333","6501000","淡水區"
"251015","182-VK","2018/07/07 19:39:12","新北市淡水區北新路三段146號","121.489635","25.190435","6501000","淡水區"
"251010","413-VK","2018/07/07 19:39:18","新北市淡水區濱海路二段202巷65弄31號","121.435143333333","25.1933833333333","6501000","淡水區"
"251012","441-VK","2018/07/07 19:39:13","新北市淡水區中山北路三段156號","121.44558","25.1957383333333","6501000","淡水區"
"251007","442-VK","2018/07/07 19:39:23","新北市淡水區淡金路53號","121.455853333333","25.1612116666667","6501000","淡水區"
"251005","443-VK","2018/07/07 19:39:21","新北市淡水區原德路108巷2號","121.443326666667","25.1735183333333","6501000","淡水區"
"251006","561-UM","2018/07/07 19:39:19","新北市淡水區中山北路一段207巷74號","121.441448333333","25.179305","6501000","淡水區"
"251011","650-BX","2018/07/07 19:39:12","新北市淡水區紅樹林路207號","121.460756666667","25.1561416666667","6501000","淡水區"
"207003","550-UM","2018/07/07 19:39:24","新北市萬里區大鵬里下社33-2號","121.649325","25.2166533333333","6502800","萬里區"
"207004","225-TW","2018/07/07 19:39:18","新北市萬里區萬里里瑪鋉路21號","121.687293333333","25.1752616666667","6502800","萬里區"
"252002","178-VK","2018/07/07 19:39:12","新北市三芝區中正路一段36巷26號","121.503971666667","25.2589166666667","6502100","三芝區"
"252001","292-VK","2018/07/07 19:39:16","新北市三芝區公正街9號","121.49973","25.25748","6502100","三芝區"
"237004","KEA-2597","2018/07/07 19:39:10","新北市三峽區有木30號","121.427915","24.8629366666667","6500900","三峽區"
"237007","153-BY","2018/07/07 19:39:16","新北市三峽區二鬮路136巷121號","121.355931666667","24.910465","6500900","三峽區"
"237009","210-TH","2018/07/07 19:38:54","新北市三峽區中園街51號","121.368178333333","24.9260783333333","6500900","三峽區"
"237013","252-BX","2018/07/07 19:39:12","新北市三峽區介壽路一段550號","121.38715","24.933465","6500900","三峽區"
"237012","275-BY","2018/07/07 19:39:12","新北市三峽區光明路10號","121.373218333333","24.931115","6500900","三峽區"
"237008","302-VK","2018/07/07 19:39:25","新北市三峽區永安街218號","121.373093333333","24.9269866666667","6500900","三峽區"
"237006","5529-G3","2018/07/07 19:39:14","新北市三峽區中正路一段330-10號","121.369885","24.9246183333333","6500900","三峽區"
"237016","649-BX","2018/07/07 19:39:11","新北市三峽區溪東路207號","121.404548333333","24.9334166666667","6500900","三峽區"
"237010","706-TV","2018/07/07 19:39:19","新北市鶯歌區中正一路113-1號","121.370383333333","24.958645","6500900","三峽區"
"237005","AKY-6261","2018/07/07 19:39:23","新北市三峽區介壽路一段27號","121.375488333333","24.933215","6500900","三峽區"
"236070","105-UM","2018/07/07 19:39:16","新北市土城區金城路二段8-1號","121.447656666667","24.976625","6501300","土城區"
"236042","107-UM","2018/07/07 19:39:15","新北市土城區裕民路233巷15號","121.454351666667","24.9831916666667","6501300","土城區"
"236079","166-UM","2018/07/07 19:39:25","新北市土城區中州路27巷78號","121.412555","24.9563816666667","6501300","土城區"
"236030","253-BX","2018/07/07 19:39:14","新北市土城區福祥街51號","121.440833333333","24.9800233333333","6501300","土城區"
"236026","269-VK","2018/07/07 19:39:08","新北市土城區中央路二段61巷26號","121.443303333333","24.978665","6501300","土城區"
"236038","271-VK","2018/07/07 19:39:15","新北市土城區青雲路281巷13弄6號","121.459888333333","24.9804733333333","6501300","土城區"
"236021","401-BY","2018/07/07 19:39:15","新北市土城區峰廷街8號","121.468628333333","24.9876883333333","6501300","土城區"
"236059","912-UM","2018/07/07 19:39:18","新北市土城區中央路二段63號","121.442553333333","24.97895","6501300","土城區"
"236049","913-UM","2018/07/07 19:39:12","新北市土城區明德路一段71號","121.465616666667","24.9836133333333","6501300","土城區"
"236063","915-UM","2018/07/07 19:39:23","新北市土城區延平街64號","121.46788","24.9928066666667","6501300","土城區"
"236055","AAC-216","2018/07/07 19:39:24","新北市土城區學府路一段62號","121.457153333333","24.988395","6501300","土城區"
"242039","133-UY","2018/07/07 19:39:18","新北市新莊區建國二路83號","121.431505","25.0255883333333","6500500","新莊區"
"242031","135-UY","2018/07/07 19:39:11","新北市新莊區公園一路142號","121.446431666667","25.038225","6500500","新莊區"
"242011","173-VK","2018/07/07 19:37:28","新北市新莊區新泰路255巷83號","121.442133333333","25.0388483333333","6500500","新莊區"
"242004","176-VK","2018/07/07 19:39:19","新北市新莊區化成路11巷58弄8號","121.462576666667","25.0439766666667","6500500","新莊區"
"242036","347-TH","2018/07/07 19:39:25","新北市新莊區民安路207巷5號","121.426683333333","25.0229083333333","6500500","新莊區"
"242013","351-TH","2018/07/07 19:39:13","新北市新莊區中誠街147巷7號","121.448916666667","25.0470333333333","6500500","新莊區"
"238015","755-BX","2018/07/07 19:39:25","新北市樹林區日新街79號","121.421846666667","24.990605","6500700","樹林區"
"238023","601-UM","2018/07/07 19:39:23","新北市樹林區三福街121巷16號","121.405986666667","25.0156516666667","6500700","樹林區"
"238022","KEA-2213","2018/07/07 19:39:12","新北市樹林區名園街51巷6弄5號","121.42066","24.97817","6500700","樹林區"
"238021","KEA-2539","2018/07/07 19:39:22","新北市樹林區佳園路三段219巷19號","121.387088333333","24.94597","6500700","樹林區"
"238025","303-VK","2018/07/07 19:39:26","新北市樹林區中山路二段34號","121.417206666667","24.9849083333333","6500700","樹林區"
"238017","283-BY","2018/07/07 19:39:22","新北市樹林區保安街二段45巷29-6號","121.413616666667","25.0001766666667","6500700","樹林區"
"238014","282-BY","2018/07/07 19:39:16","新北市樹林區千歲街30巷23號","121.426406666667","24.9961416666667","6500700","樹林區"
"238026","172-UY","2018/07/07 19:39:13","新北市樹林區佳園路二段169號","121.389811666667","24.9565","6500700","樹林區"
"239007","AAC-297","2018/07/07 19:39:24","新北市鶯歌區大湖路360號","121.346275","24.9726383333333","6500800","鶯歌區"
"239006","891-R6","2018/07/07 19:39:19","新北市鶯歌區文化路145巷2號","121.35643","24.9542716666667","6500800","鶯歌區"
"239001","417-VK","2018/07/07 19:39:10","新北市鶯歌區中山路231號","121.34618","24.956955","6500800","鶯歌區"
"221008","489-VK","2018/07/07 19:39:14","新北市汐止區康寧街61巷32號","121.619738333333","25.06755","6501100","汐止區"
"221036","130-UY","2018/07/07 19:39:12","新北市汐止區康寧街901號","121.650861666667","25.0752633333333","6501100","汐止區"
"221015","131-UY","2018/07/07 19:39:21","新北市汐止區康寧街901號","121.651583333333","25.07495","6501100","汐止區"
"221010","269-BY","2018/07/07 19:39:21","新北市汐止區汐萬路一段411號","121.649161666667","25.07947","6501100","汐止區"
"221012","278-VK","2018/07/07 19:39:16","新北市汐止區汐平路一段5號","121.68079","25.0712316666667","6501100","汐止區"
"221032","280-BY","2018/07/07 19:39:18","新北市汐止區汐萬路一段312號","121.650408333333","25.0749783333333","6501100","汐止區"
"221027","281-BY","2018/07/07 19:39:17","新北市汐止區忠孝東路9號","121.65827","25.0659616666667","6501100","汐止區"
"221029","298-VK","2018/07/07 19:39:22","新北市汐止區康寧街901號","121.651511666667","25.074985","6501100","汐止區"
"221021","299-VK","2018/07/07 19:39:27","新北市汐止區南興路83巷1號","121.652823333333","25.0591233333333","6501100","汐止區"
"221025","623-UM","2018/07/07 19:39:22","新北市汐止區福安街20巷5號","121.662496666667","25.0649183333333","6501100","汐止區"
"221038","646-BX","2018/07/07 19:39:24","新北市汐止區忠孝東路241號","121.662778333333","25.06735","6501100","汐止區"
"221033","647-BX","2018/07/07 19:39:20","台北市南港區舊莊街二段17號","121.62584","25.0375166666667","6501100","汐止區"
"221002","707-TV","2018/07/07 19:39:06","新北市汐止區大同路一段219巷27號","121.633315","25.058215","6501100","汐止區"
"221002","753-BX","2018/07/07 19:39:17","新北市汐止區康寧街901號","121.650888333333","25.075225","6501100","汐止區"
"220079","145-BY","2018/07/07 19:39:09","新北市板橋區復興街128號","121.460881666667","25.0180216666667","6500100","板橋區"
"220080","200-UY","2018/07/07 19:39:19","新北市板橋區大觀路二段37巷308號","121.45003","25.0021483333333","6500100","板橋區"
"220082","610-BX","2018/07/07 19:39:09","新北市板橋區大觀路三段212巷34號","121.429541666667","24.9930983333333","6500100","板橋區"
"220091","267-BY","2018/07/07 19:39:13","新北市板橋區懷德街139巷20弄2號","121.479993333333","25.0307733333333","6500100","板橋區"
"220056","276-BY","2018/07/07 19:39:22","新北市板橋區四川路二段47巷4弄2號","121.454118333333","24.99479","6500100","板橋區"
"220071","283-VK","2018/07/07 19:39:12","新北市板橋區信義路29號","121.456935","24.9964866666667","6500100","板橋區"
"220094","285-UM","2018/07/07 19:39:26","新北市板橋區宏國路77巷2弄7號","121.469618333333","25.032555","6500100","板橋區"
"220083","286-VK","2018/07/07 19:39:19","新北市板橋區龍興街65巷42號","121.442736666667","25.001795","6500100","板橋區"
"220081","287-VK","2018/07/07 19:39:21","新北市板橋區大觀路一段75巷17號","121.447986666667","25.00434","6500100","板橋區"
"220090","288-VK","2018/07/07 19:39:12","新北市板橋區長江路一段48巷4弄2號","121.45902","25.0287233333333","6500100","板橋區"
"220061","293-UM","2018/07/07 19:39:14","新北市板橋區漢生東路113巷27號","121.468396666667","25.0156166666667","6500100","板橋區"
"220084","296-UM","2018/07/07 19:39:25","新北市板橋區滿平二街2巷1弄10號","121.425056666667","24.9864816666667","6500100","板橋區"
"220053","299-UM","2018/07/07 19:39:24","新北市板橋區中山路二段253號","121.477436666667","25.017455","6500100","板橋區"
"220075","303-R5","2018/07/07 19:39:11","新北市板橋區大勇街21號","121.454226666667","25.0171183333333","6500100","板橋區"
"220062","305-R5","2018/07/07 19:39:25","新北市板橋區三民路二段81巷27弄31號","121.481361666667","25.017695","6500100","板橋區"
"220092","307-R5","2018/07/07 19:39:27","新北市板橋區文化路一段387巷15號","121.466285","25.0221516666667","6500100","板橋區"
"220098","317-R6","2018/07/07 19:39:18","新北市板橋區四維路269巷57號","121.460871666667","25.0272216666667","6500100","板橋區"
"220064","486-VK","2018/07/07 19:39:16","新北市板橋區民權路45號","121.46197","25.01132","6500100","板橋區"
"220088","491-VK","2018/07/07 19:39:21","新北市板橋區民治街27號","121.47815","25.0342233333333","6500100","板橋區"
"220035","560-BX","2018/07/07 19:39:16","新北市板橋區金華街85巷16號","121.458625","25.0212916666667","6500100","板橋區"
"220103","561-BX","2018/07/07 19:39:24","新北市板橋區文化路一段290號","121.467595","25.0213933333333","6500100","板橋區"
"220072","568-UM","2018/07/07 19:39:26","新北市板橋區金門街215巷22號","121.43335","24.9895716666667","6500100","板橋區"
"220063","609-BX","2018/07/07 19:39:23","新北市板橋區中山路二段553巷4弄11號","121.483568333333","25.0226833333333","6500100","板橋區"
"220086","630-UY","2018/07/07 19:39:24","新北市板橋區國光路173巷2弄1號","121.460491666667","25.018695","6500100","板橋區"
"220057","686-BX","2018/07/07 19:39:24","新北市板橋區國慶路158巷18號","121.46153","24.99545","6500100","板橋區"
"220093","689-BX","2018/07/07 19:39:16","新北市板橋區長江路一段125號","121.460208333333","25.03001","6500100","板橋區"
"220054","741-BX","2018/07/07 19:39:08","新北市板橋區忠孝路192號","121.465211666667","25.0025716666667","6500100","板橋區"
"220102","KEA-2699","2018/07/07 19:39:24","新北市板橋區松柏街36巷27號","121.475503333333","25.0293","6500100","板橋區"
"220077","806-UM","2018/07/07 19:39:19","新北市板橋區僑中二街90巷1號","121.44643","25.0090683333333","6500100","板橋區"
"220067","829-TW","2018/07/07 19:39:20","新北市板橋區漢生東路279巷28-3號","121.472398333333","25.00942","6500100","板橋區"
"220096","830-TW","2018/07/07 19:39:13","新北市板橋區民生路二段234巷35號","121.469238333333","25.0228366666667","6500100","板橋區"
"220089","833-TW","2018/07/07 19:39:22","新北市板橋區英士路37-1號","121.461646666667","25.024835","6500100","板橋區"
"220074","895-R6","2018/07/07 19:39:19","新北市板橋區福德街27號","121.456221666667","25.0088516666667","6500100","板橋區"
"220073","985-R7","2018/07/07 19:39:20","新北市板橋區國光路67巷14號","121.459071666667","25.018815","6500100","板橋區"
"220097","AAC-210","2018/07/07 19:39:11","新北市板橋區幸福路32巷3號","121.461526666667","25.0206116666667","6500100","板橋區"
"220070","AAC-253","2018/07/07 19:39:11","新北市板橋區民族路232號","121.468896666667","25.0073566666667","6500100","板橋區"
"235068","KEA-2873","2018/07/07 19:39:05","新北市中和區中和路53號","121.500506666667","25.0014733333333","6500300","中和區"
"235061","KEA-2875","2018/07/07 19:39:10","新北市中和區民利街11號","121.480621666667","24.99899","6500300","中和區"
