"lineid","car","time","location","longitude","latitude","cityid","cityname"
"234046","148-BY","2018/07/07 19:49:07","新北市永和區永利路248號","121.524143333333","25.0028766666667","6500400","永和區"
"234081","298-R6","2018/07/07 19:49:14","新北市永和區永亨路122號","121.524348333333","25.004035","6500400","永和區"
"234038","336-UY","2018/07/07 19:49:19","新北市永和區民樂街57巷6號","121.528063333333","24.998455","6500400","永和區"
"234064","337-UY","2018/07/07 19:49:20","新北市永和區中正路368巷6號","121.518055","25.000855","6500400","永和區"
"234070","552-UM","2018/07/07 19:49:10","新北市永和區竹林路147號","121.52034","25.0105116666667","6500400","永和區"
"234086","553-UM","2018/07/07 19:49:19","新北市永和區中正路566號","121.517103333333","25.0061116666667","6500400","永和區"
"234017","745-BX","2018/07/07 19:49:24","新北市永和區永和路二段299號","121.51604","25.016095","6500400","永和區"
"234030","746-BX","2018/07/07 19:49:10","新北市永和區民生路67巷22號","121.523805","24.997115","6500400","永和區"
"234054","KEA-2590","2018/07/07 19:49:07","新北市永和區竹林路73-1號","121.518681666667","25.0132433333333","6500400","永和區"
"234013","KEA-2591","2018/07/07 19:49:12","新北市永和區仁愛路191號","121.510203333333","25.0125966666667","6500400","永和區"
"234061","AAD-866","2018/07/07 19:49:28","新北市永和區中正路170號","121.515148333333","24.9967683333333","6500400","永和區"
"234042","862-TW","2018/07/07 19:49:21","新北市永和區中和路389巷43號","121.508141666667","25.00173","6500400","永和區"
"234050","863-TW","2018/07/07 19:49:10","新北市永和區保安路2號","121.510895","25.0174383333333","6500400","永和區"
"234026","9371-KE","2018/07/07 19:49:22","新北市永和區雙和街20巷1號","121.509185","25.002195","6500400","永和區"
"234010","9373-KE","2018/07/07 19:49:19","新北市永和區仁愛路352巷94號","121.50117","25.0080366666667","6500400","永和區"
"249001","173-UM","2018/07/07 19:49:25","新北市八里區中華路二段252號","121.405363333333","25.1496733333333","6502300","八里區"
"249004","303-UY","2018/07/07 19:49:14","新北市八里區中山路一段398巷50-2號","121.41113","25.15954","6502300","八里區"
"249002","305-UY","2018/07/07 19:49:25","新北市八里區頂寮五街22號","121.451218333333","25.1262216666667","6502300","八里區"
"249003","759-BX","2018/07/07 19:49:15","新北市八里區華峰三街37號","121.398583333333","25.1454166666667","6502300","八里區"
"248016","026-BX","2018/07/07 19:49:16","新北市五股區成泰路三段601巷17-1號","121.451738333333","25.103315","6501500","五股區"
"248008","095-VK","2018/07/07 19:49:10","新北市五股區四維路171巷16號","121.467186666667","25.0752666666667","6501500","五股區"
"248020","225-UY","2018/07/07 19:49:10","新北市五股區中直路36號","121.420285","25.1146933333333","6501500","五股區"
"248012","247-BX","2018/07/07 19:49:29","新北市五股區蓬萊路24號","121.433876666667","25.079915","6501500","五股區"
"248014","261-SL","2018/07/07 19:49:27","新北市五股區五福路32巷2號","121.434225","25.08918","6501500","五股區"
"248010","272-BY","2018/07/07 19:49:20","新北市五股區登林路51-16號","121.43055","25.0693416666667","6501500","五股區"
"248004","677-BX","2018/07/07 19:49:26","新北市五股區成泰路一段106-1號","121.435643333333","25.072","6501500","五股區"
"248002","678-BX","2018/07/07 19:49:12","新北市五股區成泰路四段14號","121.453328333333","25.106735","6501500","五股區"
"234077","969-R7","2018/07/07 19:49:21","新北市永和區中正路264號","121.516876666667","24.998715","6500400","永和區"
"234074","AAC-211","2018/07/07 19:49:22","新北市永和區竹林路189號","121.520565","25.0094933333333","6500400","永和區"
"234067","AAC-212","2018/07/07 19:49:09","新北市永和區中山路一段142號","121.510001666667","25.0096566666667","6500400","永和區"
"234003","AAC-295","2018/07/07 19:49:11","新北市永和區福和路310-1號","121.51627","25.00733","6500400","永和區"
"243010","267-VK","2018/07/07 19:49:22","新北市泰山區民生路33號","121.430873333333","25.0521683333333","6501600","泰山區"
"243013","AAD-798","2018/07/07 19:49:18","新北市泰山區應化街7號","121.423871666667","25.0437083333333","6501600","泰山區"
"243009","297-R6","2018/07/07 19:49:13","新北市泰山區美寧街60號","121.43098","25.0646716666667","6501600","泰山區"
"243016","380-SR","2018/07/07 19:49:21","新北市泰山區新北大道七段97號","121.417773333333","25.032045","6501600","泰山區"
"243015","421-VK","2018/07/07 19:49:15","新北市泰山區明志路二段214巷11號","121.42663","25.0488683333333","6501600","泰山區"
"243011","KEA-2215","2018/07/07 19:49:23","新北市泰山區明志路三段204巷12號","121.422045","25.038215","6501600","泰山區"
"243012","646-TV","2018/07/07 19:49:21","新北市泰山區仁愛路98號","121.433323333333","25.0551366666667","6501600","泰山區"
"243014","680-BX","2018/07/07 19:49:09","新北市泰山區泰林路二段33-8號","121.435148333333","25.0565066666667","6501600","泰山區"
"222002","016-RS","2018/07/07 19:49:23","新北市深坑區北深路二段2巷1號","121.621421666667","25.0045883333333","6501800","深坑區"
"222003","436-BY","2018/07/07 19:49:10","新北市深坑區深南路51-1號","121.621258333333","25.009825","6501800","深坑區"
"231044","001-UM","2018/07/07 19:49:21","新北市新店區復興路44-5號","121.53841","24.9866266666667","6500600","新店區"
"231041","002-UM","2018/07/07 19:49:13","新北市新店區中央路198號","121.530668333333","24.9744133333333","6500600","新店區"
"231040","047-UY","2018/07/07 19:49:08","新北市新店區中正路75巷71號","121.543176666667","24.968865","6500600","新店區"
"231065","110-UY","2018/07/07 19:49:21","新北市新店區安祥路109巷112號","121.476971666667","24.9586066666667","6500600","新店區"
"231048","187-VK","2018/07/07 19:49:09","新北市新店區寶興路65巷2-1號","121.550898333333","24.9717133333333","6500600","新店區"
"231046","188-VK","2018/07/07 19:49:19","新北市新店區福園街10巷1號","121.53272","24.9728","6500600","新店區"
"231054","KEA-2219","2018/07/07 19:49:17","新北市新店區光明街89號","121.538903333333","24.96099","6500600","新店區"
"231057","256-BX","2018/07/07 19:49:20","新北市新店區花園二路三段21-3號","121.556936666667","24.9316766666667","6500600","新店區"
"231042","268-BY","2018/07/07 19:49:19","新北市新店區中興路一段267-3號","121.545076666667","24.9678","6500600","新店區"
"231051","278-BY","2018/07/07 19:49:14","新北市新店區中央三街49號","121.527583333333","24.9746333333333","6500600","新店區"
"231050","AAD-862","2018/07/07 19:49:17","新北市新店區郵政路4巷17號","121.556701666667","24.9516516666667","6500600","新店區"
"231059","355-BY","2018/07/07 19:49:11","新北市新店區安和路二段191號","121.518088333333","24.9749166666667","6500600","新店區"
"231058","3713-VJ","2018/07/07 19:49:15","新北市新店區安興路35號","121.51628","24.9706816666667","6500600","新店區"
"231066","4716-K9","2018/07/07 19:49:20","新北市新店區安康路二段341巷29號","121.497115","24.9545283333333","6500600","新店區"
"231056","4715-K9","2018/07/07 19:49:11","新北市新店區民權路42巷59弄10號","121.538158333333","24.983485","6500600","新店區"
"231067","4772-VM","2018/07/07 19:49:17","新北市新店區薏仁坑路自強巷6號","121.496823333333","24.95835","6500600","新店區"
"231049","513-UM","2018/07/07 19:49:07","新北市新店區民權路127巷3號","121.535371666667","24.981815","6500600","新店區"
"231063","616-UM","2018/07/07 19:49:27","新北市新店區車子路11號","121.503016666667","24.9519983333333","6500600","新店區"
"231061","619-UM","2018/07/07 19:49:21","新北市新店區安民街153號","121.516588333333","24.9698216666667","6500600","新店區"
"231068","718-UY","2018/07/07 19:49:16","新北市新店區安一路一段1-1號","121.519228333333","24.9612266666667","6500600","新店區"
"231064","719-UM","2018/07/07 19:49:25","新北市新店區安和路二段113巷3弄3號","121.518126666667","24.970235","6500600","新店區"
"231052","719-UY","2018/07/07 19:49:18","新北市新店區新烏路三段141號","121.55118","24.9018983333333","6500600","新店區"
"231062","720-UM","2018/07/07 19:49:17","新北市新店區永業路81巷1弄9號","121.530171666667","24.9498316666667","6500600","新店區"
"231060","897-TW","2018/07/07 19:49:20","新北市新店區安康路二段300號","121.507511666667","24.958365","6500600","新店區"
"231045","898-TW","2018/07/07 19:49:21","新北市新店區北宜路二段382號","121.564453333333","24.953005","6500600","新店區"
"231043","899-TW","2018/07/07 19:49:12","新北市新店區中正路223號","121.539523333333","24.97298","6500600","新店區"
"231055","AKT-0513","2018/07/07 19:49:16","新北市新店區力行路52號","121.538725","24.96558","6500600","新店區"
"241011","013-R5","2018/07/07 19:49:16","新北市三重區介壽路39巷6號","121.499028333333","25.0701333333333","6500200","三重區"
"241028","022-UY","2018/07/07 19:49:26","新北市三重區中正南路117號","121.494038333333","25.057305","6500200","三重區"
"241008","059-VK","2018/07/07 19:49:18","新北市三重區永福街147-8號","121.478738333333","25.0761666666667","6500200","三重區"
"241022","060-VK","2018/07/07 19:49:19","新北市三重區新北大道一段3-1號","121.490011666667","25.0610716666667","6500200","三重區"
"241015","062-VK","2018/07/07 19:49:08","新北市三重區重新路一段1號","121.503806666667","25.0642683333333","6500200","三重區"
"241024","065-VK","2018/07/07 19:49:25","新北市三重區三民街321號","121.477268333333","25.0689716666667","6500200","三重區"
"241026","066-VK","2018/07/07 19:49:10","新北市三重區中央南路48號","121.501456666667","25.0619016666667","6500200","三重區"
"241003","091-VK","2018/07/07 19:49:22","新北市三重區五華街93巷5號","121.492106666667","25.0837183333333","6500200","三重區"
"241016","266-UM","2018/07/07 19:49:22","新北市三重區正德街41巷9號","121.496216666667","25.062755","6500200","三重區"
"241009","267-UM","2018/07/07 19:49:20","新北市三重區三和路四段396巷2-2號","121.481215","25.079115","6500200","三重區"
"241018","268-UM","2018/07/07 19:49:07","新北市三重區雙園街57巷25號","121.494561666667","25.0684116666667","6500200","三重區"
"241032","269-UM","2018/07/07 19:49:23","新北市三重區重陽路一段44巷9號","121.486018333333","25.0577766666667","6500200","三重區"
"241013","270-UM","2018/07/07 19:49:12","新北市三重區仁愛街92巷13號","121.494761666667","25.0737983333333","6500200","三重區"
"241025","271-UM","2018/07/07 19:49:16","新北市三重區忠孝路三段52號","121.480673333333","25.0656483333333","6500200","三重區"
"241007","398-BY","2018/07/07 19:49:25","新北市三重區三和路四段143-1號","121.484285","25.07829","6500200","三重區"
"241035","KEA-2210","2018/07/07 19:49:19","新北市三重區文化北路33-3號","121.499295","25.0643233333333","6500200","三重區"
"241031","413-TH","2018/07/07 19:49:15","新北市三重區重新路四段206-5號","121.486075","25.0543883333333","6500200","三重區"
"241004","475-VK","2018/07/07 19:49:17","新北市三重區五華街74號","121.493345","25.0820316666667","6500200","三重區"
"241030","480-VK","2018/07/07 19:49:19","新北市三重區環河南路254巷54號","121.489408333333","25.0513883333333","6500200","三重區"
"241014","543-UM","2018/07/07 19:49:14","新北市三重區長安街77號","121.50168","25.0674116666667","6500200","三重區"
"241023","545-UM","2018/07/07 19:49:13","新北市三重區頂崁街168號","121.477658333333","25.0658933333333","6500200","三重區"
"241001","547-UM","2018/07/07 19:49:15","新北市三重區仁愛街329號","121.49227","25.0795233333333","6500200","三重區"
"241019","KEA-2593","2018/07/07 19:49:10","新北市三重區自強路二段67巷15號","121.489371666667","25.0702433333333","6500200","三重區"
"241006","AAD-863","2018/07/07 19:49:23","新北市三重區永福街269號","121.481595","25.074075","6500200","三重區"
"241020","743-BX","2018/07/07 19:46:33","新北市三重區後竹圍街8號","121.491671666667","25.07353","6500200","三重區"
"241017","887-TS","2018/07/07 19:49:24","新北市三重區重陽路三段11號","121.489456666667","25.0666266666667","6500200","三重區"
"241012","941-UM","2018/07/07 19:49:21","新北市三重區仁興街42巷18號","121.497881666667","25.0753483333333","6500200","三重區"
"241029","942-UM","2018/07/07 19:49:15","新北市三重區光明路31-1號","121.491316666667","25.0583533333333","6500200","三重區"
"241033","AAC-255","2018/07/07 19:49:20","新北市三重區中興南街29-1號","121.4706","25.04398","6500200","三重區"
"235066","003-UY","2018/07/07 19:49:09","新北市中和區南工路20號","121.505453333333","25.000575","6500300","中和區"
"235064","005-UY","2018/07/07 19:49:09","新北市中和區南山路109號","121.50205","24.99741","6500300","中和區"
"235063","006-UY","2018/07/07 19:49:16","新北市中和區連城路263巷16號","121.492568333333","24.9948683333333","6500300","中和區"
"235056","096-UM","2018/07/07 19:49:20","新北市中和區中山路三段136巷10弄1號","121.474231666667","25.00702","6500300","中和區"
"235039","097-UM","2018/07/07 19:49:07","新北市中和區大勇街27巷24號","121.516213333333","24.9939183333333","6500300","中和區"
"235065","098-UM","2018/07/07 19:49:18","新北市中和區福祥路90巷5號","121.499595","25.0059266666667","6500300","中和區"
"235040","150-BY","2018/07/07 19:49:24","新北市中和區景安路85號","121.50624","24.9969533333333","6500300","中和區"
"235058","151-BY","2018/07/07 19:49:10","新北市中和區員山路146巷7號","121.48185","24.9968516666667","6500300","中和區"
"235055","183-VK","2018/07/07 19:49:21","新北市中和區中山路三段181巷18弄11號","121.472655","25.0048783333333","6500300","中和區"
"235038","185-VK","2018/07/07 19:49:09","新北市中和區自立路10號","121.52248","24.9964316666667","6500300","中和區"
"235049","186-VK","2018/07/07 19:49:10","新北市中和區景平路429-1號","121.501376666667","24.9953333333333","6500300","中和區"
"235067","255-BX","2018/07/07 19:49:11","新北市中和區新生街188號","121.483693333333","24.99965","6500300","中和區"
"235044","293-VK","2018/07/07 19:49:08","新北市中和區南山路237號","121.503583333333","24.9930966666667","6500300","中和區"
"235072","301-VK","2018/07/07 19:49:11","新北市中和區連城路253號","121.492746666667","24.9967183333333","6500300","中和區"
"235043","352-BY","2018/07/07 19:49:23","新北市中和區興南路二段159巷18號","121.505248333333","24.9830183333333","6500300","中和區"
"235042","KEA-2878","2018/07/07 19:49:14","新北市中和區宜安路171號","121.508365","24.999135","6500300","中和區"
"235050","4979-A6","2018/07/07 19:49:27","新北市中和區景平路241巷84弄54號","121.506086666667","24.9924016666667","6500300","中和區"
"235069","4980-A6","2018/07/07 19:49:21","新北市中和區中正路464號","121.490061666667","24.9939116666667","6500300","中和區"
"235070","558-UM","2018/07/07 19:49:17","新北市中和區景平路481號","121.500255","24.9974666666667","6500300","中和區"
"235045","565-BX","2018/07/07 19:49:24","新北市中和區景平路402號","121.509191666667","24.993105","6500300","中和區"
"235054","640-BX","2018/07/07 19:49:22","新北市中和區莒光路115號","121.472448333333","25.0024316666667","6500300","中和區"
"235060","647-TV","2018/07/07 19:49:23","新北市中和區中山路二段519號","121.482011666667","25.005135","6500300","中和區"
"235047","732-UM","2018/07/07 19:49:23","新北市中和區捷運路3號","121.509678333333","24.9893766666667","6500300","中和區"
"235046","733-UM","2018/07/07 19:49:12","新北市中和區仁愛街43號","121.511046666667","24.9884166666667","6500300","中和區"
"235071","783-BX","2018/07/07 19:49:20","新北市中和區中板路7-3號","121.484903333333","25.011205","6500300","中和區"
"235057","801-TS","2018/07/07 19:49:11","新北市中和區員山路130號","121.481125","24.996285","6500300","中和區"
"235041","802-TS","2018/07/07 19:49:16","新北市中和區永貞路241號","121.51306","25.0037816666667","6500300","中和區"
"235052","805-TS","2018/07/07 19:49:08","新北市中和區興南路二段119巷6號","121.505735","24.9839716666667","6500300","中和區"
"235048","896-TW","2018/07/07 19:49:15","新北市中和區興南路二段22-3號","121.50759","24.9858033333333","6500300","中和區"
"235053","900-TW","2018/07/07 19:49:23","新北市中和區民德路146巷14號","121.467818333333","25.0005033333333","6500300","中和區"
"235051","157-BY","2018/07/07 19:49:18","新北市中和區中興街180巷45號","121.49813","24.98964","6500300","中和區"
"235037","AAC-213","2018/07/07 19:49:18","新北市中和區自立路56巷2號","121.52329","24.991935","6500300","中和區"
"235059","AAC-215","2018/07/07 19:49:19","新北市中和區圓通路305巷6號","121.493975","24.9898983333333","6500300","中和區"
"220068","013-TV","2018/07/07 19:49:19","新北市板橋區中山路二段416巷47弄18號","121.483486666667","25.0194","6500100","板橋區"
"220055","015-TV","2018/07/07 19:49:09","新北市板橋區國慶路213巷5號","121.462996666667","24.9972516666667","6500100","板橋區"
"220065","072-UY","2018/07/07 19:49:28","新北市板橋區民族路276巷15號","121.469621666667","25.00602","6500100","板橋區"
"220106","075-UY","2018/07/07 19:49:16","新北市板橋區文化路二段582號","121.476823333333","25.03464","6500100","板橋區"
"220069","AAD-861","2018/07/07 19:49:19","新北市板橋區貴興路119巷1弄1號","121.455693333333","25.0022533333333","6500100","板橋區"
"247014","546-UM","2018/07/07 19:49:23","新北市蘆洲區復興路30號","121.472288333333","25.0850916666667","6501400","蘆洲區"
"247004","337-TH","2018/07/07 19:49:17","新北市蘆洲區長安街221號","121.459805","25.0824316666667","6501400","蘆洲區"
"247006","336-TH","2018/07/07 19:49:20","新北市蘆洲區永安南路二段28號","121.467171666667","25.07719","6501400","蘆洲區"
"247008","056-VK","2018/07/07 19:49:20","新北市蘆洲區信義路131號","121.478873333333","25.0802316666667","6501400","蘆洲區"
"247002","002-UY","2018/07/07 19:49:18","新北市蘆洲區永平街32巷5號","121.458891666667","25.0911666666667","6501400","蘆洲區"
"226004","312-R5","2018/07/07 19:49:08","新北市平溪區南山里南山坪21號","121.772658333333","25.0373433333333","6502400","平溪區"
"228003","097-TW","2018/07/07 19:49:08","新北市貢寮區真理里美艷山街2-2號","121.927383333333","25.05986","6502600","貢寮區"
"228001","212-TW","2018/07/07 19:49:12","新北市貢寮區真理里大澳街10巷50號","121.925671666667","25.056405","6502600","貢寮區"
"224010","AGQ-8101","2018/07/07 19:44:41","新北市瑞芳區烏勢巷145號","121.848066666667","25.109295","6501200","瑞芳區"
"224002","639-TC","2018/07/07 19:49:24","新北市瑞芳區民享新村7號","121.817151666667","25.1053716666667","6501200","瑞芳區"
"227010","642-TC","2018/07/07 19:49:09","新北市雙溪區新基里中華路82號","121.865835","25.0383716666667","6502500","雙溪區"
"227002","400-TW","2018/07/07 19:49:09","新北市雙溪區雙溪里內挖路47號","121.863303333333","25.03661","6502500","雙溪區"
"222001","KEA-2212","2018/07/07 19:49:22","新北市深坑區北深路三段71號","121.606805","25.00141","6501800","深坑區"
"208002","KEA-2872","2018/07/07 19:49:14","新北市金山區三民街34號","121.63488","25.2236116666667","6502700","金山區"
"208003","665-BX","2018/07/07 19:49:24","新北市金山區海興路16號","121.630158333333","25.23743","6502700","金山區"
"208001","761-BX","2018/07/07 19:49:28","新北市金山區重和里六股林口47號","121.602283333333","25.219545","6502700","金山區"
"251009","008-UM","2018/07/07 19:49:13","新北市淡水區中正路32號","121.44395","25.169175","6501000","淡水區"
"251001","011-UM","2018/07/07 19:49:23","新北市淡水區淡金路101號","121.456655","25.1634466666667","6501000","淡水區"
"251013","KEA-2871","2018/07/07 19:49:12","新北市淡水區頂田寮11-6號","121.465613333333","25.2138383333333","6501000","淡水區"
"251016","179-VK","2018/07/07 19:49:12","新北市淡水區三塊厝2-1號","121.454176666667","25.20966","6501000","淡水區"
"251014","180-VK","2018/07/07 19:49:24","新北市淡水區番社前1-4號","121.468411666667","25.236555","6501000","淡水區"
"251015","182-VK","2018/07/07 19:49:12","新北市淡水區竹圍子5-1號","121.48274","25.192625","6501000","淡水區"
"251010","413-VK","2018/07/07 19:49:18","新北市淡水區崁頂78-3號","121.429836666667","25.2062783333333","6501000","淡水區"
"251012","441-VK","2018/07/07 19:49:13","新北市淡水區淡金路三段70巷1號","121.448283333333","25.2005616666667","6501000","淡水區"
"251007","442-VK","2018/07/07 19:49:23","新北市淡水區中正東路一段3巷30號","121.452176666667","25.165455","6501000","淡水區"
"251005","443-VK","2018/07/07 19:49:21","新北市淡水區學府路96號","121.449703333333","25.1715766666667","6501000","淡水區"
"251006","561-UM","2018/07/07 19:49:19","新北市淡水區水碓街15號","121.443455","25.1769533333333","6501000","淡水區"
"251011","650-BX","2018/07/07 19:49:12","新北市淡水區淡金路二段600號","121.446676666667","25.1922566666667","6501000","淡水區"
"251003","673-BX","2018/07/07 19:49:16","新北市淡水區中山北路三段136號","121.444558333333","25.1947483333333","6501000","淡水區"
"207003","550-UM","2018/07/07 19:49:24","新北市萬里區大鵬里萬里加投68號","121.642515","25.2147933333333","6502800","萬里區"
"207004","225-TW","2018/07/07 19:49:18","新北市萬里區萬里里瑪鋉路261-1號","121.68998","25.1796716666667","6502800","萬里區"
"252002","178-VK","2018/07/07 19:49:12","新北市三芝區三民街33-1號","121.504626666667","25.258565","6502100","三芝區"
"252001","292-VK","2018/07/07 19:49:16","新北市三芝區公正街9號","121.499733333333","25.257505","6502100","三芝區"
"237004","KEA-2597","2018/07/07 19:49:10","新北市三峽區圳頭95號","121.381025","24.8773316666667","6500900","三峽區"
"237007","153-BY","2018/07/07 19:49:16","新北市三峽區二鬮路136巷20弄57號","121.357738333333","24.910105","6500900","三峽區"
"237009","210-TH","2018/07/07 19:49:14","新北市三峽區民族街78巷2弄4號","121.368713333333","24.92985","6500900","三峽區"
"237013","252-BX","2018/07/07 19:49:12","新北市三峽區溪北街45號","121.397021666667","24.9360233333333","6500900","三峽區"
"237012","275-BY","2018/07/07 19:49:12","新北市三峽區中華路5-1號","121.374478333333","24.9326783333333","6500900","三峽區"
"237008","302-VK","2018/07/07 19:49:25","新北市三峽區大同路217號","121.370243333333","24.9269816666667","6500900","三峽區"
"237006","5529-G3","2018/07/07 19:49:14","新北市三峽區中正路一段336巷15弄2號","121.370453333333","24.924885","6500900","三峽區"
"237016","649-BX","2018/07/07 19:49:11","新北市三峽區介壽路二段138巷1弄13-1號","121.396308333333","24.93385","6500900","三峽區"
"237005","AKY-6261","2018/07/07 19:49:23","新北市三峽區民生街1巷13-1號","121.379903333333","24.93557","6500900","三峽區"
"236070","105-UM","2018/07/07 19:49:16","新北市土城區中央路二段192巷5號","121.441218333333","24.97591","6501300","土城區"
"236042","107-UM","2018/07/07 19:49:15","新北市土城區裕民路233巷1號","121.45496","24.983605","6501300","土城區"
"236079","166-UM","2018/07/07 19:49:25","新北市土城區溪頭路51-1號","121.411903333333","24.9549433333333","6501300","土城區"
"236030","253-BX","2018/07/07 19:49:14","新北市土城區中央路一段294號","121.443295","24.9823933333333","6501300","土城區"
"236026","269-VK","2018/07/07 19:49:08","新北市土城區中央路二段61巷26號","121.443343333333","24.9787033333333","6501300","土城區"
"236038","271-VK","2018/07/07 19:49:15","新北市土城區國際路158巷40號","121.468158333333","24.97541","6501300","土城區"
"236021","401-BY","2018/07/07 19:49:15","新北市土城區延吉街141-1號","121.47054","24.9862566666667","6501300","土城區"
"236014","752-BX","2018/07/07 19:49:07","新北市土城區廣福街120號","121.456383333333","24.992645","6501300","土城區"
"236059","912-UM","2018/07/07 19:49:18","新北市土城區中央路一段186-1號","121.445483333333","24.9863566666667","6501300","土城區"
"236049","913-UM","2018/07/07 19:49:11","新北市土城區清水路144號","121.458963333333","24.9813666666667","6501300","土城區"
"236063","915-UM","2018/07/07 19:49:24","新北市土城區延和路105巷4弄2號","121.4675","24.99061","6501300","土城區"
"236055","AAC-216","2018/07/07 19:49:19","新北市土城區延和路150號","121.467835","24.99023","6501300","土城區"
"242034","AAC-296","2018/07/07 19:49:26","新北市新莊區公園一路110號","121.444426666667","25.0374533333333","6500500","新莊區"
"242029","612-BX","2018/07/07 19:49:25","新北市新莊區中平路272號","121.444873333333","25.0502933333333","6500500","新莊區"
"242046","497-BY","2018/07/07 19:49:13","新北市新莊區新樹路239-1號","121.435166666667","25.0223283333333","6500500","新莊區"
"242056","440-UM","2018/07/07 19:49:10","新北市新莊區新莊路366號","121.449465","25.033555","6500500","新莊區"
"242007","413-TV","2018/07/07 19:49:20","新北市新莊區思源路593巷6弄23號","121.45759","25.0599666666667","6500500","新莊區"
"242023","362-BY","2018/07/07 19:49:14","新北市新莊區化成路91號","121.465551666667","25.046665","6500500","新莊區"
"242061","353-BY","2018/07/07 19:49:26","新北市新莊區中環路一段10號","121.442805","25.0258033333333","6500500","新莊區"
"242039","133-UY","2018/07/07 19:49:18","新北市新莊區民安路299巷51號","121.42966","25.0237433333333","6500500","新莊區"
"242031","135-UY","2018/07/07 19:49:07","新北市新莊區忠孝街27號","121.443828333333","25.0355566666667","6500500","新莊區"
"242011","173-VK","2018/07/07 19:48:48","新北市新莊區中環路二段451號","121.441591666667","25.046065","6500500","新莊區"
"242017","175-VK","2018/07/07 19:49:24","新北市新莊區中華路一段226號","121.45267","25.0429866666667","6500500","新莊區"
"242004","176-VK","2018/07/07 19:49:19","新北市新莊區化成路63巷24弄16號","121.462135","25.0460183333333","6500500","新莊區"
"242036","347-TH","2018/07/07 19:49:20","新北市新莊區建安街101巷34號","121.427228333333","25.0235016666667","6500500","新莊區"
"242002","349-TH","2018/07/07 19:49:15","新北市新莊區環漢路二段20號","121.450113333333","25.0323016666667","6500500","新莊區"
"242013","351-TH","2018/07/07 19:49:13","新北市新莊區中誠街93號","121.450098333333","25.0476016666667","6500500","新莊區"
"238015","755-BX","2018/07/07 19:49:25","新北市樹林區中山路二段146號","121.41299","24.9828183333333","6500700","樹林區"
"238023","601-UM","2018/07/07 19:49:23","新北市樹林區中正路391號","121.417695","25.0071616666667","6500700","樹林區"
"238021","KEA-2539","2018/07/07 19:49:22","新北市樹林區佳園路三段101巷38弄6號","121.391236666667","24.9504033333333","6500700","樹林區"
"239006","891-R6","2018/07/07 19:49:25","新北市鶯歌區中正一路460號","121.364211666667","24.956395","6500800","鶯歌區"
"221008","489-VK","2018/07/07 19:49:27","新北市汐止區康寧街65號","121.618695","25.0667083333333","6501100","汐止區"
"221036","130-UY","2018/07/07 19:49:12","新北市汐止區汐萬路一段204號","121.652148333333","25.07217","6501100","汐止區"
"221015","131-UY","2018/07/07 19:49:21","新北市汐止區大同路二段544號","121.661561666667","25.0688016666667","6501100","汐止區"
"221010","269-BY","2018/07/07 19:49:21","新北市汐止區連峰街128號","121.646165","25.0790916666667","6501100","汐止區"
"221012","278-VK","2018/07/07 19:49:16","新北市汐止區大同路三段380號","121.681351666667","25.0715283333333","6501100","汐止區"
"221032","280-BY","2018/07/07 19:49:17","新北市汐止區橫科路403巷18號","121.625426666667","25.0475533333333","6501100","汐止區"
"221027","281-BY","2018/07/07 19:49:17","新北市汐止區南昌街2巷15號","121.66272","25.0688916666667","6501100","汐止區"
"221029","298-VK","2018/07/07 19:49:22","新北市汐止區康寧街901號","121.651526666667","25.0750016666667","6501100","汐止區"
"221021","299-VK","2018/07/07 19:49:27","新北市汐止區莊敬街30號","121.65708","25.06145","6501100","汐止區"
"221031","353-TW","2018/07/07 19:49:17","新北市汐止區福德二路54巷2弄2號","121.633845","25.0672683333333","6501100","汐止區"
"221035","622-UM","2018/07/07 19:49:24","新北市汐止區長江街13巷6弄1號","121.654725","25.07181","6501100","汐止區"
"221025","623-UM","2018/07/07 19:49:22","新北市汐止區秀峰路81巷15弄2號","121.660766666667","25.0643866666667","6501100","汐止區"
"221038","646-BX","2018/07/07 19:49:24","新北市汐止區忠孝東路419號","121.665728333333","25.0715366666667","6501100","汐止區"
"221033","647-BX","2018/07/07 19:49:20","新北市汐止區東勢街76巷100-1號","121.636496666667","25.0389283333333","6501100","汐止區"
"221002","753-BX","2018/07/07 19:49:17","新北市汐止區大同路二段535號","121.661865","25.069135","6501100","汐止區"
"220079","145-BY","2018/07/07 19:49:29","新北市板橋區大仁街31號","121.455376666667","25.0165083333333","6500100","板橋區"
"220080","200-UY","2018/07/07 19:49:20","新北市板橋區大觀路二段59巷31號","121.447718333333","25.0023883333333","6500100","板橋區"
"220082","610-BX","2018/07/07 19:49:09","新北市板橋區溪北路49號","121.427713333333","24.9898966666667","6500100","板橋區"
"220091","267-BY","2018/07/07 19:49:13","新北市板橋區民治街85號","121.479493333333","25.0321516666667","6500100","板橋區"
"220056","276-BY","2018/07/07 19:49:26","新北市板橋區四川路二段99巷2弄2號","121.452686666667","24.9945","6500100","板橋區"
"220071","283-VK","2018/07/07 19:49:12","新北市板橋區五權街32巷35號","121.463665","24.9925116666667","6500100","板橋區"
"220094","285-UM","2018/07/07 19:49:26","新北市板橋區長江路一段1號","121.457408333333","25.0286366666667","6500100","板橋區"
"220083","286-VK","2018/07/07 19:49:19","新北市板橋區僑中二街98號","121.446178333333","25.0085316666667","6500100","板橋區"
"220081","287-VK","2018/07/07 19:49:21","新北市板橋區大觀路一段29巷179弄21號","121.449671666667","25.0045466666667","6500100","板橋區"
"220090","288-VK","2018/07/07 19:49:12","新北市板橋區龍泉街54巷7弄1號","121.456801666667","25.02658","6500100","板橋區"
"220061","293-UM","2018/07/07 19:49:14","新北市板橋區觀光街33巷2號","121.471213333333","25.0161116666667","6500100","板橋區"
"220084","296-UM","2018/07/07 19:49:25","新北市板橋區滿平街2-1號","121.426263333333","24.99014","6500100","板橋區"
"220053","299-UM","2018/07/07 19:49:24","新北市板橋區中山路二段60巷11號","121.474295","25.0152466666667","6500100","板橋區"
"220075","303-R5","2018/07/07 19:49:25","新北市板橋區金華街10巷25號","121.45677","25.0201683333333","6500100","板橋區"
"220062","305-R5","2018/07/07 19:49:25","新北市板橋區光復街172巷31弄5-2號","121.486243333333","25.0189733333333","6500100","板橋區"
"220092","307-R5","2018/07/07 19:49:11","新北市板橋區四維路169號","121.46475","25.02602","6500100","板橋區"
"220098","317-R6","2018/07/07 19:49:18","新北市板橋區新海路404號","121.458538333333","25.0269216666667","6500100","板橋區"
"220064","486-VK","2018/07/07 19:49:16","新北市板橋區館前東路96號","121.46233","25.007465","6500100","板橋區"
"220088","491-VK","2018/07/07 19:49:09","新北市板橋區文聖街89巷2號","121.47753","25.0299883333333","6500100","板橋區"
"220035","560-BX","2018/07/07 19:49:16","新北市板橋區金華街21巷2號","121.45602","25.020655","6500100","板橋區"
"220103","561-BX","2018/07/07 19:49:24","新北市板橋區陽明街29巷5號","121.465141666667","25.0217166666667","6500100","板橋區"
"220072","568-UM","2018/07/07 19:49:26","新北市板橋區大觀路三段201號","121.431795","24.993305","6500100","板橋區"
"220063","609-BX","2018/07/07 19:49:23","新北市板橋區三民路一段5巷1號","121.479043333333","25.0234433333333","6500100","板橋區"
"220086","630-UY","2018/07/07 19:49:22","新北市板橋區西門街18-5號","121.454403333333","25.0111433333333","6500100","板橋區"
"220057","686-BX","2018/07/07 19:49:24","新北市板橋區廣權路9號","121.460628333333","24.99131","6500100","板橋區"
"220093","689-BX","2018/07/07 19:49:16","新北市板橋區長江路二段299號","121.470638333333","25.0331516666667","6500100","板橋區"
"220054","741-BX","2018/07/07 19:49:08","新北市板橋區忠孝路忠義巷20弄2號","121.466503333333","25.00384","6500100","板橋區"
"220102","KEA-2699","2018/07/07 19:49:08","新北市板橋區文化路二段410巷31號","121.474871666667","25.030665","6500100","板橋區"
"220077","806-UM","2018/07/07 19:49:18","新北市板橋區僑中一街102巷3弄20號","121.445935","25.01254","6500100","板橋區"
"220067","829-TW","2018/07/07 19:49:20","新北市板橋區長安街138巷1弄286號","121.47482","25.01107","6500100","板橋區"
"220096","830-TW","2018/07/07 19:49:13","新北市板橋區文化路二段124巷34弄2號","121.47139","25.0253783333333","6500100","板橋區"
"220089","833-TW","2018/07/07 19:49:22","新北市板橋區龍泉街77-4號","121.456608333333","25.02516","6500100","板橋區"
"220074","895-R6","2018/07/07 19:49:19","新北市板橋區東門街36-5號","121.458518333333","25.00789","6500100","板橋區"
"220073","985-R7","2018/07/07 19:49:20","新北市板橋區大仁街75-1號","121.453915","25.0162133333333","6500100","板橋區"
"220097","AAC-210","2018/07/07 19:49:11","新北市板橋區文化路一段285巷50號","121.46323","25.0198266666667","6500100","板橋區"
"220070","AAC-253","2018/07/07 19:49:08","新北市板橋區民族路89-1號","121.466256666667","25.008325","6500100","板橋區"
"235068","KEA-2873","2018/07/07 19:49:05","新北市中和區莊敬路16巷3號","121.50002","25.004195","6500300","中和區"
"235061","KEA-2875","2018/07/07 19:49:08","新北市中和區員山路226巷13弄1號","121.482173333333","25.0000833333333","6500300","中和區"
