"lineid","car","time","location","longitude","latitude","cityid","cityname"
"234040","862-TW","2018/07/07 22:13:15","新北市永和區福和路1號","121.526358333333","25.00967","6500400","永和區"
"247005","336-TH","2018/07/07 22:29:23","新北市五股區中興路三段2巷10號","121.449026666667","25.08086","6501400","蘆洲區"
"251004","009-UM","2018/07/07 22:29:15","新北市淡水區民族路33號","121.462295","25.1358383333333","6501000","淡水區"
"251001","011-UM","2018/07/07 22:29:02","新北市淡水區下圭柔山90-8號","121.431285","25.2102433333333","6501000","淡水區"
"251008","181-VK","2018/07/07 22:29:16","新北市淡水區學府路104號","121.44992","25.1718616666667","6501000","淡水區"
"251010","413-VK","2018/07/07 22:29:18","新北市淡水區沙崙路200號","121.424768333333","25.1839166666667","6501000","淡水區"
"251007","442-VK","2018/07/07 22:29:23","新北市淡水區北新路143號","121.449541666667","25.1788633333333","6501000","淡水區"
"251011","650-BX","2018/07/07 22:29:12","新北市淡水區水碓街7號","121.443176666667","25.1771766666667","6501000","淡水區"
