"lineid","car","time","location","longitude","latitude","cityid","cityname"
"248005","653-BX","2018/07/16 07:49:20","新北市五股區明德路12巷3號","121.433306666667","25.07182","6501500","五股區"
"232001","290-BY","2018/07/16 07:49:17","新北市坪林區上坑子口24號","121.704408333333","24.9493133333333","6502000","坪林區"
"232012","291-BY","2018/07/16 07:49:23","新北市坪林區金瓜寮23-1號","121.67922","24.911275","6502000","坪林區"
"232010","375-UM","2018/07/16 07:49:21","新北市坪林區磨壁潭12-2號","121.724775","24.9383133333333","6502000","坪林區"
"232017","705-BZ","2018/07/16 07:49:20","新北市坪林區乾溪2-2號","121.741083333333","24.9762516666667","6502000","坪林區"
"232005","758-BX","2018/07/16 07:49:10","新北市坪林區魚堀49號","121.701453333333","24.9299216666667","6502000","坪林區"
"244001","248-BX","2018/07/16 07:49:13","新北市林口區頂福里28號","121.353823333333","25.0973766666667","6501700","林口區"
"231007","189-VK","2018/07/16 07:49:16","新北市新店區安一路一段1-1號","121.519691666667","24.9611216666667","6500600","新店區"
"231008","192-VK","2018/07/16 07:49:15","新北市新店區安一路一段1-1號","121.519233333333","24.9611533333333","6500600","新店區"
"235001","611-BX","2018/07/16 07:49:08","新北市中和區圓通路367巷8號","121.491553333333","24.9891533333333","6500300","中和區"
"226005","5620-A6","2018/07/16 07:49:25","新北市平溪區嶺腳里中華街61號","121.73941","25.0250666666667","6502400","平溪區"
"226001","7418-A5","2018/07/16 07:49:13","新北市平溪區平湖里坑頭3號","121.783483333333","25.0258066666667","6502400","平溪區"
"226003","AGD-0702","2018/07/16 07:40:01","新北市平溪區嶺腳里嶺腳寮83-2號","121.750941666667","25.0352866666667","6502400","平溪區"
"223006","022-BY","2018/07/16 07:48:39","新北市石碇區番子坑17號","121.673888333333","25.00112","6501900","石碇區"
"223002","KEA-2673","2018/07/16 07:49:22","新北市石碇區北宜路五段潭腰巷15-2號","121.635715","24.932495","6501900","石碇區"
"223003","205-TH","2018/07/16 07:49:02","新北市石碇區烏塗窟46-2號","121.655753333333","24.973045","6501900","石碇區"
"223008","406-TH","2018/07/16 07:49:15","新北市石碇區靜安路一段337號","121.698946666667","25.0146833333333","6501900","石碇區"
"223001","592-UM","2018/07/16 07:49:08","新北市石碇區烏塗窟46號","121.656021666667","24.97249","6501900","石碇區"
"223004","660-BX","2018/07/16 07:49:18","新北市石碇區楓子林30號","121.6423","25.0095516666667","6501900","石碇區"
"223007","661-BX","2018/07/16 07:49:27","新北市石碇區靜安路一段337號","121.698925","25.0145583333333","6501900","石碇區"
"223005","677-TV","2018/07/16 07:49:24","新北市石碇區楓子林30號","121.642306666667","25.0096133333333","6501900","石碇區"
"227005","282-VK","2018/07/16 07:49:22","新北市雙溪區雙溪里太平路54號","121.864795","25.035475","6502500","雙溪區"
"252006","073-UM","2018/07/16 07:49:21","新北市三芝區後厝里北勢子41-2號","121.472031666667","25.2525566666667","6502100","三芝區"
"252004","249-BX","2018/07/16 07:49:22","新北市三芝區店子里菜公坑99-4號","121.513988333333","25.20717","6502100","三芝區"
"237001","159-UY","2018/07/16 07:49:16","新北市三峽區國慶路144號","121.375776666667","24.9396833333333","6500900","三峽區"
"236007","165-UM","2018/07/16 07:49:29","新北市土城區延吉街377號","121.463626666667","24.98389","6501300","土城區"
"236001","339-SR","2018/07/16 07:49:11","新北市土城區承天路114號","121.449625","24.9493866666667","6501300","土城區"
"242057","986-R7","2018/07/16 07:49:13","新北市新莊區中正路400號","121.44164","25.033925","6500500","新莊區"
"242052","751-BX","2018/07/16 07:49:27","新北市新莊區瓊林南路75-37號","121.43817","25.015255","6500500","新莊區"
"242026","705-TV","2018/07/16 07:49:27","新北市新莊區中港路303號","121.452763333333","25.04457","6500500","新莊區"
"242024","613-BX","2018/07/16 07:49:26","新北市新莊區復興路一段85號","121.448446666667","25.04281","6500500","新莊區"
"242028","612-BX","2018/07/16 07:49:17","新北市新莊區幸福路764號","121.447253333333","25.0490866666667","6500500","新莊區"
"242040","566-BX","2018/07/16 07:49:19","新北市新莊區中正路487號","121.441108333333","25.0336566666667","6500500","新莊區"
"242045","497-BY","2018/07/16 07:49:18","新北市新莊區新樹路4號","121.440915","25.0332483333333","6500500","新莊區"
"242049","442-UM","2018/07/16 07:49:11","新北市新莊區瓊林南路1號","121.438691666667","25.0207366666667","6500500","新莊區"
"242055","440-UM","2018/07/16 07:49:13","新北市新莊區中正路473-1號","121.442036666667","25.0330966666667","6500500","新莊區"
"242035","415-TV","2018/07/16 07:49:16","新北市新莊區新樹路133號","121.4368","25.0256883333333","6500500","新莊區"
"242006","413-TV","2018/07/16 07:49:18","新北市新莊區中和街110號","121.447601666667","25.047025","6500500","新莊區"
"242043","400-BY","2018/07/16 07:49:21","新北市新莊區富國路111號","121.423465","25.024945","6500500","新莊區"
"242022","362-BY","2018/07/16 07:49:23","新北市新莊區中港一街145號","121.447841666667","25.04492","6500500","新莊區"
"242059","353-BY","2018/07/16 07:49:29","新北市新莊區中正路400號","121.441938333333","25.0341333333333","6500500","新莊區"
"242008","132-UY","2018/07/16 07:49:22","新北市新莊區中和街61號","121.447538333333","25.04686","6500500","新莊區"
"242038","133-UY","2018/07/16 07:49:24","新北市新莊區新樹路225號","121.435243333333","25.022785","6500500","新莊區"
"242030","135-UY","2018/07/16 07:49:18","新北市新莊區三和路12-21號","121.441961666667","25.0386616666667","6500500","新莊區"
"242047","172-VK","2018/07/16 07:49:14","新北市新莊區龍安路116號","121.418973333333","25.0204483333333","6500500","新莊區"
"242016","175-VK","2018/07/16 07:49:10","新北市新莊區中港一街60號","121.450188333333","25.0454766666667","6500500","新莊區"
"242003","176-VK","2018/07/16 07:49:08","新北市新莊區中平路82巷6號","121.445061666667","25.0447533333333","6500500","新莊區"
"242014","346-TH","2018/07/16 07:49:22","新北市新莊區公園一路95號","121.444258333333","25.0380316666667","6500500","新莊區"
"242010","347-TH","2018/07/16 07:49:20","新北市新莊區中港一街14號","121.451566666667","25.045705","6500500","新莊區"
"242020","348-TH","2018/07/16 07:49:23","新北市新莊區明中街49巷2號","121.456991666667","25.0394966666667","6500500","新莊區"
"242001","349-TH","2018/07/16 07:49:23","新北市新莊區新泰路53號","121.44948","25.03392","6500500","新莊區"
"242012","351-TH","2018/07/16 07:49:28","新北市新莊區新泰路357巷3弄57號","121.442345","25.0395866666667","6500500","新莊區"
"242018","281-VK","2018/07/16 07:49:18","新北市新莊區中平路82巷36-2號","121.446371666667","25.0449433333333","6500500","新莊區"
