"lineid","car","time","location","longitude","latitude","cityid","cityname"
"232001","290-BY","2018/05/24 07:49:18","新北市坪林區下坑子口18-2號","121.70926","24.94657","6502000","坪林區"
"232014","291-BY","2018/05/24 07:49:18","新北市坪林區九芎根4-1號","121.66611","24.8849833333333","6502000","坪林區"
"232010","375-UM","2018/05/24 07:49:17","新北市坪林區厚德岡坑8-5號","121.733156666667","24.9409516666667","6502000","坪林區"
"232007","758-BX","2018/05/24 07:49:06","新北市坪林區九芎林23-9號","121.704995","24.9256733333333","6502000","坪林區"
"244003","248-BX","2018/05/24 07:49:04","新北市林口區頂福46號","121.346491666667","25.0956533333333","6501700","林口區"
"244020","838-TS","2018/05/24 07:49:16","新北市林口區粉寮69號","121.4048","25.0908033333333","6501700","林口區"
"222006","289-BY","2018/05/24 07:49:22","新北市深坑區文化街45號","121.616853333333","25.001705","6501800","深坑區"
"235001","611-BX","2018/05/24 07:49:07","新北市中和區圓通路367巷6號","121.49151","24.9892866666667","6500300","中和區"
"226005","5620-A6","2018/05/24 07:49:16","新北市平溪區平溪里平溪街10號","121.738735","25.0249133333333","6502400","平溪區"
"226007","7418-A5","2018/05/24 07:49:17","新北市平溪區平湖里坑頭3號","121.783166666667","25.0260133333333","6502400","平溪區"
"226003","AGD-0702","2018/05/24 07:36:12","新北市平溪區嶺腳里嶺腳寮83-2號","121.750496666667","25.035095","6502400","平溪區"
"223006","022-BY","2018/05/24 07:45:03","新北市石碇區八分寮47-1號","121.64319","25.0137066666667","6501900","石碇區"
"223002","KEA-2673","2018/05/24 07:49:08","新北市石碇區北宜路五段大湖巷12號","121.634958333333","24.94244","6501900","石碇區"
"223003","205-TH","2018/05/24 07:49:18","新北市石碇區四分子8-1號","121.66396","24.963975","6501900","石碇區"
"223008","406-TH","2018/05/24 07:23:33","新北市石碇區靜安路一段337號","121.698851666667","25.0146383333333","6501900","石碇區"
"223001","592-UM","2018/05/24 07:49:11","新北市石碇區四分子3號","121.664081666667","24.9640933333333","6501900","石碇區"
"223004","660-BX","2018/05/24 07:49:22","新北市石碇區楓子林30號","121.642313333333","25.00954","6501900","石碇區"
"223007","661-BX","2018/05/24 07:39:59","新北市石碇區靜安路一段337號","121.69892","25.0145483333333","6501900","石碇區"
"223005","677-TV","2018/05/24 07:46:26","新北市石碇區靜安路一段5號","121.641616666667","25.0115783333333","6501900","石碇區"
"227007","282-VK","2018/05/24 07:49:17","新北市雙溪區雙溪里太平路54號","121.864796666667","25.0354766666667","6502500","雙溪區"
"252004","249-BX","2018/05/24 07:49:09","新北市三芝區店子里菜公坑75號","121.509796666667","25.2061883333333","6502100","三芝區"
"252007","AAC-283","2018/05/24 07:49:03","新北市三芝區後厝里北勢子12-10號","121.474376666667","25.254795","6502100","三芝區"
"237001","159-UY","2018/05/24 07:49:09","新北市三峽區學成路258號","121.375286666667","24.94241","6500900","三峽區"
"236009","165-UM","2018/05/24 07:49:00","新北市土城區延吉街359號","121.464305","24.9839683333333","6501300","土城區"
"236003","339-SR","2018/05/24 07:49:17","新北市土城區龍泉路89-3號","121.447188333333","24.9437466666667","6501300","土城區"
"242033","AAC-296","2018/05/24 07:49:15","新北市新莊區新泰路357巷2號","121.44199","25.041465","6500500","新莊區"
"242057","986-R7","2018/05/24 07:49:09","新北市新莊區中正路400號","121.441631666667","25.0339266666667","6500500","新莊區"
"242052","751-BX","2018/05/24 07:49:21","新北市新莊區環河路636-7號","121.436691666667","25.0108066666667","6500500","新莊區"
"242026","615-BX","2018/05/24 07:49:14","新北市新莊區中港路336號","121.452206666667","25.045815","6500500","新莊區"
"242028","612-BX","2018/05/24 07:49:21","新北市新莊區幸福路914號","121.442461666667","25.0485916666667","6500500","新莊區"
"242040","566-BX","2018/05/24 07:49:15","新北市新莊區中正路483號","121.441148333333","25.0336266666667","6500500","新莊區"
"242045","442-UM","2018/05/24 07:49:15","新北市新莊區新樹路65-5號","121.439438333333","25.030825","6500500","新莊區"
"242049","441-UM","2018/05/24 07:49:08","新北市新莊區瓊林南路33-9號","121.436006666667","25.0178016666667","6500500","新莊區"
"242055","440-UM","2018/05/24 07:49:06","新北市新莊區中正路471號","121.441923333333","25.033425","6500500","新莊區"
"242035","415-TV","2018/05/24 07:49:04","新北市新莊區中正路475號","121.441543333333","25.03383","6500500","新莊區"
"242006","413-TV","2018/05/24 07:49:18","新北市新莊區中和街59巷12號","121.446916666667","25.0468283333333","6500500","新莊區"
"242022","362-BY","2018/05/24 07:49:06","新北市新莊區新泰路500號","121.442578333333","25.0459916666667","6500500","新莊區"
"242059","353-BY","2018/05/24 07:49:03","新北市新莊區新泰路357巷2-2號","121.441953333333","25.0412933333333","6500500","新莊區"
"242008","132-UY","2018/05/24 07:49:14","新北市新莊區中和街59巷8號","121.447011666667","25.046785","6500500","新莊區"
"242038","133-UY","2018/05/24 07:49:07","新北市新莊區新樹路133號","121.437021666667","25.026025","6500500","新莊區"
"242030","135-UY","2018/05/24 07:49:16","新北市新莊區三和路12-21號","121.442033333333","25.03827","6500500","新莊區"
"242047","172-VK","2018/05/24 07:49:04","新北市新莊區龍安路252-2號","121.42119","25.0195433333333","6500500","新莊區"
"242016","175-VK","2018/05/24 07:49:20","新北市新莊區中港一街159號","121.447421666667","25.0449766666667","6500500","新莊區"
"242003","176-VK","2018/05/24 07:49:18","新北市新莊區新泰路486號","121.442531666667","25.045755","6500500","新莊區"
"242020","348-TH","2018/05/24 07:49:16","新北市新莊區中港路316號","121.452338333333","25.0454066666667","6500500","新莊區"
"242018","350-TH","2018/05/24 07:49:11","新北市新莊區中港一街142號","121.44673","25.04494","6500500","新莊區"
"242012","351-TH","2018/05/24 07:49:14","新北市新莊區新泰路381巷41號","121.442335","25.04357","6500500","新莊區"
"242001","KEA-2550","2018/05/24 07:49:12","新北市新莊區新豐街2號","121.4492","25.0347733333333","6500500","新莊區"
"220018","282-UM","2018/05/24 07:49:10","新北市板橋區南門街1號","121.457876666667","25.00945","6500100","板橋區"
"242012","281-VK","2018/05/24 07:49:14","新北市新莊區中正路471號","121.441771666667","25.033815","6500500","新莊區"
