"lineid","car","time","location","longitude","latitude","cityid","cityname"
"232001","290-BY","2018/05/24 07:59:18","新北市坪林區坪雙路一段82號","121.718293333333","24.9446183333333","6502000","坪林區"
"232014","291-BY","2018/05/24 07:59:18","新北市坪林區金瓜寮24-3號","121.679066666667","24.909335","6502000","坪林區"
"232010","375-UM","2018/05/24 07:59:17","新北市坪林區厚德岡坑8-5號","121.733158333333","24.9409533333333","6502000","坪林區"
"232007","758-BX","2018/05/24 07:59:06","新北市坪林區九芎林24-2號","121.704073333333","24.9250766666667","6502000","坪林區"
"244012","069-UM","2018/05/24 07:59:07","新北市林口區粉寮69號","121.405095","25.0907866666667","6501700","林口區"
"244003","248-BX","2018/05/24 07:59:04","新北市林口區頂福里34號","121.354195","25.09858","6501700","林口區"
"244018","403-UM","2018/05/24 07:59:03","新北市林口區粉寮69號","121.405073333333","25.09083","6501700","林口區"
"244008","410-SL","2018/05/24 07:59:05","新北市林口區粉寮69號","121.405043333333","25.0908666666667","6501700","林口區"
"244022","483-VK","2018/05/24 07:59:05","新北市林口區粉寮路60-17號","121.404253333333","25.090125","6501700","林口區"
"244020","838-TS","2018/05/24 07:59:16","新北市林口區粉寮69號","121.404805","25.0908033333333","6501700","林口區"
"222006","289-BY","2018/05/24 07:59:02","新北市深坑區文化街45號","121.616935","25.00174","6501800","深坑區"
"231069","189-VK","2018/05/24 07:59:05","新北市新店區安華路28-1號","121.519933333333","24.9610533333333","6500600","新店區"
"231008","192-VK","2018/05/24 07:59:03","新北市新店區安一路一段1-1號","121.519143333333","24.96121","6500600","新店區"
"235001","611-BX","2018/05/24 07:59:07","新北市中和區圓通路367巷6號","121.491498333333","24.9892216666667","6500300","中和區"
"226005","5620-A6","2018/05/24 07:59:16","新北市平溪區石底里公園街18-3號","121.733315","25.0257883333333","6502400","平溪區"
"226007","7418-A5","2018/05/24 07:59:17","新北市平溪區南山里乾坑11號","121.783133333333","25.046995","6502400","平溪區"
"226003","AGD-0702","2018/05/24 07:59:12","新北市平溪區新寮里頂寮子3-10號","121.773718333333","25.0517966666667","6502400","平溪區"
"223006","022-BY","2018/05/24 07:59:19","新北市深坑區昇高坑路34號","121.627696666667","24.999815","6501900","石碇區"
"223002","KEA-2673","2018/05/24 07:59:08","新北市石碇區北宜路五段80號","121.646265","24.9516383333333","6501900","石碇區"
"223003","205-TH","2018/05/24 07:59:18","新北市石碇區月扇湖3-6號","121.660353333333","24.956235","6501900","石碇區"
"223008","406-TH","2018/05/24 07:59:10","新北市石碇區靜安路一段291號","121.694911666667","25.007045","6501900","石碇區"
"223001","592-UM","2018/05/24 07:59:11","新北市石碇區月扇湖3-6號","121.66055","24.956235","6501900","石碇區"
"223004","660-BX","2018/05/24 07:59:02","新北市石碇區楓子林61號","121.64483","25.0109183333333","6501900","石碇區"
"223005","677-TV","2018/05/24 07:59:10","新北市石碇區靜安路一段13號","121.642028333333","25.0113783333333","6501900","石碇區"
"227007","282-VK","2018/05/24 07:59:17","新北市雙溪區平林里梅竹蹊16號","121.862016666667","25.0359666666667","6502500","雙溪區"
"252004","249-BX","2018/05/24 07:59:09","新北市三芝區興華里車埕16-2號","121.50641","25.2009466666667","6502100","三芝區"
"252007","AAC-283","2018/05/24 07:59:03","新北市三芝區海景一街44號","121.475496666667","25.2466266666667","6502100","三芝區"
"237001","159-UY","2018/05/24 07:59:09","新北市三峽區大學路45號","121.37684","24.9405983333333","6500900","三峽區"
"236009","165-UM","2018/05/24 07:59:20","新北市土城區清水路306號","121.46279","24.9839716666667","6501300","土城區"
"236003","339-SR","2018/05/24 07:59:05","新北市土城區龍泉路85號","121.441825","24.942935","6501300","土城區"
"242033","AAC-296","2018/05/24 07:59:15","新北市新莊區瓊林路13-8號","121.448183333333","25.03027","6500500","新莊區"
"242057","986-R7","2018/05/24 07:59:09","新北市新莊區中正路530號","121.43095","25.0315983333333","6500500","新莊區"
"242052","751-BX","2018/05/24 07:59:21","新北市新莊區瓊林南路218號","121.433576666667","25.00577","6500500","新莊區"
"242026","615-BX","2018/05/24 07:59:14","新北市新莊區思源路32號","121.460191666667","25.0410316666667","6500500","新莊區"
"242028","612-BX","2018/05/24 07:58:02","新北市新莊區幸福路14號","121.4591","25.049505","6500500","新莊區"
"242040","566-BX","2018/05/24 07:59:15","新北市新莊區新樹路113巷33號","121.439536666667","25.0263916666667","6500500","新莊區"
"242045","442-UM","2018/05/24 07:59:15","新北市新莊區福營路15-2號","121.438228333333","25.0325233333333","6500500","新莊區"
"242049","441-UM","2018/05/24 07:59:08","新北市新莊區新樹路268巷82號","121.430713333333","25.0161966666667","6500500","新莊區"
"242055","440-UM","2018/05/24 07:59:06","新北市新莊區新泰路61號","121.449461666667","25.034125","6500500","新莊區"
"242035","415-TV","2018/05/24 07:59:04","新北市新莊區建國二路1號","121.434873333333","25.0236616666667","6500500","新莊區"
"242006","413-TV","2018/05/24 07:59:18","新北市新莊區福樂街118巷17號","121.457471666667","25.048365","6500500","新莊區"
"242022","362-BY","2018/05/24 07:59:07","新北市新莊區公園路152號","121.453191666667","25.040035","6500500","新莊區"
"242059","353-BY","2018/05/24 07:59:03","新北市新莊區瓊林路59-88號","121.439526666667","25.021045","6500500","新莊區"
"242008","132-UY","2018/05/24 07:59:14","新北市新莊區中原路185號","121.453078333333","25.05437","6500500","新莊區"
"242038","133-UY","2018/05/24 07:59:07","新北市新莊區民安路270號","121.427603333333","25.021335","6500500","新莊區"
"242030","135-UY","2018/05/24 07:59:16","新北市新莊區新泰路381巷38號","121.442508333333","25.0436783333333","6500500","新莊區"
"242047","172-VK","2018/05/24 07:59:04","新北市新莊區龍安路252-2號","121.421223333333","25.0195316666667","6500500","新莊區"
"242016","175-VK","2018/05/24 07:59:02","新北市新莊區復興路一段213號","121.452595","25.043715","6500500","新莊區"
"242003","176-VK","2018/05/24 07:59:19","新北市新莊區中港路286號","121.453078333333","25.0443433333333","6500500","新莊區"
"242014","346-TH","2018/05/24 07:59:09","新北市新莊區新泰路159號","121.447613333333","25.03693","6500500","新莊區"
"242020","348-TH","2018/05/24 07:59:16","新北市新莊區中華路一段8號","121.452008333333","25.0368733333333","6500500","新莊區"
"242018","350-TH","2018/05/24 07:59:11","新北市新莊區中港路61號","121.455321666667","25.0384233333333","6500500","新莊區"
"242012","351-TH","2018/05/24 07:59:14","新北市新莊區中誠街14號","121.451991666667","25.048265","6500500","新莊區"
"242001","KEA-2550","2018/05/24 07:59:13","新北市新莊區新莊路213號","121.455258333333","25.035415","6500500","新莊區"
"220018","282-UM","2018/05/24 07:59:09","新北市板橋區南雅西路一段116號","121.452666666667","25.0064783333333","6500100","板橋區"
"242043","281-VK","2018/05/24 07:59:14","新北市新莊區富國路101-1號","121.421373333333","25.0254966666667","6500500","新莊區"
