"lineid","car","time","location","longitude","latitude","cityid","cityname"
"244012","069-UM","2018/05/24 09:19:07","新北市林口區中正路514巷17號","121.381786666667","25.07756","6501700","林口區"
"244006","080-UY","2018/05/24 09:19:20","新北市林口區後湖5-1號","121.388843333333","25.098105","6501700","林口區"
"244003","248-BX","2018/05/24 09:19:04","新北市林口區下福里24號","121.318431666667","25.1215416666667","6501700","林口區"
"244018","403-UM","2018/05/24 09:19:23","新北市林口區忠孝路561巷2號","121.373096666667","25.06864","6501700","林口區"
"244008","410-SL","2018/05/24 09:19:05","新北市林口區竹林路276巷1號","121.390096666667","25.0816783333333","6501700","林口區"
"244022","483-VK","2018/05/24 09:19:05","新北市林口區仁愛路二段8號","121.385866666667","25.0763183333333","6501700","林口區"
"244016","485-VK","2018/05/24 09:19:11","新北市林口區文化二路一段68巷10-3號","121.366255","25.0687833333333","6501700","林口區"
"244010","657-BX","2018/05/24 09:19:09","新北市林口區中正路349號","121.387881666667","25.07769","6501700","林口區"
"222006","289-BY","2018/05/24 09:19:11","新北市深坑區北深路一段266-3號","121.629295","25.0098083333333","6501800","深坑區"
"231069","189-VK","2018/05/24 09:19:05","新北市新店區新潭路三段215巷25號","121.508175","24.9040616666667","6500600","新店區"
"231008","192-VK","2018/05/24 09:19:23","新北市新店區平廣路一段11號","121.537945","24.9073833333333","6500600","新店區"
"235001","611-BX","2018/05/24 09:19:07","新北市中和區中山路三段63巷9號","121.477238333333","25.0043383333333","6500300","中和區"
"226003","AGD-0702","2018/05/24 09:19:12","新北市平溪區嶺腳里嶺腳寮109號","121.744461666667","25.03279","6502400","平溪區"
"223003","205-TH","2018/05/24 09:19:10","新北市石碇區北宜路五段6號","121.630353333333","24.95691","6501900","石碇區"
"223008","406-TH","2018/05/24 09:19:15","新北市石碇區大湖格21號","121.697658333333","25.01849","6501900","石碇區"
"223001","592-UM","2018/05/24 09:19:11","新北市石碇區北宜路五段7號","121.629766666667","24.955315","6501900","石碇區"
"223004","660-BX","2018/05/24 09:19:22","新北市石碇區磨石坑14-2號","121.687601666667","24.9726366666667","6501900","石碇區"
"223005","677-TV","2018/05/24 09:19:22","新北市石碇區大崙16-2號","121.690836666667","24.9784916666667","6501900","石碇區"
"252004","249-BX","2018/05/24 09:19:09","新北市三芝區店子里店子43-2號","121.50423","25.2071","6502100","三芝區"
"252007","AAC-283","2018/05/24 09:19:03","新北市三芝區埔坪里埔頭坑41號","121.5046","25.2646016666667","6502100","三芝區"
"236009","165-UM","2018/05/24 09:19:20","新北市土城區中山路28號","121.423","24.9633783333333","6501300","土城區"
"236003","339-SR","2018/05/24 09:19:25","新北市土城區學府路二段136號","121.446336666667","24.97896","6501300","土城區"
"236005","498-BY","2018/05/24 09:19:21","新北市土城區中央路三段116巷1號","121.43486","24.9664066666667","6501300","土城區"
"242033","AAC-296","2018/05/24 09:19:15","新北市新莊區建中街90巷3弄2號","121.446826666667","25.03725","6500500","新莊區"
"242057","986-R7","2018/05/24 09:19:09","新北市新莊區龍安路266巷34號","121.421476666667","25.01862","6500500","新莊區"
"242052","751-BX","2018/05/24 09:19:21","新北市新莊區西盛街364號","121.427945","25.0136416666667","6500500","新莊區"
"242026","615-BX","2018/05/24 09:19:14","新北市新莊區思源路159號","121.459846666667","25.0446233333333","6500500","新莊區"
"242024","613-BX","2018/05/24 09:19:10","新北市新莊區五工二路50巷15號","121.461426666667","25.0657216666667","6500500","新莊區"
"242028","612-BX","2018/05/24 09:19:21","新北市新莊區中華路二段26-1號","121.453593333333","25.0450983333333","6500500","新莊區"
"242040","566-BX","2018/05/24 09:19:20","新北市新莊區中正路694巷63號","121.41762","25.0292016666667","6500500","新莊區"
"242045","442-UM","2018/05/24 09:19:15","新北市新莊區中正路新雅巷2弄15號","121.417818333333","25.02488","6500500","新莊區"
"242049","441-UM","2018/05/24 09:19:08","新北市新莊區民安西路59號","121.427356666667","25.0203066666667","6500500","新莊區"
"242055","440-UM","2018/05/24 09:19:06","新北市新莊區豐年街44號","121.4464","25.03204","6500500","新莊區"
"242035","415-TV","2018/05/24 09:19:14","新北市新莊區建安街85號","121.427195","25.0246216666667","6500500","新莊區"
"242006","413-TV","2018/05/24 09:19:18","新北市新莊區復興路三段66號","121.463825","25.0445283333333","6500500","新莊區"
"242022","362-BY","2018/05/24 09:19:18","新北市新莊區復興路三段58號","121.463395","25.044555","6500500","新莊區"
"242059","353-BY","2018/05/24 09:19:03","新北市新莊區瓊林路瓊英巷4弄2號","121.443628333333","25.0274666666667","6500500","新莊區"
"242038","133-UY","2018/05/24 09:19:07","新北市新莊區成功街61號","121.424948333333","25.0203816666667","6500500","新莊區"
"242030","135-UY","2018/05/24 09:19:16","新北市新莊區中正路362號","121.443333333333","25.03424","6500500","新莊區"
"242047","172-VK","2018/05/24 09:19:07","新北市新莊區龍安路252號","121.421143333333","25.0194966666667","6500500","新莊區"
"242010","173-VK","2018/05/24 09:19:04","新北市新莊區中信街69號","121.448896666667","25.05098","6500500","新莊區"
"242003","176-VK","2018/05/24 09:19:19","新北市新莊區頭興街18號","121.464971666667","25.0535666666667","6500500","新莊區"
"242014","346-TH","2018/05/24 09:19:09","新北市新莊區中和街2號","121.4485","25.04289","6500500","新莊區"
"242020","348-TH","2018/05/24 09:19:18","新北市新莊區和興街7號","121.447458333333","25.039015","6500500","新莊區"
"242018","350-TH","2018/05/24 09:19:11","新北市新莊區銘德街99號","121.455851666667","25.0434","6500500","新莊區"
"242012","351-TH","2018/05/24 09:19:13","新北市新莊區中信街118號","121.447803333333","25.0540383333333","6500500","新莊區"
"242001","KEA-2550","2018/05/24 09:19:24","新北市新莊區中正路145-12號","121.458748333333","25.037915","6500500","新莊區"
"242043","281-VK","2018/05/24 09:19:14","新北市新莊區中正路895-20號","121.412565","25.0214783333333","6500500","新莊區"
