"lineid","car","time","location","longitude","latitude","cityid","cityname"
"244012","069-UM","2018/05/24 09:49:07","新北市林口區麗園一街4巷2號","121.376143333333","25.07077","6501700","林口區"
"244003","248-BX","2018/05/24 09:49:04","新北市林口區粉寮69號","121.405013333333","25.0908816666667","6501700","林口區"
"244018","403-UM","2018/05/24 09:49:03","新北市林口區麗園二街51號","121.381113333333","25.0686733333333","6501700","林口區"
"244008","410-SL","2018/05/24 09:49:05","新北市林口區竹林路462號","121.387758333333","25.0851133333333","6501700","林口區"
"244022","483-VK","2018/05/24 09:49:05","新北市林口區民權路12巷5號","121.371641666667","25.07987","6501700","林口區"
"222006","289-BY","2018/05/24 09:48:50","新北市深坑區文山路三段15號","121.612943333333","24.9978066666667","6501800","深坑區"
"231069","189-VK","2018/05/24 09:49:05","新北市新店區新潭路三段215巷25號","121.50812","24.904075","6500600","新店區"
"231008","192-VK","2018/05/24 09:35:35","新北市新店區平廣路一段256號","121.507883333333","24.8883233333333","6500600","新店區"
"252004","249-BX","2018/05/24 09:49:09","新北市三芝區福德里大水堀32-4號","121.515001666667","25.2172483333333","6502100","三芝區"
"252007","AAC-283","2018/05/24 09:49:03","新北市三芝區新庄里新庄子78-2號","121.507783333333","25.272615","6502100","三芝區"
"237001","159-UY","2018/05/24 09:49:09","新北市三峽區國際一街33-2號","121.373381666667","24.9425116666667","6500900","三峽區"
"236005","498-BY","2018/05/24 09:49:01","新北市土城區中央路二段396巷16號","121.438901666667","24.9709683333333","6501300","土城區"
"242049","441-UM","2018/05/24 09:49:08","新北市八里區商港路48號","121.39617","25.145225","6500500","新莊區"
"242038","133-UY","2018/05/24 09:49:07","新北市新莊區瓊林路118-6號","121.442003333333","25.0250416666667","6500500","新莊區"
"242030","135-UY","2018/05/24 09:46:49","新北市新莊區中正路486-1號","121.436795","25.0330683333333","6500500","新莊區"
"242012","351-TH","2018/05/24 09:49:03","新北市八里區商港路120號","121.39253","25.1501233333333","6500500","新莊區"
