"lineid","car","time","location","longitude","latitude","cityid","cityname"
"244018","403-UM","2018/05/24 10:08:43","新北市林口區麗園一街35號","121.377668333333","25.0688083333333","6501700","林口區"
"244022","483-VK","2018/05/24 10:08:45","新北市林口區文化三路一段555巷88-1號","121.368763333333","25.0767133333333","6501700","林口區"
"222006","289-BY","2018/05/24 10:08:11","新北市深坑區大崙尾11號","121.614511666667","24.9792633333333","6501800","深坑區"
"231069","189-VK","2018/05/24 10:08:46","新北市新店區新潭路三段215巷25號","121.508163333333","24.9040583333333","6500600","新店區"
"231008","192-VK","2018/05/24 10:09:03","新北市新店區廣興路150號","121.536151666667","24.9099033333333","6500600","新店區"
"252004","249-BX","2018/05/24 10:08:49","新北市三芝區福德里埔尾7號","121.503651666667","25.2462833333333","6502100","三芝區"
"252007","AAC-283","2018/05/24 10:09:03","新北市三芝區古庄里古庄101-3號","121.493891666667","25.2703833333333","6502100","三芝區"
"242049","441-UM","2018/05/24 10:08:47","新北市八里區商港路48號","121.39519","25.1447433333333","6500500","新莊區"
"242012","351-TH","2018/05/24 10:07:03","新北市八里區荖阡坑路34號","121.402303333333","25.12869","6500500","新莊區"
