"lineid","car","time","location","longitude","latitude","cityid","cityname"
"234005","207-UY","2018/05/24 12:29:23","新北市永和區福和路1號","121.526295","25.010115","6500400","永和區"
"234078","298-R6","2018/05/24 12:29:17","新北市永和區環河東路三段60號","121.526803333333","25.0058083333333","6500400","永和區"
"234084","338-UY","2018/05/24 12:29:30","新北市永和區福和路1號","121.526086666667","25.009635","6500400","永和區"
"234068","552-UM","2018/05/24 12:29:25","新北市永和區福和路1號","121.525535","25.009585","6500400","永和區"
"234015","745-BX","2018/05/24 12:29:35","新北市永和區福和路1號","121.526345","25.0095816666667","6500400","永和區"
"234012","KEA-2591","2018/05/24 12:29:33","新北市永和區環河西路一段99號","121.511426666667","25.0179816666667","6500400","永和區"
"234076","969-R7","2018/05/24 12:29:22","新北市永和區福和路1號","121.526505","25.0097966666667","6500400","永和區"
"243008","380-SR","2018/05/24 12:13:03","新北市泰山區犁頭窠3-1號","121.422278333333","25.0606083333333","6501600","泰山區"
"228005","097-TW","2018/05/24 12:29:23","新北市貢寮區福連里蓬萊街15號","121.9901","24.9992466666667","6502600","貢寮區"
"228004","212-TW","2018/05/24 12:29:35","新北市貢寮區貢寮里長泰路1號","121.906128333333","25.018965","6502600","貢寮區"
"235025","KEA-2875","2018/05/24 12:29:23","新北市中和區員山路36巷16-2號","121.485313333333","24.9917283333333","6500300","中和區"
