"lineid","car","time","location","longitude","latitude","cityid","cityname"
"248015","026-BX","2018/05/24 15:09:35","新北市五股區凌雲路一段158巷39弄12號","121.4465","25.104075","6501500","五股區"
"248007","095-VK","2018/05/24 15:09:46","新北市五股區中興路一段1巷23號","121.469773333333","25.0706816666667","6501500","五股區"
"248017","225-UY","2018/05/24 15:09:48","新北市五股區登林路97-2號","121.415801666667","25.0754166666667","6501500","五股區"
"248003","677-BX","2018/05/24 15:09:47","新北市五股區成泰路一段153號","121.435306666667","25.0739316666667","6501500","五股區"
"248009","682-TV","2018/05/24 15:09:33","新北市五股區新五路二段220號","121.438673333333","25.0788216666667","6501500","五股區"
"244003","248-BX","2018/05/24 15:09:50","新北市林口區竹林路265號","121.389661666667","25.0807283333333","6501700","林口區"
"243001","297-R6","2018/05/24 15:09:47","新北市泰山區泰林路二段542巷3弄11號","121.422871666667","25.0642433333333","6501600","泰山區"
"243008","380-SR","2018/05/24 15:09:45","新北市泰山區明志路二段382號","121.425395","25.0445716666667","6501600","泰山區"
"243007","421-VK","2018/05/24 15:09:39","新北市泰山區泰林路二段47號","121.435465","25.0574666666667","6501600","泰山區"
"243004","646-TV","2018/05/24 15:09:52","新北市泰山區泰林路二段527號","121.423576666667","25.0637383333333","6501600","泰山區"
"243006","680-BX","2018/05/24 15:09:51","新北市泰山區橫窠雅26-7號","121.40855","25.072145","6501600","泰山區"
"231002","002-UM","2018/05/24 15:09:46","新北市新店區中正路698號","121.534053333333","24.990585","6500600","新店區"
"231028","046-UY","2018/05/24 15:09:37","新北市新店區僑愛五路15號","121.499451666667","24.9441016666667","6500600","新店區"
"231001","047-UY","2018/05/24 15:09:36","新北市新店區中正路177號","121.540868333333","24.9721716666667","6500600","新店區"
"231005","106-UY","2018/05/24 15:09:43","新北市新店區北新路三段126號","121.541648333333","24.98179","6500600","新店區"
"231021","108-UY","2018/05/24 15:09:32","新北市新店區永福路51-1號","121.560495","24.9277033333333","6500600","新店區"
"231011","187-VK","2018/05/24 15:09:42","新北市新店區寶元路一段65號","121.542238333333","24.985805","6500600","新店區"
"231023","KEA-2219","2018/05/24 15:09:42","新北市新店區檳榔路109號","121.544533333333","24.961625","6500600","新店區"
"231026","256-BX","2018/05/24 15:09:53","新北市新店區建興街9巷1號","121.539876666667","24.976365","6500600","新店區"
"231003","268-BY","2018/05/24 15:09:49","新北市新店區寶橋路103號","121.548261666667","24.97678","6500600","新店區"
"231018","278-BY","2018/05/24 15:09:48","新北市新店區中央七街115號","121.525476666667","24.9778416666667","6500600","新店區"
"231017","AAD-862","2018/05/24 15:09:46","新北市新店區明山路45號","121.56385","24.9557983333333","6500600","新店區"
"231038","3712-VJ","2018/05/24 15:09:51","新北市新店區安華路28-1號","121.519668333333","24.9609133333333","6500600","新店區"
"231037","4716-K9","2018/05/24 15:09:41","新北市新店區安興路65巷6號","121.515971666667","24.9728166666667","6500600","新店區"
"231025","4715-K9","2018/05/24 15:09:41","新北市新店區二十張路33巷20-1號","121.539041666667","24.9808666666667","6500600","新店區"
"231036","512-UM","2018/05/24 15:09:51","新北市新店區安祥路102巷62號","121.485455","24.964225","6500600","新店區"
"231034","616-UM","2018/05/24 15:09:43","新北市新店區玫瑰路4-1號","121.493635","24.9513916666667","6500600","新店區"
"231039","718-UY","2018/05/24 15:09:47","新北市新店區寶安街4巷1號","121.54229","24.9810016666667","6500600","新店區"
"231035","719-UM","2018/05/24 15:09:41","新北市新店區永安街56巷6-4號","121.518308333333","24.986125","6500600","新店區"
"231031","720-UM","2018/05/24 15:09:37","新北市新店區安泰路76號","121.485935","24.9458816666667","6500600","新店區"
"231029","897-TW","2018/05/24 15:09:53","新北市新店區安康路三段740號","121.473775","24.9420016666667","6500600","新店區"
"231006","898-TW","2018/05/24 15:09:55","新北市新店區新坡一街16號","121.548908333333","24.96183","6500600","新店區"
"231004","899-TW","2018/05/24 15:09:42","新北市新店區建國路86號","121.540586666667","24.9768816666667","6500600","新店區"
"231024","AKT-0513","2018/05/24 15:09:51","新北市新店區北新路一段297巷12號","121.540953333333","24.9677416666667","6500600","新店區"
"235020","096-UM","2018/05/24 15:09:38","新北市中和區中山路二段481號","121.482878333333","25.00501","6500300","中和區"
"235003","097-UM","2018/05/24 15:09:37","新北市中和區宜安路52巷3號","121.512105","24.9969233333333","6500300","中和區"
"235004","150-BY","2018/05/24 15:09:32","新北市中和區景安路79巷21號","121.507015","24.996735","6500300","中和區"
"235031","255-BX","2018/05/24 15:09:38","新北市五股區成泰路一段98巷77號","121.451506666667","25.0762316666667","6500300","中和區"
"235007","352-BY","2018/05/24 15:09:41","新北市中和區興南路二段159巷1-2號","121.505176666667","24.98335","6500300","中和區"
"235014","4979-A6","2018/05/24 15:09:55","新北市中和區安樂路1號","121.51154","24.9918833333333","6500300","中和區"
"235033","4980-A6","2018/05/24 15:09:29","新北市中和區景新街132巷8號","121.504715","24.9981616666667","6500300","中和區"
"235034","558-UM","2018/05/24 15:09:48","新北市中和區中正路366號","121.493468333333","24.9941566666667","6500300","中和區"
"235018","640-BX","2018/05/24 15:09:41","新北市中和區民享街35巷8弄15號","121.474611666667","25.0035366666667","6500300","中和區"
"235035","783-BX","2018/05/24 15:09:41","新北市中和區中正路988巷12號","121.482003333333","25.0098183333333","6500300","中和區"
"235012","896-TW","2018/05/24 15:09:50","新北市中和區興南路一段129號","121.508905","24.987625","6500300","中和區"
"235030","911-UM","2018/05/24 15:09:43","新北市中和區保平路231號","121.50801","25.0042916666667","6500300","中和區"
"235001","AAC-213","2018/05/24 15:09:39","新北市中和區景平路4號","121.524383333333","24.99051","6500300","中和區"
"235023","AAC-215","2018/05/24 15:09:36","新北市中和區圓通路391-7號","121.489675","24.9892183333333","6500300","中和區"
"220017","AAD-861","2018/05/24 15:09:39","新北市板橋區大明街18-8號","121.458801666667","25.0026033333333","6500100","板橋區"
"228004","212-TW","2018/05/24 15:09:35","新北市貢寮區雙玉里田寮洋街16-2號","121.921788333333","25.0252","6502600","貢寮區"
"253003","6232-TK","2018/05/24 15:09:50","新北市石門區阿里磅1號","121.586656666667","25.2918066666667","6502200","石門區"
"253001","6251-TK","2018/05/24 15:09:40","新北市石門區楓林23號","121.536236666667","25.289565","6502200","石門區"
"253002","637-UY","2018/05/24 15:09:33","新北市石門區小坑9號","121.594488333333","25.2891866666667","6502200","石門區"
"253004","8270-PC","2018/05/24 15:09:46","新北市石門區坪林6-1號","121.591948333333","25.2746416666667","6502200","石門區"
"207002","749-BX","2018/05/24 15:09:13","新北市萬里區崁腳里內中福路97號","121.653738333333","25.163915","6502800","萬里區"
"207001","662-BX","2018/05/24 15:09:37","新北市萬里區磺潭里員潭路14-1號","121.646726666667","25.198895","6502800","萬里區"
"236040","107-UM","2018/05/24 15:09:42","新北市土城區裕民路259號","121.454956666667","24.982835","6501300","土城區"
"236074","166-UM","2018/05/24 15:09:39","新北市土城區中州路3巷11弄2號","121.414121666667","24.957025","6501300","土城區"
"236029","253-BX","2018/05/24 15:09:52","新北市土城區福祥街12號","121.440793333333","24.9796983333333","6501300","土城區"
"236024","269-VK","2018/05/24 15:09:45","新北市土城區中正路67巷14號","121.444458333333","24.97617","6501300","土城區"
"236012","270-VK","2018/05/24 15:09:45","新北市土城區學府路一段75巷1弄2號","121.457225","24.9876766666667","6501300","土城區"
"236032","271-VK","2018/05/24 15:09:36","新北市土城區明德路一段174號","121.462576666667","24.9784016666667","6501300","土城區"
"236068","KEA-2877","2018/05/24 15:09:47","新北市土城區裕民路45-1號","121.448521666667","24.9881683333333","6501300","土城區"
"236017","401-BY","2018/05/24 15:09:55","新北市土城區延峰街28號","121.469316666667","24.9852733333333","6501300","土城區"
"236057","912-UM","2018/05/24 15:09:41","新北市土城區金城路二段229號","121.455525","24.98242","6501300","土城區"
"236045","913-UM","2018/05/24 15:09:51","新北市土城區清水路144號","121.458893333333","24.9814666666667","6501300","土城區"
"236054","AAC-216","2018/05/24 15:09:47","新北市土城區學府路一段239號","121.450663333333","24.9836533333333","6501300","土城區"
"238002","755-BX","2018/05/24 15:09:47","新北市樹林區中山路三段111號","121.399375","24.9744683333333","6500700","樹林區"
"238010","601-UM","2018/05/24 15:09:52","新北市樹林區大安路320號","121.41711","24.991445","6500700","樹林區"
"238006","599-UM","2018/05/24 15:09:46","新北市樹林區八德街170號","121.42169","24.9781133333333","6500700","樹林區"
"238005","571-TV","2018/05/24 15:09:50","新北市板橋區大觀路三段59巷17弄5-1號","121.435201666667","24.995205","6500700","樹林區"
"238011","5061-A6","2018/05/24 15:09:36","新北市樹林區博愛街233號","121.424215","24.9854333333333","6500700","樹林區"
"238009","KEA-2213","2018/05/24 15:09:46","新北市樹林區忠孝街91號","121.424285","24.9811816666667","6500700","樹林區"
"238008","KEA-2539","2018/05/24 15:09:51","新北市樹林區西圳街一段165巷20弄11號","121.39565","24.96017","6500700","樹林區"
"238012","303-VK","2018/05/24 15:09:34","新北市樹林區中山路一段296號","121.420336666667","24.9864333333333","6500700","樹林區"
"238001","283-BY","2018/05/24 15:09:44","新北市樹林區八德街224號","121.415465","24.971735","6500700","樹林區"
"238001","282-BY","2018/05/24 15:09:39","新北市樹林區保安街一段193-1號","121.420791666667","24.995815","6500700","樹林區"
"238003","169-UY","2018/05/24 15:09:47","新北市樹林區大安路576號","121.411853333333","24.98367","6500700","樹林區"
"220030","610-BX","2018/05/24 15:09:43","新北市板橋區大觀路三段201號","121.431741666667","24.9930833333333","6500100","板橋區"
"220050","245-BX","2018/05/24 15:09:50","新北市板橋區莒光路165巷32號","121.474418333333","25.0246683333333","6500100","板橋區"
"220038","280-UM","2018/05/24 15:09:52","新北市板橋區互助街90號","121.460283333333","25.0262383333333","6500100","板橋區"
"220001","285-VK","2018/05/24 15:09:46","新北市板橋區懷仁街79號","121.47733","25.0184166666667","6500100","板橋區"
"220031","286-VK","2018/05/24 15:09:41","新北市板橋區大觀路一段38巷156弄150號","121.44404","25.0087816666667","6500100","板橋區"
"220029","287-VK","2018/05/24 15:09:29","新北市板橋區僑中一街102巷5弄9號","121.446343333333","25.01264","6500100","板橋區"
"220009","293-UM","2018/05/24 15:09:42","新北市板橋區中山路一段2號","121.459683333333","25.0076083333333","6500100","板橋區"
"220041","307-R5","2018/05/24 15:09:50","新北市板橋區幸福路70巷5號","121.460603333333","25.0202166666667","6500100","板橋區"
"220047","317-R6","2018/05/24 15:09:39","新北市板橋區新海路72巷5弄22號","121.461773333333","25.0226883333333","6500100","板橋區"
"220012","486-VK","2018/05/24 15:09:37","新北市板橋區長安街331巷3號","121.474233333333","25.0121683333333","6500100","板橋區"
"220037","491-VK","2018/05/24 15:09:36","新北市板橋區懷德街78巷1號","121.478388333333","25.0314866666667","6500100","板橋區"
"220104","560-BX","2018/05/24 15:09:46","新北市板橋區新生街35號","121.456665","25.0211333333333","6500100","板橋區"
"220052","561-BX","2018/05/24 15:09:51","新北市板橋區英士路58巷13-1號","121.460556666667","25.0253566666667","6500100","板橋區"
"220011","609-BX","2018/05/24 15:09:42","新北市板橋區中山路二段387號","121.480213333333","25.0193216666667","6500100","板橋區"
"220025","687-BX","2018/05/24 15:09:41","新北市板橋區僑中一街124巷73號","121.446776666667","25.01767","6500100","板橋區"
"220042","689-BX","2018/05/24 15:09:53","新北市板橋區文化路二段656號","121.480168333333","25.035665","6500100","板橋區"
"220002","741-BX","2018/05/24 15:09:44","新北市板橋區實踐路93巷21號","121.465006666667","25.005375","6500100","板橋區"
"220051","KEA-2699","2018/05/24 15:09:43","新北市板橋區懷德街78巷21號","121.477833333333","25.0311883333333","6500100","板橋區"
"220003","827-TW","2018/05/24 15:09:54","新北市板橋區仁愛路47巷2號","121.45977","24.9994716666667","6500100","板橋區"
"220014","829-TW","2018/05/24 15:09:52","新北市板橋區中山路一段208號","121.469891666667","25.013805","6500100","板橋區"
"220016","830-TW","2018/05/24 15:09:51","新北市板橋區中山路二段400號","121.482658333333","25.0207866666667","6500100","板橋區"
"220045","831-TW","2018/05/24 15:09:51","新北市板橋區莒光路79巷6號","121.472008333333","25.024415","6500100","板橋區"
"220046","AAC-210","2018/05/24 15:09:39","新北市板橋區光正街18巷11號","121.46263","25.0176166666667","6500100","板橋區"
"220018","AAC-253","2018/05/24 15:09:53","新北市板橋區成都街12號","121.460336666667","25.004785","6500100","板橋區"
"235032","KEA-2873","2018/05/24 15:09:34","新北市中和區建一路18號","121.487836666667","25.0037133333333","6500300","中和區"
