"lineid","car","time","location","longitude","latitude","cityid","cityname"
"248007","095-VK","2018/05/24 15:18:46","新北市五股區中興路二段83巷26-6號","121.459616666667","25.0751666666667","6501500","五股區"
"248003","677-BX","2018/05/24 15:18:47","新北市五股區中興路四段23號","121.438838333333","25.082735","6501500","五股區"
"243008","380-SR","2018/05/24 15:18:45","新北市泰山區明志路二段279號","121.426866666667","25.047125","6501600","泰山區"
"231002","002-UM","2018/05/24 15:18:46","新北市新店區中正路700巷1號","121.533953333333","24.9912033333333","6500600","新店區"
"231028","046-UY","2018/05/24 15:18:37","新北市新店區僑信路108巷42號","121.498996666667","24.946525","6500600","新店區"
"231001","047-UY","2018/05/24 15:18:43","新北市新店區北新路一段331號","121.541715","24.9685133333333","6500600","新店區"
"231005","106-UY","2018/05/24 15:18:56","新北市新店區建國路220號","121.537681666667","24.981205","6500600","新店區"
"231021","108-UY","2018/05/24 15:18:52","新北市新店區湖興路101號","121.564805","24.9321183333333","6500600","新店區"
"231011","187-VK","2018/05/24 15:18:42","新北市新店區寶元路一段65號","121.542243333333","24.9857983333333","6500600","新店區"
"231023","KEA-2219","2018/05/24 15:18:56","新北市新店區北新路一段64巷43號","121.54227","24.96569","6500600","新店區"
"231026","256-BX","2018/05/24 15:18:53","新北市新店區中正路265巷22號","121.537595","24.973495","6500600","新店區"
"231003","268-BY","2018/05/24 15:18:52","新北市新店區寶橋路230號","121.551541666667","24.9788383333333","6500600","新店區"
"231018","278-BY","2018/05/24 15:18:48","新北市新店區中央七街61巷1號","121.528083333333","24.976455","6500600","新店區"
"231017","AAD-862","2018/05/24 15:18:46","新北市新店區明山路45號","121.563863333333","24.9557733333333","6500600","新店區"
"231038","3712-VJ","2018/05/24 15:18:51","新北市新店區安華路28-1號","121.519701666667","24.96087","6500600","新店區"
"231037","4716-K9","2018/05/24 15:18:41","新北市新店區安興路56號","121.516601666667","24.9748366666667","6500600","新店區"
"231025","4715-K9","2018/05/24 15:18:41","新北市新店區民權路109號","121.53625","24.98206","6500600","新店區"
"231036","512-UM","2018/05/24 15:18:51","新北市新店區安祥路69巷17號","121.481915","24.96135","6500600","新店區"
"231034","616-UM","2018/05/24 15:18:43","新北市新店區如意街5巷2號","121.495388333333","24.948905","6500600","新店區"
"231030","619-UM","2018/05/24 15:18:27","新北市新店區安民街341-1號","121.516848333333","24.9749816666667","6500600","新店區"
"231039","718-UY","2018/05/24 15:18:47","新北市新店區寶元路一段65號","121.542201666667","24.985805","6500600","新店區"
"231035","719-UM","2018/05/24 15:18:41","新北市新店區永平街23巷5號","121.51679","24.9830533333333","6500600","新店區"
"231031","720-UM","2018/05/24 15:18:37","新北市新店區雙城路2巷1號","121.491278333333","24.95119","6500600","新店區"
"231029","897-TW","2018/05/24 15:18:53","新北市新店區安康路三段740號","121.473816666667","24.9419866666667","6500600","新店區"
"231006","898-TW","2018/05/24 15:18:55","新北市新店區北新路一段2號","121.540821666667","24.9651733333333","6500600","新店區"
"231004","899-TW","2018/05/24 15:18:42","新北市新店區博愛街13巷24號","121.540248333333","24.9740683333333","6500600","新店區"
"231024","AKT-0513","2018/05/24 15:18:51","新北市新店區光明街223號","121.54014","24.96422","6500600","新店區"
"241017","063-VK","2018/05/24 15:18:50","新北市三重區重新路四段121號","121.484911666667","25.0519183333333","6500200","三重區"
"241013","270-UM","2018/05/24 15:18:53","新北市三重區重新路四段121號","121.484781666667","25.0525466666667","6500200","三重區"
"235020","096-UM","2018/05/24 15:18:38","新北市三重區光復路二段87巷63號","121.47566","25.0584566666667","6500300","中和區"
"235003","097-UM","2018/05/24 15:18:54","新北市中和區安平路64號","121.51065","24.996075","6500300","中和區"
"235031","255-BX","2018/05/24 15:18:38","新北市八里區商港路88-4號","121.39407","25.1482416666667","6500300","中和區"
"235014","4979-A6","2018/05/24 15:18:57","新北市中和區景平路462號","121.505713333333","24.9935216666667","6500300","中和區"
"235033","4980-A6","2018/05/24 15:18:49","新北市中和區圓通路192號","121.496413333333","24.99461","6500300","中和區"
"235012","896-TW","2018/05/24 15:18:50","新北市中和區景新街347號","121.512016666667","24.9910633333333","6500300","中和區"
"235030","911-UM","2018/05/24 15:18:50","新北市中和區南工路87號","121.507185","25.0031066666667","6500300","中和區"
"235023","AAC-215","2018/05/24 15:18:36","新北市中和區圓通路316號","121.486363333333","24.9876783333333","6500300","中和區"
"220017","AAD-861","2018/05/24 15:18:39","新北市板橋區大明街18-5號","121.458788333333","25.0029883333333","6500100","板橋區"
"253003","6232-TK","2018/05/24 15:18:50","新北市石門區小坑9號","121.59426","25.2886483333333","6502200","石門區"
"253001","6251-TK","2018/05/24 15:18:40","新北市石門區尖子鹿105號","121.577006666667","25.29762","6502200","石門區"
"253002","637-UY","2018/05/24 15:18:53","新北市石門區小坑9號","121.594048333333","25.2886966666667","6502200","石門區"
"253004","8270-PC","2018/05/24 15:18:46","新北市石門區小坑29-1號","121.598011666667","25.2714466666667","6502200","石門區"
"207002","749-BX","2018/05/24 15:18:53","新北市萬里區崁腳里內中福路38號","121.659008333333","25.164175","6502800","萬里區"
"207001","662-BX","2018/05/24 15:18:37","新北市萬里區野柳里八斗60號","121.660498333333","25.2067916666667","6502800","萬里區"
"236040","107-UM","2018/05/24 15:18:42","新北市土城區金城路二段227號","121.45552","24.9823733333333","6501300","土城區"
"236074","166-UM","2018/05/24 15:18:39","新北市土城區中州路27巷15號","121.4134","24.957445","6501300","土城區"
"236029","253-BX","2018/05/24 15:18:52","新北市土城區中央路一段260-3號","121.443978333333","24.983975","6501300","土城區"
"236024","269-VK","2018/05/24 15:18:55","新北市土城區中央路二段61巷20號","121.442871666667","24.97884","6501300","土城區"
"236012","270-VK","2018/05/24 15:18:44","新北市土城區學府路一段23巷25弄18號","121.457911666667","24.9866483333333","6501300","土城區"
"236032","271-VK","2018/05/24 15:18:56","新北市土城區國際路139巷2號","121.468485","24.9765566666667","6501300","土城區"
"236068","KEA-2877","2018/05/24 15:18:47","新北市土城區學府路一段131號","121.45405","24.9865266666667","6501300","土城區"
"236017","401-BY","2018/05/24 15:18:55","新北市土城區峰廷街10號","121.468705","24.9877333333333","6501300","土城區"
"236057","912-UM","2018/05/24 15:18:41","新北市土城區金城路一段1號","121.43913","24.96893","6501300","土城區"
"236045","913-UM","2018/05/24 15:18:57","新北市土城區清水路332號","121.464035","24.98559","6501300","土城區"
"236060","915-UM","2018/05/24 15:18:42","新北市土城區延和路105巷8弄1號","121.467236666667","24.99138","6501300","土城區"
"236054","AAC-216","2018/05/24 15:18:47","新北市土城區學府路一段76號","121.456515","24.9882783333333","6501300","土城區"
"238002","755-BX","2018/05/24 15:18:47","新北市樹林區復興路223號","121.420128333333","24.991035","6500700","樹林區"
"238010","601-UM","2018/05/24 15:18:52","新北市樹林區中正路433號","121.415048333333","25.0085233333333","6500700","樹林區"
"238006","599-UM","2018/05/24 15:18:46","新北市樹林區八德街77號","121.419663333333","24.9818866666667","6500700","樹林區"
"238005","571-TV","2018/05/24 15:18:50","新北市樹林區中正路243號","121.430101666667","24.998505","6500700","樹林區"
"238011","5061-A6","2018/05/24 15:18:56","新北市樹林區東榮街8號","121.418136666667","24.9837966666667","6500700","樹林區"
"238009","KEA-2213","2018/05/24 15:18:46","新北市樹林區仁愛街73巷1號","121.423541666667","24.9827566666667","6500700","樹林區"
"238008","KEA-2539","2018/05/24 15:18:51","新北市樹林區西圳街一段165巷20弄11號","121.395645","24.9601616666667","6500700","樹林區"
"238012","303-VK","2018/05/24 15:18:54","新北市樹林區中山路一段296號","121.420351666667","24.9864333333333","6500700","樹林區"
"238001","283-BY","2018/05/24 15:18:44","新北市樹林區八德街37-3號","121.418798333333","24.9831183333333","6500700","樹林區"
"238001","282-BY","2018/05/24 15:18:39","新北市樹林區大安路43號","121.423941666667","24.999265","6500700","樹林區"
"238007","268-VK","2018/05/24 15:18:57","新北市樹林區俊英街90號","121.427773333333","25.0049","6500700","樹林區"
"238013","172-UY","2018/05/24 15:18:46","新北市樹林區東順街86-1號","121.408571666667","24.9757833333333","6500700","樹林區"
"238003","169-UY","2018/05/24 15:18:47","新北市樹林區中山路二段10號","121.417521666667","24.984995","6500700","樹林區"
"220050","245-BX","2018/05/24 15:18:50","新北市板橋區莒光路40巷7弄12-1號","121.47093","25.023805","6500100","板橋區"
"220038","280-UM","2018/05/24 15:18:52","新北市板橋區四維路243號","121.463735","25.0275033333333","6500100","板橋區"
"220031","286-VK","2018/05/24 15:18:41","新北市板橋區僑中二街104巷24號","121.445061666667","25.008065","6500100","板橋區"
"220009","293-UM","2018/05/24 15:18:42","新北市板橋區四川路一段290號","121.458588333333","25.000735","6500100","板橋區"
"220041","307-R5","2018/05/24 15:18:50","新北市板橋區民權路101巷2號","121.459395","25.0131766666667","6500100","板橋區"
"220037","491-VK","2018/05/24 15:18:56","新北市板橋區懷德街127巷23弄7號","121.479248333333","25.03173","6500100","板橋區"
"220011","609-BX","2018/05/24 15:18:42","新北市板橋區三民路一段98號","121.479241666667","25.0213733333333","6500100","板橋區"
"220042","689-BX","2018/05/24 15:18:53","新北市板橋區長江路二段210號","121.467741666667","25.03224","6500100","板橋區"
"220051","KEA-2699","2018/05/24 15:18:43","新北市板橋區縣民大道三段99號","121.476146666667","25.02224","6500100","板橋區"
"220046","AAC-210","2018/05/24 15:18:39","新北市板橋區光正街45巷2弄4號","121.4617","25.017535","6500100","板橋區"
"220018","AAC-253","2018/05/24 15:18:53","新北市板橋區德興街29號","121.453461666667","24.9939833333333","6500100","板橋區"
