"lineid","car","time","location","longitude","latitude","cityid","cityname"
"234046","149-BY","2018/05/24 18:58:56","新北市永和區得和路373巷16弄3號","121.525265","25.0001683333333","6500400","永和區"
"234007","207-UY","2018/05/24 18:59:13","新北市永和區中山路一段23號","121.513645","25.0105116666667","6500400","永和區"
"234081","298-R6","2018/05/24 18:58:54","新北市永和區永亨路70號","121.521231666667","25.0058983333333","6500400","永和區"
"234038","336-UY","2018/05/24 18:58:54","新北市中和區秀朗路三段38號","121.52648","24.9959116666667","6500400","永和區"
"234062","337-UY","2018/05/24 18:59:06","新北市永和區秀朗路一段134號","121.517835","25.0034133333333","6500400","永和區"
"234086","338-UY","2018/05/24 18:59:04","新北市永和區中正路393號","121.517226666667","25.0040733333333","6500400","永和區"
"234070","552-UM","2018/05/24 18:59:03","新北市永和區中興街94號","121.518808333333","25.0120116666667","6500400","永和區"
"234017","745-BX","2018/05/24 18:59:04","新北市永和區永和路二段297號","121.51603","25.0160683333333","6500400","永和區"
"234030","746-BX","2018/05/24 18:59:06","新北市永和區秀朗路二段278號","121.52607","24.9978333333333","6500400","永和區"
"234054","KEA-2590","2018/05/24 18:59:12","新北市永和區竹林路64號","121.518298333333","25.01344","6500400","永和區"
"234013","KEA-2591","2018/05/24 18:59:11","新北市永和區信義路17巷20號","121.51327","25.0111883333333","6500400","永和區"
"234061","AAD-866","2018/05/24 18:59:08","新北市永和區福和路295號","121.516596666667","25.0071916666667","6500400","永和區"
"234042","862-TW","2018/05/24 18:58:58","新北市永和區永貞路267號","121.511813333333","25.0047983333333","6500400","永和區"
"234050","863-TW","2018/05/24 18:59:09","新北市永和區文化路192巷8弄1號","121.510958333333","25.016495","6500400","永和區"
"234026","9371-KE","2018/05/24 18:59:16","新北市永和區安樂路320號","121.514438333333","25.0055733333333","6500400","永和區"
"234011","9373-KE","2018/05/24 18:59:11","新北市永和區文化路115號","121.512713333333","25.0152116666667","6500400","永和區"
"249005","172-UM","2018/05/24 18:59:10","新北市八里區長道坑11號","121.395095","25.121955","6502300","八里區"
"249001","173-UM","2018/05/24 18:59:00","新北市八里區龍米路二段228-1號","121.432685","25.1584733333333","6502300","八里區"
"248014","025-BX","2018/05/24 18:59:08","新北市五股區民義路一段107巷23號","121.43221","25.08438","6501500","五股區"
"248016","026-BX","2018/05/24 18:59:05","新北市五股區成泰路三段543巷24號","121.450768333333","25.1023966666667","6501500","五股區"
"248006","077-UY","2018/05/24 18:59:10","新北市五股區中興路一段39號","121.468678333333","25.0723733333333","6501500","五股區"
"248008","095-VK","2018/05/24 18:59:13","新北市五股區中興路一段128巷18號","121.465678333333","25.0746583333333","6501500","五股區"
"248020","225-UY","2018/05/24 18:58:54","新北市五股區凌雲路三段57號","121.425298333333","25.1249933333333","6501500","五股區"
"248012","247-BX","2018/05/24 18:59:15","新北市五股區成泰路二段101號","121.438353333333","25.0842466666667","6501500","五股區"
"248004","677-BX","2018/05/24 18:59:05","新北市五股區民義路一段240號","121.42703","25.0916083333333","6501500","五股區"
"248002","678-BX","2018/05/24 18:59:08","新北市五股區凌雲路一段127號","121.449755","25.1019466666667","6501500","五股區"
"248010","682-TV","2018/05/24 18:59:05","新北市五股區登林路78-2號","121.429393333333","25.0707366666667","6501500","五股區"
"234023","9380-KE","2018/05/24 18:59:08","新北市永和區竹林路91巷60弄12號","121.521931666667","25.01265","6500400","永和區"
"234077","969-R7","2018/05/24 18:59:00","新北市永和區智光街22號","121.517895","24.99934","6500400","永和區"
"234074","AAC-211","2018/05/24 18:59:08","新北市永和區環河東路二段100號","121.52409","25.0103166666667","6500400","永和區"
"234067","AAC-212","2018/05/24 18:59:09","新北市永和區中和路625號","121.512986666667","25.0049483333333","6500400","永和區"
"234003","AAC-295","2018/05/24 18:59:14","新北市永和區和平街20號","121.513821666667","25.00991","6500400","永和區"
"232011","375-UM","2018/05/24 18:59:12","新北市坪林區坪林街10號","121.711801666667","24.9359833333333","6502000","坪林區"
"244013","069-UM","2018/05/24 18:58:58","新北市林口區麗園二街1巷3-1號","121.376966666667","25.0702716666667","6501700","林口區"
"244007","080-UY","2018/05/24 18:59:07","新北市林口區後坑5號","121.366686666667","25.125605","6501700","林口區"
"244019","403-UM","2018/05/24 18:59:03","新北市林口區麗園二街3巷1-2號","121.378063333333","25.0696483333333","6501700","林口區"
"244009","410-SL","2018/05/24 18:59:14","新北市林口區竹林路362巷18號","121.392676666667","25.0842983333333","6501700","林口區"
"244023","483-VK","2018/05/24 18:59:04","新北市林口區文林六街27巷9號","121.370996666667","25.0808866666667","6501700","林口區"
"244017","485-VK","2018/05/24 18:59:04","新北市林口區公園路90號","121.3695","25.0704916666667","6501700","林口區"
"244011","657-BX","2018/05/24 18:59:04","新北市林口區仁愛路一段336號","121.390963333333","25.07645","6501700","林口區"
"244025","837-TS","2018/05/24 18:59:09","新北市林口區民族路82巷20號","121.366403333333","25.0752133333333","6501700","林口區"
"243013","AAD-798","2018/05/24 18:59:04","新北市泰山區明志路三段206巷13號","121.423085","25.037595","6501600","泰山區"
"243009","297-R6","2018/05/24 18:58:58","新北市泰山區泰林路二段361號","121.428","25.06372","6501600","泰山區"
"243016","380-SR","2018/05/24 18:59:09","新北市泰山區明志路二段136巷1-1號","121.427423333333","25.0510933333333","6501600","泰山區"
"243015","421-VK","2018/05/24 18:59:13","新北市泰山區泰林路二段218號","121.4327","25.0618633333333","6501600","泰山區"
"243010","KEA-2216","2018/05/24 18:58:57","新北市泰山區辭修路20號","121.42915","25.05817","6501600","泰山區"
"243012","646-TV","2018/05/24 18:58:59","新北市泰山區福興一街91號","121.431905","25.0577566666667","6501600","泰山區"
"243014","680-BX","2018/05/24 18:59:08","新北市泰山區黎明路1號","121.421196666667","25.0633816666667","6501600","泰山區"
"222003","436-BY","2018/05/24 18:59:02","新北市深坑區深南路51-1號","121.621393333333","25.0102133333333","6501800","深坑區"
"222002","659-BX","2018/05/24 18:59:04","新北市深坑區文山路一段33號","121.629691666667","25.0036733333333","6501800","深坑區"
"231041","002-UM","2018/05/24 18:59:11","新北市新店區環河路64號","121.536988333333","24.9627266666667","6500600","新店區"
"231059","046-UY","2018/05/24 18:59:15","新北市新店區安華路28-1號","121.519565","24.9608416666667","6500600","新店區"
"231040","047-UY","2018/05/24 18:58:57","新北市新店區中正路406號","121.53449","24.9776266666667","6500600","新店區"
"231044","106-UY","2018/05/24 18:59:04","新北市新店區寶中路72號","121.547828333333","24.9805883333333","6500600","新店區"
"231052","108-UY","2018/05/24 18:59:15","新北市新店區屈尺路58號","121.54736","24.9227883333333","6500600","新店區"
"231047","187-VK","2018/05/24 18:59:01","新北市新店區德正街23巷12-1號","121.54465","24.9722266666667","6500600","新店區"
"231046","188-VK","2018/05/24 18:59:04","新北市新店區直潭四街30號","121.534038333333","24.9416633333333","6500600","新店區"
"231054","KEA-2219","2018/05/24 18:59:15","新北市新店區新店路13號","121.540376666667","24.9529116666667","6500600","新店區"
"231042","268-BY","2018/05/24 18:59:14","新北市新店區中興路一段282號","121.545743333333","24.9685383333333","6500600","新店區"
"231051","278-BY","2018/05/24 18:59:14","新北市新店區百忍街17巷2號","121.534276666667","24.9756483333333","6500600","新店區"
"231050","AAD-862","2018/05/24 18:59:09","新北市新店區北宜路二段30巷5弄2號","121.547933333333","24.9507566666667","6500600","新店區"
"231058","3713-VJ","2018/05/24 18:59:00","新北市新店區中興路一段139號","121.542051666667","24.9635866666667","6500600","新店區"
"231066","4716-K9","2018/05/24 18:58:54","新北市新店區安祥路30號","121.49321","24.9560833333333","6500600","新店區"
"231056","4715-K9","2018/05/24 18:59:11","新北市新店區建國路218號","121.538003333333","24.981145","6500600","新店區"
"231067","4772-VM","2018/05/24 18:59:00","新北市新店區安康路一段247巷31號","121.52482","24.9619483333333","6500600","新店區"
"231065","512-UM","2018/05/24 18:58:58","新北市新店區建業路96-1號","121.479673333333","24.95553","6500600","新店區"
"231049","513-UM","2018/05/24 18:59:02","新北市新店區中正路454-5號","121.53444","24.9790366666667","6500600","新店區"
"231063","616-UM","2018/05/24 18:59:00","新北市新店區安忠路102-1號","121.510486666667","24.955845","6500600","新店區"
"231061","619-UM","2018/05/24 18:59:06","新北市新店區安華路28-1號","121.519691666667","24.96064","6500600","新店區"
"231064","719-UM","2018/05/24 18:59:13","新北市新店區安康路一段319號","121.522185","24.9636316666667","6500600","新店區"
"231062","720-UM","2018/05/24 18:59:02","新北市新店區安豐路60-1號","121.498018333333","24.9537283333333","6500600","新店區"
"231060","897-TW","2018/05/24 18:59:00","新北市新店區安華路1-1號","121.519695","24.9604066666667","6500600","新店區"
"231045","898-TW","2018/05/24 18:59:03","新北市新店區光明街1-1號","121.538156666667","24.9591966666667","6500600","新店區"
"231043","899-TW","2018/05/24 18:59:14","新北市新店區中正路111號","121.5425","24.970545","6500600","新店區"
"231055","AKT-0513","2018/05/24 18:58:58","新北市新店區新生街13巷26號","121.538995","24.96654","6500600","新店區"
"241035","462-BY","2018/05/24 18:59:11","新北市三重區重新路四段121號","121.484876666667","25.0519566666667","6500200","三重區"
"235064","005-UY","2018/05/24 18:59:15","新北市中和區泰和街44巷33號","121.498036666667","25.0012683333333","6500300","中和區"
"235063","006-UY","2018/05/24 18:59:17","新北市中和區中正路514號","121.488295","24.9944433333333","6500300","中和區"
"235047","031-BX","2018/05/24 18:59:15","新北市中和區興南路二段54巷2-4號","121.50616","24.9855583333333","6500300","中和區"
"235056","096-UM","2018/05/24 18:58:56","新北市中和區中山路二段596巷44號","121.481621666667","25.006315","6500300","中和區"
"235039","097-UM","2018/05/24 18:59:14","新北市中和區安樂路217巷24號","121.51382","24.998485","6500300","中和區"
"235065","098-UM","2018/05/24 18:59:11","新北市中和區勝利路35巷22號","121.499125","25.006885","6500300","中和區"
"235040","150-BY","2018/05/24 18:59:05","新北市中和區宜安路8號","121.513501666667","24.9955633333333","6500300","中和區"
"235058","151-BY","2018/05/24 18:58:57","新北市中和區連城路428巷5弄3號","121.47973","24.9951583333333","6500300","中和區"
"235055","183-VK","2018/05/24 18:58:59","新北市中和區民德路16號","121.468603333333","25.0026116666667","6500300","中和區"
"235038","185-VK","2018/05/24 18:59:14","新北市中和區立人街46號","121.517733333333","24.994035","6500300","中和區"
"235013","186-VK","2018/05/24 18:59:06","新北市中和區景新街210巷2弄1號","121.506871666667","24.994115","6500300","中和區"
"235067","255-BX","2018/05/24 18:58:58","新北市中和區新生街213號","121.48399","24.9997","6500300","中和區"
"235044","293-VK","2018/05/24 18:58:58","新北市中和區中興街161巷10弄1號","121.501296666667","24.990885","6500300","中和區"
"235072","301-VK","2018/05/24 18:59:03","新北市中和區景平路735號","121.496233333333","25.0043083333333","6500300","中和區"
"235043","352-BY","2018/05/24 18:59:10","新北市中和區秀朗路三段107號","121.526373333333","24.9946833333333","6500300","中和區"
"235050","4979-A6","2018/05/24 18:58:58","新北市中和區忠孝街29號","121.510531666667","24.9830983333333","6500300","中和區"
"235069","4980-A6","2018/05/24 18:59:05","新北市中和區景平路459巷2弄2號","121.50035","24.9964483333333","6500300","中和區"
"235042","551-UM","2018/05/24 18:59:07","新北市中和區秀朗路三段78巷1弄3號","121.52564","24.993955","6500300","中和區"
"235070","558-UM","2018/05/24 18:58:58","新北市中和區安和路163號","121.506088333333","24.99746","6500300","中和區"
"235045","565-BX","2018/05/24 18:59:11","新北市中和區景新街465號","121.51336","24.9881066666667","6500300","中和區"
"235054","640-BX","2018/05/24 18:59:14","新北市中和區民享街2巷2號","121.473753333333","25.00578","6500300","中和區"
"235060","647-TV","2018/05/24 18:59:01","新北市中和區民治街16號","121.475075","25.004505","6500300","中和區"
"235046","733-UM","2018/05/24 18:59:03","新北市中和區南山路322號","121.508023333333","24.98652","6500300","中和區"
"235062","800-TS","2018/05/24 18:59:14","新北市中和區中山路二段355號","121.489763333333","25.0037333333333","6500300","中和區"
"235057","801-TS","2018/05/24 18:58:59","新北市中和區民安街63號","121.478696666667","24.9995466666667","6500300","中和區"
"235041","802-TS","2018/05/24 18:59:12","新北市中和區宜安路128號","121.509926666667","24.9981866666667","6500300","中和區"
"235052","805-TS","2018/05/24 18:59:00","新北市中和區興南路二段345號","121.501378333333","24.9807483333333","6500300","中和區"
"235048","896-TW","2018/05/24 18:59:05","新北市中和區華新街109巷9號","121.509046666667","24.9817","6500300","中和區"
"235053","900-TW","2018/05/24 18:59:09","新北市中和區民德路360號","121.466131666667","24.9938333333333","6500300","中和區"
"235066","911-UM","2018/05/24 18:59:09","新北市中和區水源路7巷5號","121.503775","25.003605","6500300","中和區"
"235051","157-BY","2018/05/24 18:59:05","新北市中和區忠孝街11巷12號","121.509916666667","24.9832666666667","6500300","中和區"
"235037","AAC-213","2018/05/24 18:59:02","新北市永和區民生路42號","121.522508333333","24.9966666666667","6500300","中和區"
"235059","AAC-215","2018/05/24 18:58:58","新北市中和區圓通路433巷8號","121.487556666667","24.98816","6500300","中和區"
"220065","072-UY","2018/05/24 18:59:08","新北市板橋區民族路287巷18號","121.471176666667","25.0073733333333","6500100","板橋區"
"220106","075-UY","2018/05/24 18:59:11","新北市板橋區文化路二段124巷22號","121.47115","25.0257683333333","6500100","板橋區"
"220069","AAD-861","2018/05/24 18:59:15","新北市板橋區大華街14號","121.458378333333","25.00623","6500100","板橋區"
"226004","312-R5","2018/05/24 18:59:05","新北市平溪區靜安路三段52巷16號","121.76311","25.0334483333333","6502400","平溪區"
"228003","097-TW","2018/05/24 18:59:01","新北市貢寮區和美里龍洞街60號","121.914128333333","25.1161133333333","6502600","貢寮區"
"228001","212-TW","2018/05/24 18:58:59","新北市貢寮區仁理村研海街12-1號","121.923815","25.0517483333333","6502600","貢寮區"
"228002","585-TW","2018/05/24 18:59:06","新北市貢寮區福隆里東興街80-2號","121.94738","25.0171783333333","6502600","貢寮區"
"224006","676-BX","2018/05/24 18:58:56","新北市瑞芳區中正路4號","121.808898333333","25.1070533333333","6501200","瑞芳區"
"224008","285-BY","2018/05/24 18:59:04","新北市瑞芳區逢甲路343號","121.800548333333","25.1121616666667","6501200","瑞芳區"
"224007","275-VK","2018/05/24 18:59:09","新北市瑞芳區大埔路慶安新村42號","121.762066666667","25.1002716666667","6501200","瑞芳區"
"224009","273-VK","2018/05/24 18:59:03","新北市瑞芳區長仁路40號","121.864636666667","25.1186283333333","6501200","瑞芳區"
"224005","271-BY","2018/05/24 18:58:59","新北市瑞芳區瑞濱路87號","121.820998333333","25.1211466666667","6501200","瑞芳區"
"227010","642-TC","2018/05/24 18:58:57","新北市雙溪區牡丹里中正路58巷23號","121.866421666667","25.04157","6502500","雙溪區"
"227004","400-TW","2018/05/24 18:59:08","新北市雙溪區平林里康福家園10號","121.858798333333","25.0373166666667","6502500","雙溪區"
"253005","032-BX","2018/05/24 18:59:07","新北市石門區中央路37-1號","121.568476666667","25.2943466666667","6502200","石門區"
"253006","295-VK","2018/05/24 18:58:57","新北市石門區下員坑30-7號","121.519991666667","25.2824183333333","6502200","石門區"
"222001","KEA-2212","2018/05/24 18:59:01","新北市深坑區北深路一段175號","121.633061666667","25.01084","6501800","深坑區"
"208002","KEA-2872","2018/05/24 18:59:07","新北市金山區信義路72號","121.635165","25.2195533333333","6502700","金山區"
"208003","665-BX","2018/05/24 18:58:56","新北市金山區中正路20號","121.635983333333","25.2222766666667","6502700","金山區"
"208001","761-BX","2018/05/24 18:59:02","新北市金山區中山路89號","121.640176666667","25.2188366666667","6502700","金山區"
"251009","008-UM","2018/05/24 18:59:11","新北市淡水區重建街36號","121.439865","25.1712583333333","6501000","淡水區"
"251001","011-UM","2018/05/24 18:59:15","新北市淡水區自強路60號","121.463161666667","25.1275683333333","6501000","淡水區"
"251013","KEA-2871","2018/05/24 18:59:12","新北市淡水區安子內12-1號","121.48155","25.219075","6501000","淡水區"
"251016","179-VK","2018/05/24 18:59:06","新北市淡水區淡金路三段331巷3號","121.448563333333","25.2061733333333","6501000","淡水區"
"251014","180-VK","2018/05/24 18:59:11","新北市淡水區小中寮32-1號","121.49192","25.2264233333333","6501000","淡水區"
"251015","182-VK","2018/05/24 18:59:07","新北市淡水區糞箕湖60號","121.485213333333","25.1723433333333","6501000","淡水區"
"251010","413-VK","2018/05/24 18:58:58","新北市淡水區中正路二段22巷47號","121.421556666667","25.1826216666667","6501000","淡水區"
"251007","442-VK","2018/05/24 18:59:14","新北市淡水區民生路113巷1弄49號","121.462596666667","25.13857","6501000","淡水區"
"251002","672-BX","2018/05/24 18:58:58","新北市淡水區中正東路65號","121.447073333333","25.1675483333333","6501000","淡水區"
"251003","766-UM","2018/05/24 18:59:06","新北市淡水區中山北路一段149巷17號","121.442933333333","25.177875","6501000","淡水區"
"207003","550-UM","2018/05/24 18:59:15","新北市萬里區大鵬里頂社24-5號","121.657751666667","25.2102166666667","6502800","萬里區"
"207004","225-TW","2018/05/24 18:59:11","新北市萬里區萬里里獅頭路23號","121.69322","25.178295","6502800","萬里區"
"252002","178-VK","2018/05/24 18:59:18","新北市三芝區中正路一段78號","121.504068333333","25.2574833333333","6502100","三芝區"
"252003","249-BX","2018/05/24 18:59:03","新北市三芝區後厝里北勢子42-1號","121.472043333333","25.2524266666667","6502100","三芝區"
"252001","292-VK","2018/05/24 18:59:10","新北市三芝區中興街二段260號","121.50174","25.2530533333333","6502100","三芝區"
"237004","KEA-2597","2018/05/24 18:59:06","新北市三峽區有木108號","121.433403333333","24.86253","6500900","三峽區"
"237007","153-BY","2018/05/24 18:59:02","新北市三峽區中正路二段277號","121.366075","24.9113583333333","6500900","三峽區"
"237011","572-TV","2018/05/24 18:59:07","新北市三峽區介壽路三段163-1號","121.401306666667","24.9434516666667","6500900","三峽區"
"237013","252-BX","2018/05/24 18:59:07","新北市三峽區大同路52號","121.376756666667","24.9288483333333","6500900","三峽區"
"237012","275-BY","2018/05/24 18:59:10","新北市三峽區三樹路222巷150-1號","121.386015","24.9428183333333","6500900","三峽區"
"237008","302-VK","2018/05/24 18:59:05","新北市三峽區中正路一段415號","121.370143333333","24.9204516666667","6500900","三峽區"
"237014","433-BY","2018/05/24 18:58:58","新北市三峽區隆恩街189號","121.361086666667","24.9423866666667","6500900","三峽區"
"237006","5529-G3","2018/05/24 18:59:08","新北市三峽區溪東路233巷47弄2號","121.411068333333","24.9349333333333","6500900","三峽區"
"237016","649-BX","2018/05/24 18:58:54","新北市三峽區建安83號","121.45375","24.920555","6500900","三峽區"
"237010","706-TV","2018/05/24 18:59:12","新北市三峽區國光街322號","121.37205","24.93941","6500900","三峽區"
"237005","AKY-6261","2018/05/24 18:59:01","新北市三峽區中山路459巷163-3號","121.349113333333","24.933385","6500900","三峽區"
"236070","105-UM","2018/05/24 18:59:07","新北市土城區金城路二段210號","121.45541","24.9821833333333","6501300","土城區"
"236042","107-UM","2018/05/24 18:59:10","新北市土城區學府路一段225號","121.451231666667","24.9842116666667","6501300","土城區"
"236078","166-UM","2018/05/24 18:59:08","新北市土城區中央路四段127號","121.416215","24.9575233333333","6501300","土城區"
"236030","253-BX","2018/05/24 18:59:10","新北市土城區慶利街9號","121.439565","24.97364","6501300","土城區"
"236026","269-VK","2018/05/24 18:58:56","新北市土城區光明街24號","121.44202","24.9740333333333","6501300","土城區"
"236014","270-VK","2018/05/24 18:59:01","新北市土城區延和路13巷8號","121.463838333333","24.9883166666667","6501300","土城區"
"236038","271-VK","2018/05/24 18:59:11","新北市土城區明德路一段240巷26弄5號","121.460361666667","24.9781583333333","6501300","土城區"
"236021","401-BY","2018/05/24 18:58:58","新北市土城區延吉街168巷9號","121.467963333333","24.9858383333333","6501300","土城區"
"236059","912-UM","2018/05/24 18:59:10","新北市土城區金城路二段200號","121.454858333333","24.981805","6501300","土城區"
"236049","913-UM","2018/05/24 18:59:00","新北市土城區青雲路316號","121.458928333333","24.977985","6501300","土城區"
"236063","915-UM","2018/05/24 18:59:02","新北市土城區延和路41巷6弄18號","121.466713333333","24.9902683333333","6501300","土城區"
"236055","AAC-216","2018/05/24 18:58:57","新北市土城區學成路97-1號","121.45055","24.9887433333333","6501300","土城區"
"242039","133-UY","2018/05/24 18:59:02","新北市樹林區八德街1014號","121.39131","24.9684416666667","6500500","新莊區"
"238023","601-UM","2018/05/24 18:58:52","新北市樹林區工興街18-1號","121.397785","25.01319","6500700","樹林區"
"238019","599-UM","2018/05/24 18:59:06","新北市樹林區東榮街91巷1弄2號","121.416226666667","24.9823816666667","6500700","樹林區"
"238018","571-TV","2018/05/24 18:59:04","新北市樹林區東榮街8號","121.41828","24.9836933333333","6500700","樹林區"
"238024","5061-A6","2018/05/24 18:58:56","新北市樹林區中山路三段208號","121.382785","24.9663216666667","6500700","樹林區"
"238022","KEA-2213","2018/05/24 18:59:17","新北市樹林區東興街16巷6弄2號","121.409173333333","24.97817","6500700","樹林區"
"238021","KEA-2539","2018/05/24 18:59:00","新北市樹林區柑園街二段276巷26號","121.372441666667","24.95332","6500700","樹林區"
"238025","303-VK","2018/05/24 18:59:03","新北市樹林區民和街45號","121.38346","24.9698333333333","6500700","樹林區"
"238017","283-BY","2018/05/24 18:59:04","新北市樹林區大安路455號","121.414956666667","24.9878716666667","6500700","樹林區"
"238014","282-BY","2018/05/24 18:58:59","新北市樹林區千歲街61巷6號","121.426381666667","24.998035","6500700","樹林區"
"238020","268-VK","2018/05/24 18:59:16","新北市樹林區俊英街183號","121.42412","25.0123233333333","6500700","樹林區"
"238026","172-UY","2018/05/24 18:58:46","新北市樹林區佳園路一段41巷28弄9號","121.394743333333","24.9705283333333","6500700","樹林區"
"238016","169-UY","2018/05/24 18:58:06","新北市樹林區復興路373巷7弄11號","121.41768","24.9868366666667","6500700","樹林區"
"239006","891-R6","2018/05/24 18:59:13","新北市鶯歌區鶯桃路296巷84弄31號","121.337426666667","24.9613266666667","6500800","鶯歌區"
"239008","527-UM","2018/05/24 18:59:06","新北市鶯歌區國際二路18巷4號","121.337325","24.9750016666667","6500800","鶯歌區"
"239005","526-UM","2018/05/24 18:58:59","新北市鶯歌區鳳吉一街178-1號","121.329308333333","24.9757133333333","6500800","鶯歌區"
"239001","417-VK","2018/05/24 18:59:05","新北市鶯歌區永明街78號","121.34132","24.9558533333333","6500800","鶯歌區"
"239003","360-BY","2018/05/24 18:58:59","新北市鶯歌區鶯桃路658巷4號","121.32943","24.9694433333333","6500800","鶯歌區"
"239007","292-BY","2018/05/24 18:59:17","新北市鶯歌區中正一路建德巷38號","121.364546666667","24.9577933333333","6500800","鶯歌區"
"239004","193-VK","2018/05/24 18:58:55","新北市鶯歌區中正三路247巷67弄8號","121.334265","24.936335","6500800","鶯歌區"
"221008","489-VK","2018/05/24 18:59:13","新北市汐止區連峰街1巷1號","121.6467","25.076085","6501100","汐止區"
"221036","130-UY","2018/05/24 18:59:03","新北市汐止區南昌街47號","121.663301666667","25.068335","6501100","汐止區"
"221015","131-UY","2018/05/24 18:59:04","新北市汐止區鄉長路一段31-1號","121.665345","25.0747533333333","6501100","汐止區"
"221010","269-BY","2018/05/24 18:59:11","新北市汐止區康寧街901號","121.651443333333","25.0750583333333","6501100","汐止區"
"221012","278-VK","2018/05/24 18:59:00","新北市汐止區康寧街901號","121.650813333333","25.0752733333333","6501100","汐止區"
"221023","279-VK","2018/05/24 18:59:15","新北市汐止區康寧街901號","121.650988333333","25.0752266666667","6501100","汐止區"
"221032","280-BY","2018/05/24 18:59:10","新北市汐止區橫科路322巷24弄6-1號","121.620738333333","25.0498883333333","6501100","汐止區"
"221027","281-BY","2018/05/24 18:59:11","新北市汐止區康寧街901號","121.651385","25.0749583333333","6501100","汐止區"
"221029","298-VK","2018/05/24 18:58:59","新北市汐止區樟樹一路254號","121.64244","25.06728","6501100","汐止區"
"221021","299-VK","2018/05/24 18:59:06","新北市汐止區康寧街901號","121.651535","25.0750216666667","6501100","汐止區"
"221031","353-TW","2018/05/24 18:59:07","新北市汐止區福德二路156巷14號","121.629968333333","25.065755","6501100","汐止區"
"221035","622-UM","2018/05/24 18:59:01","新北市汐止區汐萬路一段256巷3號","121.653395","25.07472","6501100","汐止區"
"221025","623-UM","2018/05/24 18:59:03","新北市汐止區水源路一段56號","121.657366666667","25.0656933333333","6501100","汐止區"
"221038","646-BX","2018/05/24 18:49:57","新北市汐止區汐萬路一段312號","121.650686666667","25.0753","6501100","汐止區"
"221033","647-BX","2018/05/24 18:59:14","新北市汐止區南勢街1巷1號","121.627055","25.037515","6501100","汐止區"
"221002","707-TV","2018/05/24 18:58:58","新北市汐止區大同路一段2號","121.621001666667","25.05504","6501100","汐止區"
"220079","145-BY","2018/05/24 18:59:05","新北市板橋區民權路202巷9弄26號","121.459576666667","25.015775","6500100","板橋區"
"220080","200-UY","2018/05/24 18:59:04","新北市板橋區大觀路二段力行3巷15號","121.443801666667","24.9987783333333","6500100","板橋區"
"242002","KEA-2550","2018/05/24 18:58:57","新北市新莊區三和路12-21號","121.441981666667","25.038","6500500","新莊區"
"220082","610-BX","2018/05/24 18:58:58","新北市板橋區滿平街82號","121.427555","24.9890816666667","6500100","板橋區"
"220101","245-BX","2018/05/24 18:59:10","新北市板橋區文化路二段182巷3弄2號","121.471475","25.0271416666667","6500100","板橋區"
"220094","267-BY","2018/05/24 18:59:14","新北市板橋區文化路二段76號","121.469456666667","25.025105","6500100","板橋區"
"220056","276-BY","2018/05/24 18:59:09","新北市板橋區信義路189號","121.459161666667","24.9918566666667","6500100","板橋區"
"220072","277-BY","2018/05/24 18:59:01","新北市板橋區溪北路142號","121.430083333333","24.9884066666667","6500100","板橋區"
"220089","280-UM","2018/05/24 18:59:13","新北市板橋區文化路二段346號","121.472978333333","25.0305","6500100","板橋區"
"220071","283-VK","2018/05/24 18:59:08","新北市板橋區重慶路247號","121.46331","25.0005383333333","6500100","板橋區"
"220053","285-VK","2018/05/24 18:59:13","新北市板橋區中山路二段75號","121.473621666667","25.0160766666667","6500100","板橋區"
"220083","286-VK","2018/05/24 18:59:00","新北市板橋區大觀路一段38巷156弄36號","121.44255","25.00544","6500100","板橋區"
"220081","287-VK","2018/05/24 18:59:08","新北市板橋區南雅西路二段102號","121.452436666667","25.0118066666667","6500100","板橋區"
"220090","288-VK","2018/05/24 18:58:58","新北市板橋區四維路132號","121.465215","25.0252566666667","6500100","板橋區"
"220061","293-UM","2018/05/24 18:59:00","新北市板橋區富山街109巷112號","121.474873333333","25.0209683333333","6500100","板橋區"
"220062","295-UM","2018/05/24 18:59:10","新北市板橋區民享街139號","121.477595","25.01679","6500100","板橋區"
"220084","296-UM","2018/05/24 18:59:03","新北市板橋區龍興街5號","121.442656666667","24.9994233333333","6500100","板橋區"
"220075","303-R5","2018/05/24 18:58:59","新北市板橋區館前西路153號","121.456128333333","25.0079266666667","6500100","板橋區"
"220092","307-R5","2018/05/24 18:59:06","新北市板橋區漢生東路7號","121.464548333333","25.0173916666667","6500100","板橋區"
"220098","317-R6","2018/05/24 18:59:06","新北市板橋區民有街16號","121.466315","25.024955","6500100","板橋區"
"220064","486-VK","2018/05/24 18:59:08","新北市板橋區新站路28號","121.466805","25.0142733333333","6500100","板橋區"
"220088","491-VK","2018/05/24 18:59:12","新北市板橋區民生路二段206號","121.469685","25.021","6500100","板橋區"
"220035","560-BX","2018/05/24 18:59:10","新北市板橋區中正路341巷6號","121.454586666667","25.0203666666667","6500100","板橋區"
"220103","561-BX","2018/05/24 18:59:06","新北市板橋區民生路二段123號","121.470613333333","25.0184933333333","6500100","板橋區"
"220063","609-BX","2018/05/24 18:59:00","新北市板橋區中山路二段161號","121.475883333333","25.016715","6500100","板橋區"
"220086","630-UY","2018/05/24 18:58:58","新北市板橋區中正路277號","121.455588333333","25.019015","6500100","板橋區"
"220091","637-BX","2018/05/24 18:59:06","新北市板橋區莒光路165巷10號","121.474061666667","25.02415","6500100","板橋區"
"220057","686-BX","2018/05/24 18:59:05","新北市板橋區重慶路198號","121.462538333333","25.0028633333333","6500100","板橋區"
"220077","687-BX","2018/05/24 18:59:16","新北市板橋區大觀路二段281號","121.44246","24.9988516666667","6500100","板橋區"
"220093","689-BX","2018/05/24 18:59:05","新北市板橋區民生路三段66號","121.46693","25.0256083333333","6500100","板橋區"
"220054","741-BX","2018/05/24 18:59:07","新北市板橋區重慶路127巷19-1號","121.463613333333","25.0049666666667","6500100","板橋區"
"220102","KEA-2699","2018/05/24 18:59:10","新北市板橋區八德路二段62號","121.482048333333","25.02722","6500100","板橋區"
"220055","827-TW","2018/05/24 18:59:01","新北市板橋區中山路一段158巷22號","121.466513333333","25.0109916666667","6500100","板橋區"
"220067","829-TW","2018/05/24 18:59:09","新北市板橋區三民路二段正隆巷12弄24號","121.477501666667","25.0138","6500100","板橋區"
"220068","830-TW","2018/05/24 18:59:04","新北市板橋區中山路二段443巷82號","121.481058333333","25.02254","6500100","板橋區"
"220096","831-TW","2018/05/24 18:59:11","新北市板橋區莒光路125號","121.472781666667","25.0241","6500100","板橋區"
"220074","895-R6","2018/05/24 18:59:04","新北市板橋區府中路90號","121.456163333333","25.0096416666667","6500100","板橋區"
"220073","985-R7","2018/05/24 18:59:17","新北市板橋區民權路252號","121.458336666667","25.014665","6500100","板橋區"
"220097","AAC-210","2018/05/24 18:59:01","新北市板橋區介壽街114號","121.469265","25.0176183333333","6500100","板橋區"
"220070","AAC-253","2018/05/24 18:59:09","新北市板橋區四川路一段287號","121.458796666667","25.0007166666667","6500100","板橋區"
"235068","KEA-2873","2018/05/24 18:59:13","新北市中和區圓通路232巷10號","121.494851666667","24.9932783333333","6500300","中和區"
"235025","KEA-2875","2018/05/24 18:58:55","新北市中和區民享街89巷9弄6號","121.474968333333","25.0020483333333","6500300","中和區"
