"lineid","car","time","location","longitude","latitude","cityid","cityname"
"234046","149-BY","2018/05/24 19:09:36","新北市永和區永元路18巷38弄2號","121.52392","25.0001783333333","6500400","永和區"
"234007","207-UY","2018/05/24 19:09:27","新北市永和區中山路一段227號","121.50799","25.0077783333333","6500400","永和區"
"234081","298-R6","2018/05/24 19:09:39","新北市永和區永貞路39巷4弄1號","121.521503333333","25.006455","6500400","永和區"
"234038","336-UY","2018/05/24 19:09:35","新北市永和區民樂街90巷1號","121.527331666667","24.99735","6500400","永和區"
"234064","337-UY","2018/05/24 19:09:26","新北市永和區秀朗路二段33號","121.521313333333","25.002475","6500400","永和區"
"234086","338-UY","2018/05/24 19:09:25","新北市永和區中正路500號","121.517338333333","25.0042883333333","6500400","永和區"
"234070","552-UM","2018/05/24 19:09:23","新北市永和區豫溪街137巷1弄22號","121.518503333333","25.0104516666667","6500400","永和區"
"234017","745-BX","2018/05/24 19:09:41","新北市永和區文化路90巷15弄1號","121.513823333333","25.0159016666667","6500400","永和區"
"234030","746-BX","2018/05/24 19:09:37","新北市永和區四維街123號","121.523178333333","24.998245","6500400","永和區"
"234054","KEA-2590","2018/05/24 19:09:32","新北市永和區竹林路72巷2號","121.519075","25.0129183333333","6500400","永和區"
"234013","KEA-2591","2018/05/24 19:09:38","新北市永和區中山路一段98-2號","121.511465","25.0108333333333","6500400","永和區"
"234061","AAD-866","2018/05/24 19:09:36","新北市永和區安樂路304巷2號","121.514456666667","25.004925","6500400","永和區"
"234042","862-TW","2018/05/24 19:09:37","新北市永和區保平路246-1號","121.509078333333","25.005255","6500400","永和區"
"234050","863-TW","2018/05/24 19:09:30","新北市永和區文化路135巷9號","121.510796666667","25.01457","6500400","永和區"
"234026","9371-KE","2018/05/24 19:09:36","新北市永和區安樂路270號","121.514595","25.0040183333333","6500400","永和區"
"234011","9373-KE","2018/05/24 19:09:31","新北市永和區保福路二段44巷2弄10號","121.511615","25.01181","6500400","永和區"
"249005","172-UM","2018/05/24 19:09:30","新北市八里區中華路三段145巷9號","121.392485","25.13307","6502300","八里區"
"249001","173-UM","2018/05/24 19:09:40","新北市八里區龍米路二段246-1號","121.429676666667","25.1589783333333","6502300","八里區"
"249003","593-UM","2018/05/24 19:09:33","新北市八里區博物館路15號","121.41533","25.1636366666667","6502300","八里區"
"248016","026-BX","2018/05/24 19:09:25","新北市五股區成泰路三段543巷30號","121.450631666667","25.1026083333333","6501500","五股區"
"248006","077-UY","2018/05/24 19:09:30","新北市五股區四維路112號","121.467676666667","25.0737283333333","6501500","五股區"
"248008","095-VK","2018/05/24 19:09:33","新北市五股區中興路一段118巷17號","121.465881666667","25.0742816666667","6501500","五股區"
"248020","225-UY","2018/05/24 19:09:34","新北市五股區凌雲路三段57號","121.425291666667","25.1250416666667","6501500","五股區"
"248012","247-BX","2018/05/24 19:09:35","新北市五股區中興路四段48巷16號","121.43852","25.0833183333333","6501500","五股區"
"248004","677-BX","2018/05/24 19:09:25","新北市五股區五福路11-6號","121.434185","25.08871","6501500","五股區"
"248002","678-BX","2018/05/24 19:09:28","新北市五股區凌雲路一段158巷14-1號","121.447856666667","25.1035816666667","6501500","五股區"
"248010","682-TV","2018/05/24 19:09:25","新北市五股區水碓一路23號","121.430608333333","25.0712983333333","6501500","五股區"
"234023","9380-KE","2018/05/24 19:09:28","新北市永和區中興街95號","121.517758333333","25.0119833333333","6500400","永和區"
"234077","969-R7","2018/05/24 19:09:40","新北市永和區民族街25號","121.518791666667","24.99962","6500400","永和區"
"234074","AAC-211","2018/05/24 19:09:28","新北市永和區竹林路239號","121.52096","25.0081116666667","6500400","永和區"
"234067","AAC-212","2018/05/24 19:09:44","新北市永和區保平路4號","121.513023333333","25.0076483333333","6500400","永和區"
"234003","AAC-295","2018/05/24 19:09:34","新北市永和區保福路一段88號","121.512228333333","25.0103583333333","6500400","永和區"
"244013","069-UM","2018/05/24 19:09:38","新北市林口區麗園一街9巷1號","121.376586666667","25.07128","6501700","林口區"
"244019","403-UM","2018/05/24 19:09:41","新北市林口區麗園一街15號","121.37703","25.0692066666667","6501700","林口區"
"244009","410-SL","2018/05/24 19:09:34","新北市林口區竹林路462號","121.38779","25.0850366666667","6501700","林口區"
"244023","483-VK","2018/05/24 19:09:24","新北市林口區文化三路一段555巷18號","121.370035","25.0769883333333","6501700","林口區"
"244017","485-VK","2018/05/24 19:09:24","新北市林口區寶林路168號","121.370661666667","25.093315","6501700","林口區"
"244011","657-BX","2018/05/24 19:09:24","新北市林口區中正路290號","121.38864","25.0778266666667","6501700","林口區"
"243013","AAD-798","2018/05/24 19:09:24","新北市泰山區明志路三段277號","121.423113333333","25.0368183333333","6501600","泰山區"
"243009","297-R6","2018/05/24 19:09:38","新北市泰山區明志路一段117巷22號","121.434146666667","25.063355","6501600","泰山區"
"243016","380-SR","2018/05/24 19:09:29","新北市泰山區明志路二段343號","121.425466666667","25.0445083333333","6501600","泰山區"
"243015","421-VK","2018/05/24 19:09:32","新北市泰山區明志路一段460號","121.430651666667","25.0554716666667","6501600","泰山區"
"243010","KEA-2216","2018/05/24 19:09:37","新北市泰山區明志路一段456號","121.430696666667","25.0556433333333","6501600","泰山區"
"243012","646-TV","2018/05/24 19:09:39","新北市泰山區明志路一段387號","121.43083","25.0576066666667","6501600","泰山區"
"243014","680-BX","2018/05/24 19:09:28","新北市泰山區泰林路二段303號","121.429996666667","25.0630966666667","6501600","泰山區"
"222003","436-BY","2018/05/24 19:09:42","新北市深坑區深南路162號","121.626113333333","25.0149766666667","6501800","深坑區"
"222002","659-BX","2018/05/24 19:09:42","新北市深坑區烏月路1號","121.633411666667","25.0083916666667","6501800","深坑區"
"231041","002-UM","2018/05/24 19:09:31","新北市新店區溪園路389-14號","121.523446666667","24.9791966666667","6500600","新店區"
"231059","046-UY","2018/05/24 19:09:35","新北市新店區安和路一段47號","121.517433333333","24.965835","6500600","新店區"
"231040","047-UY","2018/05/24 19:09:36","新北市新店區三民路98-5號","121.533958333333","24.9732583333333","6500600","新店區"
"231044","106-UY","2018/05/24 19:09:24","新北市新店區中興路三段172號","121.54419","24.98098","6500600","新店區"
"231052","108-UY","2018/05/24 19:09:35","新北市新店區屈尺路168號","121.545155","24.9236416666667","6500600","新店區"
"231047","187-VK","2018/05/24 19:09:41","新北市新店區德正街27巷29弄145號","121.54571","24.97346","6500600","新店區"
"231046","188-VK","2018/05/24 19:09:24","新北市新店區華城路77巷6號","121.525473333333","24.946425","6500600","新店區"
"231054","KEA-2219","2018/05/24 19:09:35","新北市新店區新店路137號","121.537015","24.9546283333333","6500600","新店區"
"231042","268-BY","2018/05/24 19:09:34","新北市新店區中興路一段166號","121.542768333333","24.9642716666667","6500600","新店區"
"231051","278-BY","2018/05/24 19:09:34","新北市新店區中正路400巷15號","121.535115","24.9782033333333","6500600","新店區"
"231050","AAD-862","2018/05/24 19:09:29","新北市新店區竹林路2巷33號","121.550475","24.9502116666667","6500600","新店區"
"231058","3713-VJ","2018/05/24 19:09:40","新北市新店區光明街138巷13弄7號","121.540265","24.9615216666667","6500600","新店區"
"231066","4716-K9","2018/05/24 19:09:35","新北市新店區安康路三段359巷12弄1號","121.484421666667","24.9497383333333","6500600","新店區"
"231056","4715-K9","2018/05/24 19:09:32","新北市新店區民權路107號","121.536471666667","24.9823566666667","6500600","新店區"
"231067","4772-VM","2018/05/24 19:09:40","新北市新店區安康路一段266巷4號","121.52004","24.9639933333333","6500600","新店區"
"231065","512-UM","2018/05/24 19:09:37","新北市新店區安祥路147巷7號","121.475221666667","24.9556516666667","6500600","新店區"
"231049","513-UM","2018/05/24 19:09:42","新北市新店區二十張路25巷10號","121.538936666667","24.98202","6500600","新店區"
"231063","616-UM","2018/05/24 19:09:40","新北市新店區車子路134號","121.505133333333","24.9485783333333","6500600","新店區"
"231061","619-UM","2018/05/24 19:09:43","新北市新店區安康路一段355-10號","121.520831666667","24.9638333333333","6500600","新店區"
"231064","719-UM","2018/05/24 19:09:41","新北市新店區安忠路57巷1-2號","121.513501666667","24.9599133333333","6500600","新店區"
"231062","720-UM","2018/05/24 19:09:42","新北市新店區安平路53號","121.519681666667","24.9683916666667","6500600","新店區"
"231060","897-TW","2018/05/24 19:09:40","新北市新店區安康路二段295-3號","121.503431666667","24.9576833333333","6500600","新店區"
"231045","898-TW","2018/05/24 19:09:39","新北市新店區北宜路一段129號","121.540791666667","24.9534283333333","6500600","新店區"
"231043","899-TW","2018/05/24 19:09:33","新北市新店區寶橋路132號","121.54753","24.9760066666667","6500600","新店區"
"231055","AKT-0513","2018/05/24 19:09:38","新北市新店區光華街38巷11號","121.515801666667","24.9701566666667","6500600","新店區"
"241026","066-VK","2018/05/24 19:09:25","新北市三重區泉州街74號","121.494703333333","25.0547083333333","6500200","三重區"
"241022","742-BX","2018/05/24 19:09:27","新北市三重區三民街143號","121.484511666667","25.0642183333333","6500200","三重區"
"241035","462-BY","2018/05/24 19:09:31","新北市三重區捷運路39號","121.484311666667","25.0557883333333","6500200","三重區"
"241020","478-VK","2018/05/24 19:09:39","新北市三重區自強路三段15號","121.487098333333","25.0720833333333","6500200","三重區"
"241029","942-UM","2018/05/24 19:09:28","新北市三重區重安街75巷20號","121.491645","25.05561","6500200","三重區"
"235064","005-UY","2018/05/24 19:09:35","新北市中和區連城路41號","121.49835","25.001845","6500300","中和區"
"235063","006-UY","2018/05/24 19:09:37","新北市中和區連城路246-4號","121.487973333333","24.9963266666667","6500300","中和區"
"235047","031-BX","2018/05/24 19:09:35","新北市中和區興南路一段102號","121.509801666667","24.9890366666667","6500300","中和區"
"235056","096-UM","2018/05/24 19:09:36","新北市中和區員山路570號","121.478803333333","25.01129","6500300","中和區"
"235039","097-UM","2018/05/24 19:09:34","新北市中和區自強路61號","121.521445","24.9913933333333","6500300","中和區"
"235065","098-UM","2018/05/24 19:09:31","新北市中和區中山路二段136巷66號","121.500703333333","25.0044","6500300","中和區"
"235040","150-BY","2018/05/24 19:09:25","新北市中和區保健路67巷3弄3號","121.509751666667","24.9974133333333","6500300","中和區"
"235058","151-BY","2018/05/24 19:09:17","新北市中和區員山路92巷13號","121.481501666667","24.9944383333333","6500300","中和區"
"235055","183-VK","2018/05/24 19:09:38","新北市中和區莒光路2號","121.471768333333","25.0047433333333","6500300","中和區"
"235038","185-VK","2018/05/24 19:09:34","新北市中和區大仁街10巷27弄6號","121.519243333333","24.9927716666667","6500300","中和區"
"235013","186-VK","2018/05/24 19:09:37","新北市中和區明禮街18號","121.504763333333","24.9960083333333","6500300","中和區"
"235067","255-BX","2018/05/24 19:09:38","新北市中和區中正路799-2號","121.484496666667","25.0007016666667","6500300","中和區"
"235044","293-VK","2018/05/24 19:09:38","新北市中和區中興街220-7號","121.50047","24.9896766666667","6500300","中和區"
"235072","301-VK","2018/05/24 19:09:23","新北市中和區連城路211號","121.494463333333","24.9978683333333","6500300","中和區"
"235043","352-BY","2018/05/24 19:09:30","新北市中和區景平路120號","121.51921","24.9916133333333","6500300","中和區"
"235050","4979-A6","2018/05/24 19:09:38","新北市中和區復興路249巷11弄3-1號","121.50365","24.9897433333333","6500300","中和區"
"235069","4980-A6","2018/05/24 19:09:25","新北市中和區中和路217巷12號","121.504473333333","25.0005316666667","6500300","中和區"
"235042","551-UM","2018/05/24 19:09:27","新北市中和區自立路117巷3號","121.522358333333","24.994625","6500300","中和區"
"235070","558-UM","2018/05/24 19:09:38","新北市中和區中和路71號","121.500576666667","25.0009783333333","6500300","中和區"
"235045","565-BX","2018/05/24 19:09:31","新北市中和區景新街467巷35弄8號","121.51447","24.9890666666667","6500300","中和區"
"235054","640-BX","2018/05/24 19:09:34","新北市中和區國光街109巷2弄10號","121.469238333333","25.0007933333333","6500300","中和區"
"235060","647-TV","2018/05/24 19:09:21","新北市中和區中山路三段145號","121.473806666667","25.006015","6500300","中和區"
"235046","733-UM","2018/05/24 19:09:43","新北市中和區忠孝街1巷79號","121.508133333333","24.9849","6500300","中和區"
"235071","783-BX","2018/05/24 19:09:32","新北市中和區連城路314號","121.483543333333","24.996205","6500300","中和區"
"235057","801-TS","2018/05/24 19:09:39","新北市中和區民利街68巷3弄2號","121.478091666667","24.9990933333333","6500300","中和區"
"235041","802-TS","2018/05/24 19:09:33","新北市永和區中和路331號","121.507455","24.99966","6500300","中和區"
"235052","805-TS","2018/05/24 19:09:39","新北市中和區興南路二段242巷16號","121.502406666667","24.9832266666667","6500300","中和區"
"235048","896-TW","2018/05/24 19:09:25","新北市中和區忠孝街1巷2-1號","121.508986666667","24.9830233333333","6500300","中和區"
"235053","900-TW","2018/05/24 19:09:29","新北市中和區民德路276號","121.467715","24.99637","6500300","中和區"
"235066","911-UM","2018/05/24 19:09:29","新北市中和區廣福路63號","121.502565","25.0011416666667","6500300","中和區"
"235051","157-BY","2018/05/24 19:09:25","新北市中和區興南路一段88號","121.509953333333","24.9891733333333","6500300","中和區"
"235037","AAC-213","2018/05/24 19:09:22","新北市中和區秀朗路三段60巷29號","121.525376666667","24.994935","6500300","中和區"
"235059","AAC-215","2018/05/24 19:09:39","新北市中和區圓通路367巷2號","121.491148333333","24.9893533333333","6500300","中和區"
"220065","072-UY","2018/05/24 19:09:33","新北市板橋區民族路219巷62號","121.469025","25.008655","6500100","板橋區"
"220106","075-UY","2018/05/24 19:09:40","新北市板橋區文化路二段311號","121.472028333333","25.0296433333333","6500100","板橋區"
"220069","AAD-861","2018/05/24 19:09:35","新北市板橋區四川路一段102號","121.459626666667","25.0047566666667","6500100","板橋區"
"226004","312-R5","2018/05/24 19:09:25","新北市平溪區十分里十分街142號","121.777556666667","25.0433366666667","6502400","平溪區"
"228003","097-TW","2018/05/24 19:09:41","新北市貢寮區和美里和美街38號","121.91219","25.0891933333333","6502600","貢寮區"
"228001","212-TW","2018/05/24 19:09:39","新北市貢寮區真理里新港街10號","121.925521666667","25.054375","6502600","貢寮區"
"228002","585-TW","2018/05/24 19:09:26","新北市貢寮區福隆里福隆街32-1號","121.945058333333","25.0174383333333","6502600","貢寮區"
"224010","AGQ-8101","2018/05/24 19:08:26","新北市瑞芳區基山街115號","121.844301666667","25.1085633333333","6501200","瑞芳區"
"224006","676-BX","2018/05/24 19:09:36","新北市平溪區平湖里石硿子37-1號","121.804861666667","25.10582","6501200","瑞芳區"
"224008","285-BY","2018/05/24 19:09:24","新北市瑞芳區瑞芳街94號","121.802121666667","25.1103316666667","6501200","瑞芳區"
"224007","275-VK","2018/05/24 19:09:29","新北市瑞芳區瑞竹路90號","121.762906666667","25.1036316666667","6501200","瑞芳區"
"224005","271-BY","2018/05/24 19:09:20","新北市瑞芳區濱二路68-1號","121.829741666667","25.120055","6501200","瑞芳區"
"227010","642-TC","2018/05/24 19:09:37","新北市雙溪區牡丹里中正路46-3號","121.865008333333","25.039015","6502500","雙溪區"
"227004","400-TW","2018/05/24 19:09:41","新北市雙溪區平林里梅竹蹊56-4號","121.860601666667","25.03683","6502500","雙溪區"
"253005","032-BX","2018/05/24 19:09:27","新北市石門區阿里荖41-1號","121.605755","25.280645","6502200","石門區"
"253006","295-VK","2018/05/24 19:09:37","新北市石門區崁子腳58-55號","121.530611666667","25.286685","6502200","石門區"
"222001","KEA-2212","2018/05/24 19:09:41","新北市深坑區北深路一段300號","121.624191666667","25.005735","6501800","深坑區"
"208002","KEA-2872","2018/05/24 19:09:27","新北市金山區仁愛路67巷16號","121.634436666667","25.2208033333333","6502700","金山區"
"208003","665-BX","2018/05/24 19:09:36","新北市金山區中正路135號","121.632415","25.2215033333333","6502700","金山區"
"208001","761-BX","2018/05/24 19:09:22","新北市金山區溫泉路4號","121.639591666667","25.221955","6502700","金山區"
"251009","008-UM","2018/05/24 19:09:31","新北市淡水區清水街99-1號","121.440851666667","25.1706833333333","6501000","淡水區"
"251005","010-UM","2018/05/24 19:09:21","新北市淡水區中山路108巷16號","121.442116666667","25.1711766666667","6501000","淡水區"
"251001","011-UM","2018/05/24 19:09:35","新北市淡水區自強路201巷39號","121.462123333333","25.1268616666667","6501000","淡水區"
"251013","KEA-2871","2018/05/24 19:09:32","新北市淡水區安子內12-1號","121.481555","25.21908","6501000","淡水區"
"251016","179-VK","2018/05/24 19:09:26","新北市淡水區淡金路三段28號","121.44791","25.198785","6501000","淡水區"
"251014","180-VK","2018/05/24 19:09:31","新北市淡水區北勢子10-2號","121.483518333333","25.2286366666667","6501000","淡水區"
"251015","182-VK","2018/05/24 19:09:27","新北市淡水區南勢埔27-2號","121.483225","25.1806783333333","6501000","淡水區"
"251010","413-VK","2018/05/24 19:09:38","新北市淡水區中正路一段156巷1號","121.42109","25.180095","6501000","淡水區"
"251007","442-VK","2018/05/24 19:09:37","新北市淡水區民生路135巷32號","121.466673333333","25.1391166666667","6501000","淡水區"
"251002","672-BX","2018/05/24 19:09:37","新北市淡水區中山路95巷2-3號","121.442018333333","25.1705433333333","6501000","淡水區"
"251003","766-UM","2018/05/24 19:09:26","新北市淡水區中山北路一段96號","121.442501666667","25.1763733333333","6501000","淡水區"
"207003","550-UM","2018/05/24 19:09:42","新北市萬里區大鵬里萬里加投14號","121.650145","25.208905","6502800","萬里區"
"207004","225-TW","2018/05/24 19:09:31","新北市萬里區萬里里瑪鋉下街58-1號","121.691661666667","25.179635","6502800","萬里區"
"252002","178-VK","2018/05/24 19:09:29","新北市三芝區智成街98號","121.505498333333","25.2555166666667","6502100","三芝區"
"252003","249-BX","2018/05/24 19:09:23","新北市三芝區錫板里南勢崗8號","121.479226666667","25.2616116666667","6502100","三芝區"
"252001","292-VK","2018/05/24 19:09:30","新北市三芝區長勤街45巷2號","121.50034","25.2550566666667","6502100","三芝區"
"237004","KEA-2597","2018/05/24 19:09:25","新北市三峽區有木183-2號","121.445416666667","24.8346433333333","6500900","三峽區"
"237007","153-BY","2018/05/24 19:09:42","新北市三峽區中正路二段42巷12-1號","121.364263333333","24.9206233333333","6500900","三峽區"
"237011","572-TV","2018/05/24 19:09:27","新北市三峽區介壽路二段91-3號","121.391763333333","24.9354433333333","6500900","三峽區"
"237013","252-BX","2018/05/24 19:09:27","新北市三峽區大同路48巷17弄8-1號","121.376585","24.9289033333333","6500900","三峽區"
"237012","275-BY","2018/05/24 19:09:30","新北市三峽區三樹路222巷236弄23號","121.391446666667","24.9430416666667","6500900","三峽區"
"237008","302-VK","2018/05/24 19:09:26","新北市三峽區大同路174巷11號","121.37261","24.9273366666667","6500900","三峽區"
"237014","433-BY","2018/05/24 19:09:38","新北市三峽區復興路271號","121.366443333333","24.938905","6500900","三峽區"
"237006","5529-G3","2018/05/24 19:09:34","新北市三峽區溪東路47號","121.400576666667","24.934835","6500900","三峽區"
"237016","649-BX","2018/05/24 19:09:34","新北市三峽區安坑34-1號","121.449678333333","24.9287183333333","6500900","三峽區"
"237010","706-TV","2018/05/24 19:09:31","新北市三峽區國光街20號","121.375353333333","24.93732","6500900","三峽區"
"237005","AKY-6261","2018/05/24 19:09:41","新北市三峽區中山路459巷163-3號","121.348676666667","24.93293","6500900","三峽區"
"236070","105-UM","2018/05/24 19:09:27","新北市土城區裕生路84巷12號","121.446746666667","24.985615","6501300","土城區"
"236078","166-UM","2018/05/24 19:09:28","新北市土城區龍泉路13-1號","121.411066666667","24.9477966666667","6501300","土城區"
"236026","269-VK","2018/05/24 19:09:36","新北市土城區中正路74巷1弄6號","121.444803333333","24.97505","6501300","土城區"
"236014","270-VK","2018/05/24 19:09:41","新北市土城區學府路一段37巷11號","121.457911666667","24.9879166666667","6501300","土城區"
"236038","271-VK","2018/05/24 19:09:31","新北市土城區清水路98巷3弄1號","121.457513333333","24.9813066666667","6501300","土城區"
"236021","401-BY","2018/05/24 19:09:38","新北市土城區延吉街183號","121.469308333333","24.985545","6501300","土城區"
"236059","912-UM","2018/05/24 19:09:30","新北市土城區金城路一段131號","121.44496","24.97388","6501300","土城區"
"236049","913-UM","2018/05/24 19:09:40","新北市土城區明德路一段365-1號","121.453665","24.9791066666667","6501300","土城區"
"242039","133-UY","2018/05/24 19:09:22","新北市新莊區新崑路187號","121.43391","25.00007","6500500","新莊區"
"238015","755-BX","2018/05/24 19:09:38","新北市樹林區備內街99-1號","121.407696666667","24.9892833333333","6500700","樹林區"
"238023","601-UM","2018/05/24 19:09:32","新北市樹林區大慶街29號","121.397063333333","25.0138666666667","6500700","樹林區"
"238019","599-UM","2018/05/24 19:09:26","新北市樹林區東榮街56號","121.416885","24.9830483333333","6500700","樹林區"
"238018","571-TV","2018/05/24 19:09:44","新北市樹林區中華路120號","121.417635","24.9807883333333","6500700","樹林區"
"238022","KEA-2213","2018/05/24 19:09:26","新北市樹林區中山路二段151巷8弄10號","121.406261666667","24.9778466666667","6500700","樹林區"
"238021","KEA-2539","2018/05/24 19:09:40","新北市樹林區柑園街二段426號","121.364535","24.947185","6500700","樹林區"
"238025","303-VK","2018/05/24 19:09:23","新北市樹林區中山路三段323號","121.390966666667","24.97144","6500700","樹林區"
"238017","283-BY","2018/05/24 19:09:44","新北市樹林區光興街221號","121.408163333333","25.00486","6500700","樹林區"
"238014","282-BY","2018/05/24 19:09:39","新北市樹林區千歲街63-14號","121.427056666667","24.9986066666667","6500700","樹林區"
"238020","268-VK","2018/05/24 19:09:36","新北市樹林區俊英街133巷16號","121.423763333333","25.0112266666667","6500700","樹林區"
"238026","172-UY","2018/05/24 19:09:26","新北市樹林區佳園路二段29-1號","121.391706666667","24.9630933333333","6500700","樹林區"
"238016","169-UY","2018/05/24 19:08:07","新北市樹林區中山路一段356巷8號","121.418868333333","24.9864383333333","6500700","樹林區"
"239006","891-R6","2018/05/24 19:09:33","新北市鶯歌區鶯桃路277號","121.335253333333","24.9600216666667","6500800","鶯歌區"
"239008","527-UM","2018/05/24 19:09:26","新北市鶯歌區國際二路6巷17號","121.338945","24.9739483333333","6500800","鶯歌區"
"239005","526-UM","2018/05/24 19:09:39","新北市鶯歌區永和街249號","121.337121666667","24.972305","6500800","鶯歌區"
"239001","417-VK","2018/05/24 19:09:26","新北市鶯歌區永智街39號","121.336601666667","24.9543166666667","6500800","鶯歌區"
"239003","360-BY","2018/05/24 19:09:18","新北市鶯歌區鶯桃路370號","121.333883333333","24.9630266666667","6500800","鶯歌區"
"239007","292-BY","2018/05/24 19:09:37","新北市鶯歌區成功街20巷1號","121.3584","24.95771","6500800","鶯歌區"
"239004","193-VK","2018/05/24 19:09:35","新北市鶯歌區中正三路318巷39號","121.327128333333","24.9365516666667","6500800","鶯歌區"
"221008","489-VK","2018/05/24 19:09:33","新北市汐止區康寧街464號","121.631791666667","25.0682183333333","6501100","汐止區"
"221036","130-UY","2018/05/24 19:09:43","新北市汐止區汐萬路一段18號","121.65606","25.0675283333333","6501100","汐止區"
"221015","131-UY","2018/05/24 19:09:24","新北市汐止區中正路318號","121.655923333333","25.0679733333333","6501100","汐止區"
"221010","269-BY","2018/05/24 19:09:31","新北市汐止區康寧街901號","121.65144","25.0750233333333","6501100","汐止區"
"221012","278-VK","2018/05/24 19:09:20","新北市汐止區康寧街901號","121.650843333333","25.0752866666667","6501100","汐止區"
"221023","279-VK","2018/05/24 19:09:35","新北市汐止區康寧街901號","121.650986666667","25.0752133333333","6501100","汐止區"
"221032","280-BY","2018/05/24 19:09:30","新北市汐止區橫科路407巷30弄28-5號","121.627605","25.0487516666667","6501100","汐止區"
"221027","281-BY","2018/05/24 19:09:31","新北市汐止區康寧街901號","121.65138","25.074935","6501100","汐止區"
"221029","298-VK","2018/05/24 19:09:39","新北市汐止區汐萬路一段256巷3號","121.652578333333","25.0745616666667","6501100","汐止區"
"221021","299-VK","2018/05/24 19:09:26","新北市汐止區康寧街901號","121.651475","25.0750383333333","6501100","汐止區"
"221031","353-TW","2018/05/24 19:09:27","新北市汐止區福德三路127號","121.633658333333","25.067645","6501100","汐止區"
"221025","623-UM","2018/05/24 19:09:23","新北市汐止區康寧街901號","121.651448333333","25.0749933333333","6501100","汐止區"
"221038","646-BX","2018/05/24 18:49:57","新北市汐止區汐萬路一段312號","121.650686666667","25.0753","6501100","汐止區"
"221033","647-BX","2018/05/24 19:09:34","新北市汐止區南勢街3號","121.627093333333","25.0374216666667","6501100","汐止區"
"221002","707-TV","2018/05/24 19:09:38","新北市汐止區環河街189巷5號","121.627271666667","25.0537566666667","6501100","汐止區"
"220079","145-BY","2018/05/24 19:09:38","新北市板橋區民權路260巷24-2號","121.458735","25.0152966666667","6500100","板橋區"
"220080","200-UY","2018/05/24 19:09:24","新北市板橋區大觀路二段3巷8號","121.447458333333","25.0037166666667","6500100","板橋區"
"242002","KEA-2550","2018/05/24 19:09:37","新北市新莊區三和路12-21號","121.441798333333","25.0379333333333","6500500","新莊區"
"220082","610-BX","2018/05/24 19:09:38","新北市板橋區溪崑二街89號","121.427223333333","24.9894583333333","6500100","板橋區"
"220101","245-BX","2018/05/24 19:09:26","新北市板橋區莊敬路208巷6弄7號","121.47103","25.0209683333333","6500100","板橋區"
"220094","267-BY","2018/05/24 19:09:34","新北市板橋區光武街108-5號","121.46573","25.0292266666667","6500100","板橋區"
"220056","276-BY","2018/05/24 19:09:29","新北市板橋區信義路74巷1弄15號","121.457691666667","24.9927983333333","6500100","板橋區"
"220072","277-BY","2018/05/24 19:09:34","新北市板橋區溪城路85號","121.426923333333","24.9836533333333","6500100","板橋區"
"220089","280-UM","2018/05/24 19:09:36","新北市板橋區文化路二段347號","121.472743333333","25.0305183333333","6500100","板橋區"
"220071","283-VK","2018/05/24 19:09:28","新北市板橋區和平路237號","121.465295","24.99855","6500100","板橋區"
"220053","285-VK","2018/05/24 19:09:35","新北市板橋區懷仁街11號","121.476111666667","25.0200466666667","6500100","板橋區"
"220083","286-VK","2018/05/24 19:09:39","新北市板橋區龍興街97巷3號","121.443965","25.0026816666667","6500100","板橋區"
"220081","287-VK","2018/05/24 19:09:28","新北市板橋區南雅西路二段156巷55號","121.452543333333","25.0126466666667","6500100","板橋區"
"220090","288-VK","2018/05/24 19:09:38","新北市板橋區四維路289巷31號","121.46158","25.02829","6500100","板橋區"
"220061","293-UM","2018/05/24 19:09:40","新北市板橋區中山路2段267-1號","121.477583333333","25.01808","6500100","板橋區"
"220062","295-UM","2018/05/24 19:09:42","新北市板橋區三民路二段245巷67號","121.48104","25.0126","6500100","板橋區"
"220084","296-UM","2018/05/24 19:09:23","新北市板橋區溪崑二街22巷11號","121.428138333333","24.9916183333333","6500100","板橋區"
"220075","303-R5","2018/05/24 19:09:39","新北市板橋區南雅西路一段10巷7弄2號","121.454571666667","25.0047316666667","6500100","板橋區"
"220092","307-R5","2018/05/24 19:09:26","新北市板橋區文化路二段177號","121.470651666667","25.027735","6500100","板橋區"
"220098","317-R6","2018/05/24 19:09:37","新北市板橋區四維路103巷4號","121.464995","25.0242783333333","6500100","板橋區"
"220064","486-VK","2018/05/24 19:09:34","新北市板橋區民生路一段55號","121.475215","25.0129366666667","6500100","板橋區"
"220088","491-VK","2018/05/24 19:09:32","新北市板橋區文化路二段182巷3弄24號","121.472043333333","25.0279366666667","6500100","板橋區"
"220035","560-BX","2018/05/24 19:09:30","新北市板橋區中正路328-1號","121.454663333333","25.0214566666667","6500100","板橋區"
"220103","561-BX","2018/05/24 19:09:26","新北市板橋區文化路一段188巷9弄9號","121.467918333333","25.0189316666667","6500100","板橋區"
"220063","609-BX","2018/05/24 19:09:38","新北市板橋區三民路二段150號","121.47904","25.0150466666667","6500100","板橋區"
"220086","630-UY","2018/05/24 19:09:38","新北市板橋區國光路171號","121.46045","25.018465","6500100","板橋區"
"220091","637-BX","2018/05/24 19:09:26","新北市板橋區縣民大道247巷80號","121.482135","25.0269183333333","6500100","板橋區"
"220057","686-BX","2018/05/24 19:09:41","新北市板橋區重慶路346巷5-1號","121.463788333333","24.9970366666667","6500100","板橋區"
"220077","687-BX","2018/05/24 19:09:36","新北市板橋區大觀路二段28號","121.446676666667","25.002985","6500100","板橋區"
"220093","689-BX","2018/05/24 19:09:30","新北市板橋區民生路三段205號","121.465311666667","25.0279516666667","6500100","板橋區"
"220054","741-BX","2018/05/24 19:09:32","新北市板橋區重慶路67號","121.46196","25.0070116666667","6500100","板橋區"
"220102","KEA-2699","2018/05/24 19:09:31","新北市板橋區田單街51號","121.482676666667","25.0279883333333","6500100","板橋區"
"220055","827-TW","2018/05/24 19:09:41","新北市板橋區新民街7巷27號","121.463645","25.0104916666667","6500100","板橋區"
"220067","829-TW","2018/05/24 19:09:40","新北市板橋區中山路二段90巷43弄17號","121.476991666667","25.0152566666667","6500100","板橋區"
"220068","830-TW","2018/05/24 19:09:36","新北市板橋區中山路二段443巷52弄2號","121.480965","25.0215016666667","6500100","板橋區"
"220096","831-TW","2018/05/24 19:09:31","新北市板橋區雙十路二段4-7號","121.476936666667","25.0258966666667","6500100","板橋區"
"220074","895-R6","2018/05/24 19:07:24","新北市板橋區中正路自強新村28-1號","121.45499","25.0140983333333","6500100","板橋區"
"220073","985-R7","2018/05/24 19:09:36","新北市板橋區中正路316號","121.454821666667","25.0207583333333","6500100","板橋區"
"220097","AAC-210","2018/05/24 19:09:41","新北市板橋區英士路179號","121.459158333333","25.0235816666667","6500100","板橋區"
"220070","AAC-253","2018/05/24 19:09:39","新北市板橋區忠孝路86號","121.461535","25.0020533333333","6500100","板橋區"
"235068","KEA-2873","2018/05/24 19:09:13","新北市中和區圓通路162巷4號","121.496925","24.9952883333333","6500300","中和區"
"235025","KEA-2875","2018/05/24 19:09:26","新北市中和區中山路三段63巷9號","121.477218333333","25.0042166666667","6500300","中和區"
