"lineid","car","time","location","longitude","latitude","cityid","cityname"
"234081","298-R6","2018/05/24 20:28:54","新北市永和區永亨路70號","121.520951666667","25.0058683333333","6500400","永和區"
"234038","336-UY","2018/05/24 20:28:54","新北市永和區民樂街31巷17弄2號","121.528775","25.00199","6500400","永和區"
"234064","337-UY","2018/05/24 20:29:06","新北市永和區中正路403號","121.517191666667","25.0047033333333","6500400","永和區"
"234086","338-UY","2018/05/24 20:29:04","新北市永和區光復街21號","121.516513333333","25.0174216666667","6500400","永和區"
"234070","552-UM","2018/05/24 20:29:03","新北市永和區永亨路9號","121.51948","25.00574","6500400","永和區"
"234017","745-BX","2018/05/24 20:29:04","新北市永和區仁愛路93號","121.512963333333","25.013105","6500400","永和區"
"234030","746-BX","2018/05/24 20:29:05","新北市永和區民生路46巷50號","121.521023333333","24.996285","6500400","永和區"
"234054","KEA-2590","2018/05/24 20:28:52","新北市永和區環河東路一段42號","121.518766666667","25.0170233333333","6500400","永和區"
"234013","KEA-2591","2018/05/24 20:28:58","新北市永和區仁愛路284號","121.503263333333","25.0085233333333","6500400","永和區"
"234061","AAD-866","2018/05/24 20:29:08","新北市永和區得和路13巷4號","121.515551666667","25.0009583333333","6500400","永和區"
"234042","862-TW","2018/05/24 20:28:57","新北市永和區安樂路431號","121.514438333333","25.0042266666667","6500400","永和區"
"234050","863-TW","2018/05/24 20:28:50","新北市永和區新生路90號","121.507318333333","25.0149733333333","6500400","永和區"
"249005","172-UM","2018/05/24 20:28:50","新北市八里區中山路三段132號","121.385421666667","25.141655","6502300","八里區"
"249001","173-UM","2018/05/24 20:29:08","新北市八里區下罟子5-11號","121.386901666667","25.1423","6502300","八里區"
"249004","303-UY","2018/05/24 20:28:53","新北市八里區中山路一段129巷27號","121.414038333333","25.1586483333333","6502300","八里區"
"249002","305-UY","2018/05/24 20:28:58","新北市八里區龍米路二段125巷23號","121.445846666667","25.145545","6502300","八里區"
"249003","593-UM","2018/05/24 20:28:53","新北市八里區華峰一街27號","121.399095","25.1464966666667","6502300","八里區"
"234023","9380-KE","2018/05/24 20:28:48","新北市永和區永和路二段304號","121.516126666667","25.0159616666667","6500400","永和區"
"234077","969-R7","2018/05/24 20:29:00","新北市中和區中正路878號","121.483881666667","25.0064366666667","6500400","永和區"
"234074","AAC-211","2018/05/24 20:29:08","新北市永和區豫溪街191巷7弄10號","121.523538333333","25.0107733333333","6500400","永和區"
"234067","AAC-212","2018/05/24 20:29:04","新北市永和區保平路268巷51弄22號","121.50684","25.0060283333333","6500400","永和區"
"234003","AAC-295","2018/05/24 20:28:50","新北市永和區大新街48號","121.515835","25.0082816666667","6500400","永和區"
"243013","AAD-798","2018/05/24 20:28:49","新北市泰山區貴子路9巷6號","121.425525","25.0421633333333","6501600","泰山區"
"243009","297-R6","2018/05/24 20:28:57","新北市泰山區忠孝街41巷1號","121.42841","25.0654483333333","6501600","泰山區"
"243016","380-SR","2018/05/24 20:29:09","新北市泰山區明志路二段323號","121.426468333333","25.0458566666667","6501600","泰山區"
"243015","421-VK","2018/05/24 20:28:52","新北市泰山區泰林路二段360號","121.42891","25.0635733333333","6501600","泰山區"
"243010","KEA-2216","2018/05/24 20:28:57","新北市泰山區新生路33號","121.427543333333","25.0453283333333","6501600","泰山區"
"243012","646-TV","2018/05/24 20:28:59","新北市泰山區忠孝街19巷3-1號","121.427466666667","25.0657633333333","6501600","泰山區"
"243014","680-BX","2018/05/24 20:28:48","新北市泰山區泰林路二段519號","121.423958333333","25.0636383333333","6501600","泰山區"
"222003","436-BY","2018/05/24 20:29:02","新北市深坑區深坑街25號","121.616036666667","25.0024333333333","6501800","深坑區"
"222002","659-BX","2018/05/24 20:29:04","新北市深坑區萬福路16巷16號","121.60696","25.00796","6501800","深坑區"
"231041","002-UM","2018/05/24 20:29:11","新北市新店區中正路501-2號","121.533695","24.9837266666667","6500600","新店區"
"231059","046-UY","2018/05/24 20:28:55","新北市新店區安德街171號","121.508643333333","24.9591216666667","6500600","新店區"
"231040","047-UY","2018/05/24 20:28:57","新北市新店區中正路295號","121.537118333333","24.974615","6500600","新店區"
"231044","106-UY","2018/05/24 20:29:07","新北市新店區建國路149號","121.538846666667","24.9788116666667","6500600","新店區"
"231052","108-UY","2018/05/24 20:28:55","新北市新店區松林路38號","121.546271666667","24.9102266666667","6500600","新店區"
"231047","187-VK","2018/05/24 20:29:01","新北市新店區寶慶街58巷10號","121.54202","24.987215","6500600","新店區"
"231054","KEA-2219","2018/05/24 20:28:55","新北市新店區檳榔路109號","121.544413333333","24.9616516666667","6500600","新店區"
"231057","256-BX","2018/05/24 20:28:50","新北市新店區花園五路二段1號","121.55347","24.9341583333333","6500600","新店區"
"231042","268-BY","2018/05/24 20:28:54","新北市新店區寶橋路156-2號","121.548626666667","24.9769816666667","6500600","新店區"
"231051","278-BY","2018/05/24 20:28:53","新北市新店區中央七街89號","121.52666","24.977115","6500600","新店區"
"231050","AAD-862","2018/05/24 20:29:09","新北市新店區建興街9巷1號","121.539875","24.9763116666667","6500600","新店區"
"231058","3713-VJ","2018/05/24 20:29:00","新北市新店區自由街35號","121.534786666667","24.9741383333333","6500600","新店區"
"231066","4716-K9","2018/05/24 20:28:54","新北市新店區安民街365巷1弄8號","121.516351666667","24.9752216666667","6500600","新店區"
"231056","4715-K9","2018/05/24 20:28:52","新北市新店區中正路346號","121.536396666667","24.9751283333333","6500600","新店區"
"231067","4772-VM","2018/05/24 20:29:00","新北市新店區安華路28-1號","121.519605","24.96079","6500600","新店區"
"231065","512-UM","2018/05/24 20:28:58","新北市新店區安祥路102巷28號","121.484085","24.9639616666667","6500600","新店區"
"231049","513-UM","2018/05/24 20:29:02","新北市新店區安康路一段44號","121.530848333333","24.9610333333333","6500600","新店區"
"231063","616-UM","2018/05/24 20:28:59","新北市新店區玫瑰路4-1號","121.493628333333","24.9513466666667","6500600","新店區"
"231061","619-UM","2018/05/24 20:29:06","新北市新店區安興路102號","121.515348333333","24.9769283333333","6500600","新店區"
"231068","718-UY","2018/05/24 20:28:52","新北市新店區中興路三段223號","121.54292","24.9829033333333","6500600","新店區"
"231064","719-UM","2018/05/24 20:28:57","新北市新店區安利街30號","121.519086666667","24.9747533333333","6500600","新店區"
"231062","720-UM","2018/05/24 20:29:02","新北市新店區安泰路7巷16號","121.485701666667","24.9509333333333","6500600","新店區"
"231060","897-TW","2018/05/24 20:28:59","新北市新店區錦秀路61號","121.479025","24.9430816666667","6500600","新店區"
"231045","898-TW","2018/05/24 20:28:59","新北市新店區新坡一街20號","121.548933333333","24.9618766666667","6500600","新店區"
"231043","899-TW","2018/05/24 20:28:54","新北市新店區民族路29號","121.540923333333","24.9787116666667","6500600","新店區"
"241011","013-R5","2018/05/24 20:28:51","新北市三重區仁愛街63號","121.496176666667","25.0725133333333","6500200","三重區"
"241028","022-UY","2018/05/24 20:29:07","新北市三重區光興街2號","121.498053333333","25.0600216666667","6500200","三重區"
"241008","059-VK","2018/05/24 20:28:53","新北市三重區下竹圍街91號","121.481101666667","25.07482","6500200","三重區"
"241031","061-VK","2018/05/24 20:28:49","新北市三重區三寧街15號","121.489458333333","25.059745","6500200","三重區"
"241015","062-VK","2018/05/24 20:28:51","新北市三重區文化北路41-4號","121.498915","25.065355","6500200","三重區"
"241017","063-VK","2018/05/24 20:28:50","新北市三重區自強路一段193-1號","121.491776666667","25.06818","6500200","三重區"
"241026","066-VK","2018/05/24 20:29:05","新北市三重區福德南路8巷3號","121.503145","25.063535","6500200","三重區"
"241002","090-VK","2018/05/24 20:29:05","新北市三重區仁義街211巷23號","121.497623333333","25.082365","6500200","三重區"
"241003","091-VK","2018/05/24 20:29:07","新北市三重區五華街138號","121.491498333333","25.083755","6500200","三重區"
"241022","742-BX","2018/05/24 20:29:07","新北市三重區民生街61巷31弄1號","121.487726666667","25.0630866666667","6500200","三重區"
"241005","262-UM","2018/05/24 20:28:54","新北市三重區分子尾街79巷1號","121.48911","25.0823733333333","6500200","三重區"
"241009","265-UM","2018/05/24 20:28:52","新北市三重區三和路四段378號","121.482471666667","25.0787766666667","6500200","三重區"
"241016","266-UM","2018/05/24 20:28:57","新北市三重區正義北路86號","121.497121666667","25.0645466666667","6500200","三重區"
"241018","268-UM","2018/05/24 20:29:04","新北市三重區正義北路232號","121.495766666667","25.0677716666667","6500200","三重區"
"241032","269-UM","2018/05/24 20:29:04","新北市三重區重陽路一段120巷48號","121.485063333333","25.0601616666667","6500200","三重區"
"241013","270-UM","2018/05/24 20:28:51","新北市三重區溪尾街5巷33號","121.49295","25.0747083333333","6500200","三重區"
"241025","271-UM","2018/05/24 20:29:03","新北市三重區頂崁街210巷23弄1號","121.475841666667","25.0681383333333","6500200","三重區"
"241007","398-BY","2018/05/24 20:28:48","新北市三重區自強路四段46號","121.489513333333","25.0776283333333","6500200","三重區"
"241030","413-TH","2018/05/24 20:29:04","新北市三重區成功路75號","121.488611666667","25.051185","6500200","三重區"
"241035","462-BY","2018/05/24 20:29:11","新北市三重區正義北路110號","121.49695","25.06512","6500200","三重區"
"241004","475-VK","2018/05/24 20:28:53","新北市三重區溪尾街167號","121.489123333333","25.0801466666667","6500200","三重區"
"241020","478-VK","2018/05/24 20:28:50","新北市三重區忠孝路一段21巷6號","121.491816666667","25.0721683333333","6500200","三重區"
"241014","543-UM","2018/05/24 20:29:01","新北市三重區長興街98號","121.501785","25.0692133333333","6500200","三重區"
"241023","545-UM","2018/05/24 20:29:01","新北市三重區自由街16號","121.479813333333","25.0665016666667","6500200","三重區"
"241001","547-UM","2018/05/24 20:29:02","新北市三重區福隆路10號","121.490113333333","25.07738","6500200","三重區"
"241019","KEA-2593","2018/05/24 20:28:57","新北市三重區重陽路四段83號","121.492525","25.0710833333333","6500200","三重區"
"241006","AAD-863","2018/05/24 20:29:06","新北市三重區車路頭街139巷14號","121.48432","25.07622","6500200","三重區"
"241024","887-TS","2018/05/24 20:29:09","新北市三重區忠孝路三段15巷28號","121.480525","25.0678833333333","6500200","三重區"
"241012","941-UM","2018/05/24 20:29:08","新北市三重區龍濱路257號","121.501495","25.0727683333333","6500200","三重區"
"241029","942-UM","2018/05/24 20:29:08","新北市三重區集美街227號","121.492096666667","25.055135","6500200","三重區"
"241033","AAC-255","2018/05/24 20:28:51","新北市三重區五谷王北街137號","121.476116666667","25.0520316666667","6500200","三重區"
"235039","097-UM","2018/05/24 20:28:54","新北市中和區大勇街29巷8號","121.516043333333","24.9944","6500300","中和區"
"235050","4979-A6","2018/05/24 20:28:58","新北市中和區景平路385巷9弄3號","121.502405","24.9941483333333","6500300","中和區"
"235069","4980-A6","2018/05/24 20:29:04","新北市中和區連城路265巷14弄9號","121.491333333333","24.9945883333333","6500300","中和區"
"235026","800-TS","2018/05/24 20:00:42","新北市中和區員山路36巷16-3號","121.484783333333","24.9916116666667","6500300","中和區"
"235037","AAC-213","2018/05/24 20:29:01","新北市五股區孝義路9-17號","121.448903333333","25.106995","6500300","中和區"
"247024","893-R6","2018/05/24 20:28:54","新北市蘆洲區長興路50巷41號","121.465003333333","25.0848183333333","6501400","蘆洲區"
"247014","546-UM","2018/05/24 20:28:54","新北市蘆洲區中山二路135號","121.471926666667","25.0815933333333","6501400","蘆洲區"
"247022","500-BY","2018/05/24 20:29:04","新北市蘆洲區中正路323號","121.466148333333","25.0887683333333","6501400","蘆洲區"
"247010","341-TH","2018/05/24 20:29:05","新北市蘆洲區信義路222巷63號","121.481313333333","25.085255","6501400","蘆洲區"
"247012","339-TH","2018/05/24 20:28:58","新北市蘆洲區復興路239號","121.480365","25.0898566666667","6501400","蘆洲區"
"247004","337-TH","2018/05/24 20:28:53","新北市蘆洲區長安街301號","121.458005","25.084895","6501400","蘆洲區"
"247006","336-TH","2018/05/24 20:28:55","新北市蘆洲區九芎街167巷25號","121.46578","25.0782266666667","6501400","蘆洲區"
"247018","057-VK","2018/05/24 20:29:06","新北市蘆洲區民族路303號","121.474881666667","25.09114","6501400","蘆洲區"
"247008","056-VK","2018/05/24 20:29:10","新北市蘆洲區重陽街112號","121.48258","25.0853633333333","6501400","蘆洲區"
"247016","007-UY","2018/05/24 20:29:01","新北市蘆洲區光華路80-1號","121.467736666667","25.08261","6501400","蘆洲區"
"247002","002-UY","2018/05/24 20:29:02","新北市蘆洲區長安街347巷30號","121.455605","25.0871716666667","6501400","蘆洲區"
"247020","001-UY","2018/05/24 20:29:04","新北市蘆洲區仁愛街74號","121.470883333333","25.0943016666667","6501400","蘆洲區"
"222001","KEA-2212","2018/05/24 20:29:01","新北市深坑區北深路三段329號","121.597283333333","25.0051","6501800","深坑區"
"208002","KEA-2872","2018/05/24 20:29:07","新北市金山區中山路259號","121.636953333333","25.2222016666667","6502700","金山區"
"251001","011-UM","2018/05/24 20:29:08","新北市淡水區淡金路二段83號","121.451443333333","25.181455","6501000","淡水區"
"251013","KEA-2871","2018/05/24 20:28:52","新北市淡水區後坑子6號","121.46344","25.2066866666667","6501000","淡水區"
"251016","179-VK","2018/05/24 20:29:06","新北市淡水區後洲子8-2號","121.449645","25.2240266666667","6501000","淡水區"
"251014","180-VK","2018/05/24 20:29:11","新北市淡水區石頭厝8-4號","121.46038","25.2375666666667","6501000","淡水區"
"251008","181-VK","2018/05/24 20:28:56","新北市淡水區淡海路189巷1號","121.420348333333","25.18449","6501000","淡水區"
"251015","182-VK","2018/05/24 20:29:07","新北市淡水區淡金路四段478號","121.452011666667","25.2244433333333","6501000","淡水區"
"251010","413-VK","2018/05/24 20:28:58","新北市淡水區沙崙路181巷2號","121.42439","25.18404","6501000","淡水區"
"251012","443-VK","2018/05/24 20:29:06","新北市淡水區興仁路88號","121.452093333333","25.217765","6501000","淡水區"
"251006","561-UM","2018/05/24 20:28:59","新北市淡水區商工路296號","121.460953333333","25.1858766666667","6501000","淡水區"
"251011","650-BX","2018/05/24 20:28:57","新北市淡水區崁頂74號","121.434465","25.2009066666667","6501000","淡水區"
"251002","672-BX","2018/05/24 20:28:57","新北市淡水區中正路13-1號","121.442951666667","25.1695766666667","6501000","淡水區"
"251003","766-UM","2018/05/24 20:29:06","新北市淡水區新生街108巷2號","121.44015","25.1747683333333","6501000","淡水區"
"207004","225-TW","2018/05/24 20:28:50","新北市萬里區北基里忠五街15號","121.684461666667","25.1762616666667","6502800","萬里區"
"252002","178-VK","2018/05/24 20:29:09","新北市三芝區淡金路二段43號","121.503288333333","25.2602066666667","6502100","三芝區"
"252001","292-VK","2018/05/24 20:28:50","新北市三芝區中山路一段31號","121.50062","25.2580116666667","6502100","三芝區"
"237008","302-VK","2018/05/24 20:29:05","新北市樹林區柑園街二段237號","121.37508","24.9523816666667","6500900","三峽區"
"242034","AAC-296","2018/05/24 20:28:58","新北市新莊區新泰路158號","121.447625","25.03747","6500500","新莊區"
"242058","986-R7","2018/05/24 20:28:54","新北市新莊區四維路215號","121.421661666667","25.01991","6500500","新莊區"
"242053","751-BX","2018/05/24 20:28:56","新北市新莊區西盛街362巷16號","121.427155","25.013675","6500500","新莊區"
"242027","615-BX","2018/05/24 20:28:53","新北市新莊區思源路269號","121.459818333333","25.0478266666667","6500500","新莊區"
"242025","613-BX","2018/05/24 20:28:50","新北市新莊區五工三路19號","121.459321666667","25.064365","6500500","新莊區"
"242029","612-BX","2018/05/24 20:29:08","新北市新莊區昌平街1號","121.454843333333","25.051285","6500500","新莊區"
"242042","566-BX","2018/05/24 20:28:50","新北市新莊區天祥街54巷2弄1號","121.416693333333","25.0292166666667","6500500","新莊區"
"242046","442-UM","2018/05/24 20:29:05","新北市新莊區中正路新雅巷2弄3號","121.417956666667","25.025295","6500500","新莊區"
"242051","441-UM","2018/05/24 20:28:52","新北市新莊區民安西路252巷27號","121.42519","25.0135533333333","6500500","新莊區"
"242056","440-UM","2018/05/24 20:29:06","新北市新莊區瓊泰路205號","121.443143333333","25.032305","6500500","新莊區"
"242036","415-TV","2018/05/24 20:28:56","新北市新莊區後港一路56巷12號","121.426543333333","25.0258466666667","6500500","新莊區"
"242007","413-TV","2018/05/24 20:29:01","新北市新莊區福壽街124巷25號","121.458736666667","25.0513283333333","6500500","新莊區"
"242023","362-BY","2018/05/24 20:28:55","新北市新莊區化成路461號","121.46455","25.0618133333333","6500500","新莊區"
"242061","353-BY","2018/05/24 20:28:57","新北市新莊區新樹路244巷46號","121.431288333333","25.0191783333333","6500500","新莊區"
"242009","132-UY","2018/05/24 20:29:04","新北市新莊區昌隆街58巷1弄12號","121.455466666667","25.0506133333333","6500500","新莊區"
"242039","133-UY","2018/05/24 20:29:02","新北市新莊區成功街18號","121.425265","25.020995","6500500","新莊區"
"242031","135-UY","2018/05/24 20:29:08","新北市新莊區三和路60-22號","121.437853333333","25.042115","6500500","新莊區"
"242048","172-VK","2018/05/24 20:29:04","新北市新莊區福營路456號","121.4199","25.0249083333333","6500500","新莊區"
"242011","173-VK","2018/05/24 20:28:42","新北市新莊區中義街17號","121.450831666667","25.051065","6500500","新莊區"
"242017","175-VK","2018/05/24 20:29:03","新北市新莊區中港三街37巷1號","121.449825","25.0462516666667","6500500","新莊區"
"242015","346-TH","2018/05/24 20:28:59","新北市新莊區中平路48號","121.444748333333","25.0439283333333","6500500","新莊區"
"242021","348-TH","2018/05/24 20:28:56","新北市新莊區公園路38號","121.44885","25.039215","6500500","新莊區"
"242019","350-TH","2018/05/24 20:28:52","新北市新莊區銘德街37號","121.458148333333","25.043635","6500500","新莊區"
"242013","351-TH","2018/05/24 20:28:50","新北市新莊區中榮街81巷9號","121.445551666667","25.052315","6500500","新莊區"
"221008","489-VK","2018/05/24 20:29:09","新北市汐止區康寧街543號","121.634271666667","25.0689933333333","6501100","汐止區"
"221036","130-UY","2018/05/24 20:29:05","新北市汐止區新台五路二段148號","121.664148333333","25.06658","6501100","汐止區"
"221015","131-UY","2018/05/24 20:29:04","新北市汐止區建成路142巷19弄15號","121.661861666667","25.0738283333333","6501100","汐止區"
"221010","269-BY","2018/05/24 20:28:51","新北市汐止區八連路二段616號","121.624926666667","25.1097866666667","6501100","汐止區"
"221012","278-VK","2018/05/24 20:29:00","新北市汐止區大同路三段186號","121.674426666667","25.0744883333333","6501100","汐止區"
"221023","279-VK","2018/05/24 20:28:55","新北市汐止區湖東街43號","121.635168333333","25.0729916666667","6501100","汐止區"
"221032","280-BY","2018/05/24 20:28:50","新北市汐止區弘道街53巷9弄2號","121.618656666667","25.0488983333333","6501100","汐止區"
"221027","281-BY","2018/05/24 20:28:56","新北市汐止區中正路229號","121.657881666667","25.0687666666667","6501100","汐止區"
"221029","298-VK","2018/05/24 20:28:59","新北市汐止區樟樹一路129巷32號","121.640541666667","25.06514","6501100","汐止區"
"221021","299-VK","2018/05/24 20:29:05","新北市汐止區水源路一段286號","121.654223333333","25.05822","6501100","汐止區"
"221031","353-TW","2018/05/24 20:29:07","新北市汐止區中興路110巷9弄4號","121.633686666667","25.0643283333333","6501100","汐止區"
"221035","622-UM","2018/05/24 20:29:01","新北市汐止區長江街101-5號","121.658681666667","25.0732183333333","6501100","汐止區"
"221025","623-UM","2018/05/24 20:29:03","新北市汐止區水源路二段90號","121.656561666667","25.0561383333333","6501100","汐止區"
"221038","646-BX","2018/05/24 20:29:09","新北市汐止區秀峰路9號","121.659266666667","25.0659816666667","6501100","汐止區"
"221033","647-BX","2018/05/24 20:28:53","新北市汐止區林森街73巷15號","121.62391","25.0414333333333","6501100","汐止區"
"221002","707-TV","2018/05/24 20:28:58","新北市汐止區福德三路71號","121.636701666667","25.06922","6501100","汐止區"
"221018","753-BX","2018/05/24 20:29:04","新北市汐止區茄苳路225巷11弄33號","121.670453333333","25.0700383333333","6501100","汐止區"
"220080","200-UY","2018/05/24 20:29:03","新北市五股區成泰路三段318-1號","121.450516666667","25.0963616666667","6500100","板橋區"
"242002","KEA-2550","2018/05/24 20:28:57","新北市新莊區中正路83號","121.461053333333","25.0392433333333","6500500","新莊區"
"220089","280-UM","2018/05/24 20:28:57","新北市板橋區四維路318號","121.462393333333","25.0299766666667","6500100","板橋區"
"220083","286-VK","2018/05/24 20:28:59","新北市板橋區僑中二街104巷23號","121.445043333333","25.0080216666667","6500100","板橋區"
"242044","281-VK","2018/05/24 20:29:04","新北市新莊區龍安路66-3號","121.414848333333","25.0214066666667","6500500","新莊區"
"220098","317-R6","2018/05/24 20:28:57","新北市新莊區五工一路90號","121.46125","25.0679233333333","6500100","板橋區"
"220103","561-BX","2018/05/24 20:29:06","新北市板橋區新海路45號","121.462213333333","25.02103","6500100","板橋區"
"220055","827-TW","2018/05/24 20:29:01","新北市板橋區南雅南路二段114號","121.453063333333","25.00062","6500100","板橋區"
"220070","AAC-253","2018/05/24 20:28:58","新北市泰山區楓里路12號","121.441998333333","25.05919","6500100","板橋區"
"235068","KEA-2873","2018/05/24 20:28:43","新北市中和區勝利路35巷9弄14號","121.499695","25.0072333333333","6500300","中和區"
"235061","KEA-2875","2018/05/24 20:28:55","新北市新店區柴埕路116號","121.504058333333","24.95965","6500300","中和區"
