"lineid","car","time","location","longitude","latitude","cityid","cityname"
"234077","969-R7","2018/05/24 21:29:40","新北市五股區新五路三段181號","121.448675","25.09266","6500400","永和區"
"231047","187-VK","2018/05/24 21:29:41","新北市新店區安德街148巷37號","121.507228333333","24.9613016666667","6500600","新店區"
"231063","616-UM","2018/05/24 21:29:40","新北市新店區如意街55號","121.493498333333","24.947255","6500600","新店區"
"241017","063-VK","2018/05/24 21:29:30","新北市三重區中正北路25巷1號","121.492445","25.0620566666667","6500200","三重區"
"241003","091-VK","2018/05/24 21:29:39","新北市三重區進安街196號","121.493848333333","25.086145","6500200","三重區"
"241005","262-UM","2018/05/24 21:29:34","新北市三重區仁華街118巷6號","121.485726666667","25.0830366666667","6500200","三重區"
"241016","266-UM","2018/05/24 21:29:37","新北市三重區信義西街43號","121.495251666667","25.0639466666667","6500200","三重區"
"241032","269-UM","2018/05/24 21:29:44","新北市八里區荖阡坑路34-2號","121.40097","25.130815","6500200","三重區"
"241025","271-UM","2018/05/24 21:29:43","新北市五股區新五路二段372巷20號","121.447821666667","25.08594","6500200","三重區"
"241007","398-BY","2018/05/24 21:29:28","新北市三重區正義北路124號","121.496838333333","25.0655033333333","6500200","三重區"
"241006","AAD-863","2018/05/24 21:29:26","新北市五股區五工一路111號","121.456273333333","25.071125","6500200","三重區"
"241024","887-TS","2018/05/24 21:29:28","新北市三重區中正北路115巷6號","121.484068333333","25.0677333333333","6500200","三重區"
"247024","893-R6","2018/05/24 21:29:34","新北市五股區中直路21號","121.421475","25.111855","6501400","蘆洲區"
"247022","500-BY","2018/05/24 21:29:44","新北市蘆洲區環堤大道92號","121.455293333333","25.0855766666667","6501400","蘆洲區"
"247010","341-TH","2018/05/24 21:29:45","新北市蘆洲區中山二路76號","121.473416666667","25.0820716666667","6501400","蘆洲區"
"247006","336-TH","2018/05/24 21:29:36","新北市蘆洲區長榮路38-8號","121.463001666667","25.08296","6501400","蘆洲區"
"247016","007-UY","2018/05/24 21:29:41","新北市八里區商港路50號","121.395756666667","25.1456916666667","6501400","蘆洲區"
"251009","008-UM","2018/05/24 21:29:41","新北市淡水區民族路33巷16-8號","121.463348333333","25.13593","6501000","淡水區"
"251004","009-UM","2018/05/24 21:29:44","新北市淡水區民族路9號","121.460363333333","25.1371016666667","6501000","淡水區"
"251005","010-UM","2018/05/24 21:29:41","新北市淡水區水源街一段34巷8號","121.443081666667","25.1718633333333","6501000","淡水區"
"251001","011-UM","2018/05/24 21:29:35","新北市淡水區濱海路二段202巷65弄31號","121.434556666667","25.19363","6501000","淡水區"
"251013","KEA-2871","2018/05/24 21:29:32","新北市淡水區埤島58-2號","121.459068333333","25.195155","6501000","淡水區"
"251016","179-VK","2018/05/24 21:29:26","新北市淡水區前洲子28號","121.441136666667","25.2191916666667","6501000","淡水區"
"251014","180-VK","2018/05/24 21:29:30","新北市淡水區六塊厝2-1號","121.450131666667","25.2404666666667","6501000","淡水區"
"251015","182-VK","2018/05/24 21:29:27","新北市淡水區淡金路三段33號","121.446668333333","25.1978733333333","6501000","淡水區"
"251010","413-VK","2018/05/24 21:29:38","新北市淡水區沙崙路25巷21號","121.42055","25.182445","6501000","淡水區"
"251007","442-VK","2018/05/24 21:29:32","新北市淡水區淡金路一段69號","121.458176666667","25.1734983333333","6501000","淡水區"
"251012","443-VK","2018/05/24 21:29:41","新北市淡水區淡金路五段35巷46號","121.452481666667","25.234745","6501000","淡水區"
"251006","561-UM","2018/05/24 21:29:39","新北市淡水區公明街47號","121.443336666667","25.1687966666667","6501000","淡水區"
"251011","650-BX","2018/05/24 21:29:37","新北市淡水區新民街180-6號","121.436681666667","25.1788433333333","6501000","淡水區"
"251003","766-UM","2018/05/24 21:29:45","新北市淡水區崁頂15-5號","121.439011666667","25.18585","6501000","淡水區"
"236078","166-UM","2018/05/24 21:02:20","新北市土城區城林路6巷80號","121.438683333333","24.97963","6501300","土城區"
"220080","200-UY","2018/05/24 21:29:28","新北市新莊區中平路377巷17弄56號","121.442235","25.0522883333333","6500100","板橋區"
"242002","KEA-2550","2018/05/24 21:28:17","新北市林口區太平里180號","121.367926666667","25.133895","6500500","新莊區"
"220098","317-R6","2018/05/24 21:29:37","新北市三重區光復路二段143巷16號","121.473695","25.0608033333333","6500100","板橋區"
"220070","AAC-253","2018/05/24 21:29:38","新北市五股區新五路二段119-10號","121.438383333333","25.078735","6500100","板橋區"
