"lineid","car","time","location","longitude","latitude","cityid","cityname"
"234077","969-R7","2018/05/24 21:39:20","新北市中和區勝利路2號","121.498235","25.0084","6500400","永和區"
"241005","262-UM","2018/05/24 21:39:14","新北市三重區碧華街1號","121.48344","25.0811466666667","6500200","三重區"
"241032","269-UM","2018/05/24 21:39:04","新北市林口區太平里180號","121.367238333333","25.13371","6500200","三重區"
"247010","341-TH","2018/05/24 21:39:05","新北市五股區成泰路四段22巷6-4號","121.454083333333","25.105095","6501400","蘆洲區"
"251009","008-UM","2018/05/24 21:39:01","新北市淡水區民族路29巷2弄6號","121.462533333333","25.137105","6501000","淡水區"
"251004","009-UM","2018/05/24 21:39:04","新北市淡水區民生路47-4號","121.462061666667","25.1380683333333","6501000","淡水區"
"251005","010-UM","2018/05/24 21:39:01","新北市淡水區英專路101巷22號","121.444963333333","25.1720716666667","6501000","淡水區"
"251001","011-UM","2018/05/24 21:39:15","新北市淡水區新市二路三段152號","121.435378333333","25.194225","6501000","淡水區"
"251016","179-VK","2018/05/24 21:39:06","新北市淡水區淡金路三段70巷1號","121.448258333333","25.2011","6501000","淡水區"
"251014","180-VK","2018/05/24 21:39:11","新北市淡水區淡金路四段478號","121.451895","25.2239666666667","6501000","淡水區"
"251010","413-VK","2018/05/24 21:39:18","新北市淡水區沙崙路232號","121.425488333333","25.1846416666667","6501000","淡水區"
"251007","442-VK","2018/05/24 21:39:12","新北市淡水區淡金路一段69號","121.45817","25.1734966666667","6501000","淡水區"
"251012","443-VK","2018/05/24 21:39:01","新北市淡水區淡金路四段219號","121.451671666667","25.2223916666667","6501000","淡水區"
"251006","561-UM","2018/05/24 21:38:58","新北市淡水區中正路119號","121.4394","25.1698283333333","6501000","淡水區"
"251011","650-BX","2018/05/24 21:39:17","新北市淡水區新民街216號","121.436158333333","25.1801916666667","6501000","淡水區"
"251002","672-BX","2018/05/24 21:39:16","新北市淡水區學府路152號","121.446393333333","25.1742816666667","6501000","淡水區"
"251003","766-UM","2018/05/24 21:39:05","新北市淡水區新春街37號","121.43737","25.18172","6501000","淡水區"
"220080","200-UY","2018/05/24 21:39:08","新北市板橋區華東街1-10號","121.44858","24.994895","6500100","板橋區"
"242002","KEA-2550","2018/05/24 21:39:17","新北市八里區中山路三段409號","121.368593333333","25.1346283333333","6500500","新莊區"
"220070","AAC-253","2018/05/24 21:38:58","新北市板橋區板城路319號","121.45181","25.0012366666667","6500100","板橋區"
