"lineid","car","time","location","longitude","latitude","cityid","cityname"
"248005","653-BX","2018/08/13 07:19:35","新北市五股區明德路8號","121.433355","25.0717416666667","6501500","五股區"
"232001","290-BY","2018/08/13 07:19:23","新北市坪林區桶盤嶼8-2號","121.707265","24.9575216666667","6502000","坪林區"
"232012","291-BY","2018/08/13 07:19:32","新北市坪林區仁里13號","121.68774","24.928855","6502000","坪林區"
"232010","375-UM","2018/08/13 07:19:39","新北市坪林區水聳淒坑1號","121.726183333333","24.9254166666667","6502000","坪林區"
"232017","705-BZ","2018/08/13 07:19:16","新北市坪林區九芎坑2號","121.723033333333","24.9661966666667","6502000","坪林區"
"232005","758-BX","2018/08/13 07:19:31","新北市坪林區北宜路七段328號","121.696776666667","24.9324866666667","6502000","坪林區"
"244001","248-BX","2018/08/13 07:19:39","新北市林口區頂福里71-28號","121.357323333333","25.0778783333333","6501700","林口區"
"235001","611-BX","2018/08/13 07:19:34","新北市中和區圓通路367巷4號","121.491423333333","24.9893533333333","6500300","中和區"
"226005","5620-A6","2018/08/13 07:19:39","新北市平溪區菁桐里二坑路5號","121.721216666667","25.0243533333333","6502400","平溪區"
"226001","7418-A5","2018/08/13 07:19:31","新北市平溪區靜安路三段53號","121.76446","25.033195","6502400","平溪區"
"226003","AGD-0702","2018/08/13 07:19:24","新北市平溪區嶺腳里嶺腳寮53號","121.747866666667","25.0310483333333","6502400","平溪區"
"223006","022-BY","2018/08/13 07:17:05","新北市石碇區深按1號","121.657496666667","25.016895","6501900","石碇區"
"223002","KEA-2673","2018/08/13 07:18:13","新北市石碇區北宜路五段竹坑巷12-1號","121.625978333333","24.9427583333333","6501900","石碇區"
"223003","205-TH","2018/08/13 07:14:58","新北市石碇區烏塗窟26-1號","121.657155","24.9752066666667","6501900","石碇區"
"223008","406-TH","2018/08/13 07:19:32","新北市石碇區番子坑24-2號","121.677498333333","25.0050883333333","6501900","石碇區"
"223004","660-BX","2018/08/13 07:19:34","新北市石碇區新興坑6-2號","121.65431","25.017645","6501900","石碇區"
"223007","661-BX","2018/08/13 07:19:41","新北市石碇區蚯蚓坑19-9號","121.687086666667","24.9988233333333","6501900","石碇區"
"223005","677-TV","2018/08/13 07:19:40","新北市石碇區新興坑3號","121.654195","25.01737","6501900","石碇區"
"252006","073-UM","2018/08/13 07:19:28","新北市三芝區錫板里海尾27號","121.485778333333","25.2552933333333","6502100","三芝區"
"252004","249-BX","2018/08/13 07:19:35","新北市三芝區福德里大湖9-1號","121.505366666667","25.22218","6502100","三芝區"
"237001","159-UY","2018/08/13 07:19:39","新北市三峽區隆恩街245號","121.357708333333","24.9408533333333","6500900","三峽區"
"236001","165-UM","2018/08/13 07:19:37","新北市土城區中華路一段43-1號","121.445901666667","24.9885533333333","6501300","土城區"
"236001","KEA-2877","2018/08/13 07:19:35","新北市土城區和平路103-1號","121.44959","24.9686616666667","6501300","土城區"
"242026","615-BX","2018/08/13 07:19:32","新北市新莊區三和路12-21號","121.442361666667","25.0385616666667","6500500","新莊區"
"242052","442-UM","2018/08/13 07:19:22","新北市新莊區三和路12-21號","121.44192","25.0387916666667","6500500","新莊區"
"242038","133-UY","2018/08/13 07:19:34","新北市新莊區新泰路255巷83號","121.442273333333","25.0388033333333","6500500","新莊區"
"242016","175-VK","2018/08/13 07:19:36","新北市新莊區三和路12-21號","121.441953333333","25.0385766666667","6500500","新莊區"
