"lineid","car","time","location","longitude","latitude","cityid","cityname"
"248005","653-BX","2018/08/13 07:29:35","新北市五股區明德路12巷3號","121.433235","25.071735","6501500","五股區"
"232001","290-BY","2018/08/13 07:29:23","新北市坪林區上坑子口9-1號","121.701113333333","24.9624383333333","6502000","坪林區"
"232012","291-BY","2018/08/13 07:29:32","新北市坪林區金瓜寮3-1號","121.680908333333","24.9182383333333","6502000","坪林區"
"232010","375-UM","2018/08/13 07:29:39","新北市坪林區水聳淒坑5-1號","121.725886666667","24.926125","6502000","坪林區"
"232017","705-BZ","2018/08/13 07:29:36","新北市坪林區樟空子4號","121.7266","24.9683283333333","6502000","坪林區"
"232005","758-BX","2018/08/13 07:29:31","新北市坪林區魚堀36-2號","121.700288333333","24.9305783333333","6502000","坪林區"
"244001","248-BX","2018/08/13 07:29:39","新北市林口區頂福里73號","121.341616666667","25.09257","6501700","林口區"
"235001","611-BX","2018/08/13 07:29:34","新北市中和區圓通路367巷6號","121.491441666667","24.9892516666667","6500300","中和區"
"226005","5620-A6","2018/08/13 07:29:23","新北市平溪區菁桐里二坑路1號","121.720908333333","25.0241583333333","6502400","平溪區"
"226001","7418-A5","2018/08/13 07:21:31","新北市平溪區望古里灰4-2號","121.763615","25.0291416666667","6502400","平溪區"
"226003","AGD-0702","2018/08/13 07:29:44","新北市平溪區嶺腳里嶺腳寮74-1號","121.747646666667","25.032535","6502400","平溪區"
"223006","022-BY","2018/08/13 07:29:25","新北市石碇區八分寮55-3號","121.6444","25.0122466666667","6501900","石碇區"
"223002","KEA-2673","2018/08/13 07:29:33","新北市石碇區北宜路五段土巷8號","121.629588333333","24.9453666666667","6501900","石碇區"
"223003","205-TH","2018/08/13 07:29:33","新北市石碇區蓬菜寮11-2號","121.64993","24.973225","6501900","石碇區"
"223008","406-TH","2018/08/13 07:29:32","新北市石碇區靜安路一段252號","121.677675","25.0104333333333","6501900","石碇區"
"223004","660-BX","2018/08/13 07:29:34","新北市石碇區八分寮55-5號","121.645108333333","25.0169083333333","6501900","石碇區"
"223007","661-BX","2018/08/13 07:29:34","新北市石碇區靜安路一段316號","121.693543333333","25.0068066666667","6501900","石碇區"
"223005","677-TV","2018/08/13 07:29:40","新北市石碇區八分寮55-5號","121.645218333333","25.0169366666667","6501900","石碇區"
"252006","073-UM","2018/08/13 07:29:28","新北市三芝區埔頭里埔頭24號","121.491216666667","25.2603516666667","6502100","三芝區"
"252004","249-BX","2018/08/13 07:29:35","新北市三芝區興華里楓子林50-2號","121.50205","25.2104983333333","6502100","三芝區"
"237001","159-UY","2018/08/13 07:29:39","新北市三峽區隆恩街166號","121.36341","24.942895","6500900","三峽區"
"236001","165-UM","2018/08/13 07:29:37","新北市土城區永豐路13巷5弄11號","121.461541666667","24.9893466666667","6501300","土城區"
"236001","KEA-2877","2018/08/13 07:29:35","新北市土城區忠義路127-5號","121.445428333333","24.9621333333333","6501300","土城區"
"242024","705-TV","2018/08/13 07:29:30","新北市新莊區新泰路255巷83號","121.442211666667","25.0391116666667","6500500","新莊區"
"242026","615-BX","2018/08/13 07:29:32","新北市新莊區新泰路255巷83號","121.442228333333","25.03887","6500500","新莊區"
"242040","566-BX","2018/08/13 07:29:36","新北市新莊區新泰路255巷83號","121.44216","25.0389183333333","6500500","新莊區"
"242052","442-UM","2018/08/13 07:29:42","新北市新莊區三和路12-21號","121.442025","25.0388066666667","6500500","新莊區"
"242055","440-UM","2018/08/13 07:29:30","新北市新莊區新泰路357巷3弄57號","121.441991666667","25.039115","6500500","新莊區"
"242035","415-TV","2018/08/13 07:29:29","新北市新莊區新泰路357巷3弄57號","121.441946666667","25.03926","6500500","新莊區"
"242043","400-BY","2018/08/13 07:29:26","新北市新莊區新泰路357巷3弄57號","121.442048333333","25.0394233333333","6500500","新莊區"
"242022","362-BY","2018/08/13 07:29:24","新北市新莊區新泰路255巷83號","121.442413333333","25.038565","6500500","新莊區"
"242038","133-UY","2018/08/13 07:29:34","新北市新莊區三和路12-21號","121.442011666667","25.03878","6500500","新莊區"
"242016","175-VK","2018/08/13 07:29:36","新北市新莊區三和路12-21號","121.44192","25.038625","6500500","新莊區"
"242003","176-VK","2018/08/13 07:29:25","新北市新莊區新泰路255巷83號","121.44221","25.0387333333333","6500500","新莊區"
"242012","347-TH","2018/08/13 07:29:21","新北市新莊區三和路12-16號","121.442061666667","25.03746","6500500","新莊區"
"242033","280-VK","2018/08/13 07:29:31","新北市新莊區三和路12-21號","121.442003333333","25.0381216666667","6500500","新莊區"
