"lineid","car","time","location","longitude","latitude","cityid","cityname"
"248005","653-BX","2018/05/29 08:20:33","新北市五股區明德路12巷6號","121.433466666667","25.0718116666667","6501500","五股區"
"244002","248-BX","2018/05/29 08:29:00","新北市林口區嘉溪雅坑41號","121.31621","25.1212416666667","6501700","林口區"
"222004","289-BY","2018/05/29 08:28:48","新北市深坑區向天湖2號","121.616986666667","24.9939783333333","6501800","深坑區"
"231007","189-VK","2018/05/29 08:28:46","新北市新店區小坑二路2巷1號","121.531746666667","24.9158333333333","6500600","新店區"
"231009","192-VK","2018/05/29 08:28:49","新北市新店區永興路102-4號","121.545655","24.9303066666667","6500600","新店區"
"235043","352-BY","2018/05/29 08:28:47","新北市中和區圓通路391-3號","121.489881666667","24.9892366666667","6500300","中和區"
"235001","611-BX","2018/05/29 08:28:52","新北市中和區中山路二段523巷35號","121.482248333333","25.0032883333333","6500300","中和區"
"226005","5620-A6","2018/05/29 08:27:27","新北市平溪區南山里六分11-1號","121.797783333333","25.0498433333333","6502400","平溪區"
"226002","7418-A5","2018/05/29 08:29:04","新北市平溪區東勢里芊蓁林40號","121.748578333333","25.013535","6502400","平溪區"
"226006","AGD-0702","2018/05/29 08:28:54","新北市平溪區十分里十分街214號","121.779118333333","25.0447866666667","6502400","平溪區"
"223006","022-BY","2018/05/29 08:28:57","新北市石碇區八分寮47-1號","121.643176666667","25.013765","6501900","石碇區"
"223001","205-TH","2018/05/29 08:28:40","新北市石碇區北宜路六段塗潭巷18號","121.650818333333","24.9332616666667","6501900","石碇區"
"223008","406-TH","2018/05/29 08:28:47","新北市石碇區串空湖8-2號","121.669141666667","25.0013333333333","6501900","石碇區"
"223001","592-UM","2018/05/29 08:28:38","新北市石碇區北宜路六段塗潭巷18號","121.650786666667","24.9333783333333","6501900","石碇區"
"223004","660-BX","2018/05/29 08:29:00","新北市石碇區崩山3號","121.675531666667","24.9750683333333","6501900","石碇區"
"223005","677-TV","2018/05/29 08:28:50","新北市石碇區碇坪路一段282號","121.676551666667","24.9766566666667","6501900","石碇區"
"227006","282-VK","2018/05/29 08:28:52","新北市雙溪區平林里竹寮坑10號","121.841801666667","25.0425983333333","6502500","雙溪區"
"227012","030-BX","2018/05/29 08:28:53","新北市雙溪區牡丹里中正路58巷28號","121.866171666667","25.0418233333333","6502500","雙溪區"
"252005","073-UM","2018/05/29 08:28:50","新北市三芝區中正路三段3號","121.503091666667","25.2543133333333","6502100","三芝區"
"252004","249-BX","2018/05/29 08:28:53","新北市三芝區興華里楓子林45-4號","121.50141","25.20461","6502100","三芝區"
"252007","AAC-283","2018/05/29 08:28:53","新北市三芝區蘭陽街13-1號","121.473555","25.2424716666667","6502100","三芝區"
"237001","159-UY","2018/05/29 08:28:51","新北市三峽區大義路189號","121.378153333333","24.945175","6500900","三峽區"
"236008","165-UM","2018/05/29 08:29:00","新北市土城區金城路三段18-35號","121.454401666667","24.976915","6501300","土城區"
"236002","339-SR","2018/05/29 08:28:49","新北市土城區中央路四段342-1號","121.413421666667","24.9552433333333","6501300","土城區"
"236006","498-BY","2018/05/29 08:28:59","新北市土城區大暖路25號","121.422923333333","24.96096","6501300","土城區"
