"lineid","car","time","location","longitude","latitude","cityid","cityname"
"248005","653-BX","2018/05/29 09:29:24","新北市五股區登林路88號","121.429091666667","25.069365","6501500","五股區"
"222004","289-BY","2018/05/29 09:29:28","新北市深坑區阿柔洋35-1號","121.613301666667","24.9976","6501800","深坑區"
"231007","189-VK","2018/05/29 09:29:26","新北市新店區新潭路三段215巷25號","121.508118333333","24.9040766666667","6500600","新店區"
"231009","192-VK","2018/05/29 09:29:29","新北市新店區平廣路一段185號","121.517903333333","24.8895333333333","6500600","新店區"
"235001","611-BX","2018/05/29 09:29:32","新北市中和區連城路569巷9弄7號","121.479561666667","24.994155","6500300","中和區"
"223001","205-TH","2018/05/29 09:29:18","新北市石碇區北宜路五段66號","121.638386666667","24.9536733333333","6501900","石碇區"
"223001","592-UM","2018/05/29 09:29:38","新北市石碇區北宜路五段66號","121.638335","24.9536816666667","6501900","石碇區"
"227006","282-VK","2018/05/29 09:26:12","新北市雙溪區長源里柑腳58-1號","121.793936666667","25.0064","6502500","雙溪區"
"227012","030-BX","2018/05/29 09:29:33","新北市坪林區豹子廚9-2號","121.783941666667","24.97029","6502500","雙溪區"
"252004","249-BX","2018/05/29 09:29:33","新北市三芝區福德里大水堀32-2號","121.51157","25.2175516666667","6502100","三芝區"
"252007","AAC-283","2018/05/29 09:29:33","新北市三芝區古庄里山豬堀13-1號","121.493438333333","25.256445","6502100","三芝區"
"237001","159-UY","2018/05/29 09:29:30","新北市三峽區大德路157號","121.375638333333","24.9452066666667","6500900","三峽區"
"236008","165-UM","2018/05/29 09:29:20","新北市土城區中央路四段323號","121.410513333333","24.95108","6501300","土城區"
"236002","339-SR","2018/05/29 09:29:29","新北市土城區學府路一段162號","121.454228333333","24.9866516666667","6501300","土城區"
"236006","498-BY","2018/05/29 09:29:39","新北市土城區承天路78號","121.442708333333","24.96148","6501300","土城區"
