"lineid","car","time","location","longitude","latitude","cityid","cityname"
"248005","653-BX","2018/05/29 09:49:24","新北市五股區成泰路一段72-1號","121.435578333333","25.0699633333333","6501500","五股區"
"222004","289-BY","2018/05/29 09:49:08","新北市深坑區昇高坑路43號","121.629331666667","24.99649","6501800","深坑區"
"231007","189-VK","2018/05/29 09:49:26","新北市新店區新潭路三段215巷25號","121.508125","24.9040766666667","6500600","新店區"
"231009","192-VK","2018/05/29 09:33:49","新北市新店區平廣路一段202巷5弄7號","121.514591666667","24.8902666666667","6500600","新店區"
"223001","205-TH","2018/05/29 09:49:18","新北市石碇區二格路11號","121.628031666667","24.9640466666667","6501900","石碇區"
"227006","282-VK","2018/05/29 09:49:32","新北市雙溪區長源里柑腳47號","121.799905","25.0107616666667","6502500","雙溪區"
"227012","030-BX","2018/05/29 09:46:53","新北市坪林區中心崙2號","121.78369","24.95054","6502500","雙溪區"
"252004","249-BX","2018/05/29 09:48:33","新北市三芝區圓山里石曹子坑64號","121.523641666667","25.2119966666667","6502100","三芝區"
"252007","AAC-283","2018/05/29 09:49:34","新北市三芝區新庄里新庄子95-29號","121.512591666667","25.27321","6502100","三芝區"
"236006","498-BY","2018/05/29 09:49:19","新北市土城區中央路二段396巷12號","121.439048333333","24.9709583333333","6501300","土城區"
