"lineid","car","time","location","longitude","latitude","cityid","cityname"
"234078","298-R6","2018/05/29 12:29:25","新北市永和區林森路81號","121.523863333333","25.0039216666667","6500400","永和區"
"234036","336-UY","2018/05/29 12:29:35","新北市永和區福和路1號","121.526621666667","25.010145","6500400","永和區"
"234084","338-UY","2018/05/29 12:29:27","新北市永和區福和路1號","121.525503333333","25.0095733333333","6500400","永和區"
"234015","745-BX","2018/05/29 12:29:36","新北市永和區福和路1號","121.526321666667","25.00963","6500400","永和區"
"234040","862-TW","2018/05/29 12:29:27","新北市永和區福和路1號","121.5264","25.009685","6500400","永和區"
"234076","969-R7","2018/05/29 12:29:32","新北市永和區福和路1號","121.52649","25.0097983333333","6500400","永和區"
"231002","002-UM","2018/05/29 12:29:21","新北市新店區安華路28-1號","121.519731666667","24.9608216666667","6500600","新店區"
"228004","212-TW","2018/05/29 12:28:38","新北市貢寮區貢寮里長泰路1號","121.906235","25.0191433333333","6502600","貢寮區"
"228005","828-UM","2018/05/29 12:29:28","新北市貢寮區福連里蓬萊街16號","121.979403333333","24.9928716666667","6502600","貢寮區"
"207002","749-BX","2018/05/29 12:29:33","新北市萬里區雙興里太和路7-2號","121.658556666667","25.1739766666667","6502800","萬里區"
"235025","KEA-2875","2018/05/29 12:28:58","新北市中和區員山路36巷16-3號","121.484773333333","24.9914033333333","6500300","中和區"
