"lineid","car","time","location","longitude","latitude","cityid","cityname"
"234044","148-BY","2018/05/29 12:59:26","新北市永和區得和路373巷31弄6號","121.524863333333","25.0005766666667","6500400","永和區"
"234005","207-UY","2018/05/29 12:59:41","新北市永和區中山路一段50號","121.513098333333","25.010635","6500400","永和區"
"234078","298-R6","2018/05/29 12:59:42","新北市永和區福和路139號","121.520998333333","25.0076466666667","6500400","永和區"
"234036","336-UY","2018/05/29 12:59:35","新北市永和區成功路二段207號","121.526571666667","24.9959666666667","6500400","永和區"
"234062","337-UY","2018/05/29 12:59:31","新北市永和區秀朗路一段162號","121.518423333333","25.0033966666667","6500400","永和區"
"234084","338-UY","2018/05/29 12:59:27","新北市永和區永寧街131巷2號","121.518055","25.0051266666667","6500400","永和區"
"234068","552-UM","2018/05/29 12:59:31","新北市永和區中興街68巷5弄4號","121.518326666667","25.0115866666667","6500400","永和區"
"234015","745-BX","2018/05/29 12:59:36","新北市永和區永和路二段310號","121.516158333333","25.0161066666667","6500400","永和區"
"234028","746-BX","2018/05/29 12:59:39","新北市永和區四維街82號","121.52318","24.998405","6500400","永和區"
"234052","KEA-2590","2018/05/29 12:59:32","新北市永和區竹林路66巷2號","121.518178333333","25.01344","6500400","永和區"
"234012","KEA-2591","2018/05/29 12:59:38","新北市永和區中山路一段60巷8號","121.513101666667","25.0110816666667","6500400","永和區"
"234060","AAD-866","2018/05/29 12:59:28","新北市永和區福和路303號","121.516371666667","25.0071733333333","6500400","永和區"
"234040","862-TW","2018/05/29 12:59:28","新北市永和區永貞路304號","121.511943333333","25.0048216666667","6500400","永和區"
"234048","863-TW","2018/05/29 12:59:23","新北市永和區文化路208號","121.510285","25.0165716666667","6500400","永和區"
"234025","9371-KE","2018/05/29 12:59:41","新北市永和區永和路一段42號","121.513045","25.00556","6500400","永和區"
"234010","9373-KE","2018/05/29 12:59:25","新北市永和區仁愛路40巷9弄3號","121.513801666667","25.0140066666667","6500400","永和區"
"248017","225-UY","2018/05/29 12:59:26","新北市五股區中興路二段83巷26-6號","121.459996666667","25.0752666666667","6501500","五股區"
"234022","9380-KE","2018/05/29 12:59:27","新北市永和區竹林路75巷15-2號","121.519695","25.0137283333333","6500400","永和區"
"234076","969-R7","2018/05/29 12:59:32","新北市永和區民享街19號","121.515481666667","24.9951133333333","6500400","永和區"
"234072","AAC-211","2018/05/29 12:59:35","新北市永和區環河東路二段98號","121.5241","25.0103566666667","6500400","永和區"
"234066","AAC-212","2018/05/29 12:59:37","新北市永和區永和路一段22號","121.513065","25.0048533333333","6500400","永和區"
"234001","AAC-295","2018/05/29 12:59:23","新北市永和區永平路32號","121.513096666667","25.0088566666667","6500400","永和區"
"244002","248-BX","2018/05/29 12:59:20","新北市林口區粉寮1號","121.397375","25.0799016666667","6501700","林口區"
"231002","002-UM","2018/05/29 12:59:41","新北市新店區安華路28-1號","121.519603333333","24.9609","6500600","新店區"
"231028","046-UY","2018/05/29 12:59:26","新北市新店區安華路28-1號","121.519655","24.9609266666667","6500600","新店區"
"231001","047-UY","2018/05/29 12:59:39","新北市新店區安華路28-1號","121.519201666667","24.96091","6500600","新店區"
"231005","106-UY","2018/05/29 12:59:31","新北市新店區安華路28-1號","121.51962","24.9608933333333","6500600","新店區"
"231020","108-UY","2018/05/29 12:59:33","新北市新店區安一路一段1-1號","121.519468333333","24.9612683333333","6500600","新店區"
"231012","187-VK","2018/05/29 12:59:25","新北市新店區安一路一段1-1號","121.519631666667","24.9613133333333","6500600","新店區"
"231010","188-VK","2018/05/29 12:59:27","新北市新店區安康路一段359-21號","121.51885","24.9621933333333","6500600","新店區"
"231023","KEA-2219","2018/05/29 12:59:39","新北市新店區安一路一段1-1號","121.519823333333","24.9613266666667","6500600","新店區"
"231003","268-BY","2018/05/29 12:59:30","新北市新店區安華路28-1號","121.519451666667","24.9606883333333","6500600","新店區"
"231018","278-BY","2018/05/29 12:59:31","新北市新店區安一路一段1-1號","121.519671666667","24.961095","6500600","新店區"
"231015","AAD-862","2018/05/29 12:59:41","新北市新店區安一路一段1-1號","121.519673333333","24.9612533333333","6500600","新店區"
"231037","4716-K9","2018/05/29 12:59:27","新北市新店區安一路一段1-1號","121.51933","24.96119","6500600","新店區"
"231025","4715-K9","2018/05/29 12:59:40","新北市新店區安華路28-1號","121.519361666667","24.9606883333333","6500600","新店區"
"231036","512-UM","2018/05/29 12:59:33","新北市新店區安一路一段1-1號","121.519151666667","24.9613483333333","6500600","新店區"
"231013","513-UM","2018/05/29 12:59:35","新北市新店區安一路一段1-1號","121.51968","24.9612183333333","6500600","新店區"
"231030","619-UM","2018/05/29 12:59:29","新北市新店區安華路28-1號","121.51958","24.9610283333333","6500600","新店區"
"231035","719-UM","2018/05/29 12:59:32","新北市新店區安一路一段1-1號","121.519605","24.96143","6500600","新店區"
"231032","720-UM","2018/05/29 12:59:33","新北市新店區安一路一段1-1號","121.519301666667","24.9611883333333","6500600","新店區"
"231029","897-TW","2018/05/29 12:59:36","新北市新店區安華路28-1號","121.519573333333","24.960875","6500600","新店區"
"231024","AKT-0513","2018/05/29 12:59:37","新北市新店區安華路28-1號","121.519448333333","24.96066","6500600","新店區"
"235028","005-UY","2018/05/29 12:59:36","新北市中和區員山路36巷16-3號","121.485061666667","24.9914033333333","6500300","中和區"
"235027","006-UY","2018/05/29 12:59:23","新北市中和區員山路36巷16-3號","121.485048333333","24.9913216666667","6500300","中和區"
"235015","031-BX","2018/05/29 12:59:37","新北市中和區員山路36巷13號","121.484243333333","24.9909733333333","6500300","中和區"
"235029","098-UM","2018/05/29 12:59:40","新北市中和區橋和路274-1號","121.49588","25.006735","6500300","中和區"
"235022","151-BY","2018/05/29 12:59:40","新北市中和區圓通路367巷40號","121.492065","24.98835","6500300","中和區"
"235002","185-VK","2018/05/29 12:59:24","新北市永和區民生路67巷46號","121.52506","24.9974233333333","6500300","中和區"
"235031","255-BX","2018/05/29 12:59:28","新北市中和區中正路883號","121.484276666667","25.00422","6500300","中和區"
"235035","783-BX","2018/05/29 12:59:33","新北市中和區新生街288號","121.483656666667","24.9965433333333","6500300","中和區"
"235026","800-TS","2018/05/29 12:59:23","新北市中和區連城路297號","121.490088333333","24.9963266666667","6500300","中和區"
"235005","802-TS","2018/05/29 12:59:36","新北市中和區中正路506號","121.488571666667","24.9943183333333","6500300","中和區"
"235001","AAC-213","2018/05/29 12:59:30","新北市中和區錦和路350-1號","121.490283333333","24.9936","6500300","中和區"
"228004","212-TW","2018/05/29 12:59:38","新北市貢寮區吉林里內寮街57號","121.886573333333","24.9868966666667","6502600","貢寮區"
"228005","828-UM","2018/05/29 12:59:28","新北市貢寮區福隆里東興街84號","121.947518333333","25.0173416666667","6502600","貢寮區"
"207002","749-BX","2018/05/29 12:59:32","新北市萬里區雙興里大坪路31號","121.632653333333","25.1684","6502800","萬里區"
"207001","662-BX","2018/05/29 12:59:30","新北市萬里區萬里里獅頭路22-1號","121.692923333333","25.1783066666667","6502800","萬里區"
"252005","AAC-283","2018/05/29 12:59:32","新北市三芝區埔坪里埔頭坑41號","121.504633333333","25.2634783333333","6502100","三芝區"
"236006","498-BY","2018/05/29 12:59:39","新北市土城區亞洲路26號","121.43621","24.97445","6501300","土城區"
"221032","280-BY","2018/05/29 12:59:26","新北市汐止區建成路72號","121.66305","25.0730666666667","6501100","汐止區"
"235032","KEA-2873","2018/05/29 12:59:14","新北市中和區員山路36巷16-3號","121.485021666667","24.9913216666667","6500300","中和區"
"235025","KEA-2875","2018/05/29 12:36:11","新北市中和區和城路一段271巷1號","121.485561666667","24.9916983333333","6500300","中和區"
