"lineid","car","time","location","longitude","latitude","cityid","cityname"
"234044","148-BY","2018/05/29 13:39:40","新北市永和區永亨路166號","121.52608","25.0035933333333","6500400","永和區"
"234005","207-UY","2018/05/29 13:39:41","新北市永和區永和路一段136號","121.514055","25.0079716666667","6500400","永和區"
"234078","298-R6","2018/05/29 13:39:40","新北市永和區永亨路106號","121.523555","25.0045516666667","6500400","永和區"
"234036","336-UY","2018/05/29 13:39:35","新北市永和區民樂街35巷6號","121.528061666667","25.00094","6500400","永和區"
"234062","337-UY","2018/05/29 13:39:31","新北市永和區秀朗路二段24巷43號","121.520018333333","25.0019283333333","6500400","永和區"
"234084","338-UY","2018/05/29 13:39:34","新北市永和區永亨路127號","121.524563333333","25.0040566666667","6500400","永和區"
"234068","552-UM","2018/05/29 13:39:31","新北市永和區永和路二段233號","121.515583333333","25.0142316666667","6500400","永和區"
"234015","745-BX","2018/05/29 13:39:40","新北市永和區永和路二段301巷2號","121.515571666667","25.0165366666667","6500400","永和區"
"234028","746-BX","2018/05/29 13:39:36","新北市永和區民生路2號","121.522681666667","24.99816","6500400","永和區"
"234052","KEA-2590","2018/05/29 13:39:32","新北市永和區竹林路39巷21號","121.518985","25.014785","6500400","永和區"
"234012","KEA-2591","2018/05/29 13:39:38","新北市永和區永平路238巷6號","121.509315","25.0114233333333","6500400","永和區"
"234060","AAD-866","2018/05/29 13:39:28","新北市永和區中正路456號","121.517503333333","25.0028883333333","6500400","永和區"
"234040","862-TW","2018/05/29 13:39:34","新北市永和區中和路305巷20弄2號","121.507741666667","25.001845","6500400","永和區"
"234048","863-TW","2018/05/29 13:39:39","新北市永和區文化路208號","121.510253333333","25.0166166666667","6500400","永和區"
"234025","9371-KE","2018/05/29 13:39:41","新北市永和區永平路208號","121.509525","25.0101266666667","6500400","永和區"
"234010","9373-KE","2018/05/29 13:39:25","新北市永和區保福路二段23巷19號","121.510075","25.0111516666667","6500400","永和區"
"248017","225-UY","2018/05/29 13:39:26","新北市五股區民義路二段84號","121.406063333333","25.109075","6501500","五股區"
"234022","9380-KE","2018/05/29 13:39:25","新北市永和區中正路702巷20弄1號","121.516485","25.0106083333333","6500400","永和區"
"234076","969-R7","2018/05/29 13:39:37","新北市永和區得和路198號","121.520276666667","24.9996883333333","6500400","永和區"
"234072","AAC-211","2018/05/29 13:39:35","新北市永和區豫溪街160巷17號","121.52337","25.00916","6500400","永和區"
"234066","AAC-212","2018/05/29 13:39:37","新北市永和區永平路173巷14弄4號","121.510218333333","25.00856","6500400","永和區"
"234001","AAC-295","2018/05/29 13:39:23","新北市永和區永和路一段120號","121.514008333333","25.007715","6500400","永和區"
"244002","248-BX","2018/05/29 13:39:40","新北市林口區南勢六街71-1號","121.355075","25.0717566666667","6501700","林口區"
"231002","002-UM","2018/05/29 13:39:41","新北市新店區溪園路405號","121.524043333333","24.9782483333333","6500600","新店區"
"231028","046-UY","2018/05/29 13:39:38","新北市新店區安和路一段52巷2-1號","121.517735","24.9666383333333","6500600","新店區"
"231001","047-UY","2018/05/29 13:39:39","新北市新店區中正路397號","121.534546666667","24.9773133333333","6500600","新店區"
"231005","106-UY","2018/05/29 13:39:30","新北市新店區寶中路72號","121.547848333333","24.980655","6500600","新店區"
"231020","108-UY","2018/05/29 13:39:34","新北市新店區永興路95-3號","121.544465","24.9325833333333","6500600","新店區"
"231012","187-VK","2018/05/29 13:39:25","新北市新店區德正街23巷1號","121.54419","24.9719766666667","6500600","新店區"
"231010","188-VK","2018/05/29 13:39:41","新北市新店區平等街48巷32號","121.535111666667","24.97357","6500600","新店區"
"231023","KEA-2219","2018/05/29 13:39:39","新北市新店區新店路157號","121.537078333333","24.9551033333333","6500600","新店區"
"231026","256-BX","2018/05/29 13:39:23","新北市新店區中華路1號","121.541278333333","24.967195","6500600","新店區"
"231003","268-BY","2018/05/29 13:39:30","新北市新店區中興路一段289號","121.545591666667","24.9686516666667","6500600","新店區"
"231018","278-BY","2018/05/29 13:39:31","新北市新店區百忍街31號","121.533723333333","24.975765","6500600","新店區"
"231015","AAD-862","2018/05/29 13:39:21","新北市新店區竹林路2巷27弄11號","121.55096","24.950905","6500600","新店區"
"231038","3712-VJ","2018/05/29 13:39:41","新北市新店區安華路30巷1號","121.51959","24.95931","6500600","新店區"
"231027","3713-VJ","2018/05/29 13:39:42","新北市新店區北宜路一段130號","121.539581666667","24.9548933333333","6500600","新店區"
"231037","4716-K9","2018/05/29 13:39:27","新北市新店區薏仁坑路47-1號","121.493701666667","24.9638483333333","6500600","新店區"
"231025","4715-K9","2018/05/29 13:39:40","新北市新店區中央六街51號","121.528146666667","24.975745","6500600","新店區"
"231036","512-UM","2018/05/29 13:39:33","新北市新店區安祥路147巷26號","121.475775","24.9563333333333","6500600","新店區"
"231013","513-UM","2018/05/29 13:39:41","新北市新店區中正路454-5號","121.534673333333","24.97893","6500600","新店區"
"231006","617-UM","2018/05/29 13:39:37","新北市新店區北宜路一段140巷13號","121.540021666667","24.9543933333333","6500600","新店區"
"231030","619-UM","2018/05/29 13:39:29","新北市新店區安康路一段238號","121.52213","24.9637866666667","6500600","新店區"
"231034","641-BX","2018/05/29 13:39:36","新北市新店區車子路117號","121.505381666667","24.9517916666667","6500600","新店區"
"231035","719-UM","2018/05/29 13:39:32","新北市新店區安忠路56巷2號","121.51283","24.9593316666667","6500600","新店區"
"231032","720-UM","2018/05/29 13:39:33","新北市新店區莒光路42號","121.523775","24.957525","6500600","新店區"
"231029","897-TW","2018/05/29 13:39:36","新北市新店區安康路二段356號","121.502223333333","24.9574933333333","6500600","新店區"
"231004","899-TW","2018/05/29 13:39:38","新北市新店區北新路二段18號","121.542806666667","24.9712616666667","6500600","新店區"
"231024","AKT-0513","2018/05/29 13:39:37","新北市新店區華興街4號","121.53804","24.9699216666667","6500600","新店區"
"235028","005-UY","2018/05/29 13:39:36","新北市中和區連城路89巷8號","121.497001666667","24.9994733333333","6500300","中和區"
"235027","006-UY","2018/05/29 13:39:23","新北市中和區連城路367號","121.487346666667","24.9962833333333","6500300","中和區"
"235015","031-BX","2018/05/29 13:39:37","新北市中和區華新街143巷106弄32號","121.506256666667","24.9787283333333","6500300","中和區"
"235020","096-UM","2018/05/29 13:39:41","新北市中和區員山路466巷17弄8號","121.480555","25.00725","6500300","中和區"
"235003","097-UM","2018/05/29 13:39:31","新北市中和區景平路278巷14弄16號","121.514973333333","24.9932266666667","6500300","中和區"
"235029","098-UM","2018/05/29 13:39:39","新北市永和區仁愛路352巷80號","121.501485","25.0075833333333","6500300","中和區"
"235004","150-BY","2018/05/29 13:39:31","新北市中和區安平路59號","121.509506666667","24.9951566666667","6500300","中和區"
"235022","151-BY","2018/05/29 13:39:40","新北市中和區圓通路437-5號","121.485836666667","24.987275","6500300","中和區"
"235019","183-VK","2018/05/29 13:39:28","新北市中和區國光街102巷29號","121.471341666667","25.00072","6500300","中和區"
"235002","185-VK","2018/05/29 13:39:24","新北市中和區立人街24-4號","121.51889","24.9942516666667","6500300","中和區"
"235013","186-VK","2018/05/29 13:39:28","新北市中和區明義街11巷10弄1號","121.50381","24.9947633333333","6500300","中和區"
"235031","255-BX","2018/05/29 13:39:28","新北市中和區新生街220巷4號","121.482965","24.9986383333333","6500300","中和區"
"235008","293-VK","2018/05/29 13:39:31","新北市中和區復興路280巷1弄2號","121.502218333333","24.990745","6500300","中和區"
"235036","301-VK","2018/05/29 13:39:37","新北市中和區景平路597號","121.496978333333","25.0005766666667","6500300","中和區"
"235007","352-BY","2018/05/29 13:39:23","新北市中和區景平路123號","121.515516666667","24.9920216666667","6500300","中和區"
"235014","4979-A6","2018/05/29 13:39:35","新北市中和區景新街496巷30弄8號","121.513201666667","24.9856183333333","6500300","中和區"
"235033","4980-A6","2018/05/29 13:39:38","新北市中和區景平路597號","121.497026666667","25.00056","6500300","中和區"
"235006","551-UM","2018/05/29 13:39:30","新北市中和區成功路107巷2-1號","121.52618","24.99114","6500300","中和區"
"235034","558-UM","2018/05/29 13:39:43","新北市中和區南華路42號","121.503621666667","24.9964366666667","6500300","中和區"
"235009","565-BX","2018/05/29 13:39:34","新北市中和區南山路236巷63弄5號","121.503951666667","24.9876966666667","6500300","中和區"
"235018","640-BX","2018/05/29 13:39:26","新北市中和區民享街32巷4號","121.473805","25.0032666666667","6500300","中和區"
"235024","647-TV","2018/05/29 13:39:39","新北市中和區中山路二段507號","121.482235","25.0050483333333","6500300","中和區"
"235035","783-BX","2018/05/29 13:39:33","新北市中和區永和路356巷51號","121.487258333333","25.0143483333333","6500300","中和區"
"235026","800-TS","2018/05/29 13:39:23","新北市中和區中山路二段312巷33弄14號","121.49496","25.0039783333333","6500300","中和區"
"235021","801-TS","2018/05/29 13:39:37","新北市中和區民安街42巷2號","121.479896666667","25.0006683333333","6500300","中和區"
"235005","802-TS","2018/05/29 13:39:36","新北市中和區中安街86號","121.51188","25.00184","6500300","中和區"
"235016","805-TS","2018/05/29 13:39:41","新北市中和區興南路三段52巷6-2號","121.493621666667","24.9762483333333","6500300","中和區"
"235012","896-TW","2018/05/29 13:39:25","新北市中和區中正路161巷2號","121.498495","24.993565","6500300","中和區"
"235017","900-TW","2018/05/29 13:39:38","新北市土城區延壽路55巷1號","121.469823333333","24.992195","6500300","中和區"
"235030","911-UM","2018/05/29 13:39:30","新北市中和區光華街56號","121.505295","25.0035966666667","6500300","中和區"
"235001","AAC-213","2018/05/29 13:39:30","新北市中和區景德街34號","121.51811","24.9915","6500300","中和區"
"235023","AAC-215","2018/05/29 13:39:32","新北市中和區錦和路354巷15號","121.489576666667","24.991605","6500300","中和區"
"220016","013-TV","2018/05/29 13:39:27","新北市板橋區縣民大道三段32號","121.471823333333","25.018915","6500100","板橋區"
"220013","072-UY","2018/05/29 13:39:36","新北市板橋區漢生東路282號","121.471223333333","25.0090416666667","6500100","板橋區"
"220034","073-UY","2018/05/29 13:39:27","新北市板橋區南雅西路一段122號","121.452318333333","25.0065566666667","6500100","板橋區"
"220017","AAD-861","2018/05/29 13:39:24","新北市板橋區華東街1-10號","121.448781666667","24.9949783333333","6500100","板橋區"
"247005","336-TH","2018/05/29 13:39:28","新北市五股區工商路8號","121.440581666667","25.0824933333333","6501400","蘆洲區"
"247007","056-VK","2018/05/29 13:39:32","新北市蘆洲區國道路二段88號","121.471805","25.07465","6501400","蘆洲區"
"235011","251-BX","2018/05/29 13:39:32","新北市中和區南山路320巷15號","121.507336666667","24.9863383333333","6500300","中和區"
"228004","212-TW","2018/05/29 13:38:38","新北市貢寮區龍崗里嵩陽街17號","121.907346666667","25.0082766666667","6502600","貢寮區"
"228005","828-UM","2018/05/29 13:39:28","新北市貢寮區美豐里文秀坑3號","121.904165","25.05253","6502600","貢寮區"
"207002","749-BX","2018/05/29 13:39:32","新北市萬里區崁腳里崁腳路166號","121.644996666667","25.1558166666667","6502800","萬里區"
"207001","662-BX","2018/05/29 13:39:30","新北市金山區中華路21號","121.639041666667","25.215325","6502800","萬里區"
"252005","AAC-283","2018/05/29 13:39:31","新北市三芝區圓山里二坪頂77-1號","121.537801666667","25.237885","6502100","三芝區"
"236065","105-UM","2018/05/29 13:39:24","新北市土城區城林路6巷80號","121.43872","24.9797083333333","6501300","土城區"
"236074","166-UM","2018/05/29 13:39:37","新北市土城區城林路6巷80號","121.438605","24.9797366666667","6501300","土城區"
"236013","270-VK","2018/05/29 13:39:36","新北市土城區城林路6巷80號","121.438568333333","24.9797866666667","6501300","土城區"
"236032","271-VK","2018/05/29 13:39:26","新北市土城區城林路6巷80號","121.438483333333","24.979795","6501300","土城區"
"236017","401-BY","2018/05/29 13:39:21","新北市土城區城林路6巷80號","121.438526666667","24.9798183333333","6501300","土城區"
"236006","498-BY","2018/05/29 13:39:39","新北市土城區中華路二段90號","121.438185","24.9749116666667","6501300","土城區"
"236045","913-UM","2018/05/29 13:39:34","新北市土城區城林路6巷80號","121.438435","24.9797383333333","6501300","土城區"
"221032","280-BY","2018/05/29 13:39:26","新北市汐止區新台五路一段207號","121.656835","25.063895","6501100","汐止區"
"220027","145-BY","2018/05/29 13:39:36","新北市板橋區南雅西路二段243號","121.451596666667","25.0144666666667","6500100","板橋區"
"220028","200-UY","2018/05/29 13:39:42","新北市板橋區大觀路二段265巷76弄37號","121.440945","24.9966916666667","6500100","板橋區"
"220030","610-BX","2018/05/29 13:39:42","新北市板橋區大觀路三段175號","121.431958333333","24.993795","6500100","板橋區"
"220052","257-TC","2018/05/29 13:39:42","新北市板橋區民生路二段120號","121.470443333333","25.0198666666667","6500100","板橋區"
"220043","267-BY","2018/05/29 13:39:28","新北市板橋區民生路二段161巷1號","121.470013333333","25.0197916666667","6500100","板橋區"
"220004","276-BY","2018/05/29 13:39:38","新北市土城區廣興街38號","121.45344","24.9915066666667","6500100","板橋區"
"220020","277-BY","2018/05/29 13:39:31","新北市板橋區大觀路三段68號","121.43315","24.9950366666667","6500100","板橋區"
"220019","283-VK","2018/05/29 13:39:24","新北市板橋區四川路二段14號","121.45613","24.9962883333333","6500100","板橋區"
"220031","286-VK","2018/05/29 13:39:40","新北市板橋區大觀路二段153巷46弄11號","121.449083333333","24.9984983333333","6500100","板橋區"
"220029","287-VK","2018/05/29 13:39:30","新北市板橋區大觀路二段29號","121.446731666667","25.003125","6500100","板橋區"
"220009","293-UM","2018/05/29 13:39:42","新北市板橋區民生路二段120號","121.470498333333","25.02001","6500100","板橋區"
"220032","296-UM","2018/05/29 13:39:40","新北市板橋區大觀路二段148巷16弄1號","121.441961666667","24.9996033333333","6500100","板橋區"
"220023","303-R5","2018/05/29 13:39:22","新北市板橋區華東街330號","121.452751666667","25.0035766666667","6500100","板橋區"
"220012","486-VK","2018/05/29 13:39:37","新北市板橋區民生路二段36-1號","121.472175","25.016725","6500100","板橋區"
"220037","491-VK","2018/05/29 13:39:38","新北市板橋區民生路二段177號","121.469678333333","25.0202783333333","6500100","板橋區"
"220104","560-BX","2018/05/29 13:39:30","新北市板橋區南雅西路二段145巷10號","121.451583333333","25.0119616666667","6500100","板橋區"
"220005","686-BX","2018/05/29 13:39:34","新北市板橋區華東街1-9號","121.448196666667","24.9948816666667","6500100","板橋區"
"220025","687-BX","2018/05/29 13:39:35","新北市板橋區大觀路三段180巷30號","121.429815","24.9935916666667","6500100","板橋區"
"220002","741-BX","2018/05/29 13:39:39","新北市板橋區華東街1-9號","121.448096666667","24.9949283333333","6500100","板橋區"
"220003","827-TW","2018/05/29 13:39:34","新北市板橋區華東街1-8號","121.447541666667","24.9950416666667","6500100","板橋區"
"220014","829-TW","2018/05/29 13:39:36","新北市板橋區民生路二段120號","121.470366666667","25.0199266666667","6500100","板橋區"
"220022","895-R6","2018/05/29 13:39:35","新北市板橋區南雅南路二段1-1號","121.454798333333","25.0037683333333","6500100","板橋區"
"220021","985-R7","2018/05/29 13:39:37","新北市板橋區南雅南路二段40號","121.45419","25.0026916666667","6500100","板橋區"
"220018","AAC-253","2018/05/29 13:39:35","新北市板橋區華東街1-9號","121.44822","24.9949766666667","6500100","板橋區"
"235032","KEA-2873","2018/05/29 13:39:14","新北市中和區中正路167巷15號","121.498453333333","24.9928033333333","6500300","中和區"
"235025","KEA-2875","2018/05/29 13:39:39","新北市中和區民享街92巷10號","121.474585","24.9999166666667","6500300","中和區"
