"lineid","car","time","location","longitude","latitude","cityid","cityname"
"234044","148-BY","2018/05/29 13:49:38","新北市永和區永利路121號","121.52401","25.0025766666667","6500400","永和區"
"234005","207-UY","2018/05/29 13:49:41","新北市中和區中和路456號","121.512108333333","25.003755","6500400","永和區"
"234078","298-R6","2018/05/29 13:49:42","新北市永和區林森路80號","121.523418333333","25.0037533333333","6500400","永和區"
"234036","336-UY","2018/05/29 13:49:38","新北市永和區四維街32巷3號","121.526361666667","24.998185","6500400","永和區"
"234062","337-UY","2018/05/29 13:49:31","新北市永和區中正路368巷3號","121.517986666667","25.00095","6500400","永和區"
"234084","338-UY","2018/05/29 13:49:37","新北市永和區福和路285號","121.517408333333","25.00743","6500400","永和區"
"234068","552-UM","2018/05/29 13:49:31","新北市永和區竹林路88號","121.519471666667","25.0125916666667","6500400","永和區"
"234015","745-BX","2018/05/29 13:49:36","新北市永和區文化路86號","121.51391","25.0151733333333","6500400","永和區"
"234028","746-BX","2018/05/29 13:49:34","新北市永和區民生路65號","121.522846666667","24.9972883333333","6500400","永和區"
"234052","KEA-2590","2018/05/29 13:49:32","新北市永和區竹林路75巷25弄3號","121.520278333333","25.014265","6500400","永和區"
"234012","KEA-2591","2018/05/29 13:49:38","新北市永和區永平路278號","121.507996666667","25.011765","6500400","永和區"
"234060","AAD-866","2018/05/29 13:49:28","新北市永和區中正路324號","121.517475","24.9995866666667","6500400","永和區"
"234040","862-TW","2018/05/29 13:49:27","新北市永和區中和路347號","121.508086666667","24.999715","6500400","永和區"
"234048","863-TW","2018/05/29 13:49:23","新北市永和區保安路77號","121.508616666667","25.0149216666667","6500400","永和區"
"234010","9373-KE","2018/05/29 13:49:42","新北市永和區保福路二段159巷2號","121.50913","25.0145483333333","6500400","永和區"
"248017","225-UY","2018/05/29 13:49:06","新北市五股區民義路二段42-3號","121.415551666667","25.1000766666667","6501500","五股區"
"234022","9380-KE","2018/05/29 13:49:25","新北市永和區中正路730號","121.515433333333","25.01011","6500400","永和區"
"234076","969-R7","2018/05/29 13:49:32","新北市永和區民權路34號","121.520088333333","24.99893","6500400","永和區"
"234072","AAC-211","2018/05/29 13:49:36","新北市永和區豫溪街213號","121.524111666667","25.0094033333333","6500400","永和區"
"234066","AAC-212","2018/05/29 13:49:37","新北市永和區保平路236巷24弄15號","121.508555","25.00713","6500400","永和區"
"234001","AAC-295","2018/05/29 13:49:23","新北市永和區永和路一段105號","121.513871666667","25.00787","6500400","永和區"
"244002","248-BX","2018/05/29 13:49:40","新北市林口區文化北路一段436號","121.365348333333","25.0769716666667","6501700","林口區"
"231002","002-UM","2018/05/29 13:49:21","新北市新店區溪園路247號","121.525431666667","24.9834116666667","6500600","新店區"
"231028","046-UY","2018/05/29 13:49:26","新北市新店區安和路二段216號","121.5176","24.9757133333333","6500600","新店區"
"231001","047-UY","2018/05/29 13:49:39","新北市新店區三民路113號","121.535043333333","24.972165","6500600","新店區"
"231005","106-UY","2018/05/29 13:49:30","新北市新店區寶中路121-1號","121.54965","24.9794366666667","6500600","新店區"
"231020","108-UY","2018/05/29 13:49:34","新北市新店區新烏路二段42號","121.545718333333","24.9293766666667","6500600","新店區"
"231012","187-VK","2018/05/29 13:49:25","新北市新店區德正街27巷29弄21號","121.545656666667","24.97193","6500600","新店區"
"231010","188-VK","2018/05/29 13:49:27","新北市新店區平等街46巷1號","121.536271666667","24.9730466666667","6500600","新店區"
"231023","KEA-2219","2018/05/29 13:49:39","新北市新店區國校路55號","121.53819","24.954355","6500600","新店區"
"231026","256-BX","2018/05/29 13:49:23","新北市新店區三民路96號","121.534153333333","24.9729816666667","6500600","新店區"
"231003","268-BY","2018/05/29 13:49:30","新北市新店區檳榔路35巷3號","121.543001666667","24.9639033333333","6500600","新店區"
"231018","278-BY","2018/05/29 13:49:31","新北市新店區中正路399巷19號","121.533971666667","24.9766916666667","6500600","新店區"
"231015","AAD-862","2018/05/29 13:49:21","新北市新店區北宜路二段82巷9弄1號","121.553655","24.95245","6500600","新店區"
"231038","3712-VJ","2018/05/29 13:49:41","新北市新店區安康路一段89號","121.529141666667","24.9614983333333","6500600","新店區"
"231027","3713-VJ","2018/05/29 13:49:22","新北市新店區北宜路一段39巷20號","121.538775","24.9584066666667","6500600","新店區"
"231037","4716-K9","2018/05/29 13:49:27","新北市新店區安康路三段363號","121.48412","24.9506333333333","6500600","新店區"
"231025","4715-K9","2018/05/29 13:49:40","新北市新店區中央路5號","121.533405","24.9787216666667","6500600","新店區"
"231036","512-UM","2018/05/29 13:49:33","新北市新店區安祥路110巷30弄5號","121.473851666667","24.9569166666667","6500600","新店區"
"231013","513-UM","2018/05/29 13:49:20","新北市新店區二十張路25巷18弄2號","121.539238333333","24.9817266666667","6500600","新店區"
"231006","617-UM","2018/05/29 13:49:26","新北市新店區北宜路一段260號","121.545735","24.9528483333333","6500600","新店區"
"231030","619-UM","2018/05/29 13:49:30","新北市新店區安康路一段46巷4號","121.53067","24.9611016666667","6500600","新店區"
"231034","641-BX","2018/05/29 13:49:16","新北市新店區達觀路14巷3號","121.503203333333","24.9416533333333","6500600","新店區"
"231035","719-UM","2018/05/29 13:49:32","新北市新店區安忠路57巷11弄1號","121.513528333333","24.9580983333333","6500600","新店區"
"231032","720-UM","2018/05/29 13:49:33","新北市新店區莒光路44巷21弄11-6號","121.51863","24.95231","6500600","新店區"
"231029","897-TW","2018/05/29 13:49:36","新北市新店區安康路二段125-1號","121.512391666667","24.961","6500600","新店區"
"231004","899-TW","2018/05/29 13:49:38","新北市新店區寶橋路69-1號","121.545426666667","24.9750033333333","6500600","新店區"
"231024","AKT-0513","2018/05/29 13:49:37","新北市新店區新生街10巷9號","121.540571666667","24.966455","6500600","新店區"
"235028","005-UY","2018/05/29 13:49:36","新北市中和區連城路75巷1號","121.49743","25.0001183333333","6500300","中和區"
"235027","006-UY","2018/05/29 13:49:23","新北市中和區中正路462號","121.4902","24.9942883333333","6500300","中和區"
"235015","031-BX","2018/05/29 13:49:37","新北市中和區華新街109巷1-3號","121.50911","24.9822266666667","6500300","中和區"
"235020","096-UM","2018/05/29 13:49:25","新北市中和區中正路1196號","121.480555","25.010505","6500300","中和區"
"235003","097-UM","2018/05/29 13:49:31","新北市中和區自強路27巷1號","121.520663333333","24.9930583333333","6500300","中和區"
"235029","098-UM","2018/05/29 13:49:40","新北市中和區勝利路33號","121.498903333333","25.00766","6500300","中和區"
"235004","150-BY","2018/05/29 13:49:31","新北市中和區保健路61巷3號","121.509675","24.9974183333333","6500300","中和區"
"235022","151-BY","2018/05/29 13:49:40","新北市中和區連城路518巷8號","121.47647","24.9926116666667","6500300","中和區"
"235019","183-VK","2018/05/29 13:49:28","新北市中和區民生街85巷2弄2號","121.468866666667","25.0046833333333","6500300","中和區"
"235002","185-VK","2018/05/29 13:49:24","新北市中和區大勇街35號","121.517573333333","24.9943","6500300","中和區"
"235013","186-VK","2018/05/29 13:49:28","新北市中和區景安路177巷19號","121.50617","24.9944816666667","6500300","中和區"
"235031","255-BX","2018/05/29 13:49:28","新北市中和區新生街266號","121.48343","24.997205","6500300","中和區"
"235008","293-VK","2018/05/29 13:49:31","新北市中和區中興街141號","121.500003333333","24.9913016666667","6500300","中和區"
"235036","301-VK","2018/05/29 13:49:37","新北市中和區中山路二段4號","121.505318333333","25.0058683333333","6500300","中和區"
"235007","352-BY","2018/05/29 13:49:43","新北市中和區成功路6號","121.526253333333","24.9938116666667","6500300","中和區"
"235014","4979-A6","2018/05/29 13:49:28","新北市中和區忠孝街62巷3號","121.512556666667","24.9835883333333","6500300","中和區"
"235033","4980-A6","2018/05/29 13:49:38","新北市中和區南山路111巷3號","121.502583333333","24.9977683333333","6500300","中和區"
"235006","551-UM","2018/05/29 13:49:30","新北市中和區秀朗路三段98號","121.52559","24.9934233333333","6500300","中和區"
"235034","558-UM","2018/05/29 13:49:22","新北市中和區南山路9號","121.502031666667","24.9993583333333","6500300","中和區"
"235009","565-BX","2018/05/29 13:49:34","新北市中和區捷運路100-1號","121.506315","24.99119","6500300","中和區"
"235018","640-BX","2018/05/29 13:49:26","新北市中和區民治街120號","121.474908333333","25.0034516666667","6500300","中和區"
"235024","647-TV","2018/05/29 13:49:25","新北市中和區中山路三段118號","121.475645","25.0060883333333","6500300","中和區"
"235010","733-UM","2018/05/29 13:49:40","新北市中和區仁愛街36巷44號","121.511371666667","24.9862833333333","6500300","中和區"
"235035","783-BX","2018/05/29 13:49:36","新北市中和區立德街14號","121.490303333333","25.006525","6500300","中和區"
"235026","800-TS","2018/05/29 13:49:23","新北市中和區中山路二段340巷13號","121.493511666667","25.0027233333333","6500300","中和區"
"235021","801-TS","2018/05/29 13:49:37","新北市中和區民安街18號","121.480516666667","25.0007966666667","6500300","中和區"
"235005","802-TS","2018/05/29 13:49:36","新北市中和區永貞路280號","121.513133333333","25.0040466666667","6500300","中和區"
"235016","805-TS","2018/05/29 13:49:21","新北市中和區興南路二段399巷35-2號","121.500283333333","24.978195","6500300","中和區"
"235012","896-TW","2018/05/29 13:49:25","新北市中和區南山路347號","121.505698333333","24.9907883333333","6500300","中和區"
"235017","900-TW","2018/05/29 13:49:38","新北市中和區華福街38號","121.466318333333","24.9966633333333","6500300","中和區"
"235030","911-UM","2018/05/29 13:49:30","新北市中和區廣福路54號","121.503838333333","25.0019983333333","6500300","中和區"
"235001","AAC-213","2018/05/29 13:49:30","新北市中和區秀朗路三段128巷13號","121.524513333333","24.9933466666667","6500300","中和區"
"235023","AAC-215","2018/05/29 13:49:32","新北市中和區圓通路369巷3號","121.49104","24.9890116666667","6500300","中和區"
"220016","013-TV","2018/05/29 13:49:25","新北市板橋區三民路一段43-2號","121.479438333333","25.0227433333333","6500100","板橋區"
"220013","072-UY","2018/05/29 13:49:36","新北市板橋區漢生東路282號","121.471238333333","25.009035","6500100","板橋區"
"220034","073-UY","2018/05/29 13:49:37","新北市板橋區大智街71巷28弄2號","121.45309","25.014605","6500100","板橋區"
"220105","075-UY","2018/05/29 13:49:39","新北市板橋區民生路二段161巷5號","121.470033333333","25.0196333333333","6500100","板橋區"
"220017","AAD-861","2018/05/29 13:49:24","新北市板橋區館前西路58號","121.458321666667","25.0069033333333","6500100","板橋區"
"247003","337-TH","2018/05/29 13:49:36","新北市蘆洲區中原路32號","121.459951666667","25.082905","6501400","蘆洲區"
"247005","336-TH","2018/05/29 13:49:40","新北市蘆洲區中山二路266號","121.468988333333","25.0785666666667","6501400","蘆洲區"
"247007","056-VK","2018/05/29 13:49:32","新北市三重區仁安街65號","121.484038333333","25.0844983333333","6501400","蘆洲區"
"235011","251-BX","2018/05/29 13:49:32","新北市中和區興南路二段34巷28弄2號","121.505011666667","24.9864833333333","6500300","中和區"
"228004","212-TW","2018/05/29 13:40:38","新北市貢寮區龍崗里嵩陽街41號","121.905165","25.0128716666667","6502600","貢寮區"
"228005","828-UM","2018/05/29 13:49:28","新北市雙溪區三港里雙澳路100號","121.888716666667","25.0563533333333","6502600","貢寮區"
"207002","749-BX","2018/05/29 13:49:32","新北市萬里區崁腳里崁腳路166號","121.645045","25.15587","6502800","萬里區"
"207001","662-BX","2018/05/29 13:49:30","新北市萬里區磺潭里清水9號","121.640366666667","25.199935","6502800","萬里區"
"252005","AAC-283","2018/05/29 13:49:31","新北市三芝區圓山里二坪頂47號","121.539","25.2433333333333","6502100","三芝區"
"236065","105-UM","2018/05/29 13:49:25","新北市土城區城林路6巷80號","121.438658333333","24.980045","6501300","土城區"
"236040","107-UM","2018/05/29 13:49:39","新北市土城區城林路6巷80號","121.438501666667","24.9798133333333","6501300","土城區"
"236074","166-UM","2018/05/29 13:49:37","新北市土城區永寧路20號","121.429815","24.961605","6501300","土城區"
"236013","270-VK","2018/05/29 13:49:36","新北市土城區城林路6巷80號","121.43854","24.9797833333333","6501300","土城區"
"236032","271-VK","2018/05/29 13:49:26","新北市土城區城林路6巷80號","121.438455","24.9797983333333","6501300","土城區"
"236017","401-BY","2018/05/29 13:49:41","新北市土城區城林路6巷80號","121.438526666667","24.9798016666667","6501300","土城區"
"236006","498-BY","2018/05/29 13:49:39","新北市土城區中央路二段61巷56號","121.444628333333","24.9781833333333","6501300","土城區"
"236057","912-UM","2018/05/29 13:49:36","新北市土城區中華路二段168-1號","121.437441666667","24.97232","6501300","土城區"
"236045","913-UM","2018/05/29 13:49:34","新北市土城區城林路6巷80號","121.43845","24.97971","6501300","土城區"
"236054","AAC-216","2018/05/29 13:49:35","新北市土城區城林路6巷80號","121.438595","24.9798883333333","6501300","土城區"
"220027","145-BY","2018/05/29 13:49:36","新北市板橋區中正路79號","121.456368333333","25.01421","6500100","板橋區"
"220028","200-UY","2018/05/29 13:49:23","新北市板橋區大觀路二段265巷60弄28-2號","121.441423333333","24.9978633333333","6500100","板橋區"
"220030","610-BX","2018/05/29 13:49:42","新北市板橋區篤行路三段85號","121.426778333333","24.9850266666667","6500100","板橋區"
"220052","257-TC","2018/05/29 13:49:42","新北市板橋區民生路二段56-6號","121.470885","25.0189766666667","6500100","板橋區"
"220043","267-BY","2018/05/29 13:49:28","新北市板橋區民生路二段161巷5號","121.469928333333","25.019595","6500100","板橋區"
"220004","276-BY","2018/05/29 13:49:38","新北市板橋區四川路二段14號","121.456075","24.9962733333333","6500100","板橋區"
"220020","277-BY","2018/05/29 13:49:34","新北市板橋區大觀路三段36巷16號","121.433948333333","24.9961383333333","6500100","板橋區"
"220038","280-UM","2018/05/29 13:49:27","新北市板橋區民生路二段120號","121.47042","25.02005","6500100","板橋區"
"220019","283-VK","2018/05/29 13:49:26","新北市板橋區忠孝路196巷33號","121.465715","25.0017233333333","6500100","板橋區"
"220001","285-VK","2018/05/29 13:49:34","新北市板橋區民生路二段123號","121.470731666667","25.018645","6500100","板橋區"
"220031","286-VK","2018/05/29 13:49:40","新北市板橋區大觀路一段38巷156弄154號","121.443748333333","25.008855","6500100","板橋區"
"220029","287-VK","2018/05/29 13:49:37","新北市板橋區光華街13巷6號","121.453916666667","25.0115066666667","6500100","板橋區"
"220039","288-VK","2018/05/29 13:49:40","新北市板橋區民生路二段120號","121.470495","25.019825","6500100","板橋區"
"220009","293-UM","2018/05/29 13:49:22","新北市板橋區民生路二段121號","121.47081","25.018545","6500100","板橋區"
"220032","296-UM","2018/05/29 13:49:41","新北市板橋區大觀路二段156巷68號","121.441233333333","25.0007516666667","6500100","板橋區"
"220023","303-R5","2018/05/29 13:49:42","新北市板橋區南雅西路一段174巷3號","121.45292","25.007835","6500100","板橋區"
"220010","305-R5","2018/05/29 13:49:35","新北市板橋區中山路二段42號","121.473016666667","25.01524","6500100","板橋區"
"220041","307-R5","2018/05/29 13:49:38","新北市板橋區民生路二段180號","121.470706666667","25.020195","6500100","板橋區"
"220012","486-VK","2018/05/29 13:49:37","新北市板橋區民生路二段36-1號","121.472161666667","25.016675","6500100","板橋區"
"220037","491-VK","2018/05/29 13:49:38","新北市板橋區民生路二段188號","121.470268333333","25.0202516666667","6500100","板橋區"
"220104","560-BX","2018/05/29 13:49:30","新北市板橋區中正路325巷41號","121.45343","25.0193783333333","6500100","板橋區"
"220011","609-BX","2018/05/29 13:49:36","新北市板橋區民生路二段15-1號","121.472995","25.015835","6500100","板橋區"
"220040","637-BX","2018/05/29 13:49:37","新北市板橋區民生路二段188號","121.470313333333","25.0203616666667","6500100","板橋區"
"220005","686-BX","2018/05/29 13:49:34","新北市板橋區華東街302號","121.452796666667","25.0029366666667","6500100","板橋區"
"220025","687-BX","2018/05/29 13:49:35","新北市板橋區篤行路二段78號","121.431611666667","24.9919416666667","6500100","板橋區"
"220042","689-BX","2018/05/29 13:49:31","新北市板橋區民生路二段120號","121.470536666667","25.01988","6500100","板橋區"
"220002","741-BX","2018/05/29 13:49:39","新北市板橋區館前西路46巷2號","121.458733333333","25.007045","6500100","板橋區"
"220051","KEA-2699","2018/05/29 13:49:31","新北市板橋區民生路二段120號","121.470415","25.0198683333333","6500100","板橋區"
"220003","827-TW","2018/05/29 13:49:34","新北市板橋區新府路1-1號","121.464315","25.01227","6500100","板橋區"
"220014","829-TW","2018/05/29 13:49:36","新北市板橋區中山路二段37號","121.473073333333","25.0157483333333","6500100","板橋區"
"220022","895-R6","2018/05/29 13:49:35","新北市板橋區府中路75號","121.4576","25.0093583333333","6500100","板橋區"
"220021","985-R7","2018/05/29 13:49:37","新北市板橋區府中路67號","121.458078333333","25.00937","6500100","板橋區"
"220018","AAC-253","2018/05/29 13:49:36","新北市板橋區四川路一段64號","121.45963","25.0055816666667","6500100","板橋區"
"235032","KEA-2873","2018/05/29 13:49:14","新北市中和區中正路221號","121.496071666667","24.9936383333333","6500300","中和區"
"235025","KEA-2875","2018/05/29 13:49:39","新北市中和區莒光路129巷1弄8-4號","121.473045","25.0021933333333","6500300","中和區"
