"lineid","car","time","location","longitude","latitude","cityid","cityname"
"234044","148-BY","2018/05/29 13:59:26","新北市永和區成功路一段18巷2號","121.526998333333","25.0051266666667","6500400","永和區"
"234005","207-UY","2018/05/29 13:59:41","新北市中和區中和路306-1號","121.508856666667","25.000065","6500400","永和區"
"234078","298-R6","2018/05/29 13:59:30","新北市永和區國中路10號","121.524325","25.0047483333333","6500400","永和區"
"234036","336-UY","2018/05/29 13:59:35","新北市永和區成功路二段126號","121.526583333333","24.9975833333333","6500400","永和區"
"234062","337-UY","2018/05/29 13:59:31","新北市永和區中正路412巷20弄7號","121.518588333333","25.0019583333333","6500400","永和區"
"234084","338-UY","2018/05/29 13:59:27","新北市永和區福和路131-1號","121.521376666667","25.0075433333333","6500400","永和區"
"234068","552-UM","2018/05/29 13:59:31","新北市永和區國光路6號","121.519756666667","25.0085716666667","6500400","永和區"
"234015","745-BX","2018/05/29 13:59:36","新北市永和區文化路42號","121.514828333333","25.0151033333333","6500400","永和區"
"234028","746-BX","2018/05/29 13:59:40","新北市永和區民生路67巷52號","121.525321666667","24.9974966666667","6500400","永和區"
"234052","KEA-2590","2018/05/29 13:59:32","新北市永和區竹林路39巷42弄1號","121.520175","25.0152183333333","6500400","永和區"
"234012","KEA-2591","2018/05/29 13:59:38","新北市永和區保生路55號","121.504721666667","25.0106266666667","6500400","永和區"
"234060","AAD-866","2018/05/29 13:59:28","新北市永和區中正路151巷8弄2號","121.515985","24.9986316666667","6500400","永和區"
"234040","862-TW","2018/05/29 13:59:28","新北市永和區雙和街17巷19號","121.508971666667","25.0013366666667","6500400","永和區"
"234048","863-TW","2018/05/29 13:59:39","新北市永和區保安路258號","121.506058333333","25.0125633333333","6500400","永和區"
"234025","9371-KE","2018/05/29 13:59:41","新北市永和區自由街58號","121.513833333333","25.005935","6500400","永和區"
"234010","9373-KE","2018/05/29 13:59:25","新北市永和區仁愛路352巷92弄18號","121.501365","25.0083","6500400","永和區"
"248017","225-UY","2018/05/29 13:59:26","新北市五股區民義路一段287巷1號","121.425496666667","25.0923633333333","6501500","五股區"
"234022","9380-KE","2018/05/29 13:59:29","新北市永和區永和路二段253號","121.515935","25.015165","6500400","永和區"
"234076","969-R7","2018/05/29 13:59:32","新北市永和區民權路58巷3號","121.519586666667","24.9982983333333","6500400","永和區"
"234072","AAC-211","2018/05/29 13:59:39","新北市永和區豫溪街169巷2-1號","121.522008333333","25.0104416666667","6500400","永和區"
"234066","AAC-212","2018/05/29 13:59:37","新北市永和區永貞路313號","121.510095","25.006525","6500400","永和區"
"234001","AAC-295","2018/05/29 13:59:38","新北市永和區福和路316-1號","121.515968333333","25.007415","6500400","永和區"
"244002","248-BX","2018/05/29 13:59:40","新北市林口區文化一路二段159號","121.382613333333","25.08093","6501700","林口區"
"231002","002-UM","2018/05/29 13:59:41","新北市新店區中正路552號","121.533706666667","24.98684","6500600","新店區"
"231028","046-UY","2018/05/29 13:59:26","新北市新店區安和路三段7號","121.518131666667","24.980505","6500600","新店區"
"231001","047-UY","2018/05/29 13:59:39","新北市新店區三民路47號","121.537056666667","24.9709516666667","6500600","新店區"
"231005","106-UY","2018/05/29 13:59:30","新北市新店區中興路三段202號","121.543916666667","24.9820516666667","6500600","新店區"
"231020","108-UY","2018/05/29 13:59:34","新北市新店區頂石厝路26號","121.538305","24.9189866666667","6500600","新店區"
"231012","187-VK","2018/05/29 13:59:29","新北市新店區中興路二段69號","121.546776666667","24.97083","6500600","新店區"
"231010","188-VK","2018/05/29 13:59:27","新北市新店區環河路109-2號","121.531896666667","24.970805","6500600","新店區"
"231023","KEA-2219","2018/05/29 13:59:39","新北市新店區文中路45號","121.539568333333","24.9565916666667","6500600","新店區"
"231026","256-BX","2018/05/29 13:59:43","新北市新店區安一路一段1-1號","121.51949","24.9619783333333","6500600","新店區"
"231003","268-BY","2018/05/29 13:59:30","新北市新店區中興路一段91號","121.540836666667","24.9618516666667","6500600","新店區"
"231018","278-BY","2018/05/29 13:59:31","新北市新店區中央路133巷9號","121.530886666667","24.973615","6500600","新店區"
"231015","AAD-862","2018/05/29 13:59:41","新北市新店區郵政路38號","121.556066666667","24.951495","6500600","新店區"
"231038","3712-VJ","2018/05/29 13:59:41","新北市新店區溪洲路8巷66號","121.533088333333","24.9624766666667","6500600","新店區"
"231027","3713-VJ","2018/05/29 13:59:42","新北市新店區中興路一段24-2號","121.538553333333","24.9582816666667","6500600","新店區"
"231037","4716-K9","2018/05/29 13:59:27","新北市新店區安康路三段438號","121.48503","24.95148","6500600","新店區"
"231025","4715-K9","2018/05/29 13:59:40","新北市新店區中正路328巷42弄2號","121.538246666667","24.9762216666667","6500600","新店區"
"231036","512-UM","2018/05/29 13:59:33","新北市新店區安祥路109巷3弄26號","121.47611","24.9601633333333","6500600","新店區"
"231013","513-UM","2018/05/29 13:59:41","新北市新店區明德路111號","121.541538333333","24.9794833333333","6500600","新店區"
"231006","617-UM","2018/05/29 13:59:26","新北市新店區北宜路二段209號","121.55317","24.9534183333333","6500600","新店區"
"231030","619-UM","2018/05/29 13:59:29","新北市新店區安康路一段266巷4號","121.520106666667","24.964","6500600","新店區"
"231034","641-BX","2018/05/29 13:59:36","新北市新店區達觀路14巷1號","121.504601666667","24.9417133333333","6500600","新店區"
"231035","719-UM","2018/05/29 13:59:32","新北市新店區安和路一段52巷2號","121.517618333333","24.966225","6500600","新店區"
"231032","720-UM","2018/05/29 13:59:33","新北市新店區華城路6號","121.530158333333","24.9604266666667","6500600","新店區"
"231029","897-TW","2018/05/29 13:59:36","新北市新店區安康路二段1-5號","121.517101666667","24.9639166666667","6500600","新店區"
"231004","899-TW","2018/05/29 13:59:38","新北市新店區北新路二段156-1號","121.542948333333","24.9755633333333","6500600","新店區"
"231024","AKT-0513","2018/05/29 13:59:37","新北市新店區力行路36號","121.538961666667","24.96505","6500600","新店區"
"235028","005-UY","2018/05/29 13:59:36","新北市中和區泰和街3號","121.499781666667","25.0008216666667","6500300","中和區"
"235027","006-UY","2018/05/29 13:59:43","新北市中和區連城路200號","121.49188","24.9965683333333","6500300","中和區"
"235015","031-BX","2018/05/29 13:59:37","新北市中和區忠孝街11巷1號","121.50991","24.983125","6500300","中和區"
"235020","096-UM","2018/05/29 13:59:25","新北市中和區員山路506巷10號","121.47973","25.008685","6500300","中和區"
"235003","097-UM","2018/05/29 13:59:31","新北市中和區秀朗路三段179號","121.52439","24.99094","6500300","中和區"
"235029","098-UM","2018/05/29 13:59:39","新北市中和區中山路二段136巷40號","121.501195","25.0045066666667","6500300","中和區"
"235004","150-BY","2018/05/29 13:59:31","新北市中和區保健路65號","121.50976","24.9971233333333","6500300","中和區"
"235022","151-BY","2018/05/29 13:59:40","新北市中和區員山路75號","121.48071","24.9940916666667","6500300","中和區"
"235019","183-VK","2018/05/29 13:59:38","新北市中和區德光路24號","121.470916666667","25.00443","6500300","中和區"
"235002","185-VK","2018/05/29 13:59:24","新北市中和區立人街24-5號","121.518851666667","24.994225","6500300","中和區"
"235013","186-VK","2018/05/29 13:59:28","新北市中和區景安路100號","121.505541666667","24.9956366666667","6500300","中和區"
"235031","255-BX","2018/05/29 13:57:28","新北市中和區新生街233巷10號","121.484418333333","24.99856","6500300","中和區"
"235008","293-VK","2018/05/29 13:59:31","新北市中和區中興街161巷7弄1號","121.500935","24.990935","6500300","中和區"
"235036","301-VK","2018/05/29 13:59:37","新北市中和區中山路二段203號","121.499708333333","25.0026033333333","6500300","中和區"
"235007","352-BY","2018/05/29 13:59:43","新北市中和區秀朗路三段179號","121.524486666667","24.9906433333333","6500300","中和區"
"235014","4979-A6","2018/05/29 13:59:28","新北市中和區華新街50巷8號","121.507663333333","24.98396","6500300","中和區"
"235033","4980-A6","2018/05/29 13:59:38","新北市中和區景平路477號","121.500163333333","24.99714","6500300","中和區"
"235006","551-UM","2018/05/29 13:59:30","新北市中和區秀朗路三段10巷21弄8號","121.525258333333","24.9961433333333","6500300","中和區"
"235034","558-UM","2018/05/29 13:59:22","新北市中和區安和路163號","121.506138333333","24.997535","6500300","中和區"
"235009","565-BX","2018/05/29 13:59:34","新北市中和區景新街467巷20弄15號","121.514805","24.9873433333333","6500300","中和區"
"235018","640-BX","2018/05/29 13:59:26","新北市中和區民享街34號","121.474021666667","25.0031016666667","6500300","中和區"
"235024","647-TV","2018/05/29 13:59:25","新北市中和區民治街7巷2號","121.475073333333","25.004665","6500300","中和區"
"235010","733-UM","2018/05/29 13:59:40","新北市中和區興南路一段135巷22弄4號","121.509118333333","24.9869","6500300","中和區"
"235035","783-BX","2018/05/29 13:59:33","新北市中和區立德街82號","121.487471666667","25.0078766666667","6500300","中和區"
"235026","800-TS","2018/05/29 13:59:44","新北市中和區中山路二段366巷25號","121.49148","25.0052233333333","6500300","中和區"
"235021","801-TS","2018/05/29 13:59:37","新北市中和區民利街40巷3弄11號","121.478891666667","24.9991066666667","6500300","中和區"
"235005","802-TS","2018/05/29 13:59:36","新北市中和區永貞路264號","121.513681666667","25.0036716666667","6500300","中和區"
"235016","805-TS","2018/05/29 13:59:38","新北市中和區興南路二段261巷6-2號","121.503961666667","24.980145","6500300","中和區"
"235012","896-TW","2018/05/29 13:59:25","新北市中和區華新街23號","121.507615","24.98498","6500300","中和區"
"235017","900-TW","2018/05/29 13:59:40","新北市中和區和平路200巷35弄1號","121.465318333333","24.9946433333333","6500300","中和區"
"235030","911-UM","2018/05/29 13:59:30","新北市中和區光華街60號","121.505398333333","25.0037466666667","6500300","中和區"
"235001","AAC-213","2018/05/29 13:59:30","新北市中和區秀朗路三段10巷37弄1號","121.524163333333","24.9961116666667","6500300","中和區"
"235023","AAC-215","2018/05/29 13:59:32","新北市中和區圓通路294巷9號","121.488665","24.9899983333333","6500300","中和區"
"220016","013-TV","2018/05/29 13:59:25","新北市板橋區中山路二段465巷74弄2-5號","121.481235","25.0221033333333","6500100","板橋區"
"220013","072-UY","2018/05/29 13:59:32","新北市板橋區漢生東路340巷11號","121.471433333333","25.0072683333333","6500100","板橋區"
"220034","073-UY","2018/05/29 13:59:27","新北市板橋區民權路209號","121.457855","25.01487","6500100","板橋區"
"220105","075-UY","2018/05/29 13:59:39","新北市板橋區莊敬路100號","121.4712","25.024425","6500100","板橋區"
"220017","AAD-861","2018/05/29 13:59:34","新北市板橋區華興街88號","121.456836666667","25.0052416666667","6500100","板橋區"
"247013","546-UM","2018/05/29 13:59:26","新北市蘆洲區中正路144號","121.468966666667","25.085295","6501400","蘆洲區"
"247009","341-TH","2018/05/29 13:59:35","新北市蘆洲區集賢路224巷22號","121.48173","25.0871866666667","6501400","蘆洲區"
"247011","339-TH","2018/05/29 13:59:25","新北市蘆洲區民族路152號","121.479533333333","25.086135","6501400","蘆洲區"
"247003","337-TH","2018/05/29 13:59:36","新北市蘆洲區長榮路39號","121.463238333333","25.08261","6501400","蘆洲區"
"247005","336-TH","2018/05/29 13:59:28","新北市蘆洲區永安南路二段50-1號","121.465941666667","25.0777033333333","6501400","蘆洲區"
"247017","057-VK","2018/05/29 13:59:26","新北市蘆洲區仁愛街35巷26號","121.475586666667","25.089005","6501400","蘆洲區"
"247007","056-VK","2018/05/29 13:59:32","新北市三重區仁愛街743號","121.481385","25.0805033333333","6501400","蘆洲區"
"247019","001-UY","2018/05/29 13:59:40","新北市蘆洲區民族路422巷88-1號","121.473498333333","25.0939583333333","6501400","蘆洲區"
"235011","251-BX","2018/05/29 13:59:32","新北市中和區興南路二段113巷2號","121.505516666667","24.9843066666667","6500300","中和區"
"228004","212-TW","2018/05/29 13:59:38","新北市貢寮區龍崗里泮宮路51-1號","121.907845","25.0166383333333","6502600","貢寮區"
"228005","828-UM","2018/05/29 13:52:28","新北市貢寮區美豐里雞母嶺街52號","121.891118333333","25.0664216666667","6502600","貢寮區"
"207002","749-BX","2018/05/29 13:59:32","新北市萬里區溪底里溪底路10號","121.617185","25.1485433333333","6502800","萬里區"
"207001","662-BX","2018/05/29 13:59:30","新北市萬里區磺潭里清水15號","121.638068333333","25.198105","6502800","萬里區"
"252005","AAC-283","2018/05/29 13:59:31","新北市三芝區橫山里橫山49號","121.534666666667","25.2573166666667","6502100","三芝區"
"236065","105-UM","2018/05/29 13:59:25","新北市土城區和平路79號","121.4447","24.9711733333333","6501300","土城區"
"236040","107-UM","2018/05/29 13:59:39","新北市土城區城林路6巷80號","121.438473333333","24.9797766666667","6501300","土城區"
"236074","166-UM","2018/05/29 13:59:40","新北市土城區永寧路32巷10弄27號","121.428741666667","24.9610816666667","6501300","土城區"
"236024","269-VK","2018/05/29 13:59:32","新北市土城區承天路31號","121.436855","24.965235","6501300","土城區"
"236013","270-VK","2018/05/29 13:59:36","新北市土城區中央路二段219-7號","121.440801666667","24.9738916666667","6501300","土城區"
"236032","271-VK","2018/05/29 13:59:26","新北市土城區城林路6巷80號","121.438486666667","24.9797816666667","6501300","土城區"
"236017","401-BY","2018/05/29 13:59:41","新北市土城區城林路6巷80號","121.43852","24.9797733333333","6501300","土城區"
"236006","498-BY","2018/05/29 13:59:39","新北市土城區中央路一段289-1號","121.444225","24.98415","6501300","土城區"
"236057","912-UM","2018/05/29 13:59:36","新北市土城區中央路三段248-1號","121.427666666667","24.9642916666667","6501300","土城區"
"236045","913-UM","2018/05/29 13:59:34","新北市土城區城林路6巷80號","121.438565","24.9796683333333","6501300","土城區"
"236060","915-UM","2018/05/29 13:59:36","新北市土城區中央路二段280號","121.440783333333","24.9742183333333","6501300","土城區"
"236054","AAC-216","2018/05/29 13:59:35","新北市土城區城林路6巷80號","121.438603333333","24.9798283333333","6501300","土城區"
"220027","145-BY","2018/05/29 13:59:36","新北市板橋區民權路256號","121.458218333333","25.0149516666667","6500100","板橋區"
"220028","200-UY","2018/05/29 13:59:23","新北市板橋區大觀路二段文和巷56號","121.443161666667","24.998795","6500100","板橋區"
"220030","610-BX","2018/05/29 13:59:42","新北市板橋區滿平街80號","121.427508333333","24.989195","6500100","板橋區"
"220050","245-BX","2018/05/29 13:59:38","新北市板橋區文化路二段182巷13號","121.472185","25.0267666666667","6500100","板橋區"
"220052","257-TC","2018/05/29 13:59:22","新北市板橋區民生路二段121號","121.4707","25.0183266666667","6500100","板橋區"
"220043","267-BY","2018/05/29 13:59:28","新北市板橋區文化路二段76號","121.469383333333","25.02504","6500100","板橋區"
"220004","276-BY","2018/05/29 13:59:38","新北市板橋區信義路148號","121.458866666667","24.9917883333333","6500100","板橋區"
"220020","277-BY","2018/05/29 13:59:40","新北市板橋區金門街240號","121.430693333333","24.9872566666667","6500100","板橋區"
"220038","280-UM","2018/05/29 13:59:28","新北市板橋區文化路二段319號","121.472266666667","25.0298766666667","6500100","板橋區"
"220019","283-VK","2018/05/29 13:59:44","新北市板橋區忠孝路154巷25號","121.464241666667","25.001465","6500100","板橋區"
"220001","285-VK","2018/05/29 13:59:34","新北市板橋區中山路二段89巷66號","121.47358","25.0176233333333","6500100","板橋區"
"220031","286-VK","2018/05/29 13:59:40","新北市板橋區龍興街103巷1號","121.444528333333","25.0033966666667","6500100","板橋區"
"220029","287-VK","2018/05/29 13:59:30","新北市板橋區光華街44巷2-1號","121.453761666667","25.0129416666667","6500100","板橋區"
"220039","288-VK","2018/05/29 13:59:40","新北市板橋區四維路177巷4弄4號","121.463708333333","25.0261833333333","6500100","板橋區"
"220009","293-UM","2018/05/29 13:59:42","新北市板橋區永豐街122號","121.476411666667","25.0209333333333","6500100","板橋區"
"220032","296-UM","2018/05/29 13:59:26","新北市板橋區篤行路一段16-1號","121.431298333333","24.9954983333333","6500100","板橋區"
"220023","303-R5","2018/05/29 13:59:22","新北市板橋區館前西路261號","121.45404","25.0087933333333","6500100","板橋區"
"220010","305-R5","2018/05/29 13:59:33","新北市板橋區三民路二段245巷60號","121.480986666667","25.012245","6500100","板橋區"
"220041","307-R5","2018/05/29 13:59:41","新北市板橋區文化路一段102號","121.464713333333","25.018095","6500100","板橋區"
"220047","317-R6","2018/05/29 13:59:26","新北市板橋區民有街33號","121.465946666667","25.0254666666667","6500100","板橋區"
"220012","486-VK","2018/05/29 13:59:39","新北市板橋區中山路一段283巷2弄25號","121.470568333333","25.0153283333333","6500100","板橋區"
"220037","491-VK","2018/05/29 13:59:38","新北市板橋區文化路二段16-2號","121.468828333333","25.024315","6500100","板橋區"
"220104","560-BX","2018/05/29 13:59:39","新北市板橋區中正路379巷3弄5號","121.453316666667","25.021115","6500100","板橋區"
"220011","609-BX","2018/05/29 13:59:36","新北市板橋區中山路二段189號","121.476251666667","25.0169933333333","6500100","板橋區"
"220040","637-BX","2018/05/29 13:59:38","新北市板橋區大同街53號","121.4786","25.0275566666667","6500100","板橋區"
"220005","686-BX","2018/05/29 13:59:34","新北市板橋區重慶路80號","121.46196","25.006135","6500100","板橋區"
"220025","687-BX","2018/05/29 13:59:35","新北市板橋區大觀路二段174巷178號","121.442016666667","25.00356","6500100","板橋區"
"220042","689-BX","2018/05/29 13:59:38","新北市板橋區民生路三段142號","121.466263333333","25.027125","6500100","板橋區"
"220002","741-BX","2018/05/29 13:59:39","新北市板橋區重慶路112號","121.461933333333","25.00502","6500100","板橋區"
"220051","KEA-2699","2018/05/29 13:59:30","新北市板橋區八德路二段62號","121.482","25.0272983333333","6500100","板橋區"
"220003","827-TW","2018/05/29 13:59:34","新北市板橋區中山路一段158巷27-4號","121.466553333333","25.0110716666667","6500100","板橋區"
"220014","829-TW","2018/05/29 13:59:36","新北市板橋區三民路二段正隆巷12弄10號","121.477946666667","25.01323","6500100","板橋區"
"220045","831-TW","2018/05/29 13:59:41","新北市板橋區莒光路133巷7弄3號","121.4726","25.02419","6500100","板橋區"
"220022","895-R6","2018/05/29 13:59:41","新北市板橋區南雅南路一段102號","121.454883333333","25.0045216666667","6500100","板橋區"
"220021","985-R7","2018/05/29 13:59:37","新北市板橋區北門街53號","121.455926666667","25.0115866666667","6500100","板橋區"
"220046","AAC-210","2018/05/29 13:59:34","新北市板橋區國光路200號","121.461641666667","25.0185283333333","6500100","板橋區"
"220018","AAC-253","2018/05/29 13:59:35","新北市板橋區四川路一段475號","121.457108333333","24.9974316666667","6500100","板橋區"
"235032","KEA-2873","2018/05/29 13:59:14","新北市中和區安邦街87號","121.496991666667","24.99642","6500300","中和區"
"235025","KEA-2875","2018/05/29 13:59:39","新北市中和區民享街89巷9弄3號","121.474875","25.0020083333333","6500300","中和區"
