"lineid","car","time","location","longitude","latitude","cityid","cityname"
"234036","336-UY","2018/05/29 14:49:35","新北市板橋區民生路一段66號","121.473863333333","25.0150133333333","6500400","永和區"
"234025","9371-KE","2018/05/29 14:49:41","新北市永和區雙和街52巷1號","121.50891","25.0032533333333","6500400","永和區"
"248017","225-UY","2018/05/29 14:29:26","新北市五股區外寮路1-8號","121.42532","25.0757516666667","6501500","五股區"
"244002","248-BX","2018/05/29 14:49:40","新北市林口區竹林路267號","121.389563333333","25.0808533333333","6501700","林口區"
"231002","002-UM","2018/05/29 14:49:41","新北市新店區建國路257號","121.537285","24.9830566666667","6500600","新店區"
"231028","046-UY","2018/05/29 14:49:26","新北市新店區安德街116巷10號","121.509093333333","24.9609033333333","6500600","新店區"
"231001","047-UY","2018/05/29 14:49:39","新北市新店區三民路181號","121.535078333333","24.9752366666667","6500600","新店區"
"231005","106-UY","2018/05/29 14:49:30","新北市新店區復興路2號","121.532411666667","24.988285","6500600","新店區"
"231020","108-UY","2018/05/29 14:49:34","新北市新店區永福路38-6號","121.55128","24.92949","6500600","新店區"
"231012","187-VK","2018/05/29 14:49:25","新北市新店區寶橋路59-1號","121.545091666667","24.9750883333333","6500600","新店區"
"231023","KEA-2219","2018/05/29 14:49:39","新北市新店區檳榔路109號","121.54454","24.9616183333333","6500600","新店區"
"231026","256-BX","2018/05/29 14:49:36","新北市新店區安康路一段215號","121.52587","24.96302","6500600","新店區"
"231003","268-BY","2018/05/29 14:49:29","新北市新店區中興路二段55號","121.546455","24.9702633333333","6500600","新店區"
"231018","278-BY","2018/05/29 14:49:31","新北市新店區中央六街6號","121.530286666667","24.9744333333333","6500600","新店區"
"231015","AAD-862","2018/05/29 14:49:41","新北市新店區北宜路三段62號","121.574393333333","24.9511366666667","6500600","新店區"
"231038","3712-VJ","2018/05/29 14:49:41","新北市新店區安華路28-1號","121.519638333333","24.960895","6500600","新店區"
"231027","3713-VJ","2018/05/29 14:49:41","新北市新店區中央路133巷4號","121.53057","24.9737366666667","6500600","新店區"
"231037","4716-K9","2018/05/29 14:49:27","新北市新店區柴埕路60巷15-3號","121.508155","24.9654466666667","6500600","新店區"
"231025","4715-K9","2018/05/29 14:49:40","新北市新店區建國路198巷2號","121.538138333333","24.98038","6500600","新店區"
"231036","512-UM","2018/05/29 14:49:33","新北市新店區安祥路104巷6弄36號","121.483076666667","24.96296","6500600","新店區"
"231013","513-UM","2018/05/29 14:49:40","新北市新店區北新路一段128號","121.542178333333","24.9700166666667","6500600","新店區"
"231006","617-UM","2018/05/29 14:49:26","新北市新店區北宜路一段107號","121.539423333333","24.9551683333333","6500600","新店區"
"231030","619-UM","2018/05/29 14:49:29","新北市新店區安民街252號","121.517626666667","24.9732166666667","6500600","新店區"
"231034","641-BX","2018/05/29 14:49:36","新北市新店區玫瑰路4-1號","121.493596666667","24.9513833333333","6500600","新店區"
"231039","718-UY","2018/05/29 14:49:39","新北市新店區安康路一段355號","121.519791666667","24.96293","6500600","新店區"
"231035","719-UM","2018/05/29 14:49:32","新北市新店區安樂街16號","121.520783333333","24.9732866666667","6500600","新店區"
"231032","720-UM","2018/05/29 14:49:33","新北市新店區安康路二段382號","121.50037","24.957115","6500600","新店區"
"231029","897-TW","2018/05/29 14:49:36","新北市新店區錦秀路72巷2號","121.478811666667","24.9420733333333","6500600","新店區"
"231004","899-TW","2018/05/29 14:49:38","新北市新店區建國路133號","121.539353333333","24.978255","6500600","新店區"
"235028","005-UY","2018/05/29 14:49:36","新北市中和區南華路16號","121.502691666667","24.995645","6500300","中和區"
"235027","006-UY","2018/05/29 14:49:23","新北市中和區連城路263巷27弄4號","121.492795","24.9944833333333","6500300","中和區"
"235015","031-BX","2018/05/29 14:49:36","新北市中和區景安路247巷7號","121.504326666667","24.9905833333333","6500300","中和區"
"235020","096-UM","2018/05/29 14:49:25","新北市中和區中山路三段118-1號","121.475438333333","25.0075583333333","6500300","中和區"
"235003","097-UM","2018/05/29 14:49:31","新北市中和區宜安路18巷15號","121.514136666667","24.996385","6500300","中和區"
"235029","098-UM","2018/05/29 14:49:40","新北市中和區橋和路298號","121.496826666667","25.0068883333333","6500300","中和區"
"235004","150-BY","2018/05/29 14:49:31","新北市中和區安和路43號","121.509625","24.9948633333333","6500300","中和區"
"235022","151-BY","2018/05/29 14:49:40","新北市中和區員山路150巷2弄37號","121.481693333333","24.9975566666667","6500300","中和區"
"235019","183-VK","2018/05/29 14:49:28","新北市中和區國光街127號","121.46923","25.0010633333333","6500300","中和區"
"235013","186-VK","2018/05/29 14:49:38","新北市中和區中正路2-1號","121.50315","24.99364","6500300","中和區"
"235031","255-BX","2018/05/29 14:49:28","新北市中和區中正路912號","121.483385","25.0078383333333","6500300","中和區"
"235008","293-VK","2018/05/29 14:49:31","新北市中和區中正路3號","121.503353333333","24.993215","6500300","中和區"
"235036","301-VK","2018/05/29 14:49:37","新北市中和區板南路399巷2號","121.49352","24.9989416666667","6500300","中和區"
"235007","352-BY","2018/05/29 14:49:28","新北市中和區景平路334號","121.511941666667","24.992895","6500300","中和區"
"235014","4979-A6","2018/05/29 14:49:28","新北市中和區景平路241巷84弄54號","121.506075","24.9924733333333","6500300","中和區"
"235034","558-UM","2018/05/29 14:49:42","新北市中和區連勝街59號","121.497448333333","24.9970566666667","6500300","中和區"
"235018","640-BX","2018/05/29 14:49:26","新北市中和區莒光路207號","121.469985","24.9957583333333","6500300","中和區"
"235024","647-TV","2018/05/29 14:49:25","新北市中和區新生街30巷15號","121.48259","25.0037766666667","6500300","中和區"
"235010","733-UM","2018/05/29 14:49:40","新北市中和區仁愛街33號","121.5109","24.9886783333333","6500300","中和區"
"235035","783-BX","2018/05/29 14:49:33","新北市中和區建康路6號","121.486391666667","25.0001266666667","6500300","中和區"
"235026","800-TS","2018/05/29 14:49:43","新北市中和區中山路二段329號","121.493","25.0023233333333","6500300","中和區"
"235021","801-TS","2018/05/29 14:49:37","新北市中和區員山路130號","121.481208333333","24.9962833333333","6500300","中和區"
"235005","802-TS","2018/05/29 14:49:36","新北市中和區宜安路102號","121.510426666667","24.9977833333333","6500300","中和區"
"235016","805-TS","2018/05/29 14:49:41","新北市中和區興南路二段121號","121.505641666667","24.9841933333333","6500300","中和區"
"235012","896-TW","2018/05/29 14:49:25","新北市中和區忠孝街105號","121.512016666667","24.9863966666667","6500300","中和區"
"235017","900-TW","2018/05/29 14:49:38","新北市中和區國光街215巷6弄1號","121.466493333333","25.0015616666667","6500300","中和區"
"235030","911-UM","2018/05/29 14:49:30","新北市中和區南工路40號","121.505793333333","25.0011966666667","6500300","中和區"
"235001","AAC-213","2018/05/29 14:49:30","新北市中和區自立路76號","121.524025","24.9912683333333","6500300","中和區"
"235023","AAC-215","2018/05/29 14:49:32","新北市中和區圓通路365號","121.49137","24.98971","6500300","中和區"
"220016","013-TV","2018/05/29 14:49:25","新北市板橋區中山路二段412巷29弄8號","121.484185","25.0199816666667","6500100","板橋區"
"220013","072-UY","2018/05/29 14:49:36","新北市板橋區海山路41號","121.467161666667","25.0097416666667","6500100","板橋區"
"220034","073-UY","2018/05/29 14:49:27","新北市板橋區館前西路160巷32號","121.45222","25.0092083333333","6500100","板橋區"
"220105","075-UY","2018/05/29 14:49:39","新北市板橋區民治街71巷27號","121.480513333333","25.032865","6500100","板橋區"
"220017","AAD-861","2018/05/29 14:49:44","新北市板橋區大明街18-9號","121.458791666667","25.0026016666667","6500100","板橋區"
"247001","002-UY","2018/05/29 14:49:28","新北市蘆洲區永康街2巷10號","121.459296666667","25.0862033333333","6501400","蘆洲區"
"235011","251-BX","2018/05/29 14:49:42","新北市中和區和平街84號","121.507596666667","24.99114","6500300","中和區"
"228004","212-TW","2018/05/29 14:49:38","新北市貢寮區福隆里裕隆街5號","121.946146666667","25.0159383333333","6502600","貢寮區"
"228005","828-UM","2018/05/29 14:49:28","新北市貢寮區美豐里丹裡街59-2號","121.910303333333","25.0587483333333","6502600","貢寮區"
"207002","749-BX","2018/05/29 14:49:32","新北市萬里區崁腳里崁腳路73號","121.647545","25.1595916666667","6502800","萬里區"
"207001","662-BX","2018/05/29 14:49:30","新北市萬里區雙興里二坪路5-4號","121.648691666667","25.1751","6502800","萬里區"
"252005","AAC-283","2018/05/29 14:49:31","新北市三芝區埔坪里埔頭坑143號","121.511466666667","25.24867","6502100","三芝區"
"236065","105-UM","2018/05/29 14:49:24","新北市土城區金城路二段233號","121.455635","24.98244","6501300","土城區"
"236040","107-UM","2018/05/29 14:49:39","新北市土城區學府路一段256巷2弄1號","121.451046666667","24.9847516666667","6501300","土城區"
"236074","166-UM","2018/05/29 14:49:37","新北市土城區中央路四段125巷2弄21號","121.416295","24.956775","6501300","土城區"
"236029","253-BX","2018/05/29 14:49:37","新北市土城區忠義路26巷10號","121.439818333333","24.9699483333333","6501300","土城區"
"236024","269-VK","2018/05/29 14:49:35","新北市土城區慶安街62號","121.440845","24.97305","6501300","土城區"
"236013","270-VK","2018/05/29 14:49:36","新北市土城區金城路二段356號","121.461571666667","24.9850616666667","6501300","土城區"
"236032","271-VK","2018/05/29 14:49:38","新北市土城區仁愛路25號","121.462623333333","24.9784016666667","6501300","土城區"
"236017","401-BY","2018/05/29 14:49:41","新北市土城區德峰街37號","121.46731","24.9856316666667","6501300","土城區"
"236057","912-UM","2018/05/29 14:49:36","新北市土城區金城路一段118號","121.445656666667","24.974335","6501300","土城區"
"236045","913-UM","2018/05/29 14:49:34","新北市土城區青雲路35號","121.459986666667","24.9885966666667","6501300","土城區"
"236060","915-UM","2018/05/29 14:49:35","新北市土城區延壽路2號","121.471545","24.990285","6501300","土城區"
"236054","AAC-216","2018/05/29 14:49:35","新北市土城區裕民路191號","121.453593333333","24.98431","6501300","土城區"
"220027","145-BY","2018/05/29 14:49:36","新北市板橋區中正路183巷15號","121.455566666667","25.0161566666667","6500100","板橋區"
"220028","200-UY","2018/05/29 14:49:42","新北市板橋區大觀路二段179巷33號","121.446365","24.9995016666667","6500100","板橋區"
"220030","610-BX","2018/05/29 14:49:42","新北市板橋區存德街17號","121.430185","24.991735","6500100","板橋區"
"220050","245-BX","2018/05/29 14:49:38","新北市板橋區縣民大道三段103巷10號","121.476001666667","25.0228633333333","6500100","板橋區"
"220052","257-TC","2018/05/29 14:49:42","新北市板橋區陽明街29巷32號","121.463713333333","25.0227216666667","6500100","板橋區"
"220043","267-BY","2018/05/29 14:49:28","新北市板橋區互助街54號","121.46148","25.0268933333333","6500100","板橋區"
"220004","276-BY","2018/05/29 14:49:38","新北市板橋區四川路二段97號","121.452688333333","24.99466","6500100","板橋區"
"220020","277-BY","2018/05/29 14:49:31","新北市板橋區篤行路二段25-3號","121.431816666667","24.9928516666667","6500100","板橋區"
"220038","280-UM","2018/05/29 14:49:28","新北市板橋區龍泉街82巷11-4號","121.45588","25.0255416666667","6500100","板橋區"
"220019","283-VK","2018/05/29 14:49:44","新北市板橋區五權街30巷13號","121.464341666667","24.9931916666667","6500100","板橋區"
"220001","285-VK","2018/05/29 14:49:34","新北市板橋區中山路二段90巷25號","121.475825","25.0157066666667","6500100","板橋區"
"220031","286-VK","2018/05/29 14:49:43","新北市板橋區僑中二街48巷8號","121.445966666667","25.010315","6500100","板橋區"
"220029","287-VK","2018/05/29 14:49:30","新北市板橋區僑中一街124巷20弄35號","121.447571666667","25.0138833333333","6500100","板橋區"
"220039","288-VK","2018/05/29 14:49:40","新北市板橋區龍泉街108巷6號","121.45605","25.0243866666667","6500100","板橋區"
"220009","293-UM","2018/05/29 14:49:42","新北市板橋區觀光街79巷2號","121.469373333333","25.0169466666667","6500100","板橋區"
"220023","303-R5","2018/05/29 14:49:22","新北市板橋區金華街10巷19號","121.456498333333","25.020145","6500100","板橋區"
"220010","305-R5","2018/05/29 14:49:33","新北市板橋區光復街172巷31弄5號","121.486071666667","25.0189416666667","6500100","板橋區"
"220041","307-R5","2018/05/29 14:49:43","新北市板橋區四維路269巷94弄18號","121.459396666667","25.0268766666667","6500100","板橋區"
"220047","317-R6","2018/05/29 14:49:26","新北市板橋區新海路332號","121.460278333333","25.0242","6500100","板橋區"
"220012","486-VK","2018/05/29 14:49:37","新北市板橋區忠孝路178-6號","121.464596666667","25.00249","6500100","板橋區"
"220037","491-VK","2018/05/29 14:49:38","新北市板橋區文聖街105號","121.477751666667","25.0294216666667","6500100","板橋區"
"220104","560-BX","2018/05/29 14:49:29","新北市板橋區新生街37號","121.456778333333","25.0210966666667","6500100","板橋區"
"220011","609-BX","2018/05/29 14:49:36","新北市板橋區中山路二段531巷32號","121.482921666667","25.0223266666667","6500100","板橋區"
"220040","637-BX","2018/05/29 14:49:38","新北市板橋區民治街78-4號","121.479443333333","25.03221","6500100","板橋區"
"220005","686-BX","2018/05/29 14:49:40","新北市板橋區信義路69號","121.457113333333","24.9954583333333","6500100","板橋區"
"220025","687-BX","2018/05/29 14:49:38","新北市板橋區僑中一街124巷18弄1號","121.44617","25.0138866666667","6500100","板橋區"
"220042","689-BX","2018/05/29 14:49:32","新北市板橋區長江路二段59號","121.46464","25.0313933333333","6500100","板橋區"
"220002","741-BX","2018/05/29 14:49:39","新北市板橋區實踐路93巷14號","121.464635","25.0054266666667","6500100","板橋區"
"220051","KEA-2699","2018/05/29 14:49:11","新北市板橋區文化路二段410巷21號","121.474738333333","25.0308266666667","6500100","板橋區"
"220003","827-TW","2018/05/29 14:49:34","新北市板橋區仁愛路86巷20號","121.461093333333","24.9987566666667","6500100","板橋區"
"220014","829-TW","2018/05/29 14:49:42","新北市板橋區漢生東路193巷75號","121.472491666667","25.0118166666667","6500100","板橋區"
"220045","831-TW","2018/05/29 14:49:41","新北市板橋區莒光路39巷19號","121.470821666667","25.0254583333333","6500100","板橋區"
"220022","895-R6","2018/05/29 14:49:35","新北市板橋區縣民大道一段297號","121.461051666667","25.0107133333333","6500100","板橋區"
"220021","985-R7","2018/05/29 14:49:37","新北市板橋區南雅西路二段108-1號","121.45221","25.0119983333333","6500100","板橋區"
"220046","AAC-210","2018/05/29 14:49:34","新北市板橋區漢生西路56號","121.463063333333","25.0188116666667","6500100","板橋區"
"220018","AAC-253","2018/05/29 14:49:35","新北市板橋區館前東路124號","121.463886666667","25.0078133333333","6500100","板橋區"
"235032","KEA-2873","2018/05/29 14:49:44","新北市中和區福祥路85巷2弄6號","121.498713333333","25.0059066666667","6500300","中和區"
"235025","KEA-2875","2018/05/29 14:49:39","新北市中和區新生街186巷20號","121.482556666667","24.9996816666667","6500300","中和區"
