"lineid","car","time","location","longitude","latitude","cityid","cityname"
"234042","862-TW","2018/05/29 15:59:27","新北市永和區福和路1號","121.526516666667","25.0097533333333","6500400","永和區"
"231020","108-UY","2018/05/29 15:59:34","新北市新店區環河路1-1號","121.537836666667","24.96155","6500600","新店區"
"231012","187-VK","2018/05/29 15:59:25","新北市新店區中正路374號","121.535068333333","24.9763416666667","6500600","新店區"
"231046","188-VK","2018/05/29 15:59:46","新北市新店區安康路一段355-10號","121.520376666667","24.9638283333333","6500600","新店區"
"231023","KEA-2219","2018/05/29 15:59:39","新北市新店區柴埕路116號","121.504663333333","24.959865","6500600","新店區"
"231003","268-BY","2018/05/29 15:59:42","新北市新店區寶興路58巷1號","121.549825","24.9722466666667","6500600","新店區"
"231018","278-BY","2018/05/29 15:59:31","新北市新店區中正路663巷1弄2號","121.532933333333","24.9900316666667","6500600","新店區"
"231015","AAD-862","2018/05/29 15:59:41","新北市新店區中正路284巷4弄8號","121.538461666667","24.97462","6500600","新店區"
"231038","3712-VJ","2018/05/29 15:59:41","新北市新店區薏仁坑路自強巷6號","121.496713333333","24.9585683333333","6500600","新店區"
"231037","4716-K9","2018/05/29 15:59:27","新北市新店區吉安街9號","121.516751666667","24.9656866666667","6500600","新店區"
"231013","513-UM","2018/05/29 15:59:30","新北市新店區柴埕路59號","121.513568333333","24.9650283333333","6500600","新店區"
"231030","619-UM","2018/05/29 15:59:29","新北市新店區永平街10號","121.517233333333","24.983515","6500600","新店區"
"231034","641-BX","2018/05/29 15:59:36","新北市新店區富貴街20巷17號","121.493156666667","24.94764","6500600","新店區"
"231035","719-UM","2018/05/29 15:59:32","新北市新店區安民街241-1號","121.517058333333","24.9722433333333","6500600","新店區"
"241011","013-R5","2018/05/29 15:59:45","新北市三重區文化北路224巷30-1號","121.49708","25.0686566666667","6500200","三重區"
"241028","022-UY","2018/05/29 15:59:39","新北市三重區電信街90號","121.495773333333","25.058225","6500200","三重區"
"241008","059-VK","2018/05/29 15:59:42","新北市三重區成功路108巷8號","121.486283333333","25.0503933333333","6500200","三重區"
"241015","062-VK","2018/05/29 15:59:35","新北市三重區重新路四段121號","121.485135","25.0520516666667","6500200","三重區"
"241017","063-VK","2018/05/29 15:59:45","新北市三重區重陽路三段5巷48號","121.492056666667","25.065005","6500200","三重區"
"241024","065-VK","2018/05/29 15:59:38","新北市三重區中正北路145巷16號","121.48432","25.06794","6500200","三重區"
"241026","066-VK","2018/05/29 15:59:26","新北市三重區重新路二段126號","121.496208333333","25.0616883333333","6500200","三重區"
"241002","090-VK","2018/05/29 15:59:29","新北市三重區河邊北街196號","121.503078333333","25.07403","6500200","三重區"
"241003","091-VK","2018/05/29 15:59:42","新北市三重區自強路五段102號","121.496841666667","25.0835783333333","6500200","三重區"
"241022","742-BX","2018/05/29 15:59:27","新北市三重區忠孝路三段40巷44號","121.482881666667","25.0657816666667","6500200","三重區"
"241005","262-UM","2018/05/29 15:59:41","新北市三重區五華街182號","121.488888333333","25.0862616666667","6500200","三重區"
"241009","265-UM","2018/05/29 15:59:36","新北市三重區成功路108巷8號","121.486708333333","25.050825","6500200","三重區"
"241016","266-UM","2018/05/29 15:59:38","新北市三重區重新路四段121號","121.48518","25.0520233333333","6500200","三重區"
"241018","268-UM","2018/05/29 15:59:33","新北市三重區大仁街22號","121.491568333333","25.0635983333333","6500200","三重區"
"241032","269-UM","2018/05/29 15:59:40","新北市三重區三陽路100巷3弄19號","121.48263","25.0582583333333","6500200","三重區"
"241013","270-UM","2018/05/29 15:59:34","新北市三重區三和路三段18號","121.496833333333","25.070185","6500200","三重區"
"241025","271-UM","2018/05/29 15:59:45","新北市三重區三民街166號","121.482308333333","25.0654866666667","6500200","三重區"
"241007","398-BY","2018/05/29 15:59:38","新北市三重區三和路四段143-1號","121.484086666667","25.07815","6500200","三重區"
"241004","475-VK","2018/05/29 15:59:30","新北市三重區環河北路280號","121.501128333333","25.0789583333333","6500200","三重區"
"241020","478-VK","2018/05/29 15:59:40","新北市三重區車路頭街4巷14號","121.483398333333","25.0699566666667","6500200","三重區"
"241030","480-VK","2018/05/29 15:59:42","新北市三重區重新路四段121號","121.48472","25.052555","6500200","三重區"
"241014","543-UM","2018/05/29 15:59:34","新北市三重區重新路四段121號","121.485123333333","25.0521","6500200","三重區"
"241023","545-UM","2018/05/29 15:59:40","新北市三重區中正北路172-3號","121.48392","25.0665033333333","6500200","三重區"
"241001","547-UM","2018/05/29 15:59:31","新北市三重區名源街29巷2號","121.48019","25.0604733333333","6500200","三重區"
"241019","KEA-2593","2018/05/29 15:59:39","新北市三重區中正北路193巷3號","121.477178333333","25.06992","6500200","三重區"
"241006","AAD-863","2018/05/29 15:59:34","新北市三重區忠孝路二段160號","121.482276666667","25.0680566666667","6500200","三重區"
"241012","941-UM","2018/05/29 15:59:35","新北市三重區正義北路119號","121.497053333333","25.0660866666667","6500200","三重區"
"241029","942-UM","2018/05/29 15:59:33","新北市三重區大同南路212巷51號","121.498113333333","25.0567166666667","6500200","三重區"
"241033","AAC-255","2018/05/29 15:59:38","新北市三重區重新路五段446號","121.474748333333","25.0473883333333","6500200","三重區"
"235046","733-UM","2018/05/29 15:36:03","新北市中和區員山路36巷13號","121.484131666667","24.990865","6500300","中和區"
"235026","800-TS","2018/05/29 15:59:43","新北市中和區永和路191巷11號","121.491313333333","25.0067566666667","6500300","中和區"
"224007","275-VK","2018/05/29 15:59:35","新北市瑞芳區楓子瀨路16號","121.774156666667","25.1064233333333","6501200","瑞芳區"
"227003","400-TW","2018/05/29 15:59:37","新北市雙溪區平林里外平林76號","121.841945","25.0348583333333","6502500","雙溪區"
"227009","030-BX","2018/05/29 15:59:41","新北市雙溪區三港里雙澳路38號","121.87174","25.050775","6502500","雙溪區"
"251008","181-VK","2018/05/29 15:59:28","新北市淡水區中正路二段31號","121.419521666667","25.181495","6501000","淡水區"
"236057","912-UM","2018/05/29 15:59:36","新北市土城區中央路三段60-1號","121.436853333333","24.9674216666667","6501300","土城區"
"242053","751-BX","2018/05/29 15:39:08","新北市新莊區新泰路357巷3弄57號","121.442056666667","25.03948","6500500","新莊區"
"220025","687-BX","2018/05/29 15:59:35","新北市五股區凌雲路三段24巷21-9號","121.433858333333","25.107505","6500100","板橋區"
