"lineid","car","time","location","longitude","latitude","cityid","cityname"
"234042","862-TW","2018/05/29 16:09:27","新北市永和區福和路1號","121.526493333333","25.0097783333333","6500400","永和區"
"231012","187-VK","2018/05/29 16:09:45","新北市新店區柴埕路52巷12號","121.512061666667","24.9645316666667","6500600","新店區"
"231046","188-VK","2018/05/29 16:09:26","新北市新店區灣潭路2-22號","121.534568333333","24.9472583333333","6500600","新店區"
"231023","KEA-2219","2018/05/29 16:09:19","新北市新店區薏仁坑路6-3號","121.499748333333","24.95865","6500600","新店區"
"231018","278-BY","2018/05/29 16:09:31","新北市新店區中正路694巷15號","121.535321666667","24.9908716666667","6500600","新店區"
"231035","719-UM","2018/05/29 16:09:32","新北市新店區薏仁坑路自強巷1號","121.497828333333","24.95758","6500600","新店區"
"241011","013-R5","2018/05/29 16:09:45","新北市三重區三和路三段85號","121.49435","25.07205","6500200","三重區"
"241028","022-UY","2018/05/29 16:09:39","新北市三重區正義南路111號","121.4982","25.0585766666667","6500200","三重區"
"241008","059-VK","2018/05/29 16:09:42","新北市三重區力行路二段102號","121.482065","25.0747116666667","6500200","三重區"
"241031","061-VK","2018/05/29 16:09:29","新北市三重區重新路四段254號","121.485035","25.0528966666667","6500200","三重區"
"241015","062-VK","2018/05/29 16:09:35","新北市三重區福德南路59-4號","121.502865","25.0606566666667","6500200","三重區"
"241017","063-VK","2018/05/29 16:09:29","新北市三重區重陽路三段5巷30號","121.491255","25.0653433333333","6500200","三重區"
"241024","065-VK","2018/05/29 16:09:38","新北市三重區力行路一段38巷6號","121.486046666667","25.0674466666667","6500200","三重區"
"241026","066-VK","2018/05/29 16:09:26","新北市三重區正義南路32號","121.498241666667","25.0611416666667","6500200","三重區"
"241002","090-VK","2018/05/29 16:09:29","新北市三重區仁義街91號","121.499788333333","25.0795133333333","6500200","三重區"
"241003","091-VK","2018/05/29 16:09:42","新北市三重區自強路五段100號","121.496723333333","25.083725","6500200","三重區"
"241022","742-BX","2018/05/29 16:09:27","新北市三重區中正北路111-1號","121.485408333333","25.0654633333333","6500200","三重區"
"241005","262-UM","2018/05/29 16:09:41","新北市三重區溪尾街300-2號","121.487443333333","25.0837183333333","6500200","三重區"
"241009","265-UM","2018/05/29 16:09:36","新北市三重區力行路二段78號","121.481891666667","25.07364","6500200","三重區"
"241016","266-UM","2018/05/29 16:09:38","新北市三重區大同北路175號","121.492761666667","25.0653066666667","6500200","三重區"
"241018","268-UM","2018/05/29 16:09:33","新北市三重區中正北路35號","121.491481666667","25.0626866666667","6500200","三重區"
"241032","269-UM","2018/05/29 16:09:40","新北市三重區三陽路100巷3弄19號","121.482708333333","25.05821","6500200","三重區"
"241013","270-UM","2018/05/29 16:09:34","新北市三重區安樂街3號","121.49694","25.0698166666667","6500200","三重區"
"241025","271-UM","2018/05/29 16:09:37","新北市三重區忠孝路三段40巷10號","121.482095","25.0664066666667","6500200","三重區"
"241007","398-BY","2018/05/29 16:09:38","新北市三重區慈愛街10號","121.484546666667","25.07845","6500200","三重區"
"241004","475-VK","2018/05/29 16:09:30","新北市三重區仁愛街377巷132號","121.493583333333","25.08194","6500200","三重區"
"241020","478-VK","2018/05/29 16:09:40","新北市三重區車路頭街23號","121.483856666667","25.0706216666667","6500200","三重區"
"241030","480-VK","2018/05/29 16:09:42","新北市三重區重新路四段121號","121.484695","25.0525283333333","6500200","三重區"
"241014","543-UM","2018/05/29 16:09:35","新北市三重區福德南路59-4號","121.502978333333","25.060885","6500200","三重區"
"241023","545-UM","2018/05/29 16:09:40","新北市三重區力行路一段62號","121.484503333333","25.069275","6500200","三重區"
"241001","547-UM","2018/05/29 16:09:31","新北市三重區自強路四段53號","121.490036666667","25.07814","6500200","三重區"
"241019","KEA-2593","2018/05/29 16:09:39","新北市三重區自強路二段74巷25號","121.487685","25.0695233333333","6500200","三重區"
"241006","AAD-863","2018/05/29 16:09:34","新北市三重區車路頭街139巷14號","121.484311666667","25.0761983333333","6500200","三重區"
"241012","941-UM","2018/05/29 16:09:35","新北市三重區文化北路132巷49號","121.497391666667","25.0664816666667","6500200","三重區"
"241029","942-UM","2018/05/29 16:09:33","新北市三重區同安街98號","121.494661666667","25.0564066666667","6500200","三重區"
"241033","AAC-255","2018/05/29 16:09:38","新北市三重區五谷王南街50-1號","121.473905","25.0445616666667","6500200","三重區"
"235026","800-TS","2018/05/29 16:09:43","新北市中和區中山路二段332巷15號","121.494261666667","25.003075","6500300","中和區"
"224007","275-VK","2018/05/29 16:09:35","新北市瑞芳區粗坑口路24號","121.761336666667","25.0989583333333","6501200","瑞芳區"
"227003","400-TW","2018/05/29 16:09:37","新北市雙溪區上林里內平林47號","121.833308333333","25.03043","6502500","雙溪區"
"227009","030-BX","2018/05/29 16:09:41","新北市雙溪區三港里雙澳路75號","121.883301666667","25.054115","6502500","雙溪區"
"251008","181-VK","2018/05/29 16:09:28","新北市淡水區中正路一段1號","121.427005","25.1760283333333","6501000","淡水區"
"220025","687-BX","2018/05/29 16:09:35","新北市泰山區新五路一段18號","121.441321666667","25.060085","6500100","板橋區"
