"lineid","car","time","location","longitude","latitude","cityid","cityname"
"234042","862-TW","2018/05/29 16:19:47","新北市永和區福和路1號","121.526448333333","25.0097983333333","6500400","永和區"
"231046","188-VK","2018/05/29 16:19:26","新北市新店區灣潭路3-3號","121.538223333333","24.9508","6500600","新店區"
"231018","278-BY","2018/05/29 16:19:31","新北市新店區中正路700巷82號","121.535955","24.9932383333333","6500600","新店區"
"241011","013-R5","2018/05/29 16:19:25","新北市三重區龍濱路277號","121.501365","25.0731883333333","6500200","三重區"
"241028","022-UY","2018/05/29 16:19:40","新北市三重區正義南路169號","121.498883333333","25.0574383333333","6500200","三重區"
"241008","059-VK","2018/05/29 16:19:42","新北市三重區力行路二段136巷45弄12號","121.479081666667","25.0753333333333","6500200","三重區"
"241031","061-VK","2018/05/29 16:19:30","新北市三重區重新路四段254號","121.485658333333","25.0531266666667","6500200","三重區"
"241015","062-VK","2018/05/29 16:19:35","新北市三重區福德北路83號","121.502025","25.0659516666667","6500200","三重區"
"241017","063-VK","2018/05/29 16:19:45","新北市三重區大同北路85號","121.494855","25.0636466666667","6500200","三重區"
"241024","065-VK","2018/05/29 16:19:38","新北市三重區中正北路193巷27號","121.4762","25.07059","6500200","三重區"
"241026","066-VK","2018/05/29 16:19:46","新北市三重區正義南路54號","121.498276666667","25.0607616666667","6500200","三重區"
"241002","090-VK","2018/05/29 16:19:29","新北市三重區仁義街91號","121.499791666667","25.07951","6500200","三重區"
"241003","091-VK","2018/05/29 16:19:42","新北市三重區五華街57巷20號","121.493498333333","25.0830366666667","6500200","三重區"
"241022","742-BX","2018/05/29 16:19:27","新北市三重區過圳街31巷2號","121.488983333333","25.0605616666667","6500200","三重區"
"241005","262-UM","2018/05/29 16:19:41","新北市三重區溪尾街300-2號","121.487343333333","25.08369","6500200","三重區"
"241009","265-UM","2018/05/29 16:19:36","新北市三重區碧華街59號","121.484823333333","25.0813283333333","6500200","三重區"
"241016","266-UM","2018/05/29 16:19:38","新北市三重區大仁街37號","121.492905","25.0654283333333","6500200","三重區"
"241018","268-UM","2018/05/29 16:19:33","新北市三重區重陽路四段41號","121.491731666667","25.0699683333333","6500200","三重區"
"241032","269-UM","2018/05/29 16:19:40","新北市三重區三陽路100巷3弄19號","121.482741666667","25.058245","6500200","三重區"
"241013","270-UM","2018/05/29 16:19:34","新北市三重區龍門路70號","121.496823333333","25.07273","6500200","三重區"
"241025","271-UM","2018/05/29 16:19:28","新北市三重區中正北路560巷100弄2號","121.472436666667","25.0682166666667","6500200","三重區"
"241007","398-BY","2018/05/29 16:19:38","新北市三重區三和路四段163巷97號","121.48673","25.079555","6500200","三重區"
"241004","475-VK","2018/05/29 16:19:30","新北市三重區五華街74號","121.493463333333","25.0819733333333","6500200","三重區"
"241020","478-VK","2018/05/29 16:19:40","新北市三重區車路頭街9號","121.48408","25.070365","6500200","三重區"
"241030","480-VK","2018/05/29 16:19:42","新北市三重區重新路四段121號","121.484746666667","25.0525233333333","6500200","三重區"
"241014","543-UM","2018/05/29 16:19:34","新北市三重區河邊北街100巷12號","121.503395","25.070295","6500200","三重區"
"241023","545-UM","2018/05/29 16:19:40","新北市三重區中正北路145巷4弄19號","121.482816666667","25.0680816666667","6500200","三重區"
"241001","547-UM","2018/05/29 16:19:31","新北市三重區仁政街159號","121.491286666667","25.0795533333333","6500200","三重區"
"241019","KEA-2593","2018/05/29 16:19:39","新北市三重區重陽路三段93號","121.490105","25.06786","6500200","三重區"
"241006","AAD-863","2018/05/29 16:19:42","新北市三重區永福街46巷41弄51號","121.481106666667","25.0770883333333","6500200","三重區"
"241012","941-UM","2018/05/29 16:19:35","新北市三重區龍門路292號","121.502266666667","25.0741766666667","6500200","三重區"
"241029","942-UM","2018/05/29 16:19:33","新北市三重區環河南路220-8號","121.493383333333","25.0526966666667","6500200","三重區"
"241033","AAC-255","2018/05/29 16:19:38","新北市三重區重新路五段416號","121.47552","25.0476016666667","6500200","三重區"
"235026","800-TS","2018/05/29 16:19:43","新北市中和區建八路130號","121.488951666667","24.9985216666667","6500300","中和區"
"224007","275-VK","2018/05/29 16:19:35","新北市瑞芳區大埔路172-3號","121.76229","25.1020033333333","6501200","瑞芳區"
"224005","271-BY","2018/05/29 16:19:28","新北市瑞芳區連福新城30號","121.820373333333","25.1190783333333","6501200","瑞芳區"
"227003","400-TW","2018/05/29 16:19:37","新北市雙溪區上林里內平林80號","121.828321666667","25.0279566666667","6502500","雙溪區"
"227009","030-BX","2018/05/29 16:19:41","新北市雙溪區三港里雙澳路80號","121.883803333333","25.0538783333333","6502500","雙溪區"
"251008","181-VK","2018/05/29 16:19:28","新北市淡水區中正東路二段48巷20號","121.45743","25.158435","6501000","淡水區"
"220025","687-BX","2018/05/29 16:19:35","新北市板橋區華東街1-9號","121.448125","24.9949183333333","6500100","板橋區"
