"lineid","car","time","location","longitude","latitude","cityid","cityname"
"249005","172-UM","2018/05/29 17:19:30","新北市五股區民義路二段132號","121.409216666667","25.12133","6502300","八里區"
"249001","173-UM","2018/05/29 17:19:26","新北市八里區中華路二段165巷3號","121.407615","25.1509016666667","6502300","八里區"
"249004","303-UY","2018/05/29 17:19:41","新北市八里區中山路一段45號","121.41914","25.15947","6502300","八里區"
"249002","305-UY","2018/05/29 17:19:47","新北市八里區龍米路二段117巷20號","121.445068333333","25.1428983333333","6502300","八里區"
"249003","593-UM","2018/05/29 17:19:38","新北市八里區商港路48號","121.396028333333","25.1452583333333","6502300","八里區"
"244013","069-UM","2018/05/29 17:19:46","新北市林口區粉寮69號","121.405093333333","25.0908533333333","6501700","林口區"
"244007","080-UY","2018/05/29 17:19:37","新北市林口區中華路96號","121.384905","25.0904566666667","6501700","林口區"
"244019","403-UM","2018/05/29 17:19:28","新北市林口區公園路223巷13號","121.373293333333","25.07468","6501700","林口區"
"244023","483-VK","2018/05/29 17:19:36","新北市林口區興林路2號","121.389376666667","25.0766033333333","6501700","林口區"
"244011","657-BX","2018/05/29 17:19:36","新北市林口區粉寮路一段139號","121.3991","25.0812966666667","6501700","林口區"
"244021","838-TS","2018/05/29 17:19:42","新北市林口區粉寮路二段350號","121.404671666667","25.09778","6501700","林口區"
"231046","188-VK","2018/05/29 17:19:46","新北市新店區直潭路92號","121.530928333333","24.9375983333333","6500600","新店區"
"241011","013-R5","2018/05/29 17:19:45","新北市三重區介壽路39巷168號","121.502015","25.0709","6500200","三重區"
"241028","022-UY","2018/05/29 17:19:39","新北市三重區仁化商場11號","121.493616666667","25.0593","6500200","三重區"
"241008","059-VK","2018/05/29 17:19:42","新北市三重區永福街72巷37號","121.480195","25.0763566666667","6500200","三重區"
"241015","062-VK","2018/05/29 17:19:35","新北市三重區福德北路82號","121.501781666667","25.06632","6500200","三重區"
"241017","063-VK","2018/05/29 17:19:45","新北市三重區大同北路44巷3號","121.495001666667","25.0630733333333","6500200","三重區"
"241024","065-VK","2018/05/29 17:19:37","新北市三重區中正北路193巷21弄38號","121.478361666667","25.0709516666667","6500200","三重區"
"241026","066-VK","2018/05/29 17:19:26","新北市三重區福裕街36-4號","121.498905","25.0615266666667","6500200","三重區"
"241002","090-VK","2018/05/29 17:19:29","新北市三重區自強路五段58號","121.493711666667","25.0813016666667","6500200","三重區"
"241003","091-VK","2018/05/29 17:19:42","新北市三重區富福街47號","121.491596666667","25.08425","6500200","三重區"
"241022","742-BX","2018/05/29 17:19:27","新北市三重區中正北路112號","121.485956666667","25.06508","6500200","三重區"
"241005","262-UM","2018/05/29 17:19:41","新北市三重區永安北路二段43巷22號","121.483038333333","25.082775","6500200","三重區"
"241009","265-UM","2018/05/29 17:19:36","新北市三重區仁愛街604號","121.483918333333","25.0807633333333","6500200","三重區"
"241016","266-UM","2018/05/29 17:19:38","新北市三重區大同北路54巷1號","121.49421","25.063565","6500200","三重區"
"241018","268-UM","2018/05/29 17:19:33","新北市三重區安慶街203-1號","121.492735","25.068315","6500200","三重區"
"241032","269-UM","2018/05/29 17:19:40","新北市三重區中華路2巷31弄10號","121.482135","25.0608066666667","6500200","三重區"
"241013","270-UM","2018/05/29 17:19:34","新北市三重區仁愛街82巷3號","121.49524","25.073555","6500200","三重區"
"241025","271-UM","2018/05/29 17:19:27","新北市三重區中正北路253號","121.47535","25.0707083333333","6500200","三重區"
"241007","398-BY","2018/05/29 17:19:38","新北市三重區慈愛街9號","121.485083333333","25.07864","6500200","三重區"
"241004","475-VK","2018/05/29 17:19:30","新北市三重區五華街91-1號","121.491855","25.0834516666667","6500200","三重區"
"241020","478-VK","2018/05/29 17:19:40","新北市三重區自強路三段7巷24號","121.487891666667","25.0721733333333","6500200","三重區"
"241030","480-VK","2018/05/29 17:19:42","新北市三重區成功路73巷20號","121.489431666667","25.0520166666667","6500200","三重區"
"241014","543-UM","2018/05/29 17:19:34","新北市三重區長榮路6號","121.50015","25.0685216666667","6500200","三重區"
"241023","545-UM","2018/05/29 17:19:40","新北市三重區三民街166號","121.482185","25.065555","6500200","三重區"
"241001","547-UM","2018/05/29 17:19:30","新北市三重區仁愛街403號","121.491018333333","25.08093","6500200","三重區"
"241019","KEA-2593","2018/05/29 17:19:39","新北市三重區忠孝路二段2號","121.487356666667","25.0713666666667","6500200","三重區"
"241006","AAD-863","2018/05/29 17:19:34","新北市三重區車路頭街135-1號","121.484246666667","25.076175","6500200","三重區"
"241012","941-UM","2018/05/29 17:19:35","新北市三重區仁昌街112號","121.500345","25.075315","6500200","三重區"
"241033","AAC-255","2018/05/29 17:19:37","新北市三重區中興北街191號","121.469088333333","25.05646","6500200","三重區"
"247024","893-R6","2018/05/29 17:19:38","新北市蘆洲區光榮路2號","121.460221666667","25.08634","6501400","蘆洲區"
"247014","546-UM","2018/05/29 17:19:33","新北市蘆洲區中正路83號","121.470116666667","25.0836233333333","6501400","蘆洲區"
"247022","500-BY","2018/05/29 17:19:44","新北市蘆洲區三民路128巷66號","121.470215","25.0892283333333","6501400","蘆洲區"
"247010","341-TH","2018/05/29 17:19:33","新北市蘆洲區三民路26巷13號","121.476728333333","25.082885","6501400","蘆洲區"
"247012","339-TH","2018/05/29 17:19:44","新北市蘆洲區信義路319巷6號","121.477898333333","25.0862516666667","6501400","蘆洲區"
"247004","337-TH","2018/05/29 17:19:37","新北市蘆洲區永安南路二段280號","121.457998333333","25.081065","6501400","蘆洲區"
"247006","336-TH","2018/05/29 17:19:36","新北市蘆洲區長安街49巷13號","121.462791666667","25.0789283333333","6501400","蘆洲區"
"247018","057-VK","2018/05/29 17:19:43","新北市蘆洲區民權路78號","121.474836666667","25.0875983333333","6501400","蘆洲區"
"247016","007-UY","2018/05/29 17:19:28","新北市蘆洲區正和街101號","121.467806666667","25.0804566666667","6501400","蘆洲區"
"247002","002-UY","2018/05/29 17:19:28","新北市蘆洲區永樂街38巷33弄31號","121.456836666667","25.08976","6501400","蘆洲區"
"247020","001-UY","2018/05/29 17:19:45","新北市蘆洲區仁愛街25號","121.472281666667","25.09271","6501400","蘆洲區"
"228001","212-TW","2018/05/29 17:19:30","新北市貢寮區仁理村尖山腳街18-3號","121.925481666667","25.048335","6502600","貢寮區"
"228002","663-BX","2018/05/29 17:19:36","新北市貢寮區雙玉里下雙溪街26號","121.923576666667","25.0099283333333","6502600","貢寮區"
"228003","828-UM","2018/05/29 17:19:27","新北市貢寮區福隆里興隆街38號","121.939855","25.0183066666667","6502600","貢寮區"
"224006","676-BX","2018/05/29 17:19:45","新北市瑞芳區傑魚坑路245巷2號","121.788343333333","25.10643","6501200","瑞芳區"
"224008","285-BY","2018/05/29 17:19:46","新北市瑞芳區侯硐路298號","121.831401666667","25.0897033333333","6501200","瑞芳區"
"224009","273-VK","2018/05/29 17:19:36","新北市瑞芳區汽車路21-4號","121.84523","25.11061","6501200","瑞芳區"
"224005","271-BY","2018/05/29 17:19:48","新北市瑞芳區鼻頭路247號","121.910446666667","25.1225383333333","6501200","瑞芳區"
"227003","400-TW","2018/05/29 17:19:37","新北市雙溪區上林里內平林90號","121.827603333333","25.02751","6502500","雙溪區"
"227009","030-BX","2018/05/29 17:19:41","新北市雙溪區三貂里定福路1-2號","121.850748333333","25.06406","6502500","雙溪區"
"251004","009-UM","2018/05/29 17:19:39","新北市淡水區中正東路二段48巷20號","121.457411666667","25.158395","6501000","淡水區"
"251005","010-UM","2018/05/29 17:19:39","新北市淡水區鄧公路19號","121.451528333333","25.1699433333333","6501000","淡水區"
"251001","011-UM","2018/05/29 17:19:37","新北市淡水區中正東路二段129號","121.459538333333","25.1486","6501000","淡水區"
"251002","012-UM","2018/05/29 17:19:38","新北市淡水區中正路二段31號","121.419401666667","25.1815583333333","6501000","淡水區"
"251013","KEA-2871","2018/05/29 17:19:37","新北市淡水區大竹圍2號","121.468703333333","25.1951283333333","6501000","淡水區"
"251016","179-VK","2018/05/29 17:19:37","新北市淡水區鄒厝崙12-1號","121.466243333333","25.1898433333333","6501000","淡水區"
"251014","180-VK","2018/05/29 17:19:31","新北市淡水區番子田120-1號","121.464361666667","25.2281166666667","6501000","淡水區"
"251008","181-VK","2018/05/29 17:19:28","新北市淡水區大同路257號","121.466538333333","25.1422516666667","6501000","淡水區"
"251015","182-VK","2018/05/29 17:19:42","新北市淡水區三空泉21號","121.469156666667","25.16662","6501000","淡水區"
"251010","413-VK","2018/05/29 17:19:29","新北市淡水區中正路二段206號","121.426265","25.1890766666667","6501000","淡水區"
"251007","442-VK","2018/05/29 17:19:36","新北市淡水區民生路47-5號","121.462183333333","25.1380133333333","6501000","淡水區"
"251012","443-VK","2018/05/29 17:19:36","新北市淡水區中山北路一段158號","121.444216666667","25.177935","6501000","淡水區"
"251006","561-UM","2018/05/29 17:19:39","新北市淡水區中山路189號","121.4412","25.1744866666667","6501000","淡水區"
"251009","575-R6","2018/05/29 17:19:39","新北市淡水區三民街19號","121.439006666667","25.1718966666667","6501000","淡水區"
"251011","650-BX","2018/05/29 17:19:31","新北市淡水區坪頂路111號","121.464648333333","25.1615383333333","6501000","淡水區"
"251003","673-BX","2018/05/29 17:19:36","新北市淡水區中正路二段31號","121.419483333333","25.18151","6501000","淡水區"
"207003","550-UM","2018/05/29 17:19:28","新北市萬里區萬里里瑪鋉路340號","121.687726666667","25.1831683333333","6502800","萬里區"
"252002","178-VK","2018/05/29 17:19:34","新北市三芝區忠孝街1-14號","121.505463333333","25.2539383333333","6502100","三芝區"
"252001","292-VK","2018/05/29 17:19:43","新北市三芝區長安街119號","121.498066666667","25.259675","6502100","三芝區"
"242034","AAC-296","2018/05/29 17:19:30","新北市新莊區中正路471號","121.442011666667","25.0337083333333","6500500","新莊區"
"242058","986-R7","2018/05/29 17:19:35","新北市新莊區新泰路255巷83號","121.442198333333","25.03911","6500500","新莊區"
"242054","751-BX","2018/05/29 17:19:46","新北市新莊區環河路636-1號","121.436665","25.010785","6500500","新莊區"
"242027","615-BX","2018/05/29 17:19:42","新北市新莊區中港一街161號","121.447233333333","25.0450133333333","6500500","新莊區"
"242025","613-BX","2018/05/29 17:19:41","新北市新莊區中平路82巷36-2號","121.446491666667","25.0449216666667","6500500","新莊區"
"242029","612-BX","2018/05/29 17:19:29","新北市新莊區中港路390號","121.452396666667","25.0494066666667","6500500","新莊區"
"242042","566-BX","2018/05/29 17:19:45","新北市新莊區中正路481號","121.441326666667","25.0337933333333","6500500","新莊區"
"242046","442-UM","2018/05/29 17:19:41","新北市新莊區新樹路65-5號","121.43947","25.03085","6500500","新莊區"
"242056","440-UM","2018/05/29 17:19:31","新北市新莊區新莊路771巷10號","121.442116666667","25.0318616666667","6500500","新莊區"
"242037","415-TV","2018/05/29 17:17:10","新北市新莊區新樹路7號","121.440793333333","25.033115","6500500","新莊區"
"242007","413-TV","2018/05/29 17:19:33","新北市新莊區新泰路500號","121.44244","25.0462016666667","6500500","新莊區"
"242044","400-BY","2018/05/29 17:19:31","新北市新莊區中正路471號","121.441788333333","25.0338683333333","6500500","新莊區"
"242023","362-BY","2018/05/29 17:19:34","新北市新莊區中平路82巷29號","121.44612","25.0450433333333","6500500","新莊區"
"242061","353-BY","2018/05/29 17:19:41","新北市新莊區中正路471號","121.442018333333","25.03334","6500500","新莊區"
"242009","132-UY","2018/05/29 17:19:44","新北市新莊區新泰路502巷56號","121.444501666667","25.0462683333333","6500500","新莊區"
"242039","133-UY","2018/05/29 17:19:43","新北市新莊區新樹路207-1號","121.435886666667","25.024025","6500500","新莊區"
"242032","135-UY","2018/05/29 17:19:30","新北市新莊區三和路12-9號","121.442171666667","25.0366433333333","6500500","新莊區"
"242048","172-VK","2018/05/29 17:19:28","新北市新莊區龍安路249巷1號","121.418915","25.0205566666667","6500500","新莊區"
"242017","175-VK","2018/05/29 17:19:40","新北市新莊區中平路82巷24號","121.445811666667","25.0448733333333","6500500","新莊區"
"242005","176-VK","2018/05/29 17:19:41","新北市新莊區新泰路500號","121.442461666667","25.0461216666667","6500500","新莊區"
"242015","346-TH","2018/05/29 17:19:35","新北市新莊區公園一路109號","121.444933333333","25.03804","6500500","新莊區"
"242021","348-TH","2018/05/29 17:19:38","新北市新莊區新豐街65號","121.446338333333","25.0334983333333","6500500","新莊區"
"242019","350-TH","2018/05/29 17:19:37","新北市新莊區新泰路500號","121.442508333333","25.0462616666667","6500500","新莊區"
"242013","351-TH","2018/05/29 17:19:35","新北市新莊區三和路12-11號","121.442168333333","25.0369466666667","6500500","新莊區"
"238019","599-UM","2018/05/29 17:19:31","新北市樹林區八德街251巷9號","121.42226","24.9786566666667","6500700","樹林區"
"238018","571-TV","2018/05/29 17:19:41","新北市樹林區樹中街61巷25號","121.42206","24.98534","6500700","樹林區"
"238024","5061-A6","2018/05/29 17:19:36","新北市樹林區樹新路79巷11號","121.427091666667","24.99561","6500700","樹林區"
"238022","KEA-2213","2018/05/29 17:19:46","新北市樹林區仁愛街73巷1號","121.423548333333","24.982775","6500700","樹林區"
"238021","KEA-2539","2018/05/29 17:19:34","新北市樹林區西圳街一段155號","121.396468333333","24.9629833333333","6500700","樹林區"
"238017","283-BY","2018/05/29 17:19:30","新北市樹林區保安街二段61號","121.416058333333","25.0004816666667","6500700","樹林區"
"238014","282-BY","2018/05/29 17:19:37","新北市樹林區長壽街70巷9號","121.421741666667","24.994555","6500700","樹林區"
"238020","268-VK","2018/05/29 17:19:44","新北市樹林區潭興街105號","121.425023333333","24.998995","6500700","樹林區"
"238026","172-UY","2018/05/29 17:19:38","新北市樹林區東大街170號","121.409206666667","24.975665","6500700","樹林區"
"238016","169-UY","2018/05/29 17:19:43","新北市樹林區中山路二段10號","121.417628333333","24.9850983333333","6500700","樹林區"
"239006","891-R6","2018/05/29 17:19:42","新北市鶯歌區鶯桃路301號","121.33366","24.9606966666667","6500800","鶯歌區"
"239008","527-UM","2018/05/29 17:19:34","新北市鶯歌區西湖街249號","121.339438333333","24.967685","6500800","鶯歌區"
"239005","526-UM","2018/05/29 17:19:47","新北市鶯歌區鶯桃路561號","121.33018","24.9683633333333","6500800","鶯歌區"
"239001","417-VK","2018/05/29 17:19:43","新北市鶯歌區尖山路216號","121.34353","24.9469316666667","6500800","鶯歌區"
"239003","360-BY","2018/05/29 17:19:41","新北市鶯歌區德昌二街70巷34弄2號","121.331835","24.9580516666667","6500800","鶯歌區"
"239002","359-BY","2018/05/29 17:19:45","新北市鶯歌區國慶街82號","121.350115","24.95452","6500800","鶯歌區"
"239004","193-VK","2018/05/29 17:19:31","新北市鶯歌區文化路322號","121.352285","24.94677","6500800","鶯歌區"
"242002","KEA-2550","2018/05/29 17:19:41","新北市新莊區新泰路240號","121.446385","25.0394266666667","6500500","新莊區"
"242051","281-VK","2018/05/29 17:19:30","新北市新莊區瓊林北路55號","121.438795","25.0207683333333","6500500","新莊區"
"235061","KEA-2875","2018/05/29 17:13:18","新北市中和區員山路36巷16-2號","121.485351666667","24.9916883333333","6500300","中和區"
