"lineid","car","time","location","longitude","latitude","cityid","cityname"
"234042","862-TW","2018/05/29 17:49:30","新北市永和區福和路1號","121.526445","25.0096766666667","6500400","永和區"
"234026","9371-KE","2018/05/29 17:49:42","新北市永和區中山路一段23號","121.513675","25.0104816666667","6500400","永和區"
"249005","172-UM","2018/05/29 17:49:29","新北市八里區荖阡坑路34-1號","121.40275","25.1296933333333","6502300","八里區"
"249001","173-UM","2018/05/29 17:49:46","新北市八里區龍米路二段125巷25號","121.445946666667","25.1465266666667","6502300","八里區"
"249004","303-UY","2018/05/29 17:49:41","新北市八里區中華路一段81巷18號","121.419571666667","25.1555583333333","6502300","八里區"
"249002","305-UY","2018/05/29 17:49:47","新北市八里區龍形五街35-1號","121.449126666667","25.1327466666667","6502300","八里區"
"249003","593-UM","2018/05/29 17:49:38","新北市八里區中山路二段123號","121.405498333333","25.1518666666667","6502300","八里區"
"248008","095-VK","2018/05/29 17:49:27","新北市五股區中興路二段37巷28號","121.460328333333","25.0748516666667","6501500","五股區"
"232011","375-UM","2018/05/29 17:49:38","新北市坪林區北宜路八段28號","121.703246666667","24.9360933333333","6502000","坪林區"
"244013","069-UM","2018/05/29 17:49:46","新北市林口區中正路432號","121.384035","25.0777616666667","6501700","林口區"
"244007","080-UY","2018/05/29 17:49:37","新北市林口區林口路197號","121.387525","25.08259","6501700","林口區"
"244019","403-UM","2018/05/29 17:49:28","新北市林口區文化一路一段89-5號","121.371948333333","25.0703733333333","6501700","林口區"
"244009","410-SL","2018/05/29 17:49:32","新北市林口區民享路160號","121.381973333333","25.0831866666667","6501700","林口區"
"244023","483-VK","2018/05/29 17:49:36","新北市林口區東湖一街1號","121.387451666667","25.07323","6501700","林口區"
"244011","657-BX","2018/05/29 17:49:36","新北市林口區佳林路229號","121.383558333333","25.076505","6501700","林口區"
"244025","837-TS","2018/05/29 17:49:32","新北市林口區文化三路一段125號","121.361476666667","25.06903","6501700","林口區"
"244021","838-TS","2018/05/29 17:49:42","新北市林口區仁愛路一段139巷31號","121.397326666667","25.0712016666667","6501700","林口區"
"222003","436-BY","2018/05/29 17:49:43","新北市深坑區阿柔洋60-1號","121.608575","24.9984866666667","6501800","深坑區"
"222002","659-BX","2018/05/29 17:49:25","新北市深坑區平埔街22巷17弄1號","121.61489","25.0008916666667","6501800","深坑區"
"231046","188-VK","2018/05/29 17:49:26","新北市新店區康雅崙路31號","121.537491666667","24.9260283333333","6500600","新店區"
"241024","065-VK","2018/05/29 17:49:37","新北市三重區車路頭街62巷39號","121.483233333333","25.072425","6500200","三重區"
"241016","266-UM","2018/05/29 17:49:38","新北市三重區新北大道一段7號","121.489833333333","25.0614666666667","6500200","三重區"
"241006","AAD-863","2018/05/29 17:49:33","新北市三重區車路頭街139巷14號","121.484283333333","25.0762133333333","6500200","三重區"
"241033","AAC-255","2018/05/29 17:49:37","新北市三重區光復路一段7號","121.472043333333","25.0470583333333","6500200","三重區"
"235064","005-UY","2018/05/29 17:49:28","新北市中和區員山路36巷16-3號","121.48513","24.9913","6500300","中和區"
"235063","006-UY","2018/05/29 17:49:43","新北市中和區員山路36巷16-3號","121.485126666667","24.9912233333333","6500300","中和區"
"235058","151-BY","2018/05/29 17:49:31","新北市中和區員山路36巷16-2號","121.485218333333","24.9915866666667","6500300","中和區"
"235067","255-BX","2018/05/29 17:41:26","新北市中和區和城路一段271巷1號","121.485775","24.99184","6500300","中和區"
"235046","733-UM","2018/05/29 17:49:39","新北市中和區員山路36巷13號","121.484138333333","24.9908283333333","6500300","中和區"
"247024","893-R6","2018/05/29 17:49:39","新北市蘆洲區光榮路61巷23號","121.46095","25.0892233333333","6501400","蘆洲區"
"247014","546-UM","2018/05/29 17:49:33","新北市蘆洲區保和街69巷16號","121.469555","25.0853633333333","6501400","蘆洲區"
"247022","500-BY","2018/05/29 17:49:44","新北市蘆洲區中正路377號","121.464598333333","25.09077","6501400","蘆洲區"
"247010","341-TH","2018/05/29 17:49:33","新北市蘆洲區信義路273號","121.478896666667","25.0850483333333","6501400","蘆洲區"
"247012","339-TH","2018/05/29 17:49:44","新北市蘆洲區復興路60巷1弄5號","121.474926666667","25.0861783333333","6501400","蘆洲區"
"247004","337-TH","2018/05/29 17:49:37","新北市蘆洲區永安南路二段350號","121.456368333333","25.0828633333333","6501400","蘆洲區"
"247006","336-TH","2018/05/29 17:49:36","新北市蘆洲區九芎街90巷8號","121.465666666667","25.0802283333333","6501400","蘆洲區"
"247018","057-VK","2018/05/29 17:48:43","新北市蘆洲區復興路227巷2弄3號","121.48014","25.090165","6501400","蘆洲區"
"247002","002-UY","2018/05/29 17:49:27","新北市蘆洲區永平街32巷21弄31號","121.458056666667","25.0921866666667","6501400","蘆洲區"
"247020","001-UY","2018/05/29 17:49:45","新北市蘆洲區民義街71巷1號","121.472956666667","25.090265","6501400","蘆洲區"
"228001","212-TW","2018/05/29 17:49:36","新北市貢寮區仁理村仁愛路95-1號","121.927675","25.05543","6502600","貢寮區"
"228002","663-BX","2018/05/29 17:49:36","新北市貢寮區福隆里龜壽谷街11-1號","121.954825","25.0067916666667","6502600","貢寮區"
"228003","828-UM","2018/05/29 17:49:27","新北市貢寮區真理里美艷山街6-2號","121.928868333333","25.06073","6502600","貢寮區"
"224010","AGQ-8101","2018/05/29 17:49:32","新北市瑞芳區濱二路31號","121.834815","25.1110683333333","6501200","瑞芳區"
"224006","676-BX","2018/05/29 17:49:45","新北市瑞芳區傑魚坑路183號","121.788426666667","25.1082666666667","6501200","瑞芳區"
"224008","285-BY","2018/05/29 17:49:39","新北市瑞芳區明燈路一段29號","121.822658333333","25.107335","6501200","瑞芳區"
"224009","273-VK","2018/05/29 17:49:35","新北市瑞芳區金光路255號","121.85004","25.10774","6501200","瑞芳區"
"224005","271-BY","2018/05/29 17:49:48","新北市瑞芳區豎崎路32-5號","121.823796666667","25.1210133333333","6501200","瑞芳區"
"227009","030-BX","2018/05/29 17:49:40","新北市雙溪區三貂里定福路1-2號","121.850751666667","25.0634133333333","6502500","雙溪區"
"253006","295-VK","2018/05/29 17:49:28","新北市石門區中央路6號","121.566588333333","25.2913633333333","6502200","石門區"
"222001","KEA-2212","2018/05/29 17:49:34","新北市深坑區北深路三段25巷15-2號","121.608706666667","24.99968","6501800","深坑區"
"208003","665-BX","2018/05/29 17:49:36","新北市金山區磺清路135號","121.639471666667","25.2278016666667","6502700","金山區"
"251004","009-UM","2018/05/29 17:49:39","新北市淡水區民權一街17巷15號","121.45941","25.1366916666667","6501000","淡水區"
"251005","010-UM","2018/05/29 17:49:39","新北市淡水區學府路102巷6號","121.450478333333","25.17185","6501000","淡水區"
"251001","011-UM","2018/05/29 17:49:37","新北市淡水區民權路92巷35-1號","121.462093333333","25.12669","6501000","淡水區"
"251002","012-UM","2018/05/29 17:49:38","新北市淡水區中山路27號","121.444083333333","25.1700866666667","6501000","淡水區"
"251013","KEA-2871","2018/05/29 17:49:37","新北市淡水區泉洲厝31號","121.479598333333","25.191075","6501000","淡水區"
"251016","179-VK","2018/05/29 17:49:37","新北市淡水區埤島39-15號","121.452788333333","25.19586","6501000","淡水區"
"251014","180-VK","2018/05/29 17:49:31","新北市淡水區公埔子16-6號","121.480958333333","25.22455","6501000","淡水區"
"251008","181-VK","2018/05/29 17:49:28","新北市淡水區八勢路一段118號","121.466943333333","25.1566566666667","6501000","淡水區"
"251015","182-VK","2018/05/29 17:48:42","新北市淡水區興福寮66巷267號","121.486656666667","25.1621566666667","6501000","淡水區"
"251010","413-VK","2018/05/29 17:49:29","新北市淡水區中正路一段87巷13弄1號","121.42083","25.17859","6501000","淡水區"
"251007","442-VK","2018/05/29 17:49:36","新北市淡水區民生路16巷1號","121.460956666667","25.137585","6501000","淡水區"
"251012","443-VK","2018/05/29 17:49:36","新北市淡水區北新路一段3-1號","121.475246666667","25.184925","6501000","淡水區"
"251006","561-UM","2018/05/29 17:49:47","新北市淡水區中山北路一段45巷12號","121.441113333333","25.1757633333333","6501000","淡水區"
"251009","575-R6","2018/05/29 17:49:39","新北市淡水區長興街65號","121.444343333333","25.1721933333333","6501000","淡水區"
"251011","650-BX","2018/05/29 17:49:31","新北市淡水區吳(仔)厝38號","121.479503333333","25.1496266666667","6501000","淡水區"
"251003","673-BX","2018/05/29 17:49:36","新北市淡水區大忠街5巷1號","121.443056666667","25.1763566666667","6501000","淡水區"
"207003","550-UM","2018/05/29 17:49:28","新北市萬里區野柳里東澳路66號","121.692678333333","25.200935","6502800","萬里區"
"207004","225-TW","2018/05/29 17:49:28","新北市萬里區萬里里瑪鋉頂街61號","121.688355","25.1804633333333","6502800","萬里區"
"252002","178-VK","2018/05/29 17:49:34","新北市三芝區中山路一段88巷15號","121.502948333333","25.2566883333333","6502100","三芝區"
"252001","292-VK","2018/05/29 17:49:43","新北市三芝區中興街一段37號","121.497645","25.2578416666667","6502100","三芝區"
"237004","KEA-2597","2018/05/29 17:49:32","新北市三峽區中山路146號","121.364945","24.9363016666667","6500900","三峽區"
"237011","572-TV","2018/05/29 17:49:31","新北市三峽區光明路48號","121.374571666667","24.92969","6500900","三峽區"
"237009","210-TH","2018/05/29 17:49:46","新北市三峽區大勇路3巷41號","121.367441666667","24.9367533333333","6500900","三峽區"
"237013","252-BX","2018/05/29 17:49:38","新北市三峽區愛國路38號","121.374605","24.9328633333333","6500900","三峽區"
"237012","275-BY","2018/05/29 17:49:40","新北市三峽區民生街98號","121.373986666667","24.935595","6500900","三峽區"
"237006","5529-G3","2018/05/29 17:49:37","新北市三峽區介壽路二段34-2號","121.391276666667","24.9352033333333","6500900","三峽區"
"237016","649-BX","2018/05/29 17:49:30","新北市三峽區白雞149-2號","121.399858333333","24.9051233333333","6500900","三峽區"
"237010","706-TV","2018/05/29 17:49:37","新北市三峽區文化路185號","121.366975","24.935735","6500900","三峽區"
"237005","AKY-6261","2018/05/29 17:49:42","新北市三峽區中山路236號","121.36249","24.9374016666667","6500900","三峽區"
"236070","105-UM","2018/05/29 17:49:37","新北市土城區青雲路368號","121.458718333333","24.973825","6501300","土城區"
"236042","107-UM","2018/05/29 17:49:42","新北市土城區城林路6巷80號","121.438478333333","24.9797766666667","6501300","土城區"
"236079","166-UM","2018/05/29 17:49:29","新北市土城區中華路二段2號","121.439366666667","24.9795883333333","6501300","土城區"
"236030","253-BX","2018/05/29 17:49:34","新北市土城區城林路6巷80號","121.438676666667","24.9797","6501300","土城區"
"236014","270-VK","2018/05/29 17:49:42","新北市土城區城林路6巷80號","121.438456666667","24.9796183333333","6501300","土城區"
"236038","271-VK","2018/05/29 17:49:37","新北市土城區城林路6巷80號","121.438406666667","24.9797766666667","6501300","土城區"
"236021","401-BY","2018/05/29 17:49:43","新北市土城區城林路6巷80號","121.438521666667","24.9797983333333","6501300","土城區"
"236059","912-UM","2018/05/29 17:49:32","新北市土城區中華路二段2號","121.439338333333","24.9796416666667","6501300","土城區"
"236063","915-UM","2018/05/29 17:49:35","新北市土城區城林路6巷80號","121.438541666667","24.9796133333333","6501300","土城區"
"236055","AAC-216","2018/05/29 17:49:41","新北市土城區城林路6巷80號","121.438551666667","24.9796116666667","6501300","土城區"
"242034","AAC-296","2018/05/29 17:49:30","新北市新莊區新莊路692號","121.44062","25.0328566666667","6500500","新莊區"
"242058","986-R7","2018/05/29 17:49:35","新北市新莊區中正路730-5號","121.414765","25.0236266666667","6500500","新莊區"
"242054","751-BX","2018/05/29 17:49:46","新北市新莊區新樹路583號","121.432851666667","25.006885","6500500","新莊區"
"242027","615-BX","2018/05/29 17:49:42","新北市新莊區福壽街171號","121.458036666667","25.0538133333333","6500500","新莊區"
"242025","613-BX","2018/05/29 17:49:41","新北市三重區新北大道二段37號","121.470893333333","25.061345","6500500","新莊區"
"242029","612-BX","2018/05/29 17:49:29","新北市新莊區復興路一段8號","121.445665","25.0414316666667","6500500","新莊區"
"242042","566-BX","2018/05/29 17:49:45","新北市泰山區新北大道六段371號","121.422265","25.0328483333333","6500500","新莊區"
"242046","442-UM","2018/05/29 17:49:41","新北市新莊區福營路127號","121.432975","25.0316683333333","6500500","新莊區"
"242056","440-UM","2018/05/29 17:49:31","新北市新莊區瓊林路40巷29號","121.446611666667","25.03017","6500500","新莊區"
"242037","415-TV","2018/05/29 17:49:39","新北市新莊區建福路71號","121.426895","25.02683","6500500","新莊區"
"242007","413-TV","2018/05/29 17:49:33","新北市新莊區福樂街122號","121.45698","25.04784","6500500","新莊區"
"242044","400-BY","2018/05/29 17:49:31","新北市新莊區富國路55號","121.419486666667","25.026115","6500500","新莊區"
"242023","362-BY","2018/05/29 17:49:46","新北市新莊區福樂街102號","121.457598333333","25.0476283333333","6500500","新莊區"
"242061","353-BY","2018/05/29 17:49:41","新北市新莊區新樹路601號","121.433195","25.00587","6500500","新莊區"
"242009","132-UY","2018/05/29 17:49:45","新北市新莊區昌明街40-1號","121.456445","25.0524416666667","6500500","新莊區"
"242039","133-UY","2018/05/29 17:49:43","新北市新莊區民安路160號","121.424698333333","25.0245083333333","6500500","新莊區"
"242032","135-UY","2018/05/29 17:49:30","新北市新莊區新泰路357巷3弄45號","121.44229","25.040155","6500500","新莊區"
"242048","172-VK","2018/05/29 17:49:28","新北市新莊區萬安街60巷3號","121.420686666667","25.0235633333333","6500500","新莊區"
"242011","173-VK","2018/05/29 17:46:43","新北市新莊區中港路671號","121.450798333333","25.055965","6500500","新莊區"
"242017","175-VK","2018/05/29 17:49:40","新北市新莊區永安街25號","121.451943333333","25.0447833333333","6500500","新莊區"
"242005","176-VK","2018/05/29 17:49:41","新北市新莊區自立街247號","121.458646666667","25.0455366666667","6500500","新莊區"
"242015","346-TH","2018/05/29 17:49:35","新北市新莊區新泰路421-2號","121.442915","25.0451","6500500","新莊區"
"242021","348-TH","2018/05/29 17:49:38","新北市新莊區中港路143號","121.455086666667","25.0407133333333","6500500","新莊區"
"242019","350-TH","2018/05/29 17:49:37","新北市新莊區新央街48號","121.45646","25.0400766666667","6500500","新莊區"
"242013","351-TH","2018/05/29 17:49:35","新北市新莊區中誠街168號","121.448111666667","25.0474016666667","6500500","新莊區"
"238015","755-BX","2018/05/29 17:49:37","新北市樹林區長壽街25巷18號","121.420235","24.9946216666667","6500700","樹林區"
"238023","601-UM","2018/05/29 17:49:37","新北市樹林區龍興街16號","121.402745","25.01637","6500700","樹林區"
"238019","599-UM","2018/05/29 17:49:37","新北市樹林區太平路108號","121.418485","24.9788316666667","6500700","樹林區"
"238018","571-TV","2018/05/29 17:49:41","新北市樹林區博愛街114號","121.426621666667","24.9915583333333","6500700","樹林區"
"238022","KEA-2213","2018/05/29 17:49:46","新北市樹林區太順街62巷1弄2號","121.417711666667","24.979495","6500700","樹林區"
"238021","KEA-2539","2018/05/29 17:49:33","新北市樹林區柑園街一段36號","121.405395","24.9615266666667","6500700","樹林區"
"238025","303-VK","2018/05/29 17:49:29","新北市樹林區三俊街43號","121.412551666667","25.01563","6500700","樹林區"
"238017","283-BY","2018/05/29 17:49:32","新北市樹林區俊德街58號","121.415245","25.0132183333333","6500700","樹林區"
"238014","282-BY","2018/05/29 17:49:37","新北市樹林區保安街一段195號","121.420783333333","24.99603","6500700","樹林區"
"238020","268-VK","2018/05/29 17:49:44","新北市樹林區三俊街213-1號","121.420863333333","25.0152116666667","6500700","樹林區"
"238026","172-UY","2018/05/29 17:49:38","新北市樹林區新興街19巷34弄14號","121.402001666667","24.9730133333333","6500700","樹林區"
"238016","169-UY","2018/05/29 17:49:43","新北市樹林區復興路288號","121.417578333333","24.9876633333333","6500700","樹林區"
"239007","AAC-297","2018/05/29 17:25:31","新北市鶯歌區中山路164號","121.349041666667","24.957035","6500800","鶯歌區"
"239006","891-R6","2018/05/29 17:49:42","新北市鶯歌區鶯桃路438號","121.333125","24.96482","6500800","鶯歌區"
"239008","527-UM","2018/05/29 17:49:34","新北市鶯歌區香賓街7巷2號","121.336611666667","24.9791516666667","6500800","鶯歌區"
"239005","526-UM","2018/05/29 17:49:27","新北市鶯歌區鳳吉五街9號","121.326688333333","24.9723033333333","6500800","鶯歌區"
"239001","417-VK","2018/05/29 17:49:43","新北市鶯歌區中正三路422號","121.324443333333","24.9346316666667","6500800","鶯歌區"
"239003","360-BY","2018/05/29 17:49:41","新北市鶯歌區鶯桃路295巷26號","121.334326666667","24.9594716666667","6500800","鶯歌區"
"239002","359-BY","2018/05/29 17:49:45","新北市鶯歌區國華路71-1號","121.342875","24.9545916666667","6500800","鶯歌區"
"239004","193-VK","2018/05/29 17:49:31","新北市鶯歌區尖山路101巷13-1號","121.346768333333","24.942595","6500800","鶯歌區"
"221008","489-VK","2018/05/29 17:49:33","新北市汐止區康寧街901號","121.651401666667","25.0751133333333","6501100","汐止區"
"221036","130-UY","2018/05/29 17:49:34","新北市汐止區汐萬路一段147號","121.653316666667","25.07113","6501100","汐止區"
"221015","131-UY","2018/05/29 17:49:45","新北市汐止區長江街233號","121.662438333333","25.0782916666667","6501100","汐止區"
"221010","269-BY","2018/05/29 17:49:45","新北市汐止區汐萬路二段119號","121.648266666667","25.08398","6501100","汐止區"
"221012","278-VK","2018/05/29 17:49:43","新北市汐止區長江街233號","121.661993333333","25.0779966666667","6501100","汐止區"
"221023","279-VK","2018/05/29 17:49:43","新北市汐止區民族二街11號","121.634925","25.07066","6501100","汐止區"
"221032","280-BY","2018/05/29 17:49:38","新北市汐止區大同路一段144號","121.6315","25.0555933333333","6501100","汐止區"
"221027","281-BY","2018/05/29 17:49:40","新北市汐止區康寧街901號","121.651765","25.0749733333333","6501100","汐止區"
"221029","298-VK","2018/05/29 17:49:49","新北市汐止區康寧街901號","121.651503333333","25.074925","6501100","汐止區"
"221021","299-VK","2018/05/29 17:49:43","新北市汐止區水源路一段32號","121.657093333333","25.0664083333333","6501100","汐止區"
"221031","353-TW","2018/05/29 17:49:38","新北市汐止區中興路96巷16號","121.63561","25.0624916666667","6501100","汐止區"
"221035","622-UM","2018/05/29 17:49:30","新北市汐止區汐萬路一段204號","121.652165","25.0722166666667","6501100","汐止區"
"221025","623-UM","2018/05/29 17:49:42","新北市汐止區大同路二段171號","121.651631666667","25.0648416666667","6501100","汐止區"
"221038","646-BX","2018/05/29 17:49:38","新北市汐止區汐萬路一段310號","121.650333333333","25.0748166666667","6501100","汐止區"
"221033","647-BX","2018/05/29 17:45:34","新北市汐止區林森街132巷6弄19號","121.624311666667","25.0402166666667","6501100","汐止區"
"242002","KEA-2550","2018/05/29 17:49:41","新北市新莊區景德路140號","121.451158333333","25.0341816666667","6500500","新莊區"
"242051","281-VK","2018/05/29 17:49:30","新北市新莊區西盛街311巷7號","121.428466666667","25.01527","6500500","新莊區"
