"lineid","car","time","location","longitude","latitude","cityid","cityname"
"234042","862-TW","2018/05/29 17:56:43","新北市永和區福和路1號","121.526448333333","25.00965","6500400","永和區"
"234026","9371-KE","2018/05/29 18:09:42","新北市永和區永和路一段72巷4號","121.513405","25.0061416666667","6500400","永和區"
"249005","172-UM","2018/05/29 18:09:29","新北市八里區荖阡坑路15-40號","121.4017","25.1399133333333","6502300","八里區"
"249001","173-UM","2018/05/29 18:09:38","新北市八里區龍米路二段28號","121.448666666667","25.1397666666667","6502300","八里區"
"249004","303-UY","2018/05/29 18:09:41","新北市八里區渡船頭24-4號","121.437565","25.1554783333333","6502300","八里區"
"249002","305-UY","2018/05/29 18:09:47","新北市八里區龍米路一段386巷7號","121.452055","25.13203","6502300","八里區"
"249003","593-UM","2018/05/29 18:09:38","新北市八里區中華路二段165巷19弄6號","121.408843333333","25.150815","6502300","八里區"
"248016","026-BX","2018/05/29 18:09:42","新北市五股區成泰路三段221巷18號","121.44571","25.093435","6501500","五股區"
"248006","077-UY","2018/05/29 18:09:41","新北市五股區中興路二段89號","121.460593333333","25.0773383333333","6501500","五股區"
"248008","095-VK","2018/05/29 18:09:27","新北市五股區中興路二段182巷50號","121.456183333333","25.0821883333333","6501500","五股區"
"248020","225-UY","2018/05/29 18:09:34","新北市五股區凌雲路一段36號","121.45196","25.1006966666667","6501500","五股區"
"248014","261-SL","2018/05/29 18:09:36","新北市五股區成泰路一段237-9號","121.436525","25.080225","6501500","五股區"
"248010","272-BY","2018/05/29 18:09:45","新北市五股區成泰路一段219-19號","121.434501666667","25.0776766666667","6501500","五股區"
"248004","677-BX","2018/05/29 18:09:35","新北市五股區成泰路二段126號","121.438026666667","25.0834766666667","6501500","五股區"
"248002","678-BX","2018/05/29 18:09:35","新北市五股區新五路三段9號","121.444325","25.0895716666667","6501500","五股區"
"232011","375-UM","2018/05/29 18:09:38","新北市坪林區水柳腳11號","121.711448333333","24.9353033333333","6502000","坪林區"
"244013","069-UM","2018/05/29 18:09:46","新北市林口區中山路48號","121.395308333333","25.0784933333333","6501700","林口區"
"244007","080-UY","2018/05/29 18:09:36","新北市林口區林口路126號","121.388335","25.0816783333333","6501700","林口區"
"244019","403-UM","2018/05/29 18:09:28","新北市林口區文化一路一段24號","121.370223333333","25.0687066666667","6501700","林口區"
"244009","410-SL","2018/05/29 18:09:32","新北市林口區佳林路56巷35號","121.385266666667","25.0808733333333","6501700","林口區"
"244023","483-VK","2018/05/29 18:09:36","新北市林口區東湖路153巷135號","121.382211666667","25.073505","6501700","林口區"
"244017","485-VK","2018/05/29 18:09:32","新北市林口區文化一路一段43號","121.370991666667","25.069835","6501700","林口區"
"244011","657-BX","2018/05/29 18:09:36","新北市林口區中正路64號","121.39492","25.0774566666667","6501700","林口區"
"244025","837-TS","2018/05/29 18:09:48","新北市林口區文化北路一段299巷25號","121.359393333333","25.0729883333333","6501700","林口區"
"244021","838-TS","2018/05/29 18:09:42","新北市林口區自強五街21號","121.399301666667","25.07619","6501700","林口區"
"243013","AAD-798","2018/05/29 18:09:41","新北市泰山區南林路99巷1-1號","121.41538","25.0507116666667","6501600","泰山區"
"222003","436-BY","2018/05/29 18:09:43","新北市深坑區文山路三段15號","121.612811666667","24.99802","6501800","深坑區"
"222002","659-BX","2018/05/29 18:09:45","新北市深坑區文化街52號","121.618941666667","25.0015783333333","6501800","深坑區"
"231040","047-UY","2018/05/29 18:09:46","新北市新店區安華路28-1號","121.519223333333","24.96088","6500600","新店區"
"231044","106-UY","2018/05/29 18:09:47","新北市新店區安華路28-1號","121.519595","24.9608183333333","6500600","新店區"
"231053","108-UY","2018/05/29 18:09:48","新北市新店區安一路一段1-1號","121.519931666667","24.961235","6500600","新店區"
"231046","188-VK","2018/05/29 18:09:46","新北市新店區直潭七街60號","121.532235","24.9399316666667","6500600","新店區"
"231054","KEA-2219","2018/05/29 18:09:32","新北市新店區安一路一段1-1號","121.519855","24.9611616666667","6500600","新店區"
"231057","256-BX","2018/05/29 18:09:37","新北市新店區安一路一段1-1號","121.519756666667","24.9611716666667","6500600","新店區"
"231042","268-BY","2018/05/29 18:09:42","新北市新店區安華路1-1號","121.51938","24.96041","6500600","新店區"
"231051","278-BY","2018/05/29 18:09:43","新北市新店區安一路一段1-1號","121.519356666667","24.9610883333333","6500600","新店區"
"231050","AAD-862","2018/05/29 18:09:30","新北市新店區安一路一段1-1號","121.519776666667","24.96121","6500600","新店區"
"231058","3713-VJ","2018/05/29 18:09:30","新北市新店區安華路1-1號","121.519191666667","24.960575","6500600","新店區"
"231066","4716-K9","2018/05/29 18:09:34","新北市新店區安一路一段1-1號","121.519383333333","24.9612966666667","6500600","新店區"
"231056","4715-K9","2018/05/29 18:09:37","新北市新店區安華路1-1號","121.519458333333","24.9604733333333","6500600","新店區"
"231049","513-UM","2018/05/29 18:09:44","新北市新店區安華路28-1號","121.519786666667","24.9610333333333","6500600","新店區"
"231061","619-UM","2018/05/29 18:09:31","新北市新店區安華路28-1號","121.519716666667","24.960705","6500600","新店區"
"231060","897-TW","2018/05/29 18:09:28","新北市新店區安華路28-1號","121.519796666667","24.9606866666667","6500600","新店區"
"231055","AKT-0513","2018/05/29 18:09:31","新北市新店區安華路1-1號","121.519478333333","24.9605166666667","6500600","新店區"
"241024","065-VK","2018/05/29 18:09:37","新北市三重區忠孝路三段52號","121.480698333333","25.0659","6500200","三重區"
"241006","AAD-863","2018/05/29 18:09:33","新北市三重區車路頭街135-1號","121.484266666667","25.0761583333333","6500200","三重區"
"241033","AAC-255","2018/05/29 18:09:37","新北市三重區中興北街52-5號","121.469286666667","25.0505616666667","6500200","三重區"
"235064","005-UY","2018/05/29 18:09:48","新北市中和區中正路133號","121.4996","24.9935816666667","6500300","中和區"
"235063","006-UY","2018/05/29 18:09:43","新北市中和區員山路36巷16-3號","121.48505","24.991255","6500300","中和區"
"235051","031-BX","2018/05/29 18:09:40","新北市中和區南山路148號","121.504111666667","24.9922733333333","6500300","中和區"
"235056","096-UM","2018/05/29 18:09:30","新北市中和區和城路一段271巷1號","121.485371666667","24.9919483333333","6500300","中和區"
"235039","097-UM","2018/05/29 18:09:32","新北市中和區和城路一段271巷1號","121.485495","24.992205","6500300","中和區"
"235065","098-UM","2018/05/29 18:09:47","新北市中和區莊敬路49巷18號","121.501615","25.0061233333333","6500300","中和區"
"235040","150-BY","2018/05/29 18:00:33","新北市中和區員山路36巷16-2號","121.485293333333","24.9918366666667","6500300","中和區"
"235058","151-BY","2018/05/29 18:09:31","新北市中和區圓通路367巷33弄4號","121.49364","24.9854483333333","6500300","中和區"
"235038","185-VK","2018/05/29 18:09:39","新北市中和區大智街27號","121.520211666667","24.9919983333333","6500300","中和區"
"235067","255-BX","2018/05/29 17:41:26","新北市中和區和城路一段271巷1號","121.485775","24.99184","6500300","中和區"
"235043","352-BY","2018/05/29 18:09:35","新北市中和區員山路36巷16-8號","121.485446666667","24.9924233333333","6500300","中和區"
"235050","4979-A6","2018/05/29 18:09:27","新北市中和區中正路395號","121.489561666667","24.99355","6500300","中和區"
"235069","4980-A6","2018/05/29 18:09:40","新北市中和區圓通路207號","121.49697","24.99442","6500300","中和區"
"235042","551-UM","2018/05/29 18:09:39","新北市中和區中興街111號","121.499886666667","24.9921766666667","6500300","中和區"
"235070","558-UM","2018/05/29 18:09:41","新北市中和區中正路305號","121.492485","24.9939783333333","6500300","中和區"
"235045","565-BX","2018/05/29 18:09:41","新北市中和區錦和路350-1號","121.490366666667","24.9936416666667","6500300","中和區"
"235054","640-BX","2018/05/29 18:09:37","新北市中和區連城路607號","121.47777","24.9930166666667","6500300","中和區"
"235046","733-UM","2018/05/29 18:09:38","新北市中和區員山路36巷13號","121.48415","24.9908633333333","6500300","中和區"
"235062","800-TS","2018/05/29 18:09:38","新北市中和區中山路二段478號","121.488076666667","25.00488","6500300","中和區"
"235057","801-TS","2018/05/29 18:09:48","新北市中和區員山路36巷13號","121.484378333333","24.9910383333333","6500300","中和區"
"235052","805-TS","2018/05/29 18:09:45","新北市中和區中正路589巷15號","121.48579","24.993585","6500300","中和區"
"235053","900-TW","2018/05/29 18:09:40","新北市中和區員山路36巷16-2號","121.485278333333","24.9915183333333","6500300","中和區"
"235066","911-UM","2018/05/29 18:09:36","新北市中和區中和路12號","121.499541666667","25.0021316666667","6500300","中和區"
"235037","AAC-213","2018/05/29 18:09:44","新北市中和區景平路149號","121.513753333333","24.9922083333333","6500300","中和區"
"247012","339-TH","2018/05/29 18:09:44","新北市蘆洲區民族路31-12號","121.477775","25.0850916666667","6501400","蘆洲區"
"226004","312-R5","2018/05/29 18:09:29","新北市平溪區薯榔里薯榔寮3號","121.717545","25.0207433333333","6502400","平溪區"
"235047","251-BX","2018/05/29 18:09:33","新北市中和區中正路271-1號","121.49574","24.99362","6500300","中和區"
"228001","212-TW","2018/05/29 18:09:36","新北市貢寮區真理里新港街26巷55弄2-1號","121.927375","25.0528616666667","6502600","貢寮區"
"228002","663-BX","2018/05/29 18:09:36","新北市貢寮區福連里馬崗街1號","121.998315","25.0151266666667","6502600","貢寮區"
"228003","828-UM","2018/05/29 18:09:27","新北市貢寮區真理里美艷山街6-2號","121.92887","25.0607233333333","6502600","貢寮區"
"224010","AGQ-8101","2018/05/29 17:55:32","新北市瑞芳區金光路334號","121.848145","25.1094383333333","6501200","瑞芳區"
"224006","676-BX","2018/05/29 18:09:25","新北市瑞芳區民權街3-2號","121.807991666667","25.1074416666667","6501200","瑞芳區"
"224002","639-TC","2018/05/29 18:09:30","新北市瑞芳區三爪子坑路64-8號","121.809638333333","25.1054483333333","6501200","瑞芳區"
"224008","285-BY","2018/05/29 18:09:39","新北市瑞芳區員山子路23號","121.821376666667","25.1030383333333","6501200","瑞芳區"
"224007","275-VK","2018/05/29 18:09:27","新北市瑞芳區四腳亭坑路22號","121.777273333333","25.1095583333333","6501200","瑞芳區"
"224009","273-VK","2018/05/29 18:09:35","新北市瑞芳區金光路115號","121.853645","25.1062583333333","6501200","瑞芳區"
"224005","271-BY","2018/05/29 18:09:47","新北市瑞芳區建基路二段12-1號","121.81525","25.1286216666667","6501200","瑞芳區"
"227009","030-BX","2018/05/29 18:09:40","新北市雙溪區三貂里定福路1-2號","121.850723333333","25.063445","6502500","雙溪區"
"253005","032-BX","2018/05/29 18:09:33","新北市石門區福安街5號","121.568495","25.29291","6502200","石門區"
"253006","295-VK","2018/05/29 18:09:28","新北市石門區老梅路52巷19號","121.546405","25.28861","6502200","石門區"
"222001","KEA-2212","2018/05/29 18:09:34","新北市深坑區北深路二段184號","121.614085","25.0023","6501800","深坑區"
"208002","KEA-2872","2018/05/29 18:09:48","新北市金山區三界壇路99巷5號","121.621555","25.2284866666667","6502700","金山區"
"208003","665-BX","2018/05/29 18:09:36","新北市金山區磺港里磺港路186號","121.64568","25.2276566666667","6502700","金山區"
"208001","761-BX","2018/05/29 18:09:34","新北市金山區磺港里磺港路74號","121.647606666667","25.2268633333333","6502700","金山區"
"251004","009-UM","2018/05/29 18:09:39","新北市淡水區民族路110巷30號","121.46172","25.1353916666667","6501000","淡水區"
"251005","010-UM","2018/05/29 18:09:39","新北市淡水區水源街一段118號","121.447168333333","25.17185","6501000","淡水區"
"251001","011-UM","2018/05/29 18:09:37","新北市淡水區自立路10號","121.463131666667","25.12963","6501000","淡水區"
"251002","012-UM","2018/05/29 18:09:38","新北市淡水區中正東路一段127巷2號","121.455558333333","25.1593733333333","6501000","淡水區"
"251013","KEA-2871","2018/05/29 18:09:41","新北市淡水區竹圍子10號","121.476085","25.1945066666667","6501000","淡水區"
"251016","179-VK","2018/05/29 18:09:37","新北市淡水區下圭柔山15號","121.452968333333","25.2021266666667","6501000","淡水區"
"251014","180-VK","2018/05/29 18:09:31","新北市淡水區南平15號","121.488516666667","25.21897","6501000","淡水區"
"251008","181-VK","2018/05/29 18:09:47","新北市淡水區坪頂路70巷35號","121.460055","25.160955","6501000","淡水區"
"251015","182-VK","2018/05/29 17:59:14","新北市淡水區興福寮66巷267號","121.48674","25.1621183333333","6501000","淡水區"
"251010","413-VK","2018/05/29 18:09:29","新北市淡水區中正路二段52號","121.41982","25.1833033333333","6501000","淡水區"
"251012","443-VK","2018/05/29 18:09:36","新北市淡水區北新路三段171號","121.491573333333","25.1914183333333","6501000","淡水區"
"251006","561-UM","2018/05/29 18:09:30","新北市淡水區新民街71號","121.438386666667","25.17659","6501000","淡水區"
"251009","575-R6","2018/05/29 18:09:39","新北市淡水區大忠街34巷15號","121.443916666667","25.1756916666667","6501000","淡水區"
"251011","650-BX","2018/05/29 18:09:31","新北市淡水區三空泉9-2號","121.474065","25.1634666666667","6501000","淡水區"
"251003","673-BX","2018/05/29 18:09:36","新北市淡水區大忠街113巷24號","121.447448333333","25.1774766666667","6501000","淡水區"
"207003","550-UM","2018/05/29 18:09:28","新北市萬里區野柳里港西路11-2號","121.6851","25.2042583333333","6502800","萬里區"
"207004","225-TW","2018/05/29 18:09:28","新北市萬里區中幅里中福路111號","121.676583333333","25.168785","6502800","萬里區"
"252002","178-VK","2018/05/29 18:09:34","新北市三芝區中山路二段41號","121.50293","25.2550583333333","6502100","三芝區"
"252003","249-BX","2018/05/29 18:09:40","新北市三芝區埔頭里埔頭37號","121.498475","25.2603433333333","6502100","三芝區"
"252001","292-VK","2018/05/29 18:09:43","新北市三芝區中興街二段2號","121.498406666667","25.2566566666667","6502100","三芝區"
"237004","KEA-2597","2018/05/29 18:09:32","新北市三峽區大埔路375-2號","121.371691666667","24.8949733333333","6500900","三峽區"
"237007","153-BY","2018/05/29 18:09:46","新北市三峽區中正路二段368號","121.365495","24.9098133333333","6500900","三峽區"
"237011","572-TV","2018/05/29 18:09:31","新北市三峽區溪東路248號","121.408583333333","24.931595","6500900","三峽區"
"237009","210-TH","2018/05/29 18:09:46","新北市三峽區大仁路55號","121.365336666667","24.9374266666667","6500900","三峽區"
"237013","252-BX","2018/05/29 18:09:38","新北市三峽區長泰街16號","121.378791666667","24.9311","6500900","三峽區"
"237012","275-BY","2018/05/29 18:09:40","新北市三峽區民生街19巷7弄38號","121.377441666667","24.9353766666667","6500900","三峽區"
"237006","5529-G3","2018/05/29 18:09:37","新北市三峽區介壽路二段138巷1弄135號","121.39922","24.9311283333333","6500900","三峽區"
"237016","649-BX","2018/05/29 18:09:30","新北市三峽區紫新路25巷6號","121.422726666667","24.92127","6500900","三峽區"
"237010","706-TV","2018/05/29 18:09:37","新北市三峽區民族街79號","121.369486666667","24.92937","6500900","三峽區"
"237005","AKY-6261","2018/05/29 18:09:42","新北市三峽區文化路65巷2號","121.372035","24.935695","6500900","三峽區"
"236070","105-UM","2018/05/29 18:09:37","新北市土城區青雲路585-6號","121.459526666667","24.9714266666667","6501300","土城區"
"236042","107-UM","2018/05/29 18:09:42","新北市土城區中華路二段2號","121.439306666667","24.979685","6501300","土城區"
"236079","166-UM","2018/05/29 18:09:13","新北市土城區永寧路22號","121.429718333333","24.9614466666667","6501300","土城區"
"236030","253-BX","2018/05/29 18:09:34","新北市土城區城林路6巷80號","121.438676666667","24.9797","6501300","土城區"
"236026","269-VK","2018/05/29 18:09:45","新北市土城區承天路43巷8號","121.439486666667","24.96394","6501300","土城區"
"236014","270-VK","2018/05/29 18:09:43","新北市土城區學府路二段83號","121.448326666667","24.9806116666667","6501300","土城區"
"236038","271-VK","2018/05/29 18:09:37","新北市土城區中正路75號","121.445153333333","24.9757283333333","6501300","土城區"
"236021","401-BY","2018/05/29 18:09:42","新北市土城區城林路6巷80號","121.438531666667","24.97981","6501300","土城區"
"236059","912-UM","2018/05/29 18:09:32","新北市土城區中央路四段107號","121.416561666667","24.957845","6501300","土城區"
"236049","913-UM","2018/05/29 18:09:40","新北市土城區中央路二段89號","121.442455","24.9781383333333","6501300","土城區"
"236063","915-UM","2018/05/29 18:09:35","新北市土城區中正路75號","121.445053333333","24.975675","6501300","土城區"
"236055","AAC-216","2018/05/29 18:09:41","新北市土城區城林路6巷80號","121.438485","24.9795783333333","6501300","土城區"
"242034","AAC-296","2018/05/29 18:09:40","新北市新莊區景德路306號","121.447548333333","25.0336033333333","6500500","新莊區"
"242058","986-R7","2018/05/29 18:09:37","新北市新莊區壽山路49-5號","121.414263333333","25.0308316666667","6500500","新莊區"
"242054","751-BX","2018/05/29 18:09:46","新北市新莊區光華街54號","121.428521666667","25.011785","6500500","新莊區"
"242027","615-BX","2018/05/29 18:09:43","新北市新莊區幸福路577號","121.45393","25.0492666666667","6500500","新莊區"
"242025","613-BX","2018/05/29 18:09:48","新北市新莊區五權一路112號","121.459886666667","25.06804","6500500","新莊區"
"242029","612-BX","2018/05/29 18:09:29","新北市新莊區中平路202-1號","121.444773333333","25.0488083333333","6500500","新莊區"
"242042","566-BX","2018/05/29 18:09:37","新北市新莊區天祥街135巷3號","121.413823333333","25.0296783333333","6500500","新莊區"
"242046","442-UM","2018/05/29 18:09:41","新北市新莊區民安路46號","121.422676666667","25.02746","6500500","新莊區"
"242056","440-UM","2018/05/29 18:09:31","新北市新莊區豐年街豐1巷41號","121.447878333333","25.03141","6500500","新莊區"
"242037","415-TV","2018/05/29 18:09:46","新北市新莊區建福路48巷10號","121.425851666667","25.0275716666667","6500500","新莊區"
"242007","413-TV","2018/05/29 18:09:33","新北市新莊區自立街79巷15號","121.454365","25.0459933333333","6500500","新莊區"
"242044","400-BY","2018/05/29 18:09:31","新北市新莊區雙鳳路163巷2號","121.412758333333","25.0268866666667","6500500","新莊區"
"242023","362-BY","2018/05/29 18:09:34","新北市新莊區新泰路528號","121.441985","25.0468666666667","6500500","新莊區"
"242061","353-BY","2018/05/29 18:09:41","新北市新莊區新樹路215號","121.43557","25.0233283333333","6500500","新莊區"
"242009","132-UY","2018/05/29 18:09:45","新北市新莊區昌平街39號","121.454688333333","25.05237","6500500","新莊區"
"242039","133-UY","2018/05/29 18:09:43","新北市新莊區民安西路38巷13號","121.426865","25.020705","6500500","新莊區"
"242032","135-UY","2018/05/29 18:09:40","新北市新莊區新泰路275號","121.44575","25.0404166666667","6500500","新莊區"
"242048","172-VK","2018/05/29 18:09:28","新北市新莊區民安路98巷27號","121.423481666667","25.0251483333333","6500500","新莊區"
"242011","173-VK","2018/05/29 18:09:43","新北市新莊區中信街109號","121.44775","25.0538266666667","6500500","新莊區"
"242017","175-VK","2018/05/29 18:09:40","新北市新莊區中港路307號","121.452691666667","25.0446133333333","6500500","新莊區"
"242005","176-VK","2018/05/29 18:09:41","新北市新莊區自立街108號","121.455125","25.045415","6500500","新莊區"
"242015","346-TH","2018/05/29 18:09:35","新北市新莊區中和街59巷12號","121.446776666667","25.0470583333333","6500500","新莊區"
"242021","348-TH","2018/05/29 18:09:38","新北市新莊區建興街79號","121.449935","25.0384366666667","6500500","新莊區"
"242019","350-TH","2018/05/29 18:09:37","新北市新莊區中港路132巷10號","121.455816666667","25.0406283333333","6500500","新莊區"
"238015","755-BX","2018/05/29 18:09:37","新北市樹林區啟智街156巷1號","121.414765","24.9873816666667","6500700","樹林區"
"238023","601-UM","2018/05/29 18:09:37","新北市樹林區龍興街46巷30號","121.401928333333","25.0152566666667","6500700","樹林區"
"238019","599-UM","2018/05/29 18:09:31","新北市樹林區國凱街162號","121.42446","24.98068","6500700","樹林區"
"238018","571-TV","2018/05/29 18:09:41","新北市樹林區保安街一段16巷40號","121.428978333333","24.99448","6500700","樹林區"
"238024","5061-A6","2018/05/29 18:09:35","新北市樹林區豐林街60號","121.422001666667","24.99811","6500700","樹林區"
"238022","KEA-2213","2018/05/29 18:09:34","新北市樹林區太平路174巷32弄1號","121.417285","24.976495","6500700","樹林區"
"238021","KEA-2539","2018/05/29 18:09:33","新北市樹林區柑園街二段138號","121.383718333333","24.95482","6500700","樹林區"
"238025","303-VK","2018/05/29 18:09:29","新北市樹林區保安街二段101號","121.41563","25.0012316666667","6500700","樹林區"
"238017","283-BY","2018/05/29 18:09:29","新北市樹林區中正路865號","121.408796666667","25.01814","6500700","樹林區"
"238014","282-BY","2018/05/29 18:09:37","新北市樹林區千歲街61巷52號","121.425326666667","24.9988133333333","6500700","樹林區"
"238020","268-VK","2018/05/29 18:09:44","新北市樹林區三龍街118巷5號","121.41535","25.0180216666667","6500700","樹林區"
"238026","172-UY","2018/05/29 18:09:38","新北市樹林區育德街38-8號","121.390123333333","24.9695683333333","6500700","樹林區"
"238016","169-UY","2018/05/29 18:09:43","新北市樹林區文化街21號","121.419555","24.9874866666667","6500700","樹林區"
"239006","891-R6","2018/05/29 18:09:42","新北市鶯歌區鶯桃路367號","121.333751666667","24.96302","6500800","鶯歌區"
"239008","527-UM","2018/05/29 18:09:34","新北市鶯歌區國際一路179號","121.336228333333","24.976515","6500800","鶯歌區"
"239005","526-UM","2018/05/29 18:09:27","新北市鶯歌區鶯桃路668巷73號","121.329905","24.9717566666667","6500800","鶯歌區"
"239001","417-VK","2018/05/29 18:09:43","新北市鶯歌區高職東街19巷16號","121.340623333333","24.94173","6500800","鶯歌區"
"239003","360-BY","2018/05/29 18:09:41","新北市鶯歌區福安街1號","121.334288333333","24.9640833333333","6500800","鶯歌區"
"239002","359-BY","2018/05/29 18:09:45","新北市鶯歌區中山路171號","121.34846","24.9570416666667","6500800","鶯歌區"
"239004","193-VK","2018/05/29 18:09:31","新北市鶯歌區尖山路174巷35弄3號","121.344301666667","24.9485983333333","6500800","鶯歌區"
"221008","489-VK","2018/05/29 18:09:33","新北市汐止區康寧街315號","121.62715","25.0678833333333","6501100","汐止區"
"221036","130-UY","2018/05/29 18:09:34","新北市汐止區長安路6號","121.667731666667","25.077545","6501100","汐止區"
"221015","131-UY","2018/05/29 18:09:25","新北市汐止區鄉長路二段33號","121.667908333333","25.0833433333333","6501100","汐止區"
"221010","269-BY","2018/05/29 18:09:45","新北市汐止區汐萬路二段250-1號","121.646118333333","25.0889966666667","6501100","汐止區"
"221012","278-VK","2018/05/29 18:09:43","新北市汐止區保一街35巷1-1號","121.674648333333","25.0803116666667","6501100","汐止區"
"221023","279-VK","2018/05/29 18:09:43","新北市汐止區民族五街93號","121.627378333333","25.06952","6501100","汐止區"
"221032","280-BY","2018/05/29 18:09:38","新北市汐止區橫科路19號","121.617793333333","25.0512866666667","6501100","汐止區"
"221027","281-BY","2018/05/29 18:09:40","新北市汐止區和平街3-1號","121.66351","25.07057","6501100","汐止區"
"221029","298-VK","2018/05/29 18:09:29","新北市汐止區樟樹二路134號","121.639945","25.0658566666667","6501100","汐止區"
"221021","299-VK","2018/05/29 18:09:43","新北市汐止區龍安路202巷12號","121.652785","25.0634133333333","6501100","汐止區"
"221031","353-TW","2018/05/29 18:09:38","新北市汐止區中興路216號","121.63105","25.0662766666667","6501100","汐止區"
"221035","622-UM","2018/05/29 18:09:42","新北市汐止區大同路二段230號","121.653786666667","25.0655433333333","6501100","汐止區"
"221025","623-UM","2018/05/29 18:09:42","新北市汐止區秀峰路151巷1號","121.660653333333","25.0620883333333","6501100","汐止區"
"221038","646-BX","2018/05/29 18:09:40","新北市汐止區南興路100號","121.65326","25.05878","6501100","汐止區"
"221033","647-BX","2018/05/29 18:09:48","新北市汐止區宜興街30巷19號","121.622433333333","25.0410966666667","6501100","汐止區"
"221002","707-TV","2018/05/29 18:09:31","新北市汐止區福德一路197號","121.635426666667","25.0656216666667","6501100","汐止區"
"221018","753-BX","2018/05/29 18:09:37","新北市汐止區忠孝東路351號","121.665593333333","25.0704233333333","6501100","汐止區"
"242002","KEA-2550","2018/05/29 18:09:41","新北市新莊區新莊路60號","121.457736666667","25.03679","6500500","新莊區"
"242051","281-VK","2018/05/29 18:09:30","新北市新莊區民本街25巷15號","121.429046666667","25.0195816666667","6500500","新莊區"
"235061","KEA-2875","2018/05/29 18:08:53","新北市中和區員山路61號","121.480611666667","24.993575","6500300","中和區"
