"lineid","car","time","location","longitude","latitude","cityid","cityname"
"234081","298-R6","2018/05/29 18:19:28","新北市永和區福和路1號","121.525711666667","25.0094933333333","6500400","永和區"
"234013","KEA-2591","2018/05/29 18:19:36","新北市永和區福和路1號","121.526125","25.00959","6500400","永和區"
"234042","862-TW","2018/05/29 18:19:30","新北市永和區福和路1號","121.526291666667","25.0096116666667","6500400","永和區"
"234026","9371-KE","2018/05/29 18:19:42","新北市永和區豫溪街42巷6號","121.51544","25.009495","6500400","永和區"
"249005","172-UM","2018/05/29 18:19:29","新北市八里區荖阡坑路15-16號","121.400191666667","25.1404733333333","6502300","八里區"
"249001","173-UM","2018/05/29 18:19:46","新北市八里區龍米路一段107號","121.452835","25.12531","6502300","八里區"
"249004","303-UY","2018/05/29 18:19:41","新北市八里區龍米路二段236-2號","121.43152","25.158945","6502300","八里區"
"249002","305-UY","2018/05/29 18:19:07","新北市八里區龍形二街48號","121.450481666667","25.1331233333333","6502300","八里區"
"248016","026-BX","2018/05/29 18:19:47","新北市五股區成泰路三段493號","121.449278333333","25.0993183333333","6501500","五股區"
"248006","077-UY","2018/05/29 18:19:38","新北市五股區中興路一段152號","121.464466666667","25.073875","6501500","五股區"
"248008","095-VK","2018/05/29 18:19:47","新北市五股區更洲路32巷8弄14號","121.459265","25.0796333333333","6501500","五股區"
"248020","225-UY","2018/05/29 18:19:01","新北市五股區孝義路19-1號","121.452303333333","25.1095383333333","6501500","五股區"
"248012","247-BX","2018/05/29 18:19:35","新北市五股區御成路35號","121.441023333333","25.091295","6501500","五股區"
"248014","261-SL","2018/05/29 18:19:36","新北市五股區自強路16號","121.434546666667","25.0741516666667","6501500","五股區"
"248010","272-BY","2018/05/29 18:19:25","新北市五股區成泰路一段173號","121.43521","25.0746283333333","6501500","五股區"
"248004","677-BX","2018/05/29 18:19:35","新北市五股區成泰路二段119號","121.438561666667","25.0846266666667","6501500","五股區"
"248002","678-BX","2018/05/29 18:19:36","新北市五股區西雲路66號","121.44356","25.0916","6501500","五股區"
"244013","069-UM","2018/05/29 18:19:26","新北市林口區中山路160巷21號","121.3916","25.0793466666667","6501700","林口區"
"244007","080-UY","2018/05/29 18:19:36","新北市林口區林口路113巷6弄1號","121.388733333333","25.0805633333333","6501700","林口區"
"244019","403-UM","2018/05/29 18:19:47","新北市林口區忠孝路531巷12號","121.372633333333","25.0697516666667","6501700","林口區"
"244009","410-SL","2018/05/29 18:19:32","新北市林口區中山路278號","121.382346666667","25.08118","6501700","林口區"
"244023","483-VK","2018/05/29 18:19:36","新北市林口區仁愛路二段8號","121.385861666667","25.0763233333333","6501700","林口區"
"244017","485-VK","2018/05/29 18:19:32","新北市林口區公園路10號","121.3662","25.066605","6501700","林口區"
"244011","657-BX","2018/05/29 18:19:36","新北市林口區中正路74巷8號","121.394648333333","25.077905","6501700","林口區"
"244025","837-TS","2018/05/29 18:19:28","新北市林口區南勢四街96號","121.355568333333","25.0712566666667","6501700","林口區"
"244021","838-TS","2018/05/29 18:19:42","新北市林口區自強一街31號","121.398648333333","25.0780483333333","6501700","林口區"
"243013","AAD-798","2018/05/29 18:19:41","新北市泰山區錢厝坑13號","121.414678333333","25.0405833333333","6501600","泰山區"
"222003","436-BY","2018/05/29 18:19:43","新北市深坑區旺耽路67號","121.626241666667","25.0030633333333","6501800","深坑區"
"222002","659-BX","2018/05/29 18:19:45","新北市深坑區雲鄉路1號","121.620968333333","25.0001416666667","6501800","深坑區"
"231041","002-UM","2018/05/29 18:19:46","新北市新店區安華路28-1號","121.519856666667","24.9608316666667","6500600","新店區"
"231059","046-UY","2018/05/29 18:19:36","新北市新店區安華路28-1號","121.519585","24.9607866666667","6500600","新店區"
"231040","047-UY","2018/05/29 18:19:26","新北市新店區安華路28-1號","121.51922","24.9609116666667","6500600","新店區"
"231044","106-UY","2018/05/29 18:19:47","新北市新店區安華路28-1號","121.51962","24.9607583333333","6500600","新店區"
"231053","108-UY","2018/05/29 18:19:28","新北市新店區安康路一段214號","121.52397","24.9634983333333","6500600","新店區"
"231048","187-VK","2018/05/29 18:19:37","新北市新店區安一路一段1-1號","121.519601666667","24.9611616666667","6500600","新店區"
"231046","188-VK","2018/05/29 18:19:46","新北市新店區直潭七街60號","121.532241666667","24.93992","6500600","新店區"
"231054","KEA-2219","2018/05/29 18:19:32","新北市新店區安一路一段1-1號","121.519845","24.961205","6500600","新店區"
"231057","256-BX","2018/05/29 18:19:37","新北市新店區安一路一段1-1號","121.519703333333","24.961155","6500600","新店區"
"231042","268-BY","2018/05/29 18:19:42","新北市新店區安華路1-1號","121.519383333333","24.9603833333333","6500600","新店區"
"231051","278-BY","2018/05/29 18:19:43","新北市新店區安華路28-1號","121.519693333333","24.9610133333333","6500600","新店區"
"231050","AAD-862","2018/05/29 18:19:30","新北市新店區安華路30巷1號","121.51937","24.9596266666667","6500600","新店區"
"231058","3713-VJ","2018/05/29 18:19:30","新北市新店區安康路一段35-1號","121.532171666667","24.9605716666667","6500600","新店區"
"231066","4716-K9","2018/05/29 18:19:34","新北市新店區安一路一段1-1號","121.519333333333","24.96127","6500600","新店區"
"231056","4715-K9","2018/05/29 18:19:37","新北市新店區中央路69號","121.53246","24.9768533333333","6500600","新店區"
"231065","512-UM","2018/05/29 18:19:33","新北市新店區安一路一段1-1號","121.519416666667","24.96128","6500600","新店區"
"231049","513-UM","2018/05/29 18:19:44","新北市新店區安一路一段1-1號","121.519603333333","24.961035","6500600","新店區"
"231045","617-UM","2018/05/29 18:19:39","新北市新店區安華路28-1號","121.519453333333","24.960875","6500600","新店區"
"231061","619-UM","2018/05/29 18:19:31","新北市新店區安華路28-1號","121.519593333333","24.9608866666667","6500600","新店區"
"231063","641-BX","2018/05/29 18:19:44","新北市新店區安華路1-1號","121.519501666667","24.9604166666667","6500600","新店區"
"231064","719-UM","2018/05/29 18:19:38","新北市新店區安一路一段1-1號","121.519631666667","24.9612833333333","6500600","新店區"
"231062","720-UM","2018/05/29 18:19:43","新北市新店區安一路一段1-1號","121.519433333333","24.9614233333333","6500600","新店區"
"231060","897-TW","2018/05/29 18:19:48","新北市新店區安華路28-1號","121.519748333333","24.9607083333333","6500600","新店區"
"231043","899-TW","2018/05/29 18:19:39","新北市新店區安華路28-1號","121.51915","24.960875","6500600","新店區"
"231055","AKT-0513","2018/05/29 18:19:31","新北市新店區安康路一段11號","121.533533333333","24.9604816666667","6500600","新店區"
"241006","AAD-863","2018/05/29 18:18:54","新北市三重區車路頭街135-1號","121.484263333333","25.076155","6500200","三重區"
"241033","AAC-255","2018/05/29 18:19:37","新北市三重區光復路一段68巷17號","121.470748333333","25.0493966666667","6500200","三重區"
"235064","005-UY","2018/05/29 18:19:28","新北市中和區圓通路167巷6號","121.498048333333","24.9950233333333","6500300","中和區"
"235063","006-UY","2018/05/29 18:19:43","新北市中和區中正路565號","121.486828333333","24.9942166666667","6500300","中和區"
"235051","031-BX","2018/05/29 18:19:40","新北市中和區仁愛街95號","121.511835","24.986775","6500300","中和區"
"235056","096-UM","2018/05/29 18:19:49","新北市中和區中山路二段568巷32號","121.482388333333","25.00651","6500300","中和區"
"235039","097-UM","2018/05/29 18:19:32","新北市中和區景平路406號","121.508865","24.9930633333333","6500300","中和區"
"235065","098-UM","2018/05/29 18:19:27","新北市中和區莊敬路49巷18號","121.501606666667","25.0061216666667","6500300","中和區"
"235040","150-BY","2018/05/29 18:19:34","新北市中和區景安路121號","121.505808333333","24.99632","6500300","中和區"
"235058","151-BY","2018/05/29 18:19:31","新北市中和區圓通路367巷2號","121.491281666667","24.989435","6500300","中和區"
"235055","183-VK","2018/05/29 18:19:29","新北市中和區和城路一段271巷1號","121.485365","24.9917933333333","6500300","中和區"
"235038","185-VK","2018/05/29 18:19:39","新北市中和區秀朗路三段128巷17弄6號","121.524203333333","24.99355","6500300","中和區"
"235049","186-VK","2018/05/29 18:19:31","新北市中和區中正路637巷52弄1號","121.485455","24.9933733333333","6500300","中和區"
"235044","293-VK","2018/05/29 18:19:43","新北市中和區員山路36巷16-2號","121.485353333333","24.9912366666667","6500300","中和區"
"235072","301-VK","2018/05/29 18:19:44","新北市中和區錦和路162號","121.489856666667","24.9959083333333","6500300","中和區"
"235043","352-BY","2018/05/29 18:19:35","新北市中和區景平路379號","121.504065","24.99338","6500300","中和區"
"235050","4979-A6","2018/05/29 18:19:47","新北市中和區捷運路129號","121.507148333333","24.9908166666667","6500300","中和區"
"235069","4980-A6","2018/05/29 18:19:40","新北市中和區連勝街45號","121.498038333333","24.9974633333333","6500300","中和區"
"235042","551-UM","2018/05/29 18:19:39","新北市中和區景平路159巷16號","121.512596666667","24.9920016666667","6500300","中和區"
"235070","558-UM","2018/05/29 18:19:41","新北市中和區圓通路135號","121.49899","24.9958916666667","6500300","中和區"
"235045","565-BX","2018/05/29 18:19:41","新北市中和區景安路200巷5號","121.503493333333","24.9915583333333","6500300","中和區"
"235054","640-BX","2018/05/29 18:19:37","新北市中和區民享街86巷26號","121.473358333333","25.0006383333333","6500300","中和區"
"235046","733-UM","2018/05/29 18:19:38","新北市中和區員山路36巷13號","121.484155","24.9909983333333","6500300","中和區"
"235062","800-TS","2018/05/29 18:19:38","新北市中和區景平路999巷1號","121.495455","25.0058333333333","6500300","中和區"
"235057","801-TS","2018/05/29 18:19:27","新北市中和區民安街180號","121.476223333333","24.999895","6500300","中和區"
"235041","802-TS","2018/05/29 18:19:47","新北市中和區中正路637巷52弄1號","121.485455","24.9934766666667","6500300","中和區"
"235052","805-TS","2018/05/29 18:19:45","新北市中和區興南路二段47號","121.507353333333","24.98562","6500300","中和區"
"235048","896-TW","2018/05/29 18:19:37","新北市中和區中正路637巷52弄1號","121.485561666667","24.9935516666667","6500300","中和區"
"235053","900-TW","2018/05/29 18:19:40","新北市中和區中正路637巷52弄1號","121.485388333333","24.993345","6500300","中和區"
"235066","911-UM","2018/05/29 18:19:36","新北市中和區中山路二段118號","121.502671666667","25.0039216666667","6500300","中和區"
"235037","AAC-213","2018/05/29 18:19:44","新北市中和區景德街77號","121.516545","24.9913566666667","6500300","中和區"
"226004","312-R5","2018/05/29 18:19:29","新北市平溪區靜安路二段63號","121.715405","25.020625","6502400","平溪區"
"235047","251-BX","2018/05/29 18:19:33","新北市中和區南山路300號","121.507863333333","24.9871433333333","6500300","中和區"
"228001","212-TW","2018/05/29 18:19:36","新北市貢寮區真理里新港街26巷55弄2-1號","121.927376666667","25.0528616666667","6502600","貢寮區"
"228002","663-BX","2018/05/29 18:19:36","新北市貢寮區福連里福興街39-3號","121.994165","25.0139316666667","6502600","貢寮區"
"228003","828-UM","2018/05/29 18:19:48","新北市貢寮區真理里美艷山街72號","121.916825","25.074425","6502600","貢寮區"
"224010","AGQ-8101","2018/05/29 17:55:32","新北市瑞芳區金光路334號","121.848145","25.1094383333333","6501200","瑞芳區"
"224006","676-BX","2018/05/29 18:19:45","新北市瑞芳區民權街3-2號","121.807975","25.107355","6501200","瑞芳區"
"224002","639-TC","2018/05/29 18:19:32","新北市瑞芳區三爪子坑路121號","121.810435","25.1071383333333","6501200","瑞芳區"
"224008","285-BY","2018/05/29 18:19:39","新北市瑞芳區逢甲路15號","121.809805","25.1086983333333","6501200","瑞芳區"
"224007","275-VK","2018/05/29 18:19:27","新北市瑞芳區大埔路有勝新村1號","121.764913333333","25.1014","6501200","瑞芳區"
"224009","273-VK","2018/05/29 18:19:35","新北市瑞芳區新山路7號","121.854605","25.1093616666667","6501200","瑞芳區"
"224005","271-BY","2018/05/29 18:19:27","新北市瑞芳區建基新村21號","121.811776666667","25.1308366666667","6501200","瑞芳區"
"227003","400-TW","2018/05/29 18:19:46","新北市雙溪區共和里中山路6號","121.864083333333","25.033625","6502500","雙溪區"
"227009","030-BX","2018/05/29 18:19:40","新北市雙溪區牡丹里牡丹73號","121.851648333333","25.0593366666667","6502500","雙溪區"
"253005","032-BX","2018/05/29 18:19:33","新北市石門區中央路9-4號","121.56671","25.2915866666667","6502200","石門區"
"253006","295-VK","2018/05/29 18:19:48","新北市石門區老梅路55號","121.545636666667","25.2892583333333","6502200","石門區"
"222001","KEA-2212","2018/05/29 18:19:34","新北市深坑區北深路二段51-1號","121.619035","25.0041133333333","6501800","深坑區"
"208002","KEA-2872","2018/05/29 18:19:37","新北市金山區清泉里清水路60巷20號","121.634276666667","25.234135","6502700","金山區"
"208003","665-BX","2018/05/29 18:19:36","新北市金山區民生路196號","121.645735","25.22175","6502700","金山區"
"208001","761-BX","2018/05/29 18:19:34","新北市金山區自強路11號","121.64038","25.216595","6502700","金山區"
"251004","009-UM","2018/05/29 18:19:39","新北市淡水區民族路110巷1號","121.462193333333","25.1354516666667","6501000","淡水區"
"251005","010-UM","2018/05/29 18:19:39","新北市淡水區水源街一段122巷37號","121.44707","25.170435","6501000","淡水區"
"251001","011-UM","2018/05/29 18:19:37","新北市淡水區自強路108-19號","121.461536666667","25.1312616666667","6501000","淡水區"
"251002","012-UM","2018/05/29 18:19:38","新北市淡水區中正東路一段34號","121.452553333333","25.162415","6501000","淡水區"
"251013","KEA-2871","2018/05/29 18:19:37","新北市淡水區破瓦厝子1-10號","121.475693333333","25.2000833333333","6501000","淡水區"
"251016","179-VK","2018/05/29 18:19:37","新北市淡水區淡金路三段216號","121.449186666667","25.2045566666667","6501000","淡水區"
"251014","180-VK","2018/05/29 18:19:31","新北市淡水區崙頂14號","121.491263333333","25.221705","6501000","淡水區"
"251008","181-VK","2018/05/29 18:19:28","新北市淡水區水源街二段346巷1弄1號","121.464278333333","25.1755116666667","6501000","淡水區"
"251015","182-VK","2018/05/29 18:19:44","新北市淡水區興福寮66巷539號","121.484611666667","25.165115","6501000","淡水區"
"251010","413-VK","2018/05/29 18:19:29","新北市淡水區淡海路199號","121.420378333333","25.1846466666667","6501000","淡水區"
"251012","443-VK","2018/05/29 18:19:36","新北市淡水區北新路二段77-5號","121.48046","25.18538","6501000","淡水區"
"251006","561-UM","2018/05/29 18:19:47","新北市淡水區新民街30號","121.439735","25.1761816666667","6501000","淡水區"
"251011","650-BX","2018/05/29 18:19:31","新北市淡水區坪頂路50號","121.457983333333","25.162485","6501000","淡水區"
"251003","673-BX","2018/05/29 18:19:36","新北市淡水區北新路180號","121.449326666667","25.1785483333333","6501000","淡水區"
"207003","550-UM","2018/05/29 18:19:28","新北市萬里區野柳里港東路23號","121.687353333333","25.2037016666667","6502800","萬里區"
"207004","225-TW","2018/05/29 18:19:28","新北市萬里區中幅里中福路123號","121.676621666667","25.1658633333333","6502800","萬里區"
"252002","178-VK","2018/05/29 18:19:34","新北市三芝區中山路二段41號","121.502885","25.2550366666667","6502100","三芝區"
"252003","249-BX","2018/05/29 18:19:39","新北市三芝區錫板里南勢崗6號","121.479408333333","25.2621266666667","6502100","三芝區"
"252001","292-VK","2018/05/29 18:19:43","新北市三芝區中興街一段50號","121.498228333333","25.2566766666667","6502100","三芝區"
"237004","KEA-2597","2018/05/29 18:19:32","新北市三峽區五寮100號","121.364465","24.86228","6500900","三峽區"
"237007","153-BY","2018/05/29 18:19:46","新北市三峽區中正路二段586號","121.359265","24.90593","6500900","三峽區"
"237011","572-TV","2018/05/29 18:19:31","新北市三峽區溪東路293號","121.409285","24.931205","6500900","三峽區"
"237009","210-TH","2018/05/29 18:19:46","新北市三峽區中山路146號","121.365035","24.9363416666667","6500900","三峽區"
"237013","252-BX","2018/05/29 18:19:38","新北市三峽區永安街68號","121.376155","24.9302233333333","6500900","三峽區"
"237012","275-BY","2018/05/29 18:19:40","新北市三峽區三樹路34號","121.37765","24.937595","6500900","三峽區"
"237006","5529-G3","2018/05/29 18:19:37","新北市三峽區溪東路242號","121.408526666667","24.931675","6500900","三峽區"
"237016","649-BX","2018/05/29 18:19:30","新北市三峽區紫微路42-1號","121.422485","24.9199083333333","6500900","三峽區"
"237010","706-TV","2018/05/29 18:19:37","新北市三峽區中山路166號","121.364556666667","24.9365233333333","6500900","三峽區"
"237005","AKY-6261","2018/05/29 18:19:42","新北市三峽區清水街342號","121.370896666667","24.9336333333333","6500900","三峽區"
"236070","105-UM","2018/05/29 18:19:37","新北市土城區永豐路169-1號","121.467543333333","24.9806716666667","6501300","土城區"
"236042","107-UM","2018/05/29 18:19:45","新北市土城區樂利街3巷1號","121.448178333333","24.986005","6501300","土城區"
"236079","166-UM","2018/05/29 18:19:49","新北市土城區永平街3-1號","121.427645","24.96328","6501300","土城區"
"236030","253-BX","2018/05/29 18:19:39","新北市土城區順風路43號","121.440503333333","24.9769816666667","6501300","土城區"
"236026","269-VK","2018/05/29 18:19:45","新北市土城區承天路65號","121.439636666667","24.9636633333333","6501300","土城區"
"236014","270-VK","2018/05/29 18:19:42","新北市土城區立清街69號","121.460293333333","24.987335","6501300","土城區"
"236038","271-VK","2018/05/29 18:19:37","新北市土城區青雲路451巷8弄6號","121.459541666667","24.9743683333333","6501300","土城區"
"236021","401-BY","2018/05/29 18:19:43","新北市土城區學府路一段294號","121.449543333333","24.9825566666667","6501300","土城區"
"236059","912-UM","2018/05/29 18:19:42","新北市土城區中央路四段436號","121.410781666667","24.9515533333333","6501300","土城區"
"236049","913-UM","2018/05/29 18:19:40","新北市土城區明德路一段288號","121.456581666667","24.9776566666667","6501300","土城區"
"236063","915-UM","2018/05/29 18:19:35","新北市土城區金城路三段195號","121.470068333333","24.9889716666667","6501300","土城區"
"236055","AAC-216","2018/05/29 18:19:41","新北市土城區中華路二段96號","121.438148333333","24.97449","6501300","土城區"
"242058","986-R7","2018/05/29 18:19:35","新北市新莊區新北大道七段842號","121.413711666667","25.0236716666667","6500500","新莊區"
"242054","751-BX","2018/05/29 18:19:46","新北市新莊區民安西路327巷6弄2號","121.428196666667","25.0116433333333","6500500","新莊區"
"242027","615-BX","2018/05/29 18:19:42","新北市新莊區中環路二段392-1號","121.442048333333","25.0458616666667","6500500","新莊區"
"242025","613-BX","2018/05/29 18:19:42","新北市新莊區五權一路12巷9弄12號","121.457785","25.064835","6500500","新莊區"
"242042","566-BX","2018/05/29 18:19:45","新北市新莊區天祥街80號","121.41567","25.0293766666667","6500500","新莊區"
"242046","442-UM","2018/05/29 18:19:41","新北市新莊區中正路831-1號","121.420956666667","25.027495","6500500","新莊區"
"242056","440-UM","2018/05/29 18:19:34","新北市新莊區泰豐街21號","121.448211666667","25.0318366666667","6500500","新莊區"
"242037","415-TV","2018/05/29 18:19:46","新北市新莊區後港一路65巷9弄8號","121.425841666667","25.026945","6500500","新莊區"
"242007","413-TV","2018/05/29 18:19:33","新北市新莊區中華路二段9號","121.453753333333","25.0455733333333","6500500","新莊區"
"242044","400-BY","2018/05/29 18:19:34","新北市新莊區天泉二街24巷2號","121.414656666667","25.0252583333333","6500500","新莊區"
"242061","353-BY","2018/05/29 18:19:41","新北市新莊區新樹路207-1號","121.435885","25.024015","6500500","新莊區"
"242009","132-UY","2018/05/29 18:19:44","新北市新莊區昌盛街4號","121.453035","25.0500233333333","6500500","新莊區"
"242039","133-UY","2018/05/29 18:19:43","新北市新莊區新樹路222號","121.43365","25.0203516666667","6500500","新莊區"
"242032","135-UY","2018/05/29 18:19:31","新北市新莊區新泰路277巷57弄4號","121.443301666667","25.0398833333333","6500500","新莊區"
"242011","173-VK","2018/05/29 18:19:23","新北市新莊區中榮街36號","121.449583333333","25.05278","6500500","新莊區"
"242015","346-TH","2018/05/29 18:19:45","新北市新莊區中和街122號","121.447538333333","25.0477733333333","6500500","新莊區"
"242021","348-TH","2018/05/29 18:19:38","新北市新莊區新興街27巷2號","121.450688333333","25.0374866666667","6500500","新莊區"
"238015","755-BX","2018/05/29 18:19:37","新北市樹林區大安路323巷10弄1號","121.417783333333","24.99119","6500700","樹林區"
"238023","601-UM","2018/05/29 18:19:37","新北市樹林區三福街85巷11號","121.407248333333","25.01546","6500700","樹林區"
"238019","599-UM","2018/05/29 18:19:31","新北市樹林區國凱街112號","121.421968333333","24.9797566666667","6500700","樹林區"
"238018","571-TV","2018/05/29 18:19:41","新北市樹林區保安街一段22號","121.427533333333","24.9935383333333","6500700","樹林區"
"238024","5061-A6","2018/05/29 18:19:35","新北市樹林區中山路一段151號","121.422186666667","24.9890983333333","6500700","樹林區"
"238025","303-VK","2018/05/29 18:19:29","新北市樹林區保安二街59號","121.424495","24.9945466666667","6500700","樹林區"
"238017","283-BY","2018/05/29 18:19:29","新北市樹林區保安街二段333巷2號","121.412428333333","25.0076016666667","6500700","樹林區"
"238014","282-BY","2018/05/29 18:19:37","新北市樹林區中正路105號","121.425155","25.000775","6500700","樹林區"
"238020","268-VK","2018/05/29 18:19:44","新北市樹林區三俊街70號","121.413126666667","25.0156666666667","6500700","樹林區"
"238026","172-UY","2018/05/29 18:19:38","新北市樹林區佳園路一段41巷28弄14號","121.394725","24.9704416666667","6500700","樹林區"
"238016","169-UY","2018/05/29 18:19:43","新北市樹林區文化街28號","121.419271666667","24.9877333333333","6500700","樹林區"
"239006","891-R6","2018/05/29 18:19:42","新北市鶯歌區德昌街112號","121.331955","24.96045","6500800","鶯歌區"
"239008","527-UM","2018/05/29 18:19:34","新北市鶯歌區國際一路179號","121.33626","24.9765316666667","6500800","鶯歌區"
"239005","526-UM","2018/05/29 18:19:47","新北市鶯歌區鶯桃路668巷23號","121.328985","24.9702666666667","6500800","鶯歌區"
"239001","417-VK","2018/05/29 18:19:43","新北市鶯歌區國中街178號","121.338178333333","24.939185","6500800","鶯歌區"
"239003","360-BY","2018/05/29 18:19:41","新北市鶯歌區福安街58號","121.335591666667","24.9652033333333","6500800","鶯歌區"
"239002","359-BY","2018/05/29 18:19:45","新北市鶯歌區中正一路81號","121.352176666667","24.9546383333333","6500800","鶯歌區"
"239004","193-VK","2018/05/29 18:19:31","新北市鶯歌區尖山路卓厝巷7號","121.341765","24.9454216666667","6500800","鶯歌區"
"221008","489-VK","2018/05/29 18:19:33","新北市汐止區汐萬路一段333巷23號","121.64858","25.0761383333333","6501100","汐止區"
"221036","130-UY","2018/05/29 18:19:34","新北市汐止區長興街一段50號","121.670925","25.07977","6501100","汐止區"
"221015","131-UY","2018/05/29 18:19:45","新北市汐止區鄉長路二段27號","121.668086666667","25.0828583333333","6501100","汐止區"
"221010","269-BY","2018/05/29 18:19:45","新北市汐止區祥雲街20號","121.646606666667","25.0900416666667","6501100","汐止區"
"221012","278-VK","2018/05/29 18:19:43","新北市汐止區保長路25號","121.672361666667","25.0797","6501100","汐止區"
"221023","279-VK","2018/05/29 18:19:43","新北市汐止區康寧街474巷18-1號","121.631325","25.06764","6501100","汐止區"
"221032","280-BY","2018/05/29 18:19:38","新北市汐止區橫科路2巷19號","121.616386666667","25.0503933333333","6501100","汐止區"
"221027","281-BY","2018/05/29 18:19:40","新北市汐止區和平街35-1號","121.662485","25.070795","6501100","汐止區"
"221029","298-VK","2018/05/29 18:19:29","新北市汐止區樟樹二路330巷72-1號","121.642978333333","25.069955","6501100","汐止區"
"221021","299-VK","2018/05/29 18:19:43","新北市汐止區連興街122號","121.653706666667","25.0622583333333","6501100","汐止區"
"221031","353-TW","2018/05/29 18:19:38","新北市汐止區大同路一段203號","121.633493333333","25.0572283333333","6501100","汐止區"
"221035","622-UM","2018/05/29 18:19:30","新北市汐止區大同路二段187巷10弄17號","121.653133333333","25.065735","6501100","汐止區"
"221025","623-UM","2018/05/29 18:19:41","新北市汐止區勤進路12巷39號","121.659026666667","25.0627066666667","6501100","汐止區"
"221038","646-BX","2018/05/29 18:19:39","新北市汐止區仁愛路320號","121.664748333333","25.06758","6501100","汐止區"
"221033","647-BX","2018/05/29 18:19:34","新北市汐止區宜興街59巷13號","121.62167","25.042665","6501100","汐止區"
"221002","707-TV","2018/05/29 18:19:31","新北市汐止區福德一路201巷17弄2號","121.636091666667","25.0650566666667","6501100","汐止區"
"221018","753-BX","2018/05/29 18:19:37","新北市汐止區茄苳路118號","121.667981666667","25.0703866666667","6501100","汐止區"
"242002","KEA-2550","2018/05/29 18:19:41","新北市新莊區大觀街2號","121.454561666667","25.0341033333333","6500500","新莊區"
"242051","281-VK","2018/05/29 18:19:30","新北市新莊區民本街4號","121.427506666667","25.0198516666667","6500500","新莊區"
"220057","686-BX","2018/05/29 18:19:32","新北市板橋區華東街1-9號","121.448253333333","24.9949016666667","6500100","板橋區"
"235068","KEA-2873","2018/05/29 18:19:17","新北市中和區員山路36巷16-3號","121.485023333333","24.991245","6500300","中和區"
"235061","KEA-2875","2018/05/29 18:19:35","新北市中和區國光街215巷24弄10號","121.466716666667","25.0000716666667","6500300","中和區"
