"lineid","car","time","location","longitude","latitude","cityid","cityname"
"234046","148-BY","2018/05/29 18:49:43","新北市永和區秀朗路二段149號","121.524801666667","25.001585","6500400","永和區"
"234007","207-UY","2018/05/29 18:49:45","新北市永和區文化路170號","121.511968333333","25.0155133333333","6500400","永和區"
"234081","298-R6","2018/05/29 18:49:28","新北市永和區永利路77號","121.521268333333","25.003625","6500400","永和區"
"234064","337-UY","2018/05/29 18:49:36","新北市永和區環河東路二段90號","121.52448","25.0107183333333","6500400","永和區"
"234086","338-UY","2018/05/29 18:49:37","新北市中和區安樂路85號","121.512871666667","24.994355","6500400","永和區"
"234070","552-UM","2018/05/29 18:49:40","新北市永和區環河東路二段92號","121.524588333333","25.0105883333333","6500400","永和區"
"234017","745-BX","2018/05/29 18:49:48","新北市永和區永和路二段399號","121.5155","25.0171016666667","6500400","永和區"
"234030","746-BX","2018/05/29 18:49:34","新北市永和區得和路337號","121.523761666667","24.9995716666667","6500400","永和區"
"234054","KEA-2590","2018/05/29 18:49:40","新北市永和區豫溪街217巷7號","121.525095","25.0100133333333","6500400","永和區"
"234013","KEA-2591","2018/05/29 18:49:38","新北市永和區仁愛路202巷11號","121.508743333333","25.0131383333333","6500400","永和區"
"234061","AAD-866","2018/05/29 18:49:45","新北市永和區福和路309巷1號","121.516358333333","25.00708","6500400","永和區"
"234042","862-TW","2018/05/29 18:49:30","新北市永和區永貞路308號","121.511836666667","25.0048583333333","6500400","永和區"
"234050","863-TW","2018/05/29 18:49:42","新北市永和區竹林路91巷55弄5-1號","121.521815","25.01403","6500400","永和區"
"234026","9371-KE","2018/05/29 18:49:42","新北市永和區自由街58號","121.513863333333","25.0060916666667","6500400","永和區"
"234011","9373-KE","2018/05/29 18:49:35","新北市永和區文化路126巷2號","121.513148333333","25.015535","6500400","永和區"
"249005","172-UM","2018/05/29 18:49:29","新北市八里區長道坑17號","121.396473333333","25.115735","6502300","八里區"
"249001","173-UM","2018/05/29 18:49:46","新北市八里區龍米路二段58-1號","121.448161666667","25.1408533333333","6502300","八里區"
"248016","026-BX","2018/05/29 18:49:42","新北市五股區凌雲路一段133巷36號","121.448713333333","25.10098","6501500","五股區"
"248006","077-UY","2018/05/29 18:49:31","新北市五股區中興路二段83巷26-6號","121.459766666667","25.0750616666667","6501500","五股區"
"248008","095-VK","2018/05/29 18:49:47","新北市五股區中興路一段151巷38號","121.465156666667","25.0725616666667","6501500","五股區"
"248020","225-UY","2018/05/29 18:49:34","新北市五股區凌雲路三段41-1號","121.430955","25.1182383333333","6501500","五股區"
"248012","247-BX","2018/05/29 18:49:35","新北市五股區成泰路二段147巷23-15號","121.43799","25.0871266666667","6501500","五股區"
"248014","261-SL","2018/05/29 18:49:36","新北市五股區民義路一段107巷32號","121.432043333333","25.0849866666667","6501500","五股區"
"248010","272-BY","2018/05/29 18:49:45","新北市五股區自強路90巷72號","121.430821666667","25.0714016666667","6501500","五股區"
"248004","677-BX","2018/05/29 18:49:35","新北市五股區民義路二段26號","121.41971","25.0971916666667","6501500","五股區"
"248002","678-BX","2018/05/29 18:49:37","新北市五股區成泰路三段454號","121.451326666667","25.1001983333333","6501500","五股區"
"234023","9380-KE","2018/05/29 18:49:29","新北市永和區竹林路119巷27-1號","121.521261666667","25.01185","6500400","永和區"
"234077","969-R7","2018/05/29 18:49:42","新北市中和區安樂路91號","121.513153333333","24.9946816666667","6500400","永和區"
"234074","AAC-211","2018/05/29 18:49:46","新北市永和區福和路1號","121.526196666667","25.0097766666667","6500400","永和區"
"234067","AAC-212","2018/05/29 18:49:43","新北市永和區中和路625號","121.512926666667","25.00483","6500400","永和區"
"234003","AAC-295","2018/05/29 18:49:36","新北市永和區中正路730號","121.51554","25.0100883333333","6500400","永和區"
"232011","375-UM","2018/05/29 18:49:45","新北市坪林區坪碇路71號","121.711508333333","24.937675","6502000","坪林區"
"244013","069-UM","2018/05/29 18:49:46","新北市林口區文化一路二段68號","121.381021666667","25.0780683333333","6501700","林口區"
"244007","080-UY","2018/05/29 18:49:36","新北市林口區太平里2鄰10號","121.378888333333","25.114475","6501700","林口區"
"244019","403-UM","2018/05/29 18:49:29","新北市林口區忠孝路622巷5號","121.377936666667","25.0670683333333","6501700","林口區"
"244009","410-SL","2018/05/29 18:49:42","新北市林口區竹林路320巷6號","121.390796666667","25.0821383333333","6501700","林口區"
"244023","483-VK","2018/05/29 18:49:36","新北市林口區文化三路二段77巷39號","121.3731","25.0802516666667","6501700","林口區"
"244017","485-VK","2018/05/29 18:49:32","新北市林口區文化二路一段68巷13號","121.366583333333","25.068855","6501700","林口區"
"244011","657-BX","2018/05/29 18:49:36","新北市林口區新寮1-83號","121.392785","25.07691","6501700","林口區"
"244025","837-TS","2018/05/29 18:49:28","新北市林口區文化北路一段398-1號","121.363756666667","25.0755516666667","6501700","林口區"
"243013","AAD-798","2018/05/29 18:49:41","新北市泰山區明志路三段206巷8號","121.423353333333","25.0380216666667","6501600","泰山區"
"243016","380-SR","2018/05/29 18:49:32","新北市泰山區民權街2號","121.427565","25.050985","6501600","泰山區"
"243015","421-VK","2018/05/29 18:49:34","新北市泰山區美寧街57巷26號","121.43013","25.0649566666667","6501600","泰山區"
"243012","646-TV","2018/05/29 18:49:31","新北市泰山區福興三街13號","121.434421666667","25.0577316666667","6501600","泰山區"
"222003","436-BY","2018/05/29 18:49:43","新北市深坑區北深路一段355-1號","121.622765","25.0051683333333","6501800","深坑區"
"222002","659-BX","2018/05/29 18:49:45","新北市深坑區文山路一段69號","121.627011666667","25.0019166666667","6501800","深坑區"
"231041","002-UM","2018/05/29 18:49:46","新北市新店區安華路28-1號","121.519798333333","24.9608416666667","6500600","新店區"
"231059","046-UY","2018/05/29 18:49:36","新北市新店區安華路28-1號","121.519635","24.96088","6500600","新店區"
"231040","047-UY","2018/05/29 18:49:46","新北市新店區中央路177-3號","121.535351666667","24.969405","6500600","新店區"
"231044","106-UY","2018/05/29 18:49:27","新北市新店區寶中路72號","121.547753333333","24.98058","6500600","新店區"
"231053","108-UY","2018/05/29 18:49:48","新北市新店區新烏路一段105巷33-2號","121.54676","24.9401116666667","6500600","新店區"
"231048","187-VK","2018/05/29 18:49:37","新北市新店區光明街125號","121.539148333333","24.9618733333333","6500600","新店區"
"231046","188-VK","2018/05/29 18:49:26","新北市新店區直潭二街1號","121.535525","24.94319","6500600","新店區"
"231054","KEA-2219","2018/05/29 18:49:32","新北市新店區安康路一段79巷3號","121.529926666667","24.96119","6500600","新店區"
"231042","268-BY","2018/05/29 18:49:42","新北市新店區中正路71號","121.543546666667","24.96981","6500600","新店區"
"231051","278-BY","2018/05/29 18:49:43","新北市新店區中央路57號","121.532718333333","24.9773983333333","6500600","新店區"
"231050","AAD-862","2018/05/29 18:49:30","新北市新店區安康路一段50-1號","121.529571666667","24.9614133333333","6500600","新店區"
"231058","3713-VJ","2018/05/29 18:49:30","新北市新店區中興路一段268-1號","121.545071666667","24.9677383333333","6500600","新店區"
"231066","4716-K9","2018/05/29 18:49:34","新北市新店區安豐路22巷3號","121.501538333333","24.9556433333333","6500600","新店區"
"231056","4715-K9","2018/05/29 18:49:45","新北市新店區二十張路33巷10號","121.538648333333","24.9810066666667","6500600","新店區"
"231067","4772-VM","2018/05/29 18:49:29","新北市新店區安康路一段76巷8號","121.528811666667","24.96262","6500600","新店區"
"231065","512-UM","2018/05/29 18:49:33","新北市新店區車子路10-4號","121.50497","24.95458","6500600","新店區"
"231049","513-UM","2018/05/29 18:49:44","新北市新店區中央路177-1號","121.535263333333","24.9694633333333","6500600","新店區"
"231045","617-UM","2018/05/29 18:49:39","新北市新店區安康路一段50號","121.530198333333","24.9611416666667","6500600","新店區"
"231061","619-UM","2018/05/29 18:49:31","新北市新店區安華路28-1號","121.5196","24.9606616666667","6500600","新店區"
"231063","641-BX","2018/05/29 18:49:44","新北市新店區安華路1-1號","121.519501666667","24.9603883333333","6500600","新店區"
"231064","719-UM","2018/05/29 18:49:38","新北市新店區安一路一段1-1號","121.519535","24.9612833333333","6500600","新店區"
"231062","720-UM","2018/05/29 18:49:43","新北市新店區安一路一段1-1號","121.519333333333","24.9611783333333","6500600","新店區"
"231060","897-TW","2018/05/29 18:49:48","新北市新店區安華路28-1號","121.5197","24.9608133333333","6500600","新店區"
"231043","899-TW","2018/05/29 18:49:39","新北市新店區安康路一段222-2號","121.522935","24.96369","6500600","新店區"
"231055","AKT-0513","2018/05/29 18:49:31","新北市新店區新生街13巷40號","121.538843333333","24.9668183333333","6500600","新店區"
"235064","005-UY","2018/05/29 18:49:28","新北市中和區景平路513號","121.499191666667","24.9986166666667","6500300","中和區"
"235063","006-UY","2018/05/29 18:49:43","新北市中和區連城路319巷11弄2號","121.489205","24.9950116666667","6500300","中和區"
"235051","031-BX","2018/05/29 18:49:40","新北市中和區華新街109巷11弄3-10號","121.508893333333","24.9797633333333","6500300","中和區"
"235056","096-UM","2018/05/29 18:49:30","新北市中和區員山路516號","121.478935","25.0094433333333","6500300","中和區"
"235039","097-UM","2018/05/29 18:49:32","新北市中和區安樂路143巷38弄1號","121.512906666667","24.9965316666667","6500300","中和區"
"235065","098-UM","2018/05/29 18:49:47","新北市中和區莊敬路33巷40號","121.500198333333","25.0067583333333","6500300","中和區"
"235040","150-BY","2018/05/29 18:49:34","新北市中和區保健路106巷19號","121.512231666667","24.9955966666667","6500300","中和區"
"235058","151-BY","2018/05/29 18:49:30","新北市中和區連城路532號","121.475668333333","24.99156","6500300","中和區"
"235055","183-VK","2018/05/29 18:49:48","新北市中和區民生街51號","121.469661666667","25.0052083333333","6500300","中和區"
"235038","185-VK","2018/05/29 18:49:39","新北市中和區大勇街31巷1號","121.517496666667","24.994145","6500300","中和區"
"235049","186-VK","2018/05/29 18:49:37","新北市中和區景安路175-3號","121.505383333333","24.9941016666667","6500300","中和區"
"235067","255-BX","2018/05/29 18:49:49","新北市中和區中正路839巷17號","121.483938333333","25.0022766666667","6500300","中和區"
"235044","293-VK","2018/05/29 18:49:42","新北市中和區中興街111號","121.499978333333","24.9921816666667","6500300","中和區"
"235072","301-VK","2018/05/29 18:49:44","新北市中和區中山路二段63號","121.504125","25.0047233333333","6500300","中和區"
"235043","352-BY","2018/05/29 18:49:35","新北市中和區成功路129號","121.52598","24.9908016666667","6500300","中和區"
"235050","4979-A6","2018/05/29 18:49:46","新北市中和區忠孝街62巷9弄10號","121.513163333333","24.983975","6500300","中和區"
"235069","4980-A6","2018/05/29 18:49:40","新北市中和區中和路143號","121.502216666667","24.9997366666667","6500300","中和區"
"235042","551-UM","2018/05/29 18:49:39","新北市中和區秀朗路三段153巷21號","121.52556","24.99167","6500300","中和區"
"235070","558-UM","2018/05/29 18:49:41","新北市中和區南山路6號","121.50199","24.998635","6500300","中和區"
"235045","565-BX","2018/05/29 18:49:41","新北市中和區捷運路129號","121.507071666667","24.99075","6500300","中和區"
"235054","640-BX","2018/05/29 18:49:37","新北市中和區民享街50號","121.474048333333","25.0025916666667","6500300","中和區"
"235060","647-TV","2018/05/29 18:49:42","新北市中和區中山路三段209號","121.471966666667","25.0064516666667","6500300","中和區"
"235046","733-UM","2018/05/29 18:49:38","新北市中和區仁愛街36巷55號","121.511421666667","24.9862916666667","6500300","中和區"
"235062","800-TS","2018/05/29 18:49:38","新北市中和區景平路714號","121.4969","25.0027666666667","6500300","中和區"
"235057","801-TS","2018/05/29 18:49:47","新北市中和區民安街25巷11號","121.480543333333","25.0003266666667","6500300","中和區"
"235041","802-TS","2018/05/29 18:49:27","新北市中和區宜安路118巷24號","121.510941666667","24.9988","6500300","中和區"
"235052","805-TS","2018/05/29 18:49:45","新北市中和區興南路二段399巷98弄40號","121.49904","24.9768733333333","6500300","中和區"
"235048","896-TW","2018/05/29 18:49:37","新北市中和區南山路308號","121.507801666667","24.9869466666667","6500300","中和區"
"235053","900-TW","2018/05/29 18:49:40","新北市中和區華福街46-1號","121.466536666667","24.99656","6500300","中和區"
"235066","911-UM","2018/05/29 18:49:36","新北市中和區中山路二段131巷23號","121.503596666667","25.00257","6500300","中和區"
"235037","AAC-213","2018/05/29 18:49:44","新北市中和區秀朗路三段128巷9弄1號","121.52459","24.99313","6500300","中和區"
"235059","AAC-215","2018/05/29 18:49:33","新北市中和區圓通路393巷19弄2號","121.49025","24.9886183333333","6500300","中和區"
"220068","013-TV","2018/05/29 18:49:46","新北市板橋區民生路二段56-6號","121.470711666667","25.018755","6500100","板橋區"
"220065","072-UY","2018/05/29 18:49:30","新北市板橋區民族路219巷100號","121.470063333333","25.0087116666667","6500100","板橋區"
"220086","073-UY","2018/05/29 18:49:39","新北市板橋區大智街71巷28弄2號","121.453061666667","25.01466","6500100","板橋區"
"220106","075-UY","2018/05/29 18:49:35","新北市板橋區民生路二段161巷9號","121.470185","25.01954","6500100","板橋區"
"220069","AAD-861","2018/05/29 18:49:36","新北市板橋區大華街11號","121.45899","25.0062083333333","6500100","板橋區"
"226004","312-R5","2018/05/29 18:49:29","新北市平溪區靜安路二段530巷7號","121.744853333333","25.0273983333333","6502400","平溪區"
"235047","251-BX","2018/05/29 18:49:33","新北市中和區興南路二段34巷57弄2號","121.50491","24.9857166666667","6500300","中和區"
"228001","212-TW","2018/05/29 18:49:36","新北市貢寮區仁理村研海街12-1號","121.92383","25.0516883333333","6502600","貢寮區"
"228002","663-BX","2018/05/29 18:49:36","新北市貢寮區福隆里東興街6-11號","121.950731666667","25.021065","6502600","貢寮區"
"228003","828-UM","2018/05/29 18:49:46","新北市瑞芳區鼻頭路121號","121.917936666667","25.12195","6502600","貢寮區"
"224006","676-BX","2018/05/29 18:49:45","新北市瑞芳區民權街21-1號","121.807905","25.1065883333333","6501200","瑞芳區"
"224002","639-TC","2018/05/29 18:49:30","新北市瑞芳區靜安路四段26號","121.79886","25.0902116666667","6501200","瑞芳區"
"224008","285-BY","2018/05/29 18:49:47","新北市瑞芳區逢甲路279號","121.802348333333","25.1119733333333","6501200","瑞芳區"
"224007","275-VK","2018/05/29 18:49:27","新北市瑞芳區大埔路188-1號","121.761411666667","25.1010733333333","6501200","瑞芳區"
"224009","273-VK","2018/05/29 18:49:36","新北市瑞芳區山尖路13-1號","121.855011666667","25.1128116666667","6501200","瑞芳區"
"224005","271-BY","2018/05/29 18:49:47","新北市瑞芳區海濱路38-1號","121.831075","25.1234083333333","6501200","瑞芳區"
"227003","400-TW","2018/05/29 18:49:37","新北市雙溪區平林里梅竹蹊26號","121.861661666667","25.0360383333333","6502500","雙溪區"
"227009","030-BX","2018/05/29 18:49:41","新北市雙溪區牡丹里聖南25號","121.856791666667","25.052875","6502500","雙溪區"
"253005","032-BX","2018/05/29 18:49:33","新北市石門區中山路26號","121.565783333333","25.2903466666667","6502200","石門區"
"253006","295-VK","2018/05/29 18:49:28","新北市石門區下員坑16號","121.510653333333","25.2838583333333","6502200","石門區"
"222001","KEA-2212","2018/05/29 18:49:34","新北市深坑區松柏街34號","121.638713333333","25.0113866666667","6501800","深坑區"
"208002","KEA-2872","2018/05/29 18:49:30","新北市金山區信義路62號","121.635713333333","25.2189516666667","6502700","金山區"
"208003","665-BX","2018/05/29 18:49:36","新北市金山區中山路389巷4號","121.63329","25.2249716666667","6502700","金山區"
"208001","761-BX","2018/05/29 18:49:34","新北市金山區文化三路66巷1號","121.634125","25.22563","6502700","金山區"
"251001","011-UM","2018/05/29 18:49:37","新北市淡水區自強路82號","121.462821666667","25.128145","6501000","淡水區"
"251002","012-UM","2018/05/29 18:49:38","新北市淡水區學府路68號","121.448781666667","25.1703566666667","6501000","淡水區"
"251013","KEA-2871","2018/05/29 18:49:37","新北市淡水區頂田寮路1111號","121.490113333333","25.2138833333333","6501000","淡水區"
"251016","179-VK","2018/05/29 18:49:37","新北市淡水區下圭柔山71-3號","121.447033333333","25.2061516666667","6501000","淡水區"
"251014","180-VK","2018/05/29 18:49:36","新北市淡水區崙頂2-2號","121.491473333333","25.2238733333333","6501000","淡水區"
"251015","182-VK","2018/05/29 18:49:44","新北市淡水區糞箕湖20號","121.485641666667","25.1710183333333","6501000","淡水區"
"251010","413-VK","2018/05/29 18:49:29","新北市淡水區沙崙路11號","121.421133333333","25.1812683333333","6501000","淡水區"
"251012","443-VK","2018/05/29 18:49:41","新北市淡水區新興街13號","121.44331","25.18048","6501000","淡水區"
"251011","650-BX","2018/05/29 18:49:31","新北市淡水區學府路8號","121.447555","25.1677916666667","6501000","淡水區"
"251003","673-BX","2018/05/29 18:49:36","新北市淡水區中山北路一段186巷24號","121.44615","25.1785983333333","6501000","淡水區"
"207003","550-UM","2018/05/29 18:49:28","新北市萬里區大鵬里頂社1號","121.657001666667","25.2097033333333","6502800","萬里區"
"207004","225-TW","2018/05/29 18:49:48","新北市萬里區萬里里獅頭路23號","121.693268333333","25.17829","6502800","萬里區"
"252002","178-VK","2018/05/29 18:49:34","新北市三芝區中正路一段112號","121.504873333333","25.2564066666667","6502100","三芝區"
"252003","249-BX","2018/05/29 18:49:39","新北市三芝區後厝里大片頭81-1號","121.459101666667","25.24448","6502100","三芝區"
"252001","292-VK","2018/05/29 18:49:43","新北市三芝區中正路三段9號","121.502855","25.253975","6502100","三芝區"
"237004","KEA-2597","2018/05/29 18:49:32","新北市三峽區有木130-1號","121.435891666667","24.8565833333333","6500900","三峽區"
"237007","153-BY","2018/05/29 18:49:46","新北市三峽區中正路二段447號","121.362685","24.906715","6500900","三峽區"
"237011","572-TV","2018/05/29 18:49:31","新北市三峽區介壽路一段383-1號","121.387806666667","24.933895","6500900","三峽區"
"237013","252-BX","2018/05/29 18:49:38","新北市三峽區光明路69巷24號","121.376671666667","24.9291","6500900","三峽區"
"237012","275-BY","2018/05/29 18:49:40","新北市樹林區佳園路三段486號","121.382976666667","24.94391","6500900","三峽區"
"237006","5529-G3","2018/05/29 18:49:37","新北市三峽區溪東路233巷11弄6號","121.406738333333","24.9338083333333","6500900","三峽區"
"237016","649-BX","2018/05/29 18:49:30","新北市三峽區竹崙路60號","121.432068333333","24.919465","6500900","三峽區"
"237010","706-TV","2018/05/29 18:49:37","新北市三峽區國光街153號","121.37192","24.9394","6500900","三峽區"
"237005","AKY-6261","2018/05/29 18:49:42","新北市三峽區中山路459巷52-1號","121.356371666667","24.9360816666667","6500900","三峽區"
"236070","105-UM","2018/05/29 18:49:37","新北市土城區延和路21巷19號","121.463966666667","24.9888933333333","6501300","土城區"
"236042","107-UM","2018/05/29 18:49:42","新北市土城區裕民路114巷29號","121.45023","24.9855683333333","6501300","土城區"
"236079","166-UM","2018/05/29 18:49:49","新北市土城區中央路四段67巷60-13號","121.41692","24.9559766666667","6501300","土城區"
"236030","253-BX","2018/05/29 18:49:34","新北市土城區忠義路26巷10號","121.439801666667","24.969915","6501300","土城區"
"236026","269-VK","2018/05/29 18:49:48","新北市土城區興城路60號","121.441335","24.9724","6501300","土城區"
"236014","270-VK","2018/05/29 18:49:42","新北市土城區金城路二段356號","121.461265","24.9849866666667","6501300","土城區"
"236038","271-VK","2018/05/29 18:49:37","新北市土城區明德路一段219號","121.463226666667","24.9785933333333","6501300","土城區"
"236021","401-BY","2018/05/29 18:49:47","新北市土城區延安街42-5號","121.467531666667","24.9852066666667","6501300","土城區"
"236059","912-UM","2018/05/29 18:49:32","新北市土城區金城路一段62號","121.442696666667","24.9709483333333","6501300","土城區"
"236049","913-UM","2018/05/29 18:49:40","新北市板橋區廣權路2號","121.46023","24.9907","6501300","土城區"
"236063","915-UM","2018/05/29 18:49:35","新北市土城區延和路230號","121.46938","24.9901766666667","6501300","土城區"
"236055","AAC-216","2018/05/29 18:49:41","新北市土城區裕民路191號","121.453603333333","24.98431","6501300","土城區"
"242058","986-R7","2018/05/29 18:49:35","新北市泰山區新北大道六段411號","121.421545","25.0323083333333","6500500","新莊區"
"238023","601-UM","2018/05/29 18:49:37","桃園市龜山區萬壽路一段383號","121.399963333333","25.016365","6500700","樹林區"
"238019","599-UM","2018/05/29 18:49:38","新北市樹林區東榮街181號","121.413671666667","24.981345","6500700","樹林區"
"238018","571-TV","2018/05/29 18:49:41","新北市樹林區鎮前街299號","121.41784","24.9849233333333","6500700","樹林區"
"238024","5061-A6","2018/05/29 18:49:35","新北市樹林區八德街282號","121.410485","24.9701883333333","6500700","樹林區"
"238022","KEA-2213","2018/05/29 18:49:46","新北市樹林區東順街1號","121.412935","24.9790333333333","6500700","樹林區"
"238021","KEA-2539","2018/05/29 18:49:41","新北市樹林區西圳街二段29號","121.388601666667","24.9617166666667","6500700","樹林區"
"238025","303-VK","2018/05/29 18:49:29","新北市樹林區中山路三段22號","121.395541666667","24.9728883333333","6500700","樹林區"
"238017","283-BY","2018/05/29 18:49:29","新北市樹林區光興街50號","121.409863333333","25.002755","6500700","樹林區"
"238014","282-BY","2018/05/29 18:49:37","新北市樹林區大安路111巷27號","121.423465","24.9976716666667","6500700","樹林區"
"238020","268-VK","2018/05/29 18:49:44","新北市樹林區俊英街83巷2號","121.425781666667","25.008035","6500700","樹林區"
"238026","172-UY","2018/05/29 18:49:38","新北市樹林區育德街78-1號","121.388146666667","24.9681066666667","6500700","樹林區"
"238016","169-UY","2018/05/29 18:49:43","新北市樹林區文化街27號","121.419216666667","24.9876633333333","6500700","樹林區"
"239007","AAC-297","2018/05/29 18:20:31","新北市鶯歌區中山路64號","121.351925","24.9571066666667","6500800","鶯歌區"
"239006","891-R6","2018/05/29 18:49:42","新北市鶯歌區鶯桃路283號","121.335073333333","24.9601166666667","6500800","鶯歌區"
"239008","527-UM","2018/05/29 18:49:34","新北市鶯歌區國際二路64號","121.335296666667","24.9762433333333","6500800","鶯歌區"
"239005","526-UM","2018/05/29 18:49:27","新北市鶯歌區鳳吉一街208號","121.329893333333","24.9760733333333","6500800","鶯歌區"
"239001","417-VK","2018/05/29 18:49:43","新北市鶯歌區鶯桃路131號","121.338106666667","24.9546366666667","6500800","鶯歌區"
"239003","360-BY","2018/05/29 18:49:41","新北市鶯歌區鶯桃路656號","121.329273333333","24.9692","6500800","鶯歌區"
"239002","359-BY","2018/05/29 18:49:45","新北市鶯歌區中正一路303-1號","121.356141666667","24.95711","6500800","鶯歌區"
"239004","193-VK","2018/05/29 18:49:31","新北市鶯歌區中正三路282巷20號","121.326926666667","24.9368133333333","6500800","鶯歌區"
"221008","489-VK","2018/05/29 18:49:33","新北市汐止區康寧街901號","121.651365","25.074945","6501100","汐止區"
"221036","130-UY","2018/05/29 18:49:34","新北市汐止區南昌街2巷15號","121.662815","25.06867","6501100","汐止區"
"221015","131-UY","2018/05/29 18:49:38","新北市汐止區鄉長路一段55巷2號","121.665798333333","25.07616","6501100","汐止區"
"221010","269-BY","2018/05/29 18:49:45","新北市汐止區汐萬路一段312號","121.650146666667","25.074945","6501100","汐止區"
"221012","278-VK","2018/05/29 18:49:43","新北市汐止區康寧街901號","121.650865","25.0753366666667","6501100","汐止區"
"221023","279-VK","2018/05/29 18:49:43","新北市汐止區汐萬路一段256巷3號","121.652461666667","25.0746066666667","6501100","汐止區"
"221032","280-BY","2018/05/29 18:49:38","新北市汐止區民權街二段79號","121.619191666667","25.0480816666667","6501100","汐止區"
"221027","281-BY","2018/05/29 18:49:40","新北市汐止區康寧街901號","121.651453333333","25.074965","6501100","汐止區"
"221029","298-VK","2018/05/29 18:49:49","新北市汐止區樟樹一路89號","121.64182","25.0632416666667","6501100","汐止區"
"221021","299-VK","2018/05/29 18:49:43","新北市汐止區汐萬路一段256巷3號","121.653243333333","25.074415","6501100","汐止區"
"221031","353-TW","2018/05/29 18:49:37","新北市汐止區福德一路300巷15號","121.630823333333","25.0639","6501100","汐止區"
"221035","622-UM","2018/05/29 18:49:30","新北市汐止區汐萬路一段22號","121.656038333333","25.0678466666667","6501100","汐止區"
"221025","623-UM","2018/05/29 18:49:41","新北市汐止區仁愛路71號","121.660953333333","25.06291","6501100","汐止區"
"221038","646-BX","2018/05/29 18:49:38","新北市汐止區康寧街901號","121.650705","25.075305","6501100","汐止區"
"221033","647-BX","2018/05/29 18:49:34","新北市汐止區南勢街3號","121.627121666667","25.0374416666667","6501100","汐止區"
"221002","707-TV","2018/05/29 18:49:31","新北市汐止區大同路一段154-1號","121.631911666667","25.0559733333333","6501100","汐止區"
"221018","753-BX","2018/05/29 18:49:37","新北市汐止區茄苳路3號","121.664738333333","25.0707116666667","6501100","汐止區"
"220079","145-BY","2018/05/29 18:49:29","新北市板橋區民權路202巷7弄1號","121.459945","25.014655","6500100","板橋區"
"220080","200-UY","2018/05/29 18:48:29","新北市板橋區大觀路二段265巷20弄52號","121.44122","24.99801","6500100","板橋區"
"242002","KEA-2550","2018/05/29 18:49:41","新北市新莊區瓊林南路77-41號","121.4377","25.012525","6500500","新莊區"
"220082","610-BX","2018/05/29 18:49:31","新北市板橋區篤行路三段77號","121.426926666667","24.9851816666667","6500100","板橋區"
"220103","257-TC","2018/05/29 18:49:29","新北市板橋區民生路二段120號","121.47044","25.0196816666667","6500100","板橋區"
"220094","267-BY","2018/05/29 18:49:46","新北市板橋區民生路二段120號","121.470303333333","25.019745","6500100","板橋區"
"220056","276-BY","2018/05/29 18:49:27","新北市板橋區信義路28-6號","121.457101666667","24.995065","6500100","板橋區"
"220072","277-BY","2018/05/29 18:49:36","新北市板橋區大觀路三段36巷76號","121.434528333333","24.997415","6500100","板橋區"
"220089","280-UM","2018/05/29 18:49:31","新北市板橋區民生路二段161巷9號","121.470133333333","25.01959","6500100","板橋區"
"220071","283-VK","2018/05/29 18:49:33","新北市板橋區重慶路245巷69號","121.46562","25.001145","6500100","板橋區"
"220083","286-VK","2018/05/29 18:49:30","新北市板橋區僑中一街104號","121.446578333333","25.011745","6500100","板橋區"
"220081","287-VK","2018/05/29 18:49:43","新北市板橋區光華街13巷6號","121.453936666667","25.0115366666667","6500100","板橋區"
"220090","288-VK","2018/05/29 18:49:40","新北市板橋區民生路二段161巷3號","121.470115","25.01976","6500100","板橋區"
"220061","293-UM","2018/05/29 18:49:32","新北市板橋區民生路二段56-6號","121.470876666667","25.0190133333333","6500100","板橋區"
"220084","296-UM","2018/05/29 18:49:33","新北市板橋區大觀路二段150巷7號","121.441681666667","24.9990633333333","6500100","板橋區"
"220075","303-R5","2018/05/29 18:49:46","新北市板橋區南雅東路88號","121.4539","25.0076666666667","6500100","板橋區"
"220062","305-R5","2018/05/29 18:49:39","新北市板橋區中山路二段27號","121.472556666667","25.01544","6500100","板橋區"
"220092","307-R5","2018/05/29 18:49:34","新北市板橋區民生路二段161巷3號","121.470283333333","25.0198066666667","6500100","板橋區"
"220064","486-VK","2018/05/29 18:49:48","新北市板橋區中山路二段50-1號","121.473213333333","25.0155666666667","6500100","板橋區"
"220088","491-VK","2018/05/29 18:49:44","新北市板橋區民生路二段161巷1號","121.470131666667","25.02","6500100","板橋區"
"220035","560-BX","2018/05/29 18:49:37","新北市板橋區中正路325巷5弄9號","121.453725","25.0189016666667","6500100","板橋區"
"220063","609-BX","2018/05/29 18:49:38","新北市板橋區民生路二段123號","121.470661666667","25.01861","6500100","板橋區"
"220091","637-BX","2018/05/29 18:49:35","新北市板橋區民生路二段120號","121.470315","25.0201583333333","6500100","板橋區"
"220057","686-BX","2018/05/29 18:49:32","新北市板橋區館前西路17巷2號","121.458765","25.006975","6500100","板橋區"
"220077","687-BX","2018/05/29 18:49:45","新北市板橋區龍興街95巷1號","121.444073333333","25.002285","6500100","板橋區"
"220093","689-BX","2018/05/29 18:49:42","新北市板橋區民生路二段120號","121.470631666667","25.0196516666667","6500100","板橋區"
"220054","741-BX","2018/05/29 18:49:30","新北市板橋區館前西路9號","121.459013333333","25.0070166666667","6500100","板橋區"
"220102","KEA-2699","2018/05/29 18:49:45","新北市板橋區三民路一段45號","121.479636666667","25.0224233333333","6500100","板橋區"
"220055","827-TW","2018/05/29 18:49:44","新北市板橋區中山路一段137號","121.46256","25.0108816666667","6500100","板橋區"
"220067","829-TW","2018/05/29 18:49:46","新北市板橋區三民路二段正隆巷50號","121.476821666667","25.0140316666667","6500100","板橋區"
"220074","895-R6","2018/05/29 18:49:39","新北市板橋區南門街47號","121.457303333333","25.0085683333333","6500100","板橋區"
"220073","985-R7","2018/05/29 18:49:43","新北市板橋區中正路149號","121.456568333333","25.015645","6500100","板橋區"
"220070","AAC-253","2018/05/29 18:49:37","新北市板橋區館前西路7號","121.459083333333","25.0070583333333","6500100","板橋區"
"235068","KEA-2873","2018/05/29 18:49:47","新北市中和區中正路211巷33號","121.497976666667","24.9927166666667","6500300","中和區"
"235061","KEA-2875","2018/05/29 18:49:39","新北市中和區民享街52號","121.474021666667","25.0024833333333","6500300","中和區"
