"lineid","car","time","location","longitude","latitude","cityid","cityname"
"247005","336-TH","2018/05/29 22:29:41","新北市五股區中興路三段2巷10號","121.44926","25.0808583333333","6501400","蘆洲區"
"251004","009-UM","2018/05/29 22:29:40","新北市淡水區民族路33號","121.462236666667","25.135845","6501000","淡水區"
"251010","413-VK","2018/05/29 22:29:49","新北市淡水區沙崙路200號","121.424648333333","25.1838816666667","6501000","淡水區"
"251007","442-VK","2018/05/29 22:29:36","新北市淡水區北新路180號","121.449393333333","25.1788066666667","6501000","淡水區"
"251011","650-BX","2018/05/29 22:29:46","新北市淡水區水碓街7號","121.443183333333","25.1771416666667","6501000","淡水區"
