"lineid","car","time","location","longitude","latitude","cityid","cityname"
"248005","653-BX","2018/06/05 08:49:30","新北市五股區明德路12巷6號","121.433385","25.0718516666667","6501500","五股區"
"244002","248-BX","2018/06/05 08:49:30","新北市林口區嘉溪雅坑29號","121.316885","25.11964","6501700","林口區"
"222004","289-BY","2018/06/05 08:49:20","新北市深坑區王軍寮15號","121.614063333333","24.9824166666667","6501800","深坑區"
"231009","188-VK","2018/06/05 08:49:22","新北市新店區新烏路三段286號","121.549898333333","24.8986966666667","6500600","新店區"
"231007","720-UM","2018/06/05 08:49:12","新北市新店區小坑二路2巷7號","121.532215","24.9161433333333","6500600","新店區"
"235001","611-BX","2018/06/05 08:49:11","新北市中和區民安街63號","121.478686666667","24.9997066666667","6500300","中和區"
"226005","5620-A6","2018/06/05 08:49:31","新北市平溪區十分里十分街126號","121.777208333333","25.0432083333333","6502400","平溪區"
"226002","7418-A5","2018/06/05 08:41:27","新北市平溪區東勢里東勢格11號","121.73521","25.0024683333333","6502400","平溪區"
"226006","AGD-0702","2018/06/05 08:49:19","新北市平溪區南山里南山坪5號","121.762556666667","25.0332316666667","6502400","平溪區"
"223003","205-TH","2018/06/05 08:49:30","新北市石碇區北宜路六段水底寮巷3號","121.653276666667","24.94655","6501900","石碇區"
"223008","406-TH","2018/06/05 08:49:23","新北市石碇區光明路16號","121.686108333333","25.032545","6501900","石碇區"
"223001","592-UM","2018/06/05 08:49:25","新北市石碇區北宜路六段十三股巷2-1號","121.648953333333","24.9455866666667","6501900","石碇區"
"223004","660-BX","2018/06/05 08:49:16","新北市石碇區碇坪路二段65號","121.685135","24.967005","6501900","石碇區"
"223005","677-TV","2018/06/05 08:49:22","新北市石碇區碇坪路二段65號","121.685461666667","24.9658716666667","6501900","石碇區"
"227006","282-VK","2018/06/05 08:49:11","新北市雙溪區上林里大瀨1號","121.829965","25.0252183333333","6502500","雙溪區"
"252004","249-BX","2018/06/05 08:49:13","新北市三芝區興華里田心子20-3號","121.494103333333","25.2021716666667","6502100","三芝區"
"252007","AAC-283","2018/06/05 08:49:16","新北市三芝區錫板里番婆林44號","121.49219","25.2367816666667","6502100","三芝區"
"237001","159-UY","2018/06/05 08:49:28","新北市三峽區大觀路86號","121.37395","24.9464033333333","6500900","三峽區"
"236008","165-UM","2018/06/05 08:49:19","新北市土城區千歲路3巷6弄14號","121.441573333333","24.9698983333333","6501300","土城區"
"236002","339-SR","2018/06/05 08:49:27","新北市土城區中央路三段279號","121.426823333333","24.9635933333333","6501300","土城區"
"236006","498-BY","2018/06/05 08:49:18","新北市土城區永和街62巷2-18號","121.435615","24.958995","6501300","土城區"
