"lineid","car","time","location","longitude","latitude","cityid","cityname"
"248005","653-BX","2018/06/05 10:39:30","新北市五股區中興路二段83巷26-6號","121.459868333333","25.0753766666667","6501500","五股區"
"231009","188-VK","2018/06/05 10:39:22","新北市新店區松林路85號","121.547771666667","24.9086","6500600","新店區"
"231007","720-UM","2018/06/05 10:39:12","新北市新店區新潭路三段131號","121.510645","24.9115116666667","6500600","新店區"
"227006","282-VK","2018/06/05 10:39:31","新北市雙溪區新基里新基北街78號","121.869985","25.03941","6502500","雙溪區"
"227012","030-BX","2018/06/05 10:37:37","新北市雙溪區泰平里料角坑43-1號","121.792858333333","24.95564","6502500","雙溪區"
"237001","159-UY","2018/06/05 10:39:18","新北市三峽區大學路160號","121.37305","24.9459266666667","6500900","三峽區"
