"lineid","car","time","location","longitude","latitude","cityid","cityname"
"234044","148-BY","2018/06/05 13:19:34","新北市永和區得和路375號","121.524758333333","24.9994583333333","6500400","永和區"
"234005","207-UY","2018/06/05 13:19:39","新北市永和區中山路一段343號","121.505698333333","25.00596","6500400","永和區"
"234078","298-R6","2018/06/05 13:19:36","新北市永和區福和路7巷3號","121.525183333333","25.008065","6500400","永和區"
"234036","336-UY","2018/06/05 13:19:35","新北市永和區成功路二段121巷11號","121.527436666667","24.9986116666667","6500400","永和區"
"234062","337-UY","2018/06/05 13:19:17","新北市永和區永元路83巷16號","121.521588333333","25.00143","6500400","永和區"
"234084","338-UY","2018/06/05 13:19:23","新北市永和區永利路88號","121.520723333333","25.0039166666667","6500400","永和區"
"234068","552-UM","2018/06/05 13:19:26","新北市永和區中正路666巷4號","121.516983333333","25.0090466666667","6500400","永和區"
"234015","553-UM","2018/06/05 13:19:30","新北市永和區環河西路一段95巷7號","121.511925","25.0176066666667","6500400","永和區"
"234028","746-BX","2018/06/05 13:19:26","新北市永和區厚德街68號","121.523986666667","24.9988633333333","6500400","永和區"
"234052","KEA-2590","2018/06/05 13:19:30","新北市永和區中興街25號","121.51602","25.0119316666667","6500400","永和區"
"234012","KEA-2591","2018/06/05 13:19:33","新北市永和區信義路23號","121.513846666667","25.01225","6500400","永和區"
"234060","AAD-866","2018/06/05 13:19:30","新北市永和區秀朗路一段175號","121.517065","25.0036233333333","6500400","永和區"
"234040","862-TW","2018/06/05 13:19:36","新北市永和區保平路151巷17號","121.51057","25.00513","6500400","永和區"
"234048","863-TW","2018/06/05 13:19:23","新北市永和區保福路二段88巷29號","121.511986666667","25.0137466666667","6500400","永和區"
"234025","9371-KE","2018/06/05 13:19:26","新北市永和區豫溪街42巷15號","121.5154","25.0091383333333","6500400","永和區"
"234010","9373-KE","2018/06/05 13:19:32","新北市永和區忠孝街34巷8號","121.514651666667","25.016325","6500400","永和區"
"248017","225-UY","2018/06/05 13:19:29","新北市五股區御史路205-1號","121.431678333333","25.1010916666667","6501500","五股區"
"234022","9380-KE","2018/06/05 13:19:28","新北市永和區竹林路105號","121.519848333333","25.0119216666667","6500400","永和區"
"234076","969-R7","2018/06/05 13:19:22","新北市永和區民有街23巷3號","121.51693","24.996445","6500400","永和區"
"234072","AAC-211","2018/06/05 13:19:19","新北市永和區竹林路30號","121.51713","25.0147883333333","6500400","永和區"
"234066","AAC-212","2018/06/05 13:19:35","新北市永和區保平路50巷8弄1號","121.511006666667","25.007505","6500400","永和區"
"234001","AAC-295","2018/06/05 13:19:31","新北市永和區保福路一段64號","121.512606666667","25.0097033333333","6500400","永和區"
"244002","248-BX","2018/06/05 13:19:18","新北市林口區頂福16號","121.357816666667","25.0879166666667","6501700","林口區"
"231002","002-UM","2018/06/05 13:19:23","新北市新店區安華路28-1號","121.519688333333","24.9608866666667","6500600","新店區"
"231027","0291-UT","2018/06/05 13:19:31","新北市新店區安康路一段3-1號","121.535143333333","24.9608833333333","6500600","新店區"
"231028","046-UY","2018/06/05 13:19:32","新北市新店區安華路28-1號","121.519526666667","24.960885","6500600","新店區"
"231001","047-UY","2018/06/05 13:19:20","新北市新店區安華路28-1號","121.519183333333","24.96096","6500600","新店區"
"231005","106-UY","2018/06/05 13:19:37","新北市新店區安華路28-1號","121.519606666667","24.96085","6500600","新店區"
"231020","108-UY","2018/06/05 13:19:33","新北市新店區安康路一段9-2號","121.533895","24.9605716666667","6500600","新店區"
"231012","187-VK","2018/06/05 13:19:23","新北市新店區安一路一段1-1號","121.519696666667","24.9615","6500600","新店區"
"231010","188-VK","2018/06/05 13:19:21","新北市新店區安康路一段355號","121.519815","24.9631033333333","6500600","新店區"
"231023","KEA-2219","2018/06/05 13:19:34","新北市新店區安康路一段88號","121.528035","24.9619916666667","6500600","新店區"
"231026","256-BX","2018/06/05 13:19:20","新北市新店區安一路一段1-1號","121.519675","24.9610466666667","6500600","新店區"
"231003","268-BY","2018/06/05 13:19:28","新北市新店區安華路28-1號","121.519346666667","24.9606433333333","6500600","新店區"
"231018","278-BY","2018/06/05 13:19:30","新北市新店區安康路一段33-1號","121.532383333333","24.96048","6500600","新店區"
"231015","AAD-862","2018/06/05 13:19:28","新北市新店區安康路一段61號","121.530515","24.9610433333333","6500600","新店區"
"231038","3712-VJ","2018/06/05 13:19:20","新北市新店區安華路28-1號","121.519176666667","24.960615","6500600","新店區"
"231037","4716-K9","2018/06/05 13:19:31","新北市新店區安華路30巷1號","121.519526666667","24.9597283333333","6500600","新店區"
"231025","4715-K9","2018/06/05 13:19:27","新北市新店區中央路183-3號","121.53622","24.9688333333333","6500600","新店區"
"231036","512-UM","2018/06/05 13:19:24","新北市新店區車子路10-3號","121.504858333333","24.9546166666667","6500600","新店區"
"231013","513-UM","2018/06/05 13:19:27","新北市新店區安一路一段1-1號","121.519633333333","24.9611966666667","6500600","新店區"
"231006","617-UM","2018/06/05 13:19:23","新北市新店區安華路28-1號","121.519496666667","24.961015","6500600","新店區"
"231030","619-UM","2018/06/05 13:19:36","新北市新店區安華路28-1號","121.519658333333","24.9607966666667","6500600","新店區"
"231034","641-BX","2018/06/05 13:19:35","新北市新店區安華路1-1號","121.519383333333","24.960495","6500600","新店區"
"231035","719-UY","2018/06/05 13:19:30","新北市新店區安華路1-1號","121.51974","24.96046","6500600","新店區"
"231032","720-UM","2018/06/05 13:19:25","新北市新店區安華路28-1號","121.519521666667","24.960685","6500600","新店區"
"231029","897-TW","2018/06/05 13:19:37","新北市新店區安華路28-1號","121.519583333333","24.9607816666667","6500600","新店區"
"231004","899-TW","2018/06/05 13:19:31","新北市新店區安華路15-2號","121.520368333333","24.961815","6500600","新店區"
"231024","AKT-0513","2018/06/05 13:19:18","新北市新店區力行路11巷57號","121.53854","24.9617333333333","6500600","新店區"
"235028","005-UY","2018/06/05 13:19:38","新北市中和區圓通路172號","121.49725","24.99457","6500300","中和區"
"235027","006-UY","2018/06/05 13:19:36","新北市中和區中正路569號","121.486683333333","24.9943516666667","6500300","中和區"
"235020","096-UM","2018/06/05 13:19:28","新北市中和區員山路36巷16號","121.484396666667","24.99147","6500300","中和區"
"235003","097-UM","2018/06/05 13:19:20","新北市中和區景安路125號","121.505711666667","24.9961166666667","6500300","中和區"
"235029","098-UM","2018/06/05 13:19:38","新北市中和區莊敬路49巷20弄18號","121.502603333333","25.005835","6500300","中和區"
"235004","150-BY","2018/06/05 13:19:21","新北市中和區景安路163號","121.50533","24.994565","6500300","中和區"
"235022","151-BY","2018/06/05 13:19:18","新北市中和區圓通路367巷50號","121.492368333333","24.9862083333333","6500300","中和區"
"235019","183-VK","2018/06/05 13:19:27","新北市中和區連城路523巷13弄8號","121.481883333333","24.9936166666667","6500300","中和區"
"235002","185-VK","2018/06/05 13:19:28","新北市中和區秀朗路三段128巷17弄6號","121.524146666667","24.9934916666667","6500300","中和區"
"235031","255-BX","2018/06/05 13:19:16","新北市中和區民樂路81號","121.484685","25.00146","6500300","中和區"
"235036","301-VK","2018/06/05 13:19:38","新北市中和區錦和路158號","121.489815","24.9960016666667","6500300","中和區"
"235007","352-BY","2018/06/05 13:19:24","新北市中和區景平路379號","121.50402","24.993355","6500300","中和區"
"235005","KEA-2878","2018/06/05 13:19:22","新北市中和區景安路125號","121.505718333333","24.9961016666667","6500300","中和區"
"235014","4979-A6","2018/06/05 13:19:30","新北市中和區捷運路61巷28號","121.509073333333","24.989285","6500300","中和區"
"235033","4980-A6","2018/06/05 13:19:29","新北市中和區圓通路299巷48弄3號","121.495828333333","24.9909633333333","6500300","中和區"
"235006","551-UM","2018/06/05 13:19:29","新北市中和區大勇街34號","121.517305","24.9933883333333","6500300","中和區"
"235034","558-UM","2018/06/05 13:19:28","新北市中和區圓通路114號","121.499248333333","24.9963566666667","6500300","中和區"
"235009","565-BX","2018/06/05 13:19:20","新北市中和區復興路338號","121.500336666667","24.9902933333333","6500300","中和區"
"235018","640-BX","2018/06/05 13:19:26","新北市中和區民享街86巷26號","121.473388333333","25.00066","6500300","中和區"
"235024","647-TV","2018/06/05 13:19:32","新北市中和區連城路469巷23號","121.48357","24.99501","6500300","中和區"
"235011","732-UM","2018/06/05 13:19:38","新北市中和區復興路303號","121.501425","24.9902783333333","6500300","中和區"
"235010","733-UM","2018/06/05 13:19:18","新北市中和區員山路36巷13號","121.484165","24.99084","6500300","中和區"
"235035","783-BX","2018/06/05 13:19:11","新北市中和區中板路18巷1弄1號","121.483896666667","25.0121883333333","6500300","中和區"
"235026","800-TS","2018/06/05 13:19:30","新北市中和區景平路989巷21號","121.49546","25.004975","6500300","中和區"
"235021","801-TS","2018/06/05 13:19:27","新北市中和區民利街16-1號","121.480593333333","24.9991833333333","6500300","中和區"
"235005","802-TS","2018/06/05 13:02:28","新北市中和區員山路36巷16-2號","121.485243333333","24.99173","6500300","中和區"
"235016","805-TS","2018/06/05 13:19:38","新北市中和區興南路二段45號","121.507478333333","24.9857066666667","6500300","中和區"
"235012","896-TW","2018/06/05 13:19:25","新北市中和區員山路36巷16-3號","121.484985","24.9918666666667","6500300","中和區"
"235017","900-TW","2018/06/05 13:19:26","新北市中和區員山路36巷16-3號","121.485005","24.9917816666667","6500300","中和區"
"235030","911-UM","2018/06/05 13:19:29","新北市中和區中山路二段64巷16弄2號","121.503371666667","25.00574","6500300","中和區"
"235015","157-BY","2018/06/05 13:19:19","新北市中和區仁愛街93號","121.51199","24.98693","6500300","中和區"
"235001","AAC-213","2018/06/05 13:19:35","新北市中和區景德街80號","121.516493333333","24.991485","6500300","中和區"
"235023","AAC-215","2018/06/05 13:19:28","新北市中和區員山路36巷16-3號","121.484946666667","24.991325","6500300","中和區"
"247008","056-VK","2018/06/05 13:19:31","新北市五股區中興路三段163號","121.44927","25.0806566666667","6501400","蘆洲區"
"247005","053-VK","2018/06/05 13:19:19","新北市五股區中興路三段163號","121.449065","25.0807066666667","6501400","蘆洲區"
"228004","212-TW","2018/06/05 13:19:32","新北市貢寮區吉林里內寮街23號","121.901816666667","24.98534","6502600","貢寮區"
"228002","585-TW","2018/06/05 13:19:03","新北市瑞芳區建基路一段41號","121.817873333333","25.1203333333333","6502600","貢寮區"
"228005","828-UM","2018/06/05 13:19:36","新北市貢寮區美豐里丹裡街18-2號","121.91242","25.0573666666667","6502600","貢寮區"
"207002","749-BX","2018/06/05 13:19:31","新北市萬里區崁腳里崁腳路166號","121.645033333333","25.1558116666667","6502800","萬里區"
"207001","662-BX","2018/06/05 13:19:26","新北市萬里區龜吼里玉田路19號","121.677915","25.1883483333333","6502800","萬里區"
"252005","AAC-283","2018/06/05 13:19:26","新北市三芝區八賢里八連溪87號","121.520216666667","25.2293333333333","6502100","三芝區"
"236006","498-BY","2018/06/05 13:19:18","新北市土城區大安路138巷26號","121.434188333333","24.971425","6501300","土城區"
"221032","280-BY","2018/06/05 13:19:22","新北市汐止區龍安路38-3號","121.65451","25.0640516666667","6501100","汐止區"
"220030","610-BX","2018/06/05 13:19:25","新北市板橋區華東街1-10號","121.448248333333","24.9949716666667","6500100","板橋區"
"220104","256-TC","2018/06/05 13:19:39","新北市板橋區南雅南路二段144巷60號","121.45026","24.9974366666667","6500100","板橋區"
"220010","305-R5","2018/06/05 13:19:29","新北市板橋區民生路二段120號","121.470436666667","25.0197816666667","6500100","板橋區"
"220025","687-BX","2018/06/05 13:19:28","新北市板橋區華東街1-10號","121.44833","24.9950216666667","6500100","板橋區"
"220002","741-BX","2018/06/05 13:19:24","新北市板橋區華東街1-9號","121.448168333333","24.9949433333333","6500100","板橋區"
"220022","895-R6","2018/06/05 13:19:30","新北市板橋區華東街1-9號","121.448158333333","24.99501","6500100","板橋區"
"235032","KEA-2873","2018/06/05 13:19:14","新北市中和區中正路716-6號","121.485276666667","24.9971633333333","6500300","中和區"
"235025","KEA-2875","2018/06/05 13:19:25","新北市中和區國光街215巷24弄10號","121.466678333333","25.000125","6500300","中和區"
