"lineid","car","time","location","longitude","latitude","cityid","cityname"
"231020","108-UY","2018/06/05 15:59:33","新北市新店區北宜路一段256號","121.545608333333","24.95294","6500600","新店區"
"231012","187-VK","2018/06/05 15:59:23","新北市新店區中正路366號","121.53538","24.9759983333333","6500600","新店區"
"231046","188-VK","2018/06/05 15:59:31","新北市新店區安康路一段230-3號","121.522313333333","24.9637333333333","6500600","新店區"
"231003","268-BY","2018/06/05 15:59:27","新北市新店區寶興路60巷1號","121.55003","24.97193","6500600","新店區"
"231018","278-BY","2018/06/05 15:59:30","新北市新店區中正路663巷1弄2號","121.533013333333","24.9899166666667","6500600","新店區"
"231015","AAD-862","2018/06/05 15:59:28","新北市新店區中正路284巷4弄6號","121.538423333333","24.9745283333333","6500600","新店區"
"231038","3712-VJ","2018/06/05 15:59:20","新北市新店區安康路二段199號","121.509203333333","24.95891","6500600","新店區"
"231037","4716-K9","2018/06/05 15:59:34","新北市新店區吉安街10號","121.516801666667","24.9657233333333","6500600","新店區"
"231013","513-UM","2018/06/05 15:59:24","新北市新店區安康路二段320巷15弄18號","121.502203333333","24.9590783333333","6500600","新店區"
"231030","619-UM","2018/06/05 15:59:36","新北市新店區永平街28號","121.516438333333","24.9838733333333","6500600","新店區"
"231034","641-BX","2018/06/05 15:59:35","新北市新店區如意街26號","121.493815","24.9483166666667","6500600","新店區"
"231035","719-UY","2018/06/05 15:59:30","新北市新店區安民街221號","121.516925","24.9723416666667","6500600","新店區"
"241011","013-R5","2018/06/05 15:59:37","新北市三重區文化北路224巷32號","121.496966666667","25.0687916666667","6500200","三重區"
"241028","022-UY","2018/06/05 15:59:34","新北市三重區大同南路130號","121.496603333333","25.0582633333333","6500200","三重區"
"241008","059-VK","2018/06/05 15:59:22","新北市三重區成功路110-1號","121.48718","25.0517316666667","6500200","三重區"
"241031","061-VK","2018/06/05 15:59:28","新北市三重區重新路四段121號","121.484753333333","25.0526733333333","6500200","三重區"
"241015","062-VK","2018/06/05 15:59:37","新北市三重區重新路四段121號","121.485055","25.0521883333333","6500200","三重區"
"241017","063-VK","2018/06/05 15:59:40","新北市三重區大仁街17號","121.49178","25.064405","6500200","三重區"
"241024","065-VK","2018/06/05 15:59:37","新北市三重區力行路一段38巷27號","121.485455","25.067035","6500200","三重區"
"241026","066-VK","2018/06/05 15:59:31","新北市三重區大同南路81巷17號","121.495348333333","25.0594666666667","6500200","三重區"
"241003","091-VK","2018/06/05 15:59:33","新北市三重區進安街27號","121.496763333333","25.083925","6500200","三重區"
"241013","742-BX","2018/06/05 15:59:37","新北市三重區安慶街12號","121.49726","25.06935","6500200","三重區"
"241005","262-UM","2018/06/05 15:59:32","新北市三重區集賢路110號","121.491865","25.0895883333333","6500200","三重區"
"241016","266-UM","2018/06/05 15:59:39","新北市三重區成功路112-4號","121.485571666667","25.0519433333333","6500200","三重區"
"241022","267-UM","2018/06/05 15:59:20","新北市三重區忠孝路三段40巷46號","121.482945","25.0657566666667","6500200","三重區"
"241018","268-UM","2018/06/05 15:59:29","新北市三重區大仁街1號","121.491631666667","25.063575","6500200","三重區"
"241025","271-UM","2018/06/05 15:59:38","新北市三重區三民街209-1號","121.481613333333","25.0660166666667","6500200","三重區"
"241007","398-BY","2018/06/05 15:59:26","新北市三重區三和路四段147號","121.484168333333","25.0782233333333","6500200","三重區"
"241002","413-TH","2018/06/05 15:59:24","新北市三重區仁義街22號","121.499558333333","25.0765383333333","6500200","三重區"
"241004","475-VK","2018/06/05 15:59:27","新北市三重區重新路四段121號","121.484931666667","25.0519816666667","6500200","三重區"
"241020","478-VK","2018/06/05 15:59:28","新北市三重區車路頭街4巷23號","121.48332","25.070135","6500200","三重區"
"241014","543-UM","2018/06/05 15:59:34","新北市三重區重新路四段121號","121.48503","25.0520633333333","6500200","三重區"
"241023","545-UM","2018/06/05 15:59:40","新北市三重區中正北路172-3號","121.483888333333","25.0664966666667","6500200","三重區"
"241001","547-UM","2018/06/05 15:59:39","新北市三重區重新路四段121號","121.484553333333","25.0523583333333","6500200","三重區"
"241019","KEA-2593","2018/06/05 15:59:32","新北市三重區重新路四段190號","121.485983333333","25.0549283333333","6500200","三重區"
"241006","AAD-863","2018/06/05 15:59:27","新北市三重區新北大道一段6號","121.488868333333","25.0616433333333","6500200","三重區"
"241032","887-TS","2018/06/05 15:59:22","新北市三重區三陽路100巷3弄19號","121.482641666667","25.0582433333333","6500200","三重區"
"241012","941-UM","2018/06/05 15:59:37","新北市三重區文化北路118巷34號","121.497758333333","25.0661966666667","6500200","三重區"
"241029","942-UM","2018/06/05 15:59:22","新北市三重區大同南路212巷27號","121.4976","25.0565933333333","6500200","三重區"
"241033","AAC-255","2018/06/05 15:59:36","新北市三重區重新路五段493號","121.472716666667","25.046635","6500200","三重區"
"235026","800-TS","2018/06/05 15:59:30","新北市中和區建康路191號","121.492005","25.000005","6500300","中和區"
"224007","275-VK","2018/06/05 15:59:24","新北市瑞芳區楓子瀨路22號","121.773676666667","25.1066816666667","6501200","瑞芳區"
"227003","642-TC","2018/06/05 15:59:42","新北市雙溪區平林里外平林71號","121.842015","25.0348716666667","6502500","雙溪區"
"227009","400-TW","2018/06/05 15:59:38","新北市雙溪區三港里雙澳路40號","121.873003333333","25.0515833333333","6502500","雙溪區"
"251008","575-R6","2018/06/05 15:59:28","新北市淡水區中正路二段31號","121.419563333333","25.1816616666667","6501000","淡水區"
"236065","105-UM","2018/06/05 15:59:32","新北市土城區福安街100-5號","121.417408333333","24.9642233333333","6501300","土城區"
"236074","166-UM","2018/06/05 15:59:29","新北市土城區金安街65號","121.420471666667","24.96513","6501300","土城區"
"236057","752-BX","2018/06/05 15:59:33","新北市土城區中央路三段71-1號","121.438746666667","24.96926","6501300","土城區"
