"lineid","car","time","location","longitude","latitude","cityid","cityname"
"249004","303-UY","2018/06/05 16:49:37","新北市八里區博物館路201號","121.404976666667","25.1562933333333","6502300","八里區"
"249003","593-UM","2018/06/05 16:49:36","新北市八里區中山路二段210巷128號","121.404361666667","25.1555533333333","6502300","八里區"
"249005","759-BX","2018/06/05 16:49:24","新北市八里區大堀湖2-3號","121.422631666667","25.1537366666667","6502300","八里區"
"231046","188-VK","2018/06/05 16:49:31","新北市新店區灣潭路15-12號","121.542333333333","24.9419016666667","6500600","新店區"
"241011","013-R5","2018/06/05 16:49:37","新北市三重區仁愛街53巷186號","121.500301666667","25.072925","6500200","三重區"
"241028","022-UY","2018/06/05 16:49:34","新北市三重區光興街95號","121.497273333333","25.0599316666667","6500200","三重區"
"241008","059-VK","2018/06/05 16:49:42","新北市三重區永安北路一段11巷20號","121.477318333333","25.0748466666667","6500200","三重區"
"241031","061-VK","2018/06/05 16:49:28","新北市三重區過圳街42-1號","121.488246666667","25.059685","6500200","三重區"
"241015","062-VK","2018/06/05 16:49:37","新北市三重區長元西街1號","121.498783333333","25.0657316666667","6500200","三重區"
"241017","063-VK","2018/06/05 16:49:20","新北市三重區國隆路8巷9號","121.493148333333","25.0636183333333","6500200","三重區"
"241024","065-VK","2018/06/05 16:49:37","新北市三重區國道路一段139號","121.475451666667","25.0735166666667","6500200","三重區"
"241026","066-VK","2018/06/05 16:49:31","新北市三重區文化南路8-3號","121.500241666667","25.0621566666667","6500200","三重區"
"241003","091-VK","2018/06/05 16:49:35","新北市三重區五華街140號","121.491436666667","25.083905","6500200","三重區"
"241013","742-BX","2018/06/05 16:49:37","新北市三重區仁和街40號","121.496801666667","25.0737016666667","6500200","三重區"
"241005","262-UM","2018/06/05 16:49:32","新北市三重區仁華街80巷24號","121.484411666667","25.0837766666667","6500200","三重區"
"241009","265-UM","2018/06/05 16:49:24","新北市三重區三和路四段203巷229號","121.48692","25.080805","6500200","三重區"
"241016","266-UM","2018/06/05 16:49:39","新北市三重區大同北路167巷40號","121.494043333333","25.0653766666667","6500200","三重區"
"241022","267-UM","2018/06/05 16:49:41","新北市三重區中華路109號","121.48362","25.0635516666667","6500200","三重區"
"241018","268-UM","2018/06/05 16:49:29","新北市三重區正義北路294號","121.495311666667","25.0694733333333","6500200","三重區"
"241025","271-UM","2018/06/05 16:49:38","新北市三重區中正北路530巷4號","121.471966666667","25.0714516666667","6500200","三重區"
"241007","398-BY","2018/06/05 16:49:26","新北市三重區三和路四段181巷57號","121.484106666667","25.0794133333333","6500200","三重區"
"241002","413-TH","2018/06/05 16:49:24","新北市三重區仁義街143巷8號","121.497408333333","25.080785","6500200","三重區"
"241004","475-VK","2018/06/05 16:49:26","新北市三重區仁愛街397巷17號","121.492","25.0814583333333","6500200","三重區"
"241020","478-VK","2018/06/05 16:49:28","新北市三重區忠孝路二段34號","121.485731666667","25.07095","6500200","三重區"
"241030","480-VK","2018/06/05 16:49:32","新北市三重區新興路4號","121.492666666667","25.0527366666667","6500200","三重區"
"241014","543-UM","2018/06/05 16:49:34","新北市三重區長壽街120巷19弄9號","121.50253","25.0692066666667","6500200","三重區"
"241023","545-UM","2018/06/05 16:49:40","新北市三重區新北大道一段206巷5號","121.48245","25.0621483333333","6500200","三重區"
"241001","547-UM","2018/06/05 16:49:39","新北市三重區仁政街60號","121.492911666667","25.0771066666667","6500200","三重區"
"241019","KEA-2593","2018/06/05 16:49:32","新北市三重區力行路一段179巷17弄2號","121.48543","25.0700116666667","6500200","三重區"
"241006","AAD-863","2018/06/05 16:49:27","新北市三重區力行路二段160號","121.48275","25.0764216666667","6500200","三重區"
"241032","887-TS","2018/06/05 16:49:30","新北市三重區重陽路一段120巷39號","121.484946666667","25.0603233333333","6500200","三重區"
"241012","941-UM","2018/06/05 16:49:37","新北市三重區仁興街11巷79號","121.501971666667","25.0748166666667","6500200","三重區"
"241029","942-UM","2018/06/05 16:49:42","新北市三重區新興路36號","121.491771666667","25.0535583333333","6500200","三重區"
"241033","AAC-255","2018/06/05 16:49:36","新北市三重區新北大道二段65號","121.469058333333","25.0610466666667","6500200","三重區"
"235062","800-TS","2018/06/05 16:21:50","新北市中和區員山路36巷16-3號","121.484753333333","24.9915633333333","6500300","中和區"
"247006","053-VK","2018/06/05 16:49:26","新北市蘆洲區永安南路二段132-1號","121.46264","25.0784533333333","6501400","蘆洲區"
"247020","001-UY","2018/06/05 16:49:25","新北市蘆洲區民族路422巷9弄6號","121.473945","25.0921916666667","6501400","蘆洲區"
"228002","663-BX","2018/06/05 16:49:31","新北市貢寮區貢寮里長潭街25號","121.899225","25.0239666666667","6502600","貢寮區"
"228003","828-UM","2018/06/05 16:49:41","新北市貢寮區貢寮里朝陽街1-2號","121.912335","25.02128","6502600","貢寮區"
"224006","676-BX","2018/06/05 16:49:29","新北市瑞芳區大寮路356號","121.784606666667","25.103025","6501200","瑞芳區"
"224008","285-BY","2018/06/05 16:49:29","新北市瑞芳區明燈路二段2巷7號","121.814401666667","25.1085416666667","6501200","瑞芳區"
"224007","275-VK","2018/06/05 16:49:24","新北市瑞芳區瑞竹路76-3號","121.763305","25.1034416666667","6501200","瑞芳區"
"224009","273-VK","2018/06/05 16:49:21","新北市瑞芳區中山路209號","121.80126","25.1067433333333","6501200","瑞芳區"
"224005","271-BY","2018/06/05 16:49:35","新北市瑞芳區明里路82-1號","121.867065","25.1219416666667","6501200","瑞芳區"
"227003","642-TC","2018/06/05 16:49:43","新北市雙溪區外柑里外柑腳71號","121.807043333333","25.01759","6502500","雙溪區"
"227009","400-TW","2018/06/05 16:49:38","新北市雙溪區牡丹里五分10號","121.866576666667","25.04712","6502500","雙溪區"
"251013","KEA-2871","2018/06/05 16:49:44","新北市淡水區泉洲厝32號","121.489293333333","25.1925883333333","6501000","淡水區"
"251016","179-VK","2018/06/05 16:49:41","新北市淡水區北新路一段3-2號","121.474773333333","25.18487","6501000","淡水區"
"251014","180-VK","2018/06/05 16:49:38","新北市淡水區淡金路四段478號","121.45244","25.2239216666667","6501000","淡水區"
"251015","182-VK","2018/06/05 16:49:22","新北市淡水區忠愛街6號","121.460825","25.17155","6501000","淡水區"
"251010","413-VK","2018/06/05 16:49:23","新北市淡水區中正路二段31號","121.419483333333","25.1815416666667","6501000","淡水區"
"251012","441-VK","2018/06/05 16:49:36","新北市淡水區中正路二段31號","121.419675","25.1815283333333","6501000","淡水區"
"251007","442-VK","2018/06/05 16:49:28","新北市淡水區中正路二段31號","121.41972","25.18151","6501000","淡水區"
"251008","575-R6","2018/06/05 16:49:28","新北市淡水區樹梅坑36號","121.474638333333","25.14392","6501000","淡水區"
"251011","650-BX","2018/06/05 16:49:26","新北市淡水區中正路一段33號","121.425815","25.1766516666667","6501000","淡水區"
"252002","178-VK","2018/06/05 16:49:32","新北市三芝區忠孝街122-1號","121.505951666667","25.257545","6502100","三芝區"
"252001","292-VK","2018/06/05 16:49:24","新北市三芝區淡金路二段89號","121.503943333333","25.26082","6502100","三芝區"
"242025","613-BX","2018/06/05 16:49:33","新北市新莊區新泰路357巷3弄57號","121.442215","25.0392483333333","6500500","新莊區"
"242029","612-BX","2018/06/05 16:49:28","新北市新莊區新泰路255巷83號","121.442491666667","25.0392616666667","6500500","新莊區"
"242023","362-BY","2018/06/05 16:49:27","新北市新莊區新泰路255巷83號","121.442583333333","25.038605","6500500","新莊區"
"242017","175-VK","2018/06/05 16:49:31","新北市新莊區三和路12-21號","121.442123333333","25.038685","6500500","新莊區"
"242005","176-VK","2018/06/05 16:49:38","新北市新莊區三和路12-21號","121.44205","25.03872","6500500","新莊區"
