"lineid","car","time","location","longitude","latitude","cityid","cityname"
"234026","9371-KE","2018/06/05 17:39:35","新北市永和區中正路637號","121.515343333333","25.0100816666667","6500400","永和區"
"249001","173-UM","2018/06/05 17:39:30","新北市八里區龍米路二段153-8號","121.44006","25.1535666666667","6502300","八里區"
"249004","303-UY","2018/06/05 17:39:37","新北市八里區賢一街70-3號","121.418818333333","25.1574866666667","6502300","八里區"
"249002","305-UY","2018/06/05 17:39:34","新北市八里區石壁腳19號","121.441721666667","25.1353583333333","6502300","八里區"
"249003","593-UM","2018/06/05 17:39:40","新北市八里區中山路二段135號","121.405356666667","25.1515216666667","6502300","八里區"
"249005","759-BX","2018/06/05 17:39:43","新北市八里區荖阡坑路34-1號","121.40275","25.1297966666667","6502300","八里區"
"232011","375-UM","2018/06/05 17:39:29","新北市坪林區鶯子瀨9-8號","121.709895","24.917035","6502000","坪林區"
"244007","080-UY","2018/06/05 17:39:42","新北市林口區湖子49號","121.383308333333","25.092475","6501700","林口區"
"244019","403-UM","2018/06/05 17:39:28","新北市林口區忠孝路533號","121.371836666667","25.069235","6501700","林口區"
"244013","742-UY","2018/06/05 17:39:34","新北市林口區中山路299號","121.384003333333","25.0803466666667","6501700","林口區"
"244023","483-VK","2018/06/05 17:39:41","新北市林口區興林路351號","121.389031666667","25.0683916666667","6501700","林口區"
"244017","485-VK","2018/06/05 17:39:36","新北市林口區忠孝路407號","121.3704","25.0706416666667","6501700","林口區"
"244011","657-BX","2018/06/05 17:39:40","新北市林口區佳林路211號","121.38422","25.0770583333333","6501700","林口區"
"244025","837-TS","2018/06/05 17:39:44","新北市林口區文化三路一段377-1號","121.365075","25.0736916666667","6501700","林口區"
"244021","838-TS","2018/06/05 17:39:29","新北市林口區仁愛路一段26號","121.397385","25.0754433333333","6501700","林口區"
"231046","188-VK","2018/06/05 17:39:31","新北市新店區直潭路109號","121.531578333333","24.93675","6500600","新店區"
"221035","KEA-2785","2018/06/05 17:39:30","新北市汐止區汐萬路一段256巷1號","121.652011666667","25.0747883333333","6501100","汐止區"
"241024","065-VK","2018/06/05 17:39:37","新北市三重區大勇街5號","121.483656666667","25.0714316666667","6500200","三重區"
"241003","091-VK","2018/06/05 17:39:33","新北市三重區五華街141巷60號","121.493355","25.0866683333333","6500200","三重區"
"241005","262-UM","2018/06/05 17:39:32","新北市三重區碧華街378號","121.490896666667","25.0843483333333","6500200","三重區"
"241016","266-UM","2018/06/05 17:39:39","新北市三重區正義北路2巷2號","121.49767","25.062475","6500200","三重區"
"241007","398-BY","2018/06/05 17:39:26","新北市三重區車路頭街78號","121.484321666667","25.0740533333333","6500200","三重區"
"241014","543-UM","2018/06/05 17:39:33","新北市三重區介壽路39巷160號","121.502008333333","25.0707533333333","6500200","三重區"
"241023","545-UM","2018/06/05 17:39:43","新北市三重區中華路94號","121.483425","25.0631016666667","6500200","三重區"
"241012","941-UM","2018/06/05 17:39:37","新北市三重區龍濱路285號","121.50109","25.0733116666667","6500200","三重區"
"241033","AAC-255","2018/06/05 17:39:36","新北市三重區光復路一段49號","121.47206","25.04885","6500200","三重區"
"247024","893-R6","2018/06/05 17:39:32","新北市蘆洲區長樂路159號","121.46211","25.0881333333333","6501400","蘆洲區"
"247014","546-UM","2018/06/05 17:39:30","新北市蘆洲區中正路25號","121.471291666667","25.0821283333333","6501400","蘆洲區"
"247022","500-BY","2018/06/05 17:39:28","新北市蘆洲區民族路548巷37-1號","121.467265","25.0896483333333","6501400","蘆洲區"
"247010","341-TH","2018/06/05 17:39:27","新北市蘆洲區中山一路86號","121.478215","25.0812466666667","6501400","蘆洲區"
"247012","339-TH","2018/06/05 17:39:44","新北市蘆洲區民權路3巷14弄7號","121.475525","25.0855316666667","6501400","蘆洲區"
"247004","337-TH","2018/06/05 17:39:26","新北市蘆洲區長安街172巷27號","121.460038333333","25.0839466666667","6501400","蘆洲區"
"247018","057-VK","2018/06/05 17:39:31","新北市蘆洲區民權路63號","121.473678333333","25.08808","6501400","蘆洲區"
"247008","056-VK","2018/06/05 17:39:39","新北市蘆洲區民生街127號","121.472688333333","25.07898","6501400","蘆洲區"
"247006","053-VK","2018/06/05 17:39:26","新北市蘆洲區長安街66號","121.462851666667","25.0802233333333","6501400","蘆洲區"
"247016","007-UY","2018/06/05 17:39:37","新北市蘆洲區光華路70巷11號","121.46766","25.0832816666667","6501400","蘆洲區"
"247002","002-UY","2018/06/05 17:39:41","新北市蘆洲區永平街42-1號","121.45812","25.0912533333333","6501400","蘆洲區"
"247020","001-UY","2018/06/05 17:39:25","新北市蘆洲區民族路464-1號","121.471773333333","25.0917433333333","6501400","蘆洲區"
"228001","212-TW","2018/06/05 17:37:06","新北市貢寮區真理里美艷山街6-2號","121.928965","25.0611316666667","6502600","貢寮區"
"228002","663-BX","2018/06/05 17:39:31","新北市貢寮區福隆里外隆林街15號","121.958753333333","25.0036466666667","6502600","貢寮區"
"228003","828-UM","2018/06/05 17:39:41","新北市貢寮區仁理村仁和路33號","121.923946666667","25.05386","6502600","貢寮區"
"224010","AGQ-8101","2018/06/05 17:36:30","新北市瑞芳區瑞芳街5號","121.806863333333","25.10994","6501200","瑞芳區"
"224006","676-BX","2018/06/05 17:39:30","新北市瑞芳區傑魚坑路60號","121.793531666667","25.110615","6501200","瑞芳區"
"224008","285-BY","2018/06/05 17:39:39","新北市瑞芳區瑞柑新村1-1號","121.829508333333","25.106245","6501200","瑞芳區"
"224009","273-VK","2018/06/05 17:39:33","新北市瑞芳區金光路316巷19號","121.850411666667","25.1083033333333","6501200","瑞芳區"
"224005","271-BY","2018/06/05 17:39:35","新北市瑞芳區籠山路14號","121.831656666667","25.124275","6501200","瑞芳區"
"227003","642-TC","2018/06/05 17:39:24","新北市雙溪區共和里東榮街29號","121.866205","25.0336416666667","6502500","雙溪區"
"251009","008-UM","2018/06/05 17:39:21","新北市淡水區中正路38-1號","121.443695","25.169375","6501000","淡水區"
"251004","009-UM","2018/06/05 17:39:33","新北市淡水區中正東路二段177號","121.459456666667","25.1446916666667","6501000","淡水區"
"251005","010-UM","2018/06/05 17:39:26","新北市淡水區鄧公路33巷9號","121.451856666667","25.170995","6501000","淡水區"
"251001","011-UM","2018/06/05 17:39:35","新北市淡水區民權路92巷35-1號","121.462036666667","25.1266583333333","6501000","淡水區"
"251002","012-UM","2018/06/05 17:39:30","新北市淡水區中山路135號","121.441103333333","25.1713933333333","6501000","淡水區"
"251013","KEA-2871","2018/06/05 17:39:24","新北市淡水區演戲埔腳7號","121.471245","25.1940666666667","6501000","淡水區"
"251016","179-VK","2018/06/05 17:39:41","新北市淡水區埤島39-15號","121.45276","25.1958866666667","6501000","淡水區"
"251014","180-VK","2018/06/05 17:39:38","新北市淡水區公埔子15-1號","121.479498333333","25.22589","6501000","淡水區"
"251015","182-VK","2018/06/05 17:39:22","新北市淡水區興福寮1-8號","121.489633333333","25.1649466666667","6501000","淡水區"
"251010","413-VK","2018/06/05 17:39:43","新北市淡水區淡海路292-2號","121.418941666667","25.1888116666667","6501000","淡水區"
"251012","441-VK","2018/06/05 17:39:36","新北市淡水區北新路200巷8號","121.451768333333","25.1796733333333","6501000","淡水區"
"251007","442-VK","2018/06/05 17:39:28","新北市淡水區民生路124巷22號","121.464046666667","25.13772","6501000","淡水區"
"251006","561-UM","2018/06/05 17:39:28","新北市淡水區大信街24巷2號","121.44193","25.17673","6501000","淡水區"
"251008","575-R6","2018/06/05 17:39:28","新北市淡水區八勢路一段123巷7弄2號","121.466486666667","25.1572883333333","6501000","淡水區"
"251011","650-BX","2018/06/05 17:39:26","新北市淡水區小坪頂13-3號","121.486608333333","25.1561833333333","6501000","淡水區"
"251003","673-BX","2018/06/05 17:39:26","新北市淡水區中山北路一段76號","121.442138333333","25.175985","6501000","淡水區"
"207003","550-UM","2018/06/05 17:39:39","新北市萬里區野柳里東澳路66號","121.692841666667","25.200965","6502800","萬里區"
"207004","225-TW","2018/06/05 17:39:30","新北市萬里區中幅里中福路20號","121.684471666667","25.1644116666667","6502800","萬里區"
"252002","178-VK","2018/06/05 17:39:32","新北市三芝區中正路二段15號","121.504418333333","25.255425","6502100","三芝區"
"252001","292-VK","2018/06/05 17:39:44","新北市三芝區淡金路二段4號","121.502355","25.2592366666667","6502100","三芝區"
"237013","252-BX","2018/06/05 17:39:40","新北市三峽區愛國路33-9號","121.374918333333","24.9330483333333","6500900","三峽區"
"237016","649-BX","2018/06/05 17:39:38","新北市三峽區正義街98號","121.36883","24.9175616666667","6500900","三峽區"
"237010","706-TV","2018/06/05 17:39:32","新北市三峽區中山路117號","121.365675","24.935805","6500900","三峽區"
"236079","166-UM","2018/06/05 17:39:37","新北市土城區城林路6巷80號","121.438425","24.9796616666667","6501300","土城區"
"236014","270-VK","2018/06/05 17:39:30","新北市土城區城林路6巷80號","121.438438333333","24.979645","6501300","土城區"
"236059","752-BX","2018/06/05 17:39:38","新北市土城區城林路6巷80號","121.438491666667","24.97972","6501300","土城區"
"236063","915-UM","2018/06/05 17:39:32","新北市土城區城林路6巷80號","121.438441666667","24.9795716666667","6501300","土城區"
"242034","AAC-296","2018/06/05 17:39:42","新北市新莊區新莊路637號","121.445248333333","25.0328616666667","6500500","新莊區"
"242058","986-R7","2018/06/05 17:39:34","新北市新莊區中正路696號","121.418826666667","25.0278533333333","6500500","新莊區"
"242054","751-BX","2018/06/05 17:39:29","新北市新莊區新樹路454號","121.431355","25.001125","6500500","新莊區"
"242027","705-TV","2018/06/05 17:39:45","新北市新莊區福壽街109號","121.45791","25.0509383333333","6500500","新莊區"
"242025","613-BX","2018/06/05 17:39:33","新北市新莊區思源路98號","121.46012","25.04601","6500500","新莊區"
"242029","612-BX","2018/06/05 17:39:28","新北市新莊區復興路一段169號","121.45113","25.0434116666667","6500500","新莊區"
"242042","566-BX","2018/06/05 17:39:43","新北市新莊區中正路514號","121.430198333333","25.0349083333333","6500500","新莊區"
"242046","497-BY","2018/06/05 17:39:26","新北市新莊區建國一路28號","121.433833333333","25.0315733333333","6500500","新莊區"
"242056","440-UM","2018/06/05 17:39:35","新北市新莊區泰豐街21號","121.448325","25.0318266666667","6500500","新莊區"
"242037","415-TV","2018/06/05 17:39:28","新北市新莊區後港一路169號","121.432311666667","25.0281866666667","6500500","新莊區"
"242007","413-TV","2018/06/05 17:39:38","新北市新莊區福樂街122號","121.457023333333","25.0478266666667","6500500","新莊區"
"242044","400-BY","2018/06/05 17:39:40","新北市新莊區富國路65巷7號","121.419913333333","25.0265333333333","6500500","新莊區"
"242023","362-BY","2018/06/05 17:39:27","新北市新莊區民樂街67號","121.457916666667","25.04189","6500500","新莊區"
"242061","353-BY","2018/06/05 17:39:31","新北市新莊區瓊林南路103巷8弄41號","121.435151666667","25.0111633333333","6500500","新莊區"
"242009","132-UY","2018/06/05 17:39:26","新北市新莊區昌明街14巷18號","121.45749","25.0534316666667","6500500","新莊區"
"242032","135-UY","2018/06/05 17:39:32","新北市新莊區新泰路384號","121.444043333333","25.0433583333333","6500500","新莊區"
"242048","172-VK","2018/06/05 17:39:38","新北市新莊區萬安街155號","121.420298333333","25.0214016666667","6500500","新莊區"
"242011","173-VK","2018/06/05 17:39:33","新北市新莊區中港路599號","121.451488333333","25.052925","6500500","新莊區"
"242017","175-VK","2018/06/05 17:39:30","新北市新莊區復興路一段149巷22弄2號","121.45029","25.04411","6500500","新莊區"
"242005","176-VK","2018/06/05 17:39:38","新北市新莊區自立街200號","121.456731666667","25.0454983333333","6500500","新莊區"
"242015","346-TH","2018/06/05 17:39:30","新北市新莊區新泰路295號","121.44543","25.0407833333333","6500500","新莊區"
"242039","347-TH","2018/06/05 17:39:29","新北市新莊區民全街11號","121.428953333333","25.0214933333333","6500500","新莊區"
"242021","348-TH","2018/06/05 17:39:29","新北市新莊區中華路一段112號","121.452471666667","25.040405","6500500","新莊區"
"242051","349-TH","2018/06/05 17:39:44","新北市新莊區西盛街226號","121.428101666667","25.016575","6500500","新莊區"
"242019","350-TH","2018/06/05 17:39:39","新北市新莊區中港路179號","121.454886666667","25.0414666666667","6500500","新莊區"
"242013","351-TH","2018/06/05 17:39:24","新北市新莊區中誠街92號","121.450035","25.0478283333333","6500500","新莊區"
"238015","755-BX","2018/06/05 17:39:31","新北市樹林區啟智街34號","121.420788333333","24.99336","6500700","樹林區"
"238023","601-UM","2018/06/05 17:39:40","新北市樹林區三福街124號","121.406","25.0163616666667","6500700","樹林區"
"238019","599-UM","2018/06/05 17:39:35","新北市樹林區太平路145號","121.4192","24.97987","6500700","樹林區"
"238018","571-TV","2018/06/05 17:39:36","新北市樹林區鎮前街113號","121.424276666667","24.9896833333333","6500700","樹林區"
"238024","5061-A6","2018/06/05 17:39:35","新北市樹林區太平路247巷30號","121.422121666667","24.9746666666667","6500700","樹林區"
"238022","KEA-2213","2018/06/05 17:39:31","新北市樹林區中華路185-1號","121.420461666667","24.9816933333333","6500700","樹林區"
"238021","KEA-2539","2018/06/05 17:39:40","新北市樹林區柑園街一段206號","121.393331666667","24.9563183333333","6500700","樹林區"
"238025","303-VK","2018/06/05 17:39:35","新北市樹林區保安街二段192號","121.412553333333","25.0104033333333","6500700","樹林區"
"238017","283-BY","2018/06/05 17:39:32","新北市樹林區中正路278-1號","121.416248333333","25.0085033333333","6500700","樹林區"
"238014","282-BY","2018/06/05 17:39:36","新北市樹林區保安街一段360巷1號","121.417848333333","24.9987133333333","6500700","樹林區"
"238020","268-VK","2018/06/05 17:39:25","新北市樹林區俊英街166巷1號","121.42687","25.00713","6500700","樹林區"
"238026","172-UY","2018/06/05 17:39:34","新北市樹林區中山路三段27巷3弄12-5號","121.402105","24.973515","6500700","樹林區"
"238016","169-UY","2018/06/05 17:39:30","新北市樹林區復興路240號","121.418731666667","24.98924","6500700","樹林區"
"239007","AAC-297","2018/06/05 17:39:29","新北市鶯歌區鶯桃路182巷15號","121.338901666667","24.9575183333333","6500800","鶯歌區"
"239006","891-R6","2018/06/05 17:39:30","新北市鶯歌區鶯桃路501號","121.331608333333","24.9665433333333","6500800","鶯歌區"
"239008","527-UM","2018/06/05 17:39:37","桃園市龜山區宏德司法新村4號","121.33121","24.979315","6500800","鶯歌區"
"239005","526-UM","2018/06/05 17:39:33","新北市鶯歌區鶯桃路二段21號","121.325713333333","24.972165","6500800","鶯歌區"
"239001","417-VK","2018/06/05 17:39:34","新北市鶯歌區中正三路267號","121.332883333333","24.9381866666667","6500800","鶯歌區"
"239003","360-BY","2018/06/05 17:39:32","新北市鶯歌區鶯桃路179號","121.338133333333","24.9582633333333","6500800","鶯歌區"
"239002","359-BY","2018/06/05 17:39:44","新北市鶯歌區育智路22號","121.344848333333","24.9551716666667","6500800","鶯歌區"
"239004","193-VK","2018/06/05 17:39:41","新北市三峽區隆恩街250號","121.357003333333","24.940785","6500800","鶯歌區"
"221008","489-VK","2018/06/05 17:39:37","新北市汐止區康寧街901號","121.651393333333","25.0750866666667","6501100","汐止區"
"221010","269-BY","2018/06/05 17:39:41","新北市汐止區汐萬路一段418巷1弄5號","121.649813333333","25.0786616666667","6501100","汐止區"
"221023","279-VK","2018/06/05 17:39:40","新北市汐止區康寧街901號","121.651748333333","25.0749833333333","6501100","汐止區"
"221032","280-BY","2018/06/05 17:39:24","新北市汐止區汐萬路一段312號","121.650455","25.0754616666667","6501100","汐止區"
"221033","647-BX","2018/06/05 17:39:43","新北市汐止區光復街8巷20號","121.638705","25.05715","6501100","汐止區"
"221002","707-TV","2018/06/05 17:39:41","新北市汐止區康寧街901號","121.651491666667","25.0750366666667","6501100","汐止區"
"221018","753-BX","2018/06/05 17:39:27","新北市汐止區汐萬路一段256巷1號","121.651963333333","25.074815","6501100","汐止區"
"242002","KEA-2550","2018/06/05 17:39:43","新北市新莊區新莊路286號","121.451385","25.0338733333333","6500500","新莊區"
