"lineid","car","time","location","longitude","latitude","cityid","cityname"
"234026","9371-KE","2018/06/05 18:09:35","新北市永和區永和路一段72巷4號","121.51337","25.0061116666667","6500400","永和區"
"249001","173-UM","2018/06/05 18:09:30","新北市八里區龍米路二段28號","121.448756666667","25.1396433333333","6502300","八里區"
"249004","303-UY","2018/06/05 18:09:37","新北市八里區龍米路二段200巷5號","121.433746666667","25.158815","6502300","八里區"
"249002","305-UY","2018/06/05 18:09:34","新北市八里區龍米路一段386巷20號","121.452276666667","25.1315266666667","6502300","八里區"
"249003","593-UM","2018/06/05 18:09:36","新北市八里區中華路二段352號","121.402503333333","25.147275","6502300","八里區"
"249005","759-BX","2018/06/05 18:09:43","新北市八里區荖阡坑路15-40號","121.401743333333","25.1399183333333","6502300","八里區"
"248006","077-UY","2018/06/05 18:09:37","新北市五股區中興路二段81號","121.46082","25.0772033333333","6501500","五股區"
"248008","095-VK","2018/06/05 18:09:43","新北市蘆洲區永安南路二段310號","121.457111666667","25.082425","6501500","五股區"
"248020","225-UY","2018/06/05 18:09:42","新北市五股區成泰路三段544-1號","121.45514","25.100955","6501500","五股區"
"248014","261-SL","2018/06/05 18:09:43","新北市五股區成泰路一段197號","121.43511","25.0766533333333","6501500","五股區"
"248010","272-BY","2018/06/05 18:09:33","新北市五股區成泰路一段219-5號","121.435205","25.0775466666667","6501500","五股區"
"248004","677-BX","2018/06/05 18:09:29","新北市五股區工商路46號","121.439233333333","25.0839216666667","6501500","五股區"
"248002","678-BX","2018/06/05 18:09:41","新北市五股區成泰路三段75-1號","121.44361","25.0897783333333","6501500","五股區"
"232011","375-UM","2018/06/05 18:09:35","新北市坪林區國中路3號","121.712886666667","24.9370233333333","6502000","坪林區"
"244007","080-UY","2018/06/05 18:09:42","新北市林口區竹林路554-1號","121.387245","25.0842833333333","6501700","林口區"
"244019","403-UM","2018/06/05 18:09:28","新北市林口區文化一路一段100巷10弄1號","121.373838333333","25.07087","6501700","林口區"
"244013","742-UY","2018/06/05 18:09:34","新北市林口區中山路56號","121.394696666667","25.07851","6501700","林口區"
"244009","410-SL","2018/06/05 18:09:33","新北市林口區佳林路43號","121.386303333333","25.0815283333333","6501700","林口區"
"244023","483-VK","2018/06/05 18:09:41","新北市林口區東湖路153巷135號","121.382225","25.0735683333333","6501700","林口區"
"244017","485-VK","2018/06/05 18:09:16","新北市林口區文化一路一段15巷2號","121.369545","25.0690383333333","6501700","林口區"
"244011","657-BX","2018/06/05 18:09:40","新北市林口區中正路42號","121.395475","25.07754","6501700","林口區"
"244025","837-TS","2018/06/05 18:09:44","新北市林口區文化北路一段299巷73號","121.359241666667","25.072805","6501700","林口區"
"244021","838-TS","2018/06/05 18:09:29","新北市林口區自強九街10號","121.400818333333","25.0760716666667","6501700","林口區"
"243013","AAD-798","2018/06/05 18:09:44","新北市泰山區南林路93號","121.41549","25.0511966666667","6501600","泰山區"
"222003","436-BY","2018/06/05 18:09:41","新北市深坑區文山路三段16-1號","121.61254","24.9980416666667","6501800","深坑區"
"222002","659-BX","2018/06/05 18:09:31","新北市深坑區文化街42號","121.619093333333","25.0017233333333","6501800","深坑區"
"231059","046-UY","2018/06/05 18:09:42","新北市新店區安華路28-1號","121.5195","24.9606766666667","6500600","新店區"
"231044","106-UY","2018/06/05 18:09:28","新北市新店區安華路28-1號","121.519715","24.9608116666667","6500600","新店區"
"231053","108-UY","2018/06/05 18:09:32","新北市新店區安一路一段1-1號","121.519575","24.9610833333333","6500600","新店區"
"231046","188-VK","2018/06/05 18:09:31","新北市新店區直潭七街60號","121.532271666667","24.9399433333333","6500600","新店區"
"231054","KEA-2219","2018/06/05 18:09:44","新北市新店區安一路一段1-1號","121.519798333333","24.9612216666667","6500600","新店區"
"221035","KEA-2785","2018/06/05 18:09:30","新北市汐止區汐萬路一段18號","121.656118333333","25.0675883333333","6501100","汐止區"
"231042","268-BY","2018/06/05 18:09:41","新北市新店區安華路1-1號","121.51938","24.9604116666667","6500600","新店區"
"231058","3713-VJ","2018/06/05 18:09:29","新北市新店區安華路1-1號","121.519226666667","24.9605733333333","6500600","新店區"
"231066","4716-K9","2018/06/05 18:09:40","新北市新店區安一路一段1-1號","121.519283333333","24.96134","6500600","新店區"
"231056","4715-K9","2018/06/05 18:09:40","新北市新店區安華路28-1號","121.519711666667","24.9605633333333","6500600","新店區"
"231065","512-UM","2018/06/05 18:09:28","新北市新店區安一路一段1-1號","121.519291666667","24.961285","6500600","新店區"
"231049","513-UM","2018/06/05 18:09:30","新北市新店區安一路一段1-1號","121.519778333333","24.9612166666667","6500600","新店區"
"231045","617-UM","2018/06/05 18:09:32","新北市新店區安華路28-1號","121.51949","24.9609966666667","6500600","新店區"
"231061","619-UM","2018/06/05 18:09:26","新北市新店區安華路28-1號","121.519616666667","24.9607783333333","6500600","新店區"
"231060","897-TW","2018/06/05 18:09:26","新北市新店區安華路28-1號","121.519658333333","24.9607366666667","6500600","新店區"
"231043","899-TW","2018/06/05 18:09:39","新北市新店區安華路28-1號","121.51911","24.9609633333333","6500600","新店區"
"231055","AKT-0513","2018/06/05 18:09:27","新北市新店區安華路28-1號","121.519455","24.9606783333333","6500600","新店區"
"241024","065-VK","2018/06/05 18:09:37","新北市三重區中正北路244號","121.481696666667","25.0679883333333","6500200","三重區"
"241033","AAC-255","2018/06/05 18:09:36","新北市三重區中興北街50-8號","121.468875","25.050135","6500200","三重區"
"235064","005-UY","2018/06/05 18:09:28","新北市中和區中正路271號","121.495801666667","24.99371","6500300","中和區"
"235063","006-UY","2018/06/05 18:09:38","新北市中和區員山路36巷16-3號","121.485073333333","24.9912416666667","6500300","中和區"
"235056","096-UM","2018/06/05 18:09:26","新北市中和區中正路637巷52弄1號","121.485443333333","24.9936133333333","6500300","中和區"
"235065","098-UM","2018/06/05 18:09:33","新北市中和區中山路二段2巷45弄42號","121.501905","25.0064483333333","6500300","中和區"
"235040","150-BY","2018/06/05 18:09:42","新北市中和區中正路571巷2弄11-1號","121.486133333333","24.9939066666667","6500300","中和區"
"235058","151-BY","2018/06/05 18:09:36","新北市中和區圓通路367巷33弄15號","121.495228333333","24.9850933333333","6500300","中和區"
"235038","185-VK","2018/06/05 18:09:38","新北市中和區大仁街120號","121.520841666667","24.9920983333333","6500300","中和區"
"235067","255-BX","2018/06/05 18:09:27","新北市中和區和城路一段271巷1號","121.485655","24.9917566666667","6500300","中和區"
"235072","301-VK","2018/06/05 18:09:40","新北市中和區員山路36巷13號","121.484305","24.9907066666667","6500300","中和區"
"235050","4979-A6","2018/06/05 18:09:34","新北市中和區錦和路350-1號","121.490116666667","24.9935666666667","6500300","中和區"
"235069","4980-A6","2018/06/05 18:09:29","新北市中和區圓通路229號","121.496276666667","24.9942666666667","6500300","中和區"
"235042","551-UM","2018/06/05 18:09:33","新北市中和區興南路一段50號","121.510961666667","24.9906216666667","6500300","中和區"
"235070","558-UM","2018/06/05 18:09:36","新北市中和區中正路408號","121.492298333333","24.9939433333333","6500300","中和區"
"235045","565-BX","2018/06/05 18:09:28","新北市中和區錦和路350-1號","121.490556666667","24.99358","6500300","中和區"
"235054","640-BX","2018/06/05 18:09:35","新北市土城區延壽路113巷1號","121.469108333333","24.9939033333333","6500300","中和區"
"235047","732-UM","2018/06/05 18:09:24","新北市中和區中正路175號","121.497526666667","24.9936983333333","6500300","中和區"
"235046","733-UM","2018/06/05 18:09:40","新北市中和區員山路36巷13號","121.48416","24.99085","6500300","中和區"
"235071","783-BX","2018/06/05 18:09:35","新北市中和區員山路36巷16-3號","121.485175","24.99121","6500300","中和區"
"235062","800-TS","2018/06/05 18:09:23","新北市中和區環河西路三段83號","121.49282","25.00786","6500300","中和區"
"235057","801-TS","2018/06/05 18:09:27","新北市中和區員山路36巷16-3號","121.485045","24.9914966666667","6500300","中和區"
"235052","805-TS","2018/06/05 18:09:44","新北市中和區中正路173號","121.497625","24.9936933333333","6500300","中和區"
"235066","911-UM","2018/06/05 18:09:41","新北市中和區中山路二段115號","121.503001666667","25.0037183333333","6500300","中和區"
"235051","157-BY","2018/06/05 18:09:27","新北市中和區中正路175號","121.49753","24.993695","6500300","中和區"
"235037","AAC-213","2018/06/05 18:09:27","新北市中和區景平路147號","121.514051666667","24.9922233333333","6500300","中和區"
"226004","312-R5","2018/06/05 18:09:34","新北市平溪區薯榔里薯榔寮28號","121.713578333333","25.0194883333333","6502400","平溪區"
"228001","212-TW","2018/06/05 18:09:40","新北市貢寮區真理里新港街26巷55弄2號","121.927416666667","25.05292","6502600","貢寮區"
"228002","663-BX","2018/06/05 18:09:31","新北市貢寮區福連里馬崗街31-5號","122.002311666667","25.0126533333333","6502600","貢寮區"
"228003","828-UM","2018/06/05 18:09:41","新北市貢寮區真理里美艷山街6-2號","121.928875","25.0607116666667","6502600","貢寮區"
"224010","AGQ-8101","2018/06/05 17:59:30","新北市瑞芳區汽車路7-3號","121.848275","25.109885","6501200","瑞芳區"
"224006","676-BX","2018/06/05 18:09:30","新北市瑞芳區中山路251號","121.797926666667","25.109485","6501200","瑞芳區"
"224002","639-TC","2018/06/05 18:09:40","新北市瑞芳區三爪子坑路165號","121.810673333333","25.1058616666667","6501200","瑞芳區"
"224008","285-BY","2018/06/05 18:09:29","新北市瑞芳區員山子路23號","121.821398333333","25.1030216666667","6501200","瑞芳區"
"224007","275-VK","2018/06/05 18:09:44","新北市瑞芳區四腳亭坑路48號","121.769383333333","25.107605","6501200","瑞芳區"
"224009","273-VK","2018/06/05 18:09:32","新北市瑞芳區金光路115號","121.853641666667","25.1063","6501200","瑞芳區"
"224005","271-BY","2018/06/05 18:09:35","新北市瑞芳區建基路二段83號","121.80606","25.1338016666667","6501200","瑞芳區"
"227003","642-TC","2018/06/05 18:09:24","新北市雙溪區共和里東榮街27號","121.86604","25.0336216666667","6502500","雙溪區"
"253005","032-BX","2018/06/05 18:09:37","新北市石門區中央路48號","121.5681","25.2931133333333","6502200","石門區"
"253006","295-VK","2018/06/05 18:09:40","新北市石門區老梅路52巷19號","121.546426666667","25.28862","6502200","石門區"
"222001","KEA-2212","2018/06/05 18:09:23","新北市深坑區北深路二段178號","121.614231666667","25.0024033333333","6501800","深坑區"
"208002","KEA-2872","2018/06/05 18:09:39","新北市金山區三界壇路99巷9-1號","121.62132","25.2282866666667","6502700","金山區"
"208003","665-BX","2018/06/05 18:09:39","新北市金山區磺港里磺港路171號","121.643616666667","25.2242933333333","6502700","金山區"
"208001","761-BX","2018/06/05 18:09:42","新北市金山區磺港里磺港路61號","121.64759","25.2274866666667","6502700","金山區"
"251009","008-UM","2018/06/05 18:09:41","新北市淡水區大忠街34巷15號","121.443926666667","25.17567","6501000","淡水區"
"251004","009-UM","2018/06/05 18:09:33","新北市淡水區民權路187巷78號","121.461391666667","25.1345883333333","6501000","淡水區"
"251005","010-UM","2018/06/05 18:09:26","新北市淡水區水源街一段139號","121.447171666667","25.1718766666667","6501000","淡水區"
"251001","011-UM","2018/06/05 18:09:35","新北市淡水區自立路1巷19號","121.46262","25.12965","6501000","淡水區"
"251002","012-UM","2018/06/05 18:09:31","新北市淡水區中正東路一段127巷2號","121.455576666667","25.1592433333333","6501000","淡水區"
"251013","KEA-2871","2018/06/05 18:09:44","新北市淡水區竹圍子10號","121.476175","25.1943616666667","6501000","淡水區"
"251016","179-VK","2018/06/05 18:09:41","新北市淡水區下圭柔山15號","121.453025","25.2021766666667","6501000","淡水區"
"251014","180-VK","2018/06/05 18:09:38","新北市淡水區南平15號","121.488468333333","25.2191166666667","6501000","淡水區"
"251015","182-VK","2018/06/05 18:09:42","新北市淡水區興福寮66巷541號","121.484518333333","25.1651916666667","6501000","淡水區"
"251010","413-VK","2018/06/05 18:09:43","新北市淡水區中正路二段52號","121.419796666667","25.18331","6501000","淡水區"
"251012","441-VK","2018/06/05 18:09:36","新北市淡水區北新路三段173號","121.492478333333","25.1921516666667","6501000","淡水區"
"251006","561-UM","2018/06/05 18:09:28","新北市淡水區新民街82號","121.438516666667","25.1764866666667","6501000","淡水區"
"251008","575-R6","2018/06/05 18:09:28","新北市淡水區坪頂路70巷41號","121.460775","25.16048","6501000","淡水區"
"251011","650-BX","2018/06/05 18:09:26","新北市淡水區三空泉5號","121.47757","25.1620216666667","6501000","淡水區"
"251003","673-BX","2018/06/05 18:09:26","新北市淡水區大忠街113巷22號","121.447313333333","25.1773216666667","6501000","淡水區"
"207003","550-UM","2018/06/05 18:09:39","新北市萬里區野柳里港西路74號","121.685665","25.2050583333333","6502800","萬里區"
"207004","225-TW","2018/06/05 18:09:30","新北市萬里區中幅里中福路112-1號","121.676036666667","25.1676766666667","6502800","萬里區"
"252002","178-VK","2018/06/05 18:09:32","新北市三芝區中山路二段41號","121.50295","25.2550883333333","6502100","三芝區"
"252003","249-BX","2018/06/05 18:09:36","新北市三芝區埔頭里埔頭37號","121.498568333333","25.26041","6502100","三芝區"
"252001","292-VK","2018/06/05 18:09:24","新北市三芝區中興街二段2號","121.49836","25.2566183333333","6502100","三芝區"
"237004","KEA-2597","2018/06/05 18:09:38","新北市三峽區大埔路230號","121.374316666667","24.8906966666667","6500900","三峽區"
"237007","153-BY","2018/06/05 18:09:45","新北市三峽區中正路二段370巷24號","121.364841666667","24.910815","6500900","三峽區"
"237009","210-TH","2018/06/05 18:09:33","新北市三峽區大仁路50巷19號","121.365241666667","24.9382566666667","6500900","三峽區"
"237013","252-BX","2018/06/05 18:09:40","新北市三峽區長泰街41巷10號","121.377508333333","24.93225","6500900","三峽區"
"237008","302-VK","2018/06/05 18:09:26","新北市三峽區白雞54號","121.383205","24.910515","6500900","三峽區"
"237014","433-BY","2018/06/05 18:09:36","新北市三峽區復興路80巷15號","121.373553333333","24.9378066666667","6500900","三峽區"
"237011","KEA-2596","2018/06/05 18:09:33","新北市三峽區溪東路182號","121.406716666667","24.9325416666667","6500900","三峽區"
"237016","649-BX","2018/06/05 18:09:38","新北市三峽區紫新路38巷2號","121.422075","24.9224833333333","6500900","三峽區"
"237010","706-TV","2018/06/05 18:09:32","新北市三峽區民族街87號","121.36942","24.9292","6500900","三峽區"
"237005","AKY-6261","2018/06/05 18:09:40","新北市三峽區文化路65巷12號","121.371995","24.9355966666667","6500900","三峽區"
"236070","105-UM","2018/06/05 18:09:31","新北市土城區石門路15-1號","121.459415","24.9672216666667","6501300","土城區"
"236042","107-UM","2018/06/05 18:09:39","新北市土城區中華路二段2號","121.439208333333","24.9797533333333","6501300","土城區"
"236079","166-UM","2018/06/05 18:09:37","新北市土城區永安街82號","121.431793333333","24.9637216666667","6501300","土城區"
"236030","253-BX","2018/06/05 18:09:35","新北市土城區城林路6巷80號","121.438578333333","24.979665","6501300","土城區"
"236026","269-VK","2018/06/05 18:09:39","新北市土城區承天路18號","121.439506666667","24.963505","6501300","土城區"
"236014","270-VK","2018/06/05 18:09:30","新北市土城區學府路二段100號","121.447455","24.979705","6501300","土城區"
"236038","271-VK","2018/06/05 18:09:32","新北市土城區青雲路318號","121.458648333333","24.9771233333333","6501300","土城區"
"236021","401-BY","2018/06/05 18:09:27","新北市土城區城林路6巷80號","121.4388","24.9796366666667","6501300","土城區"
"236059","752-BX","2018/06/05 18:09:38","新北市土城區中央路四段123號","121.41632","24.95764","6501300","土城區"
"236049","913-UM","2018/06/05 18:09:24","新北市土城區金城路二段8-1號","121.448981666667","24.9771316666667","6501300","土城區"
"236063","915-UM","2018/06/05 18:09:31","新北市土城區學府路二段85號","121.449236666667","24.98001","6501300","土城區"
"236055","AAC-216","2018/06/05 18:09:23","新北市土城區中華路二段2號","121.439446666667","24.97958","6501300","土城區"
"242034","AAC-296","2018/06/05 18:09:31","新北市新莊區景德路308號","121.447486666667","25.033635","6500500","新莊區"
"242058","986-R7","2018/06/05 18:09:34","新北市新莊區新北大道七段726號","121.412443333333","25.0259316666667","6500500","新莊區"
"242054","751-BX","2018/06/05 18:09:29","新北市新莊區光華街48號","121.428595","25.0116516666667","6500500","新莊區"
"242027","705-TV","2018/06/05 18:09:37","新北市新莊區幸福路566號","121.4544","25.0493166666667","6500500","新莊區"
"242025","613-BX","2018/06/05 18:09:38","新北市新莊區五工一路96號","121.460708333333","25.0681283333333","6500500","新莊區"
"242029","612-BX","2018/06/05 18:09:27","新北市新莊區幸福路852號","121.44399","25.0489466666667","6500500","新莊區"
"242042","566-BX","2018/06/05 18:09:43","新北市新莊區天祥街129號","121.414191666667","25.0298183333333","6500500","新莊區"
"242046","497-BY","2018/06/05 18:09:25","新北市新莊區福營路302號","121.422435","25.0274666666667","6500500","新莊區"
"242056","440-UM","2018/06/05 18:09:35","新北市新莊區豐年街53巷50號","121.447805","25.0315733333333","6500500","新莊區"
"242037","415-TV","2018/06/05 18:09:28","新北市新莊區後港一路65巷6號","121.426498333333","25.0267616666667","6500500","新莊區"
"242007","413-TV","2018/06/05 18:09:38","新北市新莊區自立街79巷13號","121.45438","25.04597","6500500","新莊區"
"242044","400-BY","2018/06/05 18:09:40","新北市新莊區中正路力行巷1弄7號","121.416948333333","25.02604","6500500","新莊區"
"242061","353-BY","2018/06/05 18:09:34","新北市新莊區新樹路178號","121.434408333333","25.021235","6500500","新莊區"
"242009","132-UY","2018/06/05 18:09:26","新北市新莊區中華路二段157號","121.452845","25.05157","6500500","新莊區"
"242032","135-UY","2018/06/05 18:09:39","新北市新莊區新泰路277巷44號","121.44374","25.0401633333333","6500500","新莊區"
"242048","172-VK","2018/06/05 18:09:36","新北市新莊區後港一路19號","121.424148333333","25.026215","6500500","新莊區"
"242011","173-VK","2018/06/05 17:53:13","新北市新莊區中港路679號","121.450568333333","25.0562983333333","6500500","新莊區"
"242017","175-VK","2018/06/05 18:09:30","新北市新莊區中港路296號","121.453011666667","25.04494","6500500","新莊區"
"242015","346-TH","2018/06/05 18:09:30","新北市新莊區中和街59巷10弄9號","121.446776666667","25.0472066666667","6500500","新莊區"
"242039","347-TH","2018/06/05 18:09:29","新北市新莊區民安西路88巷7號","121.426296666667","25.0198616666667","6500500","新莊區"
"242021","348-TH","2018/06/05 18:09:29","新北市新莊區中華路一段63巷42號","121.450028333333","25.0392816666667","6500500","新莊區"
"242051","349-TH","2018/06/05 18:09:37","新北市新莊區民本街11巷24號","121.428836666667","25.0201833333333","6500500","新莊區"
"242019","350-TH","2018/06/05 18:09:39","新北市新莊區中港路138巷9號","121.456081666667","25.04104","6500500","新莊區"
"238015","755-BX","2018/06/05 18:09:31","新北市樹林區啟智街156巷1號","121.414776666667","24.98741","6500700","樹林區"
"238023","601-UM","2018/06/05 18:09:40","新北市樹林區龍興街33號","121.403145","25.015885","6500700","樹林區"
"238019","599-UM","2018/06/05 18:09:36","新北市樹林區忠孝街113巷2號","121.424776666667","24.98037","6500700","樹林區"
"238018","571-TV","2018/06/05 18:09:36","新北市樹林區俊英街2號","121.43049","24.99907","6500700","樹林區"
"238022","KEA-2213","2018/06/05 18:09:31","新北市樹林區太平路174巷6號","121.418301666667","24.976965","6500700","樹林區"
"238021","KEA-2539","2018/06/05 18:09:40","新北市樹林區柑園街二段22號","121.387663333333","24.9556733333333","6500700","樹林區"
"238025","303-VK","2018/06/05 18:09:35","新北市樹林區保安街一段328號","121.418341666667","24.997795","6500700","樹林區"
"238017","283-BY","2018/06/05 18:09:32","新北市樹林區中正路654號","121.40979","25.0165583333333","6500700","樹林區"
"238014","282-BY","2018/06/05 18:09:36","新北市樹林區千歲街61巷44號","121.42557","24.998705","6500700","樹林區"
"238020","268-VK","2018/06/05 18:09:30","新北市樹林區三龍街94巷30號","121.414356666667","25.0173433333333","6500700","樹林區"
"238026","172-UY","2018/06/05 18:09:34","新北市樹林區育德街45號","121.391736666667","24.9702683333333","6500700","樹林區"
"238016","169-UY","2018/06/05 18:09:29","新北市樹林區中山路一段191號","121.421346666667","24.9877466666667","6500700","樹林區"
"239007","AAC-297","2018/06/05 18:09:29","新北市鶯歌區尖山埔路100號","121.347368333333","24.951065","6500800","鶯歌區"
"239006","891-R6","2018/06/05 18:09:30","新北市鶯歌區鶯桃路367號","121.333786666667","24.9630716666667","6500800","鶯歌區"
"239008","527-UM","2018/06/05 18:09:37","新北市鶯歌區朝陽街53巷24號","121.338745","24.9777066666667","6500800","鶯歌區"
"239005","526-UM","2018/06/05 18:09:33","新北市鶯歌區鶯桃路668巷73號","121.329746666667","24.9716666666667","6500800","鶯歌區"
"239001","417-VK","2018/06/05 18:09:34","新北市鶯歌區高職東街23號","121.34044","24.9412966666667","6500800","鶯歌區"
"239003","360-BY","2018/06/05 18:09:32","新北市鶯歌區福安街1號","121.334003333333","24.9638066666667","6500800","鶯歌區"
"239002","359-BY","2018/06/05 18:09:44","新北市鶯歌區光明街206號","121.342871666667","24.9559883333333","6500800","鶯歌區"
"239004","193-VK","2018/06/05 18:09:41","新北市鶯歌區尖山路101巷7弄2號","121.348133333333","24.9487133333333","6500800","鶯歌區"
"221008","489-VK","2018/06/05 18:09:37","新北市汐止區康寧街338號","121.62778","25.0674533333333","6501100","汐止區"
"221036","130-UY","2018/06/05 18:09:40","新北市汐止區大同路三段121號","121.66881","25.0776733333333","6501100","汐止區"
"221015","131-UY","2018/06/05 18:09:43","新北市汐止區鄉長路二段90號","121.666471666667","25.0850316666667","6501100","汐止區"
"221010","269-BY","2018/06/05 18:09:41","新北市汐止區汐萬路二段275巷3弄1號","121.645331666667","25.08878","6501100","汐止區"
"221012","278-VK","2018/06/05 18:09:33","新北市汐止區保一街81-1號","121.674686666667","25.080265","6501100","汐止區"
"221023","279-VK","2018/06/05 18:09:40","新北市汐止區民族五街85號","121.627388333333","25.06975","6501100","汐止區"
"221032","280-BY","2018/06/05 18:09:37","新北市汐止區橫科路25號","121.618025","25.0511933333333","6501100","汐止區"
"221027","281-BY","2018/06/05 18:09:36","新北市汐止區大同路二段595號","121.663576666667","25.0705466666667","6501100","汐止區"
"221029","298-VK","2018/06/05 18:09:38","新北市汐止區樟樹二路243號","121.640648333333","25.067865","6501100","汐止區"
"221021","299-VK","2018/06/05 18:09:37","新北市汐止區龍安路202巷30號","121.652515","25.0633883333333","6501100","汐止區"
"221031","353-TW","2018/06/05 18:09:34","新北市汐止區中興路158-1號","121.632178333333","25.0650783333333","6501100","汐止區"
"221025","623-UM","2018/06/05 18:09:42","新北市汐止區秀峰路147號","121.660611666667","25.0622733333333","6501100","汐止區"
"221038","646-BX","2018/06/05 18:09:26","新北市汐止區仁愛路111號","121.66227","25.0633866666667","6501100","汐止區"
"221033","647-BX","2018/06/05 18:09:43","新北市汐止區宜興街40巷22弄2號","121.622545","25.04109","6501100","汐止區"
"221002","707-TV","2018/06/05 18:09:41","新北市汐止區福德一路203號","121.635418333333","25.0656","6501100","汐止區"
"221018","753-BX","2018/06/05 18:09:26","新北市汐止區忠孝東路382巷1弄22號","121.666295","25.0704166666667","6501100","汐止區"
"242002","KEA-2550","2018/06/05 18:09:28","新北市新莊區新莊路57號","121.458461666667","25.0371433333333","6500500","新莊區"
"235061","KEA-2875","2018/06/05 18:09:37","新北市中和區連城路599號","121.478696666667","24.99325","6500300","中和區"
