"lineid","car","time","location","longitude","latitude","cityid","cityname"
"234046","148-BY","2018/06/05 18:39:43","新北市永和區秀朗路二段66巷1號","121.522675","25.0014883333333","6500400","永和區"
"234007","207-UY","2018/06/05 18:39:24","新北市永和區環河西路二段7-7號","121.50899","25.01679","6500400","永和區"
"234081","298-R6","2018/06/05 18:39:25","新北市永和區林森路81號","121.52395","25.0037733333333","6500400","永和區"
"234038","336-UY","2018/06/05 18:39:41","新北市永和區福和路1號","121.526531666667","25.01006","6500400","永和區"
"234064","337-UY","2018/06/05 18:39:26","新北市永和區福和路1號","121.526448333333","25.0102","6500400","永和區"
"234086","338-UY","2018/06/05 18:39:42","新北市永和區安樂路198號","121.51511","25.0017716666667","6500400","永和區"
"234017","553-UM","2018/06/05 18:39:43","新北市永和區福和路1號","121.526383333333","25.0097066666667","6500400","永和區"
"234030","746-BX","2018/06/05 18:39:41","新北市永和區成功路一段89號","121.526878333333","25.002915","6500400","永和區"
"234013","KEA-2591","2018/06/05 18:39:28","新北市永和區信義路14-1號","121.51436","25.0120616666667","6500400","永和區"
"234061","AAD-866","2018/06/05 18:39:43","新北市永和區福和路1號","121.52607","25.0097083333333","6500400","永和區"
"234042","862-TW","2018/06/05 18:39:34","新北市永和區永和路一段22號","121.512886666667","25.004725","6500400","永和區"
"234050","863-TW","2018/06/05 18:39:38","新北市永和區福和路1號","121.526498333333","25.009875","6500400","永和區"
"234026","9371-KE","2018/06/05 18:39:35","新北市永和區永貞路379號","121.508166666667","25.00857","6500400","永和區"
"234011","9373-KE","2018/06/05 18:39:35","新北市永和區文化路9巷22弄32號","121.514508333333","25.014575","6500400","永和區"
"249001","173-UM","2018/06/05 18:39:30","新北市八里區龍米路一段382號","121.451583333333","25.131835","6502300","八里區"
"249004","303-UY","2018/06/05 18:39:37","新北市八里區中山路一段2號","121.423505","25.1589716666667","6502300","八里區"
"249005","759-BX","2018/06/05 18:39:43","新北市八里區中華路三段198號","121.388613333333","25.1258966666667","6502300","八里區"
"248016","026-BX","2018/06/05 18:39:44","新北市五股區凌雲路一段133巷36號","121.448738333333","25.100975","6501500","五股區"
"248008","095-VK","2018/06/05 18:39:43","新北市五股區中興路一段148號","121.464705","25.073895","6501500","五股區"
"248020","225-UY","2018/06/05 18:37:22","新北市五股區孝義路87號","121.4448","25.1199733333333","6501500","五股區"
"248012","247-BX","2018/06/05 18:39:33","新北市五股區成泰路三段2巷1-20號","121.440988333333","25.0864966666667","6501500","五股區"
"248014","261-SL","2018/06/05 18:39:43","新北市五股區蓬萊路24號","121.433946666667","25.0799116666667","6501500","五股區"
"248010","272-BY","2018/06/05 18:39:33","新北市五股區水碓一路18號","121.432318333333","25.0728933333333","6501500","五股區"
"248004","677-BX","2018/06/05 18:39:29","新北市五股區民義路一段222號","121.429146666667","25.0904683333333","6501500","五股區"
"248002","678-BX","2018/06/05 18:39:41","新北市五股區西雲路221號","121.44875","25.0969716666667","6501500","五股區"
"234023","9380-KE","2018/06/05 18:39:26","新北市永和區福和路8巷1號","121.524956666667","25.008945","6500400","永和區"
"234077","969-R7","2018/06/05 18:39:24","新北市永和區中正路416號","121.517573333333","25.002005","6500400","永和區"
"234067","AAC-212","2018/06/05 18:39:42","新北市永和區福和路199號","121.519478333333","25.0075366666667","6500400","永和區"
"234003","AAC-295","2018/06/05 18:39:36","新北市永和區福和路1號","121.525971666667","25.0092416666667","6500400","永和區"
"244007","080-UY","2018/06/05 18:39:42","新北市林口區後湖23-1號","121.387641666667","25.0990233333333","6501700","林口區"
"244019","403-UM","2018/06/05 18:39:27","新北市林口區忠孝路646巷70號","121.379596666667","25.067075","6501700","林口區"
"244013","742-UY","2018/06/05 18:39:34","新北市林口區中山路279號","121.384668333333","25.0795666666667","6501700","林口區"
"244009","410-SL","2018/06/05 18:39:33","新北市林口區文林一街99巷2號","121.37788","25.0873866666667","6501700","林口區"
"244023","483-VK","2018/06/05 18:39:41","新北市林口區信義路174號","121.379918333333","25.080525","6501700","林口區"
"244017","485-VK","2018/06/05 18:39:35","新北市林口區文化二路一段64-2號","121.365533333333","25.0687333333333","6501700","林口區"
"244011","657-BX","2018/06/05 18:39:40","新北市林口區興林路17巷5弄2號","121.390666666667","25.0770183333333","6501700","林口區"
"244025","837-TS","2018/06/05 18:39:44","新北市林口區南勢五街22號","121.356686666667","25.0753133333333","6501700","林口區"
"244021","838-TS","2018/06/05 18:39:29","新北市林口區工六路100號","121.401221666667","25.0766283333333","6501700","林口區"
"243013","AAD-798","2018/06/05 18:27:22","新北市泰山區明志路三段206巷8號","121.423308333333","25.0379983333333","6501600","泰山區"
"243012","646-TV","2018/06/05 18:39:29","新北市泰山區泰林路二段236號","121.432258333333","25.0620616666667","6501600","泰山區"
"222003","436-BY","2018/06/05 18:39:41","新北市深坑區翠谷街14號","121.627076666667","25.008565","6501800","深坑區"
"222002","659-BX","2018/06/05 18:39:31","新北市深坑區雲鄉路28號","121.62145","24.9997266666667","6501800","深坑區"
"231041","002-UM","2018/06/05 18:39:36","新北市新店區安華路28-1號","121.519655","24.9607983333333","6500600","新店區"
"231059","046-UY","2018/06/05 18:39:42","新北市新店區安華路28-1號","121.51961","24.9608633333333","6500600","新店區"
"231040","047-UY","2018/06/05 18:39:42","新北市新店區安華路28-1號","121.519188333333","24.9608733333333","6500600","新店區"
"231044","106-UY","2018/06/05 18:39:28","新北市新店區安康路一段130號","121.526756666667","24.96279","6500600","新店區"
"231053","108-UY","2018/06/05 18:39:33","新北市新店區永興路38號","121.543343333333","24.9386133333333","6500600","新店區"
"231048","187-VK","2018/06/05 18:39:40","新北市新店區安康路一段226號","121.523458333333","24.96359","6500600","新店區"
"231046","188-VK","2018/06/05 18:39:31","新北市新店區直潭二街1號","121.535528333333","24.9431983333333","6500600","新店區"
"231054","KEA-2219","2018/06/05 18:39:44","新北市新店區安一路一段1-1號","121.519956666667","24.96116","6500600","新店區"
"221035","KEA-2785","2018/06/05 18:39:30","新北市汐止區大同路二段124-1號","121.651095","25.063895","6501100","汐止區"
"231057","256-BX","2018/06/05 18:39:42","新北市新店區新烏路一段215號","121.549716666667","24.9316116666667","6500600","新店區"
"231042","268-BY","2018/06/05 18:39:41","新北市新店區安康路一段102號","121.527441666667","24.96243","6500600","新店區"
"231051","278-BY","2018/06/05 18:39:41","新北市新店區環河路29巷1號","121.53698","24.9613416666667","6500600","新店區"
"231058","3713-VJ","2018/06/05 18:39:29","新北市新店區北宜路一段168號","121.540421666667","24.952955","6500600","新店區"
"231066","4716-K9","2018/06/05 18:39:40","新北市新店區安一路一段1-1號","121.519238333333","24.961215","6500600","新店區"
"231056","4715-K9","2018/06/05 18:39:40","新北市新店區自立街34號","121.538501666667","24.9785433333333","6500600","新店區"
"231067","4772-VM","2018/06/05 18:39:35","新北市新店區安康路一段76巷18-1號","121.528445","24.9629","6500600","新店區"
"231065","512-UM","2018/06/05 18:39:28","新北市新店區安一路一段1-1號","121.519128333333","24.9612333333333","6500600","新店區"
"231049","513-UM","2018/06/05 18:39:30","新北市新店區安一路一段1-1號","121.519685","24.9612466666667","6500600","新店區"
"231045","617-UM","2018/06/05 18:39:32","新北市新店區安華路28-1號","121.519448333333","24.960975","6500600","新店區"
"231061","619-UM","2018/06/05 18:39:26","新北市新店區安華路28-1號","121.519523333333","24.9607366666667","6500600","新店區"
"231063","641-BX","2018/06/05 18:39:45","新北市新店區安華路1-1號","121.519195","24.9604766666667","6500600","新店區"
"231064","719-UY","2018/06/05 18:39:40","新北市新店區安華路28-1號","121.51981","24.960525","6500600","新店區"
"231062","720-UM","2018/06/05 18:39:10","新北市新店區安一路一段1-1號","121.519138333333","24.961335","6500600","新店區"
"231060","897-TW","2018/06/05 18:39:26","新北市新店區安華路28-1號","121.519496666667","24.960825","6500600","新店區"
"231043","899-TW","2018/06/05 18:39:39","新北市新店區安華路28-1號","121.519291666667","24.9607983333333","6500600","新店區"
"231055","AKT-0513","2018/06/05 18:39:27","新北市新店區華興街4號","121.538035","24.9699533333333","6500600","新店區"
"241035","462-BY","2018/06/05 18:39:34","新北市三重區重新路四段121號","121.484815","25.051955","6500200","三重區"
"235064","005-UY","2018/06/05 18:39:28","新北市中和區連城路109巷77號","121.497366666667","24.99774","6500300","中和區"
"235063","006-UY","2018/06/05 18:39:38","新北市中和區連城路347巷4弄26號","121.487193333333","24.995625","6500300","中和區"
"235056","096-UM","2018/06/05 18:39:26","新北市中和區員山路611巷1號","121.477835","25.011195","6500300","中和區"
"235039","097-UM","2018/06/05 18:39:27","新北市永和區安樂路46號","121.51469","24.997135","6500300","中和區"
"235065","098-UM","2018/06/05 18:39:33","新北市中和區莊敬路49巷18號","121.50172","25.0061916666667","6500300","中和區"
"235040","150-BY","2018/06/05 18:39:42","新北市中和區宜安路41號","121.511995","24.9964966666667","6500300","中和區"
"235058","151-BY","2018/06/05 18:39:35","新北市中和區員山路7-1號","121.483281666667","24.985375","6500300","中和區"
"235055","183-VK","2018/06/05 18:39:39","新北市中和區中山路三段229巷49號","121.469253333333","25.005545","6500300","中和區"
"235038","185-VK","2018/06/05 18:39:39","新北市中和區立人街6號","121.519755","24.99409","6500300","中和區"
"235049","186-VK","2018/06/05 18:39:29","新北市中和區明義街9號","121.503945","24.9949566666667","6500300","中和區"
"235067","255-BX","2018/06/05 18:39:47","新北市中和區中正路879號","121.484381666667","25.0041233333333","6500300","中和區"
"235044","293-VK","2018/06/05 18:39:40","新北市中和區景安路220巷1弄6號","121.503066666667","24.9908116666667","6500300","中和區"
"235072","301-VK","2018/06/05 18:39:40","新北市中和區中山路二段132號","121.502293333333","25.00334","6500300","中和區"
"235043","352-BY","2018/06/05 18:39:43","新北市中和區景平路99號","121.517203333333","24.9917383333333","6500300","中和區"
"235041","KEA-2878","2018/06/05 18:39:34","新北市中和區中安街178巷13弄19號","121.510871666667","24.9988","6500300","中和區"
"235050","4979-A6","2018/06/05 18:39:34","新北市中和區忠孝街124巷10號","121.51281","24.9859533333333","6500300","中和區"
"235069","4980-A6","2018/06/05 18:39:29","新北市中和區連城路87號","121.496855","25.000435","6500300","中和區"
"235042","551-UM","2018/06/05 18:39:33","新北市中和區成功路97巷5弄17號","121.526503333333","24.9921733333333","6500300","中和區"
"235070","558-UM","2018/06/05 18:39:36","新北市中和區南華路36號","121.503458333333","24.99627","6500300","中和區"
"235045","565-BX","2018/06/05 18:39:28","新北市中和區南山路236巷63弄1號","121.503833333333","24.9876","6500300","中和區"
"235054","640-BX","2018/06/05 18:39:35","新北市中和區莒光路127號","121.47251","25.0019633333333","6500300","中和區"
"235060","647-TV","2018/06/05 18:39:33","新北市中和區中山路二段475號","121.48311","25.004985","6500300","中和區"
"235047","732-UM","2018/06/05 18:39:43","新北市中和區南山路320巷10弄14號","121.506871666667","24.98671","6500300","中和區"
"235046","733-UM","2018/06/05 18:39:40","新北市中和區興南路一段85巷31號","121.510236666667","24.98809","6500300","中和區"
"235071","783-BX","2018/06/05 18:39:35","新北市中和區員山路36巷16-3號","121.485135","24.991265","6500300","中和區"
"235062","800-TS","2018/06/05 18:38:04","新北市中和區中山路二段380-2號","121.490946666667","25.00355","6500300","中和區"
"235057","801-TS","2018/06/05 18:39:47","新北市中和區員山路327巷6號","121.480978333333","25.0011033333333","6500300","中和區"
"235052","805-TS","2018/06/05 18:39:24","新北市中和區興南路三段90號","121.49025","24.9735566666667","6500300","中和區"
"235048","896-TW","2018/06/05 18:39:31","新北市中和區南山路206號","121.50616","24.9904533333333","6500300","中和區"
"235053","900-TW","2018/06/05 18:39:31","新北市中和區華安街106號","121.468811666667","24.9953283333333","6500300","中和區"
"235066","911-UM","2018/06/05 18:39:41","新北市中和區水源路35號","121.504363333333","25.00357","6500300","中和區"
"235051","157-BY","2018/06/05 18:39:27","新北市中和區華新街230號","121.506001666667","24.98173","6500300","中和區"
"235037","AAC-213","2018/06/05 18:39:27","新北市中和區景平路87號","121.517756666667","24.991505","6500300","中和區"
"235059","AAC-215","2018/06/05 18:39:38","新北市中和區錦和路354巷15號","121.489716666667","24.99154","6500300","中和區"
"220065","072-UY","2018/06/05 18:39:39","新北市板橋區海山路47號","121.46711","25.0102266666667","6500100","板橋區"
"220069","AAD-861","2018/06/05 18:39:37","新北市板橋區板城路407號","121.44756","24.9952833333333","6500100","板橋區"
"226004","312-R5","2018/06/05 18:39:34","新北市平溪區平溪里三坑路36號","121.736505","25.0305683333333","6502400","平溪區"
"228001","212-TW","2018/06/05 18:39:40","新北市貢寮區仁理村研海街12-1號","121.923795","25.05168","6502600","貢寮區"
"228002","663-BX","2018/06/05 18:39:31","新北市貢寮區福隆里東興街6-11號","121.950758333333","25.0210983333333","6502600","貢寮區"
"228003","828-UM","2018/06/05 18:39:41","新北市貢寮區和美里龍洞街12-2號","121.917826666667","25.1117316666667","6502600","貢寮區"
"224010","AGQ-8101","2018/06/05 18:39:38","新北市瑞芳區烏勢巷117號","121.846311666667","25.1081083333333","6501200","瑞芳區"
"224006","676-BX","2018/06/05 18:39:42","新北市瑞芳區明燈路三段120號","121.804791666667","25.1084183333333","6501200","瑞芳區"
"224002","639-TC","2018/06/05 18:39:40","新北市瑞芳區明燈路二段58號","121.809743333333","25.107595","6501200","瑞芳區"
"224008","285-BY","2018/06/05 18:39:42","新北市瑞芳區岳王路4號","121.807011666667","25.11035","6501200","瑞芳區"
"224007","275-VK","2018/06/05 18:39:42","新北市瑞芳區大埔路84號","121.762253333333","25.1011166666667","6501200","瑞芳區"
"224009","273-VK","2018/06/05 18:39:32","新北市瑞芳區祈堂路2號","121.8598","25.1117233333333","6501200","瑞芳區"
"224005","271-BY","2018/06/05 18:39:34","新北市瑞芳區瑞濱路7號","121.827081666667","25.1216533333333","6501200","瑞芳區"
"227003","642-TC","2018/06/05 18:39:24","新北市雙溪區魚行里坤溪3-5號","121.876158333333","25.02087","6502500","雙溪區"
"227009","400-TW","2018/06/05 18:39:37","新北市雙溪區牡丹里下坑11號","121.851011666667","25.0561883333333","6502500","雙溪區"
"253005","032-BX","2018/06/05 18:39:42","新北市石門區中山路62號","121.566941666667","25.290665","6502200","石門區"
"253006","295-VK","2018/06/05 18:39:40","新北市石門區崁子腳58-9號","121.530633333333","25.28702","6502200","石門區"
"222001","KEA-2212","2018/06/05 18:39:43","新北市深坑區北深路一段80號","121.636415","25.0108416666667","6501800","深坑區"
"208002","KEA-2872","2018/06/05 18:39:39","新北市金山區忠孝一路19巷5號","121.637931666667","25.2180083333333","6502700","金山區"
"208003","665-BX","2018/06/05 18:39:39","新北市金山區中山路352號","121.633263333333","25.22541","6502700","金山區"
"208001","761-BX","2018/06/05 18:39:42","新北市金山區文化三路7號","121.63507","25.2248866666667","6502700","金山區"
"251004","009-UM","2018/06/05 18:39:33","新北市淡水區民族路110巷14號","121.461818333333","25.13553","6501000","淡水區"
"251001","011-UM","2018/06/05 18:39:35","新北市淡水區自強路415巷2號","121.465421666667","25.1342866666667","6501000","淡水區"
"251002","012-UM","2018/06/05 18:39:31","新北市淡水區中正東路一段3巷14弄3號","121.450981666667","25.1641783333333","6501000","淡水區"
"251013","KEA-2871","2018/06/05 18:39:44","新北市淡水區雲廣坑6號","121.472833333333","25.2160716666667","6501000","淡水區"
"251016","179-VK","2018/06/05 18:39:41","新北市淡水區下圭柔山76-12號","121.44385","25.205595","6501000","淡水區"
"251014","180-VK","2018/06/05 18:39:38","新北市淡水區崙頂12-8號","121.495586666667","25.217265","6501000","淡水區"
"251015","182-VK","2018/06/05 18:39:42","新北市淡水區興福寮66巷295號","121.485758333333","25.1618483333333","6501000","淡水區"
"251010","413-VK","2018/06/05 18:39:42","新北市淡水區沙崙路124號","121.423408333333","25.1827016666667","6501000","淡水區"
"251012","441-VK","2018/06/05 18:39:36","新北市淡水區北新路117號","121.448976666667","25.1785166666667","6501000","淡水區"
"251006","561-UM","2018/06/05 18:39:28","新北市淡水區崁頂36-5號","121.439311666667","25.1938266666667","6501000","淡水區"
"251008","575-R6","2018/06/05 18:39:28","新北市淡水區北投子19-3號","121.453873333333","25.1840233333333","6501000","淡水區"
"251011","650-BX","2018/06/05 18:39:28","新北市淡水區鄧公路48號","121.459511666667","25.1687183333333","6501000","淡水區"
"251003","673-BX","2018/06/05 18:39:46","新北市淡水區北新路69巷26號","121.446521666667","25.1800733333333","6501000","淡水區"
"207003","550-UM","2018/06/05 18:39:39","新北市萬里區野柳里八斗60號","121.660348333333","25.2072366666667","6502800","萬里區"
"207004","225-TW","2018/06/05 18:39:30","新北市萬里區萬里里獅頭路12-5號","121.692381666667","25.1791483333333","6502800","萬里區"
"252002","178-VK","2018/06/05 18:39:32","新北市三芝區民生街64巷4號","121.503566666667","25.2553416666667","6502100","三芝區"
"252003","249-BX","2018/06/05 18:39:36","新北市三芝區後厝里大片頭74-13號","121.459103333333","25.2459616666667","6502100","三芝區"
"252001","292-VK","2018/06/05 18:39:43","新北市三芝區中興街二段260號","121.501901666667","25.2528966666667","6502100","三芝區"
"237004","KEA-2597","2018/06/05 18:39:37","新北市三峽區有木22-2號","121.426895","24.8630683333333","6500900","三峽區"
"237007","153-BY","2018/06/05 18:39:25","新北市三峽區柑樹路2巷11號","121.36204","24.905045","6500900","三峽區"
"237009","210-TH","2018/06/05 18:39:33","新北市三峽區弘園街38號","121.366036666667","24.9270033333333","6500900","三峽區"
"237013","252-BX","2018/06/05 18:39:40","新北市三峽區光明路69巷25號","121.376703333333","24.9292666666667","6500900","三峽區"
"237008","302-VK","2018/06/05 18:39:26","新北市三峽區白雞57-16號","121.390261666667","24.9114583333333","6500900","三峽區"
"237014","433-BY","2018/06/05 18:39:36","新北市三峽區復興路480巷52號","121.361983333333","24.94126","6500900","三峽區"
"237011","KEA-2596","2018/06/05 18:39:33","新北市三峽區介壽路三段29號","121.395883333333","24.9368133333333","6500900","三峽區"
"237016","649-BX","2018/06/05 18:39:38","新北市三峽區竹崙路158號","121.438158333333","24.9044466666667","6500900","三峽區"
"237010","706-TV","2018/06/05 18:39:32","新北市三峽區國光街332號","121.371916666667","24.9394716666667","6500900","三峽區"
"237005","AKY-6261","2018/06/05 18:39:40","新北市三峽區新興街16號","121.372663333333","24.9356666666667","6500900","三峽區"
"236070","105-UM","2018/06/05 18:39:31","新北市土城區永豐路157巷29弄1號","121.46869","24.981475","6501300","土城區"
"236042","107-UM","2018/06/05 18:39:38","新北市土城區裕民路55巷17號","121.449446666667","24.9888916666667","6501300","土城區"
"236079","166-UM","2018/06/05 18:39:37","新北市土城區頂埔街38號","121.417258333333","24.959195","6501300","土城區"
"236030","253-BX","2018/06/05 18:39:34","新北市土城區福仁街52號","121.439618333333","24.9749066666667","6501300","土城區"
"236026","269-VK","2018/06/05 18:39:39","新北市土城區忠義路49號","121.440506666667","24.9692016666667","6501300","土城區"
"236014","270-VK","2018/06/05 18:39:30","新北市土城區清水路207巷16號","121.460041666667","24.982455","6501300","土城區"
"236038","271-VK","2018/06/05 18:39:33","新北市土城區明德路一段313巷9號","121.459801666667","24.9758933333333","6501300","土城區"
"236021","401-BY","2018/06/05 18:39:32","新北市土城區延吉街253巷1號","121.46762","24.9846783333333","6501300","土城區"
"236059","752-BX","2018/06/05 18:39:38","新北市土城區中央路三段198-1號","121.43029","24.9647766666667","6501300","土城區"
"236049","913-UM","2018/06/05 18:39:42","新北市土城區明德路一段67號","121.465458333333","24.984255","6501300","土城區"
"236063","915-UM","2018/06/05 18:39:31","新北市土城區延壽路13巷40號","121.469906666667","24.9914166666667","6501300","土城區"
"236055","AAC-216","2018/06/05 18:39:43","新北市土城區裕民路6-5號","121.446966666667","24.9890533333333","6501300","土城區"
"242058","986-R7","2018/06/05 18:39:34","新北市泰山區新北大道六段377號","121.422095","25.0326533333333","6500500","新莊區"
"242054","751-BX","2018/06/05 18:39:29","新北市樹林區樹新路247號","121.43119","25.0008466666667","6500500","新莊區"
"242025","613-BX","2018/06/05 18:39:33","新北市新莊區新泰路255巷83號","121.442291666667","25.0391","6500500","新莊區"
"242061","353-BY","2018/06/05 18:39:31","新北市新莊區民安路188巷28號","121.424341666667","25.0234466666667","6500500","新莊區"
"242051","349-TH","2018/06/05 18:39:27","新北市樹林區太平路277號","121.419046666667","24.9727983333333","6500500","新莊區"
"238023","601-UM","2018/06/05 18:39:40","新北市樹林區三福街114號","121.40641","25.01631","6500700","樹林區"
"238019","599-UM","2018/06/05 18:39:35","新北市樹林區中華路190-16號","121.411718333333","24.9806566666667","6500700","樹林區"
"238018","571-TV","2018/06/05 18:39:36","新北市樹林區樹新路90號","121.429483333333","24.9974983333333","6500700","樹林區"
"238024","5061-A6","2018/06/05 18:39:34","新北市樹林區太順街79巷17號","121.417178333333","24.97813","6500700","樹林區"
"238022","KEA-2213","2018/06/05 18:39:31","新北市樹林區中華路190-1號","121.41137","24.980515","6500700","樹林區"
"238025","303-VK","2018/06/05 18:39:35","新北市樹林區中山路三段22號","121.39556","24.9729716666667","6500700","樹林區"
"238017","283-BY","2018/06/05 18:39:32","新北市樹林區光興街10號","121.412515","25.0029616666667","6500700","樹林區"
"238014","282-BY","2018/06/05 18:39:36","新北市樹林區大安路111巷11號","121.423118333333","24.997715","6500700","樹林區"
"238020","268-VK","2018/06/05 18:39:25","新北市樹林區三俊街252巷25號","121.421166666667","25.0135566666667","6500700","樹林區"
"238026","172-UY","2018/06/05 18:39:34","新北市樹林區育德街78-1號","121.388053333333","24.9680466666667","6500700","樹林區"
"238016","169-UY","2018/06/05 18:39:29","新北市樹林區文化街28號","121.419376666667","24.987785","6500700","樹林區"
"239007","AAC-297","2018/06/05 18:39:29","新北市鶯歌區中正一路478號","121.36651","24.9568216666667","6500800","鶯歌區"
"239006","891-R6","2018/06/05 18:39:30","新北市鶯歌區鶯桃路296巷46號","121.335666666667","24.9614","6500800","鶯歌區"
"239008","527-UM","2018/06/05 18:39:37","新北市鶯歌區國際一路14號","121.336193333333","24.9765216666667","6500800","鶯歌區"
"239005","526-UM","2018/06/05 18:39:33","新北市鶯歌區鳳吉一街100號","121.327263333333","24.9745666666667","6500800","鶯歌區"
"239001","417-VK","2018/06/05 18:39:34","新北市鶯歌區中正三路2號","121.339401666667","24.9429716666667","6500800","鶯歌區"
"239003","360-BY","2018/06/05 18:39:32","新北市鶯歌區永和街251-1號","121.335593333333","24.97127","6500800","鶯歌區"
"239002","359-BY","2018/06/05 18:39:43","新北市鶯歌區中山路300號","121.342898333333","24.957145","6500800","鶯歌區"
"239004","193-VK","2018/06/05 18:39:41","新北市鶯歌區尖山路302巷20號","121.341893333333","24.9433033333333","6500800","鶯歌區"
"221008","489-VK","2018/06/05 18:39:37","新北市汐止區康寧街901號","121.651411666667","25.07502","6501100","汐止區"
"221036","130-UY","2018/06/05 18:39:40","新北市汐止區忠孝東路336號","121.665103333333","25.06945","6501100","汐止區"
"221015","131-UY","2018/06/05 18:39:43","新北市汐止區鄉長路二段4號","121.668915","25.08074","6501100","汐止區"
"221010","269-BY","2018/06/05 18:39:41","新北市汐止區汐萬路三段235號","121.643633333333","25.1052966666667","6501100","汐止區"
"221012","278-VK","2018/06/05 18:39:33","新北市汐止區汐萬路一段157號","121.653113333333","25.07105","6501100","汐止區"
"221023","279-VK","2018/06/05 18:39:40","新北市汐止區翠峰街21巷3弄22號","121.644795","25.0758316666667","6501100","汐止區"
"221032","280-BY","2018/06/05 18:39:44","新北市汐止區福山街58巷15號","121.618281666667","25.0459633333333","6501100","汐止區"
"221027","281-BY","2018/06/05 18:39:36","新北市汐止區汐萬路一段256巷3號","121.65256","25.074585","6501100","汐止區"
"221029","298-VK","2018/06/05 18:39:38","新北市汐止區樟樹一路133巷1號","121.642116666667","25.0651716666667","6501100","汐止區"
"221021","299-VK","2018/06/05 18:39:37","新北市汐止區新台五路一段159號","121.653916666667","25.0625233333333","6501100","汐止區"
"221031","353-TW","2018/06/05 18:39:33","新北市汐止區福德一路274號","121.63217","25.0639433333333","6501100","汐止區"
"221025","623-UM","2018/06/05 18:39:33","新北市汐止區仁愛路119巷16號","121.662265","25.0643016666667","6501100","汐止區"
"221038","646-BX","2018/06/05 18:39:26","新北市汐止區康寧街901號","121.650721666667","25.0753166666667","6501100","汐止區"
"221033","647-BX","2018/06/05 18:39:43","新北市汐止區南勢街1巷3號","121.627085","25.03781","6501100","汐止區"
"221002","707-TV","2018/06/05 18:39:41","新北市汐止區中興路23號","121.636946666667","25.0596166666667","6501100","汐止區"
"221018","753-BX","2018/06/05 18:39:46","新北市汐止區茄苳路70號","121.666715","25.0706533333333","6501100","汐止區"
"220079","145-BY","2018/06/05 18:39:30","新北市板橋區大觀路一段31號","121.449913333333","25.0085016666667","6500100","板橋區"
"220080","200-UY","2018/06/05 18:39:33","新北市板橋區大觀路二段265巷66弄24號","121.441683333333","24.9971133333333","6500100","板橋區"
"242002","KEA-2550","2018/06/05 18:39:42","新北市新莊區瓊林南路77-41號","121.437688333333","25.012545","6500500","新莊區"
"220082","610-BX","2018/06/05 18:39:25","新北市板橋區大觀路三段5-4號","121.432808333333","24.9958933333333","6500100","板橋區"
"220103","257-TC","2018/06/05 18:39:36","新北市板橋區民生路二段161巷5號","121.470215","25.0197583333333","6500100","板橋區"
"220056","276-BY","2018/06/05 18:39:46","新北市板橋區華東街1號","121.448363333333","24.99408","6500100","板橋區"
"220072","277-BY","2018/06/05 18:35:09","新北市板橋區大觀路2段435-7號","121.44782","24.9954633333333","6500100","板橋區"
"220071","283-VK","2018/06/05 18:39:34","新北市板橋區四川路二段85號","121.45295","24.9949833333333","6500100","板橋區"
"220094","285-UM","2018/06/05 18:39:35","新北市板橋區民生路二段161巷1號","121.470043333333","25.0199166666667","6500100","板橋區"
"220053","285-VK","2018/06/05 18:39:26","新北市板橋區民生路二段120號","121.47043","25.0197633333333","6500100","板橋區"
"220083","286-VK","2018/06/05 18:39:29","新北市板橋區大觀路二段10號","121.446826666667","25.0037383333333","6500100","板橋區"
"220081","287-VK","2018/06/05 18:39:42","新北市板橋區大觀路一段35巷2號","121.448958333333","25.0083733333333","6500100","板橋區"
"220061","293-UM","2018/06/05 18:39:35","新北市板橋區民生路二段120號","121.470345","25.0196733333333","6500100","板橋區"
"220084","296-UM","2018/06/05 18:39:36","新北市板橋區大觀路二段136號","121.443171666667","24.9991733333333","6500100","板橋區"
"220075","303-R5","2018/06/05 18:39:35","新北市板橋區南雅南路二段120-2號","121.452345","24.999875","6500100","板橋區"
"220062","305-R5","2018/06/05 18:39:29","新北市板橋區民生路二段120號","121.470406666667","25.01955","6500100","板橋區"
"220035","560-BX","2018/06/05 18:39:33","新北市板橋區南雅西路二段145巷10號","121.451668333333","25.011925","6500100","板橋區"
"220063","609-BX","2018/06/05 18:39:34","新北市板橋區民生路二段177號","121.469815","25.0203083333333","6500100","板橋區"
"220086","630-UY","2018/06/05 18:39:39","新北市板橋區南雅西路二段180巷15號","121.452808333333","25.013975","6500100","板橋區"
"220057","686-BX","2018/06/05 18:39:43","新北市板橋區華東街1-9號","121.44822","24.9948966666667","6500100","板橋區"
"220077","687-BX","2018/06/05 18:39:36","新北市板橋區大觀路二段174巷104弄1號","121.44101","25.0014183333333","6500100","板橋區"
"220054","741-BX","2018/06/05 18:39:39","新北市板橋區南雅南路二段120-23號","121.451626666667","24.99873","6500100","板橋區"
"220064","806-UM","2018/06/05 18:39:27","新北市板橋區縣民大道一段310號","121.46142","25.01083","6500100","板橋區"
"220055","827-TW","2018/06/05 18:39:28","新北市板橋區華東街1-9號","121.44818","24.994935","6500100","板橋區"
"220074","895-R6","2018/06/05 18:39:36","新北市板橋區南雅南路一段108號","121.454978333333","25.0042116666667","6500100","板橋區"
"220073","985-R7","2018/06/05 18:39:43","新北市板橋區貴興路5號","121.457795","25.004485","6500100","板橋區"
"220070","AAC-253","2018/06/05 18:39:38","新北市板橋區板城路421號","121.448076666667","24.99565","6500100","板橋區"
"235068","KEA-2873","2018/06/05 18:39:17","新北市中和區中正路131號","121.499828333333","24.993585","6500300","中和區"
"235061","KEA-2875","2018/06/05 18:39:37","新北市中和區民享街90巷14號","121.473963333333","25.00012","6500300","中和區"
