"lineid","car","time","location","longitude","latitude","cityid","cityname"
"234046","148-BY","2018/06/05 19:29:43","新北市永和區秀朗路二段251號","121.5263","24.999445","6500400","永和區"
"234007","207-UY","2018/06/05 19:29:45","新北市永和區永和路一段156-1號","121.514103333333","25.008365","6500400","永和區"
"234081","298-R6","2018/06/05 19:29:25","新北市永和區環河東路三段54號","121.526826666667","25.0062783333333","6500400","永和區"
"234038","336-UY","2018/06/05 19:29:41","新北市永和區成功路二段47巷11號","121.527413333333","25.000345","6500400","永和區"
"234064","337-UY","2018/06/05 19:29:46","新北市永和區永元路17巷25弄10號","121.520976666667","25.00161","6500400","永和區"
"234086","338-UY","2018/06/05 19:29:42","新北市永和區國中路2-1號","121.52407","25.0042766666667","6500400","永和區"
"234070","552-UM","2018/06/05 19:29:25","新北市永和區警光街14號","121.519673333333","25.00952","6500400","永和區"
"234017","553-UM","2018/06/05 19:29:43","新北市永和區環河西路一段61號","121.513465","25.0181516666667","6500400","永和區"
"234030","746-BX","2018/06/05 19:29:41","新北市永和區民生路57號","121.522698333333","24.997595","6500400","永和區"
"234054","KEA-2590","2018/06/05 19:29:44","新北市永和區復興街19巷4號","121.516185","25.01314","6500400","永和區"
"234013","KEA-2591","2018/06/05 19:29:28","新北市永和區中山路一段137號","121.510418333333","25.00983","6500400","永和區"
"234061","AAD-866","2018/06/05 19:29:43","新北市永和區中正路562號","121.517203333333","25.0060466666667","6500400","永和區"
"234042","862-TW","2018/06/05 19:29:42","新北市永和區中和路547巷3弄11號","121.51109","25.003245","6500400","永和區"
"234050","863-TW","2018/06/05 19:29:18","新北市永和區信義路126號","121.512355","25.0148166666667","6500400","永和區"
"234026","9371-KE","2018/06/05 19:29:35","新北市永和區中正路49號","121.514323333333","24.996445","6500400","永和區"
"234011","9373-KE","2018/06/05 19:29:35","新北市永和區保福路二段69號","121.510688333333","25.0125033333333","6500400","永和區"
"249002","305-UY","2018/06/05 19:29:34","新北市八里區龍形一街33巷1-6號","121.44939","25.1294633333333","6502300","八里區"
"249003","593-UM","2018/06/05 19:29:29","新北市八里區中山路二段468號","121.398918333333","25.1471033333333","6502300","八里區"
"248008","095-VK","2018/06/05 19:29:43","新北市五股區中興路一段95巷9號","121.466685","25.0724116666667","6501500","五股區"
"248020","225-UY","2018/06/05 19:29:42","新北市五股區凌雲路三段35-1號","121.430585","25.11658","6501500","五股區"
"248012","247-BX","2018/06/05 19:29:33","新北市五股區成泰路二段97號","121.437931666667","25.0843066666667","6501500","五股區"
"248014","261-SL","2018/06/05 19:29:36","新北市五股區民義路一段157-22號","121.43137","25.0867883333333","6501500","五股區"
"248010","272-BY","2018/06/05 19:29:33","新北市五股區水碓二路1號","121.430581666667","25.0712033333333","6501500","五股區"
"248004","677-BX","2018/06/05 19:29:29","新北市五股區工商路148-1號","121.433901666667","25.087295","6501500","五股區"
"248002","678-BX","2018/06/05 19:29:41","新北市五股區凌雲路一段158巷13號","121.447783333333","25.1035333333333","6501500","五股區"
"234023","9380-KE","2018/06/05 19:29:26","新北市永和區竹林路91巷18號","121.520353333333","25.012295","6500400","永和區"
"234077","969-R7","2018/06/05 19:29:44","新北市永和區民權路56號","121.519996666667","24.9982333333333","6500400","永和區"
"234074","AAC-211","2018/06/05 19:29:44","新北市永和區環河東路二段54號","121.523298333333","25.011635","6500400","永和區"
"234067","AAC-212","2018/06/05 19:29:42","新北市永和區保平路176號","121.510885","25.0067183333333","6500400","永和區"
"234003","AAC-295","2018/06/05 19:29:36","新北市永和區福和路385號","121.514221666667","25.0075983333333","6500400","永和區"
"244019","403-UM","2018/06/05 19:29:27","新北市林口區民生路150號","121.379276666667","25.0880283333333","6501700","林口區"
"244013","742-UY","2018/06/05 19:29:34","新北市林口區麗園一街1號","121.375775","25.0725233333333","6501700","林口區"
"244009","410-SL","2018/06/05 19:29:33","新北市林口區中山路516號","121.378998333333","25.0830933333333","6501700","林口區"
"244023","483-VK","2018/06/05 19:29:41","新北市林口區民富街93號","121.37013","25.0748683333333","6501700","林口區"
"243013","AAD-798","2018/06/05 19:29:33","新北市泰山區貴子路36巷24號","121.425696666667","25.0408633333333","6501600","泰山區"
"243009","297-R6","2018/06/05 19:29:36","新北市五股區成泰路一段7巷7號","121.433281666667","25.0667033333333","6501600","泰山區"
"243016","380-SR","2018/06/05 19:29:26","新北市泰山區工專路20號","121.423705","25.039685","6501600","泰山區"
"243015","421-VK","2018/06/05 19:29:38","新北市泰山區明志路二段136巷1-1號","121.42726","25.051195","6501600","泰山區"
"243011","KEA-2215","2018/06/05 19:29:14","新北市泰山區貴子路76號","121.427073333333","25.0412683333333","6501600","泰山區"
"243010","KEA-2216","2018/06/05 19:29:38","新北市泰山區民生路17巷63號","121.429223333333","25.0509283333333","6501600","泰山區"
"243012","646-TV","2018/06/05 19:29:33","新北市泰山區仁義路187號","121.433095","25.0541016666667","6501600","泰山區"
"243014","680-BX","2018/06/05 19:29:35","新北市泰山區中港西路420號","121.433896666667","25.0538716666667","6501600","泰山區"
"222003","436-BY","2018/06/05 19:29:44","新北市深坑區深南路51-1號","121.621291666667","25.00983","6501800","深坑區"
"222002","659-BX","2018/06/05 19:29:11","新北市深坑區北深路一段177號","121.632495","25.01089","6501800","深坑區"
"231041","002-UM","2018/06/05 19:29:37","新北市新店區中正路543-4號","121.533673333333","24.9874716666667","6500600","新店區"
"231059","046-UY","2018/06/05 19:29:42","新北市新店區安和路三段4巷1-3號","121.518196666667","24.9805766666667","6500600","新店區"
"231040","047-UY","2018/06/05 19:29:42","新北市新店區北新路一段14號","121.540781666667","24.9657333333333","6500600","新店區"
"231044","106-UY","2018/06/05 19:29:28","新北市新店區中興路三段197號","121.543858333333","24.9814816666667","6500600","新店區"
"231053","108-UY","2018/06/05 19:29:33","新北市新店區廣興路19號","121.54079","24.9115983333333","6500600","新店區"
"231048","187-VK","2018/06/05 19:29:40","新北市新店區五峰路149號","121.544971666667","24.9657033333333","6500600","新店區"
"231046","188-VK","2018/06/05 19:29:30","新北市新店區光明街145號","121.539363333333","24.96221","6500600","新店區"
"231054","KEA-2219","2018/06/05 19:29:44","新北市新店區文中路45號","121.539501666667","24.9566133333333","6500600","新店區"
"221035","KEA-2785","2018/06/05 19:29:30","新北市汐止區康寧街901號","121.65107","25.0751766666667","6501100","汐止區"
"231057","256-BX","2018/06/05 19:29:28","新北市新店區花園一路二段27號","121.551368333333","24.932475","6500600","新店區"
"231042","268-BY","2018/06/05 19:29:41","新北市新店區北宜路一段3號","121.538505","24.9585583333333","6500600","新店區"
"231051","278-BY","2018/06/05 19:29:41","新北市新店區中央五街59號","121.527555","24.9755483333333","6500600","新店區"
"231050","AAD-862","2018/06/05 19:29:29","新北市新店區竹林路94號","121.553901666667","24.9502016666667","6500600","新店區"
"231058","3713-VJ","2018/06/05 19:29:30","新北市新店區寶橋路85巷50號","121.545465","24.9762483333333","6500600","新店區"
"231066","4716-K9","2018/06/05 19:29:40","新北市新店區安康路三段355巷11號","121.484781666667","24.950495","6500600","新店區"
"231065","512-UM","2018/06/05 19:29:28","新北市新店區安祥路109巷1弄97號","121.478828333333","24.96021","6500600","新店區"
"231049","513-UM","2018/06/05 19:29:30","新北市新店區二十張路1巷2弄3號","121.540186666667","24.9820983333333","6500600","新店區"
"231045","617-UM","2018/06/05 19:29:32","新北市新店區北宜路二段209號","121.553173333333","24.9532566666667","6500600","新店區"
"231061","619-UM","2018/06/05 19:29:26","新北市新店區安康路一段214號","121.524015","24.9635783333333","6500600","新店區"
"231063","641-BX","2018/06/05 19:29:45","新北市新店區達觀路16號","121.503098333333","24.9406783333333","6500600","新店區"
"231064","719-UY","2018/06/05 19:29:40","新北市新店區安康路二段85巷18號","121.513761666667","24.9621766666667","6500600","新店區"
"231062","720-UM","2018/06/05 19:29:31","新北市新店區安康路一段133號","121.527956666667","24.9619016666667","6500600","新店區"
"231060","897-TW","2018/06/05 19:29:46","新北市新店區安康路二段3-3號","121.515915","24.96355","6500600","新店區"
"231043","899-TW","2018/06/05 19:29:39","新北市新店區北新路二段222號","121.543063333333","24.9771433333333","6500600","新店區"
"231055","AKT-0513","2018/06/05 19:29:27","新北市新店區中華路83巷67號","121.53837","24.96744","6500600","新店區"
"241028","022-UY","2018/06/05 19:29:30","新北市三重區中寮街76號","121.493086666667","25.058205","6500200","三重區"
"241008","059-VK","2018/06/05 19:29:29","新北市三重區永福街135巷36號","121.477316666667","25.07721","6500200","三重區"
"241031","061-VK","2018/06/05 19:29:28","新北市三重區集美街100號","121.48854","25.054145","6500200","三重區"
"241017","063-VK","2018/06/05 19:29:40","新北市三重區中正北路25巷8號","121.493408333333","25.06286","6500200","三重區"
"241026","066-VK","2018/06/05 19:29:37","新北市三重區文化南路47巷3號","121.499888333333","25.06132","6500200","三重區"
"241009","265-UM","2018/06/05 19:29:44","新北市三重區仁美街117號","121.48569","25.0812283333333","6500200","三重區"
"241022","267-UM","2018/06/05 19:29:39","新北市三重區三民街157巷2號","121.483813333333","25.0645883333333","6500200","三重區"
"241025","271-UM","2018/06/05 19:29:32","新北市三重區頂崁街210巷27號","121.475795","25.0681783333333","6500200","三重區"
"241007","398-BY","2018/06/05 19:29:26","新北市三重區慈愛街149號","121.489518333333","25.07949","6500200","三重區"
"241035","462-BY","2018/06/05 19:29:34","新北市三重區信義西街1巷3號","121.497998333333","25.0650516666667","6500200","三重區"
"241020","478-VK","2018/06/05 19:29:33","新北市三重區三和路四段20巷20號","121.490291666667","25.0736266666667","6500200","三重區"
"241030","480-VK","2018/06/05 19:29:32","新北市三重區成功路41巷26號","121.490548333333","25.051965","6500200","三重區"
"241006","AAD-863","2018/06/05 19:29:38","新北市三重區自強路三段78號","121.487055","25.0742316666667","6500200","三重區"
"241032","887-TS","2018/06/05 19:29:34","新北市三重區三陽路28號","121.485501666667","25.0587333333333","6500200","三重區"
"241029","942-UM","2018/06/05 19:29:35","新北市三重區中正南路216號","121.4938","25.055135","6500200","三重區"
"235064","005-UY","2018/06/05 19:29:28","新北市中和區南山路75號","121.502055","24.9981966666667","6500300","中和區"
"235063","006-UY","2018/06/05 19:29:38","新北市中和區板南路335號","121.494161666667","24.9977266666667","6500300","中和區"
"235056","096-UM","2018/06/05 19:29:46","新北市中和區民富街23號","121.47639","25.0075933333333","6500300","中和區"
"235039","097-UM","2018/06/05 19:29:47","新北市中和區秀峰街119巷4弄2號","121.519788333333","24.9902633333333","6500300","中和區"
"235065","098-UM","2018/06/05 19:29:42","新北市中和區莊敬路23號","121.500133333333","25.0045616666667","6500300","中和區"
"235040","150-BY","2018/06/05 19:29:42","新北市中和區宜安路121號","121.509986666667","24.9979266666667","6500300","中和區"
"235058","151-BY","2018/06/05 19:29:35","新北市中和區員山路36巷16-3號","121.484821666667","24.9909483333333","6500300","中和區"
"235055","183-VK","2018/06/05 19:29:39","新北市中和區莒光路120巷58號","121.47163","25.0007516666667","6500300","中和區"
"235038","185-VK","2018/06/05 19:29:38","新北市中和區自立路29巷8號","121.522638333333","24.99578","6500300","中和區"
"235049","186-VK","2018/06/05 19:29:28","新北市中和區景新街285巷10號","121.510275","24.9935333333333","6500300","中和區"
"235067","255-BX","2018/06/05 19:29:27","新北市中和區連城路340巷4號","121.482808333333","24.99608","6500300","中和區"
"235044","293-VK","2018/06/05 19:29:40","新北市中和區捷運路155號","121.506476666667","24.9911016666667","6500300","中和區"
"235072","301-VK","2018/06/05 19:29:40","新北市中和區連城路265巷10弄1號","121.491721666667","24.9952283333333","6500300","中和區"
"235043","352-BY","2018/06/05 19:29:43","新北市中和區安和路45號","121.50922","24.9948066666667","6500300","中和區"
"235041","KEA-2878","2018/06/05 19:29:34","新北市中和區中安街132號","121.510906666667","25.0003333333333","6500300","中和區"
"235050","4979-A6","2018/06/05 19:29:34","新北市中和區中正路448號","121.490931666667","24.994235","6500300","中和區"
"235042","551-UM","2018/06/05 19:29:33","新北市中和區中安街202-1號","121.51168","24.99911","6500300","中和區"
"235070","558-UM","2018/06/05 19:29:41","新北市中和區景平路626巷1號","121.500441666667","24.9977466666667","6500300","中和區"
"235045","565-BX","2018/06/05 19:29:28","新北市中和區景新街399巷8號","121.512976666667","24.989755","6500300","中和區"
"235054","640-BX","2018/06/05 19:29:35","新北市中和區國光街112巷23弄1號","121.469691666667","25.002175","6500300","中和區"
"235060","647-TV","2018/06/05 19:29:33","新北市中和區新生街114巷2號","121.483291666667","25.002435","6500300","中和區"
"235047","732-UM","2018/06/05 19:29:43","新北市中和區景平路259巷34號","121.506955","24.9928116666667","6500300","中和區"
"235046","733-UM","2018/06/05 19:29:40","新北市中和區興南路一段105巷20弄35號","121.510521666667","24.9848583333333","6500300","中和區"
"235071","783-BX","2018/06/05 19:29:41","新北市中和區連城路469巷21弄22號","121.484125","24.995055","6500300","中和區"
"235026","800-TS","2018/06/05 19:29:44","新北市中和區員山路36巷16-2號","121.485086666667","24.9916633333333","6500300","中和區"
"235057","801-TS","2018/06/05 19:29:35","新北市中和區中山路三段35號","121.478915","25.005655","6500300","中和區"
"235052","805-TS","2018/06/05 19:29:24","新北市中和區華新街143巷70號","121.50635","24.9792216666667","6500300","中和區"
"235048","896-TW","2018/06/05 19:29:31","新北市中和區忠孝街182號","121.51286","24.98806","6500300","中和區"
"235053","900-TW","2018/06/05 19:29:31","新北市中和區華順街6號","121.46747","24.99869","6500300","中和區"
"235066","911-UM","2018/06/05 19:29:41","新北市中和區景新街48號","121.503961666667","24.9992483333333","6500300","中和區"
"235051","157-BY","2018/06/05 19:29:48","新北市中和區景新街99號","121.505446666667","24.9979916666667","6500300","中和區"
"235037","AAC-213","2018/06/05 19:29:27","新北市中和區秀朗路三段10巷12弄2號","121.525523333333","24.9965083333333","6500300","中和區"
"235059","AAC-215","2018/06/05 19:29:18","新北市中和區圓通路252巷27號","121.49277","24.991775","6500300","中和區"
"220068","013-TV","2018/06/05 19:29:26","新北市板橋區萬安街103巷11號","121.483263333333","25.0246466666667","6500100","板橋區"
"220065","072-UY","2018/06/05 19:29:39","新北市板橋區國泰街111巷1號","121.46605","25.0063716666667","6500100","板橋區"
"220106","075-UY","2018/06/05 19:29:29","新北市板橋區江寧路三段119號","121.473403333333","25.0331283333333","6500100","板橋區"
"220069","AAD-861","2018/06/05 19:29:37","新北市板橋區稚暉街46巷1號","121.456445","25.004285","6500100","板橋區"
"220090","120-SR","2018/06/05 19:29:46","新北市板橋區長江路一段106巷12弄14號","121.459751666667","25.0287983333333","6500100","板橋區"
"226004","312-R5","2018/06/05 19:29:34","新北市平溪區十分里十分街61號","121.775756666667","25.0415866666667","6502400","平溪區"
"228001","212-TW","2018/06/05 19:29:40","新北市貢寮區真理里延平街68號","121.92539","25.05741","6502600","貢寮區"
"228002","663-BX","2018/06/05 19:29:31","新北市貢寮區龍門里龍門街76號","121.931318333333","25.0269983333333","6502600","貢寮區"
"228003","828-UM","2018/06/05 19:29:41","新北市貢寮區和美里和美街19-2號","121.912796666667","25.082605","6502600","貢寮區"
"224010","AGQ-8101","2018/06/05 19:26:30","新北市瑞芳區金光路334號","121.848168333333","25.1094366666667","6501200","瑞芳區"
"224002","639-TC","2018/06/05 19:29:44","新北市瑞芳區三爪子坑路55號","121.812848333333","25.107385","6501200","瑞芳區"
"227003","642-TC","2018/06/05 19:29:43","新北市雙溪區雙溪里光復街3號","121.86514","25.0355316666667","6502500","雙溪區"
"227009","400-TW","2018/06/05 19:29:37","新北市雙溪區新基里新基北街43號","121.868175","25.0396916666667","6502500","雙溪區"
"253005","032-BX","2018/06/05 19:29:36","新北市石門區小坑9號","121.59421","25.2885533333333","6502200","石門區"
"253006","295-VK","2018/06/05 19:29:40","新北市石門區小坑12號","121.591531666667","25.2906183333333","6502200","石門區"
"222001","KEA-2212","2018/06/05 19:29:43","新北市深坑區北深路二段123巷17號","121.616756666667","25.0028816666667","6501800","深坑區"
"208002","KEA-2872","2018/06/05 19:29:38","新北市金山區仁愛路78巷2號","121.63466","25.2215233333333","6502700","金山區"
"208003","665-BX","2018/06/05 19:29:39","新北市金山區仁愛路66號","121.635146666667","25.2211866666667","6502700","金山區"
"208001","761-BX","2018/06/05 19:29:42","新北市金山區南勢40號","121.628906666667","25.2208433333333","6502700","金山區"
"251009","008-UM","2018/06/05 19:29:41","新北市淡水區大忠街5巷8號","121.443336666667","25.1765183333333","6501000","淡水區"
"251005","010-UM","2018/06/05 19:29:40","新北市淡水區水源街一段71巷18號","121.444378333333","25.1729683333333","6501000","淡水區"
"251001","011-UM","2018/06/05 19:29:35","新北市淡水區民權路159號","121.459948333333","25.1360766666667","6501000","淡水區"
"251013","KEA-2871","2018/06/05 19:29:44","新北市淡水區安子內18號","121.471465","25.21884","6501000","淡水區"
"251016","179-VK","2018/06/05 19:29:41","新北市淡水區下圭柔山119-51號","121.450765","25.2084416666667","6501000","淡水區"
"251014","180-VK","2018/06/05 19:29:38","新北市淡水區小中寮15-3號","121.485205","25.2301733333333","6501000","淡水區"
"251015","182-VK","2018/06/05 19:29:42","新北市淡水區山子頂24-1號","121.491506666667","25.18724","6501000","淡水區"
"251010","413-VK","2018/06/05 19:29:43","新北市淡水區中正路二段109號","121.420546666667","25.1870433333333","6501000","淡水區"
"251012","441-VK","2018/06/05 19:29:35","新北市淡水區崁頂70-2號","121.437401666667","25.2029433333333","6501000","淡水區"
"251007","442-VK","2018/06/05 19:29:28","新北市淡水區八勢路20號","121.460543333333","25.153495","6501000","淡水區"
"251006","561-UM","2018/06/05 19:29:28","新北市淡水區大義街31號","121.442453333333","25.17824","6501000","淡水區"
"251008","575-R6","2018/06/05 19:29:26","新北市淡水區中正路一段116號","121.423351666667","25.1782133333333","6501000","淡水區"
"251011","650-BX","2018/06/05 19:29:45","新北市淡水區中正東路二段161巷6弄1號","121.460923333333","25.1453266666667","6501000","淡水區"
"207003","550-UM","2018/06/05 19:29:40","新北市萬里區大鵬里萬里加投249號","121.644296666667","25.215575","6502800","萬里區"
"207004","225-TW","2018/06/05 19:29:30","新北市萬里區萬里里瑪鋉路135號","121.688941666667","25.1777333333333","6502800","萬里區"
"252002","178-VK","2018/06/05 19:29:32","新北市三芝區淡金路二段18-1號","121.50267","25.2595033333333","6502100","三芝區"
"252001","292-VK","2018/06/05 19:29:43","新北市三芝區長勤街63-1號","121.500091666667","25.256055","6502100","三芝區"
"237004","KEA-2597","2018/06/05 19:29:38","新北市三峽區有木206號","121.439111666667","24.8515183333333","6500900","三峽區"
"237007","153-BY","2018/06/05 19:29:25","新北市三峽區二鬮路136巷18弄2號","121.358883333333","24.9082666666667","6500900","三峽區"
"237009","210-TH","2018/06/05 19:29:32","新北市三峽區民權街134號","121.368775","24.93195","6500900","三峽區"
"237013","252-BX","2018/06/05 19:29:40","新北市三峽區介壽路一段237號","121.379493333333","24.9302","6500900","三峽區"
"237012","275-BY","2018/06/05 19:29:34","新北市三峽區民生街68號","121.374695","24.9359566666667","6500900","三峽區"
"237008","302-VK","2018/06/05 19:29:46","新北市三峽區永安街95巷22號","121.374411666667","24.928465","6500900","三峽區"
"237014","433-BY","2018/06/05 19:29:36","新北市三峽區中山路63巷8號","121.36692","24.93431","6500900","三峽區"
"237011","KEA-2596","2018/06/05 19:29:33","新北市三峽區中山路61號","121.367545","24.9347916666667","6500900","三峽區"
"237016","649-BX","2018/06/05 19:29:38","新北市三峽區安坑27-5號","121.447016666667","24.9285116666667","6500900","三峽區"
"237005","AKY-6261","2018/06/05 19:29:40","新北市三峽區復興路367巷1弄2號","121.36389","24.93815","6500900","三峽區"
"236070","105-UM","2018/06/05 19:29:31","新北市土城區學府路一段143巷25號","121.454255","24.9854466666667","6501300","土城區"
"236042","107-UM","2018/06/05 19:29:38","新北市土城區學府路一段276號","121.450026666667","24.9830216666667","6501300","土城區"
"236079","166-UM","2018/06/05 19:29:37","新北市土城區中州路24巷15號","121.414958333333","24.957745","6501300","土城區"
"236026","269-VK","2018/06/05 19:29:39","新北市土城區中央路二段61巷22號","121.443205","24.9787433333333","6501300","土城區"
"236021","401-BY","2018/06/05 19:29:27","新北市土城區峰廷街3號","121.46914","24.9872916666667","6501300","土城區"
"236049","913-UM","2018/06/05 19:29:24","新北市土城區清水路176號","121.460021666667","24.9816516666667","6501300","土城區"
"236063","915-UM","2018/06/05 19:29:31","新北市土城區金城路三段202-3號","121.469445","24.9885366666667","6501300","土城區"
"242032","135-UY","2018/06/05 19:29:41","新北市新莊區新泰路225巷21號","121.445435","25.039095","6500500","新莊區"
"242048","172-VK","2018/06/05 19:27:55","新北市新莊區後港一路3號","121.424153333333","25.02623","6500500","新莊區"
"242051","349-TH","2018/06/05 19:29:27","新北市新莊區環河路636-7號","121.437425","25.01165","6500500","新莊區"
"242013","351-TH","2018/06/05 19:29:44","新北市新莊區新泰路502巷30號","121.443321666667","25.046465","6500500","新莊區"
"238015","755-BX","2018/06/05 19:29:30","新北市樹林區中山路一段108巷57號","121.421208333333","24.991675","6500700","樹林區"
"238023","601-UM","2018/06/05 19:29:40","新北市樹林區三福街28號","121.408381666667","25.0166066666667","6500700","樹林區"
"238019","599-UM","2018/06/05 19:29:37","新北市樹林區東榮街31號","121.417706666667","24.98324","6500700","樹林區"
"238018","571-TV","2018/06/05 19:29:36","新北市樹林區水源街81號","121.425948333333","24.979565","6500700","樹林區"
"238024","5061-A6","2018/06/05 19:29:34","新北市樹林區中山路三段155巷12號","121.396081666667","24.97257","6500700","樹林區"
"238022","KEA-2213","2018/06/05 19:29:31","新北市樹林區太順街35號","121.41887","24.9795233333333","6500700","樹林區"
"238021","KEA-2539","2018/06/05 19:29:28","新北市樹林區學成路532號","121.380321666667","24.9454133333333","6500700","樹林區"
"238025","303-VK","2018/06/05 19:29:40","新北市樹林區保安二街29號","121.424728333333","24.993645","6500700","樹林區"
"238017","283-BY","2018/06/05 19:29:32","新北市樹林區保安街二段107巷1弄3號","121.415176666667","25.000855","6500700","樹林區"
"238014","282-BY","2018/06/05 19:29:36","新北市樹林區千歲街6巷24號","121.425721666667","24.9951266666667","6500700","樹林區"
"238020","268-VK","2018/06/05 19:29:25","新北市樹林區俊英街210號","121.425228333333","25.0094066666667","6500700","樹林區"
"238026","172-UY","2018/06/05 19:29:34","新北市樹林區柑園街一段357號","121.38892","24.9559483333333","6500700","樹林區"
"239007","AAC-297","2018/06/05 19:29:29","新北市鶯歌區大湖路109巷5號","121.34222","24.9635166666667","6500800","鶯歌區"
"239006","891-R6","2018/06/05 19:29:30","新北市鶯歌區建國路512巷3號","121.340465","24.9510516666667","6500800","鶯歌區"
"239001","417-VK","2018/06/05 19:29:34","新北市鶯歌區尖山埔路二段37號","121.342311666667","24.9488466666667","6500800","鶯歌區"
"239003","360-BY","2018/06/05 19:29:32","新北市鶯歌區中正一路460號","121.364383333333","24.9563866666667","6500800","鶯歌區"
"239002","359-BY","2018/06/05 19:29:43","新北市鶯歌區大湖路50-6號","121.342715","24.9619083333333","6500800","鶯歌區"
"239004","193-VK","2018/06/05 19:29:41","新北市鶯歌區二甲路37號","121.340595","24.936745","6500800","鶯歌區"
"221008","489-VK","2018/06/05 19:29:37","新北市汐止區康寧街145號","121.62188","25.0666466666667","6501100","汐止區"
"221036","130-UY","2018/06/05 19:29:40","新北市汐止區汐萬路一段312號","121.650691666667","25.0752883333333","6501100","汐止區"
"221015","131-UY","2018/06/05 19:29:23","新北市汐止區康寧街901號","121.651565","25.0749216666667","6501100","汐止區"
"221010","269-BY","2018/06/05 19:29:41","新北市汐止區連峰街1巷1號","121.646356666667","25.076135","6501100","汐止區"
"221012","278-VK","2018/06/05 19:29:45","新北市汐止區大同路三段174號","121.674048333333","25.07507","6501100","汐止區"
"221023","279-VK","2018/06/05 19:29:40","新北市汐止區康寧街543號","121.634351666667","25.0691983333333","6501100","汐止區"
"221027","281-BY","2018/06/05 19:29:35","新北市汐止區忠孝東路9號","121.658316666667","25.0659266666667","6501100","汐止區"
"221029","298-VK","2018/06/05 19:29:38","新北市汐止區康寧街901號","121.651566666667","25.0748933333333","6501100","汐止區"
"221021","299-VK","2018/06/05 19:29:36","新北市汐止區康寧街901號","121.65135","25.0750316666667","6501100","汐止區"
"221031","353-TW","2018/06/05 19:29:33","新北市汐止區康寧街901號","121.650833333333","25.0752916666667","6501100","汐止區"
"221025","623-UM","2018/06/05 19:29:33","新北市汐止區秀峰路57號","121.660036666667","25.0649133333333","6501100","汐止區"
"221038","646-BX","2018/06/05 19:29:46","新北市汐止區汐萬路一段2號","121.656243333333","25.06724","6501100","汐止區"
"221033","647-BX","2018/06/05 19:29:43","新北市汐止區南勢街1巷1號","121.627065","25.03742","6501100","汐止區"
"221002","707-TV","2018/06/05 19:29:41","新北市汐止區大同路一段337巷11號","121.63807","25.0598883333333","6501100","汐止區"
"221018","753-BX","2018/06/05 19:29:26","新北市汐止區康寧街901號","121.651543333333","25.074865","6501100","汐止區"
"220079","145-BY","2018/06/05 19:29:31","新北市板橋區民權路202巷13弄28號","121.458831666667","25.0163266666667","6500100","板橋區"
"220080","200-UY","2018/06/05 19:29:27","新北市板橋區大觀路二段37巷312號","121.449863333333","25.00222","6500100","板橋區"
"242002","KEA-2550","2018/06/05 19:29:42","新北市新莊區環河路636-7號","121.437405","25.0118383333333","6500500","新莊區"
"220082","610-BX","2018/06/05 19:29:25","新北市板橋區金門街95號","121.433178333333","24.99242","6500100","板橋區"
"220101","245-BX","2018/06/05 19:29:33","新北市板橋區莊敬路220巷62號","121.471625","25.0209483333333","6500100","板橋區"
"220103","257-TC","2018/06/05 19:29:43","新北市板橋區文化路一段268號","121.467278333333","25.020885","6500100","板橋區"
"220093","267-BY","2018/06/05 19:29:37","新北市板橋區英士路49-1號","121.461183333333","25.0245133333333","6500100","板橋區"
"220056","276-BY","2018/06/05 19:29:46","新北市板橋區信義路1巷26弄45號","121.459595","24.99675","6500100","板橋區"
"220071","283-VK","2018/06/05 19:29:34","新北市板橋區忠孝路6號","121.459593333333","25.001485","6500100","板橋區"
"220094","285-UM","2018/06/05 19:29:34","新北市板橋區吳鳳路32號","121.46868","25.0302466666667","6500100","板橋區"
"220053","285-VK","2018/06/05 19:29:45","新北市板橋區永豐街221號","121.476866666667","25.021235","6500100","板橋區"
"220083","286-VK","2018/06/05 19:29:29","新北市板橋區大觀路二段174巷163弄8號","121.441355","25.0033","6500100","板橋區"
"220081","287-VK","2018/06/05 19:29:42","新北市板橋區南雅南路一段106號","121.454958333333","25.0043216666667","6500100","板橋區"
"220061","293-UM","2018/06/05 19:29:36","新北市板橋區中山路二段251號","121.477226666667","25.017815","6500100","板橋區"
"220084","296-UM","2018/06/05 19:29:44","新北市板橋區滿平街84巷100弄18號","121.426063333333","24.9862666666667","6500100","板橋區"
"220075","303-R5","2018/06/05 19:29:35","新北市板橋區中正路253巷29號","121.454096666667","25.01766","6500100","板橋區"
"220062","305-R5","2018/06/05 19:29:29","新北市板橋區三民路二段181巷1號","121.479591666667","25.0143833333333","6500100","板橋區"
"220092","307-R5","2018/06/05 19:29:43","新北市板橋區光武街2巷35號","121.46891","25.0258883333333","6500100","板橋區"
"220098","317-R6","2018/06/05 19:29:40","新北市板橋區四維路266巷5弄16號","121.463611666667","25.02901","6500100","板橋區"
"220088","491-VK","2018/06/05 19:29:35","新北市板橋區雙十路二段132號","121.473825","25.0288733333333","6500100","板橋區"
"220035","560-BX","2018/06/05 19:29:33","新北市板橋區中正路375巷16號","121.45406","25.0208816666667","6500100","板橋區"
"220063","609-BX","2018/06/05 19:29:34","新北市板橋區三民路一段31巷87弄13號","121.481478333333","25.02342","6500100","板橋區"
"220086","630-UY","2018/06/05 19:29:39","新北市板橋區中正路261號","121.455733333333","25.0185816666667","6500100","板橋區"
"220091","637-BX","2018/06/05 19:29:42","新北市板橋區文聖街149巷23弄16號","121.479198333333","25.029005","6500100","板橋區"
"220057","686-BX","2018/06/05 19:29:43","新北市板橋區和平路101巷1號","121.46238","24.9948716666667","6500100","板橋區"
"220077","687-BX","2018/06/05 19:29:36","新北市板橋區僑中二街124巷2號","121.445453333333","25.005675","6500100","板橋區"
"220054","741-BX","2018/06/05 19:29:42","新北市板橋區光明街46號","121.460595","25.0025716666667","6500100","板橋區"
"220102","KEA-2699","2018/06/05 19:29:41","新北市板橋區雙十路二段96號","121.474821666667","25.028595","6500100","板橋區"
"220064","806-UM","2018/06/05 19:29:27","新北市板橋區中山路一段24號","121.460306666667","25.008165","6500100","板橋區"
"220055","827-TW","2018/06/05 19:29:28","新北市板橋區重慶路290巷22弄6號","121.462273333333","24.999165","6500100","板橋區"
"220067","830-TW","2018/06/05 19:29:34","新北市板橋區漢生東路319號","121.472025","25.0080516666667","6500100","板橋區"
"220096","831-TW","2018/06/05 19:29:30","新北市板橋區大同街23號","121.477351666667","25.027045","6500100","板橋區"
"220089","833-TW","2018/06/05 19:29:29","新北市板橋區公館街252號","121.460035","25.02099","6500100","板橋區"
"220074","895-R6","2018/06/05 19:29:36","新北市板橋區北門街6號","121.457776666667","25.0105166666667","6500100","板橋區"
"220073","985-R7","2018/06/05 19:29:43","新北市板橋區中正路178號","121.456368333333","25.0174816666667","6500100","板橋區"
"220097","AAC-210","2018/06/05 19:29:47","新北市板橋區漢生西路137號","121.462821666667","25.02165","6500100","板橋區"
"220070","AAC-253","2018/06/05 19:29:38","新北市板橋區四川路一段55號","121.459608333333","25.0062333333333","6500100","板橋區"
"235068","KEA-2873","2018/06/05 19:29:17","新北市中和區圓通路158巷3-1號","121.497691666667","24.9962016666667","6500300","中和區"
"235061","KEA-2875","2018/06/05 19:29:36","新北市中和區員山路314巷12號","121.482096666667","25.0026566666667","6500300","中和區"
