"lineid","car","time","location","longitude","latitude","cityid","cityname"
"234081","298-R6","2018/06/05 20:39:45","新北市永和區永利路109號","121.523496666667","25.0026383333333","6500400","永和區"
"234030","746-BX","2018/06/05 20:39:41","新北市新店區柴埕路116號","121.504988333333","24.95996","6500400","永和區"
"234061","AAD-866","2018/06/05 20:39:43","新北市永和區秀朗路一段175號","121.51711","25.0036583333333","6500400","永和區"
"234042","862-TW","2018/06/05 20:39:34","新北市永和區安樂路445號","121.514346666667","25.0048516666667","6500400","永和區"
"234026","9371-KE","2018/06/05 20:39:35","新北市永和區福和路1號","121.52675","25.0099733333333","6500400","永和區"
"249001","173-UM","2018/06/05 20:39:29","新北市八里區中山路三段335號","121.377383333333","25.1388","6502300","八里區"
"249004","303-UY","2018/06/05 20:39:39","新北市八里區中山路一段157號","121.412798333333","25.15852","6502300","八里區"
"249002","305-UY","2018/06/05 20:39:34","新北市八里區龍米路三段52號","121.424568333333","25.159185","6502300","八里區"
"234023","9380-KE","2018/06/05 20:39:46","新北市永和區竹林路3號","121.51632","25.0149033333333","6500400","永和區"
"234074","AAC-211","2018/06/05 20:39:38","新北市永和區竹林路119巷4弄2號","121.520475","25.011395","6500400","永和區"
"243016","380-SR","2018/06/05 20:39:26","新北市泰山區文程路19號","121.428148333333","25.0494316666667","6501600","泰山區"
"243011","KEA-2215","2018/06/05 20:39:34","新北市泰山區明志路三段62號","121.424905","25.0419283333333","6501600","泰山區"
"243010","KEA-2216","2018/06/05 20:39:38","新北市泰山區泰林路三段17巷1號","121.420596666667","25.0643566666667","6501600","泰山區"
"222003","436-BY","2018/06/05 20:39:36","新北市深坑區麻竹寮2-9號","121.614486666667","24.9989666666667","6501800","深坑區"
"222002","659-BX","2018/06/05 20:39:31","新北市深坑區萬福路45號","121.599465","25.0068816666667","6501800","深坑區"
"231041","002-UM","2018/06/05 20:39:36","新北市新店區中正路696號","121.534028333333","24.99053","6500600","新店區"
"231059","046-UY","2018/06/05 20:39:45","新北市新店區吉祥街15巷60號","121.499808333333","24.9451266666667","6500600","新店區"
"231040","047-UY","2018/06/05 20:39:42","新北市新店區中正路266號","121.539058333333","24.97357","6500600","新店區"
"231044","106-UY","2018/06/05 20:39:27","新北市新店區建國路293巷1號","121.536831666667","24.985925","6500600","新店區"
"231053","108-UY","2018/06/05 20:39:33","新北市新店區廣興路7-10號","121.54569","24.9116783333333","6500600","新店區"
"231048","187-VK","2018/06/05 20:39:40","新北市新店區寶慶街12-2號","121.54317","24.98683","6500600","新店區"
"231054","KEA-2219","2018/06/05 20:39:44","新北市新店區北新路一段64巷39弄2號","121.542331666667","24.96575","6500600","新店區"
"221035","KEA-2785","2018/06/05 20:39:30","新北市汐止區長江街101-5號","121.658686666667","25.0731683333333","6501100","汐止區"
"231057","256-BX","2018/06/05 20:39:28","新北市新店區花園六路二段9-2號","121.555725","24.93291","6500600","新店區"
"231042","268-BY","2018/06/05 20:39:41","新北市新店區寶橋路236號","121.551635","24.978815","6500600","新店區"
"231051","278-BY","2018/06/05 20:39:41","新北市新店區中央七街85號","121.526821666667","24.9770733333333","6500600","新店區"
"231058","3713-VJ","2018/06/05 20:39:29","新北市新店區平等街21號","121.536718333333","24.973775","6500600","新店區"
"231066","4716-K9","2018/06/05 20:39:40","新北市新店區安興路56號","121.516373333333","24.9748383333333","6500600","新店區"
"231056","4715-K9","2018/06/05 20:39:40","新北市新店區中央六街57號","121.528005","24.97601","6500600","新店區"
"231067","4772-VM","2018/06/05 20:39:44","新北市新店區安華路28-1號","121.519608333333","24.9607783333333","6500600","新店區"
"231065","512-UM","2018/06/05 20:39:48","新北市新店區安祥路102巷46弄83號","121.4872","24.96345","6500600","新店區"
"231049","513-UM","2018/06/05 20:39:30","新北市新店區永業路81巷1弄1-1號","121.529696666667","24.949305","6500600","新店區"
"231045","617-UM","2018/06/05 20:39:32","新北市新店區長春路20-1號","121.54952","24.95695","6500600","新店區"
"231061","619-UM","2018/06/05 20:39:45","新北市新店區新和街37號","121.519273333333","24.9849483333333","6500600","新店區"
"231063","641-BX","2018/06/05 20:39:25","新北市新店區玫瑰路4-1號","121.49358","24.951385","6500600","新店區"
"231068","718-UY","2018/06/05 20:39:31","新北市新店區寶元路一段85巷10號","121.54307","24.9860133333333","6500600","新店區"
"231064","719-UY","2018/06/05 20:39:40","新北市新店區安和路三段120巷20號","121.5179","24.9858866666667","6500600","新店區"
"231062","720-UM","2018/06/05 20:39:47","新北市新店區安泰路19巷1號","121.485393333333","24.94958","6500600","新店區"
"231060","897-TW","2018/06/05 20:39:46","新北市新店區安康路三段628-3號","121.477503333333","24.9451333333333","6500600","新店區"
"231043","899-TW","2018/06/05 20:39:38","新北市新店區建國路30號","121.540446666667","24.9744566666667","6500600","新店區"
"241011","013-R5","2018/06/05 20:39:39","新北市三重區龍濱路285號","121.50111","25.0733283333333","6500200","三重區"
"241028","022-UY","2018/06/05 20:39:29","新北市三重區光興街91號","121.497355","25.0599916666667","6500200","三重區"
"241008","059-VK","2018/06/05 20:39:29","新北市三重區下竹圍街91號","121.4812","25.0748716666667","6500200","三重區"
"241031","061-VK","2018/06/05 20:39:28","新北市三重區重陽路一段113巷1弄49號","121.48807","25.0585766666667","6500200","三重區"
"241015","062-VK","2018/06/05 20:39:36","新北市三重區文化北路101號","121.497863333333","25.0683616666667","6500200","三重區"
"241017","063-VK","2018/06/05 20:39:40","新北市三重區安慶街239號","121.490783333333","25.0678066666667","6500200","三重區"
"241024","065-VK","2018/06/05 20:39:37","新北市三重區中正北路185號","121.477591666667","25.0694966666667","6500200","三重區"
"241026","066-VK","2018/06/05 20:39:37","新北市三重區和平街1號","121.500073333333","25.0623633333333","6500200","三重區"
"241003","091-VK","2018/06/05 20:39:44","新北市三重區五華街141巷60號","121.49348","25.0867","6500200","三重區"
"241013","742-BX","2018/06/05 20:39:39","新北市三重區三和路四段3號","121.491626666667","25.0740316666667","6500200","三重區"
"241005","262-UM","2018/06/05 20:39:32","新北市三重區碧華街446號","121.493146666667","25.085875","6500200","三重區"
"241009","265-UM","2018/06/05 20:39:44","新北市三重區碧華街55號","121.484703333333","25.08131","6500200","三重區"
"241016","266-UM","2018/06/05 20:39:39","新北市三重區長壽西街81號","121.495228333333","25.0670066666667","6500200","三重區"
"241022","267-UM","2018/06/05 20:39:39","新北市三重區新北大道一段46巷18弄7號","121.48827","25.062045","6500200","三重區"
"241018","268-UM","2018/06/05 20:39:40","新北市三重區正義北路204號","121.496338333333","25.0672983333333","6500200","三重區"
"241025","271-UM","2018/06/05 20:39:32","新北市三重區忠孝路三段93巷10-1號","121.478593333333","25.064955","6500200","三重區"
"241007","398-BY","2018/06/05 20:39:46","新北市三重區自強路四段4號","121.488335","25.0761383333333","6500200","三重區"
"241002","413-TH","2018/06/05 20:39:46","新北市三重區仁義街167巷9號","121.497391666667","25.081705","6500200","三重區"
"241035","462-BY","2018/06/05 20:39:34","新北市三重區正義北路326號","121.494781666667","25.070425","6500200","三重區"
"241004","475-VK","2018/06/05 20:39:44","新北市三重區仁愛街406巷1號","121.490655","25.0810716666667","6500200","三重區"
"241020","478-VK","2018/06/05 20:39:33","新北市三重區忠孝路一段2號","121.49254","25.0717516666667","6500200","三重區"
"241030","480-VK","2018/06/05 20:39:32","新北市三重區成功路73巷12號","121.489391666667","25.0519266666667","6500200","三重區"
"241014","543-UM","2018/06/05 20:39:33","新北市三重區萬壽街23號","121.49961","25.0693283333333","6500200","三重區"
"241023","545-UM","2018/06/05 20:39:39","新北市三重區自由街35巷2號","121.479016666667","25.0669016666667","6500200","三重區"
"241001","547-UM","2018/06/05 20:39:40","新北市三重區車路頭街109巷8號","121.485315","25.0743533333333","6500200","三重區"
"241019","KEA-2593","2018/06/05 20:39:31","新北市三重區大智街139號","121.490656666667","25.070975","6500200","三重區"
"241006","AAD-863","2018/06/05 20:39:38","新北市三重區車路頭街135-1號","121.484263333333","25.0761733333333","6500200","三重區"
"241032","887-TS","2018/06/05 20:39:34","新北市三重區重陽路一段120巷48號","121.485061666667","25.0601433333333","6500200","三重區"
"241012","941-UM","2018/06/05 20:39:41","新北市三重區河邊北街176巷2號","121.502803333333","25.0737116666667","6500200","三重區"
"241029","942-UM","2018/06/05 20:39:35","新北市三重區集美街126巷27號","121.490103333333","25.0538466666667","6500200","三重區"
"241033","AAC-255","2018/06/05 20:39:43","新北市三重區光復路二段1號","121.472271666667","25.05326","6500200","三重區"
"235069","4980-A6","2018/06/05 20:39:29","新北市中和區新生街256號","121.483686666667","24.99745","6500300","中和區"
"247024","893-R6","2018/06/05 20:39:33","新北市蘆洲區長樂路125-1號","121.462273333333","25.087605","6501400","蘆洲區"
"247014","546-UM","2018/06/05 20:39:34","新北市蘆洲區中山一路261號","121.47286","25.0801733333333","6501400","蘆洲區"
"247022","500-BY","2018/06/05 20:39:40","新北市蘆洲區中正路243巷18弄6號","121.466876666667","25.0865566666667","6501400","蘆洲區"
"247010","341-TH","2018/06/05 20:39:47","新北市蘆洲區重陽街68號","121.481765","25.0841","6501400","蘆洲區"
"247004","337-TH","2018/06/05 20:39:28","新北市蘆洲區長安街297號","121.458026666667","25.0848033333333","6501400","蘆洲區"
"247008","056-VK","2018/06/05 20:39:39","新北市蘆洲區重陽街14號","121.480683333333","25.0814666666667","6501400","蘆洲區"
"247006","053-VK","2018/06/05 20:39:33","新北市蘆洲區和平路189號","121.466258333333","25.0813816666667","6501400","蘆洲區"
"247016","007-UY","2018/06/05 20:39:36","新北市蘆洲區中山二路309號","121.46916","25.07709","6501400","蘆洲區"
"247002","002-UY","2018/06/05 20:39:43","新北市蘆洲區長安街375巷20號","121.456525","25.0880066666667","6501400","蘆洲區"
"247020","001-UY","2018/06/05 20:39:32","新北市蘆洲區民族路424號","121.473958333333","25.0918566666667","6501400","蘆洲區"
"222001","KEA-2212","2018/06/05 20:39:43","新北市深坑區北深路三段234號","121.60057","25.00406","6501800","深坑區"
"208003","665-BX","2018/06/05 20:39:39","新北市金山區磺清路121號","121.639611666667","25.2278466666667","6502700","金山區"
"251001","011-UM","2018/06/05 20:39:35","新北市淡水區淡金路218-1號","121.460815","25.1678683333333","6501000","淡水區"
"251002","012-UM","2018/06/05 20:39:30","新北市淡水區中正路28號","121.44435","25.169045","6501000","淡水區"
"251013","KEA-2871","2018/06/05 20:39:44","新北市淡水區下圭柔山28巷7弄6號","121.457758333333","25.2042833333333","6501000","淡水區"
"251016","179-VK","2018/06/05 20:39:46","新北市淡水區後洲子8-2號","121.449668333333","25.2240383333333","6501000","淡水區"
"251014","180-VK","2018/06/05 20:39:38","新北市淡水區公埔子38號","121.465011666667","25.23271","6501000","淡水區"
"251015","182-VK","2018/06/05 20:39:42","新北市淡水區淡金路四段478號","121.452031666667","25.2244183333333","6501000","淡水區"
"251010","413-VK","2018/06/05 20:39:42","新北市淡水區沙崙路181巷15號","121.423756666667","25.184285","6501000","淡水區"
"251012","441-VK","2018/06/05 20:39:35","新北市淡水區興仁路108號","121.451625","25.2181483333333","6501000","淡水區"
"251006","561-UM","2018/06/05 20:39:48","新北市淡水區商工路186巷27號","121.450771666667","25.18681","6501000","淡水區"
"251011","650-BX","2018/06/05 20:28:02","新北市淡水區新市一路一段361號","121.436313333333","25.1861666666667","6501000","淡水區"
"251003","673-BX","2018/06/05 20:39:26","新北市淡水區新民街152巷6弄18號","121.438551666667","25.178395","6501000","淡水區"
"252002","178-VK","2018/06/05 20:39:32","新北市三芝區淡金路二段47-2號","121.503675","25.2605033333333","6502100","三芝區"
"252001","292-VK","2018/06/05 20:39:43","新北市三芝區育英街29-1號","121.501255","25.2573166666667","6502100","三芝區"
"242034","AAC-296","2018/06/05 20:39:43","新北市新莊區中正路399號","121.445365","25.0344366666667","6500500","新莊區"
"242058","986-R7","2018/06/05 20:39:43","新北市新莊區四維路189號","121.422055","25.02099","6500500","新莊區"
"242054","751-BX","2018/06/05 20:39:42","新北市新莊區西盛街324巷22號","121.427015","25.0148","6500500","新莊區"
"242027","705-TV","2018/06/05 20:39:36","新北市新莊區思源路59號","121.459906666667","25.0403166666667","6500500","新莊區"
"242025","613-BX","2018/06/05 20:39:31","新北市新莊區化成路579巷1號","121.464431666667","25.06619","6500500","新莊區"
"242029","612-BX","2018/06/05 20:39:39","新北市新莊區中華路二段2號","121.453096666667","25.0445233333333","6500500","新莊區"
"242042","566-BX","2018/06/05 20:39:45","新北市新莊區中正路700-37號","121.417703333333","25.027875","6500500","新莊區"
"242046","497-BY","2018/06/05 20:39:25","新北市新莊區裕民街83-6號","121.418423333333","25.023645","6500500","新莊區"
"242056","440-UM","2018/06/05 20:39:38","新北市新莊區瓊泰路39號","121.443751666667","25.0286066666667","6500500","新莊區"
"242037","415-TV","2018/06/05 20:39:48","新北市新莊區建安街10-1號","121.428521666667","25.0264433333333","6500500","新莊區"
"242007","413-TV","2018/06/05 20:39:38","新北市新莊區思源路287巷2弄13號","121.45926","25.0487583333333","6500500","新莊區"
"242044","400-BY","2018/06/05 20:39:27","新北市新莊區龍安路108號","121.418371666667","25.0204466666667","6500500","新莊區"
"242023","362-BY","2018/06/05 20:39:29","新北市新莊區化成路37號","121.464916666667","25.0444766666667","6500500","新莊區"
"242061","353-BY","2018/06/05 20:39:45","新北市新莊區新樹路258巷1-1號","121.432176666667","25.01546","6500500","新莊區"
"242009","132-UY","2018/06/05 20:39:40","新北市新莊區福壽街99巷4弄6號","121.45749","25.0507033333333","6500500","新莊區"
"242032","135-UY","2018/06/05 20:39:32","新北市新莊區中正路508巷5弄2號","121.435011666667","25.0338933333333","6500500","新莊區"
"242048","172-VK","2018/06/05 20:39:35","新北市新莊區中正路739號","121.422581666667","25.0287666666667","6500500","新莊區"
"242011","173-VK","2018/06/05 20:38:53","新北市新莊區中榮街104巷15號","121.447163333333","25.0536366666667","6500500","新莊區"
"242017","175-VK","2018/06/05 20:39:30","新北市新莊區中港一街161號","121.44731","25.0450316666667","6500500","新莊區"
"242015","346-TH","2018/06/05 20:39:26","新北市新莊區中和街2號","121.448516666667","25.04288","6500500","新莊區"
"242039","347-TH","2018/06/05 20:39:43","新北市新莊區瓊林路204-8號","121.437781666667","25.0211666666667","6500500","新莊區"
"242021","348-TH","2018/06/05 20:39:49","新北市新莊區中華路一段73號","121.452291666667","25.0400833333333","6500500","新莊區"
"242051","349-TH","2018/06/05 20:39:37","新北市新莊區民安西路171號","121.426155","25.0160183333333","6500500","新莊區"
"242019","350-TH","2018/06/05 20:39:37","新北市新莊區中港路五守新村1巷7號","121.455298333333","25.0381166666667","6500500","新莊區"
"242013","351-TH","2018/06/05 20:39:44","新北市新莊區幸福路802號","121.446221666667","25.0491183333333","6500500","新莊區"
"221008","489-VK","2018/06/05 20:39:36","新北市汐止區康寧街747號","121.638371666667","25.07304","6501100","汐止區"
"221036","130-UY","2018/06/05 20:39:39","新北市汐止區南昌街37號","121.66325","25.0689816666667","6501100","汐止區"
"221015","131-UY","2018/06/05 20:39:43","新北市汐止區建成路21號","121.664256666667","25.072575","6501100","汐止區"
"221010","269-BY","2018/06/05 20:39:41","新北市汐止區八連路一段77號","121.64558","25.0807066666667","6501100","汐止區"
"221023","279-VK","2018/06/05 20:39:40","新北市汐止區康寧街629號","121.637213333333","25.0719016666667","6501100","汐止區"
"221032","280-BY","2018/06/05 20:39:44","新北市汐止區橫科路52巷9弄5號","121.619608333333","25.0502233333333","6501100","汐止區"
"221027","281-BY","2018/06/05 20:39:35","新北市汐止區大同路二段563-1號","121.662833333333","25.069915","6501100","汐止區"
"221029","298-VK","2018/06/05 20:39:38","新北市汐止區大同路一段415號","121.642246666667","25.06113","6501100","汐止區"
"221021","299-VK","2018/06/05 20:39:36","新北市汐止區水源路一段282巷5號","121.653825","25.0580916666667","6501100","汐止區"
"221025","623-UM","2018/06/05 20:39:41","新北市汐止區水源路二段216號","121.657936666667","25.052535","6501100","汐止區"
"221038","646-BX","2018/06/05 20:39:26","新北市汐止區汐萬路一段221號","121.651901666667","25.0724333333333","6501100","汐止區"
"221033","647-BX","2018/06/05 20:39:43","新北市汐止區合順街18巷8弄5號","121.620331666667","25.0419183333333","6501100","汐止區"
"221002","707-TV","2018/06/05 20:39:41","新北市汐止區福德二路138號","121.630803333333","25.0652166666667","6501100","汐止區"
"221018","753-BX","2018/06/05 20:39:26","新北市汐止區中華街53號","121.667678333333","25.0716566666667","6501100","汐止區"
"242002","KEA-2550","2018/06/05 20:39:42","新北市新莊區中港路29號","121.455105","25.03753","6500500","新莊區"
"220083","286-VK","2018/06/05 20:39:28","新北市板橋區僑中二街108巷15-4號","121.445115","25.0073566666667","6500100","板橋區"
"220070","AAC-253","2018/06/05 20:35:58","新北市樹林區中山路三段210-2號","121.380886666667","24.9670583333333","6500100","板橋區"
