"lineid","car","time","location","longitude","latitude","cityid","cityname"
"248005","653-BX","2018/01/11 07:37:45","新北市五股區明德路12巷6號","121.433355","25.071855","6501500","五股區"
"232001","290-BY","2018/01/11 07:37:36","新北市坪林區樹梅嶺9號","121.696045","24.95957","6502000","坪林區"
"232014","291-BY","2018/01/11 07:37:39","新北市坪林區九芎根1號","121.669685","24.890065","6502000","坪林區"
"232010","375-UM","2018/01/11 07:37:46","新北市坪林區苦苓腳2號","121.714175","24.9361383333333","6502000","坪林區"
"232018","705-BZ","2018/01/11 07:37:51","新北市坪林區坪雙路二段15號","121.732511666667","24.9656216666667","6502000","坪林區"
"232007","758-BX","2018/01/11 07:37:52","新北市坪林區魚堀34號","121.699146666667","24.9262416666667","6502000","坪林區"
"244003","248-BX","2018/01/11 07:37:39","新北市林口區頂福里71-113號","121.345985","25.0841533333333","6501700","林口區"
"222006","289-BY","2018/01/11 07:27:14","新北市深坑區文化街39巷13號","121.619016666667","25.0010516666667","6501800","深坑區"
"235001","611-BX","2018/01/11 07:37:52","新北市中和區圓通路367巷6號","121.49146","24.989285","6500300","中和區"
"226005","5620-A6","2018/01/11 07:37:41","新北市平溪區靜安路二段440號","121.740048333333","25.0248916666667","6502400","平溪區"
"226002","7418-A5","2018/01/11 07:37:38","新北市平溪區南山里南山坪20號","121.77226","25.037235","6502400","平溪區"
"226003","AGD-0702","2018/01/11 07:37:48","新北市平溪區嶺腳里中華街60號","121.739453333333","25.02505","6502400","平溪區"
"223006","022-BY","2018/01/11 07:37:45","新北市石碇區靜安路一段292巷10號","121.691868333333","25.005885","6501900","石碇區"
"223002","198-BX","2018/01/11 07:37:47","新北市石碇區北宜路五段濕水子巷10號","121.635458333333","24.9492466666667","6501900","石碇區"
"223008","406-TH","2018/01/11 07:37:47","新北市石碇區靜安路一段337號","121.6988","25.0146433333333","6501900","石碇區"
"223001","437-BY","2018/01/11 07:37:42","新北市石碇區烏塗窟8號","121.655921666667","24.97504","6501900","石碇區"
"223004","660-BX","2018/01/11 07:37:46","新北市石碇區八分寮47號","121.642376666667","25.0139316666667","6501900","石碇區"
"223007","661-BX","2018/01/11 07:37:49","新北市石碇區大湖格21號","121.697391666667","25.0185","6501900","石碇區"
"223005","677-TV","2018/01/11 07:37:40","新北市石碇區八分寮45-2號","121.641815","25.0127333333333","6501900","石碇區"
"227007","282-VK","2018/01/11 07:37:35","新北市雙溪區雙溪里太平路56號","121.864896666667","25.0356083333333","6502500","雙溪區"
"252004","249-BX","2018/01/11 07:37:50","新北市三芝區店子里菜公坑77-1號","121.511053333333","25.20616","6502100","三芝區"
"252007","AAC-283","2018/01/11 07:37:46","新北市三芝區古庄里古庄83號","121.488938333333","25.2699966666667","6502100","三芝區"
"237001","159-UY","2018/01/11 07:37:37","新北市三峽區三樹路166號","121.378408333333","24.9405633333333","6500900","三峽區"
"236009","165-UM","2018/01/11 07:37:55","新北市土城區延壽路2巷5號","121.471866666667","24.990405","6501300","土城區"
"236003","339-SR","2018/01/11 07:37:48","新北市土城區南天母路111巷17號","121.44839","24.9560166666667","6501300","土城區"
"242030","AAC-296","2018/01/11 07:37:44","新北市新莊區新泰路357巷3弄57號","121.44204","25.03933","6500500","新莊區"
"242028","986-R7","2018/01/11 07:37:38","新北市新莊區新泰路255巷83號","121.442286666667","25.03917","6500500","新莊區"
"242051","751-BX","2018/01/11 07:37:37","新北市新莊區公園一路63號","121.44235","25.03661","6500500","新莊區"
"242022","613-BX","2018/01/11 07:37:52","新北市新莊區新泰路357巷3弄57號","121.442183333333","25.0391983333333","6500500","新莊區"
"242026","612-BX","2018/01/11 07:37:51","新北市新莊區新泰路357巷3弄57號","121.442245","25.0392366666667","6500500","新莊區"
"242038","566-BX","2018/01/11 07:37:43","新北市新莊區三和路12-9號","121.442301666667","25.0366033333333","6500500","新莊區"
"242043","442-UM","2018/01/11 07:37:44","新北市新莊區中正路384號","121.44201","25.0347933333333","6500500","新莊區"
"242047","441-UM","2018/01/11 07:37:52","新北市新莊區中正路400號","121.441686666667","25.0338916666667","6500500","新莊區"
"242052","440-UM","2018/01/11 07:37:36","新北市新莊區新泰路357巷3弄57號","121.44249","25.0396683333333","6500500","新莊區"
"242033","415-TV","2018/01/11 07:37:50","新北市新莊區新泰路357巷3弄57號","121.442111666667","25.0393283333333","6500500","新莊區"
"242003","413-TV","2018/01/11 07:37:39","新北市新莊區新泰路357巷3弄57號","121.442178333333","25.0394366666667","6500500","新莊區"
"242040","400-BY","2018/01/11 07:37:38","新北市新莊區新泰路357巷3弄57號","121.44243","25.0396883333333","6500500","新莊區"
"242059","362-BY","2018/01/11 07:37:36","新北市新莊區新泰路255巷83號","121.442318333333","25.0387083333333","6500500","新莊區"
"242057","353-BY","2018/01/11 07:37:47","新北市新莊區新泰路255巷83號","121.442256666667","25.0386883333333","6500500","新莊區"
"242006","132-UY","2018/01/11 07:37:54","新北市新莊區新泰路255巷83號","121.442093333333","25.0388916666667","6500500","新莊區"
"242035","133-UY","2018/01/11 07:37:48","新北市新莊區新泰路255巷83號","121.442056666667","25.038935","6500500","新莊區"
"242020","135-UY","2018/01/11 07:37:40","新北市新莊區三和路12-21號","121.442041666667","25.0387683333333","6500500","新莊區"
"242045","172-VK","2018/01/11 04:30:58","新北市新莊區三和路12-21號","121.441906666667","25.0386866666667","6500500","新莊區"
"242014","175-VK","2018/01/11 07:37:54","新北市新莊區三和路12-21號","121.442058333333","25.038645","6500500","新莊區"
"242012","346-TH","2018/01/11 04:40:50","新北市新莊區三和路12-16號","121.441971666667","25.0373916666667","6500500","新莊區"
"242018","348-TH","2018/01/11 07:37:55","新北市新莊區新泰路357巷3弄57號","121.441901666667","25.0395733333333","6500500","新莊區"
"242055","349-TH","2018/01/11 07:37:39","新北市新莊區三和路12-14號","121.442305","25.037205","6500500","新莊區"
"242016","350-TH","2018/01/11 07:37:40","新北市新莊區三和路12-21號","121.441976666667","25.0387833333333","6500500","新莊區"
"242010","351-TH","2018/01/11 07:37:41","新北市新莊區新泰路357巷3弄57號","121.442066666667","25.0395766666667","6500500","新莊區"
"220064","282-UM","2018/01/11 07:37:47","新北市板橋區國光路49巷2號","121.458038333333","25.0180316666667","6500100","板橋區"
