"lineid","car","time","location","longitude","latitude","cityid","cityname"
"248005","653-BX","2018/03/06 07:48:05","新北市五股區明德路12巷6號","121.43339","25.0718883333333","6501500","五股區"
"244002","248-BX","2018/03/06 07:59:25","新北市林口區下福里66號","121.309168333333","25.1147316666667","6501700","林口區"
"222004","289-BY","2018/03/06 07:59:28","新北市深坑區深坑街3巷22號","121.616891666667","25.0019216666667","6501800","深坑區"
"231007","189-VK","2018/03/06 07:59:28","新北市新店區安華路28-1號","121.51954","24.96098","6500600","新店區"
"231009","192-VK","2018/03/06 07:59:34","新北市新店區安華路28-1號","121.519436666667","24.9612116666667","6500600","新店區"
"235001","611-BX","2018/03/06 07:59:31","新北市中和區圓通路367巷4號","121.491435","24.9892633333333","6500300","中和區"
"235015","157-BY","2018/03/06 07:59:41","新北市中和區和平街90號","121.50744","24.9912616666667","6500300","中和區"
"226005","5620-A6","2018/03/06 07:59:35","新北市平溪區石底里公園街17號","121.73727","25.0249216666667","6502400","平溪區"
"226002","7418-A5","2018/03/06 07:59:24","新北市平溪區南山里乾坑11號","121.782696666667","25.0471783333333","6502400","平溪區"
"226003","AGD-0702","2018/03/06 07:59:34","新北市平溪區十分里十分街54號","121.775236666667","25.0414133333333","6502400","平溪區"
"223006","022-BY","2018/03/06 07:59:27","新北市坪林區坪雙路一段56號","121.714285","24.942765","6501900","石碇區"
"223001","205-TH","2018/03/06 07:53:29","新北市石碇區崩山36-1號","121.671828333333","24.9582766666667","6501900","石碇區"
"223008","406-TH","2018/03/06 07:59:26","新北市石碇區靜安路一段325號","121.696815","25.00662","6501900","石碇區"
"223001","592-UM","2018/03/06 07:55:02","新北市石碇區橫坪1-4號","121.669581666667","24.9660783333333","6501900","石碇區"
"223004","660-BX","2018/03/06 07:59:32","新北市深坑區文山路一段10號","121.642993333333","25.00856","6501900","石碇區"
"223007","661-BX","2018/03/06 07:59:31","新北市石碇區靜安路一段321號","121.696621666667","25.0065566666667","6501900","石碇區"
"223005","677-TV","2018/03/06 07:59:37","新北市深坑區文山路一段10號","121.64311","25.008595","6501900","石碇區"
"227006","282-VK","2018/03/06 07:59:45","新北市雙溪區平林里梅竹蹊16號","121.862023333333","25.0359966666667","6502500","雙溪區"
"252004","249-BX","2018/03/06 07:59:34","新北市三芝區興華里車埕36-19號","121.505753333333","25.1928016666667","6502100","三芝區"
"252007","AAC-283","2018/03/06 07:59:26","新北市三芝區後厝里土地公坑63-1號","121.46598","25.24579","6502100","三芝區"
"237001","159-UY","2018/03/06 07:59:35","新北市三峽區大學路45號","121.376845","24.9406","6500900","三峽區"
"236008","165-UM","2018/03/06 07:59:37","新北市土城區明德路一段280號","121.457648333333","24.9772816666667","6501300","土城區"
"236002","339-SR","2018/03/06 07:59:31","新北市土城區龍泉路66-2號","121.415358333333","24.94134","6501300","土城區"
"239006","661-UM","2018/03/06 07:59:29","新北市鶯歌區中正一路360號","121.358125","24.95702","6500800","鶯歌區"
"220027","461-BY","2018/03/06 07:59:41","新北市新莊區中正路384-1號","121.442238333333","25.0357516666667","6500100","板橋區"
