"lineid","car","time","location","longitude","latitude","cityid","cityname"
"248005","653-BX","2018/03/06 09:49:33","新北市五股區成泰路一段239號","121.436828333333","25.0808133333333","6501500","五股區"
"222004","289-BY","2018/03/06 09:46:28","新北市深坑區昇高坑路51-1號","121.629536666667","24.9950716666667","6501800","深坑區"
"231007","189-VK","2018/03/06 09:49:28","新北市新店區新潭路三段215巷25號","121.50811","24.904045","6500600","新店區"
"231009","192-VK","2018/03/06 09:36:54","新北市新店區平廣路一段256號","121.507528333333","24.8880683333333","6500600","新店區"
"227006","282-VK","2018/03/06 09:49:25","新北市雙溪區長源里柑腳46號","121.797123333333","25.0089733333333","6502500","雙溪區"
"227012","030-BX","2018/03/06 09:49:25","新北市雙溪區泰平里烏山路17號","121.796708333333","24.9505266666667","6502500","雙溪區"
"252004","249-BX","2018/03/06 09:49:34","新北市三芝區圓山里石曹子坑64-26號","121.52436","25.2108","6502100","三芝區"
"252007","AAC-283","2018/03/06 09:49:32","新北市三芝區埔坪里埔頭坑46-1號","121.50547","25.2621566666667","6502100","三芝區"
"236002","339-SR","2018/03/06 09:46:56","新北市土城區金城路一段66號","121.443383333333","24.9712516666667","6501300","土城區"
"236006","498-BY","2018/03/06 09:49:43","新北市土城區中華路二段88號","121.437948333333","24.975475","6501300","土城區"
