"lineid","car","time","location","longitude","latitude","cityid","cityname"
"248005","653-BX","2018/03/06 09:59:33","新北市五股區中興路四段17-4號","121.439415","25.0825166666667","6501500","五股區"
"231007","189-VK","2018/03/06 09:58:08","新北市新店區新潭路三段215巷25號","121.508093333333","24.9040683333333","6500600","新店區"
"231009","192-VK","2018/03/06 09:36:54","新北市新店區平廣路一段256號","121.507528333333","24.8880683333333","6500600","新店區"
"227006","282-VK","2018/03/06 09:59:45","新北市雙溪區長源里柑腳18號","121.804641666667","25.0143316666667","6502500","雙溪區"
"227012","030-BX","2018/03/06 09:57:25","新北市雙溪區泰平里烏山路15號","121.794613333333","24.9503033333333","6502500","雙溪區"
"252004","249-BX","2018/03/06 09:59:34","新北市三芝區福德里土地公埔47號","121.515806666667","25.225635","6502100","三芝區"
"252007","AAC-283","2018/03/06 09:51:12","新北市三芝區埔坪里埔頭坑46-1號","121.50547","25.2621566666667","6502100","三芝區"
"237001","159-UY","2018/03/06 09:59:35","新北市三峽區隆恩街158巷42號","121.366185","24.9440683333333","6500900","三峽區"
"236002","339-SR","2018/03/06 09:46:56","新北市土城區金城路一段66號","121.443383333333","24.9712516666667","6501300","土城區"
