"lineid","car","time","location","longitude","latitude","cityid","cityname"
"248005","653-BX","2018/03/06 10:09:33","新北市五股區中興路二段57-6號","121.460435","25.0753983333333","6501500","五股區"
"231007","189-VK","2018/03/06 10:09:28","新北市新店區新潭路三段215巷25號","121.508106666667","24.9040483333333","6500600","新店區"
"231009","192-VK","2018/03/06 10:09:34","新北市新店區平廣路一段50號","121.533851666667","24.90107","6500600","新店區"
"227006","282-VK","2018/03/06 10:09:45","新北市雙溪區長源里柑腳18號","121.804643333333","25.01431","6502500","雙溪區"
"227012","030-BX","2018/03/06 10:09:25","新北市坪林區鷺鶿岫4-2號","121.78579","24.9558433333333","6502500","雙溪區"
"252004","249-BX","2018/03/06 10:09:34","新北市三芝區福德里埔尾2-1號","121.501498333333","25.2485616666667","6502100","三芝區"
"252007","AAC-283","2018/03/06 09:51:12","新北市三芝區埔坪里埔頭坑46-1號","121.50547","25.2621566666667","6502100","三芝區"
"237001","159-UY","2018/03/06 10:09:35","新北市三峽區國際一街100號","121.370218333333","24.9419333333333","6500900","三峽區"
"236002","339-SR","2018/03/06 10:09:35","新北市土城區中央路二段276-1號","121.440861666667","24.9742083333333","6501300","土城區"
