"lineid","car","time","location","longitude","latitude","cityid","cityname"
"234044","148-BY","2018/03/06 13:49:46","新北市永和區永利路111號","121.52353","25.0025633333333","6500400","永和區"
"234005","207-UY","2018/03/06 13:49:32","新北市永和區中和路591號","121.51222","25.0040016666667","6500400","永和區"
"234078","298-R6","2018/03/06 13:49:51","新北市永和區永利路81巷2弄2號","121.521561666667","25.0036166666667","6500400","永和區"
"234036","336-UY","2018/03/06 13:49:52","新北市永和區成功路二段113號","121.526773333333","24.9986916666667","6500400","永和區"
"234062","337-UY","2018/03/06 13:49:37","新北市永和區中正路368巷2號","121.517941666667","25.0007916666667","6500400","永和區"
"234084","338-UY","2018/03/06 13:49:47","新北市永和區福和路282號","121.517691666667","25.0074683333333","6500400","永和區"
"234068","552-UM","2018/03/06 13:49:47","新北市永和區竹林路81號","121.519545","25.0125316666667","6500400","永和區"
"234015","745-BX","2018/03/06 13:49:35","新北市永和區文化路55號","121.514223333333","25.015035","6500400","永和區"
"234028","746-BX","2018/03/06 13:49:45","新北市永和區民生路45號","121.522711666667","24.9978933333333","6500400","永和區"
"234052","KEA-2590","2018/03/06 13:49:47","新北市永和區竹林路73-1號","121.518695","25.0131833333333","6500400","永和區"
"234012","KEA-2591","2018/03/06 13:49:35","新北市永和區保生路55號","121.50476","25.01064","6500400","永和區"
"234060","AAD-866","2018/03/06 13:49:30","新北市永和區中正路283巷3號","121.517068333333","25.000745","6500400","永和區"
"234040","862-TW","2018/03/06 13:49:42","新北市永和區中和路335巷14號","121.507528333333","25.0003016666667","6500400","永和區"
"234048","863-TW","2018/03/06 13:49:51","新北市永和區保安路73號","121.508846666667","25.0149016666667","6500400","永和區"
"234025","9371-KE","2018/03/06 13:49:38","新北市永和區自由街56號","121.513786666667","25.0060433333333","6500400","永和區"
"234010","9373-KE","2018/03/06 13:49:39","新北市永和區仁愛路302號","121.503505","25.007935","6500400","永和區"
"248017","225-UY","2018/03/06 13:49:37","新北市五股區民義路二段22巷24號","121.423893333333","25.0984683333333","6501500","五股區"
"234022","9380-KE","2018/03/06 13:49:48","新北市永和區永和路二段100-1號","121.515028333333","25.01183","6500400","永和區"
"234076","969-R7","2018/03/06 13:49:43","新北市永和區民族街40號","121.518571666667","24.9991016666667","6500400","永和區"
"234072","AAC-211","2018/03/06 13:49:29","新北市永和區豫溪街215巷17號","121.52378","25.0100466666667","6500400","永和區"
"234066","AAC-212","2018/03/06 13:49:40","新北市永和區保平路236巷29號","121.508003333333","25.0068966666667","6500400","永和區"
"234001","AAC-295","2018/03/06 13:49:49","新北市永和區永和路一段83號","121.513293333333","25.0072833333333","6500400","永和區"
"244002","248-BX","2018/03/06 13:49:49","新北市林口區信義路152號","121.379921666667","25.0795833333333","6501700","林口區"
"231002","002-UM","2018/03/06 13:49:44","新北市新店區溪園路87號","121.528575","24.9861183333333","6500600","新店區"
"231025","0293-UT","2018/03/06 13:49:36","新北市新店區中央五街2號","121.530065","24.9740383333333","6500600","新店區"
"231028","046-UY","2018/03/06 13:49:42","新北市新店區安和路三段31號","121.517585","24.9815466666667","6500600","新店區"
"231030","047-UY","2018/03/06 13:49:39","新北市新店區安康路一段266巷4號","121.520065","24.9640633333333","6500600","新店區"
"231029","106-UY","2018/03/06 13:49:42","新北市新店區安康路二段105-1號","121.51281","24.9623733333333","6500600","新店區"
"231018","107-UY","2018/03/06 13:49:46","新北市新店區中正路399巷22號","121.533983333333","24.976765","6500600","新店區"
"231020","187-VK","2018/03/06 13:49:47","新北市新店區屈尺路75號","121.545683333333","24.922665","6500600","新店區"
"231015","KEA-2219","2018/03/06 13:49:31","新北市新店區竹林路94號","121.553926666667","24.9502133333333","6500600","新店區"
"231026","256-BX","2018/03/06 13:49:48","新北市新店區平等街48巷27號","121.534891666667","24.9731833333333","6500600","新店區"
"231010","278-BY","2018/03/06 13:49:30","新北市新店區三民路98-4號","121.53394","24.973355","6500600","新店區"
"231027","3712-VJ","2018/03/06 13:49:44","新北市新店區中興路一段24-2號","121.538545","24.95832","6500600","新店區"
"231024","4716-K9","2018/03/06 13:49:48","新北市新店區北新路一段271巷31-1號","121.539856666667","24.967045","6500600","新店區"
"231038","4715-K9","2018/03/06 13:49:39","新北市新店區安康路一段285號","121.523275","24.9636316666667","6500600","新店區"
"231036","512-UM","2018/03/06 13:49:39","新北市新店區安祥路110巷27號","121.47359","24.9564183333333","6500600","新店區"
"231023","513-UM","2018/03/06 13:49:39","新北市新店區文中路18號","121.537973333333","24.956815","6500600","新店區"
"231035","515-UM","2018/03/06 13:49:45","新北市新店區安忠路25號","121.514491666667","24.96159","6500600","新店區"
"231006","617-UM","2018/03/06 13:49:35","新北市新店區北宜路一段262號","121.545843333333","24.9527766666667","6500600","新店區"
"231001","619-UM","2018/03/06 13:49:36","新北市新店區三民路45號","121.537148333333","24.970955","6500600","新店區"
"231003","641-BX","2018/03/06 13:49:40","新北市新店區中興路一段41號","121.539261666667","24.95977","6500600","新店區"
"231034","645-TV","2018/03/06 13:49:43","新北市新店區達觀路14巷3號","121.503253333333","24.94167","6500600","新店區"
"231013","719-UM","2018/03/06 13:49:39","新北市新店區二十張路25巷18弄35號","121.539256666667","24.9811066666667","6500600","新店區"
"231012","719-UY","2018/03/06 13:49:47","新北市新店區德正街37號","121.544845","24.9711833333333","6500600","新店區"
"231032","720-UM","2018/03/06 13:49:41","新北市新店區莒光路44巷21弄11-6號","121.518466666667","24.95224","6500600","新店區"
"231005","897-TW","2018/03/06 13:49:44","新北市新店區寶中路121-1號","121.549671666667","24.9794733333333","6500600","新店區"
"231004","899-TW","2018/03/06 13:49:36","新北市新店區寶橋路69-1號","121.545396666667","24.97501","6500600","新店區"
"231037","AKT-0513","2018/03/06 13:49:49","新北市新店區安康路三段355巷15號","121.48487","24.9504516666667","6500600","新店區"
"235030","003-UY","2018/03/06 13:49:34","新北市中和區中山路二段131巷33號","121.503836666667","25.0028233333333","6500300","中和區"
"235028","005-UY","2018/03/06 13:49:46","新北市中和區景平路634-3號","121.49933","24.99912","6500300","中和區"
"235001","006-UY","2018/03/06 13:49:43","新北市中和區錦和路202號","121.490355","24.99484","6500300","中和區"
"235020","096-UM","2018/03/06 13:49:44","新北市中和區立德街329號","121.481553333333","25.0104566666667","6500300","中和區"
"235003","097-UM","2018/03/06 13:49:45","新北市中和區景平路64巷13弄22號","121.521426666667","24.9914683333333","6500300","中和區"
"235029","098-UM","2018/03/06 13:49:44","新北市中和區勝利路35巷11弄1號","121.499625","25.006815","6500300","中和區"
"235022","151-BY","2018/03/06 13:49:43","新北市中和區連城路567號","121.479443333333","24.9946016666667","6500300","中和區"
"235019","183-VK","2018/03/06 13:49:32","新北市中和區德光路75號","121.469398333333","25.00371","6500300","中和區"
"235002","185-VK","2018/03/06 13:49:45","新北市中和區立人街24-5號","121.518886666667","24.994195","6500300","中和區"
"235013","186-VK","2018/03/06 13:49:35","新北市中和區景新街210巷2弄4號","121.506996666667","24.9941733333333","6500300","中和區"
"235031","255-BX","2018/03/06 13:49:32","新北市中和區連城路340巷14弄1號","121.483378333333","24.9971666666667","6500300","中和區"
"235008","293-VK","2018/03/06 13:49:33","新北市中和區中興街143號","121.499971666667","24.991255","6500300","中和區"
"235036","301-VK","2018/03/06 13:49:51","新北市中和區中山路二段1號","121.50533","25.0058166666667","6500300","中和區"
"235007","352-BY","2018/03/06 13:49:52","新北市中和區成功路9號","121.526275","24.993935","6500300","中和區"
"235032","377-QA","2018/03/06 13:49:39","新北市中和區圓通路291巷2號","121.495155","24.992585","6500300","中和區"
"235025","378-QA","2018/03/06 13:49:49","新北市中和區民享街44巷7號","121.47349","25.0026033333333","6500300","中和區"
"235035","269-TV","2018/03/06 13:49:34","新北市中和區立德街7巷10號","121.489951666667","25.0060166666667","6500300","中和區"
"235014","4979-A6","2018/03/06 13:49:41","新北市中和區忠孝街62巷40號","121.512945","24.9835933333333","6500300","中和區"
"235033","4980-A6","2018/03/06 13:49:31","新北市中和區中和路139號","121.50201","24.999765","6500300","中和區"
"235006","551-UM","2018/03/06 13:49:37","新北市中和區秀朗路三段70巷31號","121.525555","24.9943333333333","6500300","中和區"
"235009","565-BX","2018/03/06 13:49:35","新北市中和區景安路218號","121.503795","24.99054","6500300","中和區"
"235018","640-BX","2018/03/06 13:49:45","新北市中和區民享街73號","121.474218333333","25.0020133333333","6500300","中和區"
"235024","647-TV","2018/03/06 13:49:39","新北市中和區中山路三段116號","121.476005","25.0059683333333","6500300","中和區"
"235011","732-UM","2018/03/06 13:49:47","新北市中和區興南路二段34巷28弄1號","121.504996666667","24.986455","6500300","中和區"
"235010","733-UM","2018/03/06 13:49:34","新北市中和區仁愛街36巷43號","121.511185","24.98681","6500300","中和區"
"235026","800-TS","2018/03/06 13:49:51","新北市中和區中山路二段340巷64號","121.493025","25.004945","6500300","中和區"
"235021","801-TS","2018/03/06 13:49:45","新北市中和區民安街42巷38弄6號","121.479035","25.0017016666667","6500300","中和區"
"235016","805-TS","2018/03/06 13:49:48","新北市中和區興南路二段399巷66號","121.49977","24.978735","6500300","中和區"
"235012","896-TW","2018/03/06 13:49:34","新北市中和區南山路250巷2號","121.507681666667","24.9888866666667","6500300","中和區"
"235017","900-TW","2018/03/06 13:49:34","新北市中和區華福街42巷3號","121.466413333333","24.9962366666667","6500300","中和區"
"235034","911-UM","2018/03/06 13:49:34","新北市中和區南山路17號","121.501973333333","24.9991983333333","6500300","中和區"
"235015","157-BY","2018/03/06 13:49:49","新北市中和區忠孝街106巷45號","121.51379","24.9843666666667","6500300","中和區"
"235001","AAC-213","2018/03/06 13:49:38","新北市中和區秀朗路三段128巷2號","121.524688333333","24.9924083333333","6500300","中和區"
"235023","AAC-215","2018/03/06 13:49:33","新北市中和區圓通路391-7號","121.489665","24.9890066666667","6500300","中和區"
"220016","013-TV","2018/03/06 13:49:33","新北市板橋區富山街80巷3-1號","121.476788333333","25.022355","6500100","板橋區"
"220013","072-UY","2018/03/06 13:49:52","新北市板橋區漢生東路282號","121.471266666667","25.0089983333333","6500100","板橋區"
"220034","073-UY","2018/03/06 13:49:45","新北市板橋區大智街25巷2號","121.455141666667","25.0149583333333","6500100","板橋區"
"220014","075-UY","2018/03/06 13:49:53","新北市板橋區三民路二段正隆巷45號","121.476755","25.0134483333333","6500100","板橋區"
"220017","AAD-861","2018/03/06 13:49:37","新北市板橋區館前西路49號","121.457808333333","25.0064983333333","6500100","板橋區"
"247003","337-TH","2018/03/06 13:49:47","新北市蘆洲區中原路30號","121.46005","25.0828383333333","6501400","蘆洲區"
"247005","336-TH","2018/03/06 13:49:46","新北市蘆洲區和平路77號","121.4693","25.0790283333333","6501400","蘆洲區"
"247007","056-VK","2018/03/06 13:49:34","新北市蘆洲區重陽二街22號","121.482168333333","25.0849666666667","6501400","蘆洲區"
"235041","251-BX","2018/03/06 13:49:46","新北市中和區永貞路274-5號","121.51334","25.0038733333333","6500300","中和區"
"228004","212-TW","2018/03/06 13:39:32","新北市貢寮區龍崗里嵩陽街17號","121.907346666667","25.0082516666667","6502600","貢寮區"
"228005","828-UM","2018/03/06 13:49:36","新北市貢寮區美豐里土地公嶺21-2號","121.889286666667","25.0622833333333","6502600","貢寮區"
"207001","662-BX","2018/03/06 13:49:29","新北市萬里區磺潭里磺溪12號","121.63061","25.2044116666667","6502800","萬里區"
"252007","AAC-283","2018/03/06 13:49:34","新北市三芝區埔坪里埔頭坑41號","121.504466666667","25.2644333333333","6502100","三芝區"
"236065","105-UM","2018/03/06 13:49:51","新北市土城區城林路6巷80號","121.438606666667","24.9796683333333","6501300","土城區"
"236041","107-UM","2018/03/06 13:49:40","新北市土城區中央路二段282號","121.440638333333","24.9739716666667","6501300","土城區"
"236075","166-UM","2018/03/06 13:49:41","新北市土城區中央路三段122號","121.435136666667","24.9661566666667","6501300","土城區"
"236029","253-BX","2018/03/06 13:49:33","新北市土城區城林路6巷80號","121.438773333333","24.9797166666667","6501300","土城區"
"236013","270-VK","2018/03/06 13:49:44","新北市土城區城林路6巷80號","121.43879","24.9796633333333","6501300","土城區"
"236034","271-VK","2018/03/06 13:49:43","新北市土城區城林路6巷80號","121.438743333333","24.97973","6501300","土城區"
"236017","401-BY","2018/03/06 13:49:39","新北市土城區中華路二段2號","121.438823333333","24.9797183333333","6501300","土城區"
"236006","498-BY","2018/03/06 13:49:32","新北市土城區員福街36號","121.441093333333","24.978825","6501300","土城區"
"236057","912-UM","2018/03/06 13:49:40","新北市土城區中華路二段2號","121.439035","24.9797433333333","6501300","土城區"
"236045","913-UM","2018/03/06 13:49:47","新北市土城區城林路6巷80號","121.438701666667","24.9796766666667","6501300","土城區"
"236061","915-UM","2018/03/06 13:49:49","新北市土城區城林路6巷80號","121.43872","24.9797383333333","6501300","土城區"
"236054","AAC-216","2018/03/06 13:49:33","新北市土城區城林路6巷80號","121.438715","24.97966","6501300","土城區"
"220027","145-BY","2018/03/06 13:49:43","新北市板橋區民權路202巷4弄2號","121.45979","25.0143533333333","6500100","板橋區"
"220028","200-UY","2018/03/06 13:49:31","新北市板橋區大觀路二段365巷12號","121.441126666667","24.997995","6500100","板橋區"
"220105","KEA-2550","2018/03/06 13:49:37","新北市板橋區民生路二段161巷1號","121.470085","25.0200866666667","6500100","板橋區"
"220030","610-BX","2018/03/06 13:49:37","新北市板橋區篤行路三段95號","121.426368333333","24.9848516666667","6500100","板橋區"
"220047","257-TC","2018/03/06 13:49:34","新北市板橋區民生路二段161巷3號","121.470258333333","25.019795","6500100","板橋區"
"220004","276-BY","2018/03/06 13:49:38","新北市板橋區四川路二段23-3號","121.454681666667","24.995605","6500100","板橋區"
"220020","277-BY","2018/03/06 13:49:45","新北市板橋區大觀路三段36巷54弄1號","121.434498333333","24.997255","6500100","板橋區"
"220050","280-UM","2018/03/06 13:49:40","新北市板橋區民生路二段161巷1號","121.470191666667","25.0198466666667","6500100","板橋區"
"220005","282-UM","2018/03/06 13:49:34","新北市板橋區南雅南路二段116號","121.452493333333","25.0006966666667","6500100","板橋區"
"220019","283-VK","2018/03/06 13:49:31","新北市板橋區忠孝路176巷23號","121.465226666667","25.001725","6500100","板橋區"
"220031","286-VK","2018/03/06 13:49:49","新北市板橋區大觀路一段38巷156弄137號","121.443626666667","25.008665","6500100","板橋區"
"220029","287-VK","2018/03/06 13:49:46","新北市板橋區光華街13巷10號","121.453753333333","25.0114866666667","6500100","板橋區"
"220009","293-UM","2018/03/06 13:49:40","新北市板橋區太和街4巷5號","121.474096666667","25.0198966666667","6500100","板橋區"
"220032","296-UM","2018/03/06 13:49:45","新北市板橋區大觀路二段156巷2-1號","121.441453333333","24.9991433333333","6500100","板橋區"
"220001","299-UM","2018/03/06 13:49:46","新北市板橋區永豐街55巷33號","121.47257","25.0182633333333","6500100","板橋區"
"220023","303-R5","2018/03/06 13:49:29","新北市板橋區南雅西路一段174巷3號","121.452961666667","25.00782","6500100","板橋區"
"220010","305-R5","2018/03/06 13:49:44","新北市板橋區中山路二段25號","121.472523333333","25.0152","6500100","板橋區"
"220041","307-R5","2018/03/06 13:49:37","新北市板橋區民生路二段120號","121.470783333333","25.0197116666667","6500100","板橋區"
"220012","486-VK","2018/03/06 13:49:44","新北市板橋區民生路二段36-1號","121.472138333333","25.01671","6500100","板橋區"
"220038","487-VK","2018/03/06 13:49:42","新北市板橋區民生路二段161巷1號","121.470086666667","25.0201933333333","6500100","板橋區"
"220037","491-VK","2018/03/06 13:49:47","新北市板橋區民生路二段175號","121.469835","25.0202","6500100","板橋區"
"220104","560-BX","2018/03/06 13:49:47","新北市板橋區中正路275巷30號","121.454793333333","25.0186566666667","6500100","板橋區"
"220003","568-UM","2018/03/06 13:49:46","新北市板橋區南雅南路一段1巷35號","121.457628333333","25.00644","6500100","板橋區"
"220011","609-BX","2018/03/06 13:49:32","新北市板橋區民生路二段56-6號","121.470983333333","25.018645","6500100","板橋區"
"220025","687-BX","2018/03/06 13:49:37","新北市板橋區大觀路二段443-2號","121.438945","24.9950383333333","6500100","板橋區"
"220002","741-BX","2018/03/06 13:49:34","新北市板橋區館前西路53號","121.457731666667","25.00652","6500100","板橋區"
"220051","KEA-2699","2018/03/06 13:49:46","新北市板橋區民生路二段120號","121.470585","25.0196783333333","6500100","板橋區"
"220039","830-TW","2018/03/06 13:49:48","新北市板橋區陽明街249號","121.462673333333","25.02494","6500100","板橋區"
"220045","831-TW","2018/03/06 13:49:51","新北市板橋區民生路二段161巷9號","121.470258333333","25.01955","6500100","板橋區"
"220022","895-R6","2018/03/06 13:49:39","新北市板橋區府中路30號","121.45864","25.0094783333333","6500100","板橋區"
"220021","985-R7","2018/03/06 13:49:51","新北市板橋區府中路32號","121.458251666667","25.0096116666667","6500100","板橋區"
"220018","AAC-253","2018/03/06 13:49:49","新北市板橋區四川路一段95號","121.459695","25.0054133333333","6500100","板橋區"
