"lineid","car","time","location","longitude","latitude","cityid","cityname"
"234005","207-UY","2018/03/06 14:19:52","新北市永和區中正路666巷2號","121.516866666667","25.00898","6500400","永和區"
"234078","298-R6","2018/03/06 14:19:38","新北市永和區國中路148號","121.523048333333","25.00703","6500400","永和區"
"234036","336-UY","2018/03/06 14:19:32","新北市永和區成功路一段47巷50號","121.528311666667","25.003785","6500400","永和區"
"234062","337-UY","2018/03/06 14:19:37","新北市永和區得和路131號","121.519048333333","25.00027","6500400","永和區"
"234084","338-UY","2018/03/06 14:19:48","新北市永和區永和路二段174號","121.515426666667","25.0133683333333","6500400","永和區"
"234068","552-UM","2018/03/06 14:19:47","新北市永和區福和路263巷7弄1號","121.517883333333","25.0069766666667","6500400","永和區"
"234015","745-BX","2018/03/06 14:19:35","新北市永和區仁愛路255號","121.508411666667","25.0115916666667","6500400","永和區"
"234028","746-BX","2018/03/06 14:19:39","新北市永和區民權路49巷3號","121.520321666667","24.997245","6500400","永和區"
"234052","KEA-2590","2018/03/06 14:19:47","新北市永和區光復街2巷24號","121.517596666667","25.0165433333333","6500400","永和區"
"234060","AAD-866","2018/03/06 14:19:50","新北市永和區安樂路218號","121.515088333333","25.0021316666667","6500400","永和區"
"234040","862-TW","2018/03/06 14:19:42","新北市中和區中安街202-1號","121.511796666667","24.9991366666667","6500400","永和區"
"234048","863-TW","2018/03/06 14:19:36","新北市永和區文化路234號","121.509688333333","25.0170666666667","6500400","永和區"
"234025","9371-KE","2018/03/06 14:19:41","新北市永和區安樂路144巷29號","121.515128333333","24.99981","6500400","永和區"
"248017","225-UY","2018/03/06 14:17:57","新北市五股區壟路19號","121.413106666667","25.0851016666667","6501500","五股區"
"234022","9380-KE","2018/03/06 14:19:48","新北市永和區竹林路23號","121.517313333333","25.0147566666667","6500400","永和區"
"234076","969-R7","2018/03/06 14:19:47","新北市永和區民族街81巷58號","121.5201","24.9965866666667","6500400","永和區"
"234072","AAC-211","2018/03/06 14:19:49","新北市永和區竹林路119巷22弄3-3號","121.521978333333","25.0115933333333","6500400","永和區"
"234066","AAC-212","2018/03/06 14:19:40","新北市永和區保平路268巷51弄2號","121.507093333333","25.006385","6500400","永和區"
"234001","AAC-295","2018/03/06 14:19:49","新北市永和區自強街32巷10號","121.516108333333","25.0077666666667","6500400","永和區"
"244002","248-BX","2018/03/06 14:19:49","新北市林口區竹林路267號","121.38962","25.0808016666667","6501700","林口區"
"231002","002-UM","2018/03/06 14:19:37","新北市新店區中央路137號","121.530181666667","24.973665","6500600","新店區"
"231025","0293-UT","2018/03/06 14:19:36","新北市新店區自立街86號","121.53718","24.979945","6500600","新店區"
"231028","046-UY","2018/03/06 14:19:41","新北市新店區安康路二段22號","121.515905","24.9637966666667","6500600","新店區"
"231030","047-UY","2018/03/06 14:19:39","新北市新店區安民街44號","121.516041666667","24.9653466666667","6500600","新店區"
"231029","106-UY","2018/03/06 14:19:42","新北市新店區安康路二段179號","121.509613333333","24.95921","6500600","新店區"
"231018","107-UY","2018/03/06 14:19:45","新北市新店區中央四街25號","121.528895","24.9743","6500600","新店區"
"231020","187-VK","2018/03/06 14:19:47","新北市新店區桂山路37號","121.562996666667","24.904645","6500600","新店區"
"231015","KEA-2219","2018/03/06 14:19:51","新北市新店區北宜路二段392巷4號","121.565483333333","24.9533833333333","6500600","新店區"
"231027","3712-VJ","2018/03/06 14:19:44","新北市新店區北新路二段2號","121.5426","24.970665","6500600","新店區"
"231024","4716-K9","2018/03/06 14:19:48","新北市新店區新生街13巷42號","121.53891","24.966575","6500600","新店區"
"231038","4715-K9","2018/03/06 14:19:39","新北市新店區溪洲路6巷10號","121.533995","24.961635","6500600","新店區"
"231036","512-UM","2018/03/06 14:19:39","新北市新店區安祥路109巷151弄12-1號","121.478","24.9589683333333","6500600","新店區"
"231023","513-UM","2018/03/06 14:19:36","新北市新店區光明街61號","121.53881","24.9603333333333","6500600","新店區"
"231035","515-UM","2018/03/06 14:19:45","新北市新店區安民街91號","121.516508333333","24.9679883333333","6500600","新店區"
"231006","617-UM","2018/03/06 14:19:35","新北市新店區北宜路二段599號","121.568131666667","24.95557","6500600","新店區"
"231001","619-UM","2018/03/06 14:19:36","新北市新店區北新路一段96巷23號","121.542945","24.9688933333333","6500600","新店區"
"231003","641-BX","2018/03/06 14:19:40","新北市新店區中興路一段216號","121.543945","24.9657516666667","6500600","新店區"
"231034","645-TV","2018/03/06 14:19:43","新北市新店區黎明路3號","121.503281666667","24.9522683333333","6500600","新店區"
"231013","719-UM","2018/03/06 14:19:36","新北市新店區民權路89號","121.537631666667","24.9827866666667","6500600","新店區"
"231012","719-UY","2018/03/06 14:19:47","新北市新店區五峰路61巷5號","121.548761666667","24.9696416666667","6500600","新店區"
"231032","720-UM","2018/03/06 14:19:41","新北市新店區溪洲路65號","121.53346","24.9610066666667","6500600","新店區"
"231005","897-TW","2018/03/06 14:19:44","新北市新店區中興路三段207號","121.543748333333","24.98177","6500600","新店區"
"231004","899-TW","2018/03/06 14:19:35","新北市新店區博愛街1號","121.540395","24.9725416666667","6500600","新店區"
"231037","AKT-0513","2018/03/06 14:19:49","新北市新店區安康路二段320巷6號","121.50493","24.958805","6500600","新店區"
"235030","003-UY","2018/03/06 14:19:34","新北市中和區中和路153號","121.50265","24.9999583333333","6500300","中和區"
"235028","005-UY","2018/03/06 14:19:46","新北市中和區中和路139號","121.501958333333","24.9998166666667","6500300","中和區"
"235001","006-UY","2018/03/06 14:19:43","新北市中和區連勝街148號","121.494033333333","24.9972183333333","6500300","中和區"
"235020","096-UM","2018/03/06 14:19:44","新北市中和區中山路三段102號","121.47696","25.00597","6500300","中和區"
"235003","097-UM","2018/03/06 14:19:45","新北市中和區秀峰街103巷7弄4號","121.519515","24.988985","6500300","中和區"
"235029","098-UM","2018/03/06 14:19:39","新北市中和區莊敬路1-6號","121.499495","25.0043283333333","6500300","中和區"
"235022","151-BY","2018/03/06 14:19:23","新北市中和區中正路637巷60弄61號","121.485455","24.9925833333333","6500300","中和區"
"235019","183-VK","2018/03/06 14:19:52","新北市中和區中山路三段181巷24號","121.47307","25.0052216666667","6500300","中和區"
"235002","185-VK","2018/03/06 14:19:45","新北市中和區大仁街20巷40號","121.519616666667","24.993275","6500300","中和區"
"235013","186-VK","2018/03/06 14:19:34","新北市中和區景新街228-6號","121.50816","24.9941666666667","6500300","中和區"
"235031","255-BX","2018/03/06 14:19:32","新北市中和區新生街164號","121.483656666667","25.0002483333333","6500300","中和區"
"235008","293-VK","2018/03/06 14:19:33","新北市中和區中興街191號","121.5006","24.9899116666667","6500300","中和區"
"235036","301-VK","2018/03/06 14:19:31","新北市中和區保平路326巷28號","121.506238333333","25.00487","6500300","中和區"
"235007","352-BY","2018/03/06 14:19:52","新北市中和區景平路300號","121.512636666667","24.99279","6500300","中和區"
"235032","377-QA","2018/03/06 14:19:39","新北市中和區景平路632號","121.500261666667","24.997955","6500300","中和區"
"235025","378-QA","2018/03/06 14:19:49","新北市中和區民利街61巷11弄2號","121.478861666667","24.9983333333333","6500300","中和區"
"235035","269-TV","2018/03/06 14:19:34","新北市中和區連城路362號","121.481946666667","24.995485","6500300","中和區"
"235014","4979-A6","2018/03/06 14:19:41","新北市中和區景安路208巷2號","121.503873333333","24.9910216666667","6500300","中和區"
"235033","4980-A6","2018/03/06 14:19:44","新北市中和區景平路736巷1弄9號","121.497471666667","25.0041383333333","6500300","中和區"
"235006","551-UM","2018/03/06 14:19:37","新北市永和區民有街5號","121.516116666667","24.997085","6500300","中和區"
"235009","565-BX","2018/03/06 14:19:35","新北市中和區景新街423巷35弄23號","121.513891666667","24.99048","6500300","中和區"
"235018","640-BX","2018/03/06 14:19:45","新北市中和區國光街109巷2弄10號","121.469258333333","25.000755","6500300","中和區"
"235024","647-TV","2018/03/06 14:19:39","新北市中和區中山路三段100號","121.47714","25.0057683333333","6500300","中和區"
"235011","732-UM","2018/03/06 14:19:47","新北市中和區景平路241巷31號","121.508776666667","24.9923066666667","6500300","中和區"
"235010","733-UM","2018/03/06 14:19:34","新北市中和區忠孝街2巷16號","121.51077","24.9813833333333","6500300","中和區"
"235026","800-TS","2018/03/06 14:19:51","新北市中和區中山路二段488-1號","121.487431666667","25.0048883333333","6500300","中和區"
"235021","801-TS","2018/03/06 14:19:45","新北市中和區員山路202號","121.481268333333","25.000665","6500300","中和區"
"235016","805-TS","2018/03/06 14:19:48","新北市中和區興南路二段142巷17弄24號","121.503038333333","24.9829366666667","6500300","中和區"
"235012","896-TW","2018/03/06 14:19:34","新北市中和區華新街109巷1-3號","121.50909","24.9822666666667","6500300","中和區"
"235017","900-TW","2018/03/06 14:19:37","新北市中和區華安街16巷1號","121.466161666667","24.9983416666667","6500300","中和區"
"235034","911-UM","2018/03/06 14:19:34","新北市中和區連城路6號","121.499145","25.0023066666667","6500300","中和區"
"235015","157-BY","2018/03/06 14:19:49","新北市中和區景平路239巷15號","121.509396666667","24.9923033333333","6500300","中和區"
"235001","AAC-213","2018/03/06 14:19:38","新北市中和區秀朗路三段10巷37弄12號","121.523735","24.9958516666667","6500300","中和區"
"235023","AAC-215","2018/03/06 14:19:33","新北市中和區圓通路252巷5弄38號","121.492196666667","24.9916066666667","6500300","中和區"
"220016","013-TV","2018/03/06 14:19:33","新北市板橋區林森街1巷31號","121.482793333333","25.0243883333333","6500100","板橋區"
"220013","072-UY","2018/03/06 14:19:32","新北市板橋區國泰街75巷29-1號","121.46792","25.0054533333333","6500100","板橋區"
"220034","073-UY","2018/03/06 14:19:34","新北市板橋區中正路250巷17號","121.456383333333","25.01946","6500100","板橋區"
"220014","075-UY","2018/03/06 14:19:40","新北市板橋區漢生東路313巷2弄43號","121.473198333333","25.0083866666667","6500100","板橋區"
"220017","AAD-861","2018/03/06 14:19:37","新北市板橋區華興街33-2號","121.458375","25.00461","6500100","板橋區"
"247023","893-R6","2018/03/06 14:19:45","新北市蘆洲區三民路589號","121.461378333333","25.0932383333333","6501400","蘆洲區"
"247013","546-UM","2018/03/06 14:19:39","新北市蘆洲區中山一路231號","121.473656666667","25.08068","6501400","蘆洲區"
"247021","500-BY","2018/03/06 14:19:38","新北市蘆洲區仁愛街212巷11號","121.464568333333","25.0936033333333","6501400","蘆洲區"
"247011","339-TH","2018/03/06 14:19:41","新北市蘆洲區民權路3巷26號","121.475318333333","25.085385","6501400","蘆洲區"
"247003","337-TH","2018/03/06 14:19:47","新北市蘆洲區中原路13-5號","121.46083","25.0831316666667","6501400","蘆洲區"
"247005","336-TH","2018/03/06 14:19:46","新北市蘆洲區永安南路二段106號","121.463181666667","25.07821","6501400","蘆洲區"
"247017","335-TH","2018/03/06 14:19:37","新北市蘆洲區民權路70號","121.474971666667","25.0873083333333","6501400","蘆洲區"
"247007","056-VK","2018/03/06 14:19:34","新北市蘆洲區信義路74號","121.476508333333","25.0794766666667","6501400","蘆洲區"
"247009","053-VK","2018/03/06 14:19:35","新北市蘆洲區三民路24號","121.475981666667","25.082655","6501400","蘆洲區"
"247015","007-UY","2018/03/06 14:19:45","新北市蘆洲區中正路185巷25弄15號","121.467045","25.08405","6501400","蘆洲區"
"247001","002-UY","2018/03/06 14:19:41","新北市蘆洲區永樂街83號","121.455976666667","25.0887483333333","6501400","蘆洲區"
"247019","001-UY","2018/03/06 14:19:34","新北市蘆洲區仁愛街35巷14弄1號","121.471413333333","25.0927333333333","6501400","蘆洲區"
"235041","251-BX","2018/03/06 14:19:46","新北市中和區安平路138號","121.512151666667","24.99801","6500300","中和區"
"228004","212-TW","2018/03/06 14:19:32","新北市貢寮區雙玉里田寮洋街26號","121.926401666667","25.0136983333333","6502600","貢寮區"
"228005","828-UM","2018/03/06 14:19:36","新北市貢寮區美豐里雞母嶺街57號","121.896956666667","25.063995","6502600","貢寮區"
"207001","662-BX","2018/03/06 14:19:29","新北市萬里區磺潭里清水18號","121.6378","25.1977183333333","6502800","萬里區"
"252005","AAC-283","2018/03/06 14:19:34","新北市三芝區埔坪里埔頭坑41號","121.504466666667","25.2644333333333","6502100","三芝區"
"236065","105-UM","2018/03/06 14:19:31","新北市土城區明德路一段128巷2號","121.463255","24.9791066666667","6501300","土城區"
"236041","107-UM","2018/03/06 14:19:42","新北市土城區樂利街3巷16號","121.44856","24.98638","6501300","土城區"
"236075","166-UM","2018/03/06 14:19:41","新北市土城區中央路三段282號","121.426673333333","24.96358","6501300","土城區"
"236029","253-BX","2018/03/06 14:19:37","新北市土城區順風路66號","121.440391666667","24.977575","6501300","土城區"
"236024","269-VK","2018/03/06 14:19:37","新北市土城區承天路18號","121.439396666667","24.9635583333333","6501300","土城區"
"236013","270-VK","2018/03/06 14:19:44","新北市土城區青雲路39巷7號","121.460361666667","24.9875733333333","6501300","土城區"
"236034","271-VK","2018/03/06 14:19:49","新北市土城區青雲路451巷8弄19號","121.459471666667","24.9739833333333","6501300","土城區"
"236017","401-BY","2018/03/06 14:19:38","新北市土城區明德路一段202號","121.461486666667","24.977705","6501300","土城區"
"236006","498-BY","2018/03/06 14:19:52","新北市土城區中華路一段70巷2號","121.444855","24.9885016666667","6501300","土城區"
"236057","912-UM","2018/03/06 14:19:40","新北市土城區中央路四段273-1號","121.412838333333","24.9543366666667","6501300","土城區"
"236045","913-UM","2018/03/06 14:19:47","新北市土城區明德路一段369號","121.455611666667","24.9779533333333","6501300","土城區"
"236061","915-UM","2018/03/06 14:19:49","新北市土城區延壽路44巷15號","121.471486666667","24.99303","6501300","土城區"
"236054","AAC-216","2018/03/06 14:19:33","新北市土城區中華路二段92號","121.438268333333","24.9747216666667","6501300","土城區"
"220027","145-BY","2018/03/06 14:19:52","新北市板橋區民權路202巷24號","121.460715","25.0170183333333","6500100","板橋區"
"220028","200-UY","2018/03/06 14:19:43","新北市板橋區大觀路二段3巷63號","121.449448333333","25.0034083333333","6500100","板橋區"
"220105","KEA-2550","2018/03/06 14:19:37","新北市板橋區長江路二段275號","121.469961666667","25.0330233333333","6500100","板橋區"
"220030","610-BX","2018/03/06 14:19:47","新北市板橋區金門街316號","121.428673333333","24.9850766666667","6500100","板橋區"
"220047","257-TC","2018/03/06 14:19:36","新北市板橋區民有街106號","121.464575","25.0282516666667","6500100","板橋區"
"220004","276-BY","2018/03/06 14:19:48","新北市板橋區干城路158號","121.460398333333","24.992385","6500100","板橋區"
"220020","277-BY","2018/03/06 14:19:37","新北市板橋區金門街335號","121.429276666667","24.98569","6500100","板橋區"
"220050","280-UM","2018/03/06 14:19:40","新北市板橋區莊敬路25巷4弄14號","121.47386","25.0271133333333","6500100","板橋區"
"220005","282-UM","2018/03/06 14:19:33","新北市板橋區和平路153號","121.463313333333","24.9956416666667","6500100","板橋區"
"220019","283-VK","2018/03/06 14:19:31","新北市板橋區大豐街93號","121.462046666667","25.000475","6500100","板橋區"
"220043","285-UM","2018/03/06 14:19:36","新北市板橋區吳鳳路19巷18號","121.466836666667","25.03077","6500100","板橋區"
"220031","286-VK","2018/03/06 14:19:29","新北市板橋區龍興街73巷51號","121.441863333333","25.0029","6500100","板橋區"
"220029","287-VK","2018/03/06 14:19:47","新北市板橋區南雅西路一段7巷1號","121.454295","25.004335","6500100","板橋區"
"220009","293-UM","2018/03/06 14:19:40","新北市板橋區中山路二段255巷7號","121.476993333333","25.017895","6500100","板橋區"
"220032","296-UM","2018/03/06 14:19:34","新北市板橋區滿平街136巷10弄6號","121.427486666667","24.9872283333333","6500100","板橋區"
"220001","299-UM","2018/03/06 14:19:46","新北市板橋區縣民大道三段270巷15號","121.478536666667","25.0229316666667","6500100","板橋區"
"220023","303-R5","2018/03/06 14:19:49","新北市板橋區南雅南路一段3巷25-2號","121.456823333333","25.0060366666667","6500100","板橋區"
"220010","305-R5","2018/03/06 14:19:44","新北市板橋區三民路二段居仁巷1弄55-1號","121.481193333333","25.0136766666667","6500100","板橋區"
"220041","307-R5","2018/03/06 14:19:37","新北市板橋區松江街59號","121.468568333333","25.0278316666667","6500100","板橋區"
"220012","486-VK","2018/03/06 14:19:44","新北市板橋區民權路45號","121.462065","25.011325","6500100","板橋區"
"220038","487-VK","2018/03/06 14:19:50","新北市板橋區文化路一段339號","121.46653","25.02062","6500100","板橋區"
"220037","491-VK","2018/03/06 14:19:46","新北市板橋區雙十路二段59號","121.476475","25.0265583333333","6500100","板橋區"
"220104","560-BX","2018/03/06 14:19:34","新北市板橋區中正路328-1號","121.454561666667","25.02132","6500100","板橋區"
"220052","561-BX","2018/03/06 14:19:39","新北市板橋區文化路一段188巷7弄13號","121.467581666667","25.0198866666667","6500100","板橋區"
"220003","568-UM","2018/03/06 14:19:46","新北市板橋區館前東路156巷21號","121.464235","25.0069033333333","6500100","板橋區"
"220011","609-BX","2018/03/06 14:19:52","新北市板橋區三民路二段204號","121.478885","25.01215","6500100","板橋區"
"220040","637-BX","2018/03/06 14:19:50","新北市板橋區文聖街151號","121.478615","25.027885","6500100","板橋區"
"220025","687-BX","2018/03/06 14:19:37","新北市板橋區大觀路一段59號","121.447635","25.0064533333333","6500100","板橋區"
"220042","689-BX","2018/03/06 14:19:37","新北市板橋區漢生西路17號","121.463615","25.0181016666667","6500100","板橋區"
"220002","741-BX","2018/03/06 14:19:39","新北市板橋區重慶路155巷23號","121.463113333333","25.0042016666667","6500100","板橋區"
"220051","KEA-2699","2018/03/06 14:19:46","新北市板橋區文聖街156-1號","121.478811666667","25.02738","6500100","板橋區"
"220039","830-TW","2018/03/06 14:19:46","新北市板橋區長江路一段106巷13弄28號","121.461146666667","25.029635","6500100","板橋區"
"220045","831-TW","2018/03/06 14:19:51","新北市板橋區大同街50巷55號","121.478761666667","25.02641","6500100","板橋區"
"220022","895-R6","2018/03/06 14:19:39","新北市板橋區北門街42-2號","121.456971666667","25.01104","6500100","板橋區"
"220021","985-R7","2018/03/06 14:19:51","新北市板橋區中正路301號","121.45525","25.0196266666667","6500100","板橋區"
"220046","AAC-210","2018/03/06 14:19:46","新北市板橋區幸福路60巷32號","121.460221666667","25.02163","6500100","板橋區"
"220018","AAC-253","2018/03/06 14:19:49","新北市板橋區忠孝路44號","121.460558333333","25.0019083333333","6500100","板橋區"
