"lineid","car","time","location","longitude","latitude","cityid","cityname"
"231030","047-UY","2018/03/06 15:49:39","新北市新店區永平街78號","121.516326666667","24.985405","6500600","新店區"
"231018","107-UY","2018/03/06 15:49:46","新北市新店區中正路663巷1弄2號","121.532983333333","24.9900716666667","6500600","新店區"
"231020","187-VK","2018/03/06 15:49:47","新北市新店區新烏路一段1號","121.547418333333","24.9518466666667","6500600","新店區"
"231015","KEA-2219","2018/03/06 15:49:30","新北市新店區中華路83巷2弄2號","121.539001666667","24.9685916666667","6500600","新店區"
"231046","278-BY","2018/03/06 15:49:40","新北市新店區安華路28-1號","121.519665","24.961105","6500600","新店區"
"231035","515-UM","2018/03/06 15:49:45","新北市新店區安興路83-3號","121.51529","24.9755183333333","6500600","新店區"
"231003","641-BX","2018/03/06 15:49:40","新北市新店區寶興路60巷4號","121.549793333333","24.9719266666667","6500600","新店區"
"231034","645-TV","2018/03/06 15:49:42","新北市新店區吉祥街15巷1號","121.497723333333","24.9456066666667","6500600","新店區"
"231013","719-UM","2018/03/06 15:49:39","新北市新店區華潭街52號","121.528451666667","24.954635","6500600","新店區"
"231012","719-UY","2018/03/06 15:49:47","新北市新店區寶強路15號","121.542968333333","24.9793166666667","6500600","新店區"
"231032","720-UM","2018/03/06 15:49:41","新北市新店區雙城路98號","121.492186666667","24.9483483333333","6500600","新店區"
"231037","AKT-0513","2018/03/06 15:49:49","新北市新店區安民街65巷15-2號","121.515466666667","24.9667083333333","6500600","新店區"
"241011","013-R5","2018/03/06 15:49:48","新北市三重區文化北路224-2號","121.497673333333","25.069165","6500200","三重區"
"241028","022-UY","2018/03/06 15:49:42","新北市三重區中正南路47號","121.493958333333","25.059635","6500200","三重區"
"241015","062-VK","2018/03/06 15:49:50","新北市三重區重新路四段121號","121.485143333333","25.0520083333333","6500200","三重區"
"241017","063-VK","2018/03/06 15:49:45","新北市三重區大仁街1號","121.491673333333","25.0635633333333","6500200","三重區"
"241024","065-VK","2018/03/06 15:49:52","新北市三重區新北大道一段250號","121.479865","25.061375","6500200","三重區"
"241026","066-VK","2018/03/06 15:49:50","新北市三重區重新路三段90號","121.493026666667","25.0608833333333","6500200","三重區"
"241005","262-UM","2018/03/06 15:49:33","新北市三重區集賢路10號","121.494961666667","25.0877166666667","6500200","三重區"
"241022","267-UM","2018/03/06 15:49:35","新北市三重區成功路108巷8號","121.485503333333","25.0504016666667","6500200","三重區"
"241013","270-UM","2018/03/06 15:49:37","新北市三重區三和路三段13號","121.496341666667","25.070705","6500200","三重區"
"241020","413-TH","2018/03/06 15:49:46","新北市三重區忠孝路二段52號","121.485081666667","25.0704166666667","6500200","三重區"
"241014","543-UM","2018/03/06 15:49:38","新北市三重區重新路四段121號","121.48507","25.052095","6500200","三重區"
"241006","AAD-863","2018/03/06 15:44:53","新北市三重區重新路四段121號","121.48475","25.0521866666667","6500200","三重區"
"241012","941-UM","2018/03/06 15:49:52","新北市三重區文化北路85巷2號","121.498333333333","25.067195","6500200","三重區"
"241029","942-UM","2018/03/06 15:49:40","新北市三重區大同南路242號","121.496908333333","25.0559066666667","6500200","三重區"
"241033","AAC-255","2018/03/06 15:49:41","新北市三重區五谷王北街58巷46號","121.47414","25.0516866666667","6500200","三重區"
"235003","097-UM","2018/03/06 15:49:45","新北市新店區安和路二段222號","121.517811666667","24.9766133333333","6500300","中和區"
"235033","4980-A6","2018/03/06 15:49:51","新北市中和區中正路637巷17號","121.484946666667","24.9946366666667","6500300","中和區"
"235046","733-UM","2018/03/06 15:33:31","新北市中和區員山路36巷13號","121.484193333333","24.9908266666667","6500300","中和區"
"235026","800-TS","2018/03/06 15:49:51","新北市中和區永和路191巷9號","121.491305","25.0068633333333","6500300","中和區"
"235023","AAC-215","2018/03/06 15:49:33","新北市中和區員山路36巷13號","121.484315","24.9914183333333","6500300","中和區"
"224007","275-VK","2018/03/06 15:49:47","新北市瑞芳區大寮路356-1號","121.784695","25.1032133333333","6501200","瑞芳區"
"227009","642-TC","2018/03/06 15:49:34","新北市雙溪區牡丹里中正路58巷22號","121.866238333333","25.0417016666667","6502500","雙溪區"
"227003","400-TW","2018/03/06 15:49:49","新北市雙溪區平林里外平林44號","121.85291","25.0363533333333","6502500","雙溪區"
"236065","105-UM","2018/03/06 15:49:50","新北市土城區中山路34號","121.425023333333","24.9640216666667","6501300","土城區"
"236075","166-UM","2018/03/06 15:49:41","新北市土城區福安街30號","121.419491666667","24.9648883333333","6501300","土城區"
"236017","401-BY","2018/03/06 15:49:49","新北市土城區延吉街23巷61-1號","121.472931666667","24.9878233333333","6501300","土城區"
"236057","912-UM","2018/03/06 15:49:40","新北市土城區中央路一段306號","121.443293333333","24.9817783333333","6501300","土城區"
"236045","913-UM","2018/03/06 15:49:47","新北市土城區裕民路285號","121.456038333333","24.9816883333333","6501300","土城區"
"236054","AAC-216","2018/03/06 15:49:32","新北市土城區中華路一段166號","121.44142","24.98322","6501300","土城區"
