"lineid","car","time","location","longitude","latitude","cityid","cityname"
"231030","047-UY","2018/03/06 16:07:39","新北市新店區薏仁坑路自強巷1號","121.49721","24.9577666666667","6500600","新店區"
"231018","107-UY","2018/03/06 16:07:26","新北市新店區中正路618巷7弄14號","121.534628333333","24.9894733333333","6500600","新店區"
"231020","187-VK","2018/03/06 16:07:07","新北市新店區安華路28-1號","121.519638333333","24.96122","6500600","新店區"
"231046","278-BY","2018/03/06 16:07:40","新北市新店區永業路81巷1弄1-1號","121.529388333333","24.94908","6500600","新店區"
"231034","645-TV","2018/03/06 16:07:42","新北市新店區安康路二段382號","121.50036","24.9569533333333","6500600","新店區"
"241011","013-R5","2018/03/06 16:07:08","新北市三重區三和路三段106號","121.494055","25.072235","6500200","三重區"
"241028","022-UY","2018/03/06 16:07:02","新北市三重區正義南路107號","121.49825","25.0585633333333","6500200","三重區"
"241008","059-VK","2018/03/06 16:07:01","新北市三重區忠孝路二段118號","121.48318","25.0690466666667","6500200","三重區"
"241015","062-VK","2018/03/06 16:09:10","新北市三重區三和路一段3號","121.504283333333","25.06428","6500200","三重區"
"241017","063-VK","2018/03/06 16:08:55","新北市三重區民生街80號","121.490511666667","25.0646733333333","6500200","三重區"
"241024","065-VK","2018/03/06 16:09:12","新北市三重區中正北路145巷3弄11號","121.48373","25.0672216666667","6500200","三重區"
"241026","066-VK","2018/03/06 16:08:30","新北市三重區福裕街66號","121.49706","25.06135","6500200","三重區"
"241002","090-VK","2018/03/06 16:07:20","新北市三重區仁義街91號","121.499783333333","25.0795533333333","6500200","三重區"
"241003","091-VK","2018/03/06 16:08:16","新北市三重區自強路五段110號","121.49702","25.0835716666667","6500200","三重區"
"241005","262-UM","2018/03/06 16:07:13","新北市三重區溪尾街300-2號","121.48748","25.0836983333333","6500200","三重區"
"241016","265-UM","2018/03/06 16:07:06","新北市三重區大仁街12號","121.491525","25.0632733333333","6500200","三重區"
"241022","267-UM","2018/03/06 16:08:15","新北市三重區重陽路二段52巷87弄2號","121.483163333333","25.0662983333333","6500200","三重區"
"241018","268-UM","2018/03/06 16:08:48","新北市三重區大仁街30-1號","121.491608333333","25.0639483333333","6500200","三重區"
"241013","270-UM","2018/03/06 16:07:57","新北市三重區文化北路248號","121.497191666667","25.0699316666667","6500200","三重區"
"241025","271-UM","2018/03/06 16:07:29","新北市三重區忠孝路三段40巷16弄9號","121.4825","25.0666433333333","6500200","三重區"
"241020","413-TH","2018/03/06 16:06:06","新北市三重區力行路一段176號","121.482038333333","25.071465","6500200","三重區"
"241001","478-VK","2018/03/06 16:06:59","新北市三重區自強路三段72號","121.486835","25.0735033333333","6500200","三重區"
"241014","543-UM","2018/03/06 16:05:58","新北市三重區成功路20巷12-3號","121.490113333333","25.0486883333333","6500200","三重區"
"241023","545-UM","2018/03/06 16:07:29","新北市三重區力行路一段60-1號","121.484773333333","25.06911","6500200","三重區"
"241006","AAD-863","2018/03/06 16:08:33","新北市三重區車路頭街4巷21號","121.483303333333","25.0701283333333","6500200","三重區"
"241012","941-UM","2018/03/06 16:07:43","新北市三重區正義北路154號","121.49667","25.0663316666667","6500200","三重區"
"241029","942-UM","2018/03/06 16:09:00","新北市三重區同安街50號","121.495751666667","25.0567216666667","6500200","三重區"
"241033","AAC-255","2018/03/06 16:06:21","新北市新莊區環漢路一段158號","121.474543333333","25.044655","6500200","三重區"
"235026","800-TS","2018/03/06 16:08:51","新北市中和區建八路126號","121.488615","24.9985833333333","6500300","中和區"
"224007","275-VK","2018/03/06 16:08:07","新北市瑞芳區粗坑口路1巷33號","121.763275","25.09375","6501200","瑞芳區"
"227009","642-TC","2018/03/06 16:08:15","新北市雙溪區三港里雙澳路69號","121.880848333333","25.0536133333333","6502500","雙溪區"
"227003","400-TW","2018/03/06 16:07:29","新北市雙溪區上林里內平林47號","121.833306666667","25.0304416666667","6502500","雙溪區"
"251013","179-VK","2018/03/06 16:07:39","新北市淡水區崁頂27號","121.439701666667","25.193","6501000","淡水區"
"251008","181-VK","2018/03/06 16:09:16","新北市淡水區中山路18-1號","121.444456666667","25.169325","6501000","淡水區"
"236057","912-UM","2018/03/06 16:06:00","新北市土城區中央路三段62號","121.436696666667","24.9674016666667","6501300","土城區"
