"lineid","car","time","location","longitude","latitude","cityid","cityname"
"249005","172-UM","2018/03/06 16:48:45","新北市八里區大堀湖1-5號","121.42304","25.1544316666667","6502300","八里區"
"249002","305-UY","2018/03/06 16:45:48","新北市八里區大堀湖22-1號","121.427525","25.14841","6502300","八里區"
"249003","593-UM","2018/03/06 16:47:39","新北市八里區文昌路101號","121.408235","25.1587583333333","6502300","八里區"
"231046","278-BY","2018/03/06 16:34:40","新北市新店區灣潭路1-2號","121.541756666667","24.94639","6500600","新店區"
"241011","013-R5","2018/03/06 16:43:28","新北市三重區仁愛街53巷20號","121.496995","25.0720383333333","6500200","三重區"
"241028","022-UY","2018/03/06 16:45:42","新北市三重區正義南路53號","121.498171666667","25.0606183333333","6500200","三重區"
"241008","059-VK","2018/03/06 16:39:21","新北市三重區永安北路一段27巷27號","121.477343333333","25.07551","6500200","三重區"
"241009","060-VK","2018/03/06 16:44:48","新北市三重區仁美街99號","121.485853333333","25.080505","6500200","三重區"
"241015","062-VK","2018/03/06 16:43:50","新北市三重區文化北路39巷3號","121.499213333333","25.0651616666667","6500200","三重區"
"241017","063-VK","2018/03/06 16:35:25","新北市三重區重新路3段43-1號","121.493396666667","25.0613","6500200","三重區"
"241024","065-VK","2018/03/06 16:46:52","新北市三重區中正北路317巷37號","121.476208333333","25.0731033333333","6500200","三重區"
"241026","066-VK","2018/03/06 16:42:50","新北市三重區和平街14號","121.500718333333","25.06253","6500200","三重區"
"241002","090-VK","2018/03/06 16:39:00","新北市三重區五華街55巷67號","121.49606","25.0822366666667","6500200","三重區"
"241003","091-VK","2018/03/06 16:41:15","新北市三重區五華街71號","121.492538333333","25.08279","6500200","三重區"
"241030","156-TC","2018/03/06 16:46:05","新北市三重區環河南路221巷3號","121.492355","25.052095","6500200","三重區"
"241005","262-UM","2018/03/06 16:23:53","新北市三重區溪尾街300-2號","121.487386666667","25.0837683333333","6500200","三重區"
"241016","265-UM","2018/03/06 16:40:26","新北市三重區自強路一段160巷3弄3號","121.495128333333","25.0656316666667","6500200","三重區"
"241022","267-UM","2018/03/06 16:40:55","新北市三重區三民街66號","121.485728333333","25.06234","6500200","三重區"
"241018","268-UM","2018/03/06 16:38:28","新北市三重區六張街75號","121.493378333333","25.0704","6500200","三重區"
"241032","269-UM","2018/03/06 16:42:47","新北市三重區新北大道一段19號","121.486611666667","25.0613333333333","6500200","三重區"
"241013","270-UM","2018/03/06 16:46:17","新北市三重區仁壽街2號","121.496225","25.0732683333333","6500200","三重區"
"241025","271-UM","2018/03/06 16:43:09","新北市三重區中正北路331巷18號","121.473685","25.072375","6500200","三重區"
"241007","398-BY","2018/03/06 16:40:15","新北市三重區三和路四段155巷31號","121.4848","25.07864","6500200","三重區"
"241020","413-TH","2018/03/06 16:35:05","新北市三重區車路頭街62巷5號","121.484021666667","25.07263","6500200","三重區"
"241004","475-VK","2018/03/06 16:45:33","新北市三重區仁愛街418號","121.490513333333","25.0813566666667","6500200","三重區"
"241001","478-VK","2018/03/06 16:31:39","新北市三重區福隆路83號","121.491965","25.0780983333333","6500200","三重區"
"241014","543-UM","2018/03/06 16:48:58","新北市三重區龍濱路64號","121.502433333333","25.0692","6500200","三重區"
"241023","545-UM","2018/03/06 16:44:09","新北市三重區洛陽街55巷2號","121.481321666667","25.0630883333333","6500200","三重區"
"241019","KEA-2593","2018/03/06 16:44:16","新北市三重區力行路一段179巷17弄1號","121.484993333333","25.0698816666667","6500200","三重區"
"241006","AAD-863","2018/03/06 16:33:53","新北市三重區力行路二段136巷23弄35號","121.481201666667","25.0763516666667","6500200","三重區"
"241031","887-TS","2018/03/06 16:47:50","新北市三重區過圳街46-1號","121.487293333333","25.060685","6500200","三重區"
"241012","941-UM","2018/03/06 16:46:03","新北市三重區仁興街4巷39號","121.499051666667","25.073625","6500200","三重區"
"241029","942-UM","2018/03/06 16:43:00","新北市三重區新興路55號","121.491235","25.0540033333333","6500200","三重區"
"241033","AAC-255","2018/03/06 16:39:01","新北市三重區光復路二段52號","121.472006666667","25.0553933333333","6500200","三重區"
"235062","800-TS","2018/03/06 16:34:21","新北市中和區員山路36巷16-3號","121.484733333333","24.9914833333333","6500300","中和區"
"247006","336-TH","2018/03/06 16:46:03","新北市蘆洲區永安南路二段132-1號","121.46254","25.0785566666667","6501400","蘆洲區"
"247020","001-UY","2018/03/06 16:48:27","新北市蘆洲區民族路422巷3號","121.474091666667","25.0920666666667","6501400","蘆洲區"
"228002","585-TW","2018/03/06 16:46:10","新北市貢寮區貢寮里朝陽街108號","121.90823","25.0223016666667","6502600","貢寮區"
"228003","828-UM","2018/03/06 16:46:31","新北市貢寮區貢寮里朝陽街1-2號","121.912325","25.0212966666667","6502600","貢寮區"
"224008","285-BY","2018/03/06 16:46:59","新北市瑞芳區民權街3-1號","121.809236666667","25.10834","6501200","瑞芳區"
"224007","275-VK","2018/03/06 16:26:07","新北市瑞芳區大埔路108-3號","121.762383333333","25.10224","6501200","瑞芳區"
"224009","273-VK","2018/03/06 16:47:58","新北市瑞芳區中山路344號","121.795991666667","25.11022","6501200","瑞芳區"
"224005","271-BY","2018/03/06 16:30:43","新北市瑞芳區瑞芳街32-10號","121.822005","25.12035","6501200","瑞芳區"
"227009","642-TC","2018/03/06 16:44:34","新北市雙溪區牡丹里中正路97號","121.861911666667","25.0471966666667","6502500","雙溪區"
"227003","400-TW","2018/03/06 16:46:49","新北市雙溪區外柑里外柑腳71號","121.807125","25.0176066666667","6502500","雙溪區"
"251013","179-VK","2018/03/06 16:47:19","新北市淡水區泉洲厝5號","121.490661666667","25.1925383333333","6501000","淡水區"
"251008","181-VK","2018/03/06 16:46:38","新北市淡水區樹梅坑45號","121.474745","25.144545","6501000","淡水區"
"251015","182-VK","2018/03/06 16:47:09","新北市淡水區忠愛街4號","121.45957","25.1713383333333","6501000","淡水區"
"251012","441-VK","2018/03/06 16:47:31","新北市淡水區中正路二段31號","121.419508333333","25.1814983333333","6501000","淡水區"
"251016","442-VK","2018/03/06 16:48:54","新北市淡水區水頭42號","121.47851","25.18517","6501000","淡水區"
"251007","577-R6","2018/03/06 16:48:30","新北市淡水區中正路二段31號","121.419648333333","25.1816116666667","6501000","淡水區"
"251011","650-BX","2018/03/06 16:49:01","新北市淡水區中正路二段31號","121.419321666667","25.181765","6501000","淡水區"
"252002","178-VK","2018/03/06 16:43:42","新北市三芝區忠孝街145號","121.506343333333","25.2605483333333","6502100","三芝區"
"252001","292-VK","2018/03/06 16:41:57","新北市三芝區茂長里陳厝坑2-1號","121.508016666667","25.2663183333333","6502100","三芝區"
"242051","751-BX","2018/03/06 16:47:28","新北市新莊區三和路12-21號","121.441893333333","25.0389016666667","6500500","新莊區"
"242005","413-TV","2018/03/06 16:45:06","新北市新莊區新泰路357巷3弄57號","121.442075","25.0394316666667","6500500","新莊區"
"242061","362-BY","2018/03/06 16:48:27","新北市新莊區新泰路255巷83號","121.442396666667","25.0385533333333","6500500","新莊區"
"242015","281-VK","2018/03/06 16:46:46","新北市新莊區三和路12-18號","121.442108333333","25.0376083333333","6500500","新莊區"
