"lineid","car","time","location","longitude","latitude","cityid","cityname"
"249005","172-UM","2018/03/06 16:58:25","新北市八里區渡船頭3-16號","121.4343","25.1529133333333","6502300","八里區"
"249001","173-UM","2018/03/06 16:58:21","新北市八里區商港路48號","121.394928333333","25.14471","6502300","八里區"
"249002","305-UY","2018/03/06 16:53:08","新北市八里區牛寮埔33號","121.429961666667","25.1456016666667","6502300","八里區"
"249003","593-UM","2018/03/06 16:52:58","新北市八里區中山路二段173號","121.404878333333","25.15047","6502300","八里區"
"244007","080-UY","2018/03/06 16:55:54","新北市林口區林口路122號","121.388463333333","25.0815366666667","6501700","林口區"
"244023","483-VK","2018/03/06 16:58:21","新北市林口區東林里4鄰64號","121.404788333333","25.0905583333333","6501700","林口區"
"244009","656-BX","2018/03/06 16:53:03","新北市林口區粉寮路二段160巷28號","121.40527","25.0908666666667","6501700","林口區"
"231046","278-BY","2018/03/06 16:39:20","新北市新店區灣潭路60-1號","121.539815","24.9422366666667","6500600","新店區"
"241011","013-R5","2018/03/06 16:55:08","新北市三重區龍門路219號","121.500316666667","25.0734766666667","6500200","三重區"
"241028","022-UY","2018/03/06 16:57:42","新北市三重區中正南路44號","121.49388","25.060065","6500200","三重區"
"241008","059-VK","2018/03/06 16:42:21","新北市三重區永安北路一段21巷32號","121.477305","25.07529","6500200","三重區"
"241009","060-VK","2018/03/06 16:56:53","新北市三重區仁美街107號","121.485761666667","25.080785","6500200","三重區"
"241015","062-VK","2018/03/06 16:48:50","新北市三重區文化北路45號","121.498931666667","25.06544","6500200","三重區"
"241017","063-VK","2018/03/06 16:46:05","新北市三重區國隆路8巷48號","121.492535","25.0633716666667","6500200","三重區"
"241024","065-VK","2018/03/06 16:57:52","新北市三重區大勇街82巷26弄29號","121.478538333333","25.0720583333333","6500200","三重區"
"241026","066-VK","2018/03/06 16:48:10","新北市三重區文化南路8-4號","121.50035","25.0621316666667","6500200","三重區"
"241002","090-VK","2018/03/06 16:50:20","新北市三重區仁義街209號","121.496758333333","25.081735","6500200","三重區"
"241003","091-VK","2018/03/06 16:51:35","新北市三重區五華街71巷2號","121.492546666667","25.08303","6500200","三重區"
"241030","156-TC","2018/03/06 16:53:04","新北市三重區環河南路221巷7號","121.491856666667","25.05229","6500200","三重區"
"241005","262-UM","2018/03/06 16:42:53","新北市三重區碧華街148巷17號","121.485305","25.0823366666667","6500200","三重區"
"241016","265-UM","2018/03/06 16:47:06","新北市三重區大同北路95巷12號","121.494578333333","25.06455","6500200","三重區"
"241022","267-UM","2018/03/06 16:48:35","新北市三重區中華路111巷2號","121.483858333333","25.06353","6500200","三重區"
"241018","268-UM","2018/03/06 16:49:28","新北市三重區安樂街80號","121.494848333333","25.0693","6500200","三重區"
"241032","269-UM","2018/03/06 16:47:27","新北市三重區重陽路一段120巷22號","121.485743333333","25.0601166666667","6500200","三重區"
"241013","270-UM","2018/03/06 16:53:57","新北市三重區仁和街93號","121.497978333333","25.07396","6500200","三重區"
"241025","271-UM","2018/03/06 16:50:09","新北市三重區中正北路361-3號","121.472451666667","25.071895","6500200","三重區"
"241007","398-BY","2018/03/06 16:43:35","新北市三重區三和路四段171號","121.482996666667","25.0788366666667","6500200","三重區"
"241020","413-TH","2018/03/06 16:45:46","新北市三重區忠孝路二段35號","121.485898333333","25.07108","6500200","三重區"
"241004","475-VK","2018/03/06 16:53:14","新北市三重區仁愛街397巷21號","121.492243333333","25.0814683333333","6500200","三重區"
"241001","478-VK","2018/03/06 16:35:19","新北市三重區福隆路47號","121.490855","25.0775716666667","6500200","三重區"
"241014","543-UM","2018/03/06 16:54:38","新北市三重區介壽路4號","121.498763333333","25.0692566666667","6500200","三重區"
"241023","545-UM","2018/03/06 16:47:09","新北市三重區中華路76巷37-1號","121.482055","25.0625533333333","6500200","三重區"
"241019","KEA-2593","2018/03/06 16:52:36","新北市三重區自強路二段74巷23-1號","121.487951666667","25.0698283333333","6500200","三重區"
"241006","AAD-863","2018/03/06 16:42:33","新北市三重區力行路二段91巷10號","121.48316","25.0759283333333","6500200","三重區"
"241031","887-TS","2018/03/06 16:52:10","新北市三重區過圳街20號","121.488705","25.0590816666667","6500200","三重區"
"241012","941-UM","2018/03/06 16:55:23","新北市三重區河邊北街204號","121.5023","25.0747216666667","6500200","三重區"
"241029","942-UM","2018/03/06 16:49:21","新北市三重區新興路55號","121.491281666667","25.05391","6500200","三重區"
"241033","AAC-255","2018/03/06 16:50:21","新北市三重區新北大道二段137號","121.465955","25.0613533333333","6500200","三重區"
"235062","800-TS","2018/03/06 16:34:21","新北市中和區員山路36巷16-3號","121.484733333333","24.9914833333333","6500300","中和區"
"247014","546-UM","2018/03/06 16:53:08","新北市蘆洲區三民路91號","121.47405","25.0846083333333","6501400","蘆洲區"
"247004","337-TH","2018/03/06 16:56:40","新北市蘆洲區長榮路98號","121.461901666667","25.08388","6501400","蘆洲區"
"247006","336-TH","2018/03/06 16:55:03","新北市蘆洲區長安街99巷5號","121.461443333333","25.0804416666667","6501400","蘆洲區"
"247018","335-TH","2018/03/06 16:58:08","新北市蘆洲區民族路306號","121.477528333333","25.0900416666667","6501400","蘆洲區"
"247008","056-VK","2018/03/06 16:52:05","新北市蘆洲區中山一路197巷4弄2號","121.474471666667","25.080815","6501400","蘆洲區"
"247016","007-UY","2018/03/06 16:55:20","新北市蘆洲區正和街3號","121.470465","25.08272","6501400","蘆洲區"
"228002","585-TW","2018/03/06 16:49:50","新北市貢寮區貢寮里朝陽街134號","121.907653333333","25.0224466666667","6502600","貢寮區"
"228003","828-UM","2018/03/06 16:56:10","新北市貢寮區雙玉里田寮洋街25-4號","121.931546666667","25.0198583333333","6502600","貢寮區"
"224006","676-BX","2018/03/06 16:52:14","新北市瑞芳區大寮路356-1號","121.785026666667","25.1033966666667","6501200","瑞芳區"
"224008","285-BY","2018/03/06 16:55:48","新北市瑞芳區明燈路一段257號","121.817281666667","25.10837","6501200","瑞芳區"
"224007","275-VK","2018/03/06 16:32:47","新北市瑞芳區瑞竹路36巷25號","121.764215","25.10432","6501200","瑞芳區"
"224009","273-VK","2018/03/06 16:54:38","新北市瑞芳區明燈路一段37號","121.821975","25.1071516666667","6501200","瑞芳區"
"224005","271-BY","2018/03/06 16:32:43","新北市瑞芳區海濱路79-1號","121.830956666667","25.1230366666667","6501200","瑞芳區"
"227009","642-TC","2018/03/06 16:49:55","新北市雙溪區牡丹里五分10號","121.866576666667","25.0471283333333","6502500","雙溪區"
"227003","400-TW","2018/03/06 16:57:29","新北市雙溪區長源里柑腳42號","121.800641666667","25.0129616666667","6502500","雙溪區"
"251004","009-UM","2018/03/06 16:55:59","新北市淡水區中正路二段31號","121.41926","25.1817466666667","6501000","淡水區"
"251013","179-VK","2018/03/06 16:55:59","新北市淡水區泉洲厝32號","121.489308333333","25.19262","6501000","淡水區"
"251014","180-VK","2018/03/06 16:54:54","新北市淡水區淡金路四段476號","121.451928333333","25.22374","6501000","淡水區"
"251008","181-VK","2018/03/06 16:58:59","新北市淡水區樹梅坑9號","121.472698333333","25.1427333333333","6501000","淡水區"
"251015","182-VK","2018/03/06 16:53:29","新北市淡水區忠愛街5-2號","121.460005","25.1713166666667","6501000","淡水區"
"251010","413-VK","2018/03/06 16:57:06","新北市淡水區沙崙路97號","121.422123333333","25.18197","6501000","淡水區"
"251012","441-VK","2018/03/06 16:57:31","新北市淡水區中正路二段31號","121.419111666667","25.18184","6501000","淡水區"
"251016","442-VK","2018/03/06 16:56:14","新北市淡水區瓦坑10-1號","121.47811","25.1839633333333","6501000","淡水區"
"251005","443-VK","2018/03/06 16:58:14","新北市淡水區中正路二段31號","121.419348333333","25.181765","6501000","淡水區"
"251009","575-R6","2018/03/06 16:57:56","新北市淡水區中正路一段76號","121.425026666667","25.1771566666667","6501000","淡水區"
"251007","577-R6","2018/03/06 16:56:50","新北市淡水區中正路一段68號","121.425223333333","25.1770783333333","6501000","淡水區"
"251011","650-BX","2018/03/06 16:53:41","新北市淡水區中正路247號","121.433916666667","25.174255","6501000","淡水區"
"252002","178-VK","2018/03/06 16:57:02","新北市三芝區忠孝街173號","121.505396666667","25.2613716666667","6502100","三芝區"
"252001","292-VK","2018/03/06 16:48:17","新北市三芝區淡金路二段76-2號","121.504096666667","25.26099","6502100","三芝區"
"242029","986-R7","2018/03/06 16:54:01","新北市新莊區新泰路357巷3弄57號","121.442458333333","25.0395366666667","6500500","新莊區"
"242051","751-BX","2018/03/06 16:57:28","新北市新莊區新泰路357巷3弄57號","121.441906666667","25.0389766666667","6500500","新莊區"
"242027","612-BX","2018/03/06 16:53:09","新北市新莊區新泰路357巷3弄57號","121.44202","25.03912","6500500","新莊區"
"242034","415-TV","2018/03/06 16:57:20","新北市新莊區新泰路357巷3弄57號","121.441991666667","25.0391816666667","6500500","新莊區"
"242005","413-TV","2018/03/06 16:58:45","新北市新莊區新泰路357巷3弄57號","121.442005","25.03938","6500500","新莊區"
"242061","362-BY","2018/03/06 16:57:07","新北市新莊區三和路12-21號","121.44226","25.0386533333333","6500500","新莊區"
"242056","349-TH","2018/03/06 16:59:03","新北市新莊區三和路12-15號","121.441855","25.037365","6500500","新莊區"
"242011","351-TH","2018/03/06 16:55:45","新北市新莊區新泰路357巷3弄57號","121.442005","25.0394133333333","6500500","新莊區"
"238023","601-UM","2018/03/06 16:55:30","新北市樹林區中山路三段204號","121.387","24.9682083333333","6500700","樹林區"
"238025","303-VK","2018/03/06 16:55:43","新北市樹林區育德街78號","121.387436666667","24.9685166666667","6500700","樹林區"
"238017","283-BY","2018/03/06 16:57:21","新北市樹林區育德街78號","121.38747","24.9684633333333","6500700","樹林區"
"239006","891-R6","2018/03/06 16:57:37","新北市鶯歌區二甲路13-16號","121.344896666667","24.9351983333333","6500800","鶯歌區"
"242015","281-VK","2018/03/06 16:57:46","新北市新莊區三和路12-17號","121.441996666667","25.0374966666667","6500500","新莊區"
