"lineid","car","time","location","longitude","latitude","cityid","cityname"
"234007","207-UY","2018/03/06 18:19:22","新北市永和區環河西路二段229巷1號","121.501398333333","25.0100166666667","6500400","永和區"
"234026","9371-KE","2018/03/06 18:19:34","新北市永和區豫溪街28巷15號","121.515236666667","25.0091766666667","6500400","永和區"
"249005","172-UM","2018/03/06 18:19:25","新北市八里區荖阡坑路15-15號","121.400288333333","25.140455","6502300","八里區"
"249001","173-UM","2018/03/06 18:19:20","新北市八里區龍米路一段240號","121.451738333333","25.1286766666667","6502300","八里區"
"249004","303-UY","2018/03/06 18:19:25","新北市八里區龍米路二段232巷1弄1號","121.431083333333","25.15911","6502300","八里區"
"249002","305-UY","2018/03/06 18:19:28","新北市八里區龍形三街2號","121.450478333333","25.131915","6502300","八里區"
"248016","026-BX","2018/03/06 18:19:22","新北市五股區西雲路286巷1號","121.449848333333","25.0986916666667","6501500","五股區"
"248006","077-UY","2018/03/06 18:19:28","新北市五股區中興路一段169號","121.464693333333","25.0737866666667","6501500","五股區"
"248008","095-VK","2018/03/06 18:19:26","新北市五股區更洲路32巷8弄17號","121.459268333333","25.0796366666667","6501500","五股區"
"248020","225-UY","2018/03/06 18:19:27","新北市五股區孝義路19號","121.45338","25.1091516666667","6501500","五股區"
"248012","247-BX","2018/03/06 18:19:23","新北市五股區御史路1巷101弄2號","121.440923333333","25.09128","6501500","五股區"
"248014","261-SL","2018/03/06 18:19:21","新北市五股區自強路19巷5-1號","121.434661666667","25.073805","6501500","五股區"
"248010","272-BY","2018/03/06 18:19:32","新北市五股區成泰路一段126號","121.435401666667","25.0742316666667","6501500","五股區"
"248004","677-BX","2018/03/06 18:19:26","新北市五股區成泰路二段156號","121.43838","25.0841316666667","6501500","五股區"
"248002","678-BX","2018/03/06 18:19:22","新北市五股區西雲路66號","121.443668333333","25.0916066666667","6501500","五股區"
"232011","375-UM","2018/03/06 18:19:23","新北市坪林區坪雙路一段43號","121.711713333333","24.94245","6502000","坪林區"
"244013","069-UM","2018/03/06 18:19:28","新北市林口區中山路160巷7號","121.391148333333","25.079445","6501700","林口區"
"244007","080-UY","2018/03/06 18:19:33","新北市林口區林口路222號","121.386943333333","25.083615","6501700","林口區"
"244019","402-UM","2018/03/06 18:19:30","新北市林口區麗園路52巷18號","121.373416666667","25.0701516666667","6501700","林口區"
"244025","742-UY","2018/03/06 18:19:21","新北市林口區南勢七街11號","121.35523","25.0692483333333","6501700","林口區"
"244023","483-VK","2018/03/06 18:19:22","新北市林口區仁愛路二段8號","121.385856666667","25.0763383333333","6501700","林口區"
"244017","485-VK","2018/03/06 18:19:37","新北市林口區八德路38號","121.36743","25.0664716666667","6501700","林口區"
"244009","656-BX","2018/03/06 18:19:23","新北市林口區福林路52巷30號","121.37944","25.0894033333333","6501700","林口區"
"244011","701-TV","2018/03/06 18:19:29","新北市林口區中正路74巷5弄2號","121.394585","25.0780016666667","6501700","林口區"
"244021","838-TS","2018/03/06 18:19:18","新北市林口區自強二街1-5號","121.397431666667","25.0785816666667","6501700","林口區"
"243013","646-TV","2018/03/06 18:19:18","新北市泰山區錢厝坑13號","121.414333333333","25.0408933333333","6501600","泰山區"
"222003","436-BY","2018/03/06 18:19:23","新北市深坑區旺耽路67號","121.626255","25.0030233333333","6501800","深坑區"
"222002","659-BX","2018/03/06 18:19:33","新北市深坑區雲鄉路2號","121.620951666667","25.0000533333333","6501800","深坑區"
"231041","002-UM","2018/03/06 18:19:32","新北市新店區安華路28-1號","121.519498333333","24.96069","6500600","新店區"
"231059","046-UY","2018/03/06 18:19:20","新北市新店區安華路28-1號","121.51963","24.9610316666667","6500600","新店區"
"231061","047-UY","2018/03/06 18:19:25","新北市新店區安華路28-1號","121.519355","24.960905","6500600","新店區"
"231060","106-UY","2018/03/06 18:19:21","新北市新店區安華路28-1號","121.519681666667","24.9609516666667","6500600","新店區"
"231051","107-UY","2018/03/06 18:19:38","新北市新店區安康路一段76號","121.528283333333","24.96185","6500600","新店區"
"231053","187-VK","2018/03/06 18:19:33","新北市新店區安康路一段35號","121.531683333333","24.9607283333333","6500600","新店區"
"231050","KEA-2219","2018/03/06 18:19:35","新北市新店區安華路28-1號","121.519873333333","24.9611683333333","6500600","新店區"
"221015","KEA-2785","2018/03/06 18:19:23","新北市汐止區鄉長路二段23巷6號","121.667256666667","25.0829433333333","6501100","汐止區"
"231057","256-BX","2018/03/06 18:19:20","新北市新店區安華路28-1號","121.519805","24.9610533333333","6500600","新店區"
"231046","278-BY","2018/03/06 18:19:40","新北市新店區直潭七街60號","121.53234","24.939895","6500600","新店區"
"231058","3712-VJ","2018/03/06 18:19:28","新北市新店區秀山路66號","121.530761666667","24.9609933333333","6500600","新店區"
"231056","3713-VJ","2018/03/06 18:19:25","新北市新店區環河路119號","121.532181666667","24.9708883333333","6500600","新店區"
"231055","4716-K9","2018/03/06 18:19:20","新北市新店區安康路一段48號","121.530376666667","24.96108","6500600","新店區"
"231067","4772-VM","2018/03/06 18:19:34","新北市新店區安華路28-1號","121.519235","24.9606366666667","6500600","新店區"
"231065","512-UM","2018/03/06 18:19:35","新北市新店區安華路28-1號","121.519183333333","24.96128","6500600","新店區"
"231054","513-UM","2018/03/06 18:19:26","新北市新店區安華路28-1號","121.519688333333","24.9613116666667","6500600","新店區"
"231064","515-UM","2018/03/06 18:19:26","新北市新店區安華路28-1號","121.519863333333","24.9608183333333","6500600","新店區"
"231045","617-UM","2018/03/06 18:19:35","新北市新店區安華路28-1號","121.519441666667","24.9609283333333","6500600","新店區"
"231040","619-UM","2018/03/06 18:19:22","新北市新店區安華路28-1號","121.519581666667","24.9606583333333","6500600","新店區"
"231042","641-BX","2018/03/06 18:19:28","新北市新店區安華路28-1號","121.519598333333","24.9606266666667","6500600","新店區"
"231063","645-TV","2018/03/06 18:19:36","新北市新店區安華路28-1號","121.519365","24.9606266666667","6500600","新店區"
"231049","719-UM","2018/03/06 18:19:31","新北市新店區安華路28-1號","121.519571666667","24.9612733333333","6500600","新店區"
"231048","719-UY","2018/03/06 18:19:31","新北市新店區安華路28-1號","121.519851666667","24.9611816666667","6500600","新店區"
"231062","720-UM","2018/03/06 18:19:37","新北市新店區安華路28-1號","121.519065","24.9611233333333","6500600","新店區"
"231044","897-TW","2018/03/06 18:19:27","新北市新店區安華路28-1號","121.519596666667","24.9606933333333","6500600","新店區"
"231043","899-TW","2018/03/06 18:19:21","新北市新店區安華路28-1號","121.519181666667","24.9609166666667","6500600","新店區"
"231066","AKT-0513","2018/03/06 18:19:23","新北市新店區安華路28-1號","121.519453333333","24.9605766666667","6500600","新店區"
"241026","066-VK","2018/03/06 17:53:02","新北市三重區新興路41號","121.491673333333","25.0536316666667","6500200","三重區"
"241033","AAC-255","2018/03/06 18:19:41","新北市三重區中興北街42巷13號","121.46899","25.0493733333333","6500200","三重區"
"235066","003-UY","2018/03/06 18:19:34","新北市中和區中山路二段119號","121.502815","25.0036433333333","6500300","中和區"
"235064","005-UY","2018/03/06 18:19:21","新北市中和區中正路166號","121.498495","24.9938783333333","6500300","中和區"
"235063","006-UY","2018/03/06 18:19:35","新北市中和區中正路585號","121.486003333333","24.99453","6500300","中和區"
"235039","097-UM","2018/03/06 18:19:34","新北市中和區中正路175號","121.497423333333","24.9936","6500300","中和區"
"235065","098-UM","2018/03/06 18:19:27","新北市中和區莊敬路49巷18號","121.501745","25.00608","6500300","中和區"
"235058","151-BY","2018/03/06 18:19:40","新北市中和區圓通路367巷58號","121.491638333333","24.9844516666667","6500300","中和區"
"235055","183-VK","2018/03/06 18:19:29","新北市中和區中正路637巷52弄1號","121.485476666667","24.993405","6500300","中和區"
"235038","185-VK","2018/03/06 18:19:23","新北市中和區自立路48號","121.522943333333","24.9921316666667","6500300","中和區"
"235049","186-VK","2018/03/06 18:19:23","新北市中和區中正路637巷60弄61號","121.485476666667","24.9933","6500300","中和區"
"235067","255-BX","2018/03/06 18:19:24","新北市中和區和城路一段271巷1號","121.485816666667","24.9917466666667","6500300","中和區"
"235043","352-BY","2018/03/06 18:19:28","新北市中和區中正路171號","121.497878333333","24.9936316666667","6500300","中和區"
"235068","377-QA","2018/03/06 18:19:22","新北市中和區員山路36巷16-3號","121.485006666667","24.9911866666667","6500300","中和區"
"235061","378-QA","2018/03/06 18:19:23","新北市中和區莒光路222-8號","121.468925","24.9948833333333","6500300","中和區"
"235050","4979-A6","2018/03/06 18:19:25","新北市中和區捷運路129號","121.507075","24.9908366666667","6500300","中和區"
"235069","4980-A6","2018/03/06 18:19:35","新北市中和區連勝街47-9號","121.498566666667","24.9975166666667","6500300","中和區"
"235042","551-UM","2018/03/06 18:19:29","新北市中和區大仁街20巷25弄26號","121.519446666667","24.9936183333333","6500300","中和區"
"235045","565-BX","2018/03/06 18:19:24","新北市中和區景安路200巷4弄1號","121.503541666667","24.9915933333333","6500300","中和區"
"235054","640-BX","2018/03/06 18:19:25","新北市中和區莒光路169號","121.472866666667","24.9999916666667","6500300","中和區"
"235060","647-TV","2018/03/06 18:19:32","新北市中和區員山路146-3號","121.481303333333","24.99693","6500300","中和區"
"235047","732-UM","2018/03/06 18:19:21","新北市中和區復興路299號","121.501593333333","24.990195","6500300","中和區"
"235046","733-UM","2018/03/06 18:19:27","新北市中和區員山路36巷13號","121.484145","24.990875","6500300","中和區"
"235062","800-TS","2018/03/06 18:19:31","新北市中和區景平路999巷2號","121.49537","25.00596","6500300","中和區"
"235057","801-TS","2018/03/06 18:19:27","新北市中和區民享街97巷15號","121.475575","24.9999533333333","6500300","中和區"
"235052","805-TS","2018/03/06 18:19:18","新北市中和區興南路二段96號","121.504975","24.9841233333333","6500300","中和區"
"235048","896-TW","2018/03/06 18:19:20","新北市中和區中正路395號","121.489425","24.9935233333333","6500300","中和區"
"235053","900-TW","2018/03/06 18:19:32","新北市中和區中正路637巷52弄1號","121.485413333333","24.9936266666667","6500300","中和區"
"235070","911-UM","2018/03/06 18:19:25","新北市中和區圓通路189號","121.497318333333","24.9945116666667","6500300","中和區"
"235051","157-BY","2018/03/06 18:19:33","新北市中和區信義街1號","121.5109","24.9898233333333","6500300","中和區"
"235037","AAC-213","2018/03/06 18:19:33","新北市中和區景德街26號","121.518443333333","24.991445","6500300","中和區"
"235059","AAC-215","2018/03/06 18:19:28","新北市中和區員山路36巷16-3號","121.484976666667","24.991285","6500300","中和區"
"226004","205-ST","2018/03/06 18:19:37","新北市平溪區靜安路二段3巷53號","121.705716666667","25.0183816666667","6502400","平溪區"
"235041","251-BX","2018/03/06 18:19:21","新北市中和區中正路395號","121.489838333333","24.9935433333333","6500300","中和區"
"228001","212-TW","2018/03/06 18:19:36","新北市貢寮區真理里新港街26巷55弄2-1號","121.927386666667","25.05288","6502600","貢寮區"
"228002","585-TW","2018/03/06 18:19:30","新北市貢寮區福連里馬崗街1號","121.996246666667","25.0166866666667","6502600","貢寮區"
"228003","828-UM","2018/03/06 18:19:31","新北市貢寮區真理里美艷山街72號","121.9166","25.0744216666667","6502600","貢寮區"
"224011","AGQ-8101","2018/03/06 18:17:48","新北市瑞芳區街頂巷40號","121.844778333333","25.10737","6501200","瑞芳區"
"224006","676-BX","2018/03/06 18:19:34","新北市瑞芳區民權街3-2號","121.808146666667","25.107405","6501200","瑞芳區"
"224002","639-TC","2018/03/06 18:19:30","新北市瑞芳區三爪子坑路149巷22-14號","121.811635","25.105935","6501200","瑞芳區"
"224008","285-BY","2018/03/06 18:19:39","新北市瑞芳區逢甲路38號","121.811348333333","25.108415","6501200","瑞芳區"
"224007","275-VK","2018/03/06 18:19:27","新北市瑞芳區大埔路有勝新村7號","121.76488","25.1009516666667","6501200","瑞芳區"
"224009","273-VK","2018/03/06 18:19:18","新北市瑞芳區新山路43號","121.855976666667","25.108305","6501200","瑞芳區"
"224005","271-BY","2018/03/06 18:19:23","新北市瑞芳區建基新村20-7號","121.811198333333","25.1312316666667","6501200","瑞芳區"
"227009","642-TC","2018/03/06 18:19:34","新北市雙溪區牡丹里牡丹73號","121.851681666667","25.05935","6502500","雙溪區"
"227003","400-TW","2018/03/06 18:19:28","新北市雙溪區共和里中山路2號","121.863776666667","25.0338066666667","6502500","雙溪區"
"253005","032-BX","2018/03/06 18:19:25","新北市石門區中央路3-1號","121.565813333333","25.291445","6502200","石門區"
"253006","295-VK","2018/03/06 18:19:20","新北市石門區老梅路49號","121.545416666667","25.2892983333333","6502200","石門區"
"222001","KEA-2212","2018/03/06 18:19:37","新北市深坑區北深路二段51號","121.618966666667","25.0040083333333","6501800","深坑區"
"208002","KEA-2872","2018/03/06 18:19:23","新北市金山區清泉里清水路60巷20號","121.635036666667","25.2328183333333","6502700","金山區"
"208003","665-BX","2018/03/06 18:19:17","新北市金山區中山路16號","121.641591666667","25.2178133333333","6502700","金山區"
"208001","761-BX","2018/03/06 18:19:30","新北市金山區自強路13號","121.64042","25.2164216666667","6502700","金山區"
"251001","011-UM","2018/03/06 18:19:24","新北市淡水區自強路110-9號","121.462013333333","25.1317133333333","6501000","淡水區"
"251013","179-VK","2018/03/06 18:19:38","新北市淡水區行忠路590號","121.46805","25.1991366666667","6501000","淡水區"
"251014","180-VK","2018/03/06 18:18:24","新北市淡水區崙頂13號","121.491356666667","25.2197916666667","6501000","淡水區"
"251008","181-VK","2018/03/06 18:19:18","新北市淡水區水源街二段236號","121.460961666667","25.1763583333333","6501000","淡水區"
"251015","182-VK","2018/03/06 18:19:29","新北市淡水區興福寮88巷1號","121.485623333333","25.1651","6501000","淡水區"
"251010","413-VK","2018/03/06 18:19:26","新北市淡水區淡海路199號","121.420445","25.184805","6501000","淡水區"
"251012","441-VK","2018/03/06 18:19:31","新北市淡水區北新路二段77-5號","121.480521666667","25.18554","6501000","淡水區"
"251016","442-VK","2018/03/06 18:19:34","新北市淡水區淡金路三段228巷26號","121.449786666667","25.2049983333333","6501000","淡水區"
"251005","443-VK","2018/03/06 18:19:34","新北市淡水區水源街一段122巷39號","121.447213333333","25.1703916666667","6501000","淡水區"
"251006","561-UM","2018/03/06 18:19:23","新北市淡水區新民街68號","121.438728333333","25.1762183333333","6501000","淡水區"
"251011","650-BX","2018/03/06 18:19:20","新北市淡水區坪頂路51巷2號","121.458063333333","25.1625766666667","6501000","淡水區"
"251002","672-BX","2018/03/06 18:19:25","新北市淡水區中正東路一段57號","121.452661666667","25.1625233333333","6501000","淡水區"
"251003","673-BX","2018/03/06 18:19:20","新北市淡水區北新路186-3號","121.449565","25.1787666666667","6501000","淡水區"
"207003","550-UM","2018/03/06 18:19:24","新北市萬里區野柳里港東路61號","121.687548333333","25.20376","6502800","萬里區"
"207004","225-TW","2018/03/06 18:19:26","新北市萬里區中幅里中福路39-1號","121.677901666667","25.1663033333333","6502800","萬里區"
"252002","178-VK","2018/03/06 18:19:21","新北市三芝區中山路二段35號","121.502881666667","25.2552416666667","6502100","三芝區"
"252003","249-BX","2018/03/06 18:19:31","新北市三芝區錫板里海尾14-33號","121.478011666667","25.2600883333333","6502100","三芝區"
"252001","292-VK","2018/03/06 18:19:37","新北市三芝區中興街二段2號","121.498378333333","25.2566633333333","6502100","三芝區"
"237004","KEA-2597","2018/03/06 18:19:28","新北市三峽區五寮81號","121.359598333333","24.8585933333333","6500900","三峽區"
"237007","153-BY","2018/03/06 18:19:36","新北市三峽區中正路三段72號","121.35656","24.90404","6500900","三峽區"
"237009","210-TH","2018/03/06 18:19:40","新北市三峽區中山路152巷5號","121.365071666667","24.93663","6500900","三峽區"
"237013","252-BX","2018/03/06 18:19:34","新北市三峽區永安街9巷44號","121.376361666667","24.9297316666667","6500900","三峽區"
"237012","275-BY","2018/03/06 18:19:28","新北市三峽區民生街1巷6-11號","121.377046666667","24.935985","6500900","三峽區"
"237008","302-VK","2018/03/06 18:19:22","新北市三峽區白雞68-85號","121.39259","24.9085666666667","6500900","三峽區"
"237014","433-BY","2018/03/06 18:19:23","新北市三峽區復興路84號","121.373098333333","24.9374066666667","6500900","三峽區"
"237006","5529-G3","2018/03/06 18:19:38","新北市三峽區溪東路238巷11號","121.40813","24.9312033333333","6500900","三峽區"
"237011","KEA-2596","2018/03/06 18:19:28","新北市三峽區溪東路493號","121.41434","24.9278216666667","6500900","三峽區"
"237016","649-BX","2018/03/06 18:19:21","新北市三峽區紫微路42-1號","121.422428333333","24.9201966666667","6500900","三峽區"
"237010","706-TV","2018/03/06 18:19:31","新北市三峽區復興路489號","121.361148333333","24.938405","6500900","三峽區"
"237005","AKY-6261","2018/03/06 18:19:20","新北市三峽區忠孝街25-9號","121.371471666667","24.934355","6500900","三峽區"
"236070","105-UM","2018/03/06 18:19:24","新北市土城區永豐路240號","121.467526666667","24.9807333333333","6501300","土城區"
"236043","107-UM","2018/03/06 18:19:30","新北市土城區裕生路21巷6弄45號","121.448685","24.9865833333333","6501300","土城區"
"236079","166-UM","2018/03/06 18:19:28","新北市土城區永安街130號","121.429608333333","24.964255","6501300","土城區"
"236031","253-BX","2018/03/06 18:19:31","新北市土城區順風路41號","121.440678333333","24.9767583333333","6501300","土城區"
"236026","269-VK","2018/03/06 18:19:32","新北市土城區承天路18號","121.439508333333","24.9634883333333","6501300","土城區"
"236015","270-VK","2018/03/06 18:19:28","新北市土城區青雲路39巷7號","121.460276666667","24.9874416666667","6501300","土城區"
"236038","271-VK","2018/03/06 18:19:22","新北市土城區青雲路451巷8弄19號","121.459571666667","24.9739983333333","6501300","土城區"
"236023","401-BY","2018/03/06 18:19:37","新北市土城區金城路二段58號","121.452271666667","24.979525","6501300","土城區"
"236059","912-UM","2018/03/06 18:19:21","新北市土城區信義路2號","121.412885","24.9544866666667","6501300","土城區"
"236049","913-UM","2018/03/06 18:19:37","新北市土城區明德路一段369號","121.455641666667","24.977925","6501300","土城區"
"236063","915-UM","2018/03/06 18:19:28","新北市土城區金城路三段202-3號","121.469426666667","24.9885516666667","6501300","土城區"
"236055","AAC-216","2018/03/06 18:19:32","新北市土城區中華路二段96號","121.438146666667","24.974495","6501300","土城區"
"242029","986-R7","2018/03/06 18:19:32","新北市新莊區中平路202-1號","121.444853333333","25.0488116666667","6500500","新莊區"
"242025","615-BX","2018/03/06 18:19:23","新北市新莊區五權一路12巷10號","121.457273333333","25.06463","6500500","新莊區"
"242027","612-BX","2018/03/06 18:19:29","新北市新莊區幸福路819號","121.445475","25.0490416666667","6500500","新莊區"
"242044","497-BY","2018/03/06 18:19:19","新北市新莊區雙鳳路134巷34號","121.412315","25.028375","6500500","新莊區"
"242046","441-UM","2018/03/06 18:19:38","新北市新莊區中正路801號","121.421291666667","25.0282033333333","6500500","新莊區"
"242054","440-UM","2018/03/06 18:19:27","新北市新莊區民安西路410巷11號","121.428188333333","25.0091583333333","6500500","新莊區"
"242034","415-TV","2018/03/06 18:19:26","新北市新莊區新泰路51號","121.449386666667","25.0337883333333","6500500","新莊區"
"242005","413-TV","2018/03/06 18:19:25","新北市泰山區泰林路一段2-1號","121.442416666667","25.0479866666667","6500500","新莊區"
"242042","400-BY","2018/03/06 18:19:31","新北市新莊區天祥街71巷19號","121.415613333333","25.02864","6500500","新莊區"
"242061","362-BY","2018/03/06 18:19:27","新北市新莊區建國二路1號","121.435053333333","25.023615","6500500","新莊區"
"242058","353-BY","2018/03/06 18:19:27","桃園市龜山區萬壽路一段93號","121.409163333333","25.0194733333333","6500500","新莊區"
"242007","132-UY","2018/03/06 18:18:57","新北市新莊區自強街37巷2號","121.454461666667","25.0465683333333","6500500","新莊區"
"242037","133-UY","2018/03/06 18:19:30","新北市新莊區後港一路65巷11弄12號","121.42569","25.0271716666667","6500500","新莊區"
"242021","135-UY","2018/03/06 18:19:26","新北市新莊區中正路192號","121.449555","25.0354833333333","6500500","新莊區"
"242056","349-TH","2018/03/06 18:19:23","新北市新莊區豐年街51巷27號","121.447915","25.0319166666667","6500500","新莊區"
"242011","351-TH","2018/03/06 18:19:28","新北市新莊區中港路615巷13號","121.450473333333","25.0532566666667","6500500","新莊區"
"238015","755-BX","2018/03/06 18:19:41","新北市樹林區大安路323巷10弄2號","121.417603333333","24.9912916666667","6500700","樹林區"
"238023","601-UM","2018/03/06 18:19:30","新北市樹林區三福街85巷11號","121.40723","25.0154716666667","6500700","樹林區"
"238019","599-UM","2018/03/06 18:19:25","新北市樹林區中華路172-3號","121.413885","24.98038","6500700","樹林區"
"238018","571-TV","2018/03/06 18:19:40","新北市樹林區鎮前街25號","121.425908333333","24.9925933333333","6500700","樹林區"
"238024","5061-A6","2018/03/06 18:19:32","新北市樹林區復興路274號","121.417988333333","24.988495","6500700","樹林區"
"238022","KEA-2213","2018/03/06 18:19:32","新北市樹林區太順街108巷1號","121.41601","24.97799","6500700","樹林區"
"238021","KEA-2539","2018/03/06 18:19:21","新北市樹林區柑園街二段175號","121.380478333333","24.9529083333333","6500700","樹林區"
"238025","303-VK","2018/03/06 18:19:23","新北市樹林區保安街一段342號","121.417903333333","24.9981166666667","6500700","樹林區"
"238017","283-BY","2018/03/06 18:19:21","新北市樹林區三德街1號","121.412621666667","25.01268","6500700","樹林區"
"238014","282-BY","2018/03/06 18:19:30","新北市樹林區中正路105號","121.42524","25.0008366666667","6500700","樹林區"
"238020","268-VK","2018/03/06 18:00:56","新北市樹林區三俊街199巷31-2號","121.42041","25.0175933333333","6500700","樹林區"
"238026","172-UY","2018/03/06 18:19:20","新北市樹林區佳園路一段75巷14弄20號","121.395436666667","24.9698433333333","6500700","樹林區"
"239007","AAC-297","2018/03/06 18:19:27","新北市鶯歌區重慶街86號","121.348586666667","24.9520433333333","6500800","鶯歌區"
"239006","891-R6","2018/03/06 18:19:37","新北市鶯歌區鶯桃路365巷56號","121.331751666667","24.9623916666667","6500800","鶯歌區"
"239008","527-UM","2018/03/06 18:19:35","新北市鶯歌區國際一路14號","121.336173333333","24.9765516666667","6500800","鶯歌區"
"239005","526-UM","2018/03/06 18:19:29","新北市鶯歌區鶯桃路670號","121.32882","24.9694916666667","6500800","鶯歌區"
"239001","417-VK","2018/03/06 18:19:29","新北市鶯歌區國中街197號","121.338241666667","24.9391483333333","6500800","鶯歌區"
"239003","360-BY","2018/03/06 18:19:26","新北市鶯歌區福安街58號","121.335611666667","24.96526","6500800","鶯歌區"
"239002","359-BY","2018/03/06 18:19:21","新北市鶯歌區文化路124號","121.351846666667","24.9520166666667","6500800","鶯歌區"
"239004","193-VK","2018/03/06 18:19:30","新北市鶯歌區尖山路258巷20弄1號","121.342035","24.94684","6500800","鶯歌區"
"221008","489-VK","2018/03/06 18:19:35","新北市汐止區汐萬路一段301號","121.649478333333","25.075855","6501100","汐止區"
"221036","130-UY","2018/03/06 18:19:36","新北市汐止區長安路77巷22弄12號","121.669588333333","25.0789633333333","6501100","汐止區"
"221010","269-BY","2018/03/06 18:19:30","新北市汐止區祥雲街18巷23號","121.647241666667","25.0894216666667","6501100","汐止區"
"221012","278-VK","2018/03/06 18:19:37","新北市汐止區保長路29號","121.67246","25.0796766666667","6501100","汐止區"
"221023","279-VK","2018/03/06 18:19:38","新北市汐止區康寧街474巷18-1號","121.631331666667","25.06763","6501100","汐止區"
"221032","280-BY","2018/03/06 18:19:32","新北市汐止區力行街2號","121.617253333333","25.05134","6501100","汐止區"
"221027","281-BY","2018/03/06 18:19:35","新北市汐止區和平街6巷8-1號","121.66365","25.071695","6501100","汐止區"
"221029","298-VK","2018/03/06 18:19:26","新北市汐止區樟樹二路330巷68號","121.642913333333","25.06983","6501100","汐止區"
"221021","299-VK","2018/03/06 18:19:37","新北市汐止區新台五路一段125號","121.651735","25.0616616666667","6501100","汐止區"
"221031","353-TW","2018/03/06 18:19:22","新北市汐止區大同路一段160-7號","121.635621666667","25.0556666666667","6501100","汐止區"
"221035","622-UM","2018/03/06 18:19:27","新北市汐止區大同路二段187巷8弄15號","121.652978333333","25.0654516666667","6501100","汐止區"
"221025","623-UM","2018/03/06 18:19:22","新北市汐止區勤進路12巷49號","121.659051666667","25.0628466666667","6501100","汐止區"
"221038","646-BX","2018/03/06 18:19:31","新北市汐止區忠孝東路282號","121.663911666667","25.0681566666667","6501100","汐止區"
"221033","647-BX","2018/03/06 18:19:28","新北市汐止區宜興街69號","121.62267","25.0431133333333","6501100","汐止區"
"221002","707-TV","2018/03/06 18:19:31","新北市汐止區福德一路201巷31號","121.63577","25.0646416666667","6501100","汐止區"
"221018","753-BX","2018/03/06 18:19:31","新北市汐止區茄苳路88巷23號","121.66759","25.070025","6501100","汐止區"
"242015","281-VK","2018/03/06 18:19:30","新北市新莊區中和街122號","121.44751","25.04776","6500500","新莊區"
"242032","280-VK","2018/03/06 18:19:32","新北市新莊區新泰路255巷20號","121.445208333333","25.0397333333333","6500500","新莊區"
