"lineid","car","time","location","longitude","latitude","cityid","cityname"
"234007","207-UY","2018/03/06 18:29:22","新北市永和區文化路176號","121.51151","25.015785","6500400","永和區"
"234086","338-UY","2018/03/06 18:29:39","新北市永和區福和路1號","121.526511666667","25.0097016666667","6500400","永和區"
"234042","862-TW","2018/03/06 18:29:36","新北市永和區福和路8巷1號","121.52493","25.008915","6500400","永和區"
"234026","9371-KE","2018/03/06 18:29:34","新北市永和區中山路一段50號","121.513121666667","25.0107216666667","6500400","永和區"
"234011","9373-KE","2018/03/06 18:29:36","新北市永和區保安路21-1號","121.510436666667","25.01672","6500400","永和區"
"249005","172-UM","2018/03/06 18:29:24","新北市八里區中華路三段128號","121.392386666667","25.1360583333333","6502300","八里區"
"249001","173-UM","2018/03/06 18:29:40","新北市八里區龍米路一段122號","121.45313","25.1253183333333","6502300","八里區"
"249004","303-UY","2018/03/06 18:29:25","新北市八里區忠孝路70號","121.426373333333","25.1603833333333","6502300","八里區"
"249002","305-UY","2018/03/06 18:29:28","新北市八里區龍形二街25號","121.450225","25.1321816666667","6502300","八里區"
"248016","026-BX","2018/03/06 18:29:22","新北市五股區凌雲路一段83巷10弄7號","121.450281666667","25.1011583333333","6501500","五股區"
"248006","077-UY","2018/03/06 18:29:28","新北市五股區四維路38號","121.467233333333","25.0716166666667","6501500","五股區"
"248008","095-VK","2018/03/06 18:29:26","新北市蘆洲區永安南路二段150號","121.461886666667","25.0784133333333","6501500","五股區"
"248020","225-UY","2018/03/06 18:29:27","新北市五股區孝義路56號","121.454223333333","25.1112366666667","6501500","五股區"
"248012","247-BX","2018/03/06 18:29:31","新北市五股區御史路37巷2號","121.442265","25.0920133333333","6501500","五股區"
"248014","261-SL","2018/03/06 18:29:21","新北市五股區自強路115號","121.43228","25.0705266666667","6501500","五股區"
"248010","272-BY","2018/03/06 18:29:32","新北市五股區水碓路10-1號","121.43395","25.0723083333333","6501500","五股區"
"248004","677-BX","2018/03/06 18:29:31","新北市五股區工商路126號","121.436378333333","25.0858816666667","6501500","五股區"
"248002","678-BX","2018/03/06 18:29:33","新北市五股區西雲路152號","121.44628","25.0943566666667","6501500","五股區"
"232011","375-UM","2018/03/06 18:19:23","新北市坪林區坪雙路一段43號","121.711713333333","24.94245","6502000","坪林區"
"244013","069-UM","2018/03/06 18:29:28","新北市林口區佳林路101巷36號","121.38703","25.0800283333333","6501700","林口區"
"244007","080-UY","2018/03/06 18:29:33","新北市林口區後湖4-3號","121.389576666667","25.09783","6501700","林口區"
"244019","402-UM","2018/03/06 18:29:31","新北市林口區忠孝路580巷15號","121.375203333333","25.06738","6501700","林口區"
"244025","742-UY","2018/03/06 18:29:40","新北市林口區源泉街78號","121.357375","25.07297","6501700","林口區"
"244023","483-VK","2018/03/06 18:29:21","新北市林口區四維路251號","121.38144","25.0748016666667","6501700","林口區"
"244017","485-VK","2018/03/06 18:29:37","新北市林口區八德路68號","121.365633333333","25.0657516666667","6501700","林口區"
"244009","656-BX","2018/03/06 18:29:23","新北市林口區文化三路二段291-10號","121.378075","25.0863533333333","6501700","林口區"
"244011","701-TV","2018/03/06 18:29:29","新北市林口區中正路106號","121.393645","25.0772666666667","6501700","林口區"
"244021","838-TS","2018/03/06 18:29:18","新北市林口區自強二街41號","121.398681666667","25.077555","6501700","林口區"
"243012","AAD-798","2018/03/06 18:29:25","新北市泰山區忠孝街21號","121.427621666667","25.0653916666667","6501600","泰山區"
"243013","646-TV","2018/03/06 18:29:38","新北市泰山區明志路三段206巷3號","121.423281666667","25.0379483333333","6501600","泰山區"
"222003","436-BY","2018/03/06 18:29:23","新北市深坑區北深路一段288號","121.628138333333","25.00768","6501800","深坑區"
"222002","659-BX","2018/03/06 18:29:33","新北市深坑區雲鄉路176號","121.62236","24.9981916666667","6501800","深坑區"
"231041","002-UM","2018/03/06 18:29:32","新北市新店區安華路28-1號","121.519591666667","24.9608066666667","6500600","新店區"
"231059","046-UY","2018/03/06 18:29:20","新北市新店區安華路28-1號","121.519716666667","24.9608633333333","6500600","新店區"
"231061","047-UY","2018/03/06 18:29:25","新北市新店區安華路28-1號","121.519201666667","24.9609216666667","6500600","新店區"
"231060","106-UY","2018/03/06 18:29:21","新北市新店區安華路28-1號","121.51968","24.9609016666667","6500600","新店區"
"231051","107-UY","2018/03/06 18:29:19","新北市新店區中央路137號","121.53034","24.973665","6500600","新店區"
"231053","187-VK","2018/03/06 18:29:33","新北市新店區新烏路一段17巷1號","121.546371666667","24.95096","6500600","新店區"
"231050","KEA-2219","2018/03/06 18:29:35","新北市新店區安華路28-1號","121.51982","24.9612883333333","6500600","新店區"
"221015","KEA-2785","2018/03/06 18:29:23","新北市汐止區鄉友街26號","121.668665","25.0811833333333","6501100","汐止區"
"231057","256-BX","2018/03/06 18:29:20","新北市新店區光明街1-1號","121.5381","24.9592216666667","6500600","新店區"
"231046","278-BY","2018/03/06 18:29:20","新北市新店區直潭七街60號","121.532391666667","24.93976","6500600","新店區"
"231058","3712-VJ","2018/03/06 18:29:28","新北市新店區新店後街108號","121.537726666667","24.95538","6500600","新店區"
"231056","3713-VJ","2018/03/06 18:29:25","新北市新店區二十張路105巷8號","121.536776666667","24.9793166666667","6500600","新店區"
"231055","4716-K9","2018/03/06 18:29:20","新北市新店區中正路128巷17號","121.542641666667","24.9724383333333","6500600","新店區"
"231067","4772-VM","2018/03/06 18:29:34","新北市新店區安華路28-1號","121.519186666667","24.960625","6500600","新店區"
"231065","512-UM","2018/03/06 18:29:35","新北市新店區安華路28-1號","121.519195","24.9613366666667","6500600","新店區"
"231054","513-UM","2018/03/06 18:29:26","新北市新店區安華路28-1號","121.519723333333","24.9613216666667","6500600","新店區"
"231064","515-UM","2018/03/06 18:29:26","新北市新店區安華路28-1號","121.519743333333","24.9612566666667","6500600","新店區"
"231045","617-UM","2018/03/06 18:29:35","新北市新店區安華路28-1號","121.519363333333","24.960905","6500600","新店區"
"231040","619-UM","2018/03/06 18:29:22","新北市新店區安華路28-1號","121.519648333333","24.9607233333333","6500600","新店區"
"231042","641-BX","2018/03/06 18:29:28","新北市新店區安華路28-1號","121.519583333333","24.9605916666667","6500600","新店區"
"231063","645-TV","2018/03/06 18:29:36","新北市新店區安華路28-1號","121.51934","24.96068","6500600","新店區"
"231049","719-UM","2018/03/06 18:29:31","新北市新店區安華路28-1號","121.51957","24.9611133333333","6500600","新店區"
"231048","719-UY","2018/03/06 18:29:31","新北市新店區安華路28-1號","121.519861666667","24.96123","6500600","新店區"
"231062","720-UM","2018/03/06 18:29:38","新北市新店區安華路28-1號","121.519328333333","24.96122","6500600","新店區"
"231044","897-TW","2018/03/06 18:29:27","新北市新店區安康路一段355號","121.519836666667","24.9628183333333","6500600","新店區"
"231043","899-TW","2018/03/06 18:29:21","新北市新店區安華路28-1號","121.519223333333","24.96091","6500600","新店區"
"231066","AKT-0513","2018/03/06 18:29:23","新北市新店區安華路28-1號","121.519483333333","24.9606","6500600","新店區"
"235066","003-UY","2018/03/06 18:29:34","新北市中和區中山路二段119號","121.502948333333","25.0036933333333","6500300","中和區"
"235064","005-UY","2018/03/06 18:29:21","新北市中和區圓通路160-1號","121.497641666667","24.9954883333333","6500300","中和區"
"235063","006-UY","2018/03/06 18:29:35","新北市中和區連城路347巷16弄39號","121.487128333333","24.99508","6500300","中和區"
"235056","096-UM","2018/03/06 18:29:30","新北市中和區員山路611巷5弄3號","121.477995","25.01116","6500300","中和區"
"235039","097-UM","2018/03/06 18:29:34","新北市中和區安平路114號","121.51181","24.9975116666667","6500300","中和區"
"235065","098-UM","2018/03/06 18:29:27","新北市中和區莊敬路38巷1號","121.501681666667","25.005245","6500300","中和區"
"235058","151-BY","2018/03/06 18:29:20","新北市中和區圓通路369巷36-2號","121.490883333333","24.98431","6500300","中和區"
"235055","183-VK","2018/03/06 18:29:29","新北市土城區延壽路118-6號","121.469078333333","24.9945583333333","6500300","中和區"
"235038","185-VK","2018/03/06 18:29:23","新北市中和區立人街53號","121.520386666667","24.99427","6500300","中和區"
"235049","186-VK","2018/03/06 18:29:23","新北市中和區景安路175-1號","121.50516","24.99427","6500300","中和區"
"235067","255-BX","2018/03/06 18:29:29","新北市中和區新生街115號","121.483561666667","25.00172","6500300","中和區"
"235044","293-VK","2018/03/06 18:29:33","新北市中和區復興路301巷17號","121.50166","24.989855","6500300","中和區"
"235072","301-VK","2018/03/06 18:29:34","新北市中和區連城路171巷10號","121.495651666667","24.997585","6500300","中和區"
"235043","352-BY","2018/03/06 18:29:28","新北市中和區景平路291號","121.507165","24.993015","6500300","中和區"
"235068","377-QA","2018/03/06 18:29:21","新北市中和區錦和路195巷10號","121.49123","24.9907716666667","6500300","中和區"
"235061","378-QA","2018/03/06 18:28:43","新北市中和區國光街215巷63號","121.467753333333","24.99984","6500300","中和區"
"235050","4979-A6","2018/03/06 18:29:25","新北市中和區興南路一段3號","121.511563333333","24.9911116666667","6500300","中和區"
"235069","4980-A6","2018/03/06 18:29:35","新北市中和區連勝街59號","121.49753","24.9971233333333","6500300","中和區"
"235042","551-UM","2018/03/06 18:29:29","新北市中和區景平路64巷14弄15號","121.522713333333","24.99132","6500300","中和區"
"235045","565-BX","2018/03/06 18:29:24","新北市中和區南山路236巷22弄21號","121.504995","24.98923","6500300","中和區"
"235054","640-BX","2018/03/06 18:29:25","新北市中和區民享街87號","121.474431666667","25.0015866666667","6500300","中和區"
"235060","647-TV","2018/03/06 18:29:33","新北市中和區員山路431號","121.4809","25.0036983333333","6500300","中和區"
"235047","732-UM","2018/03/06 18:29:21","新北市中和區南山路300號","121.507843333333","24.987135","6500300","中和區"
"235046","733-UM","2018/03/06 18:29:27","新北市中和區中正路171號","121.497858333333","24.9936366666667","6500300","中和區"
"235062","800-TS","2018/03/06 18:29:31","新北市中和區中山路二段312巷51號","121.495168333333","25.00451","6500300","中和區"
"235057","801-TS","2018/03/06 18:29:28","新北市中和區民享街97巷19號","121.475476666667","24.9995466666667","6500300","中和區"
"235052","805-TS","2018/03/06 18:29:38","新北市中和區興南路二段96號","121.504905","24.9840816666667","6500300","中和區"
"235048","896-TW","2018/03/06 18:29:20","新北市中和區中正路173號","121.497661666667","24.9935316666667","6500300","中和區"
"235053","900-TW","2018/03/06 18:29:32","新北市中和區連城路583巷17號","121.47902","24.993375","6500300","中和區"
"235070","911-UM","2018/03/06 18:29:25","新北市中和區景平路580號","121.50144","24.9956466666667","6500300","中和區"
"235051","157-BY","2018/03/06 18:29:13","新北市中和區興南路二段149號","121.5048","24.9838283333333","6500300","中和區"
"235037","AAC-213","2018/03/06 18:29:32","新北市中和區景平路111巷60弄56號","121.514563333333","24.9909016666667","6500300","中和區"
"235059","AAC-215","2018/03/06 18:29:28","新北市中和區員山路36巷16-3號","121.485085","24.9913433333333","6500300","中和區"
"220086","073-UY","2018/03/06 18:29:38","新北市板橋區南雅南路二段146號","121.451661666667","24.996175","6500100","板橋區"
"220069","AAD-861","2018/03/06 18:29:36","新北市板橋區華東街1-10號","121.44837","24.9951283333333","6500100","板橋區"
"226004","205-ST","2018/03/06 18:29:37","新北市平溪區靜安路二段274巷6號","121.727361666667","25.0218816666667","6502400","平溪區"
"235041","251-BX","2018/03/06 18:29:21","新北市中和區景新街170號","121.50586","24.99651","6500300","中和區"
"228001","212-TW","2018/03/06 18:29:36","新北市貢寮區仁理村仁和路90號","121.92279","25.050335","6502600","貢寮區"
"228002","585-TW","2018/03/06 18:29:30","新北市貢寮區福連里香蘭街16-1號","121.98395","25.0214983333333","6502600","貢寮區"
"228003","828-UM","2018/03/06 18:29:30","新北市貢寮區和美里和美街44-2號","121.915948333333","25.0946633333333","6502600","貢寮區"
"224011","AGQ-8101","2018/03/06 18:29:08","新北市瑞芳區烏勢巷108號","121.846163333333","25.1088816666667","6501200","瑞芳區"
"224006","676-BX","2018/03/06 18:29:34","新北市瑞芳區明燈路二段79號","121.810386666667","25.1082683333333","6501200","瑞芳區"
"224002","639-TC","2018/03/06 18:29:30","新北市瑞芳區三爪子坑路107-1號","121.810833333333","25.1071583333333","6501200","瑞芳區"
"224008","285-BY","2018/03/06 18:29:39","新北市瑞芳區岳王路3號","121.806775","25.110305","6501200","瑞芳區"
"224007","275-VK","2018/03/06 18:29:27","新北市瑞芳區大埔路有勝二村1號","121.76422","25.1003133333333","6501200","瑞芳區"
"224009","273-VK","2018/03/06 18:29:38","新北市瑞芳區祈堂路239號","121.856321666667","25.109025","6501200","瑞芳區"
"224005","271-BY","2018/03/06 18:29:37","新北市瑞芳區瑞濱路34-5號","121.819095","25.1195216666667","6501200","瑞芳區"
"227009","642-TC","2018/03/06 18:29:34","新北市雙溪區牡丹里牡丹127號","121.85089","25.0594133333333","6502500","雙溪區"
"227003","400-TW","2018/03/06 18:29:28","新北市雙溪區魚行里坤溪18號","121.873415","25.0252583333333","6502500","雙溪區"
"253005","032-BX","2018/03/06 18:29:25","新北市石門區老崩山10-1號","121.552886666667","25.29111","6502200","石門區"
"253006","295-VK","2018/03/06 18:29:20","新北市石門區公地50號","121.54524","25.289845","6502200","石門區"
"222001","KEA-2212","2018/03/06 18:29:17","新北市深坑區北深路一段185號","121.631381666667","25.0100966666667","6501800","深坑區"
"208002","KEA-2872","2018/03/06 18:29:23","新北市金山區磺港里磺港路171-1號","121.64366","25.2240866666667","6502700","金山區"
"208003","665-BX","2018/03/06 18:29:30","新北市金山區中山路245號","121.637158333333","25.2220183333333","6502700","金山區"
"208001","761-BX","2018/03/06 18:29:30","新北市金山區文化二路6號","121.636783333333","25.2246366666667","6502700","金山區"
"251001","011-UM","2018/03/06 18:29:24","新北市淡水區自強路122-9號","121.464633333333","25.1332066666667","6501000","淡水區"
"251013","179-VK","2018/03/06 18:29:38","新北市淡水區椿子林19-5號","121.48107","25.2027966666667","6501000","淡水區"
"251014","180-VK","2018/03/06 18:29:34","新北市淡水區南平20-1號","121.493526666667","25.2166216666667","6501000","淡水區"
"251008","181-VK","2018/03/06 18:29:19","新北市淡水區北投子85-1號","121.469213333333","25.1795183333333","6501000","淡水區"
"251015","182-VK","2018/03/06 18:29:29","新北市淡水區興福寮88巷216號","121.486008333333","25.1665933333333","6501000","淡水區"
"251010","413-VK","2018/03/06 18:29:26","新北市淡水區沙崙路181巷1號","121.424146666667","25.1842166666667","6501000","淡水區"
"251012","441-VK","2018/03/06 18:29:31","新北市淡水區北新路一段45號","121.455166666667","25.1815216666667","6501000","淡水區"
"251016","442-VK","2018/03/06 18:29:34","新北市淡水區下圭柔山105-2號","121.445153333333","25.2095283333333","6501000","淡水區"
"251005","443-VK","2018/03/06 18:29:34","新北市淡水區中山路8號","121.44507","25.1687816666667","6501000","淡水區"
"251006","561-UM","2018/03/06 18:29:23","新北市淡水區大信街11-1號","121.441755","25.1764783333333","6501000","淡水區"
"251011","650-BX","2018/03/06 18:29:40","新北市淡水區中正東路8-1號","121.44787","25.1668433333333","6501000","淡水區"
"251002","672-BX","2018/03/06 18:29:25","新北市淡水區竿蓁二街19巷20弄1號","121.453023333333","25.16371","6501000","淡水區"
"251003","673-BX","2018/03/06 18:29:20","新北市淡水區北新路169巷12號","121.449663333333","25.1802","6501000","淡水區"
"207003","550-UM","2018/03/06 18:29:24","新北市萬里區野柳里港東路152號","121.689291666667","25.205055","6502800","萬里區"
"207004","225-TW","2018/03/06 18:29:26","新北市萬里區萬里里瑪鋉路272-1號","121.688861666667","25.180805","6502800","萬里區"
"252002","178-VK","2018/03/06 18:29:21","新北市三芝區中山路二段33號","121.502866666667","25.255245","6502100","三芝區"
"252003","249-BX","2018/03/06 18:29:31","新北市三芝區後厝里北勢子45-32號","121.469433333333","25.25084","6502100","三芝區"
"252001","292-VK","2018/03/06 18:29:37","新北市三芝區中興街二段2號","121.498383333333","25.2566683333333","6502100","三芝區"
"237004","KEA-2597","2018/03/06 18:29:28","新北市三峽區插角14號","121.400601666667","24.8735216666667","6500900","三峽區"
"237007","153-BY","2018/03/06 18:29:36","新北市三峽區中正路三段5號","121.352305","24.9036016666667","6500900","三峽區"
"237009","210-TH","2018/03/06 18:29:20","新北市三峽區大同路287號","121.365636666667","24.9252433333333","6500900","三峽區"
"237013","252-BX","2018/03/06 18:29:34","新北市三峽區光明路69巷25號","121.376511666667","24.9292716666667","6500900","三峽區"
"237012","275-BY","2018/03/06 18:29:28","新北市三峽區三樹路112號","121.378345","24.9392816666667","6500900","三峽區"
"237008","302-VK","2018/03/06 18:29:22","新北市三峽區白雞68-119號","121.391613333333","24.908235","6500900","三峽區"
"237014","433-BY","2018/03/06 18:29:23","新北市三峽區文化路109號","121.370511666667","24.9360633333333","6500900","三峽區"
"237006","5529-G3","2018/03/06 18:29:18","新北市三峽區溪東路371巷4弄27號","121.41295","24.9295483333333","6500900","三峽區"
"237011","KEA-2596","2018/03/06 18:29:28","新北市三峽區溪東路250號","121.408653333333","24.9315883333333","6500900","三峽區"
"237016","649-BX","2018/03/06 18:29:21","新北市三峽區紫微南路41號","121.419575","24.91249","6500900","三峽區"
"237010","706-TV","2018/03/06 18:29:31","新北市三峽區復興路295號","121.365773333333","24.9388866666667","6500900","三峽區"
"237005","AKY-6261","2018/03/06 18:29:20","新北市三峽區民族街5巷38號","121.369556666667","24.9314733333333","6500900","三峽區"
"236070","105-UM","2018/03/06 18:29:25","新北市土城區永豐路358-2號","121.474155","24.9749983333333","6501300","土城區"
"236043","107-UM","2018/03/06 18:29:30","新北市土城區學成路99巷11號","121.449958333333","24.9883483333333","6501300","土城區"
"236079","166-UM","2018/03/06 18:29:28","新北市土城區中央路三段282號","121.426498333333","24.96353","6501300","土城區"
"236031","253-BX","2018/03/06 18:29:34","新北市土城區水源街73號","121.439616666667","24.97641","6501300","土城區"
"236026","269-VK","2018/03/06 18:29:32","新北市土城區南天母路135巷33號","121.448591666667","24.954185","6501300","土城區"
"236015","270-VK","2018/03/06 18:29:28","新北市土城區青雲路39巷7號","121.460283333333","24.987445","6501300","土城區"
"236038","271-VK","2018/03/06 18:29:20","新北市土城區青雲路451巷2弄1號","121.459285","24.9746233333333","6501300","土城區"
"236023","401-BY","2018/03/06 18:29:37","新北市土城區永豐路135巷1號","121.466761666667","24.9833616666667","6501300","土城區"
"236059","912-UM","2018/03/06 18:29:21","新北市土城區中央路四段277號","121.412745","24.9541816666667","6501300","土城區"
"236049","913-UM","2018/03/06 18:29:23","新北市土城區青雲路469號","121.458705","24.9741516666667","6501300","土城區"
"236063","915-UM","2018/03/06 18:29:28","新北市土城區延壽路109巷27號","121.468313333333","24.99343","6501300","土城區"
"236055","AAC-216","2018/03/06 18:29:32","新北市土城區中華路二段67號","121.439401666667","24.9784483333333","6501300","土城區"
"242044","497-BY","2018/03/06 18:29:39","新北市新莊區中正路新旺巷1號","121.415706666667","25.02359","6500500","新莊區"
"242046","441-UM","2018/03/06 18:29:31","新北市新莊區民安路36號","121.422988333333","25.02783","6500500","新莊區"
"242054","440-UM","2018/03/06 18:29:27","新北市樹林區樹新路207號","121.429806666667","24.9980883333333","6500500","新莊區"
"242042","400-BY","2018/03/06 18:29:31","新北市新莊區天祥街92巷10號","121.415443333333","25.02993","6500500","新莊區"
"242061","362-BY","2018/03/06 18:29:27","新北市新莊區富國路176巷5號","121.424265","25.0241216666667","6500500","新莊區"
"242058","353-BY","2018/03/06 18:29:27","新北市新莊區中正路887-17號","121.416173333333","25.02418","6500500","新莊區"
"242007","132-UY","2018/03/06 18:29:28","新北市新莊區中華路二段41號","121.453231666667","25.046665","6500500","新莊區"
"242037","133-UY","2018/03/06 18:29:27","新北市新莊區後港一路47號","121.425891666667","25.026405","6500500","新莊區"
"242056","349-TH","2018/03/06 18:29:23","新北市新莊區瓊泰路77巷16號","121.442683333333","25.029025","6500500","新莊區"
"238015","755-BX","2018/03/06 18:29:22","新北市樹林區啟智街189巷1號","121.414983333333","24.9870816666667","6500700","樹林區"
"238023","601-UM","2018/03/06 18:29:30","新北市樹林區忠信街15號","121.407588333333","25.0150166666667","6500700","樹林區"
"238019","599-UM","2018/03/06 18:29:25","新北市樹林區中華路190-16號","121.41181","24.9805383333333","6500700","樹林區"
"238018","571-TV","2018/03/06 18:29:13","新北市樹林區樹新路17-4號","121.426895","24.99464","6500700","樹林區"
"238024","5061-A6","2018/03/06 18:29:32","新北市樹林區中山路一段57號","121.424358333333","24.9920333333333","6500700","樹林區"
"238025","303-VK","2018/03/06 18:29:22","新北市樹林區保安街一段179號","121.421525","24.99564","6500700","樹林區"
"238017","283-BY","2018/03/06 18:29:21","新北市樹林區光榮街3巷9弄2號","121.412533333333","25.0038166666667","6500700","樹林區"
"238014","282-BY","2018/03/06 18:29:30","新北市樹林區大安路111巷25號","121.423195","24.9976116666667","6500700","樹林區"
"238020","268-VK","2018/03/06 18:00:56","新北市樹林區三俊街199巷31-2號","121.42041","25.0175933333333","6500700","樹林區"
"238026","172-UY","2018/03/06 18:29:20","新北市樹林區八德街900號","121.392491666667","24.9690416666667","6500700","樹林區"
"239007","AAC-297","2018/03/06 18:29:27","新北市鶯歌區中正一路399號","121.359056666667","24.95698","6500800","鶯歌區"
"239006","891-R6","2018/03/06 18:29:37","新北市鶯歌區德昌街1號","121.334161666667","24.960785","6500800","鶯歌區"
"239008","527-UM","2018/03/06 18:29:35","新北市鶯歌區國際一路14號","121.336188333333","24.976565","6500800","鶯歌區"
"239005","526-UM","2018/03/06 18:29:30","新北市鶯歌區鳳吉二街142號","121.328631666667","24.9746516666667","6500800","鶯歌區"
"239001","417-VK","2018/03/06 18:29:29","新北市鶯歌區二橋街49號","121.33686","24.9387516666667","6500800","鶯歌區"
"239003","360-BY","2018/03/06 18:29:26","新北市鶯歌區鶯桃路466號","121.332476666667","24.965345","6500800","鶯歌區"
"239002","359-BY","2018/03/06 18:29:21","新北市鶯歌區中正一路461-5號","121.363003333333","24.9566033333333","6500800","鶯歌區"
"239004","193-VK","2018/03/06 18:29:23","新北市鶯歌區中正三路147巷6號","121.337118333333","24.9397066666667","6500800","鶯歌區"
"221008","489-VK","2018/03/06 18:29:34","新北市汐止區康寧街901號","121.651323333333","25.075015","6501100","汐止區"
"221036","130-UY","2018/03/06 18:29:36","新北市汐止區大同路三段61號","121.667266666667","25.076925","6501100","汐止區"
"221010","269-BY","2018/03/06 18:29:30","新北市汐止區汐萬路三段64號","121.644018333333","25.0934733333333","6501100","汐止區"
"221012","278-VK","2018/03/06 18:29:36","新北市汐止區保長路147巷1號","121.676521666667","25.07708","6501100","汐止區"
"221023","279-VK","2018/03/06 18:29:18","新北市汐止區康寧街541巷16號","121.6337","25.0693883333333","6501100","汐止區"
"221032","280-BY","2018/03/06 18:29:35","新北市汐止區民權街二段106號","121.618628333333","25.0467233333333","6501100","汐止區"
"221027","281-BY","2018/03/06 18:29:29","新北市汐止區和平街46巷20號","121.662626666667","25.0716733333333","6501100","汐止區"
"221029","298-VK","2018/03/06 18:29:26","新北市汐止區樟樹一路272-4號","121.642885","25.0687316666667","6501100","汐止區"
"221021","299-VK","2018/03/06 18:29:37","新北市汐止區復興路53巷1號","121.656846666667","25.0626933333333","6501100","汐止區"
"221031","353-TW","2018/03/06 18:29:22","新北市汐止區光復街8巷1號","121.638738333333","25.0580816666667","6501100","汐止區"
"221035","622-UM","2018/03/06 18:29:27","新北市汐止區大同路二段171號","121.651238333333","25.0646583333333","6501100","汐止區"
"221025","623-UM","2018/03/06 18:29:22","新北市汐止區仁愛路122巷3號","121.663183333333","25.06359","6501100","汐止區"
"221038","646-BX","2018/03/06 18:29:31","新北市汐止區大同路二段413號","121.65851","25.0672833333333","6501100","汐止區"
"221033","647-BX","2018/03/06 18:29:27","新北市汐止區宜興街1號","121.620816666667","25.0411833333333","6501100","汐止區"
"221002","707-TV","2018/03/06 18:29:32","新北市汐止區福德一路141巷1號","121.636993333333","25.0668016666667","6501100","汐止區"
"221018","753-BX","2018/03/06 18:29:31","新北市汐止區茄苳路224巷3弄23號","121.67126","25.0681033333333","6501100","汐止區"
"220079","145-BY","2018/03/06 18:29:24","新北市板橋區華東街1-10號","121.448346666667","24.9950533333333","6500100","板橋區"
"220080","200-UY","2018/03/06 18:29:30","新北市板橋區華東街1-9號","121.4481","24.99491","6500100","板橋區"
"220082","610-BX","2018/03/06 18:29:17","新北市板橋區華東街1-10號","121.448298333333","24.99494","6500100","板橋區"
"220071","283-VK","2018/03/06 18:29:35","新北市板橋區華東街1-9號","121.44808","24.994835","6500100","板橋區"
"220075","303-R5","2018/03/06 18:29:27","新北市板橋區華東街1-10號","121.448321666667","24.9949133333333","6500100","板橋區"
"220064","486-VK","2018/03/06 18:29:35","新北市板橋區華東街11號","121.451395","24.9983816666667","6500100","板橋區"
"242032","280-VK","2018/03/06 18:29:32","新北市新莊區新泰路277巷45號","121.444086666667","25.0400716666667","6500500","新莊區"
"220035","560-BX","2018/03/06 18:29:27","新北市板橋區四川路二段130巷27號","121.44936","24.9942716666667","6500100","板橋區"
"220054","741-BX","2018/03/06 18:29:25","新北市板橋區華東街1-9號","121.44812","24.9949183333333","6500100","板橋區"
"220074","895-R6","2018/03/06 18:29:28","新北市板橋區華東街1-10號","121.44828","24.9949216666667","6500100","板橋區"
