"lineid","car","time","location","longitude","latitude","cityid","cityname"
"234046","148-BY","2018/03/06 18:39:29","新北市永和區永元路52巷13弄3號","121.522706666667","25.001225","6500400","永和區"
"234007","207-UY","2018/03/06 18:39:22","新北市永和區文化路170號","121.51199","25.01562","6500400","永和區"
"234081","298-R6","2018/03/06 18:39:21","新北市永和區國中路4號","121.524313333333","25.00438","6500400","永和區"
"234086","338-UY","2018/03/06 18:39:39","新北市中和區安平路102號","121.5116","24.9973","6500400","永和區"
"234017","745-BX","2018/03/06 18:39:33","新北市永和區福和路1號","121.526288333333","25.00956","6500400","永和區"
"234030","746-BX","2018/03/06 18:39:23","新北市永和區成功路一段89號","121.526886666667","25.0028866666667","6500400","永和區"
"234061","AAD-866","2018/03/06 18:39:27","新北市永和區福和路1號","121.52578","25.0096183333333","6500400","永和區"
"234042","862-TW","2018/03/06 18:39:36","新北市永和區永貞路306號","121.51191","25.0048666666667","6500400","永和區"
"234050","863-TW","2018/03/06 18:39:21","新北市永和區福和路1號","121.526468333333","25.0098783333333","6500400","永和區"
"234026","9371-KE","2018/03/06 18:39:34","新北市永和區永貞路418-3號","121.508701666667","25.0080683333333","6500400","永和區"
"234011","9373-KE","2018/03/06 18:39:42","新北市永和區仁愛路40巷9弄4號","121.513803333333","25.01422","6500400","永和區"
"249005","172-UM","2018/03/06 18:39:24","新北市八里區中華路三段196號","121.388145","25.1255883333333","6502300","八里區"
"249001","173-UM","2018/03/06 18:39:20","新北市八里區龍米路一段360號","121.451558333333","25.1314016666667","6502300","八里區"
"249004","303-UY","2018/03/06 18:39:25","新北市八里區中山路一段42-1號","121.422115","25.1590816666667","6502300","八里區"
"249002","305-UY","2018/03/06 18:39:28","新北市八里區龍形一街18號","121.449658333333","25.1304566666667","6502300","八里區"
"248016","026-BX","2018/03/06 18:39:22","新北市五股區凌雲路一段149巷7號","121.448963333333","25.1016383333333","6501500","五股區"
"248008","095-VK","2018/03/06 18:39:26","新北市五股區中興路一段150巷18號","121.464823333333","25.0746816666667","6501500","五股區"
"248020","225-UY","2018/03/06 18:39:27","新北市五股區天乙路114號","121.447043333333","25.113215","6501500","五股區"
"248012","247-BX","2018/03/06 18:39:23","新北市五股區成泰路三段2巷3號","121.440976666667","25.0863916666667","6501500","五股區"
"248014","261-SL","2018/03/06 18:39:21","新北市五股區蓬萊路24號","121.434006666667","25.079855","6501500","五股區"
"248010","272-BY","2018/03/06 18:39:32","新北市五股區水碓一路92號","121.431765","25.073685","6501500","五股區"
"248004","677-BX","2018/03/06 18:39:30","新北市五股區民義路一段215號","121.430023333333","25.0892883333333","6501500","五股區"
"248002","678-BX","2018/03/06 18:39:23","新北市五股區西雲路207號","121.44858","25.096565","6501500","五股區"
"234023","9380-KE","2018/03/06 18:39:38","新北市永和區福和路10巷2號","121.524753333333","25.00884","6500400","永和區"
"234077","969-R7","2018/03/06 18:39:19","新北市永和區中正路446號","121.517466666667","25.0028816666667","6500400","永和區"
"234067","AAC-212","2018/03/06 18:39:35","新北市永和區福和路213號","121.519285","25.00761","6500400","永和區"
"232011","375-UM","2018/03/06 18:19:23","新北市坪林區坪雙路一段43號","121.711713333333","24.94245","6502000","坪林區"
"244013","069-UM","2018/03/06 18:39:28","新北市林口區中山路271號","121.384978333333","25.07968","6501700","林口區"
"244007","080-UY","2018/03/06 18:39:33","新北市林口區後湖59號","121.383796666667","25.1069933333333","6501700","林口區"
"244019","402-UM","2018/03/06 18:39:30","新北市林口區忠孝路614號","121.37715","25.0683433333333","6501700","林口區"
"244025","742-UY","2018/03/06 18:39:21","新北市林口區南勢六街242號","121.355855","25.074675","6501700","林口區"
"244023","483-VK","2018/03/06 18:39:21","新北市林口區民享路70號","121.380786666667","25.0810766666667","6501700","林口區"
"244017","485-VK","2018/03/06 18:39:37","新北市林口區文化二路一段86號","121.36635","25.069665","6501700","林口區"
"244009","656-BX","2018/03/06 18:39:23","新北市林口區林口路243號","121.386531666667","25.0838033333333","6501700","林口區"
"244011","701-TV","2018/03/06 18:39:29","新北市林口區興林路17巷5弄2號","121.390631666667","25.0769716666667","6501700","林口區"
"244021","838-TS","2018/03/06 18:39:18","新北市林口區工六路52號","121.39926","25.0781033333333","6501700","林口區"
"243012","AAD-798","2018/03/06 18:39:25","新北市泰山區福興三街13號","121.434448333333","25.05781","6501600","泰山區"
"243013","646-TV","2018/03/06 18:30:47","新北市泰山區明志路三段206巷3號","121.423261666667","25.0379866666667","6501600","泰山區"
"243016","680-BX","2018/03/06 18:39:21","新北市泰山區黎明路25號","121.421741666667","25.0610616666667","6501600","泰山區"
"222003","436-BY","2018/03/06 18:39:12","新北市深坑區翠谷街12巷3號","121.627155","25.0085383333333","6501800","深坑區"
"222002","659-BX","2018/03/06 18:39:33","新北市深坑區雲鄉路2號","121.620956666667","24.9997","6501800","深坑區"
"231041","002-UM","2018/03/06 18:39:32","新北市新店區安華路28-1號","121.519548333333","24.960835","6500600","新店區"
"231059","046-UY","2018/03/06 18:39:20","新北市新店區安華路28-1號","121.51964","24.9610166666667","6500600","新店區"
"231061","047-UY","2018/03/06 18:39:25","新北市新店區安華路28-1號","121.519145","24.96096","6500600","新店區"
"231060","106-UY","2018/03/06 18:39:21","新北市新店區安華路28-1號","121.519678333333","24.9609083333333","6500600","新店區"
"231051","107-UY","2018/03/06 18:39:38","新北市新店區中央路75號","121.532376666667","24.97671","6500600","新店區"
"231053","187-VK","2018/03/06 18:39:33","新北市新店區永興路30號","121.543875","24.9390666666667","6500600","新店區"
"231050","KEA-2219","2018/03/06 18:39:35","新北市新店區安華路28-1號","121.51981","24.961325","6500600","新店區"
"221015","KEA-2785","2018/03/06 18:39:23","新北市汐止區鄉長路二段8號","121.668878333333","25.0807616666667","6501100","汐止區"
"231057","256-BX","2018/03/06 18:39:20","新北市新店區新烏路一段215號","121.54928","24.93151","6500600","新店區"
"231046","278-BY","2018/03/06 18:39:40","新北市新店區直潭二街1號","121.535585","24.9431816666667","6500600","新店區"
"231058","3712-VJ","2018/03/06 18:39:28","新北市新店區北宜路一段168號","121.540398333333","24.9529333333333","6500600","新店區"
"231056","3713-VJ","2018/03/06 18:39:25","新北市新店區自立街42號","121.53829","24.97869","6500600","新店區"
"231055","4716-K9","2018/03/06 18:39:20","新北市新店區華興街42號","121.53695","24.9691616666667","6500600","新店區"
"231067","4772-VM","2018/03/06 18:39:34","新北市新店區安康路一段122號","121.527028333333","24.9626816666667","6500600","新店區"
"231065","512-UM","2018/03/06 18:39:35","新北市新店區安華路28-1號","121.519168333333","24.961185","6500600","新店區"
"231054","513-UM","2018/03/06 18:39:26","新北市新店區安華路28-1號","121.519705","24.961235","6500600","新店區"
"231064","515-UM","2018/03/06 18:39:26","新北市新店區安華路28-1號","121.51962","24.9610666666667","6500600","新店區"
"231045","617-UM","2018/03/06 18:39:35","新北市新店區安華路28-1號","121.519468333333","24.9609133333333","6500600","新店區"
"231040","619-UM","2018/03/06 18:39:22","新北市新店區安華路28-1號","121.519663333333","24.9605933333333","6500600","新店區"
"231042","641-BX","2018/03/06 18:39:28","新北市新店區安康路一段228號","121.52316","24.96365","6500600","新店區"
"231063","645-TV","2018/03/06 18:39:36","新北市新店區安華路28-1號","121.51942","24.9607316666667","6500600","新店區"
"231049","719-UM","2018/03/06 18:39:31","新北市新店區安康路一段116號","121.527061666667","24.96263","6500600","新店區"
"231048","719-UY","2018/03/06 18:39:31","新北市新店區安康路一段107-2號","121.528656666667","24.9617283333333","6500600","新店區"
"231062","720-UM","2018/03/06 18:39:38","新北市新店區安華路28-1號","121.51928","24.9612133333333","6500600","新店區"
"231044","897-TW","2018/03/06 18:39:27","新北市新店區北新路二段2號","121.542558333333","24.9706083333333","6500600","新店區"
"231043","899-TW","2018/03/06 18:39:41","新北市新店區安華路28-1號","121.519241666667","24.96095","6500600","新店區"
"231066","AKT-0513","2018/03/06 18:39:23","新北市新店區安華路28-1號","121.519531666667","24.9605333333333","6500600","新店區"
"235066","003-UY","2018/03/06 18:39:34","新北市中和區水源路31號","121.504148333333","25.00362","6500300","中和區"
"235064","005-UY","2018/03/06 18:39:21","新北市中和區連城路89巷18號","121.497225","24.9990166666667","6500300","中和區"
"235063","006-UY","2018/03/06 18:39:35","新北市中和區連城路347巷4弄18號","121.487505","24.9956316666667","6500300","中和區"
"235056","096-UM","2018/03/06 18:39:30","新北市中和區員山路611巷5弄3號","121.477966666667","25.01116","6500300","中和區"
"235039","097-UM","2018/03/06 18:39:34","新北市永和區中正路101號","121.515141666667","24.997775","6500300","中和區"
"235065","098-UM","2018/03/06 18:39:27","新北市中和區莊敬路49巷15弄14號","121.500608333333","25.0059816666667","6500300","中和區"
"235040","150-BY","2018/03/06 18:35:37","新北市中和區安平路59號","121.509698333333","24.995045","6500300","中和區"
"235058","151-BY","2018/03/06 18:39:20","新北市中和區圓通路369巷30弄2號","121.488893333333","24.9843","6500300","中和區"
"235055","183-VK","2018/03/06 18:39:32","新北市中和區民生街70號","121.468728333333","25.0050116666667","6500300","中和區"
"235038","185-VK","2018/03/06 18:39:23","新北市永和區民有街73號","121.518165","24.9956966666667","6500300","中和區"
"235049","186-VK","2018/03/06 18:39:23","新北市中和區明義街7號","121.504065","24.9948916666667","6500300","中和區"
"235067","255-BX","2018/03/06 18:39:29","新北市中和區中正路879號","121.484388333333","25.0040566666667","6500300","中和區"
"235044","293-VK","2018/03/06 18:39:33","新北市中和區復興路280巷18弄6號","121.50226","24.9916666666667","6500300","中和區"
"235072","301-VK","2018/03/06 18:39:29","新北市中和區中山路二段191號","121.500016666667","25.002735","6500300","中和區"
"235043","352-BY","2018/03/06 18:39:28","新北市中和區景平路123號","121.515641666667","24.9919","6500300","中和區"
"235068","377-QA","2018/03/06 18:39:01","新北市中和區中興街118巷10號","121.499891666667","24.9932816666667","6500300","中和區"
"235061","378-QA","2018/03/06 18:39:23","新北市中和區民治街29巷2弄6號","121.475591666667","25.0008366666667","6500300","中和區"
"235050","4979-A6","2018/03/06 18:39:25","新北市中和區忠孝街121號","121.51257","24.9879366666667","6500300","中和區"
"235069","4980-A6","2018/03/06 18:39:35","新北市中和區連城路89巷14號","121.497165","24.999245","6500300","中和區"
"235042","551-UM","2018/03/06 18:39:29","新北市中和區成功路97巷18弄3號","121.526895","24.991595","6500300","中和區"
"235045","565-BX","2018/03/06 18:39:24","新北市中和區南山路236巷53號","121.504873333333","24.988255","6500300","中和區"
"235054","640-BX","2018/03/06 18:39:25","新北市中和區莒光路68號","121.47227","25.0031866666667","6500300","中和區"
"235060","647-TV","2018/03/06 18:39:32","新北市中和區中山路二段479號","121.483075","25.0049366666667","6500300","中和區"
"235047","732-UM","2018/03/06 18:39:21","新北市中和區興南路二段32巷23號","121.506996666667","24.9862116666667","6500300","中和區"
"235046","733-UM","2018/03/06 18:39:27","新北市中和區仁愛街75號","121.511565","24.98743","6500300","中和區"
"235062","800-TS","2018/03/06 18:39:31","新北市中和區景平路681號","121.496503333333","25.0029583333333","6500300","中和區"
"235057","801-TS","2018/03/06 18:39:28","新北市中和區員山路327巷39-1號","121.479638333333","25.0021233333333","6500300","中和區"
"235052","805-TS","2018/03/06 18:39:38","新北市中和區興南路三段68號","121.492756666667","24.9749383333333","6500300","中和區"
"235048","896-TW","2018/03/06 18:39:20","新北市中和區南山路307號","121.504811666667","24.99161","6500300","中和區"
"235053","900-TW","2018/03/06 18:39:32","新北市中和區華安街106號","121.468853333333","24.9951983333333","6500300","中和區"
"235070","911-UM","2018/03/06 18:39:25","新北市中和區景新街131號","121.505903333333","24.9973166666667","6500300","中和區"
"235051","157-BY","2018/03/06 18:39:33","新北市中和區興南路二段114巷10弄1號","121.503948333333","24.985045","6500300","中和區"
"235037","AAC-213","2018/03/06 18:39:32","新北市中和區景德街95-12號","121.515051666667","24.9911616666667","6500300","中和區"
"235059","AAC-215","2018/03/06 18:39:28","新北市中和區錦和路350-1號","121.490521666667","24.99356","6500300","中和區"
"220068","013-TV","2018/03/06 18:39:33","新北市板橋區民生路二段120號","121.470305","25.0198266666667","6500100","板橋區"
"220065","072-UY","2018/03/06 18:39:24","新北市板橋區稚暉街1號","121.455976666667","25.004655","6500100","板橋區"
"220086","073-UY","2018/03/06 18:39:38","新北市板橋區南雅西路二段192巷1弄3號","121.452041666667","25.014485","6500100","板橋區"
"220069","AAD-861","2018/03/06 18:39:36","新北市板橋區華東街1-10號","121.448335","24.9951666666667","6500100","板橋區"
"226004","205-ST","2018/03/06 18:39:37","新北市平溪區平溪里三坑路38號","121.734568333333","25.0326216666667","6502400","平溪區"
"235041","251-BX","2018/03/06 18:39:21","新北市中和區宜安路170號","121.50886","24.9991333333333","6500300","中和區"
"228001","212-TW","2018/03/06 18:39:36","新北市貢寮區仁理村研海街12-1號","121.923806666667","25.051675","6502600","貢寮區"
"228002","585-TW","2018/03/06 18:39:30","新北市貢寮區福隆里東興街6-11號","121.950745","25.0210716666667","6502600","貢寮區"
"228003","828-UM","2018/03/06 18:39:30","新北市貢寮區和美里龍洞街12-2號","121.91831","25.111755","6502600","貢寮區"
"224006","676-BX","2018/03/06 18:39:34","新北市瑞芳區明燈路三段85號","121.805083333333","25.1083866666667","6501200","瑞芳區"
"224002","639-TC","2018/03/06 18:39:30","新北市瑞芳區三爪子坑路29巷35號","121.813781666667","25.1065366666667","6501200","瑞芳區"
"224008","285-BY","2018/03/06 18:39:19","新北市瑞芳區岳王路11號","121.80711","25.1106966666667","6501200","瑞芳區"
"224007","275-VK","2018/03/06 18:39:31","新北市瑞芳區大埔路115巷24-1號","121.76289","25.1014683333333","6501200","瑞芳區"
"224009","273-VK","2018/03/06 18:39:38","新北市瑞芳區祈堂路66號","121.859056666667","25.1097966666667","6501200","瑞芳區"
"224005","271-BY","2018/03/06 18:39:22","新北市瑞芳區建基路一段30號","121.819488333333","25.1211383333333","6501200","瑞芳區"
"227009","642-TC","2018/03/06 18:39:34","新北市雙溪區牡丹里下坑11號","121.851003333333","25.056185","6502500","雙溪區"
"227003","400-TW","2018/03/06 18:39:28","新北市雙溪區魚行里坤溪3-5號","121.874951666667","25.0217433333333","6502500","雙溪區"
"253005","032-BX","2018/03/06 18:39:25","新北市石門區中山路64號","121.567138333333","25.2907883333333","6502200","石門區"
"253006","295-VK","2018/03/06 18:39:20","新北市石門區崁子腳1號","121.532456666667","25.2882716666667","6502200","石門區"
"222001","KEA-2212","2018/03/06 18:39:37","新北市深坑區北深路一段82號","121.636295","25.01086","6501800","深坑區"
"208002","KEA-2872","2018/03/06 18:39:23","新北市金山區忠孝一路19巷5號","121.637921666667","25.217995","6502700","金山區"
"208003","665-BX","2018/03/06 18:39:17","新北市金山區中山路346號","121.633386666667","25.2253183333333","6502700","金山區"
"208001","761-BX","2018/03/06 18:39:30","新北市金山區文化三路7號","121.635045","25.2249633333333","6502700","金山區"
"251001","011-UM","2018/03/06 18:39:24","新北市淡水區自強路415巷2號","121.46555","25.1342233333333","6501000","淡水區"
"251013","179-VK","2018/03/06 18:39:18","新北市淡水區小坑子頭5-1號","121.48291","25.2069216666667","6501000","淡水區"
"251014","180-VK","2018/03/06 18:39:34","新北市淡水區南平21-2號","121.498111666667","25.2162233333333","6501000","淡水區"
"251008","181-VK","2018/03/06 18:39:18","新北市淡水區北投子62-16號","121.456136666667","25.1800966666667","6501000","淡水區"
"251015","182-VK","2018/03/06 18:39:29","新北市淡水區興福寮66巷28號","121.486183333333","25.1623366666667","6501000","淡水區"
"251010","413-VK","2018/03/06 18:39:26","新北市淡水區沙崙路141號","121.423216666667","25.1829383333333","6501000","淡水區"
"251012","441-VK","2018/03/06 18:39:31","新北市淡水區北新路117號","121.448936666667","25.1786033333333","6501000","淡水區"
"251016","442-VK","2018/03/06 18:39:34","新北市淡水區下圭柔山84號","121.437716666667","25.2058916666667","6501000","淡水區"
"251006","561-UM","2018/03/06 18:39:23","新北市淡水區崁頂37-11號","121.438753333333","25.1945716666667","6501000","淡水區"
"251011","650-BX","2018/03/06 18:39:40","新北市淡水區鄧公路42-1號","121.458665","25.1687983333333","6501000","淡水區"
"251002","672-BX","2018/03/06 18:39:25","新北市淡水區中正東路一段3巷14弄1號","121.450875","25.1641816666667","6501000","淡水區"
"251003","673-BX","2018/03/06 18:39:20","新北市淡水區北新路69巷26號","121.446776666667","25.1801116666667","6501000","淡水區"
"207003","550-UM","2018/03/06 18:39:24","新北市萬里區大鵬里頂社2-1號","121.66036","25.20722","6502800","萬里區"
"207004","225-TW","2018/03/06 18:39:26","新北市萬里區萬里里獅頭路10-1號","121.692143333333","25.1788916666667","6502800","萬里區"
"252002","178-VK","2018/03/06 18:39:21","新北市三芝區民生街40號","121.503741666667","25.256035","6502100","三芝區"
"252003","249-BX","2018/03/06 18:39:31","新北市三芝區後厝里大片頭74-6號","121.459035","25.2454066666667","6502100","三芝區"
"252001","292-VK","2018/03/06 18:39:37","新北市三芝區中興街二段260號","121.50123","25.2534766666667","6502100","三芝區"
"237004","KEA-2597","2018/03/06 18:39:28","新北市三峽區有木24號","121.427695","24.8629416666667","6500900","三峽區"
"237007","153-BY","2018/03/06 18:39:36","新北市三峽區柑樹路2巷3號","121.36227","24.9055966666667","6500900","三峽區"
"237009","210-TH","2018/03/06 18:39:32","新北市三峽區大同路202-1號","121.367446666667","24.9278116666667","6500900","三峽區"
"237013","252-BX","2018/03/06 18:39:35","新北市三峽區光明路69巷25號","121.376523333333","24.9292283333333","6500900","三峽區"
"237012","275-BY","2018/03/06 18:39:28","新北市三峽區三樹路322號","121.381615","24.9441416666667","6500900","三峽區"
"237008","302-VK","2018/03/06 18:39:22","新北市三峽區白雞63-5號","121.399635","24.9110383333333","6500900","三峽區"
"237014","433-BY","2018/03/06 18:39:23","新北市三峽區復興路480巷52號","121.361993333333","24.9412633333333","6500900","三峽區"
"237006","5529-G3","2018/03/06 18:39:38","新北市三峽區溪東路315巷35號","121.411735","24.9309216666667","6500900","三峽區"
"237011","KEA-2596","2018/03/06 18:39:28","新北市三峽區介壽路三段155號","121.400838333333","24.943065","6500900","三峽區"
"237016","649-BX","2018/03/06 18:39:21","新北市三峽區竹崙路108號","121.433358333333","24.9133883333333","6500900","三峽區"
"237010","706-TV","2018/03/06 18:39:31","新北市三峽區國光街350巷14號","121.371771666667","24.94008","6500900","三峽區"
"237005","AKY-6261","2018/03/06 18:39:20","新北市三峽區民生街106號","121.373685","24.9353983333333","6500900","三峽區"
"236070","105-UM","2018/03/06 18:39:40","新北市土城區永豐路157巷29弄6-1號","121.468265","24.9815116666667","6501300","土城區"
"236043","107-UM","2018/03/06 18:39:30","新北市土城區學成路110號","121.449861666667","24.989315","6501300","土城區"
"236079","166-UM","2018/03/06 18:39:28","新北市土城區大暖路27號","121.42301","24.9608916666667","6501300","土城區"
"236031","253-BX","2018/03/06 18:39:31","新北市土城區慶利街30號","121.438928333333","24.9744383333333","6501300","土城區"
"236026","269-VK","2018/03/06 18:39:32","新北市土城區忠義路49號","121.440521666667","24.9690933333333","6501300","土城區"
"236015","270-VK","2018/03/06 18:39:28","新北市土城區清水路207巷23號","121.459766666667","24.9825433333333","6501300","土城區"
"236038","271-VK","2018/03/06 18:39:21","新北市土城區明德路一段291巷19號","121.460471666667","24.97601","6501300","土城區"
"236023","401-BY","2018/03/06 18:39:37","新北市土城區延吉街253巷17號","121.467921666667","24.9841166666667","6501300","土城區"
"236059","912-UM","2018/03/06 18:39:21","新北市土城區中央路四段35號","121.423241666667","24.962045","6501300","土城區"
"236049","913-UM","2018/03/06 18:39:31","新北市土城區明德路一段67號","121.465405","24.984245","6501300","土城區"
"236063","915-UM","2018/03/06 18:39:28","新北市土城區金城路三段207巷8弄23號","121.470463333333","24.9908416666667","6501300","土城區"
"236055","AAC-216","2018/03/06 18:39:32","新北市土城區中華路一段23號","121.446931666667","24.989095","6501300","土城區"
"242046","441-UM","2018/03/06 18:39:31","新北市板橋區大觀路三段50巷49號","121.432395","24.99565","6500500","新莊區"
"242061","362-BY","2018/03/06 18:39:27","新北市新莊區新樹路222號","121.433626666667","25.020365","6500500","新莊區"
"242007","132-UY","2018/03/06 18:39:28","新北市新莊區新泰路528號","121.441988333333","25.0473283333333","6500500","新莊區"
"242056","349-TH","2018/03/06 18:39:23","新北市新莊區環河路636-7號","121.437483333333","25.011725","6500500","新莊區"
"238023","601-UM","2018/03/06 18:39:30","新北市樹林區三福街114號","121.4065","25.0163633333333","6500700","樹林區"
"238019","599-UM","2018/03/06 18:39:25","新北市樹林區中山路二段91號","121.411011666667","24.9815583333333","6500700","樹林區"
"238018","571-TV","2018/03/06 18:39:20","新北市樹林區樹新路72號","121.429183333333","24.9972083333333","6500700","樹林區"
"238024","5061-A6","2018/03/06 18:39:32","新北市樹林區太順街79巷1號","121.416898333333","24.97826","6500700","樹林區"
"238022","KEA-2213","2018/03/06 18:39:32","新北市樹林區中華路190-1號","121.411393333333","24.980495","6500700","樹林區"
"238025","303-VK","2018/03/06 18:39:23","新北市樹林區中山路三段125號","121.398843333333","24.97424","6500700","樹林區"
"238017","283-BY","2018/03/06 18:39:21","新北市樹林區光華街14巷1號","121.41339","25.0031116666667","6500700","樹林區"
"238014","282-BY","2018/03/06 18:39:30","新北市樹林區大安路111巷11號","121.423141666667","24.997615","6500700","樹林區"
"238020","268-VK","2018/03/06 18:38:56","新北市樹林區俊興街244號","121.418045","25.0160916666667","6500700","樹林區"
"238026","172-UY","2018/03/06 18:39:40","新北市樹林區中山路三段186號","121.38753","24.969135","6500700","樹林區"
"239007","AAC-297","2018/03/06 18:39:26","新北市鶯歌區中正一路建德巷26號","121.36474","24.95763","6500800","鶯歌區"
"239008","527-UM","2018/03/06 18:39:35","新北市鶯歌區晨曦街25號","121.33789","24.97681","6500800","鶯歌區"
"239005","526-UM","2018/03/06 18:39:29","新北市鶯歌區鶯桃路二段48號","121.325435","24.9727083333333","6500800","鶯歌區"
"239001","417-VK","2018/03/06 18:39:29","新北市鶯歌區尖山埔路二段57號","121.341805","24.9483566666667","6500800","鶯歌區"
"239003","360-BY","2018/03/06 18:39:26","新北市鶯歌區永和街173號","121.335713333333","24.97019","6500800","鶯歌區"
"239002","359-BY","2018/03/06 18:39:21","新北市鶯歌區中山路230號","121.344553333333","24.95701","6500800","鶯歌區"
"239004","193-VK","2018/03/06 18:39:23","新北市鶯歌區中正三路247巷67弄6號","121.334071666667","24.9363233333333","6500800","鶯歌區"
"221008","489-VK","2018/03/06 18:39:34","新北市汐止區康寧街901號","121.651425","25.0750516666667","6501100","汐止區"
"221036","130-UY","2018/03/06 18:39:36","新北市汐止區南昌街9號","121.663635","25.069605","6501100","汐止區"
"221010","269-BY","2018/03/06 18:39:35","新北市汐止區汐萬路三段260號","121.64388","25.1047166666667","6501100","汐止區"
"221012","278-VK","2018/03/06 18:39:36","新北市汐止區吉祥街27巷2號","121.667231666667","25.08134","6501100","汐止區"
"221023","279-VK","2018/03/06 18:39:38","新北市汐止區康寧街901號","121.651045","25.0752266666667","6501100","汐止區"
"221032","280-BY","2018/03/06 18:39:32","新北市汐止區民權街二段93號","121.619058333333","25.0475133333333","6501100","汐止區"
"221027","281-BY","2018/03/06 18:39:29","新北市汐止區大同路二段595號","121.663526666667","25.0706433333333","6501100","汐止區"
"221029","298-VK","2018/03/06 18:39:26","新北市汐止區樟樹一路144號","121.642351666667","25.0650133333333","6501100","汐止區"
"221021","299-VK","2018/03/06 18:39:37","新北市汐止區連興街121號","121.653825","25.0623466666667","6501100","汐止區"
"221031","353-TW","2018/03/06 18:39:22","新北市汐止區福德一路270號","121.632165","25.0640083333333","6501100","汐止區"
"221035","622-UM","2018/03/06 18:39:27","新北市汐止區新台五路一段79-7號","121.645973333333","25.06239","6501100","汐止區"
"221025","623-UM","2018/03/06 18:39:22","新北市汐止區仁愛路119巷19號","121.662158333333","25.064195","6501100","汐止區"
"221038","646-BX","2018/03/06 18:39:31","新北市汐止區汐萬路一段256巷3號","121.653448333333","25.0746866666667","6501100","汐止區"
"221033","647-BX","2018/03/06 18:39:27","新北市汐止區南勢街1巷1號","121.62706","25.037445","6501100","汐止區"
"221002","707-TV","2018/03/06 18:39:30","新北市汐止區中興路25號","121.63693","25.05965","6501100","汐止區"
"221018","753-BX","2018/03/06 18:39:31","新北市汐止區茄苳路301號","121.673241666667","25.0670333333333","6501100","汐止區"
"220079","145-BY","2018/03/06 18:39:24","新北市板橋區大觀路一段39巷1號","121.448686666667","25.008265","6500100","板橋區"
"220080","200-UY","2018/03/06 18:39:30","新北市板橋區大觀路二段265巷76弄28號","121.44143","24.996745","6500100","板橋區"
"220082","610-BX","2018/03/06 18:39:38","新北市板橋區大觀路三段50巷49號","121.432148333333","24.9957933333333","6500100","板橋區"
"220056","276-BY","2018/03/06 18:39:39","新北市板橋區四川路二段113號","121.45153","24.9943716666667","6500100","板橋區"
"220072","277-BY","2018/03/06 18:39:36","新北市板橋區大觀路三段59巷17弄6-1號","121.437655","24.9953466666667","6500100","板橋區"
"220057","282-UM","2018/03/06 18:39:27","新北市板橋區華東街1-9號","121.448153333333","24.9948733333333","6500100","板橋區"
"220071","283-VK","2018/03/06 18:39:35","新北市板橋區華東街1號","121.448378333333","24.9940916666667","6500100","板橋區"
"220094","285-UM","2018/03/06 18:39:35","新北市板橋區民生路二段148號","121.471163333333","25.01981","6500100","板橋區"
"220083","286-VK","2018/03/06 18:39:29","新北市板橋區大觀路二段153巷46弄1號","121.448685","24.9986416666667","6500100","板橋區"
"220081","287-VK","2018/03/06 18:39:30","新北市板橋區大觀路二段109巷1號","121.447258333333","25.0012366666667","6500100","板橋區"
"220061","293-UM","2018/03/06 18:39:27","新北市板橋區民生路二段120號","121.470501666667","25.01972","6500100","板橋區"
"220084","296-UM","2018/03/06 18:39:21","新北市板橋區大觀路二段108號","121.444161666667","24.9995216666667","6500100","板橋區"
"220075","303-R5","2018/03/06 18:39:27","新北市板橋區華東街310號","121.452748333333","25.0029533333333","6500100","板橋區"
"220064","486-VK","2018/03/06 18:39:35","新北市板橋區縣民大道二段101號","121.466313333333","25.0151466666667","6500100","板橋區"
"220035","560-BX","2018/03/06 18:39:27","新北市板橋區南雅西路二段145巷10號","121.451615","25.0119216666667","6500100","板橋區"
"220055","568-UM","2018/03/06 18:39:38","新北市板橋區板城路421號","121.448108333333","24.99569","6500100","板橋區"
"220063","609-BX","2018/03/06 18:39:23","新北市板橋區民生路二段161巷1號","121.469896666667","25.02002","6500100","板橋區"
"220077","687-BX","2018/03/06 18:39:24","新北市板橋區大觀路二段174巷104弄1號","121.441036666667","25.0014566666667","6500100","板橋區"
"220054","741-BX","2018/03/06 18:39:25","新北市板橋區華東街1-9號","121.448131666667","24.99491","6500100","板橋區"
"220074","895-R6","2018/03/06 18:39:28","新北市板橋區南雅南路二段134號","121.452005","24.99656","6500100","板橋區"
"220073","985-R7","2018/03/06 18:39:30","新北市板橋區貴興路54號","121.456943333333","25.0030733333333","6500100","板橋區"
"220070","AAC-253","2018/03/06 18:39:23","新北市板橋區板城路407號","121.447453333333","24.9952316666667","6500100","板橋區"
