"lineid","car","time","location","longitude","latitude","cityid","cityname"
"234046","148-BY","2018/03/06 20:09:48","新北市永和區成功路二段79號","121.526881666667","24.9993583333333","6500400","永和區"
"234007","207-UY","2018/03/06 20:09:42","新北市永和區仁愛路295號","121.505076666667","25.00909","6500400","永和區"
"234081","298-R6","2018/03/06 20:09:47","新北市永和區國中路109巷1弄1號","121.524073333333","25.0059533333333","6500400","永和區"
"234038","336-UY","2018/03/06 20:09:40","新北市永和區成功路一段47巷3號","121.527381666667","25.0041133333333","6500400","永和區"
"234064","337-UY","2018/03/06 20:09:45","新北市永和區秀朗路二段43號","121.521555","25.0024116666667","6500400","永和區"
"234086","338-UY","2018/03/06 20:09:39","新北市永和區福和路79號","121.522551666667","25.007895","6500400","永和區"
"234070","552-UM","2018/03/06 20:09:46","新北市永和區永貞路10巷8號","121.520415","25.0072883333333","6500400","永和區"
"234017","745-BX","2018/03/06 20:09:53","新北市永和區文化路36號","121.51494","25.0150816666667","6500400","永和區"
"234030","746-BX","2018/03/06 20:09:42","新北市永和區民權路49巷18號","121.52105","24.9973416666667","6500400","永和區"
"234054","KEA-2590","2018/03/06 20:09:35","新北市永和區博愛街19巷2號","121.517625","25.0158766666667","6500400","永和區"
"234013","KEA-2591","2018/03/06 20:09:53","新北市永和區中山路一段240號","121.50774","25.0077333333333","6500400","永和區"
"234061","AAD-866","2018/03/06 20:09:47","新北市永和區安樂路58巷16號","121.515296666667","24.9980866666667","6500400","永和區"
"234042","862-TW","2018/03/06 20:09:36","新北市永和區雙和街28號","121.508898333333","25.002675","6500400","永和區"
"234050","863-TW","2018/03/06 20:09:53","新北市永和區環河西路二段141號","121.505866666667","25.0141816666667","6500400","永和區"
"234026","9371-KE","2018/03/06 20:09:54","新北市永和區保生路55-1號","121.504541666667","25.0108833333333","6500400","永和區"
"234011","9373-KE","2018/03/06 20:09:36","新北市永和區仁愛路352巷120號","121.500218333333","25.00849","6500400","永和區"
"249005","172-UM","2018/03/06 20:09:44","新北市八里區下罟子61-10號","121.386973333333","25.136045","6502300","八里區"
"249001","173-UM","2018/03/06 20:09:41","新北市八里區中華路二段322號","121.403335","25.1479983333333","6502300","八里區"
"249004","303-UY","2018/03/06 20:08:00","新北市八里區中山路一段157巷67號","121.412313333333","25.1577533333333","6502300","八里區"
"249002","305-UY","2018/03/06 20:09:48","新北市五股區成泰路四段24-5號","121.453531666667","25.106955","6502300","八里區"
"249003","593-UM","2018/03/06 20:09:52","新北市八里區中山路二段540巷9弄27號","121.396408333333","25.1465216666667","6502300","八里區"
"248016","026-BX","2018/03/06 20:09:50","新北市五股區成泰路三段577巷132號","121.44812","25.104225","6501500","五股區"
"248008","095-VK","2018/03/06 20:09:46","新北市五股區中興路一段1巷14號","121.469808333333","25.0713333333333","6501500","五股區"
"248020","225-UY","2018/03/06 20:09:47","新北市五股區凌雲路二段25號","121.440915","25.10218","6501500","五股區"
"248012","247-BX","2018/03/06 20:09:43","新北市五股區六合街118號","121.43028","25.0907883333333","6501500","五股區"
"248014","261-SL","2018/03/06 20:09:43","新北市五股區成泰路二段250號","121.440225","25.0871516666667","6501500","五股區"
"248010","272-BY","2018/03/06 20:09:52","新北市五股區成泰路一段7巷66號","121.432563333333","25.067825","6501500","五股區"
"248004","677-BX","2018/03/06 20:09:46","新北市五股區成泰路一段82號","121.435803333333","25.0707833333333","6501500","五股區"
"248002","678-BX","2018/03/06 20:09:42","新北市五股區成泰路三段369-3號","121.448896666667","25.0960016666667","6501500","五股區"
"234023","9380-KE","2018/03/06 20:09:38","新北市永和區中正路702巷20弄1號","121.516528333333","25.01054","6500400","永和區"
"234077","969-R7","2018/03/06 20:09:39","新北市永和區民享街23巷5弄8號","121.51616","24.995685","6500400","永和區"
"234074","AAC-211","2018/03/06 20:09:45","新北市永和區豫溪街155號","121.521236666667","25.0104083333333","6500400","永和區"
"234067","AAC-212","2018/03/06 20:09:55","新北市永和區保平路214巷10弄2號","121.5093","25.0064833333333","6500400","永和區"
"234003","AAC-295","2018/03/06 20:09:40","新北市永和區中正路541號","121.516911666667","25.007965","6500400","永和區"
"243012","AAD-798","2018/03/06 20:09:45","新北市泰山區楓江路59號","121.436031666667","25.06271","6501600","泰山區"
"243011","297-R6","2018/03/06 20:09:37","新北市新莊區丹鳳街34號","121.421598333333","25.0295333333333","6501600","泰山區"
"243015","380-SR","2018/03/06 20:09:53","新北市泰山區明志路一段384號","121.430605","25.0574266666667","6501600","泰山區"
"243014","421-VK","2018/03/06 20:09:48","新北市泰山區明志路一段24號","121.43363","25.0654483333333","6501600","泰山區"
"243010","KEA-2215","2018/03/06 20:09:40","新北市泰山區明志路二段136巷16號","121.426701666667","25.0514483333333","6501600","泰山區"
"243009","KEA-2216","2018/03/06 20:09:45","新北市泰山區泰林路二段116巷3弄2號","121.43523","25.0596066666667","6501600","泰山區"
"243013","646-TV","2018/03/06 20:09:36","新北市泰山區民國街29號","121.425885","25.043725","6501600","泰山區"
"243016","680-BX","2018/03/06 20:09:40","新北市泰山區貴陽街4-1號","121.421665","25.0332433333333","6501600","泰山區"
"222003","436-BY","2018/03/06 20:09:38","新北市深坑區埔新街65號","121.6202","25.002405","6501800","深坑區"
"222002","659-BX","2018/03/06 20:09:53","新北市深坑區北深路三段160號","121.60261","25.0035416666667","6501800","深坑區"
"231041","002-UM","2018/03/06 20:09:52","新北市新店區中正路468號","121.534003333333","24.9794833333333","6500600","新店區"
"231059","046-UY","2018/03/06 20:09:52","新北市新店區安德街60巷27號","121.511136666667","24.9632233333333","6500600","新店區"
"231061","047-UY","2018/03/06 20:09:45","新北市新店區安興路32號","121.515768333333","24.970405","6500600","新店區"
"231060","106-UY","2018/03/06 20:09:41","新北市新店區安康路三段314號","121.487033333333","24.9518416666667","6500600","新店區"
"231051","107-UY","2018/03/06 20:09:38","新北市新店區中央六街8號","121.530175","24.9744016666667","6500600","新店區"
"231053","187-VK","2018/03/06 20:09:53","新北市新店區新烏路三段寶島巷4號","121.551646666667","24.8990566666667","6500600","新店區"
"231050","KEA-2219","2018/03/06 20:09:55","新北市新店區北新路一段90號","121.541908333333","24.96867","6500600","新店區"
"221015","KEA-2785","2018/03/06 20:09:42","新北市汐止區建成路13號","121.66456","25.07256","6501100","汐止區"
"231057","256-BX","2018/03/06 20:09:36","新北市新店區花園一路一段2號","121.55316","24.9324133333333","6500600","新店區"
"231058","3712-VJ","2018/03/06 20:09:50","新北市新店區安和路三段4巷1-3號","121.51845","24.9805116666667","6500600","新店區"
"231056","3713-VJ","2018/03/06 20:09:45","新北市新店區北新路二段29巷3弄1號","121.542236666667","24.9729433333333","6500600","新店區"
"231055","4716-K9","2018/03/06 20:09:40","新北市新店區中華路48巷30號","121.540818333333","24.96922","6500600","新店區"
"231067","4772-VM","2018/03/06 20:09:54","新北市新店區溪洲路6巷28號","121.533936666667","24.9624083333333","6500600","新店區"
"231065","512-UM","2018/03/06 20:09:55","新北市新店區安祥路106巷236號","121.473568333333","24.9596133333333","6500600","新店區"
"231054","513-UM","2018/03/06 20:09:49","新北市新店區檳榔路46號","121.541666666667","24.9636783333333","6500600","新店區"
"231064","515-UM","2018/03/06 20:09:45","新北市新店區安康路二段100巷5號","121.513391666667","24.9635866666667","6500600","新店區"
"231045","617-UM","2018/03/06 20:09:47","新北市新店區北宜路一段57號","121.538348333333","24.9567183333333","6500600","新店區"
"231040","619-UM","2018/03/06 20:09:51","新北市新店區中正路84號","121.543643333333","24.9703383333333","6500600","新店區"
"231042","641-BX","2018/03/06 20:09:48","新北市新店區中興路二段224號","121.54813","24.97519","6500600","新店區"
"231063","645-TV","2018/03/06 20:09:36","新北市新店區黎明路53巷1號","121.50226","24.9487366666667","6500600","新店區"
"231068","718-UY","2018/03/06 20:09:48","新北市新店區寶中路45-3號","121.545253333333","24.9789866666667","6500600","新店區"
"231049","719-UM","2018/03/06 20:09:53","新北市新店區北新路二段97巷9弄1號","121.5422","24.974025","6500600","新店區"
"231048","719-UY","2018/03/06 20:09:51","新北市新店區寶橋路61號","121.545116666667","24.9751216666667","6500600","新店區"
"231062","720-UM","2018/03/06 20:09:37","新北市新店區安康路二段136號","121.512543333333","24.9620683333333","6500600","新店區"
"231044","897-TW","2018/03/06 20:09:46","新北市新店區寶元路一段15巷11號","121.541958333333","24.9871516666667","6500600","新店區"
"231043","899-TW","2018/03/06 20:09:41","新北市新店區民族路188號","121.536836666667","24.976085","6500600","新店區"
"231066","AKT-0513","2018/03/06 20:09:43","新北市新店區安民街206號","121.51724","24.9719916666667","6500600","新店區"
"241011","013-R5","2018/03/06 20:09:55","新北市三重區三和路三段47巷11號","121.495935","25.0716483333333","6500200","三重區"
"241028","022-UY","2018/03/06 20:09:43","新北市三重區仁化街117號","121.494596666667","25.0577733333333","6500200","三重區"
"241008","059-VK","2018/03/06 20:09:38","新北市三重區永福街197巷15-1號","121.478953333333","25.0743866666667","6500200","三重區"
"241009","060-VK","2018/03/06 20:09:27","新北市三重區三和路四段382巷96弄6號","121.478991666667","25.07803","6500200","三重區"
"241015","062-VK","2018/03/06 20:09:52","新北市三重區福德北路24號","121.502271666667","25.0648416666667","6500200","三重區"
"241017","063-VK","2018/03/06 20:09:45","新北市三重區大智街108-2號","121.49307","25.0666583333333","6500200","三重區"
"241024","065-VK","2018/03/06 20:09:52","新北市三重區中正北路308號","121.479503333333","25.069005","6500200","三重區"
"241026","066-VK","2018/03/06 20:09:50","新北市三重區福德南路65巷2號","121.50245","25.0604566666667","6500200","三重區"
"241002","090-VK","2018/03/06 20:09:40","新北市三重區仁義街210號","121.49632","25.08234","6500200","三重區"
"241003","091-VK","2018/03/06 20:09:41","新北市三重區富華街18號","121.489588333333","25.08247","6500200","三重區"
"241030","156-TC","2018/03/06 20:09:44","新北市三重區集美街75巷8號","121.488355","25.0531783333333","6500200","三重區"
"241005","262-UM","2018/03/06 20:09:53","新北市三重區碧華街292號","121.48963","25.083245","6500200","三重區"
"241016","265-UM","2018/03/06 20:09:47","新北市三重區中正北路25巷2號","121.493293333333","25.062775","6500200","三重區"
"241022","267-UM","2018/03/06 20:09:38","新北市三重區新北大道一段66號","121.487263333333","25.0614783333333","6500200","三重區"
"241018","268-UM","2018/03/06 20:09:48","新北市三重區正義北路254號","121.495688333333","25.068435","6500200","三重區"
"241032","269-UM","2018/03/06 20:09:47","新北市三重區捷運路67號","121.483283333333","25.055595","6500200","三重區"
"241013","270-UM","2018/03/06 20:09:53","新北市三重區三和路三段151巷35號","121.493561666667","25.074215","6500200","三重區"
"241025","271-UM","2018/03/06 20:09:51","新北市三重區中正北路237號","121.475646666667","25.0704516666667","6500200","三重區"
"241007","398-BY","2018/03/06 20:09:55","新北市三重區三和路四段111-8號","121.486351666667","25.0774966666667","6500200","三重區"
"241035","462-BY","2018/03/06 20:09:41","新北市三重區文化北路22-2號","121.499051666667","25.0643066666667","6500200","三重區"
"241004","475-VK","2018/03/06 20:09:53","新北市三重區仁愛街400號","121.490743333333","25.0811283333333","6500200","三重區"
"241001","478-VK","2018/03/06 20:09:46","新北市三重區溪尾街24-1號","121.490976666667","25.076345","6500200","三重區"
"241014","543-UM","2018/03/06 20:09:38","新北市三重區長樂街114號","121.501673333333","25.0695083333333","6500200","三重區"
"241023","545-UM","2018/03/06 20:09:49","新北市三重區頂崁街225號","121.477005","25.0681283333333","6500200","三重區"
"241019","KEA-2593","2018/03/06 20:09:39","新北市三重區自強路二段33巷46號","121.490573333333","25.0698333333333","6500200","三重區"
"241006","AAD-863","2018/03/06 20:09:55","新北市三重區車路頭街135號","121.48399","25.0759766666667","6500200","三重區"
"241031","887-TS","2018/03/06 20:07:46","新北市三重區重新路三段157號","121.48962","25.0585733333333","6500200","三重區"
"241012","941-UM","2018/03/06 20:09:42","新北市三重區仁愛街125巷95號","121.49834","25.076155","6500200","三重區"
"241029","942-UM","2018/03/06 20:09:39","新北市三重區光明路32巷36號","121.492213333333","25.058805","6500200","三重區"
"241033","AAC-255","2018/03/06 20:09:54","新北市三重區光復路一段68巷4號","121.471758333333","25.0493116666667","6500200","三重區"
"235066","003-UY","2018/03/06 20:09:54","新北市中和區水源路128號","121.507661666667","25.0031683333333","6500300","中和區"
"235063","006-UY","2018/03/06 20:08:55","新北市五股區中直路15-2號","121.4234","25.111035","6500300","中和區"
"235039","097-UM","2018/03/06 20:09:54","新北市中和區立人街24-5號","121.518963333333","24.9941416666667","6500300","中和區"
"235065","098-UM","2018/03/06 20:09:47","新北市中和區永和路90巷2弄22號","121.498121666667","25.0054966666667","6500300","中和區"
"235040","150-BY","2018/03/06 20:09:37","新北市中和區保健路33巷5號","121.508966666667","24.997985","6500300","中和區"
"235072","301-VK","2018/03/06 20:09:49","新北市中和區連城路215號","121.49438","24.9978683333333","6500300","中和區"
"235068","377-QA","2018/03/06 20:09:21","新北市中和區福美路256巷16弄18號","121.498578333333","25.0060416666667","6500300","中和區"
"235050","4979-A6","2018/03/06 20:09:45","新北市中和區安樂路19號","121.511763333333","24.9922216666667","6500300","中和區"
"235069","4980-A6","2018/03/06 20:09:35","新北市中和區景新街64巷7弄8號","121.504345","24.9985683333333","6500300","中和區"
"235070","911-UM","2018/03/06 20:09:44","新北市中和區中正路250號","121.495681666667","24.99395","6500300","中和區"
"235051","157-BY","2018/03/06 20:09:53","新北市中和區景安路249號","121.504123333333","24.9906216666667","6500300","中和區"
"235059","AAC-215","2018/03/06 20:09:48","新北市中和區圓通路335巷33弄33號","121.493711666667","24.988805","6500300","中和區"
"220068","013-TV","2018/03/06 20:09:53","新北市板橋區中山路二段332號","121.481216666667","25.01984","6500100","板橋區"
"220067","075-UY","2018/03/06 20:09:44","新北市板橋區中山路一段206巷33號","121.470396666667","25.012985","6500100","板橋區"
"220069","AAD-861","2018/03/06 20:09:36","新北市板橋區大明街18-5號","121.458753333333","25.0029333333333","6500100","板橋區"
"247024","893-R6","2018/03/06 20:09:55","新北市蘆洲區光榮路120巷8弄35號","121.464816666667","25.0880133333333","6501400","蘆洲區"
"247014","546-UM","2018/03/06 20:09:54","新北市蘆洲區中山二路225號","121.470311666667","25.08008","6501400","蘆洲區"
"247022","500-BY","2018/03/06 20:09:36","新北市蘆洲區三民路120號","121.47123","25.08719","6501400","蘆洲區"
"247012","339-TH","2018/03/06 20:09:54","新北市蘆洲區民族路248號","121.479191666667","25.0887266666667","6501400","蘆洲區"
"247004","337-TH","2018/03/06 20:09:47","新北市蘆洲區永安南路二段328巷17弄6號","121.456355","25.0840183333333","6501400","蘆洲區"
"247006","336-TH","2018/03/06 20:09:45","新北市蘆洲區永安南路二段16巷17弄4號","121.46765","25.0778833333333","6501400","蘆洲區"
"247018","335-TH","2018/03/06 20:09:42","新北市蘆洲區民族路312號","121.477373333333","25.0902","6501400","蘆洲區"
"247008","056-VK","2018/03/06 20:09:48","新北市蘆洲區集賢路401號","121.480103333333","25.0816416666667","6501400","蘆洲區"
"247010","053-VK","2018/03/06 20:09:37","新北市蘆洲區中山一路74巷55號","121.479898333333","25.08156","6501400","蘆洲區"
"247016","007-UY","2018/03/06 20:09:50","新北市蘆洲區光華路134號","121.466351666667","25.0823566666667","6501400","蘆洲區"
"247002","002-UY","2018/03/06 20:09:43","新北市蘆洲區永康街2巷6號","121.459331666667","25.0861183333333","6501400","蘆洲區"
"247020","001-UY","2018/03/06 20:09:42","新北市蘆洲區民義街106巷1號","121.473848333333","25.090805","6501400","蘆洲區"
"222001","KEA-2212","2018/03/06 20:09:37","新北市深坑區北深路三段193號","121.60114","25.00364","6501800","深坑區"
"208002","KEA-2872","2018/03/06 20:09:42","新北市金山區環金路460號","121.630313333333","25.22419","6502700","金山區"
"208003","665-BX","2018/03/06 20:09:37","新北市金山區永興里跳石4號","121.633403333333","25.2556683333333","6502700","金山區"
"251004","009-UM","2018/03/06 20:08:58","新北市淡水區民族路29巷60號","121.461891666667","25.1367633333333","6501000","淡水區"
"251013","179-VK","2018/03/06 20:09:38","新北市淡水區奎柔山路456號","121.463665","25.2046033333333","6501000","淡水區"
"251014","180-VK","2018/03/06 20:09:34","新北市淡水區石頭厝3號","121.458701666667","25.235555","6501000","淡水區"
"251008","181-VK","2018/03/06 20:09:39","新北市淡水區淡海路72巷30弄17號","121.425021666667","25.18262","6501000","淡水區"
"251015","182-VK","2018/03/06 20:09:49","新北市淡水區商工路149號","121.447353333333","25.188755","6501000","淡水區"
"251010","413-VK","2018/03/06 20:09:46","新北市淡水區新市二路二段2號","121.425256666667","25.196355","6501000","淡水區"
"251012","441-VK","2018/03/06 20:09:50","新北市淡水區淡金路三段224號","121.448945","25.204845","6501000","淡水區"
"251016","442-VK","2018/03/06 20:09:54","新北市淡水區番子田20-4號","121.457713333333","25.2283","6501000","淡水區"
"251006","561-UM","2018/03/06 20:09:43","新北市淡水區北新路141巷60弄11號","121.448168333333","25.179655","6501000","淡水區"
"251009","575-R6","2018/03/06 20:09:36","新北市淡水區清水街38號","121.444711666667","25.1703333333333","6501000","淡水區"
"251007","577-R6","2018/03/06 20:09:40","新北市淡水區濱海路三段148巷50弄76號","121.430976666667","25.19081","6501000","淡水區"
"251002","672-BX","2018/03/06 20:09:45","新北市淡水區中正路284號","121.43772","25.171895","6501000","淡水區"
"207003","550-UM","2018/03/06 20:09:46","新北市萬里區大鵬里萬里加投166號","121.643381666667","25.2155583333333","6502800","萬里區"
"207004","225-TW","2018/03/06 20:09:46","新北市萬里區北基里孝七街29號","121.682511666667","25.17662","6502800","萬里區"
"252002","178-VK","2018/03/06 20:09:42","新北市三芝區中正路一段68號","121.503886666667","25.257675","6502100","三芝區"
"252001","292-VK","2018/03/06 20:09:37","新北市三芝區公正街9號","121.499668333333","25.2575983333333","6502100","三芝區"
"237012","275-BY","2018/03/06 20:09:48","新北市三峽區安溪路313號","121.37113","24.9306366666667","6500900","三峽區"
"237008","302-VK","2018/03/06 20:09:42","新北市三峽區中華路74-5號","121.371496666667","24.929265","6500900","三峽區"
"237006","5529-G3","2018/03/06 20:09:38","新北市三峽區中正路二段269號","121.365948333333","24.9117683333333","6500900","三峽區"
"237016","649-BX","2018/03/06 20:09:41","新北市三峽區介壽路二段138巷1弄130-1號","121.39914","24.9311433333333","6500900","三峽區"
"237005","AKY-6261","2018/03/06 20:09:40","新北市三峽區三樹路98巷113號","121.382728333333","24.9387183333333","6500900","三峽區"
"236070","105-UM","2018/03/06 20:09:39","新北市土城區中央路三段179號","121.431451666667","24.965235","6501300","土城區"
"236043","107-UM","2018/03/06 20:09:50","新北市土城區學成路25號","121.45293","24.9868466666667","6501300","土城區"
"236079","166-UM","2018/03/06 20:09:48","新北市土城區中山路41號","121.420173333333","24.9627616666667","6501300","土城區"
"236031","253-BX","2018/03/06 20:09:51","新北市土城區中央路一段143巷3號","121.447048333333","24.9878066666667","6501300","土城區"
"236026","269-VK","2018/03/06 20:09:52","新北市土城區裕生路77號","121.446983333333","24.984425","6501300","土城區"
"236015","270-VK","2018/03/06 20:09:48","新北市土城區德興街137號","121.455141666667","24.9917316666667","6501300","土城區"
"236038","271-VK","2018/03/06 20:09:40","新北市土城區延吉街355號","121.464553333333","24.9840116666667","6501300","土城區"
"236023","401-BY","2018/03/06 20:09:36","新北市土城區延吉街111巷1弄1號","121.471461666667","24.98643","6501300","土城區"
"236059","912-UM","2018/03/06 20:09:41","新北市土城區中央路二段144號","121.442013333333","24.9771716666667","6501300","土城區"
"236049","913-UM","2018/03/06 20:09:43","新北市土城區金城路三段75號","121.466503333333","24.98715","6501300","土城區"
"236063","915-UM","2018/03/06 20:09:48","新北市土城區立德路135巷12號","121.464913333333","24.9869333333333","6501300","土城區"
"236055","AAC-216","2018/03/06 20:09:52","新北市土城區中華路一段201號","121.443026666667","24.9853033333333","6501300","土城區"
"242029","986-R7","2018/03/06 20:09:37","新北市新莊區中榮街152巷53號","121.44585","25.0536816666667","6500500","新莊區"
"242051","751-BX","2018/03/06 20:09:51","新北市新莊區民安西路172巷5號","121.425543333333","25.015985","6500500","新莊區"
"242025","615-BX","2018/03/06 20:09:53","新北市新莊區五權一路12巷25弄2號","121.458153333333","25.0640383333333","6500500","新莊區"
"242023","613-BX","2018/03/06 20:09:55","新北市新莊區化成路638號","121.466098333333","25.0553433333333","6500500","新莊區"
"242027","612-BX","2018/03/06 20:09:39","新北市新莊區幸福路807號","121.445903333333","25.0489566666667","6500500","新莊區"
"242039","566-BX","2018/03/06 20:09:50","新北市新莊區民安西路110號","121.426828333333","25.0188383333333","6500500","新莊區"
"242044","497-BY","2018/03/06 20:09:39","新北市新莊區中正路895-34號","121.412288333333","25.0213883333333","6500500","新莊區"
"242054","440-UM","2018/03/06 20:09:53","新北市新莊區西盛街387巷34弄5號","121.42857","25.012925","6500500","新莊區"
"242034","415-TV","2018/03/06 20:09:39","新北市新莊區建中街105號","121.446578333333","25.0361083333333","6500500","新莊區"
"242042","400-BY","2018/03/06 20:09:48","新北市新莊區壽山路61-1號","121.410246666667","25.0326583333333","6500500","新莊區"
"242061","362-BY","2018/03/06 20:09:51","新北市新莊區瓊林路96-5號","121.44401","25.0271633333333","6500500","新莊區"
"242058","353-BY","2018/03/06 20:09:57","新北市新莊區龍安路282號","121.422403333333","25.01916","6500500","新莊區"
"242007","132-UY","2018/03/06 20:09:51","新北市新莊區思源路419巷1弄1號","121.459323333333","25.0524466666667","6500500","新莊區"
"242037","133-UY","2018/03/06 20:09:47","新北市新莊區後港一路130巷37號","121.430005","25.0259333333333","6500500","新莊區"
"242021","135-UY","2018/03/06 20:09:49","新北市新莊區中興街11號","121.449135","25.036135","6500500","新莊區"
"242048","172-VK","2018/03/06 20:09:38","新北市新莊區四維路152巷14號","121.422195","25.0230133333333","6500500","新莊區"
"242009","173-VK","2018/03/06 20:09:38","新北市新莊區昌盛街35巷2弄1號","121.454136666667","25.0503266666667","6500500","新莊區"
"242002","176-VK","2018/03/06 20:09:50","新北市新莊區中正路145號","121.459515","25.038245","6500500","新莊區"
"242013","346-TH","2018/03/06 20:09:52","新北市新莊區幸福路710巷1弄14號","121.44907","25.04969","6500500","新莊區"
"242019","348-TH","2018/03/06 20:09:57","新北市新莊區博愛路2巷2號","121.456595","25.04279","6500500","新莊區"
"242056","349-TH","2018/03/06 20:09:46","新北市新莊區新莊路649巷15弄18-1號","121.445335","25.03148","6500500","新莊區"
"242017","350-TH","2018/03/06 20:09:43","新北市新莊區中港一街50號","121.450456666667","25.04551","6500500","新莊區"
"242011","351-TH","2018/03/06 20:09:50","新北市新莊區中信街37巷4弄12號","121.449756666667","25.050245","6500500","新莊區"
"238021","KEA-2539","2018/03/06 20:09:42","新北市樹林區佳園路三段99巷71號","121.393836666667","24.9521066666667","6500700","樹林區"
"221008","489-VK","2018/03/06 20:09:54","新北市汐止區忠三街9巷28-1號","121.624646666667","25.0801716666667","6501100","汐止區"
"221036","130-UY","2018/03/06 20:09:36","新北市汐止區新台五路二段37號","121.662995","25.0662933333333","6501100","汐止區"
"221010","269-BY","2018/03/06 20:09:50","新北市汐止區八連路二段36巷10號","121.637385","25.0943783333333","6501100","汐止區"
"221012","278-VK","2018/03/06 20:09:35","新北市汐止區汐平路二段15號","121.695846666667","25.0643","6501100","汐止區"
"221023","279-VK","2018/03/06 20:09:38","新北市汐止區明峰街298巷10弄1號","121.62497","25.0689033333333","6501100","汐止區"
"221032","280-BY","2018/03/06 20:09:52","新北市汐止區弘道街8巷1弄2號","121.617041666667","25.0483216666667","6501100","汐止區"
"221027","281-BY","2018/03/06 20:09:49","新北市汐止區光明街28號","121.660198333333","25.0687433333333","6501100","汐止區"
"221029","298-VK","2018/03/06 20:09:46","新北市汐止區樟樹一路119巷8-6號","121.641306666667","25.0644233333333","6501100","汐止區"
"221021","299-VK","2018/03/06 20:09:37","新北市汐止區水源路一段250號","121.654131666667","25.06014","6501100","汐止區"
"221031","353-TW","2018/03/06 20:09:49","新北市汐止區原興路72號","121.632456666667","25.06594","6501100","汐止區"
"221035","622-UM","2018/03/06 20:09:41","新北市汐止區長江街79巷10號","121.657581666667","25.072725","6501100","汐止區"
"221025","623-UM","2018/03/06 20:09:42","新北市汐止區仁愛路1-6號","121.659125","25.0646783333333","6501100","汐止區"
"221038","646-BX","2018/03/06 20:09:51","新北市汐止區忠孝東路510號","121.666796666667","25.0753683333333","6501100","汐止區"
"221033","647-BX","2018/03/06 20:09:47","新北市汐止區東勢街201巷100號","121.63368","25.0431183333333","6501100","汐止區"
"221002","707-TV","2018/03/06 20:09:50","新北市汐止區中興路62號","121.635203333333","25.061195","6501100","汐止區"
"221018","753-BX","2018/03/06 20:09:51","新北市汐止區茄苳路315號","121.673666666667","25.0667183333333","6501100","汐止區"
"220098","257-TC","2018/03/06 20:09:21","新北市板橋區新海路72巷5弄36號","121.46154","25.0230916666667","6500100","板橋區"
"220072","277-BY","2018/03/06 20:09:36","新北市板橋區篤行路一段10號","121.432168333333","24.9954583333333","6500100","板橋區"
"220101","280-UM","2018/03/06 20:09:44","新北市板橋區莒光路171巷1弄18-3號","121.47451","25.0247033333333","6500100","板橋區"
"220071","283-VK","2018/03/06 20:09:54","新北市板橋區廣權路127號","121.46554","24.9932116666667","6500100","板橋區"
"220083","286-VK","2018/03/06 20:09:49","新北市板橋區僑中二街90巷5號","121.446101666667","25.009185","6500100","板橋區"
"220081","287-VK","2018/03/06 20:09:50","新北市板橋區僑中一街124巷18弄45號","121.447978333333","25.0136583333333","6500100","板橋區"
"220061","293-UM","2018/03/06 20:09:47","新北市板橋區中山路一段263號","121.468501666667","25.0132816666667","6500100","板橋區"
"220084","296-UM","2018/03/06 20:09:41","新北市板橋區大觀路二段37巷282-17號","121.452021666667","25.00063","6500100","板橋區"
"220053","299-UM","2018/03/06 20:09:44","新北市板橋區中山路二段273號","121.477671666667","25.0179716666667","6500100","板橋區"
"242015","281-VK","2018/03/06 20:09:45","新北市新莊區中平路26巷53號","121.44734","25.0435583333333","6500500","新莊區"
"220092","307-R5","2018/03/06 20:06:21","新北市板橋區文化路一段45巷9號","121.460183333333","25.013815","6500100","板橋區"
"220064","486-VK","2018/03/06 20:09:55","新北市板橋區長安街333號","121.474456666667","25.01231","6500100","板橋區"
"220089","487-VK","2018/03/06 20:09:45","新北市板橋區互助街84號","121.460508333333","25.02639","6500100","板橋區"
"242032","280-VK","2018/03/06 20:09:50","新北市新莊區忠孝街29巷20號","121.44362","25.0363583333333","6500500","新莊區"
"220088","491-VK","2018/03/06 20:09:47","新北市板橋區民治街52巷1號","121.479535","25.0331683333333","6500100","板橋區"
"220103","561-BX","2018/03/06 20:09:51","新北市板橋區自由路26巷13號","121.466165","25.0225883333333","6500100","板橋區"
"220055","568-UM","2018/03/06 20:09:38","新北市板橋區仁愛路75號","121.460953333333","24.9997516666667","6500100","板橋區"
"220091","637-BX","2018/03/06 20:09:43","新北市板橋區萬板路812-1號","121.48359","25.0278116666667","6500100","板橋區"
"220093","689-BX","2018/03/06 20:09:49","新北市板橋區長江路一段134號","121.460465","25.0300583333333","6500100","板橋區"
"220054","741-BX","2018/03/06 20:09:52","新北市板橋區忠孝路忠義巷9弄82-2號","121.46497","25.0054516666667","6500100","板橋區"
"220102","KEA-2699","2018/03/06 20:09:52","新北市板橋區懷德街78巷22號","121.477603333333","25.0314166666667","6500100","板橋區"
"220090","830-TW","2018/03/06 20:09:48","新北市板橋區新海路113號","121.461101666667","25.0227233333333","6500100","板橋區"
"220074","895-R6","2018/03/06 20:09:48","新北市板橋區府中路22號","121.459561666667","25.0096533333333","6500100","板橋區"
"220073","985-R7","2018/03/06 20:09:50","新北市板橋區僑中一街124巷61-62號","121.445985","25.020185","6500100","板橋區"
"220097","AAC-210","2018/03/06 20:09:37","新北市板橋區光正街9巷11號","121.462641666667","25.0164933333333","6500100","板橋區"
"220070","AAC-253","2018/03/06 20:09:43","新北市板橋區四川路二段245巷51號","121.452066666667","24.9924166666667","6500100","板橋區"
