"lineid","car","time","location","longitude","latitude","cityid","cityname"
"234013","KEA-2591","2018/03/06 20:59:53","新北市永和區福和路1號","121.526298333333","25.0096933333333","6500400","永和區"
"234074","AAC-211","2018/03/06 20:59:25","新北市中和區成功路97巷18弄3號","121.527525","24.99185","6500400","永和區"
"244018","402-UM","2018/03/06 20:48:16","新北市林口區粉寮69號","121.405105","25.0907866666667","6501700","林口區"
"231059","046-UY","2018/03/06 20:59:40","新北市新店區僑信路104號","121.500065","24.9473116666667","6500600","新店區"
"231061","047-UY","2018/03/06 20:59:45","新北市新店區永安街60號","121.518915","24.9868866666667","6500600","新店區"
"231060","106-UY","2018/03/06 20:59:41","新北市新店區安康路三段391號","121.483501666667","24.9502083333333","6500600","新店區"
"231051","107-UY","2018/03/06 20:59:59","新北市新店區中正路663巷1弄2號","121.532963333333","24.9900033333333","6500600","新店區"
"231053","187-VK","2018/03/06 20:59:53","新北市新店區北新路一段2-18號","121.538456666667","24.9600883333333","6500600","新店區"
"231050","KEA-2219","2018/03/06 20:59:55","新北市新店區三民路38號","121.536281666667","24.9714133333333","6500600","新店區"
"231058","3712-VJ","2018/03/06 20:59:50","新北市新店區薏仁坑路6-3號","121.499623333333","24.9587266666667","6500600","新店區"
"231067","4772-VM","2018/03/06 20:59:54","新北市新店區安德街148巷37號","121.507478333333","24.9607333333333","6500600","新店區"
"231065","512-UM","2018/03/06 20:59:50","新北市新店區安祥路67巷2號","121.483766666667","24.9595933333333","6500600","新店區"
"231054","513-UM","2018/03/06 20:59:46","新北市新店區五峰路28號","121.543911666667","24.9691383333333","6500600","新店區"
"231064","515-UM","2018/03/06 20:59:45","新北市新店區安民街300號","121.517806666667","24.9737316666667","6500600","新店區"
"231040","619-UM","2018/03/06 20:59:42","新北市新店區中正路114號","121.542495","24.97108","6500600","新店區"
"231042","641-BX","2018/03/06 20:59:48","新北市新店區寶興路60巷3號","121.549956666667","24.971815","6500600","新店區"
"231063","645-TV","2018/03/06 20:59:56","新北市新店區玫瑰路34號","121.49557","24.94997","6500600","新店區"
"231068","718-UY","2018/03/06 20:59:48","新北市新店區寶中路69號","121.547416666667","24.980525","6500600","新店區"
"231048","719-UY","2018/03/06 20:59:51","新北市新店區文化路74號","121.544705","24.9817566666667","6500600","新店區"
"231062","720-UM","2018/03/06 20:59:45","新北市新店區如意街45號","121.493418333333","24.94831","6500600","新店區"
"231043","899-TW","2018/03/06 20:59:41","新北市新店區中正路435號","121.534055","24.97843","6500600","新店區"
"231066","AKT-0513","2018/03/06 20:59:43","新北市新店區柴埕路38-8號","121.513341666667","24.9649533333333","6500600","新店區"
"241011","013-R5","2018/03/06 20:59:55","新北市三重區秀江街119號","121.499706666667","25.072195","6500200","三重區"
"241028","022-UY","2018/03/06 20:59:43","新北市三重區過圳街7巷1號","121.489503333333","25.058625","6500200","三重區"
"241008","059-VK","2018/03/06 20:59:38","新北市三重區力行路二段162巷3號","121.482751666667","25.0765866666667","6500200","三重區"
"241009","060-VK","2018/03/06 20:59:47","新北市三重區三和路四段386號","121.482261666667","25.0790516666667","6500200","三重區"
"241015","062-VK","2018/03/06 20:59:52","新北市三重區福德北路61號","121.502118333333","25.0655116666667","6500200","三重區"
"241017","063-VK","2018/03/06 20:59:45","新北市三重區國隆路30-1號","121.49215","25.06446","6500200","三重區"
"241024","065-VK","2018/03/06 20:59:52","新北市三重區國道路一段58巷20號","121.481315","25.0721283333333","6500200","三重區"
"241026","066-VK","2018/03/06 20:59:50","新北市三重區文化南路45號","121.500215","25.061425","6500200","三重區"
"241002","090-VK","2018/03/06 20:59:51","新北市三重區五華街1巷2號","121.49556","25.0797033333333","6500200","三重區"
"241003","091-VK","2018/03/06 20:59:41","新北市三重區進安街198號","121.493931666667","25.0859833333333","6500200","三重區"
"241030","156-TC","2018/03/06 20:59:44","新北市三重區中正南路287號","121.49299","25.0520716666667","6500200","三重區"
"241005","262-UM","2018/03/06 20:59:53","新北市三重區三信路182號","121.488008333333","25.0861366666667","6500200","三重區"
"241016","265-UM","2018/03/06 20:59:47","新北市三重區信義西街138號","121.495648333333","25.0643183333333","6500200","三重區"
"241022","267-UM","2018/03/06 20:59:38","新北市三重區重陽路二段19巷10號","121.48788","25.0624166666667","6500200","三重區"
"241018","268-UM","2018/03/06 20:59:48","新北市三重區自強路一段155-1號","121.49372","25.06725","6500200","三重區"
"241032","269-UM","2018/03/06 20:59:48","新北市三重區興華街130號","121.48332","25.0597366666667","6500200","三重區"
"241013","270-UM","2018/03/06 20:59:53","新北市三重區仁愛街127號","121.495568333333","25.0748516666667","6500200","三重區"
"241025","271-UM","2018/03/06 20:59:54","新北市三重區貴陽街18-1號","121.484175","25.0619566666667","6500200","三重區"
"241007","398-BY","2018/03/06 20:59:55","新北市三重區三和路四段145巷64號","121.485745","25.0789683333333","6500200","三重區"
"241004","475-VK","2018/03/06 20:59:53","新北市三重區仁愛街420號","121.4904","25.0814016666667","6500200","三重區"
"241001","478-VK","2018/03/06 20:59:46","新北市三重區三和路四段140號","121.48849","25.075425","6500200","三重區"
"241014","543-UM","2018/03/06 20:59:38","新北市三重區長榮路75號","121.502526666667","25.0690466666667","6500200","三重區"
"241023","545-UM","2018/03/06 20:59:49","新北市三重區洛陽街45巷15號","121.482428333333","25.063705","6500200","三重區"
"241019","KEA-2593","2018/03/06 20:59:39","新北市三重區三張街104號","121.487886666667","25.0699316666667","6500200","三重區"
"241006","AAD-863","2018/03/06 20:59:35","新北市三重區永福街52號","121.48167","25.0780466666667","6500200","三重區"
"241031","887-TS","2018/03/06 20:59:45","新北市三重區重陽路一段113巷2弄2號","121.48751","25.0599283333333","6500200","三重區"
"241012","941-UM","2018/03/06 20:59:42","新北市三重區仁信街27號","121.501278333333","25.075545","6500200","三重區"
"241029","942-UM","2018/03/06 20:59:58","新北市三重區正義南路107號","121.498245","25.0585283333333","6500200","三重區"
"241033","AAC-255","2018/03/06 20:59:54","新北市三重區光復路二段73號","121.472115","25.0568233333333","6500200","三重區"
"235069","4980-A6","2018/03/06 20:59:48","新北市中和區連城路469巷70弄18號","121.482791666667","24.9938466666667","6500300","中和區"
"247024","893-R6","2018/03/06 20:59:55","新北市蘆洲區光明路20號","121.461235","25.086365","6501400","蘆洲區"
"247014","546-UM","2018/03/06 20:59:54","新北市蘆洲區中山二路36巷33號","121.474105","25.0833416666667","6501400","蘆洲區"
"247022","500-BY","2018/03/06 20:59:55","新北市蘆洲區中正路275號","121.467118333333","25.0877216666667","6501400","蘆洲區"
"247012","339-TH","2018/03/06 20:59:54","新北市蘆洲區民權路5號","121.47668","25.0857183333333","6501400","蘆洲區"
"247004","337-TH","2018/03/06 20:59:45","新北市蘆洲區永安南路二段268號","121.458646666667","25.08075","6501400","蘆洲區"
"247006","336-TH","2018/03/06 20:59:44","新北市蘆洲區永安南路二段16巷8號","121.467738333333","25.07723","6501400","蘆洲區"
"247018","335-TH","2018/03/06 20:59:42","新北市蘆洲區民權路132-2號","121.473261666667","25.088825","6501400","蘆洲區"
"247008","056-VK","2018/03/06 20:59:48","新北市蘆洲區民生街72號","121.472926666667","25.0790383333333","6501400","蘆洲區"
"247010","053-VK","2018/03/06 20:59:37","新北市蘆洲區鷺江街76號","121.476918333333","25.0838916666667","6501400","蘆洲區"
"247016","007-UY","2018/03/06 20:59:50","新北市蘆洲區正和街79號","121.468356666667","25.0808933333333","6501400","蘆洲區"
"247002","002-UY","2018/03/06 20:59:56","新北市蘆洲區永樂街38巷40號","121.458413333333","25.0899783333333","6501400","蘆洲區"
"247020","001-UY","2018/03/06 20:59:42","新北市蘆洲區民族路375號","121.47068","25.0909966666667","6501400","蘆洲區"
"222001","KEA-2212","2018/03/06 20:59:37","新北市深坑區北深路三段25巷12-1號","121.608988333333","25.0006583333333","6501800","深坑區"
"251001","011-UM","2018/03/06 20:59:43","新北市淡水區淡金路二段147號","121.449691666667","25.1828666666667","6501000","淡水區"
"251013","179-VK","2018/03/06 20:59:38","新北市淡水區中洲(子)6號","121.469803333333","25.2000483333333","6501000","淡水區"
"251014","180-VK","2018/03/06 20:59:53","新北市淡水區淡金路五段87號","121.455276666667","25.2343816666667","6501000","淡水區"
"251015","182-VK","2018/03/06 20:59:49","新北市淡水區淡金路四段542巷17號","121.452686666667","25.2270933333333","6501000","淡水區"
"251010","413-VK","2018/03/06 20:59:46","新北市淡水區中正路一段116-3號","121.423911666667","25.1787283333333","6501000","淡水區"
"251012","441-VK","2018/03/06 20:59:50","新北市淡水區淡金路五段72號","121.4546","25.2335783333333","6501000","淡水區"
"251016","442-VK","2018/03/06 20:59:54","新北市淡水區牛埔子10-1號","121.449973333333","25.2184333333333","6501000","淡水區"
"251005","443-VK","2018/03/06 20:59:34","新北市淡水區學府路71號","121.448315","25.16991","6501000","淡水區"
"251006","561-UM","2018/03/06 20:59:43","新北市淡水區中正路二段31號","121.419346666667","25.1818616666667","6501000","淡水區"
"251009","575-R6","2018/03/06 20:59:56","新北市淡水區民族路112巷70號","121.461736666667","25.1339583333333","6501000","淡水區"
"251007","577-R6","2018/03/06 20:59:40","新北市淡水區仁愛街2巷14號","121.446381666667","25.1708483333333","6501000","淡水區"
"251011","650-BX","2018/03/06 20:59:37","新北市淡水區新民街226巷2號","121.436215","25.1806083333333","6501000","淡水區"
"251002","672-BX","2018/03/06 20:59:45","新北市淡水區水源街一段141號","121.447198333333","25.1719333333333","6501000","淡水區"
"251003","673-BX","2018/03/06 20:59:43","新北市淡水區新春街146-8號","121.442406666667","25.1814216666667","6501000","淡水區"
"242051","751-BX","2018/03/06 20:59:51","新北市新莊區民安東路122-1號","121.430186666667","25.0207083333333","6500500","新莊區"
"242061","362-BY","2018/03/06 20:59:51","新北市五股區凌雲路一段21號","121.452811666667","25.1003233333333","6500500","新莊區"
"221027","281-BY","2018/03/06 20:59:49","新北市汐止區汐萬路一段256巷3號","121.653325","25.0746333333333","6501100","汐止區"
"221029","298-VK","2018/03/06 20:59:46","新北市汐止區康寧街901號","121.651648333333","25.0749066666667","6501100","汐止區"
"220101","280-UM","2018/03/06 20:59:44","新北市八里區中山路三段409號","121.368716666667","25.1344733333333","6500100","板橋區"
"220091","637-BX","2018/03/06 20:59:43","新北市五股區中興路三段2巷10號","121.44804","25.0832066666667","6500100","板橋區"
"220070","AAC-253","2018/03/06 20:59:43","新北市八里區中山路三段409號","121.368745","25.134275","6500100","板橋區"
