"lineid","car","time","location","longitude","latitude","cityid","cityname"
"247010","053-VK","2018/03/06 22:29:17","新北市八里區荖阡坑路20-9號","121.398448333333","25.1365716666667","6501400","蘆洲區"
"251004","009-UM","2018/03/06 22:12:50","新北市淡水區民族路33號","121.462348333333","25.1357933333333","6501000","淡水區"
"251008","181-VK","2018/03/06 22:29:18","新北市淡水區學府路104號","121.44984","25.171875","6501000","淡水區"
"251010","413-VK","2018/03/06 22:29:26","新北市淡水區沙崙路189號","121.424623333333","25.1841066666667","6501000","淡水區"
"251007","577-R6","2018/03/06 22:29:20","新北市淡水區北新路186-3號","121.449636666667","25.1787133333333","6501000","淡水區"
"251011","650-BX","2018/03/06 22:29:17","新北市淡水區水碓街7號","121.443201666667","25.1771933333333","6501000","淡水區"
