"lineid","car","time","location","longitude","latitude","cityid","cityname"
"248005","653-BX","2018/08/09 08:19:27","新北市五股區明德路10號","121.433363333333","25.07173","6501500","五股區"
"232001","290-BY","2018/08/09 08:19:26","新北市坪林區坪雙路一段115號","121.728166666667","24.9482266666667","6502000","坪林區"
"232014","291-BY","2018/08/09 08:19:24","新北市坪林區北宜路七段338號","121.69688","24.93488","6502000","坪林區"
"232007","758-BX","2018/08/09 08:19:21","新北市坪林區北宜路八段558號","121.716871666667","24.9088283333333","6502000","坪林區"
"244016","069-UM","2018/08/09 08:19:36","新北市林口區文化一路二段200號","121.383013333333","25.08082","6501700","林口區"
"244006","080-UY","2018/08/09 08:19:36","新北市林口區菁埔10-5號","121.378603333333","25.0968116666667","6501700","林口區"
"244003","248-BX","2018/08/09 08:19:28","新北市林口區下福里16號","121.311725","25.1112766666667","6501700","林口區"
"244018","403-UM","2018/08/09 08:19:38","新北市林口區四維路156-1號","121.380666666667","25.0753066666667","6501700","林口區"
"244012","KEA-2802","2018/08/09 08:19:37","新北市林口區中正路465號","121.384091666667","25.077725","6501700","林口區"
"244008","410-SL","2018/08/09 08:19:32","新北市林口區中北三街136號","121.383683333333","25.0838","6501700","林口區"
"244022","483-VK","2018/08/09 08:19:28","新北市林口區隆林街18號","121.388901666667","25.0753916666667","6501700","林口區"
"244010","657-BX","2018/08/09 08:19:34","新北市林口區佳林路219號","121.383741666667","25.0766316666667","6501700","林口區"
"244024","837-TS","2018/08/09 08:19:19","新北市林口區文化三路一段339號","121.3645","25.0729216666667","6501700","林口區"
"244020","838-TS","2018/08/09 08:19:37","新北市林口區粉寮路二段46-1號","121.403633333333","25.087165","6501700","林口區"
"222006","289-BY","2018/08/09 08:19:29","新北市深坑區萬福路83號","121.6016","25.009465","6501800","深坑區"
"231069","189-VK","2018/08/09 08:19:26","新北市新店區新潭路一段160巷17號","121.529578333333","24.9322433333333","6500600","新店區"
"231008","192-VK","2018/08/09 08:19:35","新北市新店區新烏路一段87巷3號","121.546246666667","24.942","6500600","新店區"
"231050","AAD-862","2018/08/09 08:19:41","新北市新店區新和街33號","121.51897","24.984695","6500600","新店區"
"247012","402-BY","2018/08/09 08:19:40","新北市蘆洲區中正路168號","121.468761666667","25.08599","6501400","蘆洲區"
"226005","5620-A6","2018/08/09 08:19:42","新北市平溪區南山里南山坪125號","121.784641666667","25.04556","6502400","平溪區"
"226007","7418-A5","2018/08/09 08:19:29","新北市平溪區南山里南山坪5號","121.761715","25.032865","6502400","平溪區"
"226003","AGD-0702","2018/08/09 08:19:31","新北市平溪區十分里十分街54號","121.775223333333","25.0414283333333","6502400","平溪區"
"223006","022-BY","2018/08/09 08:19:28","新北市石碇區楓子林30號","121.642305","25.0095433333333","6501900","石碇區"
"223002","KEA-2673","2018/08/09 08:19:37","新北市石碇區大格門5號","121.666081666667","24.9574816666667","6501900","石碇區"
"223003","205-TH","2018/08/09 08:19:17","新北市石碇區北宜路六段塗潭巷6號","121.645116666667","24.93509","6501900","石碇區"
"223008","406-TH","2018/08/09 08:19:40","新北市石碇區靜安路一段218號","121.672761666667","25.0074816666667","6501900","石碇區"
"223001","592-UM","2018/08/09 08:19:22","新北市石碇區北宜路六段塗潭巷9號","121.646088333333","24.93302","6501900","石碇區"
"223004","660-BX","2018/08/09 08:19:22","新北市石碇區碇坪路一段46號","121.655245","24.9931016666667","6501900","石碇區"
"223005","677-TV","2018/08/09 08:19:37","新北市石碇區碇坪路一段48號","121.655331666667","24.99209","6501900","石碇區"
"252004","249-BX","2018/08/09 08:19:24","新北市三芝區興華里車埕62號","121.498691666667","25.196915","6502100","三芝區"
"252007","AAC-283","2018/08/09 08:19:36","新北市三芝區後厝里土地公坑62-5號","121.46374","25.2446533333333","6502100","三芝區"
"237001","159-UY","2018/08/09 08:19:30","新北市三峽區三樹路279號","121.378948333333","24.9432116666667","6500900","三峽區"
"236009","165-UM","2018/08/09 08:19:26","新北市土城區石門路59號","121.457206666667","24.9635383333333","6501300","土城區"
"236003","339-SR","2018/08/09 08:19:36","新北市土城區龍泉路13-1號","121.41092","24.9479283333333","6501300","土城區"
"236005","498-BY","2018/08/09 08:19:36","新北市土城區中央路三段281巷11弄3號","121.426535","24.9629316666667","6501300","土城區"
"242033","AAC-296","2018/08/09 08:19:37","新北市新莊區新莊路624號","121.443251666667","25.033045","6500500","新莊區"
"242057","986-R7","2018/08/09 08:19:38","新北市新莊區中山路三段627號","121.413948333333","25.0237533333333","6500500","新莊區"
"242052","751-BX","2018/08/09 08:19:31","新北市新莊區新樹路701號","121.432223333333","25.0023","6500500","新莊區"
"242024","705-TV","2018/08/09 08:19:24","新北市三重區中興北街277號","121.469598333333","25.0612866666667","6500500","新莊區"
"242026","615-BX","2018/08/09 08:19:35","新北市新莊區福壽街167號","121.458025","25.05366","6500500","新莊區"
"242040","566-BX","2018/08/09 08:19:39","新北市新莊區中正路612-1號","121.42611","25.0302416666667","6500500","新莊區"
"242045","497-BY","2018/08/09 08:19:33","新北市新莊區福營路125巷17號","121.433585","25.0309916666667","6500500","新莊區"
"242049","441-UM","2018/08/09 08:19:22","新北市新莊區民安西路155巷7弄4號","121.426863333333","25.0166116666667","6500500","新莊區"
"242055","440-UM","2018/08/09 08:19:40","新北市新莊區瓊林路40巷32號","121.446683333333","25.030205","6500500","新莊區"
"242035","415-TV","2018/08/09 08:19:38","新北市新莊區建福路49巷20號","121.427555","25.027895","6500500","新莊區"
"242006","413-TV","2018/08/09 08:19:43","新北市新莊區自信街32號","121.45438","25.048315","6500500","新莊區"
"242043","400-BY","2018/08/09 08:19:33","新北市新莊區雙鳳路101號","121.4145","25.0277916666667","6500500","新莊區"
"242022","362-BY","2018/08/09 08:19:34","新北市新莊區福壽街15號","121.457916666667","25.0479016666667","6500500","新莊區"
"242059","353-BY","2018/08/09 08:19:33","新北市新莊區新樹路523號","121.432788333333","25.0103983333333","6500500","新莊區"
"242008","132-UY","2018/08/09 08:19:32","新北市新莊區昌明街32號","121.456741666667","25.052375","6500500","新莊區"
"242038","133-UY","2018/08/09 08:19:29","新北市新莊區民安路144巷1號","121.424415","25.02503","6500500","新莊區"
"242047","172-VK","2018/08/09 08:19:24","新北市新莊區萬安街102巷1號","121.420266666667","25.0224383333333","6500500","新莊區"
"242010","173-VK","2018/08/09 08:19:34","新北市新莊區中港路685號","121.450686666667","25.0565","6500500","新莊區"
"242016","175-VK","2018/08/09 08:19:28","新北市新莊區永安街23號","121.45198","25.044795","6500500","新莊區"
"242003","176-VK","2018/08/09 08:19:35","新北市新莊區福樂街56巷3號","121.458238333333","25.046095","6500500","新莊區"
"242012","347-TH","2018/08/09 08:19:39","新北市新莊區中泰街104巷5弄8號","121.44824","25.0469066666667","6500500","新莊區"
"242020","348-TH","2018/08/09 08:19:34","新北市新莊區永寧街6鄰28巷1號","121.452831666667","25.0388716666667","6500500","新莊區"
"242001","349-TH","2018/08/09 08:19:27","新北市新莊區大觀街42巷2-5號","121.454115","25.03564","6500500","新莊區"
"242018","350-TH","2018/08/09 08:19:23","新北市新莊區明中街46號","121.456736666667","25.0398083333333","6500500","新莊區"
"242014","281-VK","2018/08/09 08:19:30","新北市新莊區中平路87巷8號","121.4443","25.0458183333333","6500500","新莊區"
"242030","280-VK","2018/08/09 08:19:34","新北市新莊區新泰路357巷3弄51號","121.442401666667","25.0399533333333","6500500","新莊區"
