"lineid","car","time","location","longitude","latitude","cityid","cityname"
"248005","653-BX","2018/08/09 08:29:27","新北市五股區明德路12巷1號","121.433335","25.07176","6501500","五股區"
"232001","290-BY","2018/08/09 08:29:26","新北市坪林區坪雙路一段115號","121.728158333333","24.948235","6502000","坪林區"
"232014","291-BY","2018/08/09 08:29:24","新北市坪林區北宜路七段338號","121.696885","24.9348833333333","6502000","坪林區"
"232007","758-BX","2018/08/09 08:25:20","新北市坪林區北宜路八段558號","121.717951666667","24.9092683333333","6502000","坪林區"
"244016","069-UM","2018/08/09 08:29:36","新北市林口區忠孝路377號","121.369291666667","25.0715283333333","6501700","林口區"
"244006","080-UY","2018/08/09 08:29:36","新北市林口區湖子15-5號","121.38611","25.090725","6501700","林口區"
"244003","248-BX","2018/08/09 08:29:28","新北市林口區下福里161號","121.303261666667","25.1137483333333","6501700","林口區"
"244018","403-UM","2018/08/09 08:29:38","新北市林口區公園路229號","121.374053333333","25.0745233333333","6501700","林口區"
"244012","KEA-2802","2018/08/09 08:29:37","新北市林口區中山路67號","121.393666666667","25.0784566666667","6501700","林口區"
"244008","410-SL","2018/08/09 08:29:32","新北市林口區中北三街398號","121.384065","25.08572","6501700","林口區"
"244022","483-VK","2018/08/09 08:29:28","新北市林口區東明一街1巷10號","121.393388333333","25.0724283333333","6501700","林口區"
"244010","657-BX","2018/08/09 08:29:34","新北市林口區仁愛路一段380號","121.388165","25.07665","6501700","林口區"
"244024","837-TS","2018/08/09 08:29:39","新北市林口區文化三路一段121號","121.361523333333","25.0684433333333","6501700","林口區"
"244020","838-TS","2018/08/09 08:29:37","新北市林口區東林街14號","121.396221666667","25.0789216666667","6501700","林口區"
"222006","289-BY","2018/08/09 08:29:29","新北市深坑區萬福路169號","121.613776666667","25.0149816666667","6501800","深坑區"
"231069","189-VK","2018/08/09 08:29:26","新北市新店區新潭路二段136號","121.513115","24.9218683333333","6500600","新店區"
"231008","192-VK","2018/08/09 08:29:35","新北市新店區新烏路三段1號","121.551718333333","24.9067166666667","6500600","新店區"
"231050","AAD-862","2018/08/09 08:29:21","新北市新店區安德街116巷46號","121.507745","24.961585","6500600","新店區"
"247012","402-BY","2018/08/09 08:29:40","新北市蘆洲區仁愛街120號","121.46956","25.094725","6501400","蘆洲區"
"226005","5620-A6","2018/08/09 08:29:22","新北市平溪區南山里六分10號","121.796993333333","25.0499016666667","6502400","平溪區"
"226007","7418-A5","2018/08/09 08:29:29","新北市平溪區東勢里芊蓁林59-1號","121.752061666667","25.0077316666667","6502400","平溪區"
"226003","AGD-0702","2018/08/09 08:29:31","新北市平溪區新寮里月桃寮路3-7號","121.784943333333","25.0507483333333","6502400","平溪區"
"223006","022-BY","2018/08/09 08:29:28","新北市深坑區昇高坑路51-1號","121.630261666667","24.9942216666667","6501900","石碇區"
"223002","KEA-2673","2018/08/09 08:29:37","新北市石碇區蛇舌子10號","121.661326666667","24.9691916666667","6501900","石碇區"
"223003","205-TH","2018/08/09 08:29:37","新北市石碇區北宜路6段塗潭巷56-1號","121.653196666667","24.9353916666667","6501900","石碇區"
"223008","406-TH","2018/08/09 08:29:30","新北市石碇區串空湖8-2號","121.66903","25.0014116666667","6501900","石碇區"
"223001","592-UM","2018/08/09 08:29:22","新北市石碇區北宜路六段直潭巷26號","121.659876666667","24.9340166666667","6501900","石碇區"
"223004","660-BX","2018/08/09 08:29:42","新北市石碇區碇坪路一段186號","121.667335","24.98482","6501900","石碇區"
"223005","677-TV","2018/08/09 08:29:37","新北市石碇區碇坪路一段160號","121.665598333333","24.9869416666667","6501900","石碇區"
"252004","249-BX","2018/08/09 08:29:24","新北市三芝區興華里楓子林45-7號","121.501258333333","25.2046466666667","6502100","三芝區"
"252007","AAC-283","2018/08/09 08:29:36","新北市三芝區蘭陽街13-1號","121.473553333333","25.2424733333333","6502100","三芝區"
"237001","159-UY","2018/08/09 08:29:30","新北市三峽區大德路85號","121.377125","24.9433083333333","6500900","三峽區"
"236009","165-UM","2018/08/09 08:29:26","新北市土城區石門路95號","121.467275","24.9593083333333","6501300","土城區"
"236003","339-SR","2018/08/09 08:29:36","新北市土城區中州路78號","121.411948333333","24.9585983333333","6501300","土城區"
"236005","498-BY","2018/08/09 08:29:41","新北市土城區大暖路18號","121.423693333333","24.9601383333333","6501300","土城區"
"242033","AAC-296","2018/08/09 08:29:37","新北市新莊區新豐街68巷7號","121.446338333333","25.0339883333333","6500500","新莊區"
"242057","986-R7","2018/08/09 08:29:38","新北市新莊區新北大道七段239號","121.412998333333","25.0297166666667","6500500","新莊區"
"242052","751-BX","2018/08/09 08:29:31","新北市新莊區民安西路468-1號","121.431678333333","25.0078433333333","6500500","新莊區"
"242024","705-TV","2018/08/09 08:29:24","新北市新莊區化成路531巷50號","121.462021666667","25.0626566666667","6500500","新莊區"
"242026","615-BX","2018/08/09 08:29:28","新北市新莊區幸福路73號","121.456941666667","25.0493766666667","6500500","新莊區"
"242040","566-BX","2018/08/09 08:29:39","新北市新莊區壽山路31號","121.420018333333","25.028985","6500500","新莊區"
"242045","497-BY","2018/08/09 08:29:33","新北市新莊區福營路195巷20號","121.431856666667","25.029815","6500500","新莊區"
"242049","441-UM","2018/08/09 08:29:42","新北市新莊區民本街27巷17號","121.429155","25.0192533333333","6500500","新莊區"
"242055","440-UM","2018/08/09 08:29:37","新北市新莊區豐年街124巷18號","121.445656666667","25.0298183333333","6500500","新莊區"
"242035","415-TV","2018/08/09 08:29:30","新北市新莊區後港一路65巷11弄2號","121.426158333333","25.0272933333333","6500500","新莊區"
"242006","413-TV","2018/08/09 08:29:30","新北市新莊區中華路二段141號","121.452928333333","25.050975","6500500","新莊區"
"242043","400-BY","2018/08/09 08:29:33","新北市新莊區中正路力行巷2號","121.417326666667","25.0262016666667","6500500","新莊區"
"242022","362-BY","2018/08/09 08:29:23","新北市新莊區思源路38號","121.459831666667","25.04273","6500500","新莊區"
"242059","353-BY","2018/08/09 08:29:33","新北市新莊區新樹路259號","121.43464","25.0215383333333","6500500","新莊區"
"242008","132-UY","2018/08/09 08:29:26","新北市新莊區中原路240號","121.452748333333","25.0545066666667","6500500","新莊區"
"242038","133-UY","2018/08/09 08:29:29","新北市新莊區民安西路88巷2號","121.426275","25.0199583333333","6500500","新莊區"
"242047","172-VK","2018/08/09 08:29:24","新北市新莊區後港二路10號","121.422755","25.0240683333333","6500500","新莊區"
"242010","173-VK","2018/08/09 08:29:20","新北市新莊區中榮街56巷8弄2號","121.44926","25.0533916666667","6500500","新莊區"
"242016","175-VK","2018/08/09 08:29:28","新北市新莊區永樂街166號","121.44876","25.0447016666667","6500500","新莊區"
"242003","176-VK","2018/08/09 08:29:35","新北市新莊區自由街22號","121.455801666667","25.0470866666667","6500500","新莊區"
"242012","347-TH","2018/08/09 08:29:39","新北市新莊區中和街118號","121.447593333333","25.047675","6500500","新莊區"
"242020","348-TH","2018/08/09 08:29:34","新北市新莊區建興街52-1號","121.450006666667","25.0380183333333","6500500","新莊區"
"242001","349-TH","2018/08/09 08:29:27","新北市新莊區新莊路90號","121.456656666667","25.0362783333333","6500500","新莊區"
"242018","350-TH","2018/08/09 08:29:31","新北市新莊區公園路129-5號","121.457476666667","25.0408833333333","6500500","新莊區"
"242014","281-VK","2018/08/09 08:29:30","新北市新莊區中和街59巷10弄9號","121.446806666667","25.047175","6500500","新莊區"
"242030","280-VK","2018/08/09 08:29:34","新北市新莊區新泰路305巷17號","121.444533333333","25.0408616666667","6500500","新莊區"
