"lineid","car","time","location","longitude","latitude","cityid","cityname"
"248005","653-BX","2018/08/09 09:29:27","新北市五股區登林路貿商巷3弄15號","121.429708333333","25.0699866666667","6501500","五股區"
"244016","069-UM","2018/08/09 09:29:36","新北市林口區文化二路一段156號","121.368468333333","25.0714083333333","6501700","林口區"
"244006","080-UY","2018/08/09 09:29:36","新北市林口區後湖27-1號","121.387358333333","25.099495","6501700","林口區"
"244018","403-UM","2018/08/09 09:29:38","新北市林口區忠孝路616巷21號","121.377221666667","25.06752","6501700","林口區"
"244012","KEA-2802","2018/08/09 09:29:37","新北市林口區麗園一街11巷11號","121.378665","25.0705666666667","6501700","林口區"
"244008","410-SL","2018/08/09 09:29:32","新北市林口區竹林路348巷26號","121.39311","25.083635","6501700","林口區"
"244022","483-VK","2018/08/09 09:29:37","新北市林口區文化一路二段40號","121.380445","25.0770566666667","6501700","林口區"
"244010","657-BX","2018/08/09 09:29:34","新北市林口區仁愛路一段665號","121.387826666667","25.0766616666667","6501700","林口區"
"244020","838-TS","2018/08/09 09:29:37","新北市林口區粉寮路二段160巷30號","121.405583333333","25.0909633333333","6501700","林口區"
"222006","289-BY","2018/08/09 09:28:29","新北市深坑區昇高坑路43號","121.629238333333","24.9971016666667","6501800","深坑區"
"231069","189-VK","2018/08/09 09:29:26","新北市新店區新潭路三段215巷25號","121.50814","24.9040783333333","6500600","新店區"
"231008","192-VK","2018/08/09 09:29:35","新北市新店區平廣路一段125號","121.527938333333","24.8957383333333","6500600","新店區"
"247012","402-BY","2018/08/09 09:29:40","新北市蘆洲區民族路502號","121.46956","25.090425","6501400","蘆洲區"
"223006","022-BY","2018/08/09 09:13:48","新北市石碇區小粗坑(潭邊里)9-2號","121.678733333333","24.9857383333333","6501900","石碇區"
"223003","205-TH","2018/08/09 09:29:37","新北市石碇區北宜路五段火燒樟巷9-1號","121.627215","24.9547966666667","6501900","石碇區"
"223008","406-TH","2018/08/09 09:29:24","新北市石碇區光明路22號","121.694178333333","25.026145","6501900","石碇區"
"223001","592-UM","2018/08/09 09:29:42","新北市石碇區北宜路四段7號","121.614503333333","24.9613383333333","6501900","石碇區"
"223004","660-BX","2018/08/09 09:29:42","新北市石碇區磨石坑24-5號","121.690535","24.9713683333333","6501900","石碇區"
"223005","677-TV","2018/08/09 09:29:29","新北市石碇區磨石坑24-5號","121.690566666667","24.971155","6501900","石碇區"
"252004","249-BX","2018/08/09 09:29:24","新北市三芝區店子里店子112-4號","121.510413333333","25.2095933333333","6502100","三芝區"
"252007","AAC-283","2018/08/09 09:29:37","新北市三芝區新庄里新庄子95-29號","121.512163333333","25.2728533333333","6502100","三芝區"
"237001","159-UY","2018/08/09 09:29:30","新北市鶯歌區三鶯路5號","121.356753333333","24.9410333333333","6500900","三峽區"
"236009","165-UM","2018/08/09 09:29:26","新北市土城區中央路三段112號","121.435295","24.9662766666667","6501300","土城區"
"236003","339-SR","2018/08/09 09:29:36","新北市土城區明德路二段179-4號","121.447558333333","24.9832816666667","6501300","土城區"
"236005","498-BY","2018/08/09 09:29:36","新北市土城區中央路三段124號","121.435136666667","24.9660016666667","6501300","土城區"
"242033","AAC-296","2018/08/09 09:29:37","新北市新莊區中正路334巷18號","121.445783333333","25.03565","6500500","新莊區"
"242057","986-R7","2018/08/09 09:29:38","新北市新莊區龍安路266巷30號","121.42166","25.0185383333333","6500500","新莊區"
"242052","751-BX","2018/08/09 09:29:30","新北市新莊區民安西路229巷7弄19號","121.426431666667","25.0147316666667","6500500","新莊區"
"242024","705-TV","2018/08/09 09:29:24","新北市新莊區五工二路50巷9號","121.4612","25.0655416666667","6500500","新莊區"
"242040","566-BX","2018/08/09 09:29:39","新北市新莊區天祥街15巷10號","121.416558333333","25.0276733333333","6500500","新莊區"
"242055","440-UM","2018/08/09 09:29:37","新北市新莊區新莊路713巷48號","121.44417","25.0319883333333","6500500","新莊區"
"242035","415-TV","2018/08/09 09:29:30","新北市新莊區後港一路60號","121.426395","25.0264166666667","6500500","新莊區"
"242043","400-BY","2018/08/09 09:29:41","新北市新莊區中正路新建巷55號","121.414741666667","25.02143","6500500","新莊區"
"242022","362-BY","2018/08/09 09:29:23","新北市新莊區復興路三段47號","121.461678333333","25.0445666666667","6500500","新莊區"
"242059","353-BY","2018/08/09 09:29:33","新北市新莊區新樹路52號","121.437355","25.0267","6500500","新莊區"
"242008","132-UY","2018/08/09 09:29:26","新北市新莊區昌盛街105-6號","121.456666666667","25.049995","6500500","新莊區"
"242038","133-UY","2018/08/09 09:29:38","新北市新莊區瓊林路208號","121.436205","25.0218266666667","6500500","新莊區"
"242047","172-VK","2018/08/09 09:29:35","新北市新莊區中正路799號","121.421311666667","25.0284","6500500","新莊區"
"242010","173-VK","2018/08/09 09:29:40","新北市新莊區中信街89巷9號","121.447241666667","25.05299","6500500","新莊區"
"242003","176-VK","2018/08/09 09:29:35","新北市新莊區頭前路32號","121.467493333333","25.0525","6500500","新莊區"
"242020","348-TH","2018/08/09 09:29:34","新北市新莊區中華路一段18號","121.45197","25.0371283333333","6500500","新莊區"
"242001","349-TH","2018/08/09 09:29:27","新北市新莊區中港路五守新村37巷1號","121.454636666667","25.0388433333333","6500500","新莊區"
"242018","350-TH","2018/08/09 09:29:43","新北市板橋區金門街215巷90號","121.433466666667","24.9853416666667","6500500","新莊區"
"242030","280-VK","2018/08/09 09:29:33","新北市新莊區中正路427-2號","121.443676666667","25.034235","6500500","新莊區"
