"lineid","car","time","location","longitude","latitude","cityid","cityname"
"248005","653-BX","2018/08/09 10:39:27","新北市五股區中興路二段37巷26號","121.46058","25.07494","6501500","五股區"
"244019","403-UM","2018/08/09 10:39:38","新北市林口區粉寮69號","121.405073333333","25.0907933333333","6501700","林口區"
"222006","289-BY","2018/08/09 10:39:29","新北市深坑區阿柔洋35-1號","121.613296666667","24.99759","6501800","深坑區"
"231069","189-VK","2018/08/09 10:39:46","新北市新店區新潭路三段80巷3號","121.50266","24.90999","6500600","新店區"
"231008","192-VK","2018/08/09 10:39:35","新北市新店區廣興路60巷36弄6號","121.54398","24.91518","6500600","新店區"
"247012","402-BY","2018/08/09 10:39:34","新北市蘆洲區三民路156號","121.470265","25.0880116666667","6501400","蘆洲區"
"237001","159-UY","2018/08/09 10:37:19","新北市三峽區中山路459巷163-1號","121.349296666667","24.9334","6500900","三峽區"
