"lineid","car","time","location","longitude","latitude","cityid","cityname"
"244019","403-UM","2018/08/09 11:19:38","新北市林口區粉寮69號","121.405095","25.09081","6501700","林口區"
"231069","189-VK","2018/08/09 11:19:25","新北市新店區新潭路一段52號","121.52382","24.941075","6500600","新店區"
"231008","192-VK","2018/08/09 11:19:35","新北市新店區自強路122號","121.545951666667","24.9218183333333","6500600","新店區"
"247012","402-BY","2018/08/09 11:03:19","新北市五股區中興路三段3-6號","121.449565","25.0787183333333","6501400","蘆洲區"
"237001","159-UY","2018/08/09 11:19:46","新北市三峽區中山路459巷163-1號","121.349296666667","24.933395","6500900","三峽區"
