"lineid","car","time","location","longitude","latitude","cityid","cityname"
"234044","148-BY","2018/08/09 13:19:42","新北市永和區得和路373巷6弄1號","121.524826666667","24.9999066666667","6500400","永和區"
"234005","207-UY","2018/08/09 13:19:39","新北市永和區保平路268巷51弄12號","121.506291666667","25.006365","6500400","永和區"
"234078","298-R6","2018/08/09 13:19:47","新北市永和區福和路22號","121.524158333333","25.0083366666667","6500400","永和區"
"234062","337-UY","2018/08/09 13:19:34","新北市永和區永元路17巷15號","121.521328333333","25.00075","6500400","永和區"
"234084","338-UY","2018/08/09 13:19:33","新北市永和區永利路42號","121.518715","25.0054866666667","6500400","永和區"
"234068","552-UM","2018/08/09 13:19:32","新北市永和區豫溪街97號","121.518646666667","25.0100483333333","6500400","永和區"
"234036","553-UM","2018/08/09 13:19:38","新北市永和區民樂街62號","121.527431666667","24.9988233333333","6500400","永和區"
"234015","745-BX","2018/08/09 13:19:44","新北市永和區環河西路一段85巷4弄20號","121.512088333333","25.0169416666667","6500400","永和區"
"234028","746-BX","2018/08/09 13:19:27","新北市永和區厚德街58號","121.524446666667","24.9988466666667","6500400","永和區"
"234052","KEA-2590","2018/08/09 13:19:41","新北市永和區中興街20號","121.516043333333","25.0118666666667","6500400","永和區"
"234012","KEA-2591","2018/08/09 13:19:43","新北市永和區信義路60號","121.512938333333","25.0126133333333","6500400","永和區"
"234060","AAD-866","2018/08/09 13:19:34","新北市永和區秀朗路一段175號","121.516991666667","25.0036633333333","6500400","永和區"
"234040","862-TW","2018/08/09 13:19:34","新北市永和區保平路151巷2弄6-3號","121.509621666667","25.0053","6500400","永和區"
"234048","863-TW","2018/08/09 13:19:34","新北市永和區保福路二段88巷25號","121.511706666667","25.01376","6500400","永和區"
"234025","9371-KE","2018/08/09 13:19:39","新北市永和區豫溪街28巷22號","121.514968333333","25.0089233333333","6500400","永和區"
"234010","9373-KE","2018/08/09 13:19:37","新北市永和區忠孝街34巷18號","121.514501666667","25.0168066666667","6500400","永和區"
"248015","026-BX","2018/08/09 13:19:30","新北市五股區西雲路288號","121.449815","25.09887","6501500","五股區"
"248005","077-UY","2018/08/09 13:19:46","新北市五股區中興路一段161號","121.464818333333","25.0737066666667","6501500","五股區"
"248007","095-VK","2018/08/09 13:19:41","新北市五股區更洲路32巷8弄13-1號","121.459318333333","25.0794766666667","6501500","五股區"
"248017","225-UY","2018/08/09 13:19:28","新北市五股區御史路162號","121.429121666667","25.1035383333333","6501500","五股區"
"248011","247-BX","2018/08/09 13:19:33","新北市五股區御成路35號","121.441013333333","25.091275","6501500","五股區"
"248013","261-SL","2018/08/09 13:19:44","新北市五股區自強路92號","121.432733333333","25.072445","6501500","五股區"
"248003","677-BX","2018/08/09 13:19:40","新北市五股區成泰路二段250號","121.440101666667","25.08701","6501500","五股區"
"248001","678-BX","2018/08/09 13:19:42","新北市五股區西雲路66號","121.443616666667","25.0916083333333","6501500","五股區"
"248009","682-TV","2018/08/09 13:19:46","新北市五股區成泰路一段187號","121.435063333333","25.0764116666667","6501500","五股區"
"234022","9380-KE","2018/08/09 13:19:33","新北市永和區竹林路101號","121.519771666667","25.01193","6500400","永和區"
"234076","969-R7","2018/08/09 13:19:30","新北市永和區民有街20號","121.51666","24.9965033333333","6500400","永和區"
"234072","AAC-211","2018/08/09 13:19:43","新北市永和區竹林路90號","121.51947","25.0123033333333","6500400","永和區"
"234066","AAC-212","2018/08/09 13:19:44","新北市永和區保平路38-1號","121.51162","25.007115","6500400","永和區"
"234001","AAC-295","2018/08/09 13:19:45","新北市永和區保福路一段77巷2號","121.511866666667","25.01037","6500400","永和區"
"244003","248-BX","2018/08/09 13:19:42","新北市林口區嘉寶里89-1號","121.332486666667","25.1204833333333","6501700","林口區"
"243005","AAD-798","2018/08/09 13:19:43","新北市泰山區工專路8號","121.423963333333","25.0395183333333","6501600","泰山區"
"231002","002-UM","2018/08/09 13:19:33","新北市新店區安華路28-1號","121.519818333333","24.960835","6500600","新店區"
"231027","0293-UT","2018/08/09 13:19:45","新北市新店區秀山路20號","121.532486666667","24.9603683333333","6500600","新店區"
"231028","046-UY","2018/08/09 13:19:34","新北市新店區安華路28-1號","121.519566666667","24.96074","6500600","新店區"
"231005","106-UY","2018/08/09 13:19:31","新北市新店區安華路28-1號","121.519616666667","24.9608583333333","6500600","新店區"
"231010","107-UY","2018/08/09 13:19:38","新北市新店區安康路一段89號","121.529138333333","24.9614966666667","6500600","新店區"
"231021","108-UY","2018/08/09 13:19:30","新北市新店區安一路一段1-1號","121.519528333333","24.9616066666667","6500600","新店區"
"231036","110-UY","2018/08/09 13:19:42","新北市新店區安忠路102-1號","121.510441666667","24.9556966666667","6500600","新店區"
"231011","187-VK","2018/08/09 13:19:41","新北市新店區安康路一段206號","121.524141666667","24.9634366666667","6500600","新店區"
"231023","KEA-2219","2018/08/09 13:19:29","新北市新店區安康路一段323-1號","121.521726666667","24.9637916666667","6500600","新店區"
"231026","256-BX","2018/08/09 13:19:35","新北市新店區安華路30巷1號","121.519438333333","24.9596583333333","6500600","新店區"
"231003","268-BY","2018/08/09 13:19:41","新北市新店區安華路1-1號","121.519413333333","24.9605","6500600","新店區"
"231018","278-BY","2018/08/09 13:19:43","新北市新店區環河路111-10號","121.53068","24.9705633333333","6500600","新店區"
"231017","AAD-862","2018/08/09 13:19:25","新北市新店區安康路一段9-2號","121.533901666667","24.9605583333333","6500600","新店區"
"231038","3712-VJ","2018/08/09 13:19:33","新北市新店區安華路1-1號","121.519335","24.9605316666667","6500600","新店區"
"231037","4716-K9","2018/08/09 13:19:35","新北市新店區安華路28-1號","121.51963","24.9610133333333","6500600","新店區"
"231025","4715-K9","2018/08/09 13:19:30","新北市新店區中央五街55號","121.527775","24.9754633333333","6500600","新店區"
"231013","513-UM","2018/08/09 13:19:28","新北市新店區安一路一段1-1號","121.51962","24.96105","6500600","新店區"
"231034","616-UM","2018/08/09 13:19:34","新北市新店區安華路1-1號","121.519466666667","24.9604933333333","6500600","新店區"
"231030","619-UM","2018/08/09 13:19:31","新北市新店區安華路28-1號","121.51946","24.9608716666667","6500600","新店區"
"231035","719-UM","2018/08/09 13:19:47","新北市新店區安一路一段1-1號","121.519528333333","24.9611733333333","6500600","新店區"
"231031","720-UM","2018/08/09 13:19:26","新北市新店區安一路一段1-1號","121.51923","24.9612383333333","6500600","新店區"
"231029","897-TW","2018/08/09 13:19:42","新北市新店區安華路28-1號","121.51965","24.9607316666667","6500600","新店區"
"231024","AKT-0513","2018/08/09 13:19:42","新北市新店區中正路126號","121.542083333333","24.971335","6500600","新店區"
"235030","003-UY","2018/08/09 13:19:38","新北市中和區中山路二段120號","121.502853333333","25.0037533333333","6500300","中和區"
"235028","005-UY","2018/08/09 13:19:40","新北市中和區圓通路167巷8號","121.497986666667","24.9950116666667","6500300","中和區"
"235027","006-UY","2018/08/09 13:19:44","新北市中和區中正路589巷15號","121.48579","24.9935733333333","6500300","中和區"
"235020","096-UM","2018/08/09 13:19:38","新北市中和區員山路36巷16-3號","121.484648333333","24.9913866666667","6500300","中和區"
"235003","097-UM","2018/08/09 13:19:40","新北市中和區安和路39號","121.509738333333","24.9947833333333","6500300","中和區"
"235029","098-UM","2018/08/09 13:19:43","新北市中和區莊敬路49巷20弄24號","121.502776666667","25.0058183333333","6500300","中和區"
"235004","150-BY","2018/08/09 13:19:26","新北市中和區安平路38號","121.50983","24.9950833333333","6500300","中和區"
"235022","151-BY","2018/08/09 13:19:29","新北市中和區圓通路369巷38弄3號","121.490385","24.983125","6500300","中和區"
"235019","183-VK","2018/08/09 13:19:36","新北市中和區員山路72號","121.480958333333","24.9936033333333","6500300","中和區"
"235002","185-VK","2018/08/09 13:19:25","新北市中和區自立路46號","121.522883333333","24.99226","6500300","中和區"
"235013","186-VK","2018/08/09 13:19:30","新北市中和區中正路395號","121.489563333333","24.99359","6500300","中和區"
"235031","255-BX","2018/08/09 13:19:30","新北市中和區新生街177巷7號","121.484175","25.000765","6500300","中和區"
"235036","301-VK","2018/08/09 13:19:36","新北市中和區連城路265巷1號","121.49147","24.9964066666667","6500300","中和區"
"235007","352-BY","2018/08/09 13:19:33","新北市中和區中正路2-1號","121.502961666667","24.9935566666667","6500300","中和區"
"235006","KEA-2878","2018/08/09 13:19:42","新北市中和區景平路202號","121.51577","24.99292","6500300","中和區"
"235014","4979-A6","2018/08/09 13:19:41","新北市中和區捷運路173號","121.505928333333","24.9913333333333","6500300","中和區"
"235033","4980-A6","2018/08/09 13:19:34","新北市中和區連城路127巷20號","121.496661666667","24.9982366666667","6500300","中和區"
"235034","558-UM","2018/08/09 13:19:36","新北市中和區圓通路61號","121.500423333333","24.99727","6500300","中和區"
"235009","565-BX","2018/08/09 13:19:41","新北市中和區復興路249巷2號","121.503405","24.990045","6500300","中和區"
"235018","640-BX","2018/08/09 13:19:34","新北市中和區民享街86巷28號","121.473323333333","25.000615","6500300","中和區"
"235011","732-UM","2018/08/09 13:19:28","新北市中和區建八路1號","121.485531666667","24.9986583333333","6500300","中和區"
"235035","783-BX","2018/08/09 13:19:42","新北市中和區中板路18巷1弄2號","121.48395","25.012345","6500300","中和區"
"235026","800-TS","2018/08/09 13:19:33","新北市中和區橋和路150號","121.493993333333","25.0061833333333","6500300","中和區"
"235021","801-TS","2018/08/09 13:19:36","新北市中和區民安街111巷4弄3號","121.47628","24.9990016666667","6500300","中和區"
"235005","802-TS","2018/08/09 13:19:29","新北市中和區景安路26號","121.507441666667","24.9985316666667","6500300","中和區"
"235016","805-TS","2018/08/09 13:19:33","新北市中和區中正路19號","121.502838333333","24.993415","6500300","中和區"
"235012","896-TW","2018/08/09 13:19:41","新北市中和區錦和路350-1號","121.490555","24.9935983333333","6500300","中和區"
"235017","900-TW","2018/08/09 13:19:48","新北市中和區員山路36巷13號","121.484313333333","24.9907933333333","6500300","中和區"
"235015","157-BY","2018/08/09 13:19:35","新北市中和區信義街65號","121.511618333333","24.9880616666667","6500300","中和區"
"235001","AAC-213","2018/08/09 13:19:40","新北市中和區景德街75號","121.516653333333","24.9914033333333","6500300","中和區"
"220013","072-UY","2018/08/09 13:19:43","新北市板橋區華東街1-9號","121.448146666667","24.9949483333333","6500100","板橋區"
"247012","402-BY","2018/08/09 13:19:29","新北市五股區中興路三段3-6號","121.449595","25.0786533333333","6501400","蘆洲區"
"247007","056-VK","2018/08/09 13:19:32","新北市五股區中興路三段2巷10號","121.44912","25.0809583333333","6501400","蘆洲區"
"235023","251-BX","2018/08/09 13:19:39","新北市中和區員山路36巷16-3號","121.484925","24.9913833333333","6500300","中和區"
"228005","097-TW","2018/08/09 13:19:37","新北市貢寮區美豐里丹裡街51-6號","121.912893333333","25.0571883333333","6502600","貢寮區"
"228004","212-TW","2018/08/09 13:18:17","新北市貢寮區吉林里內寮街35-2號","121.900436666667","24.982","6502600","貢寮區"
"253003","6232-TK","2018/08/09 13:19:40","新北市石門區內石門81號","121.566635","25.2656333333333","6502200","石門區"
"253001","6251-TK","2018/08/09 13:19:35","新北市石門區楓林6-1號","121.537761666667","25.2960716666667","6502200","石門區"
"253002","637-UY","2018/08/09 13:19:28","新北市石門區豬槽潭2-1號","121.555371666667","25.2666466666667","6502200","石門區"
"253004","8270-PC","2018/08/09 13:19:27","新北市石門區竹子湖1號","121.61504","25.264425","6502200","石門區"
"207002","749-BX","2018/08/09 13:19:27","新北市萬里區崁腳里崁腳路166號","121.644955","25.155935","6502800","萬里區"
"207001","662-BX","2018/08/09 13:19:42","新北市萬里區龜吼里玉田路29號","121.68111","25.195495","6502800","萬里區"
"252005","AAC-283","2018/08/09 13:19:41","新北市三芝區八賢里八連溪87號","121.520265","25.2293233333333","6502100","三芝區"
"236005","498-BY","2018/08/09 13:19:32","新北市土城區亞洲路108巷1弄1號","121.433865","24.972555","6501300","土城區"
"221032","280-BY","2018/08/09 13:19:30","新北市汐止區龍安路44號","121.654131666667","25.0635333333333","6501100","汐止區"
"220030","610-BX","2018/08/09 13:19:35","新北市板橋區華東街1-10號","121.448285","24.99499","6500100","板橋區"
"220019","568-UM","2018/08/09 13:19:40","新北市板橋區華東街1-9號","121.448191666667","24.9949333333333","6500100","板橋區"
"220025","687-BX","2018/08/09 13:19:41","新北市板橋區華東街1-9號","121.448301666667","24.9948516666667","6500100","板橋區"
"220022","895-R6","2018/08/09 13:19:45","新北市板橋區華東街1-9號","121.448176666667","24.99501","6500100","板橋區"
"235032","KEA-2873","2018/08/09 13:19:44","新北市中和區員山路36巷16-3號","121.485035","24.9912283333333","6500300","中和區"
"235025","KEA-2875","2018/08/09 13:19:44","新北市中和區民享街116巷6-1號","121.474203333333","24.9988366666667","6500300","中和區"
