"lineid","car","time","location","longitude","latitude","cityid","cityname"
"234044","148-BY","2018/08/09 13:49:42","新北市永和區永亨路178號","121.525808333333","25.0024766666667","6500400","永和區"
"234005","207-UY","2018/08/09 13:49:39","新北市中和區中和路460號","121.51225","25.0038316666667","6500400","永和區"
"234078","298-R6","2018/08/09 13:49:47","新北市永和區永亨路98號","121.523001666667","25.0048033333333","6500400","永和區"
"234062","337-UY","2018/08/09 13:49:34","新北市永和區中正路368巷4號","121.518031666667","25.0008433333333","6500400","永和區"
"234084","338-UY","2018/08/09 13:49:33","新北市永和區中正路501號","121.516876666667","25.00688","6500400","永和區"
"234068","552-UM","2018/08/09 13:49:32","新北市永和區竹林路77號","121.519566666667","25.0127233333333","6500400","永和區"
"234036","553-UM","2018/08/09 13:49:38","新北市永和區民樂街57巷6號","121.528006666667","24.9984683333333","6500400","永和區"
"234015","745-BX","2018/08/09 13:49:44","新北市永和區永和路二段264號","121.516006666667","25.015105","6500400","永和區"
"234028","746-BX","2018/08/09 13:49:47","新北市永和區四維街103巷16號","121.52368","24.9971316666667","6500400","永和區"
"234052","KEA-2590","2018/08/09 13:49:21","新北市永和區竹林路39巷28弄6號","121.519381666667","25.0146866666667","6500400","永和區"
"234012","KEA-2591","2018/08/09 13:49:33","新北市永和區永平路280號","121.507796666667","25.0117783333333","6500400","永和區"
"234060","AAD-866","2018/08/09 13:49:38","新北市永和區中正路281號","121.517506666667","25.0011216666667","6500400","永和區"
"234040","862-TW","2018/08/09 13:49:48","新北市永和區中和路389巷6號","121.50811","25.0008433333333","6500400","永和區"
"234048","863-TW","2018/08/09 13:49:34","新北市永和區保安路79號","121.508631666667","25.014795","6500400","永和區"
"234010","9373-KE","2018/08/09 13:49:37","新北市中和區中山路二段2巷41號","121.50265","25.0072466666667","6500400","永和區"
"248015","026-BX","2018/08/09 13:49:30","新北市五股區凌雲路一段149巷42號","121.44864","25.1010366666667","6501500","五股區"
"248007","095-VK","2018/08/09 13:49:41","新北市五股區中興路一段151巷84號","121.465091666667","25.071625","6501500","五股區"
"248017","225-UY","2018/08/09 13:49:28","新北市五股區民義路二段22巷30-3號","121.424306666667","25.09991","6501500","五股區"
"248011","247-BX","2018/08/09 13:49:33","新北市五股區成泰路二段195巷1號","121.440338333333","25.08738","6501500","五股區"
"248003","677-BX","2018/08/09 13:49:40","新北市五股區民義路二段52-3號","121.410185","25.1047","6501500","五股區"
"248001","678-BX","2018/08/09 13:49:42","新北市五股區成泰路三段460號","121.451425","25.1004316666667","6501500","五股區"
"248009","682-TV","2018/08/09 13:49:46","新北市五股區水碓九路28號","121.428298333333","25.0717966666667","6501500","五股區"
"234022","9380-KE","2018/08/09 13:49:33","新北市永和區復興街16巷5號","121.51573","25.01257","6500400","永和區"
"234076","969-R7","2018/08/09 13:49:50","新北市永和區民權路34號","121.519928333333","24.9989316666667","6500400","永和區"
"234072","AAC-211","2018/08/09 13:49:43","新北市永和區豫溪街207巷2號","121.523791666667","25.0095733333333","6500400","永和區"
"234066","AAC-212","2018/08/09 13:49:41","新北市永和區保平路236巷15弄27號","121.507605","25.0067116666667","6500400","永和區"
"234001","AAC-295","2018/08/09 13:49:45","新北市永和區永和路一段69號","121.51314","25.00711","6500400","永和區"
"244003","248-BX","2018/08/09 13:49:22","新北市林口區瑞平里8鄰56號","121.343945","25.1213033333333","6501700","林口區"
"243005","AAD-798","2018/08/09 13:22:50","新北市泰山區明志路三段206巷3號","121.42332","25.0379216666667","6501600","泰山區"
"243008","KEA-2801","2018/08/09 13:49:40","新北市泰山區明志路二段152-1號","121.427501666667","25.0506533333333","6501600","泰山區"
"243007","421-VK","2018/08/09 13:49:37","新北市泰山區美寧街50號","121.43049","25.0644816666667","6501600","泰山區"
"243003","KEA-2215","2018/08/09 13:49:40","新北市泰山區公園路67號","121.425876666667","25.054945","6501600","泰山區"
"243004","646-TV","2018/08/09 13:49:31","新北市泰山區泰林路二段73巷33號","121.434321666667","25.0577816666667","6501600","泰山區"
"231002","002-UM","2018/08/09 13:49:32","新北市新店區溪園路393號","121.52429","24.9790866666667","6500600","新店區"
"231027","0293-UT","2018/08/09 13:49:45","新北市新店區中興路一段24-2號","121.53863","24.9583033333333","6500600","新店區"
"231028","046-UY","2018/08/09 13:49:34","新北市新店區安和路二段218-1號","121.518101666667","24.9753183333333","6500600","新店區"
"231001","047-UY","2018/08/09 13:49:42","新北市新店區三民路86號","121.534421666667","24.9727483333333","6500600","新店區"
"231005","106-UY","2018/08/09 13:49:31","新北市新店區寶中路94-4號","121.549186666667","24.9798366666667","6500600","新店區"
"231010","107-UY","2018/08/09 13:49:38","新北市新店區三民路60巷18號","121.53577","24.9729816666667","6500600","新店區"
"231021","108-UY","2018/08/09 13:49:30","新北市新店區永興路132號","121.544018333333","24.93169","6500600","新店區"
"231036","110-UY","2018/08/09 13:49:42","新北市新店區安祥路145巷27號","121.47531","24.956475","6500600","新店區"
"231011","187-VK","2018/08/09 13:49:41","新北市新店區德正街25巷3號","121.544455","24.971715","6500600","新店區"
"231023","KEA-2219","2018/08/09 13:49:29","新北市新店區國校路65巷1號","121.538368333333","24.9541033333333","6500600","新店區"
"231026","256-BX","2018/08/09 13:49:35","新北市新店區中正路282-7號","121.538148333333","24.9741133333333","6500600","新店區"
"231003","268-BY","2018/08/09 13:49:41","新北市新店區中興路一段160號","121.542688333333","24.96392","6500600","新店區"
"231018","278-BY","2018/08/09 13:49:43","新北市新店區中正路399巷17號","121.53405","24.9767466666667","6500600","新店區"
"231017","AAD-862","2018/08/09 13:49:45","新北市新店區竹林路72巷12號","121.55409","24.9505133333333","6500600","新店區"
"231038","3712-VJ","2018/08/09 13:49:33","新北市新店區安華路28-1號","121.519258333333","24.960715","6500600","新店區"
"231037","4716-K9","2018/08/09 13:49:35","新北市新店區安康路三段355巷2號","121.484586666667","24.9504983333333","6500600","新店區"
"231025","4715-K9","2018/08/09 13:49:39","新北市新店區中正路292號","121.537803333333","24.974415","6500600","新店區"
"231013","513-UM","2018/08/09 13:49:28","新北市新店區二十張路25巷16號","121.539226666667","24.9819466666667","6500600","新店區"
"231034","616-UM","2018/08/09 13:49:35","新北市新店區達觀路14巷2號","121.503565","24.9411016666667","6500600","新店區"
"231006","618-UM","2018/08/09 13:49:33","新北市新店區北宜路一段260號","121.545703333333","24.952735","6500600","新店區"
"231030","619-UM","2018/08/09 13:49:31","新北市新店區安康路一段50-1號","121.529765","24.961335","6500600","新店區"
"231035","719-UM","2018/08/09 13:49:27","新北市新店區安忠路57巷1-7號","121.51352","24.9593783333333","6500600","新店區"
"231031","720-UM","2018/08/09 13:49:46","新北市新店區莒光路44巷21弄11-3號","121.51862","24.9520916666667","6500600","新店區"
"231029","897-TW","2018/08/09 13:49:42","新北市新店區安康路二段125-1號","121.512428333333","24.961005","6500600","新店區"
"231004","899-TW","2018/08/09 13:49:42","新北市新店區寶橋路98號","121.547115","24.97608","6500600","新店區"
"231024","AKT-0513","2018/08/09 13:49:48","新北市新店區北新路一段271巷9號","121.540441666667","24.9667133333333","6500600","新店區"
"235030","003-UY","2018/08/09 13:49:38","新北市中和區水源路18巷2弄2號","121.504043333333","25.0032633333333","6500300","中和區"
"235028","005-UY","2018/08/09 13:49:40","新北市中和區泰和街32號","121.499395","25.0002916666667","6500300","中和區"
"235027","006-UY","2018/08/09 13:49:38","新北市中和區錦和路111-1號","121.490233333333","24.9950716666667","6500300","中和區"
"235020","096-UM","2018/08/09 13:49:38","新北市中和區立德街329號","121.481506666667","25.0104783333333","6500300","中和區"
"235003","097-UM","2018/08/09 13:49:40","新北市中和區大勇街25巷11弄1號","121.51649","24.9933783333333","6500300","中和區"
"235029","098-UM","2018/08/09 13:49:43","新北市中和區勝利路35巷9弄22號","121.500008333333","25.0074466666667","6500300","中和區"
"235004","150-BY","2018/08/09 13:49:46","新北市中和區保健路67巷3弄4號","121.509801666667","24.9975433333333","6500300","中和區"
"235022","151-BY","2018/08/09 13:49:29","新北市中和區連城路607號","121.477913333333","24.9929283333333","6500300","中和區"
"235019","183-VK","2018/08/09 13:49:36","新北市中和區德光路77巷3號","121.4696","25.00357","6500300","中和區"
"235002","185-VK","2018/08/09 13:49:45","新北市中和區大勇街62號","121.51783","24.99454","6500300","中和區"
"235013","186-VK","2018/08/09 13:49:29","新北市中和區景新街210巷2弄10號","121.506873333333","24.994135","6500300","中和區"
"235031","255-BX","2018/08/09 13:49:31","新北市中和區新生街220巷1弄8號","121.483296666667","24.9980783333333","6500300","中和區"
"235008","293-VK","2018/08/09 13:49:28","新北市中和區中興街166號","121.499846666667","24.991455","6500300","中和區"
"235036","301-VK","2018/08/09 13:49:36","新北市中和區中山路二段109號","121.503163333333","25.0039233333333","6500300","中和區"
"235007","352-BY","2018/08/09 13:49:33","新北市中和區成功路139號","121.525841666667","24.9901083333333","6500300","中和區"
"235006","KEA-2878","2018/08/09 13:49:42","新北市中和區秀朗路三段70巷12號","121.525935","24.99464","6500300","中和區"
"247009","KEA-2869","2018/08/09 13:49:43","新北市三重區如意街1號","121.487895","25.0896783333333","6501400","蘆洲區"
"235014","4979-A6","2018/08/09 13:49:41","新北市中和區忠孝街62巷9弄10號","121.513136666667","24.9839683333333","6500300","中和區"
"235033","4980-A6","2018/08/09 13:49:34","新北市中和區圓通路102號","121.499523333333","24.9967116666667","6500300","中和區"
"235034","558-UM","2018/08/09 13:49:36","新北市中和區中和路102號","121.502698333333","24.99976","6500300","中和區"
"235009","565-BX","2018/08/09 13:49:20","新北市中和區興南路一段86號","121.509883333333","24.98941","6500300","中和區"
"235018","640-BX","2018/08/09 13:49:34","新北市中和區民治街13巷2號","121.47529","25.004055","6500300","中和區"
"235024","647-TV","2018/08/09 13:49:42","新北市中和區中山路三段18號","121.479386666667","25.0061366666667","6500300","中和區"
"235011","732-UM","2018/08/09 13:49:28","新北市中和區興南路二段111號","121.50577","24.9843566666667","6500300","中和區"
"235010","733-UM","2018/08/09 13:49:47","新北市中和區仁愛街36巷30號","121.511073333333","24.9869116666667","6500300","中和區"
"235035","783-BX","2018/08/09 13:49:42","新北市中和區立德街7巷2號","121.490143333333","25.0060933333333","6500300","中和區"
"235026","800-TS","2018/08/09 13:49:33","新北市中和區中山路二段269號","121.496775","25.002285","6500300","中和區"
"235021","801-TS","2018/08/09 13:49:36","新北市中和區民利街14巷3-3號","121.480581666667","24.9994666666667","6500300","中和區"
"235005","802-TS","2018/08/09 13:49:49","新北市永和區安樂路268號","121.514645","25.0038766666667","6500300","中和區"
"235016","805-TS","2018/08/09 13:49:33","新北市中和區興南路二段399巷16號","121.499078333333","24.9789983333333","6500300","中和區"
"235012","896-TW","2018/08/09 13:49:41","新北市中和區南山路188號","121.505848333333","24.9906833333333","6500300","中和區"
"235017","900-TW","2018/08/09 13:49:28","新北市中和區華福街14號","121.465678333333","24.9965966666667","6500300","中和區"
"235015","157-BY","2018/08/09 13:49:34","新北市中和區忠孝街2號","121.508771666667","24.9828283333333","6500300","中和區"
"235001","AAC-213","2018/08/09 13:49:40","新北市中和區秀朗路三段128巷7弄2號","121.524461666667","24.9929516666667","6500300","中和區"
"220105","013-TV","2018/08/09 13:49:40","新北市板橋區民生路二段120號","121.470553333333","25.01948","6500100","板橋區"
"220003","015-TV","2018/08/09 13:49:31","新北市板橋區縣民大道一段193號","121.459356666667","25.0084583333333","6500100","板橋區"
"220013","072-UY","2018/08/09 13:49:43","新北市板橋區民族路151巷52號","121.470076666667","25.00846","6500100","板橋區"
"220034","073-UY","2018/08/09 13:49:49","新北市板橋區大智街13號","121.455693333333","25.0148283333333","6500100","板橋區"
"220017","AAD-861","2018/08/09 13:49:35","新北市板橋區大華街9號","121.459008333333","25.006235","6500100","板橋區"
"247012","402-BY","2018/08/09 13:49:29","新北市八里區荖阡坑路24-2號","121.399596666667","25.1331216666667","6501400","蘆洲區"
"247003","337-TH","2018/08/09 13:49:47","新北市蘆洲區中原路22號","121.460391666667","25.0829716666667","6501400","蘆洲區"
"247005","336-TH","2018/08/09 13:49:31","新北市蘆洲區和平路77號","121.469318333333","25.0790416666667","6501400","蘆洲區"
"247007","056-VK","2018/08/09 13:49:32","新北市蘆洲區集賢路269巷3號","121.481566666667","25.08371","6501400","蘆洲區"
"247015","053-VK","2018/08/09 13:49:41","新北市蘆洲區光華路38號","121.46915","25.0832116666667","6501400","蘆洲區"
"235023","251-BX","2018/08/09 13:49:39","新北市中和區圓通路393巷9號","121.489906666667","24.9886916666667","6500300","中和區"
"228005","097-TW","2018/08/09 13:49:32","新北市貢寮區美豐里土地公嶺10號","121.889555","25.05702","6502600","貢寮區"
"228004","212-TW","2018/08/09 13:49:37","新北市貢寮區龍崗里嵩陽街46號","121.904605","25.0122666666667","6502600","貢寮區"
"253003","6232-TK","2018/08/09 13:49:40","新北市石門區尖子鹿10號","121.574815","25.280805","6502200","石門區"
"253001","6251-TK","2018/08/09 13:49:35","新北市石門區八甲58-2號","121.522106666667","25.2744016666667","6502200","石門區"
"253002","637-UY","2018/08/09 13:49:48","新北市石門區尖山湖16-2號","121.562093333333","25.2437083333333","6502200","石門區"
"253004","8270-PC","2018/08/09 13:49:27","新北市石門區阿里荖48號","121.6071","25.2759983333333","6502200","石門區"
"207002","749-BX","2018/08/09 13:49:47","新北市萬里區崁腳里崁腳路168號","121.645543333333","25.1553416666667","6502800","萬里區"
"207001","662-BX","2018/08/09 13:49:42","新北市萬里區磺潭里公館崙42號","121.630375","25.2078766666667","6502800","萬里區"
"252005","AAC-283","2018/08/09 13:49:41","新北市三芝區圓山里內柑宅25-2號","121.538495","25.2271283333333","6502100","三芝區"
"236068","105-UM","2018/08/09 13:49:35","新北市土城區城林路6巷80號","121.43869","24.979645","6501300","土城區"
"236040","107-UM","2018/08/09 13:49:40","新北市土城區城林路6巷80號","121.438496666667","24.9797916666667","6501300","土城區"
"236074","166-UM","2018/08/09 13:49:46","新北市土城區永寧路35號","121.4301","24.9621066666667","6501300","土城區"
"236029","253-BX","2018/08/09 13:49:44","新北市土城區城林路6巷80號","121.438541666667","24.9797583333333","6501300","土城區"
"236024","269-VK","2018/08/09 13:49:39","新北市土城區中華路二段6號","121.43939","24.978775","6501300","土城區"
"236012","270-VK","2018/08/09 13:49:44","新北市土城區城林路6巷80號","121.438626666667","24.979765","6501300","土城區"
"236032","271-VK","2018/08/09 13:49:35","新北市土城區城林路6巷80號","121.438405","24.979735","6501300","土城區"
"236017","401-BY","2018/08/09 13:49:48","新北市土城區城林路6巷80號","121.438533333333","24.9797533333333","6501300","土城區"
"236005","498-BY","2018/08/09 13:49:32","新北市土城區中華路二段61號","121.439421666667","24.97859","6501300","土城區"
"236057","912-UM","2018/08/09 13:49:40","新北市土城區中央路二段280號","121.440805","24.974145","6501300","土城區"
"236045","913-UM","2018/08/09 13:49:42","新北市土城區城林路6巷80號","121.438501666667","24.97972","6501300","土城區"
"236060","915-UM","2018/08/09 13:49:41","新北市土城區城林路6巷80號","121.438466666667","24.9797316666667","6501300","土城區"
"236054","AAC-216","2018/08/09 13:49:38","新北市土城區城林路6巷80號","121.438736666667","24.9796683333333","6501300","土城區"
"220027","145-BY","2018/08/09 13:49:37","新北市板橋區中正路107號","121.456353333333","25.0148316666667","6500100","板橋區"
"220028","200-UY","2018/08/09 13:49:47","新北市板橋區大觀路二段265巷62號","121.442495","24.9978216666667","6500100","板橋區"
"220030","610-BX","2018/08/09 13:49:35","新北市板橋區篤行路三段玉平巷68弄2號","121.427953333333","24.9861733333333","6500100","板橋區"
"220040","267-BY","2018/08/09 13:49:30","新北市板橋區民生路二段161巷1號","121.470078333333","25.0200116666667","6500100","板橋區"
"220004","276-BY","2018/08/09 13:49:34","新北市土城區四川路33號","121.454881666667","24.9958483333333","6500100","板橋區"
"220020","277-BY","2018/08/09 13:49:35","新北市板橋區大觀路三段36巷54弄3號","121.434521666667","24.997135","6500100","板橋區"
"220043","280-UM","2018/08/09 13:49:32","新北市板橋區縣民大道三段32號","121.471438333333","25.0189016666667","6500100","板橋區"
"220001","285-VK","2018/08/09 13:49:45","新北市板橋區民生路二段89-1號","121.4715","25.0180566666667","6500100","板橋區"
"220031","286-VK","2018/08/09 13:49:45","新北市板橋區僑中三街40號","121.445186666667","25.0049033333333","6500100","板橋區"
"220039","288-VK","2018/08/09 13:49:38","新北市板橋區民生路二段120號","121.470591666667","25.0196266666667","6500100","板橋區"
"220009","293-UM","2018/08/09 13:49:30","新北市板橋區民生路二段89-4號","121.470965","25.018375","6500100","板橋區"
"220010","295-UM","2018/08/09 13:49:46","新北市板橋區中山路二段28號","121.472673333333","25.01513","6500100","板橋區"
"220023","303-R5","2018/08/09 13:49:46","新北市板橋區館前西路267號","121.453848333333","25.008685","6500100","板橋區"
"220012","486-VK","2018/08/09 13:49:31","新北市板橋區中山路二段37號","121.473003333333","25.0154183333333","6500100","板橋區"
"220037","491-VK","2018/08/09 13:49:39","新北市板橋區民生路二段161巷1號","121.469903333333","25.020095","6500100","板橋區"
"220104","560-BX","2018/08/09 13:49:37","新北市板橋區中正路275巷57號","121.45306","25.0179816666667","6500100","板橋區"
"220052","561-BX","2018/08/09 13:49:43","新北市板橋區民生路二段161巷5號","121.470281666667","25.019755","6500100","板橋區"
"220019","568-UM","2018/08/09 13:49:40","新北市板橋區忠孝路176巷25號","121.465331666667","25.0017933333333","6500100","板橋區"
"220011","609-BX","2018/08/09 13:49:35","新北市板橋區觀光街12巷1弄6號","121.471813333333","25.0169683333333","6500100","板橋區"
"220002","630-UY","2018/08/09 13:49:37","新北市板橋區館前東路2-2號","121.459426666667","25.007025","6500100","板橋區"
"220005","686-BX","2018/08/09 13:49:44","新北市板橋區館前西路4-1號","121.459121666667","25.0070866666667","6500100","板橋區"
"220025","687-BX","2018/08/09 13:49:41","新北市板橋區大觀路三段133巷1號","121.432728333333","24.994105","6500100","板橋區"
"220042","689-BX","2018/08/09 13:49:45","新北市板橋區民生路二段161巷1號","121.470095","25.0201366666667","6500100","板橋區"
"220051","KEA-2699","2018/08/09 13:49:42","新北市板橋區民生路二段161巷1號","121.470208333333","25.0199966666667","6500100","板橋區"
"220014","829-TW","2018/08/09 13:49:45","新北市板橋區民生路一段75號","121.474858333333","25.0135816666667","6500100","板橋區"
"220016","830-TW","2018/08/09 13:49:43","新北市板橋區民生路二段89-4號","121.471166666667","25.0184016666667","6500100","板橋區"
"220038","833-TW","2018/08/09 13:49:31","新北市板橋區民生路二段171號","121.469966666667","25.020205","6500100","板橋區"
"220022","895-R6","2018/08/09 13:49:45","新北市板橋區府中路57號","121.45839","25.00948","6500100","板橋區"
"220021","985-R7","2018/08/09 13:49:39","新北市板橋區府中路32號","121.45824","25.00961","6500100","板橋區"
"220018","AAC-253","2018/08/09 13:49:39","新北市板橋區四川路一段90號","121.459676666667","25.0050166666667","6500100","板橋區"
"235032","KEA-2873","2018/08/09 13:49:44","新北市中和區圓通路204號","121.496036666667","24.994155","6500300","中和區"
"235025","KEA-2875","2018/08/09 13:49:43","新北市中和區民享街71號","121.474311666667","25.002175","6500300","中和區"
