"lineid","car","time","location","longitude","latitude","cityid","cityname"
"234044","148-BY","2018/08/09 13:59:42","新北市永和區永元路120號","121.52288","25.0026116666667","6500400","永和區"
"234005","207-UY","2018/08/09 13:59:39","新北市中和區中和路320號","121.509538333333","25.0006733333333","6500400","永和區"
"234078","298-R6","2018/08/09 13:59:47","新北市永和區林森路112巷12弄8號","121.522563333333","25.00446","6500400","永和區"
"234062","337-UY","2018/08/09 13:59:34","新北市永和區中正路412巷20弄19號","121.51894","25.0015433333333","6500400","永和區"
"234084","338-UY","2018/08/09 13:59:33","新北市永和區福和路66號","121.52331","25.0080783333333","6500400","永和區"
"234068","552-UM","2018/08/09 13:59:32","新北市永和區國光路14號","121.519138333333","25.0083866666667","6500400","永和區"
"234036","553-UM","2018/08/09 13:59:19","新北市永和區成功路二段152-2號","121.526526666667","24.9966083333333","6500400","永和區"
"234015","745-BX","2018/08/09 13:59:44","新北市永和區文化路121巷1號","121.512511666667","25.015125","6500400","永和區"
"234028","746-BX","2018/08/09 13:59:47","新北市永和區四維街103巷16號","121.523758333333","24.9971233333333","6500400","永和區"
"234052","KEA-2590","2018/08/09 13:59:44","新北市永和區竹林路58號","121.517856666667","25.01387","6500400","永和區"
"234012","KEA-2591","2018/08/09 13:59:33","新北市永和區保生路55號","121.504721666667","25.010625","6500400","永和區"
"234060","AAD-866","2018/08/09 13:59:34","新北市永和區中正路151巷14號","121.515628333333","24.9988816666667","6500400","永和區"
"234040","862-TW","2018/08/09 13:59:48","新北市永和區中和路335巷18弄32號","121.508171666667","25.000505","6500400","永和區"
"234048","863-TW","2018/08/09 13:59:34","新北市永和區保安路149巷5號","121.507363333333","25.0130066666667","6500400","永和區"
"234010","9373-KE","2018/08/09 13:59:37","新北市永和區仁愛路352巷112弄19號","121.501201666667","25.0086516666667","6500400","永和區"
"248015","026-BX","2018/08/09 13:59:30","新北市五股區成泰路三段543巷12弄7號","121.451276666667","25.10227","6501500","五股區"
"248007","095-VK","2018/08/09 13:59:41","新北市五股區中興路一段128巷38號","121.465811666667","25.0753766666667","6501500","五股區"
"248017","225-UY","2018/08/09 13:59:48","新北市五股區民義路一段251號","121.428053333333","25.0908266666667","6501500","五股區"
"248011","247-BX","2018/08/09 13:59:33","新北市五股區成泰路二段195巷1號","121.44033","25.0873816666667","6501500","五股區"
"248003","677-BX","2018/08/09 13:59:40","新北市五股區民義路二段42-3號","121.415608333333","25.09996","6501500","五股區"
"248001","678-BX","2018/08/09 13:59:42","新北市五股區凌雲路一段163號","121.448846666667","25.10262","6501500","五股區"
"248009","682-TV","2018/08/09 13:59:26","新北市五股區水碓二路1號","121.430581666667","25.0713","6501500","五股區"
"234022","9380-KE","2018/08/09 13:59:33","新北市永和區永和路二段297號","121.515966666667","25.015985","6500400","永和區"
"234076","969-R7","2018/08/09 13:59:30","新北市永和區民權路58巷1弄10號","121.519775","24.9977683333333","6500400","永和區"
"234072","AAC-211","2018/08/09 13:59:43","新北市永和區豫溪街155號","121.521303333333","25.010405","6500400","永和區"
"234066","AAC-212","2018/08/09 13:59:38","新北市永和區永貞路358號","121.510291666667","25.0066216666667","6500400","永和區"
"234001","AAC-295","2018/08/09 13:59:45","新北市永和區福和路316-2號","121.515961666667","25.007335","6500400","永和區"
"244003","248-BX","2018/08/09 13:59:42","新北市林口區太平里12鄰2號","121.361513333333","25.1329333333333","6501700","林口區"
"243005","AAD-798","2018/08/09 13:59:38","新北市泰山區明志路三段239號","121.423515","25.03778","6501600","泰山區"
"243008","KEA-2801","2018/08/09 13:59:40","新北市泰山區明志路二段152-1號","121.427518333333","25.050715","6501600","泰山區"
"243007","421-VK","2018/08/09 13:59:37","新北市泰山區美寧街1號","121.430021666667","25.0633083333333","6501600","泰山區"
"243003","KEA-2215","2018/08/09 13:59:40","新北市泰山區明志路二段214號","121.427258333333","25.048885","6501600","泰山區"
"243002","KEA-2216","2018/08/09 13:59:44","新北市泰山區辭修路28號","121.42906","25.058375","6501600","泰山區"
"243004","646-TV","2018/08/09 13:59:36","新北市泰山區福興三街187號","121.433081666667","25.0571716666667","6501600","泰山區"
"243006","680-BX","2018/08/09 13:59:35","新北市泰山區黎明路2-5號","121.420841666667","25.0626616666667","6501600","泰山區"
"231002","002-UM","2018/08/09 13:59:33","新北市新店區中正路695巷2號","121.534011666667","24.9907033333333","6500600","新店區"
"231027","0293-UT","2018/08/09 13:59:45","新北市新店區中興路一段24號","121.538696666667","24.9582316666667","6500600","新店區"
"231028","046-UY","2018/08/09 13:59:34","新北市新店區安和路三段7號","121.51803","24.9806083333333","6500600","新店區"
"231001","047-UY","2018/08/09 13:59:42","新北市新店區三民路47號","121.537071666667","24.97094","6500600","新店區"
"231005","106-UY","2018/08/09 13:59:31","新北市新店區寶中路45-2號","121.544816666667","24.9795666666667","6500600","新店區"
"231010","107-UY","2018/08/09 13:59:38","新北市新店區安康路一段35-1號","121.53216","24.96058","6500600","新店區"
"231021","108-UY","2018/08/09 13:59:30","新北市新店區湖子內路22號","121.542303333333","24.9308716666667","6500600","新店區"
"231036","110-UY","2018/08/09 13:59:42","新北市新店區安祥路110巷30弄1號","121.473878333333","24.95637","6500600","新店區"
"231011","187-VK","2018/08/09 13:59:41","新北市新店區中興路一段282-5號","121.546313333333","24.9681683333333","6500600","新店區"
"231023","KEA-2219","2018/08/09 13:59:29","新北市新店區文中路40號","121.539748333333","24.9566133333333","6500600","新店區"
"231026","256-BX","2018/08/09 13:59:35","新北市新店區三民路159巷19弄46號","121.532241666667","24.9732116666667","6500600","新店區"
"231003","268-BY","2018/08/09 13:59:41","新北市新店區中興路一段110-1號","121.541201666667","24.96236","6500600","新店區"
"231018","278-BY","2018/08/09 13:59:43","新北市新店區中央路133巷16號","121.530905","24.9734766666667","6500600","新店區"
"231017","AAD-862","2018/08/09 13:59:45","新北市新店區郵政路4巷12號","121.556095","24.95178","6500600","新店區"
"231038","3712-VJ","2018/08/09 13:59:33","新北市新店區安華路30巷3號","121.519633333333","24.9592466666667","6500600","新店區"
"231037","4716-K9","2018/08/09 13:59:38","新北市新店區安康路三段165巷2弄29號","121.487968333333","24.951485","6500600","新店區"
"231025","4715-K9","2018/08/09 13:59:30","新北市新店區中正路328巷42弄4號","121.53831","24.976165","6500600","新店區"
"231013","513-UM","2018/08/09 13:59:48","新北市新店區明德路115號","121.541378333333","24.9796533333333","6500600","新店區"
"231034","616-UM","2018/08/09 13:59:35","新北市新店區車子路160號","121.504656666667","24.9467033333333","6500600","新店區"
"231006","618-UM","2018/08/09 13:59:33","新北市新店區北宜路二段215號","121.553273333333","24.9533316666667","6500600","新店區"
"231030","619-UM","2018/08/09 13:59:31","新北市新店區安康路一段230-3號","121.522318333333","24.963755","6500600","新店區"
"231035","719-UM","2018/08/09 13:59:27","新北市新店區安康路二段1-5號","121.517051666667","24.9638966666667","6500600","新店區"
"231031","720-UM","2018/08/09 13:59:46","新北市新店區華城路11號","121.529433333333","24.9592116666667","6500600","新店區"
"231029","897-TW","2018/08/09 13:59:42","新北市新店區安康路二段86號","121.51387","24.96323","6500600","新店區"
"231004","899-TW","2018/08/09 13:59:42","新北市新店區寶橋路8號","121.543858333333","24.9737683333333","6500600","新店區"
"231024","AKT-0513","2018/08/09 13:59:48","新北市新店區環河路120號","121.536611666667","24.9681566666667","6500600","新店區"
"235030","003-UY","2018/08/09 13:59:38","新北市中和區中山路二段131巷5弄4號","121.502928333333","25.002855","6500300","中和區"
"235028","005-UY","2018/08/09 13:59:40","新北市中和區泰和街30巷2號","121.499461666667","25.00064","6500300","中和區"
"235027","006-UY","2018/08/09 13:59:38","新北市中和區中正路518號","121.488198333333","24.9944816666667","6500300","中和區"
"235020","096-UM","2018/08/09 13:59:18","新北市中和區中正路1220巷10號","121.479846666667","25.0113633333333","6500300","中和區"
"235003","097-UM","2018/08/09 13:59:40","新北市中和區自立路58巷1號","121.523545","24.9915016666667","6500300","中和區"
"235029","098-UM","2018/08/09 13:59:43","新北市中和區中山路二段2巷45弄44號","121.501853333333","25.0064233333333","6500300","中和區"
"235004","150-BY","2018/08/09 13:59:46","新北市中和區保健路44巷1-1號","121.509596666667","24.9971416666667","6500300","中和區"
"235022","151-BY","2018/08/09 13:59:29","新北市中和區員山路128-1號","121.481188333333","24.9961466666667","6500300","中和區"
"235019","183-VK","2018/08/09 13:59:36","新北市板橋區民族路276巷1弄25號","121.470553333333","25.00639","6500300","中和區"
"235002","185-VK","2018/08/09 13:59:45","新北市中和區立人街24-5號","121.518925","24.9941566666667","6500300","中和區"
"235013","186-VK","2018/08/09 13:59:29","新北市中和區景安路100號","121.505536666667","24.9955983333333","6500300","中和區"
"235031","255-BX","2018/08/09 13:59:30","新北市中和區新生街264號","121.483798333333","24.9971816666667","6500300","中和區"
"235008","293-VK","2018/08/09 13:59:28","新北市中和區中興街161巷3弄2號","121.500593333333","24.9909266666667","6500300","中和區"
"235036","301-VK","2018/08/09 13:59:36","新北市中和區中山路二段109號","121.503178333333","25.0038433333333","6500300","中和區"
"235007","352-BY","2018/08/09 13:59:33","新北市中和區成功路1巷4號","121.526443333333","24.9943716666667","6500300","中和區"
"235006","KEA-2878","2018/08/09 13:59:42","新北市中和區秀朗路三段10巷31弄3號","121.524736666667","24.9959666666667","6500300","中和區"
"247009","KEA-2869","2018/08/09 13:59:43","新北市蘆洲區集賢路222巷9號","121.482073333333","25.08701","6501400","蘆洲區"
"235014","4979-A6","2018/08/09 13:59:41","新北市中和區忠孝街30號","121.510655","24.9832316666667","6500300","中和區"
"235033","4980-A6","2018/08/09 13:59:34","新北市中和區中山路二段181巷5號","121.50134","25.00208","6500300","中和區"
"235034","558-UM","2018/08/09 13:59:42","新北市中和區中和路255號","121.505063333333","24.999825","6500300","中和區"
"235009","565-BX","2018/08/09 13:59:41","新北市中和區景新街467巷20弄21號","121.515006666667","24.9873383333333","6500300","中和區"
"235018","640-BX","2018/08/09 13:59:34","新北市中和區民享街82號","121.474365","25.0013316666667","6500300","中和區"
"235024","647-TV","2018/08/09 13:59:42","新北市中和區中山路三段208號","121.471546666667","25.0065233333333","6500300","中和區"
"235011","732-UM","2018/08/09 13:59:28","新北市中和區興南路二段34巷25號","121.506163333333","24.9861333333333","6500300","中和區"
"235010","733-UM","2018/08/09 13:59:27","新北市中和區興南路一段135巷22弄12號","121.5091","24.986795","6500300","中和區"
"235035","783-BX","2018/08/09 13:59:42","新北市中和區立德街55號","121.487948333333","25.0074866666667","6500300","中和區"
"235026","800-TS","2018/08/09 13:59:33","新北市中和區中山路二段332巷63號","121.49331","25.0045783333333","6500300","中和區"
"235021","801-TS","2018/08/09 13:59:36","新北市中和區民利街100巷1號","121.477406666667","24.9979116666667","6500300","中和區"
"235005","802-TS","2018/08/09 13:59:49","新北市中和區中安街58號","121.512948333333","25.0021016666667","6500300","中和區"
"235016","805-TS","2018/08/09 13:59:33","新北市中和區興南路二段261巷6號","121.504086666667","24.9806583333333","6500300","中和區"
"235012","896-TW","2018/08/09 13:59:41","新北市中和區華新街45號","121.507755","24.98461","6500300","中和區"
"235017","900-TW","2018/08/09 13:59:43","新北市中和區壽德街26-1號","121.466501666667","24.99452","6500300","中和區"
"235015","157-BY","2018/08/09 13:59:34","新北市中和區忠孝街11巷12號","121.509891666667","24.9832066666667","6500300","中和區"
"235001","AAC-213","2018/08/09 13:59:40","新北市中和區秀朗路三段10巷37弄4號","121.524163333333","24.9960183333333","6500300","中和區"
"220105","013-TV","2018/08/09 13:59:40","新北市板橋區莒光路38號","121.470323333333","25.024315","6500100","板橋區"
"220003","015-TV","2018/08/09 13:59:39","新北市板橋區中山路一段158巷20號","121.466245","25.0111716666667","6500100","板橋區"
"220013","072-UY","2018/08/09 13:59:43","新北市板橋區漢生東路319號","121.4719","25.00797","6500100","板橋區"
"220034","073-UY","2018/08/09 13:59:49","新北市板橋區中正路236巷36號","121.457043333333","25.0191783333333","6500100","板橋區"
"220017","AAD-861","2018/08/09 13:59:35","新北市板橋區華興街59號","121.457401666667","25.0048716666667","6500100","板橋區"
"247012","402-BY","2018/08/09 13:59:29","新北市八里區中山路三段409號","121.368756666667","25.1342666666667","6501400","蘆洲區"
"247011","339-TH","2018/08/09 13:59:44","新北市蘆洲區中興街30號","121.48094","25.086955","6501400","蘆洲區"
"247003","337-TH","2018/08/09 13:59:47","新北市蘆洲區長榮路20號","121.46387","25.0822933333333","6501400","蘆洲區"
"247005","336-TH","2018/08/09 13:59:31","新北市蘆洲區永安南路二段50號","121.46612","25.077615","6501400","蘆洲區"
"247017","057-VK","2018/08/09 13:59:47","新北市蘆洲區民族路255巷22號","121.475918333333","25.0892483333333","6501400","蘆洲區"
"247007","056-VK","2018/08/09 13:59:32","新北市蘆洲區永安北路二段28號","121.481585","25.0810516666667","6501400","蘆洲區"
"247015","053-VK","2018/08/09 13:59:41","新北市蘆洲區光華路26巷1號","121.469161666667","25.0833233333333","6501400","蘆洲區"
"247019","001-UY","2018/08/09 13:59:29","新北市蘆洲區民族路422巷84-1號","121.473611666667","25.0938566666667","6501400","蘆洲區"
"235023","251-BX","2018/08/09 13:59:39","新北市中和區圓通路369巷14弄20號","121.490518333333","24.9879466666667","6500300","中和區"
"228005","097-TW","2018/08/09 13:53:32","新北市貢寮區美豐里土地公嶺24號","121.89093","25.0656166666667","6502600","貢寮區"
"228004","212-TW","2018/08/09 13:59:37","新北市貢寮區龍崗里嵩陽街42號","121.906558333333","25.0162783333333","6502600","貢寮區"
"253003","6232-TK","2018/08/09 13:59:40","新北市石門區尖子鹿52-1號","121.578691666667","25.2734416666667","6502200","石門區"
"253001","6251-TK","2018/08/09 13:59:35","新北市石門區下員坑58-6號","121.523913333333","25.267525","6502200","石門區"
"253002","637-UY","2018/08/09 13:59:28","新北市石門區七股33-1號","121.553413333333","25.2613183333333","6502200","石門區"
"253004","8270-PC","2018/08/09 13:58:51","新北市石門區草埔尾16號","121.60272","25.2635416666667","6502200","石門區"
"207002","749-BX","2018/08/09 13:59:27","新北市萬里區溪底里烏塗炭9號","121.637541666667","25.1516716666667","6502800","萬里區"
"207001","662-BX","2018/08/09 13:59:42","新北市萬里區磺潭里清水2-2號","121.642546666667","25.2020666666667","6502800","萬里區"
"252005","AAC-283","2018/08/09 13:59:41","新北市三芝區圓山里二坪頂71號","121.537715","25.24102","6502100","三芝區"
"236068","105-UM","2018/08/09 13:59:35","新北市土城區中正路15號","121.443153333333","24.97529","6501300","土城區"
"236040","107-UM","2018/08/09 13:59:40","新北市土城區城林路6巷80號","121.438523333333","24.9797816666667","6501300","土城區"
"236074","166-UM","2018/08/09 13:59:26","新北市土城區永寧路32巷10弄23號","121.428916666667","24.96104","6501300","土城區"
"236029","253-BX","2018/08/09 13:59:44","新北市土城區城林路6巷80號","121.43859","24.97976","6501300","土城區"
"236024","269-VK","2018/08/09 13:59:39","新北市土城區承天路18號","121.439251666667","24.963605","6501300","土城區"
"236012","270-VK","2018/08/09 13:59:44","新北市土城區城林路6巷80號","121.438618333333","24.9797533333333","6501300","土城區"
"236032","271-VK","2018/08/09 13:59:35","新北市土城區城林路6巷80號","121.438443333333","24.97973","6501300","土城區"
"236017","401-BY","2018/08/09 13:59:28","新北市土城區城林路6巷80號","121.438491666667","24.979775","6501300","土城區"
"236005","498-BY","2018/08/09 13:59:32","新北市土城區中央路一段365巷1弄1號","121.443373333333","24.9810016666667","6501300","土城區"
"236057","912-UM","2018/08/09 13:59:40","新北市土城區中央路三段74號","121.43651","24.967125","6501300","土城區"
"236045","913-UM","2018/08/09 13:59:42","新北市土城區中華路二段115號","121.439035","24.9769233333333","6501300","土城區"
"236060","915-UM","2018/08/09 13:59:41","新北市土城區員福街38號","121.4407","24.9789916666667","6501300","土城區"
"236054","AAC-216","2018/08/09 13:59:38","新北市土城區城林路6巷80號","121.438731666667","24.9796933333333","6501300","土城區"
"221032","280-BY","2018/08/09 13:59:30","新北市汐止區新江北路5號","121.652795","25.0706633333333","6501100","汐止區"
"220027","145-BY","2018/08/09 13:59:17","新北市板橋區民權路202巷5弄5-1號","121.459668333333","25.014725","6500100","板橋區"
"220028","200-UY","2018/08/09 13:59:27","新北市板橋區大觀路二段46弄11-15號","121.446881666667","24.99677","6500100","板橋區"
"220030","610-BX","2018/08/09 13:59:35","新北市板橋區溪崑一街112號","121.429171666667","24.9887633333333","6500100","板橋區"
"220050","245-BX","2018/08/09 13:59:44","新北市板橋區莊敬路125巷1弄9號","121.47233","25.0255916666667","6500100","板橋區"
"220040","267-BY","2018/08/09 13:59:30","新北市板橋區大同街55號","121.478645","25.0275666666667","6500100","板橋區"
"220004","276-BY","2018/08/09 13:59:34","新北市板橋區信義路165號","121.458711666667","24.992315","6500100","板橋區"
"220020","277-BY","2018/08/09 13:59:35","新北市板橋區溪北路154號","121.43047","24.988315","6500100","板橋區"
"220043","280-UM","2018/08/09 13:59:33","新北市板橋區民生路三段34號","121.46778","25.02484","6500100","板橋區"
"220001","285-VK","2018/08/09 13:59:41","新北市板橋區中山路二段89巷53號","121.473625","25.0173583333333","6500100","板橋區"
"220031","286-VK","2018/08/09 13:59:45","新北市板橋區大觀路一段38巷156弄36-1號","121.44265","25.0058066666667","6500100","板橋區"
"220029","287-VK","2018/08/09 13:59:46","新北市板橋區光華街35號","121.453806666667","25.01273","6500100","板橋區"
"220039","288-VK","2018/08/09 13:59:38","新北市板橋區互助街25巷9號","121.463231666667","25.0269583333333","6500100","板橋區"
"220009","293-UM","2018/08/09 13:59:37","新北市板橋區永豐街118號","121.476395","25.0208116666667","6500100","板橋區"
"220010","295-UM","2018/08/09 13:59:46","新北市板橋區三民路二段245巷53號","121.480715","25.01259","6500100","板橋區"
"220032","296-UM","2018/08/09 13:59:34","新北市板橋區篤行路一段16號","121.431323333333","24.9954916666667","6500100","板橋區"
"220023","303-R5","2018/08/09 13:59:45","新北市板橋區大智街55巷6號","121.453851666667","25.01514","6500100","板橋區"
"220041","307-R5","2018/08/09 13:59:42","新北市板橋區文化路一段104巷1弄4號","121.465098333333","25.017545","6500100","板橋區"
"220047","317-R6","2018/08/09 13:59:42","新北市板橋區民生路三段139號","121.465846666667","25.0262016666667","6500100","板橋區"
"220012","486-VK","2018/08/09 13:59:38","新北市板橋區板新路237號","121.467518333333","25.01593","6500100","板橋區"
"220037","491-VK","2018/08/09 13:59:39","新北市板橋區民生路二段226巷1號","121.469268333333","25.022045","6500100","板橋區"
"220104","560-BX","2018/08/09 13:59:37","新北市板橋區中正路341巷27號","121.454326666667","25.0198583333333","6500100","板橋區"
"220052","561-BX","2018/08/09 13:59:43","新北市板橋區縣民大道二段200巷13號","121.469898333333","25.0176233333333","6500100","板橋區"
"220019","568-UM","2018/08/09 13:59:47","新北市板橋區重慶路247號","121.46331","25.00054","6500100","板橋區"
"220011","609-BX","2018/08/09 13:59:35","新北市板橋區中山路二段92號","121.475293333333","25.0164366666667","6500100","板橋區"
"220002","630-UY","2018/08/09 13:59:37","新北市板橋區後埔街41號","121.46054","25.0060633333333","6500100","板橋區"
"220005","686-BX","2018/08/09 13:59:40","新北市板橋區重慶路161號","121.462646666667","25.0028566666667","6500100","板橋區"
"220025","687-BX","2018/08/09 13:59:41","新北市板橋區大觀路二段174巷165弄2號","121.441826666667","25.003325","6500100","板橋區"
"220042","689-BX","2018/08/09 13:59:45","新北市板橋區民生路三段136號","121.466328333333","25.027035","6500100","板橋區"
"220051","KEA-2699","2018/08/09 13:59:42","新北市板橋區田單街2巷30號","121.481461666667","25.0277233333333","6500100","板橋區"
"220014","829-TW","2018/08/09 13:59:45","新北市板橋區三民路二段正隆巷12弄1號","121.478045","25.0129416666667","6500100","板橋區"
"220016","830-TW","2018/08/09 13:59:43","新北市板橋區中山路二段443巷76號","121.481098333333","25.0222333333333","6500100","板橋區"
"220045","831-TW","2018/08/09 13:59:46","新北市板橋區莒光路118號","121.4725","25.0238666666667","6500100","板橋區"
"220038","833-TW","2018/08/09 13:59:31","新北市板橋區文化路二段319號","121.472273333333","25.0298783333333","6500100","板橋區"
"220022","895-R6","2018/08/09 13:59:44","新北市板橋區南雅南路一段108號","121.454943333333","25.0042183333333","6500100","板橋區"
"220021","985-R7","2018/08/09 13:59:38","新北市板橋區林園街7-1號","121.454071666667","25.00917","6500100","板橋區"
"220046","AAC-210","2018/08/09 13:59:30","新北市板橋區國光路211巷4號","121.46229","25.01897","6500100","板橋區"
"220018","AAC-253","2018/08/09 13:59:39","新北市板橋區四川路一段337號","121.458501666667","25.0001116666667","6500100","板橋區"
"235032","KEA-2873","2018/08/09 13:59:44","新北市中和區安邦街87號","121.496963333333","24.9964083333333","6500300","中和區"
"235025","KEA-2875","2018/08/09 13:59:43","新北市中和區中山路三段118號","121.47569","25.0059683333333","6500300","中和區"
