"lineid","car","time","location","longitude","latitude","cityid","cityname"
"234025","9371-KE","2018/08/09 14:49:39","新北市永和區雙和街52巷2號","121.509048333333","25.00315","6500400","永和區"
"248015","026-BX","2018/08/09 14:49:30","新北市五股區成泰路三段577巷80弄7號","121.449496666667","25.1042866666667","6501500","五股區"
"248007","095-VK","2018/08/09 14:49:41","新北市五股區國道路三段1號","121.469901666667","25.0750116666667","6501500","五股區"
"248017","225-UY","2018/08/09 14:49:08","新北市五股區外寮路13-1號","121.424776666667","25.0814333333333","6501500","五股區"
"248011","247-BX","2018/08/09 14:49:33","新北市五股區民義路一段212號","121.430543333333","25.0894833333333","6501500","五股區"
"248013","261-SL","2018/08/09 14:49:33","新北市五股區五福路22巷4號","121.43461","25.0889833333333","6501500","五股區"
"248003","677-BX","2018/08/09 14:49:40","新北市五股區成泰路一段106-1號","121.435685","25.071765","6501500","五股區"
"248001","678-BX","2018/08/09 14:49:42","新北市五股區成泰路三段165號","121.445265","25.0918016666667","6501500","五股區"
"248009","682-TV","2018/08/09 14:49:46","新北市五股區成泰路一段61巷16號","121.433776666667","25.0688266666667","6501500","五股區"
"234072","AAC-211","2018/08/09 14:49:43","新北市永和區環河西路二段167號","121.505131666667","25.0137716666667","6500400","永和區"
"244003","248-BX","2018/08/09 14:49:41","新北市林口區瑞平里33-1號","121.348365","25.12889","6501700","林口區"
"243005","AAD-798","2018/08/09 14:49:38","新北市泰山區明志路三段72號","121.424868333333","25.041825","6501600","泰山區"
"243001","297-R6","2018/08/09 14:49:43","新北市泰山區泰林路二段116巷4弄1號","121.435231666667","25.0595833333333","6501600","泰山區"
"243008","KEA-2801","2018/08/09 14:49:44","新北市泰山區貴陽街34號","121.423101666667","25.0325116666667","6501600","泰山區"
"243007","421-VK","2018/08/09 14:49:37","新北市泰山區明志路二段1號","121.4302","25.053885","6501600","泰山區"
"243003","KEA-2215","2018/08/09 14:49:40","新北市泰山區工專路21號","121.423508333333","25.03975","6501600","泰山區"
"243002","KEA-2216","2018/08/09 14:49:47","新北市泰山區明志路二段273巷12號","121.427346666667","25.0471333333333","6501600","泰山區"
"243004","646-TV","2018/08/09 14:49:50","新北市泰山區楓江路86巷16-1號","121.437286666667","25.062465","6501600","泰山區"
"243006","680-BX","2018/08/09 14:49:35","新北市泰山區明志路一段147號","121.433431666667","25.0628016666667","6501600","泰山區"
"231002","002-UM","2018/08/09 14:49:32","新北市新店區民權路102號","121.536015","24.98293","6500600","新店區"
"231027","0293-UT","2018/08/09 14:49:45","新北市新店區溪園路395號","121.523568333333","24.9773766666667","6500600","新店區"
"231028","046-UY","2018/08/09 14:49:34","新北市新店區安德街73號","121.510183333333","24.9614583333333","6500600","新店區"
"231001","047-UY","2018/08/09 14:49:42","新北市新店區三民路66號","121.534936666667","24.9722666666667","6500600","新店區"
"231005","106-UY","2018/08/09 14:49:31","新北市新店區復興路2號","121.532428333333","24.988245","6500600","新店區"
"231021","108-UY","2018/08/09 14:49:30","新北市新店區桂山路38號","121.558318333333","24.9029683333333","6500600","新店區"
"231036","110-UY","2018/08/09 14:49:42","新北市新店區安祥路106巷66號","121.475401666667","24.9606816666667","6500600","新店區"
"231011","187-VK","2018/08/09 14:49:41","新北市新店區寶橋路69-1號","121.545456666667","24.9750266666667","6500600","新店區"
"231023","KEA-2219","2018/08/09 14:49:29","新北市新店區檳榔路109號","121.544448333333","24.961685","6500600","新店區"
"231026","256-BX","2018/08/09 14:49:31","新北市新店區安一路一段1-1號","121.5199","24.961505","6500600","新店區"
"231003","268-BY","2018/08/09 14:49:41","新北市新店區中興路二段55號","121.546476666667","24.9702566666667","6500600","新店區"
"231018","278-BY","2018/08/09 14:49:43","新北市新店區中央六街1號","121.530481666667","24.9744116666667","6500600","新店區"
"231017","AAD-862","2018/08/09 14:49:45","新北市新店區北宜路三段85號","121.577246666667","24.9517766666667","6500600","新店區"
"231038","3712-VJ","2018/08/09 14:49:33","新北市新店區安華路28-1號","121.519681666667","24.9608966666667","6500600","新店區"
"231037","4716-K9","2018/08/09 14:49:15","新北市新店區安德街60巷5號","121.510036666667","24.9629816666667","6500600","新店區"
"231025","4715-K9","2018/08/09 14:49:37","新北市新店區建國路198巷13號","121.538106666667","24.9804633333333","6500600","新店區"
"231013","513-UM","2018/08/09 14:49:48","新北市新店區北新路二段59巷9號","121.54253","24.9733333333333","6500600","新店區"
"231034","616-UM","2018/08/09 14:49:34","新北市新店區安康路二段389號","121.494563333333","24.95433","6500600","新店區"
"231006","618-UM","2018/08/09 14:49:33","新北市新店區北宜路一段154號","121.540278333333","24.95374","6500600","新店區"
"231030","619-UM","2018/08/09 14:49:31","新北市新店區安民街261號","121.517373333333","24.972685","6500600","新店區"
"231035","719-UM","2018/08/09 14:48:27","新北市新店區安和路二段156號","121.519795","24.9733033333333","6500600","新店區"
"231029","897-TW","2018/08/09 14:49:42","新北市新店區錦秀路13號","121.479515","24.9447083333333","6500600","新店區"
"231004","899-TW","2018/08/09 14:49:42","新北市新店區建國路131號","121.539428333333","24.978115","6500600","新店區"
"231024","AKT-0513","2018/08/09 14:49:27","新北市新店區中華路83巷67號","121.538326666667","24.9672616666667","6500600","新店區"
"235030","003-UY","2018/08/09 14:49:38","新北市中和區景新街73巷2號","121.50534","24.9987066666667","6500300","中和區"
"235020","096-UM","2018/08/09 14:49:38","新北市中和區中山路三段114巷26弄1號","121.475831666667","25.0070566666667","6500300","中和區"
"235003","097-UM","2018/08/09 14:49:40","新北市中和區安樂路139號","121.514451666667","24.9966666666667","6500300","中和區"
"235029","098-UM","2018/08/09 14:49:43","新北市中和區永和路90巷2弄14號","121.497796666667","25.0055366666667","6500300","中和區"
"235004","150-BY","2018/08/09 14:49:46","新北市中和區安和路55號","121.508841666667","24.9948","6500300","中和區"
"235022","151-BY","2018/08/09 14:49:29","新北市中和區員山路122號","121.481143333333","24.9959016666667","6500300","中和區"
"235002","185-VK","2018/08/09 14:49:45","新北市永和區民生路46巷50號","121.520948333333","24.9962866666667","6500300","中和區"
"235013","186-VK","2018/08/09 14:49:50","新北市中和區中興街26號","121.500983333333","24.9948616666667","6500300","中和區"
"235031","255-BX","2018/08/09 14:49:30","新北市中和區新生街152號","121.483648333333","25.0005633333333","6500300","中和區"
"235008","293-VK","2018/08/09 14:49:48","新北市中和區南山路273號","121.503968333333","24.9924783333333","6500300","中和區"
"235036","301-VK","2018/08/09 14:49:36","新北市中和區中山路二段3巷22弄4號","121.50625","25.00518","6500300","中和區"
"235007","352-BY","2018/08/09 14:49:33","新北市中和區景平路334號","121.512028333333","24.99277","6500300","中和區"
"235014","4979-A6","2018/08/09 14:49:41","新北市中和區和平街164巷7號","121.505953333333","24.9925433333333","6500300","中和區"
"235033","4980-A6","2018/08/09 14:49:34","新北市中和區景新街34巷6號","121.503078333333","24.9991483333333","6500300","中和區"
"235034","558-UM","2018/08/09 14:49:36","新北市中和區連勝街36號","121.498098333333","24.9976483333333","6500300","中和區"
"235018","640-BX","2018/08/09 14:49:34","新北市中和區莒光路222-8號","121.469016666667","24.9947616666667","6500300","中和區"
"235024","647-TV","2018/08/09 14:49:42","新北市中和區中山路二段485號","121.482796666667","25.0049916666667","6500300","中和區"
"235011","732-UM","2018/08/09 14:49:47","新北市中和區和平街112號","121.507028333333","24.9914316666667","6500300","中和區"
"235010","733-UM","2018/08/09 14:49:47","新北市中和區仁愛街49號","121.511243333333","24.98818","6500300","中和區"
"235035","783-BX","2018/08/09 14:49:42","新北市中和區建康路8號","121.486485","25.0001716666667","6500300","中和區"
"235026","800-TS","2018/08/09 14:49:40","新北市中和區中山路二段389號","121.486776666667","25.0048633333333","6500300","中和區"
"235016","805-TS","2018/08/09 14:49:38","新北市中和區華新街144巷5號","121.507685","24.9828633333333","6500300","中和區"
"235012","896-TW","2018/08/09 14:49:41","新北市中和區四維街40號","121.512355","24.9869716666667","6500300","中和區"
"235017","900-TW","2018/08/09 14:49:47","新北市中和區國光街215巷10弄13-2號","121.466848333333","25.000405","6500300","中和區"
"235015","157-BY","2018/08/09 14:49:34","新北市中和區景安路247巷9號","121.50443","24.99056","6500300","中和區"
"235001","AAC-213","2018/08/09 14:49:40","新北市中和區自立路62號","121.523731666667","24.9914366666667","6500300","中和區"
"220105","013-TV","2018/08/09 14:49:40","新北市板橋區文化路二段608巷50號","121.47966","25.0344233333333","6500100","板橋區"
"220003","015-TV","2018/08/09 14:49:51","新北市板橋區國慶路149巷21弄12號","121.460313333333","24.9973233333333","6500100","板橋區"
"220013","072-UY","2018/08/09 14:49:43","新北市板橋區國泰街39巷7弄1號","121.468601666667","25.0056766666667","6500100","板橋區"
"220034","073-UY","2018/08/09 14:49:29","新北市板橋區南雅西路二段7巷25號","121.451908333333","25.0094883333333","6500100","板橋區"
"220017","AAD-861","2018/08/09 14:49:35","新北市板橋區南雅南路二段7巷12號","121.454405","25.0029316666667","6500100","板橋區"
"247023","893-R6","2018/08/09 14:49:40","新北市五股區四維路185巷26號","121.465408333333","25.0774866666667","6501400","蘆洲區"
"247013","546-UM","2018/08/09 14:49:32","新北市蘆洲區得勝街117號","121.472503333333","25.0834166666667","6501400","蘆洲區"
"247021","500-BY","2018/08/09 14:49:40","新北市蘆洲區三民路366-3號","121.465526666667","25.0923066666667","6501400","蘆洲區"
"247012","402-BY","2018/08/09 14:49:49","新北市蘆洲區中正路187號","121.468703333333","25.0855366666667","6501400","蘆洲區"
"247005","336-TH","2018/08/09 14:49:31","新北市蘆洲區中華街30號","121.46267","25.0812016666667","6501400","蘆洲區"
"247007","056-VK","2018/08/09 14:49:32","新北市蘆洲區中山一路135巷8號","121.47573","25.0811083333333","6501400","蘆洲區"
"247015","053-VK","2018/08/09 14:49:41","新北市蘆洲區和平路174巷20號","121.467183333333","25.0817183333333","6501400","蘆洲區"
"247001","002-UY","2018/08/09 14:49:38","新北市蘆洲區長安街246巷32號","121.45882","25.0864383333333","6501400","蘆洲區"
"247019","001-UY","2018/08/09 14:49:29","新北市蘆洲區民義街71巷6號","121.472988333333","25.0903633333333","6501400","蘆洲區"
"235023","251-BX","2018/08/09 14:49:39","新北市中和區圓通路305巷5弄53號","121.495015","24.990235","6500300","中和區"
"228005","097-TW","2018/08/09 14:49:32","新北市貢寮區美豐里丹裡街67號","121.907538333333","25.05815","6502600","貢寮區"
"228004","212-TW","2018/08/09 14:49:37","新北市貢寮區福隆里裕隆街3-1號","121.946178333333","25.01592","6502600","貢寮區"
"253003","6232-TK","2018/08/09 14:49:40","新北市石門區尖子鹿89號","121.577955","25.2893083333333","6502200","石門區"
"253001","6251-TK","2018/08/09 14:49:35","新北市石門區崁子腳53-2號","121.537166666667","25.28257","6502200","石門區"
"253002","637-UY","2018/08/09 14:49:48","新北市石門區崁子腳28-2號","121.540073333333","25.2889033333333","6502200","石門區"
"253004","8270-PC","2018/08/09 14:49:47","新北市石門區內阿里磅25號","121.591336666667","25.2433566666667","6502200","石門區"
"207002","749-BX","2018/08/09 14:49:46","新北市萬里區崁腳里崁腳路73號","121.647631666667","25.15959","6502800","萬里區"
"207001","662-BX","2018/08/09 14:44:01","新北市萬里區雙興里豐稟路22-1號","121.640148333333","25.1848733333333","6502800","萬里區"
"252005","AAC-283","2018/08/09 14:49:41","新北市三芝區埔坪里埔頭坑147號","121.510326666667","25.2498966666667","6502100","三芝區"
"236068","105-UM","2018/08/09 14:49:35","新北市土城區明德路一段369號","121.455265","24.9780266666667","6501300","土城區"
"236040","107-UM","2018/08/09 14:49:40","新北市土城區裕民路114巷27號","121.450406666667","24.9856616666667","6501300","土城區"
"236074","166-UM","2018/08/09 14:49:46","新北市土城區中央路四段69號","121.417575","24.9578966666667","6501300","土城區"
"236029","253-BX","2018/08/09 14:49:44","新北市土城區忠義路26巷10號","121.439783333333","24.9699033333333","6501300","土城區"
"236024","269-VK","2018/08/09 14:49:41","新北市土城區慶安街70號","121.440758333333","24.972945","6501300","土城區"
"236012","270-VK","2018/08/09 14:49:44","新北市土城區金城路二段354巷4號","121.460796666667","24.98484","6501300","土城區"
"236032","271-VK","2018/08/09 14:49:40","新北市土城區仁愛路52-1號","121.462298333333","24.9787816666667","6501300","土城區"
"236017","401-BY","2018/08/09 14:49:48","新北市土城區明峰街35號","121.46621","24.9860566666667","6501300","土城區"
"236057","912-UM","2018/08/09 14:49:40","新北市土城區中央路三段181號","121.431416666667","24.965165","6501300","土城區"
"236045","913-UM","2018/08/09 14:49:35","新北市土城區廣福街68巷18弄8號","121.459528333333","24.9904533333333","6501300","土城區"
"236060","915-UM","2018/08/09 14:49:41","新北市土城區延壽路13巷4號","121.470885","24.99048","6501300","土城區"
"236054","AAC-216","2018/08/09 14:49:38","新北市土城區裕民路235號","121.454308333333","24.9832516666667","6501300","土城區"
"238024","5061-A6","2018/08/09 14:49:28","新北市樹林區育德街78-1號","121.388065","24.968035","6500700","樹林區"
"238007","268-VK","2018/08/09 14:49:32","新北市樹林區中山路三段204號","121.386925","24.9681833333333","6500700","樹林區"
"220027","145-BY","2018/08/09 14:49:37","新北市板橋區建國街112號","121.460278333333","25.01744","6500100","板橋區"
"220028","200-UY","2018/08/09 14:49:47","新北市板橋區大觀路二段153巷39弄1號","121.447016666667","25.00046","6500100","板橋區"
"220030","610-BX","2018/08/09 14:49:35","新北市板橋區大觀路三段263號","121.429193333333","24.9922116666667","6500100","板橋區"
"220050","245-BX","2018/08/09 14:49:44","新北市板橋區縣民大道三段93巷28號","121.47485","25.0224516666667","6500100","板橋區"
"220040","267-BY","2018/08/09 14:49:30","新北市板橋區懷德街127巷23弄33號","121.480243333333","25.0320783333333","6500100","板橋區"
"220004","276-BY","2018/08/09 14:49:33","新北市板橋區四川路二段99巷7號","121.452875","24.994225","6500100","板橋區"
"220020","277-BY","2018/08/09 14:49:35","新北市板橋區篤行路二段1巷11號","121.432278333333","24.99265","6500100","板橋區"
"220043","280-UM","2018/08/09 14:49:36","新北市板橋區溪頭街4-1號","121.457583333333","25.0289766666667","6500100","板橋區"
"220001","285-VK","2018/08/09 14:49:34","新北市板橋區民享街89號","121.476953333333","25.0158566666667","6500100","板橋區"
"220031","286-VK","2018/08/09 14:49:26","新北市板橋區僑中二街126巷2號","121.445426666667","25.005205","6500100","板橋區"
"220029","287-VK","2018/08/09 14:49:49","新北市板橋區僑中一街80巷12弄2號","121.447995","25.01291","6500100","板橋區"
"220039","288-VK","2018/08/09 14:49:38","新北市板橋區龍泉街77-1號","121.456546666667","25.0252383333333","6500100","板橋區"
"220009","293-UM","2018/08/09 14:49:50","新北市板橋區觀光街17號","121.471551666667","25.016075","6500100","板橋區"
"220010","295-UM","2018/08/09 14:49:46","新北市板橋區三民路二段29巷31弄1號","121.481393333333","25.0177166666667","6500100","板橋區"
"220023","303-R5","2018/08/09 14:49:45","新北市板橋區金華街10巷48弄24-3號","121.457843333333","25.0199783333333","6500100","板橋區"
"220041","307-R5","2018/08/09 14:49:41","新北市板橋區四維路251號","121.463605","25.0277466666667","6500100","板橋區"
"220047","317-R6","2018/08/09 14:49:42","新北市板橋區新海路154號","121.46079","25.0239666666667","6500100","板橋區"
"220012","486-VK","2018/08/09 14:49:31","新北市板橋區公園街34巷2號","121.462451666667","25.0083766666667","6500100","板橋區"
"220037","491-VK","2018/08/09 14:49:39","新北市板橋區文化路二段550號","121.476151666667","25.0340683333333","6500100","板橋區"
"220104","560-BX","2018/08/09 14:49:37","新北市板橋區金華街126號","121.459315","25.020765","6500100","板橋區"
"220052","561-BX","2018/08/09 14:49:43","新北市板橋區陽明街29巷8號","121.46489","25.0219183333333","6500100","板橋區"
"220019","568-UM","2018/08/09 14:49:49","新北市板橋區五權街32巷1號","121.464883333333","24.9931983333333","6500100","板橋區"
"220011","609-BX","2018/08/09 14:49:45","新北市板橋區三民路一段1巷39號","121.480283333333","25.0247916666667","6500100","板橋區"
"220002","630-UY","2018/08/09 14:49:37","新北市板橋區實踐路65巷32號","121.465076666667","25.00636","6500100","板橋區"
"220005","686-BX","2018/08/09 14:49:30","新北市板橋區廣權路2號","121.460276666667","24.9908783333333","6500100","板橋區"
"220025","687-BX","2018/08/09 14:49:44","新北市板橋區僑中二街152號","121.445138333333","25.0043283333333","6500100","板橋區"
"220042","689-BX","2018/08/09 14:49:45","新北市板橋區長江路一段94號","121.459148333333","25.0293966666667","6500100","板橋區"
"220051","KEA-2699","2018/08/09 14:49:42","新北市板橋區松柏街31號","121.475153333333","25.0302783333333","6500100","板橋區"
"220014","829-TW","2018/08/09 14:49:45","新北市板橋區長安街138巷1弄292號","121.474858333333","25.0111133333333","6500100","板橋區"
"220016","830-TW","2018/08/09 14:49:43","新北市板橋區光復街192巷16弄26號","121.486341666667","25.0192983333333","6500100","板橋區"
"220045","831-TW","2018/08/09 14:49:46","新北市板橋區民生路二段226巷21號","121.470811666667","25.0219316666667","6500100","板橋區"
"220038","833-TW","2018/08/09 14:49:31","新北市板橋區龍泉街137號","121.457695","25.0240583333333","6500100","板橋區"
"220022","895-R6","2018/08/09 14:49:44","新北市板橋區縣民大道一段312號","121.461576666667","25.0109516666667","6500100","板橋區"
"220021","985-R7","2018/08/09 14:49:39","新北市板橋區大仁街105號","121.452695","25.0157183333333","6500100","板橋區"
"220046","AAC-210","2018/08/09 14:49:50","新北市板橋區文化路一段285巷1弄3號","121.464478333333","25.0187816666667","6500100","板橋區"
"220018","AAC-253","2018/08/09 14:49:39","新北市板橋區民族路257號","121.47039","25.0069083333333","6500100","板橋區"
"235032","KEA-2873","2018/08/09 14:49:44","新北市中和區中山路二段259號","121.497095","25.0022616666667","6500300","中和區"
