"lineid","car","time","location","longitude","latitude","cityid","cityname"
"234025","9371-KE","2018/08/09 14:59:39","新北市永和區永貞路265號","121.511786666667","25.0047033333333","6500400","永和區"
"248015","026-BX","2018/08/09 14:59:36","新北市五股區天乙路60號","121.44815","25.1046616666667","6501500","五股區"
"248007","095-VK","2018/08/09 14:59:43","新北市五股區四維路155巷34號","121.466838333333","25.0744266666667","6501500","五股區"
"248017","225-UY","2018/08/09 14:59:28","新北市五股區登林路106巷11號","121.426661666667","25.0717216666667","6501500","五股區"
"248011","247-BX","2018/08/09 14:59:33","新北市五股區民義路一段206號","121.43054","25.08919","6501500","五股區"
"248013","261-SL","2018/08/09 14:59:33","新北市五股區成泰路二段147巷23-15號","121.43794","25.0871183333333","6501500","五股區"
"248003","677-BX","2018/08/09 14:59:20","新北市五股區成泰路一段32巷62號","121.435136666667","25.06709","6501500","五股區"
"248001","678-BX","2018/08/09 14:59:41","新北市五股區成泰路三段43-1號","121.442278333333","25.088755","6501500","五股區"
"248009","682-TV","2018/08/09 14:59:49","新北市五股區成泰路一段2-7號","121.434153333333","25.0670633333333","6501500","五股區"
"234072","AAC-211","2018/08/09 14:59:43","新北市新莊區化成路585-15號","121.462783333333","25.0671116666667","6500400","永和區"
"244003","248-BX","2018/08/09 14:59:42","新北市林口區瑞平里33-1號","121.348345","25.1288766666667","6501700","林口區"
"243005","AAD-798","2018/08/09 14:59:38","新北市泰山區新民路12號","121.42649","25.044745","6501600","泰山區"
"243001","297-R6","2018/08/09 14:59:43","新北市泰山區泰林路二段292巷11號","121.431491666667","25.0635716666667","6501600","泰山區"
"243008","KEA-2801","2018/08/09 14:59:40","新北市泰山區明志路三段261號","121.423295","25.037255","6501600","泰山區"
"243007","421-VK","2018/08/09 14:59:37","新北市泰山區泰林路二段154號","121.433965","25.0601416666667","6501600","泰山區"
"243003","KEA-2215","2018/08/09 14:59:40","新北市泰山區明志路三段517號","121.42106","25.0318966666667","6501600","泰山區"
"243002","KEA-2216","2018/08/09 14:59:47","新北市泰山區民生路12號","121.430015","25.0525816666667","6501600","泰山區"
"243004","646-TV","2018/08/09 14:59:30","新北市泰山區楓江路105號","121.438348333333","25.0640016666667","6501600","泰山區"
"243006","680-BX","2018/08/09 14:59:35","新北市泰山區泰林路二段2-9號","121.419833333333","25.0649783333333","6501600","泰山區"
"231002","002-UM","2018/08/09 14:59:32","新北市新店區民權路69號","121.538986666667","24.9828283333333","6500600","新店區"
"231028","046-UY","2018/08/09 14:59:34","新北市新店區安德街173號","121.508733333333","24.9588833333333","6500600","新店區"
"231001","047-UY","2018/08/09 14:59:42","新北市新店區中正路255號","121.53888","24.973525","6500600","新店區"
"231005","106-UY","2018/08/09 14:59:31","新北市新店區復興路27號","121.53896","24.9867033333333","6500600","新店區"
"231021","108-UY","2018/08/09 14:59:30","新北市新店區桂山路37號","121.562915","24.9045116666667","6500600","新店區"
"231036","110-UY","2018/08/09 14:59:42","新北市新店區安祥路102巷30弄31號","121.485158333333","24.9634333333333","6500600","新店區"
"231011","187-VK","2018/08/09 14:59:41","新北市新店區寶橋路97號","121.54699","24.97655","6500600","新店區"
"231023","KEA-2219","2018/08/09 14:59:49","新北市新店區檳榔路109號","121.544418333333","24.9616216666667","6500600","新店區"
"231026","256-BX","2018/08/09 14:59:48","新北市新店區博愛街9巷2號","121.54075","24.9729716666667","6500600","新店區"
"231003","268-BY","2018/08/09 14:59:41","新北市新店區中興路一段308號","121.546395","24.969975","6500600","新店區"
"231018","278-BY","2018/08/09 14:59:43","新北市新店區中央五街3-2號","121.530356666667","24.9743216666667","6500600","新店區"
"231017","AAD-862","2018/08/09 14:59:45","新北市新店區北宜路二段617號","121.571045","24.9567666666667","6500600","新店區"
"231038","3712-VJ","2018/08/09 14:59:33","新北市新店區安華路28-1號","121.519676666667","24.9609","6500600","新店區"
"231025","4715-K9","2018/08/09 14:59:30","新北市新店區大同街8巷4號","121.539686666667","24.9801683333333","6500600","新店區"
"231034","616-UM","2018/08/09 14:59:34","新北市新店區玫瑰路4-1號","121.493621666667","24.9513733333333","6500600","新店區"
"231006","618-UM","2018/08/09 14:59:33","新北市新店區新坡一街85號","121.549013333333","24.9644333333333","6500600","新店區"
"231030","619-UM","2018/08/09 14:59:31","新北市新店區安興路94號","121.515161666667","24.9763283333333","6500600","新店區"
"231039","718-UY","2018/08/09 14:59:46","新北市新店區寶中路45-3號","121.545241666667","24.9789916666667","6500600","新店區"
"231035","719-UM","2018/08/09 14:59:47","新北市新店區安和路二段240號","121.516626666667","24.9784116666667","6500600","新店區"
"231031","720-UM","2018/08/09 14:59:46","新北市新店區安泰路60巷55-7號","121.484051666667","24.945375","6500600","新店區"
"231029","897-TW","2018/08/09 14:59:42","新北市新店區錦秀路51號","121.479146666667","24.9434883333333","6500600","新店區"
"231004","899-TW","2018/08/09 14:59:43","新北市新店區民族路41號","121.540648333333","24.9786816666667","6500600","新店區"
"231024","AKT-0513","2018/08/09 14:59:48","新北市新店區中華路83巷21號","121.538701666667","24.9681","6500600","新店區"
"235030","003-UY","2018/08/09 14:59:38","新北市中和區光華街62號","121.505513333333","25.003715","6500300","中和區"
"235020","096-UM","2018/08/09 14:59:38","新北市中和區漢民路413號","121.472326666667","25.0069283333333","6500300","中和區"
"235003","097-UM","2018/08/09 14:59:40","新北市中和區宜安路39號","121.512101666667","24.99651","6500300","中和區"
"235029","098-UM","2018/08/09 14:59:43","新北市中和區橋和路282號","121.496353333333","25.0067033333333","6500300","中和區"
"235004","150-BY","2018/08/09 14:59:46","新北市中和區宜安路163號","121.508708333333","24.9988933333333","6500300","中和區"
"235031","255-BX","2018/08/09 14:59:30","新北市板橋區長江路二段35號","121.46367","25.0328533333333","6500300","中和區"
"235036","301-VK","2018/08/09 14:59:36","新北市中和區板南路403號","121.493075","24.99962","6500300","中和區"
"235007","352-BY","2018/08/09 14:59:33","新北市中和區華新街230號","121.506083333333","24.9817633333333","6500300","中和區"
"235014","4979-A6","2018/08/09 14:59:41","新北市中和區景平路239巷1號","121.509996666667","24.992625","6500300","中和區"
"235033","4980-A6","2018/08/09 14:59:34","新北市中和區圓通路53號","121.500771666667","24.9975366666667","6500300","中和區"
"235034","558-UM","2018/08/09 14:59:36","新北市中和區圓通路138號","121.498326666667","24.9957533333333","6500300","中和區"
"235018","640-BX","2018/08/09 14:59:34","新北市中和區莒光路11號","121.471878333333","25.005825","6500300","中和區"
"235024","647-TV","2018/08/09 14:59:42","新北市中和區中山路二段523巷32弄13號","121.481318333333","25.003635","6500300","中和區"
"235010","733-UM","2018/08/09 14:59:47","新北市中和區興南路一段93巷58弄3號","121.510585","24.9858583333333","6500300","中和區"
"235035","783-BX","2018/08/09 14:59:42","新北市中和區建康路21-1號","121.486193333333","25.0005416666667","6500300","中和區"
"235026","800-TS","2018/08/09 14:59:33","新北市中和區中山路二段329號","121.493075","25.0022466666667","6500300","中和區"
"235012","896-TW","2018/08/09 14:59:41","新北市中和區忠孝街2-8號","121.509193333333","24.9829966666667","6500300","中和區"
"235017","900-TW","2018/08/09 14:59:47","新北市中和區民德路258號","121.468173333333","24.9970783333333","6500300","中和區"
"235015","157-BY","2018/08/09 14:59:34","新北市中和區復興路280巷43號","121.500988333333","24.99193","6500300","中和區"
"235001","AAC-213","2018/08/09 14:59:40","新北市中和區自立路99巷22弄7號","121.523375","24.9942083333333","6500300","中和區"
"220105","013-TV","2018/08/09 14:59:40","新北市板橋區仁化街150巷3號","121.47799","25.033145","6500100","板橋區"
"220003","015-TV","2018/08/09 14:59:31","新北市板橋區仁愛路47巷2號","121.459805","24.9994833333333","6500100","板橋區"
"220013","072-UY","2018/08/09 14:59:43","新北市板橋區長安街18號","121.46693","25.0087566666667","6500100","板橋區"
"220017","AAD-861","2018/08/09 14:59:35","新北市板橋區貴興路60號","121.456713333333","25.002975","6500100","板橋區"
"247021","500-BY","2018/08/09 14:59:40","新北市蘆洲區中正路453-1號","121.4626","25.0946516666667","6501400","蘆洲區"
"247012","402-BY","2018/08/09 14:59:29","新北市蘆洲區復興路58號","121.473841666667","25.0862083333333","6501400","蘆洲區"
"235023","251-BX","2018/08/09 14:59:39","新北市中和區圓通路339號","121.491578333333","24.9905","6500300","中和區"
"228004","212-TW","2018/08/09 14:59:37","新北市貢寮區雙玉里田寮洋街24號","121.928956666667","25.0177566666667","6502600","貢寮區"
"253003","6232-TK","2018/08/09 14:59:40","新北市石門區尖子鹿104-3號","121.577748333333","25.296765","6502200","石門區"
"253001","6251-TK","2018/08/09 14:59:35","新北市石門區崁子腳31-2號","121.5374","25.284955","6502200","石門區"
"253002","637-UY","2018/08/09 14:59:28","新北市石門區崁子腳28-2號","121.540128333333","25.28898","6502200","石門區"
"253004","8270-PC","2018/08/09 14:59:47","新北市石門區茂林社區78號","121.59223","25.2697516666667","6502200","石門區"
"207002","749-BX","2018/08/09 14:59:46","新北市萬里區崁腳里崁腳路73號","121.647686666667","25.1595716666667","6502800","萬里區"
"207001","662-BX","2018/08/09 14:59:41","新北市萬里區雙興里麗水路3-2號","121.653263333333","25.1808116666667","6502800","萬里區"
"252005","AAC-283","2018/08/09 14:59:41","新北市三芝區埔坪里埔頭坑115號","121.516665","25.2454966666667","6502100","三芝區"
"236068","105-UM","2018/08/09 14:59:35","新北市土城區中央路一段291巷4號","121.444713333333","24.983925","6501300","土城區"
"236040","107-UM","2018/08/09 14:59:42","新北市土城區學府路一段199巷9號","121.452426666667","24.98435","6501300","土城區"
"236074","166-UM","2018/08/09 14:59:46","新北市土城區大暖坑11-2號","121.41873","24.953645","6501300","土城區"
"236029","253-BX","2018/08/09 14:59:44","新北市土城區慶利街18號","121.439633333333","24.973655","6501300","土城區"
"236024","269-VK","2018/08/09 14:59:39","新北市土城區中正路74巷3弄2號","121.444795","24.9747016666667","6501300","土城區"
"236012","270-VK","2018/08/09 14:59:45","新北市土城區永豐路13巷4號","121.461868333333","24.9886433333333","6501300","土城區"
"236032","271-VK","2018/08/09 14:59:35","新北市土城區清水路179號","121.4595","24.98157","6501300","土城區"
"236017","401-BY","2018/08/09 14:59:48","新北市土城區延吉街217巷11弄1號","121.46906","24.9843383333333","6501300","土城區"
"236057","912-UM","2018/08/09 14:59:40","新北市土城區金城路二段2巷5號","121.447451666667","24.975955","6501300","土城區"
"236045","913-UM","2018/08/09 14:59:35","新北市土城區青雲路319號","121.458996666667","24.978595","6501300","土城區"
"236060","915-UM","2018/08/09 14:59:41","新北市土城區延和路41巷6弄1號","121.466006666667","24.990065","6501300","土城區"
"236054","AAC-216","2018/08/09 14:59:38","新北市土城區學成路164號","121.448058333333","24.989135","6501300","土城區"
"238006","599-UM","2018/08/09 14:59:34","新北市樹林區育德街78號","121.387543333333","24.9683583333333","6500700","樹林區"
"238018","571-TV","2018/08/09 14:49:52","新北市樹林區育德街78號","121.388293333333","24.9684733333333","6500700","樹林區"
"238011","5061-A6","2018/08/09 14:59:28","新北市樹林區八德街1022號","121.391101666667","24.9684166666667","6500700","樹林區"
"238022","KEA-2213","2018/08/09 14:59:44","新北市樹林區育德街78-1號","121.387806666667","24.9680083333333","6500700","樹林區"
"238008","KEA-2539","2018/08/09 14:59:45","新北市樹林區育德街78-1號","121.387833333333","24.96802","6500700","樹林區"
"238001","282-BY","2018/08/09 14:59:42","新北市樹林區育德街78-1號","121.388056666667","24.968085","6500700","樹林區"
"238007","268-VK","2018/08/09 14:59:32","新北市樹林區育德街78-1號","121.388496666667","24.96806","6500700","樹林區"
"220027","145-BY","2018/08/09 14:59:37","新北市板橋區大仁街53巷2弄1號","121.45472","25.0159716666667","6500100","板橋區"
"220028","200-UY","2018/08/09 14:59:49","新北市板橋區大觀路二段177號","121.445015","25.0000416666667","6500100","板橋區"
"220030","610-BX","2018/08/09 14:59:35","新北市板橋區溪北路54號","121.427678333333","24.9898416666667","6500100","板橋區"
"220050","245-BX","2018/08/09 14:59:45","新北市板橋區莊敬路232號","121.473138333333","25.0214033333333","6500100","板橋區"
"220040","267-BY","2018/08/09 14:59:30","新北市板橋區文聖街89巷28號","121.47824","25.0303183333333","6500100","板橋區"
"220020","277-BY","2018/08/09 14:59:35","新北市板橋區篤行路三段70號","121.4272","24.9853616666667","6500100","板橋區"
"220043","280-UM","2018/08/09 14:59:33","新北市板橋區文德路36號","121.46221","25.02418","6500100","板橋區"
"220001","285-VK","2018/08/09 14:59:34","新北市板橋區中山路二段90巷10號","121.475333333333","25.015935","6500100","板橋區"
"220031","286-VK","2018/08/09 14:59:45","新北市板橋區僑中二街36號","121.445501666667","25.0107833333333","6500100","板橋區"
"220029","287-VK","2018/08/09 14:59:49","新北市板橋區僑中一街80巷7弄10號","121.447368333333","25.0128416666667","6500100","板橋區"
"220039","288-VK","2018/08/09 14:59:38","新北市板橋區幸福路32巷4弄5-3號","121.461095","25.0213883333333","6500100","板橋區"
"220009","293-UM","2018/08/09 14:59:30","新北市板橋區中山路二段25號","121.472513333333","25.0151733333333","6500100","板橋區"
"220010","295-UM","2018/08/09 14:59:45","新北市板橋區光復街192巷16弄6號","121.486423333333","25.0196583333333","6500100","板橋區"
"220041","307-R5","2018/08/09 14:59:41","新北市板橋區四維路269巷92號","121.459563333333","25.0266683333333","6500100","板橋區"
"220047","317-R6","2018/08/09 14:59:42","新北市板橋區新海路72巷7號","121.462205","25.0220333333333","6500100","板橋區"
"220012","486-VK","2018/08/09 14:59:31","新北市板橋區實踐路39號","121.463656666667","25.0069466666667","6500100","板橋區"
"220037","491-VK","2018/08/09 14:59:39","新北市板橋區仁化街84號","121.47623","25.0318916666667","6500100","板橋區"
"220104","560-BX","2018/08/09 14:59:43","新北市板橋區新生街87巷34號","121.456521666667","25.0221816666667","6500100","板橋區"
"220052","561-BX","2018/08/09 14:59:43","新北市板橋區自由路43號","121.465603333333","25.023245","6500100","板橋區"
"220019","568-UM","2018/08/09 14:59:40","新北市中和區和平路200巷33-3號","121.465171666667","24.99443","6500100","板橋區"
"220011","609-BX","2018/08/09 14:59:35","新北市板橋區中山路二段505巷55號","121.481921666667","25.023035","6500100","板橋區"
"220002","630-UY","2018/08/09 14:59:37","新北市板橋區實踐路93巷62號","121.4663","25.0049016666667","6500100","板橋區"
"220005","686-BX","2018/08/09 14:59:30","新北市板橋區四川路二段130巷10-3號","121.449886666667","24.9939416666667","6500100","板橋區"
"220025","687-BX","2018/08/09 14:59:41","新北市板橋區僑中一街102巷3弄20號","121.445986666667","25.0124633333333","6500100","板橋區"
"220042","689-BX","2018/08/09 14:59:45","新北市板橋區長江路二段67號","121.464751666667","25.0315533333333","6500100","板橋區"
"220051","KEA-2699","2018/08/09 14:59:42","新北市板橋區仁化街42巷26號","121.475643333333","25.0308116666667","6500100","板橋區"
"220014","829-TW","2018/08/09 14:59:45","新北市板橋區長安街331巷91-2號","121.472045","25.0126233333333","6500100","板橋區"
"220016","830-TW","2018/08/09 14:59:43","新北市板橋區中山路二段318巷4號","121.480221666667","25.0191916666667","6500100","板橋區"
"220045","831-TW","2018/08/09 14:59:46","新北市板橋區莒光路40巷7弄12號","121.470836666667","25.0237533333333","6500100","板橋區"
"220038","833-TW","2018/08/09 14:59:31","新北市板橋區龍泉街94-4號","121.456615","25.0250983333333","6500100","板橋區"
"220022","895-R6","2018/08/09 14:59:46","新北市板橋區府後街1巷2-2號","121.459095","25.0106783333333","6500100","板橋區"
"220021","985-R7","2018/08/09 14:59:38","新北市板橋區南雅西路二段11號","121.452955","25.0093166666667","6500100","板橋區"
"220046","AAC-210","2018/08/09 14:59:30","新北市板橋區光正街11-2號","121.46269","25.0171416666667","6500100","板橋區"
"220018","AAC-253","2018/08/09 14:59:39","新北市板橋區館前東路118號","121.4637","25.0077766666667","6500100","板橋區"
"235032","KEA-2873","2018/08/09 14:59:44","新北市中和區勝利路35巷1弄2號","121.499043333333","25.0073866666667","6500300","中和區"
