"lineid","car","time","location","longitude","latitude","cityid","cityname"
"234072","AAC-211","2018/08/09 15:39:23","新北市八里區荖阡坑路15-66號","121.39851","25.1399616666667","6500400","永和區"
"243014","680-BX","2018/08/09 15:33:48","新北市泰山區犁頭窠3-1號","121.422018333333","25.0605033333333","6501600","泰山區"
"231028","046-UY","2018/08/09 15:39:34","新北市新店區僑信路8號","121.499756666667","24.9527033333333","6500600","新店區"
"231005","106-UY","2018/08/09 15:39:31","新北市新店區中正路348號","121.536323333333","24.9754683333333","6500600","新店區"
"231021","108-UY","2018/08/09 15:39:30","新北市新店區湖興路109號","121.561796666667","24.9369883333333","6500600","新店區"
"231036","110-UY","2018/08/09 15:39:22","新北市新店區安祥路67巷61號","121.486888333333","24.9584583333333","6500600","新店區"
"231011","187-VK","2018/08/09 15:39:41","新北市新店區寶元路一段109號","121.545766666667","24.9831216666667","6500600","新店區"
"231023","KEA-2219","2018/08/09 15:39:29","新北市新店區五峰路48巷1號","121.544841666667","24.968715","6500600","新店區"
"231026","256-BX","2018/08/09 15:39:31","新北市新店區三民路75巷4弄2號","121.535601666667","24.970955","6500600","新店區"
"231003","268-BY","2018/08/09 15:39:41","新北市新店區中興路二段199號","121.548276666667","24.97395","6500600","新店區"
"231018","278-BY","2018/08/09 15:39:23","新北市新店區民生路156巷117號","121.526873333333","24.9826","6500600","新店區"
"231017","AAD-862","2018/08/09 15:39:25","新北市新店區北宜路一段304號","121.547205","24.9522683333333","6500600","新店區"
"231038","3712-VJ","2018/08/09 15:39:33","新北市新店區安康路一段266巷4號","121.519911666667","24.9639816666667","6500600","新店區"
"231037","4716-K9","2018/08/09 15:39:35","新北市新店區安民街365巷1弄8號","121.516328333333","24.97522","6500600","新店區"
"231013","513-UM","2018/08/09 15:39:35","新北市新店區永業路81巷3弄1號","121.529823333333","24.9492066666667","6500600","新店區"
"231034","616-UM","2018/08/09 15:39:34","新北市新店區如意街97號","121.49531","24.9469933333333","6500600","新店區"
"231006","618-UM","2018/08/09 15:39:33","新北市新店區薏仁坑路自強巷1號","121.49686","24.9580366666667","6500600","新店區"
"231030","619-UM","2018/08/09 15:39:31","新北市新店區新和街116巷1號","121.521215","24.9864116666667","6500600","新店區"
"231039","718-UY","2018/08/09 15:39:30","新北市新店區寶元路二段31巷2號","121.546705","24.9817083333333","6500600","新店區"
"231035","719-UM","2018/08/09 15:39:27","新北市新店區安民街365巷10弄5號","121.5155","24.975665","6500600","新店區"
"231031","720-UM","2018/08/09 15:39:26","新北市新店區雙城路133號","121.497903333333","24.9388083333333","6500600","新店區"
"231029","897-TW","2018/08/09 15:39:29","新北市新店區安康路二段383號","121.495013333333","24.9545933333333","6500600","新店區"
"231024","AKT-0513","2018/08/09 15:39:27","新北市新店區安華路16號","121.516413333333","24.957935","6500600","新店區"
"241011","013-R5","2018/08/09 15:39:31","新北市三重區三和路三段5號","121.49713","25.0704766666667","6500200","三重區"
"241028","022-UY","2018/08/09 15:39:30","新北市三重區重新路四段121號","121.484711666667","25.051885","6500200","三重區"
"241008","059-VK","2018/08/09 15:39:30","新北市三重區重新路四段121號","121.48512","25.0523883333333","6500200","三重區"
"241015","062-VK","2018/08/09 15:39:24","新北市三重區重新路四段121號","121.485041666667","25.0525166666667","6500200","三重區"
"241017","063-VK","2018/08/09 15:39:39","新北市三重區重新路三段130號","121.491716666667","25.0599466666667","6500200","三重區"
"241003","091-VK","2018/08/09 15:39:03","新北市三重區自強路四段32-2號","121.489048333333","25.0770766666667","6500200","三重區"
"241005","265-UM","2018/08/09 15:39:33","新北市三重區重新路四段121號","121.484561666667","25.0520666666667","6500200","三重區"
"241016","266-UM","2018/08/09 15:39:27","新北市三重區重新路四段121號","121.48489","25.0521116666667","6500200","三重區"
"241013","270-UM","2018/08/09 15:39:21","新北市三重區力行路一段80號","121.483796666667","25.0695316666667","6500200","三重區"
"241025","271-UM","2018/08/09 15:39:27","新北市三重區重新路四段121號","121.484778333333","25.0525883333333","6500200","三重區"
"241007","398-BY","2018/08/09 15:39:30","新北市三重區重新路四段121號","121.484466666667","25.0521566666667","6500200","三重區"
"241004","413-TH","2018/08/09 15:39:24","新北市三重區重新路四段121號","121.484966666667","25.0523483333333","6500200","三重區"
"241020","478-VK","2018/08/09 15:39:28","新北市三重區忠孝路二段59號","121.485068333333","25.07065","6500200","三重區"
"241030","480-VK","2018/08/09 15:39:33","新北市三重區重新路四段121號","121.484866666667","25.052405","6500200","三重區"
"241014","543-UM","2018/08/09 15:39:33","新北市三重區重新路四段121號","121.485083333333","25.0523283333333","6500200","三重區"
"241006","AAD-863","2018/08/09 15:39:35","新北市三重區重新路四段121號","121.484683333333","25.0521933333333","6500200","三重區"
"241012","941-UM","2018/08/09 15:39:39","新北市三重區自強路一段66號","121.497083333333","25.0666216666667","6500200","三重區"
"241029","942-UM","2018/08/09 15:39:36","新北市三重區環河南路220-8號","121.493395","25.0527","6500200","三重區"
"241033","AAC-255","2018/08/09 15:39:04","新北市三重區後埔街80-1號","121.477906666667","25.046045","6500200","三重區"
"247012","402-BY","2018/08/09 15:39:29","新北市蘆洲區三民路2號","121.475978333333","25.0818466666667","6501400","蘆洲區"
"235023","251-BX","2018/08/09 15:39:19","新北市中和區員山路6-1號","121.48406","24.983275","6500300","中和區"
"227004","642-TC","2018/08/09 15:39:24","新北市雙溪區牡丹里頂坪5-1號","121.86273","25.0386433333333","6502500","雙溪區"
"227010","400-TW","2018/08/09 15:39:28","新北市雙溪區三貂里政光路3-1號","121.850866666667","25.0631066666667","6502500","雙溪區"
"253003","6232-TK","2018/08/09 15:39:20","新北市石門區小坑9號","121.59438","25.2884133333333","6502200","石門區"
"253004","8270-PC","2018/08/09 15:39:27","新北市石門區小坑9號","121.594466666667","25.2891416666667","6502200","石門區"
"236068","105-UM","2018/08/09 15:39:35","新北市土城區中央路二段346巷8-1號","121.439711666667","24.97216","6501300","土城區"
"236040","107-UM","2018/08/09 15:39:20","新北市土城區學享街41號","121.451628333333","24.9872566666667","6501300","土城區"
"236074","166-UM","2018/08/09 15:39:26","新北市土城區中央路四段321巷46號","121.412281666667","24.9510433333333","6501300","土城區"
"236029","253-BX","2018/08/09 15:39:24","新北市土城區裕民路32巷7號","121.447606666667","24.9880333333333","6501300","土城區"
"236024","269-VK","2018/08/09 15:39:39","新北市土城區裕生路81號","121.446941666667","24.98428","6501300","土城區"
"236012","270-VK","2018/08/09 15:39:24","新北市土城區四川路1號","121.456193333333","24.9960583333333","6501300","土城區"
"236017","401-BY","2018/08/09 15:39:28","新北市土城區延吉街45號","121.472365","24.9878133333333","6501300","土城區"
"236057","912-UM","2018/08/09 15:39:20","新北市土城區中央路二段27號","121.442836666667","24.98013","6501300","土城區"
"236045","913-UM","2018/08/09 15:39:35","新北市中和區連城路534巷2號","121.475298333333","24.9913566666667","6501300","土城區"
"236054","AAC-216","2018/08/09 15:39:38","新北市土城區學府路一段70號","121.456853333333","24.9883216666667","6501300","土城區"
"238002","755-BX","2018/08/09 15:39:28","新北市樹林區長壽街12-2號","121.423546666667","24.9934633333333","6500700","樹林區"
"238010","601-UM","2018/08/09 15:39:31","新北市樹林區龍興街13巷17號","121.403623333333","25.01659","6500700","樹林區"
"238006","599-UM","2018/08/09 15:39:34","新北市樹林區八德街11號","121.420046666667","24.9747416666667","6500700","樹林區"
"238005","571-TV","2018/08/09 15:39:32","新北市樹林區中華路176號","121.414121666667","24.9802633333333","6500700","樹林區"
"238011","5061-A6","2018/08/09 15:39:28","新北市樹林區山佳街57-1號","121.392896666667","24.97244","6500700","樹林區"
"238022","KEA-2213","2018/08/09 15:39:24","新北市樹林區太元街52號","121.418415","24.97962","6500700","樹林區"
"238008","KEA-2539","2018/08/09 15:39:25","新北市樹林區柑園街一段244號","121.392055","24.956355","6500700","樹林區"
"238012","303-VK","2018/08/09 15:39:29","新北市樹林區中山路二段162號","121.411971666667","24.9829583333333","6500700","樹林區"
"238001","283-BY","2018/08/09 15:39:30","新北市樹林區光榮街3巷9弄2號","121.412595","25.0039","6500700","樹林區"
"238001","282-BY","2018/08/09 15:39:22","新北市樹林區千歲街61巷4號","121.426365","24.99793","6500700","樹林區"
"238007","268-VK","2018/08/09 15:39:32","新北市樹林區俊英街166巷5號","121.426948333333","25.0071933333333","6500700","樹林區"
"238013","172-UY","2018/08/09 15:39:39","新北市樹林區中洲街6號","121.397405","24.9725916666667","6500700","樹林區"
"238003","169-UY","2018/08/09 15:39:33","新北市樹林區復興路335巷3號","121.418013333333","24.98807","6500700","樹林區"
"220027","145-BY","2018/08/09 15:39:37","新北市樹林區八德街828-8號","121.39284","24.968585","6500100","板橋區"
"220050","245-BX","2018/08/09 15:39:24","新北市板橋區縣民大道三段233巷10號","121.480828333333","25.0259816666667","6500100","板橋區"
"220031","286-VK","2018/08/09 15:39:34","新北市板橋區僑中二街116巷29號","121.444385","25.0065","6500100","板橋區"
"220104","560-BX","2018/08/09 15:39:37","新北市樹林區中山路三段214號","121.379806666667","24.967695","6500100","板橋區"
"220052","561-BX","2018/08/09 15:39:23","新北市板橋區漢生東路63巷1號","121.46585","25.01638","6500100","板橋區"
"220005","686-BX","2018/08/09 15:39:30","新北市八里區中山路三段409號","121.368651666667","25.13467","6500100","板橋區"
"220038","833-TW","2018/08/09 15:39:31","新北市板橋區四維路318號","121.462353333333","25.0300483333333","6500100","板橋區"
