"lineid","car","time","location","longitude","latitude","cityid","cityname"
"243009","297-R6","2018/08/09 16:05:59","新北市泰山區黎明路25號","121.421985","25.0610183333333","6501600","泰山區"
"231046","107-UY","2018/08/09 16:19:38","新北市新店區灣潭路3-3號","121.538256666667","24.9507866666667","6500600","新店區"
"231018","278-BY","2018/08/09 16:19:23","新北市新店區中正路700巷82號","121.535973333333","24.9932833333333","6500600","新店區"
"241011","013-R5","2018/08/09 16:19:31","新北市三重區龍濱路190號","121.501123333333","25.0733016666667","6500200","三重區"
"241028","022-UY","2018/08/09 16:19:29","新北市三重區正義南路165號","121.49876","25.0574316666667","6500200","三重區"
"241008","059-VK","2018/08/09 16:19:30","新北市三重區永福街179號","121.478998333333","25.0752583333333","6500200","三重區"
"241022","060-VK","2018/08/09 16:19:35","新北市三重區過圳街31巷2號","121.48893","25.0606433333333","6500200","三重區"
"241031","061-VK","2018/08/09 16:19:35","新北市三重區重新路四段206-5號","121.485938333333","25.0544833333333","6500200","三重區"
"241015","062-VK","2018/08/09 16:19:23","新北市三重區福德北路50號","121.501893333333","25.06579","6500200","三重區"
"241017","063-VK","2018/08/09 16:19:39","新北市三重區大同北路91號","121.494796666667","25.06364","6500200","三重區"
"241024","065-VK","2018/08/09 16:19:26","新北市三重區中正北路145巷1弄13號","121.483438333333","25.0671833333333","6500200","三重區"
"241026","066-VK","2018/08/09 16:19:27","新北市三重區正義南路75號","121.498345","25.0599966666667","6500200","三重區"
"241002","090-VK","2018/08/09 16:19:40","新北市三重區仁義街91號","121.499896666667","25.0792333333333","6500200","三重區"
"241003","091-VK","2018/08/09 16:19:28","新北市三重區五華街57巷20號","121.493535","25.08297","6500200","三重區"
"241005","265-UM","2018/08/09 16:19:32","新北市三重區溪尾街305號","121.487525","25.0837583333333","6500200","三重區"
"241016","266-UM","2018/08/09 16:19:27","新北市三重區大仁街88號","121.492783333333","25.0655266666667","6500200","三重區"
"241009","267-UM","2018/08/09 16:19:42","新北市三重區仁愛街519號","121.487266666667","25.0821833333333","6500200","三重區"
"241018","268-UM","2018/08/09 16:19:27","新北市三重區重陽路三段142號","121.489246666667","25.06717","6500200","三重區"
"241013","270-UM","2018/08/09 16:19:21","新北市三重區三和路三段85號","121.494448333333","25.0720333333333","6500200","三重區"
"241025","271-UM","2018/08/09 16:19:27","新北市三重區中正北路560巷100弄2號","121.472495","25.068245","6500200","三重區"
"241007","398-BY","2018/08/09 16:19:30","新北市三重區三和路四段163巷60號","121.486456666667","25.0795533333333","6500200","三重區"
"241004","413-TH","2018/08/09 16:19:24","新北市三重區五華街74號","121.493378333333","25.0819216666667","6500200","三重區"
"241020","478-VK","2018/08/09 16:19:28","新北市三重區忠孝路二段69號","121.484826666667","25.0704566666667","6500200","三重區"
"241030","480-VK","2018/08/09 16:19:33","新北市三重區重新路四段121號","121.484825","25.0524266666667","6500200","三重區"
"241014","543-UM","2018/08/09 16:19:33","新北市三重區河邊北街96-1號","121.50401","25.0699266666667","6500200","三重區"
"241023","545-UM","2018/08/09 16:19:34","新北市三重區中正北路145巷4弄12號","121.482916666667","25.0679183333333","6500200","三重區"
"241001","547-UM","2018/08/09 16:19:41","新北市三重區仁政街159號","121.491335","25.0796483333333","6500200","三重區"
"241019","KEA-2593","2018/08/09 16:19:31","新北市三重區忠孝路二段95號","121.48424","25.07002","6500200","三重區"
"241006","AAD-863","2018/08/09 16:19:35","新北市三重區永福街46巷31弄16號","121.48178","25.0774616666667","6500200","三重區"
"241012","941-UM","2018/08/09 16:19:39","新北市三重區龍門路300號","121.502416666667","25.07429","6500200","三重區"
"241029","942-UM","2018/08/09 16:19:36","新北市三重區泉州街76巷3號","121.495031666667","25.0545466666667","6500200","三重區"
"241033","AAC-255","2018/08/09 16:19:42","新北市三重區五谷王南街11巷15弄1號","121.472785","25.0446516666667","6500200","三重區"
"235064","005-UY","2018/08/09 16:19:24","新北市中和區員山路36巷16-3號","121.485051666667","24.9913483333333","6500300","中和區"
"235026","800-TS","2018/08/09 16:19:33","新北市中和區永和路171巷3弄5號","121.492558333333","25.006755","6500300","中和區"
"247012","402-BY","2018/08/09 16:19:32","新北市蘆洲區集賢路393號","121.48037","25.0823283333333","6501400","蘆洲區"
"247006","336-TH","2018/08/09 16:10:36","新北市五股區中興路三段163號","121.449278333333","25.08061","6501400","蘆洲區"
"224007","275-VK","2018/08/09 16:19:36","新北市瑞芳區大埔路220號","121.760853333333","25.10225","6501200","瑞芳區"
"224005","271-BY","2018/08/09 16:19:38","新北市瑞芳區中山路56號","121.803146666667","25.1064383333333","6501200","瑞芳區"
"227004","642-TC","2018/08/09 16:19:23","新北市雙溪區上林里內平林63號","121.831645","25.0294016666667","6502500","雙溪區"
"227010","400-TW","2018/08/09 16:19:28","新北市雙溪區三港里雙澳路80號","121.88381","25.0538683333333","6502500","雙溪區"
"251013","KEA-2871","2018/08/09 16:19:43","新北市淡水區北新路一段175號","121.459566666667","25.1822533333333","6501000","淡水區"
"251014","180-VK","2018/08/09 16:19:35","新北市淡水區中正路二段31號","121.419465","25.181605","6501000","淡水區"
"251008","442-VK","2018/08/09 16:19:40","新北市淡水區民權路51號","121.459633333333","25.13896","6501000","淡水區"
"236057","912-UM","2018/08/09 16:19:40","新北市土城區中央路三段62號","121.43674","24.967325","6501300","土城區"
"238002","755-BX","2018/08/09 16:19:28","新北市樹林區育德街121巷7號","121.38919","24.968235","6500700","樹林區"
"238010","601-UM","2018/08/09 16:19:30","新北市樹林區中正路198-2號","121.421548333333","25.0048766666667","6500700","樹林區"
"238006","599-UM","2018/08/09 16:19:39","新北市樹林區東陽街31巷24弄19號","121.414253333333","24.98201","6500700","樹林區"
"238024","5061-A6","2018/08/09 16:19:28","新北市樹林區中山路三段210-2號","121.381531666667","24.965525","6500700","樹林區"
"238025","303-VK","2018/08/09 16:07:48","新北市樹林區中正路22-1號","121.427791666667","24.9994183333333","6500700","樹林區"
"238001","283-BY","2018/08/09 16:19:30","新北市樹林區中正路433-1號","121.414776666667","25.00795","6500700","樹林區"
"238001","282-BY","2018/08/09 16:19:22","新北市樹林區中正路22-6號","121.427851666667","24.999815","6500700","樹林區"
"238007","268-VK","2018/08/09 16:19:32","新北市樹林區三龍街92號","121.414491666667","25.018555","6500700","樹林區"
"220005","686-BX","2018/08/09 16:19:30","新北市板橋區板城路271號","121.449886666667","24.9982216666667","6500100","板橋區"
