"lineid","car","time","location","longitude","latitude","cityid","cityname"
"249005","172-UM","2018/08/09 16:39:27","新北市八里區仁愛路10號","121.413253333333","25.162315","6502300","八里區"
"244023","483-VK","2018/08/09 16:39:27","新北市林口區粉寮69號","121.405056666667","25.0907866666667","6501700","林口區"
"231046","107-UY","2018/08/09 16:39:38","新北市新店區灣潭路15-2號","121.542483333333","24.943475","6500600","新店區"
"241011","013-R5","2018/08/09 16:39:31","新北市三重區仁愛街41號","121.49671","25.0716333333333","6500200","三重區"
"241028","022-UY","2018/08/09 16:39:29","新北市三重區中正南路46號","121.493895","25.05996","6500200","三重區"
"241008","059-VK","2018/08/09 16:39:30","新北市三重區永安北路一段27巷24號","121.477306666667","25.0756","6500200","三重區"
"241022","060-VK","2018/08/09 16:39:35","新北市三重區新北大道一段100巷29號","121.485376666667","25.0626033333333","6500200","三重區"
"241031","061-VK","2018/08/09 16:39:35","新北市三重區重新路四段41巷24號","121.487363333333","25.05822","6500200","三重區"
"241015","062-VK","2018/08/09 16:39:23","新北市三重區文化北路35號","121.499055","25.0649383333333","6500200","三重區"
"241017","063-VK","2018/08/09 16:39:39","新北市三重區重新路3段43-1號","121.49352","25.061315","6500200","三重區"
"241024","065-VK","2018/08/09 16:39:26","新北市三重區中正北路315巷16弄10號","121.475421666667","25.0717433333333","6500200","三重區"
"241026","066-VK","2018/08/09 16:39:27","新北市三重區和平街69號","121.502316666667","25.062605","6500200","三重區"
"241002","090-VK","2018/08/09 16:39:40","新北市三重區仁義街241巷21號","121.496956666667","25.0828633333333","6500200","三重區"
"241003","091-VK","2018/08/09 16:39:28","新北市三重區五華街120號","121.491996666667","25.0832166666667","6500200","三重區"
"241005","265-UM","2018/08/09 16:39:32","新北市三重區仁華街118巷42號","121.485668333333","25.08395","6500200","三重區"
"241016","266-UM","2018/08/09 16:39:27","新北市三重區大智街5號","121.494723333333","25.064925","6500200","三重區"
"241009","267-UM","2018/08/09 16:39:33","新北市三重區三和路四段203巷70號","121.483566666667","25.07989","6500200","三重區"
"241018","268-UM","2018/08/09 16:39:27","新北市三重區六張街83號","121.493088333333","25.070165","6500200","三重區"
"241032","269-UM","2018/08/09 16:39:43","新北市三重區新北大道一段33號","121.486071666667","25.06126","6500200","三重區"
"241013","270-UM","2018/08/09 16:39:21","新北市三重區三和路三段85號","121.49447","25.0724316666667","6500200","三重區"
"241025","271-UM","2018/08/09 16:39:27","新北市三重區中正北路430-5號","121.474531666667","25.07045","6500200","三重區"
"241007","398-BY","2018/08/09 16:39:30","新北市三重區三和路四段167巷80號","121.485063333333","25.0794583333333","6500200","三重區"
"241004","413-TH","2018/08/09 16:39:44","新北市三重區五福街11號","121.492826666667","25.08158","6500200","三重區"
"241020","478-VK","2018/08/09 16:39:28","新北市三重區車路頭街62巷5號","121.48403","25.0725216666667","6500200","三重區"
"241030","480-VK","2018/08/09 16:39:33","新北市三重區環河南路286號","121.489061666667","25.0488766666667","6500200","三重區"
"241014","543-UM","2018/08/09 16:39:33","新北市三重區龍濱路26號","121.502906666667","25.0679933333333","6500200","三重區"
"241023","545-UM","2018/08/09 16:39:34","新北市三重區忠孝路三段50巷82號","121.482988333333","25.0644766666667","6500200","三重區"
"241001","547-UM","2018/08/09 16:39:41","新北市三重區仁愛街202號","121.493816666667","25.0774233333333","6500200","三重區"
"241019","KEA-2593","2018/08/09 16:39:31","新北市三重區力行路一段131號","121.485825","25.0684","6500200","三重區"
"241006","AAD-863","2018/08/09 16:39:35","新北市三重區車路頭街138-1號","121.483503333333","25.07558","6500200","三重區"
"241012","941-UM","2018/08/09 16:39:38","新北市三重區仁興街4巷20號","121.499391666667","25.0736416666667","6500200","三重區"
"241029","942-UM","2018/08/09 16:39:36","新北市三重區集美街120號","121.488726666667","25.0536266666667","6500200","三重區"
"241033","AAC-255","2018/08/09 16:39:24","新北市三重區五谷王北街46-5號","121.474181666667","25.0503383333333","6500200","三重區"
"235064","005-UY","2018/08/09 16:39:23","新北市中和區員山路36巷16-3號","121.485026666667","24.9913516666667","6500300","中和區"
"235026","800-TS","2018/08/09 16:39:33","新北市中和區建八路132號","121.489413333333","24.99862","6500300","中和區"
"247012","402-BY","2018/08/09 16:39:32","新北市蘆洲區中正路168號","121.468735","25.0860433333333","6501400","蘆洲區"
"247006","336-TH","2018/08/09 16:39:27","新北市五股區中興路三段165號","121.446286666667","25.080535","6501400","蘆洲區"
"247008","056-VK","2018/08/09 16:39:32","新北市蘆洲區永安南路二段150號","121.461825","25.0787766666667","6501400","蘆洲區"
"247020","001-UY","2018/08/09 16:39:36","新北市五股區成泰路三段436號","121.451975","25.0991883333333","6501400","蘆洲區"
"228002","663-BX","2018/08/09 16:39:29","新北市貢寮區貢寮里朝陽街28-1號","121.911155","25.021645","6502600","貢寮區"
"224006","676-BX","2018/08/09 16:39:35","新北市瑞芳區大寮路356-1號","121.784645","25.103145","6501200","瑞芳區"
"224002","639-TC","2018/08/09 16:39:29","新北市瑞芳區傑魚坑路2號","121.795263333333","25.1103616666667","6501200","瑞芳區"
"224007","275-VK","2018/08/09 16:39:36","新北市瑞芳區中央路1號","121.762005","25.1039","6501200","瑞芳區"
"224009","273-VK","2018/08/09 16:39:36","新北市瑞芳區大寮路356-1號","121.784595","25.1033016666667","6501200","瑞芳區"
"224005","271-BY","2018/08/09 16:39:38","新北市瑞芳區海濱路2巷1號","121.835871666667","25.12721","6501200","瑞芳區"
"227004","642-TC","2018/08/09 16:39:24","新北市雙溪區外柑里外柑腳56號","121.807973333333","25.0178666666667","6502500","雙溪區"
"227010","400-TW","2018/08/09 16:39:28","新北市雙溪區牡丹里中正路97號","121.861968333333","25.0471133333333","6502500","雙溪區"
"251013","KEA-2871","2018/08/09 16:39:23","新北市淡水區楓樹湖3-3號","121.496555","25.1864583333333","6501000","淡水區"
"251016","179-VK","2018/08/09 16:39:37","新北市淡水區新春街117號","121.44159","25.1818733333333","6501000","淡水區"
"251014","180-VK","2018/08/09 16:39:35","新北市淡水區淡金路三段329號","121.449008333333","25.2061816666667","6501000","淡水區"
"251008","442-VK","2018/08/09 16:39:40","新北市淡水區民生路169號","121.470521666667","25.14267","6501000","淡水區"
"252002","178-VK","2018/08/09 16:39:39","新北市三芝區觀海街2號","121.510186666667","25.2582283333333","6502100","三芝區"
"252004","249-BX","2018/08/09 16:39:35","新北市三芝區埔坪里埔頭坑41號","121.504576666667","25.2646466666667","6502100","三芝區"
"252001","292-VK","2018/08/09 16:39:25","新北市三芝區茂長里陳厝坑2-2號","121.507843333333","25.2659883333333","6502100","三芝區"
"238024","5061-A6","2018/08/09 16:39:28","新北市樹林區鎮前街77-21號","121.424673333333","24.9902616666667","6500700","樹林區"
"238025","303-VK","2018/08/09 16:39:37","新北市樹林區中正路22-4號","121.428","24.99982","6500700","樹林區"
"238001","283-BY","2018/08/09 16:39:30","新北市樹林區三多路123號","121.414656666667","25.0078883333333","6500700","樹林區"
"238001","282-BY","2018/08/09 16:39:41","新北市樹林區大慶街99號","121.427376666667","24.999635","6500700","樹林區"
"238007","268-VK","2018/08/09 16:39:32","新北市樹林區中正路106號","121.425665","25.0014133333333","6500700","樹林區"
"239007","AAC-297","2018/08/09 16:39:31","新北市鶯歌區二甲路175號","121.34482","24.93572","6500800","鶯歌區"
"220022","895-R6","2018/08/09 16:26:14","新北市板橋區華東街1-9號","121.448188333333","24.9949966666667","6500100","板橋區"
