"lineid","car","time","location","longitude","latitude","cityid","cityname"
"249005","172-UM","2018/08/09 16:59:27","新北市八里區渡船頭3-26號","121.434016666667","25.1520166666667","6502300","八里區"
"249001","173-UM","2018/08/09 16:59:39","新北市八里區中山路三段106號","121.391028333333","25.14223","6502300","八里區"
"249004","303-UY","2018/08/09 16:59:21","新北市八里區挖子尾街100號","121.411818333333","25.16543","6502300","八里區"
"249002","305-UY","2018/08/09 16:56:47","新北市八里區牛寮埔28號","121.432263333333","25.1444933333333","6502300","八里區"
"249003","593-UM","2018/08/09 16:59:37","新北市八里區中山路二段283號","121.401636666667","25.14864","6502300","八里區"
"244017","069-UM","2018/08/09 16:59:35","新北市林口區粉寮69號","121.405023333333","25.0908366666667","6501700","林口區"
"244007","080-UY","2018/08/09 16:59:36","新北市林口區林口路187巷31弄21號","121.387861666667","25.0811783333333","6501700","林口區"
"244019","403-UM","2018/08/09 16:59:33","新北市林口區粉寮路一段77-1號","121.396965","25.0790016666667","6501700","林口區"
"244023","483-VK","2018/08/09 16:59:27","新北市林口區粉寮路60-17號","121.404211666667","25.090325","6501700","林口區"
"244025","837-TS","2018/08/09 16:59:31","新北市林口區粉寮69號","121.405081666667","25.0908766666667","6501700","林口區"
"231046","107-UY","2018/08/09 16:59:38","新北市新店區新潭路一段1-1號","121.523201666667","24.9438683333333","6500600","新店區"
"241011","013-R5","2018/08/09 16:59:31","新北市三重區公園街13號","121.499518333333","25.0729233333333","6500200","三重區"
"241028","022-UY","2018/08/09 16:59:29","新北市三重區光興街207號","121.494863333333","25.0595633333333","6500200","三重區"
"241008","059-VK","2018/08/09 16:59:30","新北市三重區永福街179巷17號","121.478301666667","25.0749383333333","6500200","三重區"
"241022","060-VK","2018/08/09 16:59:35","新北市三重區貴陽街40號","121.484143333333","25.0625883333333","6500200","三重區"
"241031","061-VK","2018/08/09 16:59:35","新北市三重區三寧街22號","121.489645","25.0600083333333","6500200","三重區"
"241015","062-VK","2018/08/09 16:59:23","新北市三重區長元街80-2號","121.501443333333","25.0663833333333","6500200","三重區"
"241017","063-VK","2018/08/09 16:59:39","新北市三重區大同北路97-3號","121.494406666667","25.0636983333333","6500200","三重區"
"241024","065-VK","2018/08/09 16:59:26","新北市三重區力行路二段30巷32號","121.480481666667","25.072895","6500200","三重區"
"241026","066-VK","2018/08/09 16:59:27","新北市三重區文化南路42號","121.500345","25.0601983333333","6500200","三重區"
"241002","090-VK","2018/08/09 16:59:25","新北市三重區仁義街202號","121.496518333333","25.08207","6500200","三重區"
"241003","091-VK","2018/08/09 16:59:28","新北市三重區五華街141巷60號","121.493528333333","25.0867983333333","6500200","三重區"
"241005","265-UM","2018/08/09 16:59:32","新北市三重區仁華街73號","121.48542","25.083055","6500200","三重區"
"241016","266-UM","2018/08/09 16:59:27","新北市三重區信義西街31號","121.49532","25.064665","6500200","三重區"
"241009","267-UM","2018/08/09 16:59:33","新北市三重區溪尾街218巷42號","121.486415","25.08097","6500200","三重區"
"241018","268-UM","2018/08/09 16:59:27","新北市三重區六張街126巷21號","121.492106666667","25.0691283333333","6500200","三重區"
"241032","269-UM","2018/08/09 16:59:23","新北市三重區重陽路一段120巷25號","121.485688333333","25.0602083333333","6500200","三重區"
"241013","270-UM","2018/08/09 16:59:21","新北市三重區仁和街30號","121.496558333333","25.07363","6500200","三重區"
"241025","271-UM","2018/08/09 16:59:27","新北市三重區中正北路357號","121.472775","25.071645","6500200","三重區"
"241007","398-BY","2018/08/09 16:59:30","新北市三重區三和路四段181巷250號","121.488081666667","25.0806883333333","6500200","三重區"
"241004","413-TH","2018/08/09 16:59:24","新北市三重區五華街98巷12號","121.49146","25.0817066666667","6500200","三重區"
"241020","478-VK","2018/08/09 16:59:28","新北市三重區後竹圍街185號","121.485616666667","25.07169","6500200","三重區"
"241030","480-VK","2018/08/09 16:59:33","新北市三重區昌隆街65號","121.490876666667","25.0510116666667","6500200","三重區"
"241014","543-UM","2018/08/09 16:59:33","新北市三重區介壽路39巷94號","121.50073","25.070575","6500200","三重區"
"241023","545-UM","2018/08/09 16:59:34","新北市三重區新北大道一段252號","121.479871666667","25.06174","6500200","三重區"
"241001","547-UM","2018/08/09 16:59:41","新北市三重區仁愛街172巷8號","121.493696666667","25.0765033333333","6500200","三重區"
"241019","KEA-2593","2018/08/09 16:59:31","新北市三重區自強路二段74巷21號","121.487923333333","25.0698933333333","6500200","三重區"
"241006","AAD-863","2018/08/09 16:59:35","新北市三重區車路頭街131巷28號","121.485476666667","25.076065","6500200","三重區"
"241012","941-UM","2018/08/09 16:59:38","新北市三重區仁和街92號","121.499503333333","25.0746166666667","6500200","三重區"
"241029","942-UM","2018/08/09 16:59:36","新北市三重區泉州街70巷1號","121.495015","25.05486","6500200","三重區"
"241033","AAC-255","2018/08/09 16:59:24","新北市三重區新北大道二段166號","121.468893333333","25.0615","6500200","三重區"
"235064","005-UY","2018/08/09 16:42:01","新北市中和區員山路36巷16-3號","121.485025","24.9913483333333","6500300","中和區"
"235046","733-UM","2018/08/09 16:58:21","新北市中和區員山路36巷13號","121.484148333333","24.990875","6500300","中和區"
"235026","800-TS","2018/08/09 16:59:33","新北市中和區中正路450號","121.490838333333","24.9939966666667","6500300","中和區"
"247024","893-R6","2018/08/09 16:59:27","新北市蘆洲區長興路202號","121.460571666667","25.087475","6501400","蘆洲區"
"247012","402-BY","2018/08/09 16:59:32","新北市五股區新五路二段258號","121.44119","25.0819316666667","6501400","蘆洲區"
"247004","337-TH","2018/08/09 16:59:27","新北市蘆洲區長安街137號","121.460815","25.0814016666667","6501400","蘆洲區"
"247006","336-TH","2018/08/09 16:59:29","新北市蘆洲區永安南路二段240號","121.460321666667","25.0797716666667","6501400","蘆洲區"
"247018","057-VK","2018/08/09 16:59:27","新北市蘆洲區民族路227巷25號","121.476781666667","25.089145","6501400","蘆洲區"
"247008","056-VK","2018/08/09 16:59:32","新北市蘆洲區信義路58號","121.475666666667","25.0795766666667","6501400","蘆洲區"
"247016","053-VK","2018/08/09 16:59:30","新北市蘆洲區正和街18號","121.470045","25.082495","6501400","蘆洲區"
"247020","001-UY","2018/08/09 16:59:36","新北市蘆洲區民族路422巷82弄10號","121.474071666667","25.0937566666667","6501400","蘆洲區"
"228003","097-TW","2018/08/09 16:59:42","新北市貢寮區福隆里興隆街36號","121.942548333333","25.016565","6502600","貢寮區"
"228001","212-TW","2018/08/09 16:59:25","新北市貢寮區貢寮里朝陽街2號","121.912528333333","25.0217716666667","6502600","貢寮區"
"228002","663-BX","2018/08/09 16:59:09","新北市貢寮區貢寮里朝陽街74號","121.90944","25.022005","6502600","貢寮區"
"224006","676-BX","2018/08/09 16:59:35","新北市瑞芳區大寮路2號","121.784588333333","25.0996316666667","6501200","瑞芳區"
"224002","639-TC","2018/08/09 16:44:24","新北市瑞芳區逢甲路17號","121.809473333333","25.1083983333333","6501200","瑞芳區"
"224008","285-BY","2018/08/09 16:59:31","新北市瑞芳區明燈路一段33號","121.82255","25.107345","6501200","瑞芳區"
"224007","275-VK","2018/08/09 16:59:36","新北市瑞芳區瑞竹路7-5號","121.764753333333","25.1033533333333","6501200","瑞芳區"
"224009","273-VK","2018/08/09 16:59:36","新北市瑞芳區濱二路28-2號","121.840741666667","25.1142116666667","6501200","瑞芳區"
"224005","271-BY","2018/08/09 16:59:38","新北市瑞芳區明里路54號","121.868403333333","25.1221733333333","6501200","瑞芳區"
"227004","642-TC","2018/08/09 16:59:23","新北市雙溪區長源里柑腳42號","121.80109","25.01289","6502500","雙溪區"
"227010","400-TW","2018/08/09 16:59:28","新北市雙溪區牡丹里聖南25號","121.85672","25.0529683333333","6502500","雙溪區"
"251009","008-UM","2018/08/09 16:59:33","新北市淡水區中正路二段31號","121.419435","25.182315","6501000","淡水區"
"251005","010-UM","2018/08/09 16:59:25","新北市淡水區中正路32巷5號","121.43059","25.1752766666667","6501000","淡水區"
"251013","KEA-2871","2018/08/09 16:59:43","新北市淡水區泉洲厝32號","121.489238333333","25.1923933333333","6501000","淡水區"
"251016","179-VK","2018/08/09 16:59:37","新北市淡水區瓦坑3號","121.477585","25.1807033333333","6501000","淡水區"
"251014","180-VK","2018/08/09 16:59:35","新北市淡水區八里堆3-5號","121.455195","25.2246366666667","6501000","淡水區"
"251015","181-VK","2018/08/09 16:59:26","新北市淡水區忠愛街9-1號","121.456755","25.1744116666667","6501000","淡水區"
"251010","413-VK","2018/08/09 16:59:38","新北市淡水區新民街一段117號","121.428303333333","25.1877566666667","6501000","淡水區"
"251012","441-VK","2018/08/09 16:59:34","新北市淡水區沙崙路331號","121.42758","25.187645","6501000","淡水區"
"251008","442-VK","2018/08/09 16:59:40","新北市淡水區樹梅坑9號","121.472725","25.1426716666667","6501000","淡水區"
"251004","443-VK","2018/08/09 16:59:30","新北市淡水區中正路二段31號","121.419096666667","25.182025","6501000","淡水區"
"251006","561-UM","2018/08/09 16:59:37","新北市淡水區中正路一段1號","121.427308333333","25.175855","6501000","淡水區"
"251007","577-R6","2018/08/09 16:59:29","新北市淡水區中山路42號","121.444183333333","25.17003","6501000","淡水區"
"251011","650-BX","2018/08/09 16:59:25","新北市淡水區文化路61號","121.438456666667","25.1728616666667","6501000","淡水區"
"252002","178-VK","2018/08/09 16:59:39","新北市三芝區忠孝街178-1號","121.50626","25.2596883333333","6502100","三芝區"
"252001","292-VK","2018/08/09 16:59:25","新北市三芝區淡金路二段38-1號","121.503131666667","25.2601833333333","6502100","三芝區"
"242053","751-BX","2018/08/09 16:59:30","新北市新莊區新泰路357巷3弄57號","121.442095","25.0391566666667","6500500","新莊區"
"242042","566-BX","2018/08/09 16:59:39","新北市新莊區新泰路357巷3弄57號","121.442103333333","25.03914","6500500","新莊區"
"242036","415-TV","2018/08/09 16:59:31","新北市新莊區新泰路357巷3弄57號","121.442096666667","25.0393233333333","6500500","新莊區"
"242044","400-BY","2018/08/09 16:59:34","新北市新莊區新泰路357巷3弄57號","121.442188333333","25.03954","6500500","新莊區"
"242061","353-BY","2018/08/09 16:59:29","新北市新莊區新泰路255巷83號","121.442248333333","25.0387166666667","6500500","新莊區"
"242017","175-VK","2018/08/09 16:59:37","新北市新莊區三和路12-21號","121.442061666667","25.0387333333333","6500500","新莊區"
"242013","347-TH","2018/08/09 16:59:29","新北市新莊區三和路12-17號","121.442115","25.0375366666667","6500500","新莊區"
"242021","348-TH","2018/08/09 16:59:25","新北市新莊區新泰路357巷3弄57號","121.44211","25.03963","6500500","新莊區"
"242002","349-TH","2018/08/09 16:59:28","新北市新莊區三和路12-16號","121.442051666667","25.037405","6500500","新莊區"
"238005","571-TV","2018/08/09 16:59:27","新北市樹林區八德街286號","121.410266666667","24.9699466666667","6500700","樹林區"
"238024","5061-A6","2018/08/09 16:59:27","新北市樹林區鎮前街152號","121.424553333333","24.99026","6500700","樹林區"
"238021","KEA-2539","2018/08/09 16:59:41","新北市樹林區育德街78-1號","121.387586666667","24.96813","6500700","樹林區"
"238025","303-VK","2018/08/09 16:59:37","新北市樹林區中正路17號","121.427755","24.999125","6500700","樹林區"
"238001","283-BY","2018/08/09 16:59:30","新北市樹林區三多路123號","121.414616666667","25.0080433333333","6500700","樹林區"
"238001","282-BY","2018/08/09 16:59:41","新北市樹林區大慶街99-1號","121.427701666667","24.9997683333333","6500700","樹林區"
"239007","AAC-297","2018/08/09 16:59:31","新北市鶯歌區二甲路13-16號","121.345458333333","24.935105","6500800","鶯歌區"
"239006","891-R6","2018/08/09 16:59:38","新北市鶯歌區環河路177-23號","121.345298333333","24.9355583333333","6500800","鶯歌區"
"239001","417-VK","2018/08/09 16:59:31","新北市鶯歌區二甲路13號","121.343925","24.935535","6500800","鶯歌區"
"242015","281-VK","2018/08/09 16:59:40","新北市新莊區三和路12-17號","121.4421","25.0375533333333","6500500","新莊區"
