"lineid","car","time","location","longitude","latitude","cityid","cityname"
"249005","172-UM","2018/08/09 17:19:27","新北市五股區民義路二段132號","121.4083","25.121305","6502300","八里區"
"249001","173-UM","2018/08/09 17:19:39","新北市八里區中華路二段165巷3號","121.407656666667","25.15085","6502300","八里區"
"249004","303-UY","2018/08/09 17:19:21","新北市八里區忠四街16號","121.424838333333","25.1598833333333","6502300","八里區"
"249002","305-UY","2018/08/09 17:19:27","新北市八里區龍米路二段117巷31號","121.44589","25.14302","6502300","八里區"
"249003","593-UM","2018/08/09 17:19:37","新北市八里區中山路二段443號","121.396623333333","25.1457216666667","6502300","八里區"
"244017","069-UM","2018/08/09 17:19:35","新北市林口區粉寮69號","121.405036666667","25.0908316666667","6501700","林口區"
"244007","080-UY","2018/08/09 17:19:36","新北市林口區菁埔26-12號","121.376883333333","25.0958616666667","6501700","林口區"
"244019","403-UM","2018/08/09 17:19:33","新北市林口區公園路223巷22號","121.373476666667","25.0748733333333","6501700","林口區"
"244013","KEA-2802","2018/08/09 17:19:24","新北市林口區粉寮69號","121.404761666667","25.090835","6501700","林口區"
"244009","410-SL","2018/08/09 17:19:21","新北市林口區文化北路二段550巷26號","121.378498333333","25.09204","6501700","林口區"
"244023","483-VK","2018/08/09 17:19:27","新北市林口區隆林街61號","121.387221666667","25.075445","6501700","林口區"
"244011","657-BX","2018/08/09 17:19:29","新北市林口區粉寮路一段139號","121.399088333333","25.0812316666667","6501700","林口區"
"244025","837-TS","2018/08/09 17:19:31","新北市林口區中山路685號","121.377568333333","25.0839916666667","6501700","林口區"
"244021","838-TS","2018/08/09 17:19:32","新北市林口區粉寮路二段160巷8號","121.404746666667","25.0933116666667","6501700","林口區"
"231046","107-UY","2018/08/09 17:19:38","新北市新店區直潭路92號","121.530895","24.937575","6500600","新店區"
"241011","013-R5","2018/08/09 17:19:31","新北市三重區河邊北街100巷27號","121.50276","25.0702116666667","6500200","三重區"
"241028","022-UY","2018/08/09 17:19:29","新北市三重區仁化街66號","121.493876666667","25.0589983333333","6500200","三重區"
"241008","059-VK","2018/08/09 17:19:30","新北市三重區下竹圍街8號","121.48086","25.0758983333333","6500200","三重區"
"241022","060-VK","2018/08/09 17:19:35","新北市三重區中正北路120號","121.485638333333","25.0652416666667","6500200","三重區"
"241015","062-VK","2018/08/09 17:19:23","新北市三重區長元街82-1號","121.50185","25.0663066666667","6500200","三重區"
"241017","063-VK","2018/08/09 17:19:39","新北市三重區中正北路25巷25弄4號","121.493338333333","25.0626866666667","6500200","三重區"
"241024","065-VK","2018/08/09 17:19:26","新北市三重區中正北路346號","121.47788","25.069355","6500200","三重區"
"241026","066-VK","2018/08/09 17:19:27","新北市三重區福裕街35號","121.499235","25.0615883333333","6500200","三重區"
"241002","090-VK","2018/08/09 17:19:40","新北市三重區自強路五段66-1號","121.49597","25.0826116666667","6500200","三重區"
"241003","091-VK","2018/08/09 17:19:28","新北市三重區富福街40號","121.490956666667","25.0838216666667","6500200","三重區"
"241005","265-UM","2018/08/09 17:19:32","新北市三重區永安北路二段25巷31號","121.482801666667","25.08166","6500200","三重區"
"241016","266-UM","2018/08/09 17:19:27","新北市三重區大同北路54巷2號","121.494111666667","25.0634933333333","6500200","三重區"
"241009","267-UM","2018/08/09 17:19:33","新北市三重區三和路四段231巷21號","121.481861666667","25.0800516666667","6500200","三重區"
"241018","268-UM","2018/08/09 17:19:27","新北市三重區安慶街143號","121.49451","25.068805","6500200","三重區"
"241032","269-UM","2018/08/09 17:19:43","新北市三重區中華路22號","121.482986666667","25.0609","6500200","三重區"
"241013","270-UM","2018/08/09 17:19:41","新北市三重區仁愛街80號","121.495641666667","25.07356","6500200","三重區"
"241025","271-UM","2018/08/09 17:19:27","新北市三重區中正北路422號","121.474761666667","25.0709933333333","6500200","三重區"
"241007","398-BY","2018/08/09 17:19:30","新北市三重區三和路四段157號","121.483728333333","25.0784883333333","6500200","三重區"
"241004","413-TH","2018/08/09 17:19:44","新北市三重區五華街110巷2號","121.491935","25.0829183333333","6500200","三重區"
"241023","475-VK","2018/08/09 17:19:44","新北市三重區新北大道一段250號","121.479861666667","25.0613916666667","6500200","三重區"
"241020","478-VK","2018/08/09 17:19:34","新北市三重區自強路三段16號","121.486978333333","25.0721383333333","6500200","三重區"
"241030","480-VK","2018/08/09 17:19:33","新北市三重區成功路73巷11號","121.48952","25.05191","6500200","三重區"
"241014","543-UM","2018/08/09 17:19:33","新北市三重區三和路二段83號","121.500105","25.0684666666667","6500200","三重區"
"241019","KEA-2593","2018/08/09 17:19:31","新北市三重區自強路二段50巷19-1號","121.4882","25.069465","6500200","三重區"
"241006","AAD-863","2018/08/09 17:19:35","新北市三重區國道路一段39巷3號","121.483988333333","25.07294","6500200","三重區"
"241012","941-UM","2018/08/09 17:19:39","新北市三重區河邊北街256巷41號","121.500411666667","25.075685","6500200","三重區"
"241029","942-UM","2018/08/09 17:19:36","新北市三重區重陽路一段120巷35號","121.485285","25.0601516666667","6500200","三重區"
"241033","AAC-255","2018/08/09 17:19:24","新北市三重區中興北街195號","121.46902","25.0572933333333","6500200","三重區"
"235064","005-UY","2018/08/09 17:17:57","新北市中和區員山路36巷16-2號","121.485226666667","24.9913833333333","6500300","中和區"
"247010","KEA-2869","2018/08/09 17:19:37","新北市蘆洲區中山一路120巷7弄4號","121.477508333333","25.0820633333333","6501400","蘆洲區"
"235046","733-UM","2018/08/09 16:58:21","新北市中和區員山路36巷13號","121.484148333333","24.990875","6500300","中和區"
"247024","893-R6","2018/08/09 17:19:27","新北市蘆洲區光榮路2號","121.46031","25.0861566666667","6501400","蘆洲區"
"247014","546-UM","2018/08/09 17:19:31","新北市蘆洲區中正路79-3號","121.47025","25.0834166666667","6501400","蘆洲區"
"247022","500-BY","2018/08/09 17:19:31","新北市蘆洲區三民路128巷28號","121.47072","25.0883316666667","6501400","蘆洲區"
"247012","339-TH","2018/08/09 17:19:44","新北市蘆洲區信義路319巷10弄17號","121.477436666667","25.0864833333333","6501400","蘆洲區"
"247004","337-TH","2018/08/09 17:19:27","新北市蘆洲區中原路48號","121.459288333333","25.0823333333333","6501400","蘆洲區"
"247006","336-TH","2018/08/09 17:19:27","新北市蘆洲區長安街73巷15號","121.462223333333","25.0794916666667","6501400","蘆洲區"
"247018","057-VK","2018/08/09 17:19:29","新北市蘆洲區民權路98號","121.474135","25.088085","6501400","蘆洲區"
"247008","056-VK","2018/08/09 17:19:32","新北市蘆洲區永安北路一段72巷1號","121.476768333333","25.07713","6501400","蘆洲區"
"247016","053-VK","2018/08/09 17:19:41","新北市蘆洲區正和街98號","121.46774","25.0810233333333","6501400","蘆洲區"
"247002","002-UY","2018/08/09 17:19:36","新北市蘆洲區永樂街38巷33弄14號","121.457496666667","25.089645","6501400","蘆洲區"
"247020","001-UY","2018/08/09 17:19:36","新北市蘆洲區仁愛街35巷15弄1號","121.471778333333","25.0925916666667","6501400","蘆洲區"
"228003","097-TW","2018/08/09 17:19:42","新北市貢寮區福隆里興隆街24號","121.944598333333","25.0166416666667","6502600","貢寮區"
"228001","212-TW","2018/08/09 17:16:43","新北市貢寮區仁理村仁和路90號","121.92274","25.0503283333333","6502600","貢寮區"
"228002","663-BX","2018/08/09 17:19:29","新北市貢寮區雙玉里下雙溪街26-1號","121.924658333333","25.0113316666667","6502600","貢寮區"
"224006","676-BX","2018/08/09 17:19:35","新北市瑞芳區傑魚坑路275號","121.78701","25.1056683333333","6501200","瑞芳區"
"224008","285-BY","2018/08/09 17:19:31","新北市瑞芳區侯硐路154號","121.827091666667","25.084675","6501200","瑞芳區"
"224009","273-VK","2018/08/09 17:19:36","新北市瑞芳區汽車路31號","121.844668333333","25.1099283333333","6501200","瑞芳區"
"224005","271-BY","2018/08/09 17:19:38","新北市瑞芳區鼻頭路95號","121.916003333333","25.124315","6501200","瑞芳區"
"227004","642-TC","2018/08/09 17:19:44","新北市雙溪區上林里新寮子14號","121.834316666667","25.03035","6502500","雙溪區"
"227010","400-TW","2018/08/09 17:19:28","新北市雙溪區三貂里十三層41號","121.855281666667","25.0814583333333","6502500","雙溪區"
"251009","008-UM","2018/08/09 17:19:33","新北市淡水區三民街20號","121.439043333333","25.1717883333333","6501000","淡水區"
"251005","010-UM","2018/08/09 17:19:25","新北市淡水區鄧公路19號","121.451378333333","25.1700283333333","6501000","淡水區"
"251013","KEA-2871","2018/08/09 17:19:43","新北市淡水區竹圍子12號","121.47642","25.1933816666667","6501000","淡水區"
"251016","179-VK","2018/08/09 17:19:37","新北市淡水區社厝坑5-1號","121.470676666667","25.1905416666667","6501000","淡水區"
"251014","180-VK","2018/08/09 17:19:35","新北市淡水區番子田132號","121.464636666667","25.2274583333333","6501000","淡水區"
"251015","181-VK","2018/08/09 17:19:26","新北市淡水區三空泉16-10號","121.472356666667","25.1650366666667","6501000","淡水區"
"251010","413-VK","2018/08/09 17:19:38","新北市淡水區中正路二段305巷44號","121.42312","25.19165","6501000","淡水區"
"251012","441-VK","2018/08/09 17:19:34","新北市淡水區中山北路一段158號","121.444278333333","25.177895","6501000","淡水區"
"251008","442-VK","2018/08/09 17:19:41","新北市淡水區大同路235號","121.465905","25.1422166666667","6501000","淡水區"
"251004","443-VK","2018/08/09 17:17:57","新北市淡水區中正東路二段88巷15號","121.459065","25.1504766666667","6501000","淡水區"
"251006","561-UM","2018/08/09 17:19:37","新北市淡水區新生街124號","121.440973333333","25.1745866666667","6501000","淡水區"
"251007","577-R6","2018/08/09 17:19:29","新北市淡水區民生路60號","121.462045","25.1379383333333","6501000","淡水區"
"251011","650-BX","2018/08/09 17:19:25","新北市淡水區坪頂路128號","121.465181666667","25.1610733333333","6501000","淡水區"
"251002","672-BX","2018/08/09 17:19:42","新北市淡水區中正路二段31號","121.41926","25.1816366666667","6501000","淡水區"
"251003","766-UM","2018/08/09 17:19:32","新北市淡水區中正路二段31號","121.419383333333","25.181465","6501000","淡水區"
"207003","550-UM","2018/08/09 17:19:28","新北市萬里區萬里里獅頭路23號","121.693536666667","25.1777866666667","6502800","萬里區"
"252002","178-VK","2018/08/09 17:19:39","新北市三芝區忠孝街1-14號","121.505526666667","25.2539333333333","6502100","三芝區"
"252001","292-VK","2018/08/09 17:19:25","新北市三芝區長安街119號","121.498056666667","25.25966","6502100","三芝區"
"242058","986-R7","2018/08/09 17:19:40","新北市新莊區新泰路357巷3弄37號","121.442006666667","25.040415","6500500","新莊區"
"242053","751-BX","2018/08/09 17:19:31","新北市新莊區瓊林南路75-37號","121.437981666667","25.0148233333333","6500500","新莊區"
"242025","705-TV","2018/08/09 17:19:32","新北市新莊區中平路82巷29號","121.446065","25.044945","6500500","新莊區"
"242027","615-BX","2018/08/09 17:19:43","新北市新莊區中港一街159號","121.447438333333","25.04499","6500500","新莊區"
"242042","566-BX","2018/08/09 17:19:39","新北市新莊區中正路471號","121.441731666667","25.0338583333333","6500500","新莊區"
"242046","497-BY","2018/08/09 17:19:42","新北市新莊區中正路487號","121.441071666667","25.0336483333333","6500500","新莊區"
"242051","441-UM","2018/08/09 17:19:26","新北市新莊區瓊林南路42巷1-1號","121.435961666667","25.0178483333333","6500500","新莊區"
"242056","440-UM","2018/08/09 17:19:38","新北市新莊區中正路471號","121.44202","25.03349","6500500","新莊區"
"242036","415-TV","2018/08/09 17:19:31","新北市新莊區中正路473-1號","121.442018333333","25.0330466666667","6500500","新莊區"
"242007","413-TV","2018/08/09 17:19:37","新北市新莊區新泰路502巷12號","121.442771666667","25.0464666666667","6500500","新莊區"
"242044","400-BY","2018/08/09 17:19:34","新北市新莊區民安路98巷29號","121.423366666667","25.0250516666667","6500500","新莊區"
"242023","362-BY","2018/08/09 17:19:27","新北市新莊區中港路319號","121.452656666667","25.0448583333333","6500500","新莊區"
"242061","353-BY","2018/08/09 17:19:29","新北市新莊區新崑路187號","121.433673333333","25.0000166666667","6500500","新莊區"
"242009","132-UY","2018/08/09 17:19:34","新北市新莊區中誠街153號","121.448588333333","25.0473983333333","6500500","新莊區"
"242039","133-UY","2018/08/09 17:19:22","新北市新莊區新樹路215號","121.435556666667","25.023355","6500500","新莊區"
"242031","135-UY","2018/08/09 17:19:30","新北市新莊區三和路12-10號","121.442218333333","25.0367683333333","6500500","新莊區"
"242048","172-VK","2018/08/09 17:19:28","新北市新莊區龍安路252-2號","121.421245","25.019555","6500500","新莊區"
"242017","175-VK","2018/08/09 17:19:37","新北市新莊區中平路82巷36-2號","121.44642","25.0449383333333","6500500","新莊區"
"242004","176-VK","2018/08/09 17:19:27","新北市新莊區新泰路500號","121.442403333333","25.04598","6500500","新莊區"
"242013","347-TH","2018/08/09 17:19:29","新北市新莊區新泰路482號","121.44252","25.045585","6500500","新莊區"
"242021","348-TH","2018/08/09 17:19:26","新北市新莊區新泰路490巷1號","121.442866666667","25.0460716666667","6500500","新莊區"
"242002","349-TH","2018/08/09 17:19:28","新北市新莊區新豐街2號","121.449093333333","25.0347916666667","6500500","新莊區"
"242019","350-TH","2018/08/09 17:19:39","新北市新莊區新泰路502巷2號","121.442615","25.0464033333333","6500500","新莊區"
"238015","755-BX","2018/08/09 17:19:37","新北市樹林區大安路271號","121.41894","24.9936533333333","6500700","樹林區"
"238019","599-UM","2018/08/09 17:19:34","新北市樹林區國凱街82號","121.421253333333","24.979325","6500700","樹林區"
"238018","571-TV","2018/08/09 17:19:27","新北市樹林區鎮前街269巷39號","121.419028333333","24.98481","6500700","樹林區"
"238024","5061-A6","2018/08/09 17:19:30","新北市樹林區保安街一段48巷25號","121.426613333333","24.99509","6500700","樹林區"
"238022","KEA-2213","2018/08/09 17:19:43","新北市樹林區和平街21號","121.422188333333","24.9814033333333","6500700","樹林區"
"238021","KEA-2539","2018/08/09 17:19:41","新北市樹林區西圳街一段108號","121.399876666667","24.96392","6500700","樹林區"
"238025","303-VK","2018/08/09 17:19:37","新北市樹林區保安二街62號","121.424055","24.9952833333333","6500700","樹林區"
"238017","283-BY","2018/08/09 17:19:30","新北市樹林區中正路419號","121.416811666667","25.00741","6500700","樹林區"
"238014","282-BY","2018/08/09 17:19:43","新北市樹林區長壽街70巷35弄10號","121.421585","24.995145","6500700","樹林區"
"238026","172-UY","2018/08/09 17:19:33","新北市樹林區味王街46巷34號","121.402683333333","24.9737266666667","6500700","樹林區"
"238016","169-UY","2018/08/09 17:19:33","新北市樹林區中山路一段175號","121.421636666667","24.9884116666667","6500700","樹林區"
"239007","AAC-297","2018/08/09 17:19:31","新北市鶯歌區光復街25號","121.351445","24.95556","6500800","鶯歌區"
"239006","891-R6","2018/08/09 17:19:38","新北市鶯歌區德昌二街121號","121.333036666667","24.9567","6500800","鶯歌區"
"239008","527-UM","2018/08/09 17:19:29","新北市鶯歌區國光街66-2號","121.340745","24.95781","6500800","鶯歌區"
"239005","526-UM","2018/08/09 17:19:34","新北市鶯歌區福德三街12號","121.329725","24.9675933333333","6500800","鶯歌區"
"239001","417-VK","2018/08/09 17:19:32","新北市鶯歌區黃厝街31巷39-1號","121.34266","24.945445","6500800","鶯歌區"
"239003","360-BY","2018/08/09 17:19:39","新北市鶯歌區德昌二街59號","121.333388333333","24.9583933333333","6500800","鶯歌區"
"239004","193-VK","2018/08/09 17:19:24","新北市鶯歌區文化路288號","121.352703333333","24.9469466666667","6500800","鶯歌區"
"242015","281-VK","2018/08/09 17:19:39","新北市新莊區新泰路278號","121.445863333333","25.04043","6500500","新莊區"
"235061","KEA-2875","2018/08/09 17:13:16","新北市中和區員山路36巷16-2號","121.485176666667","24.991675","6500300","中和區"
