"lineid","car","time","location","longitude","latitude","cityid","cityname"
"234046","148-BY","2018/08/09 19:09:28","新北市永和區秀朗路二段148巷12弄16號","121.524771666667","25.0010716666667","6500400","永和區"
"234007","207-UY","2018/08/09 19:09:30","新北市永和區永貞路422號","121.508648333333","25.0083666666667","6500400","永和區"
"234081","298-R6","2018/08/09 19:09:32","新北市永和區福和路57巷14弄1號","121.522825","25.0068683333333","6500400","永和區"
"234064","337-UY","2018/08/09 19:09:26","新北市永和區秀朗路二段31號","121.521211666667","25.0024516666667","6500400","永和區"
"234086","338-UY","2018/08/09 19:09:44","新北市永和區永貞路47-1號","121.519535","25.0045033333333","6500400","永和區"
"234070","552-UM","2018/08/09 19:09:40","新北市永和區豫溪街95巷10弄1號","121.518021666667","25.0107966666667","6500400","永和區"
"234038","553-UM","2018/08/09 19:09:40","新北市永和區民樂街71巷1號","121.527411666667","24.99753","6500400","永和區"
"234017","745-BX","2018/08/09 19:09:40","新北市永和區文化路90巷15弄1號","121.513806666667","25.0159233333333","6500400","永和區"
"234030","746-BX","2018/08/09 19:09:40","新北市永和區民生路23號","121.522875","24.9988116666667","6500400","永和區"
"234054","KEA-2590","2018/08/09 19:09:36","新北市永和區中興街133巷12號","121.518573333333","25.0127166666667","6500400","永和區"
"234013","KEA-2591","2018/08/09 19:09:35","新北市永和區中山路一段98-2號","121.51161","25.0107633333333","6500400","永和區"
"234061","AAD-866","2018/08/09 19:09:34","新北市永和區安樂路304巷7號","121.514376666667","25.0050766666667","6500400","永和區"
"234042","862-TW","2018/08/09 19:09:30","新北市永和區保平路111巷5號","121.511653333333","25.0059916666667","6500400","永和區"
"234050","863-TW","2018/08/09 19:09:29","新北市永和區文化路135巷32弄1號","121.510888333333","25.014025","6500400","永和區"
"234026","9371-KE","2018/08/09 19:09:41","新北市永和區安樂路270號","121.514498333333","25.0040366666667","6500400","永和區"
"234011","9373-KE","2018/08/09 19:09:43","新北市永和區仁愛路141巷30弄5號","121.511931666667","25.0114866666667","6500400","永和區"
"249005","172-UM","2018/08/09 19:09:27","新北市八里區中華路三段62號","121.394196666667","25.1403583333333","6502300","八里區"
"249001","173-UM","2018/08/09 19:09:38","新北市八里區龍米路二段238號","121.430693333333","25.1587366666667","6502300","八里區"
"249003","593-UM","2018/08/09 19:09:38","新北市八里區博物館路29號","121.414228333333","25.16291","6502300","八里區"
"248016","026-BX","2018/08/09 19:09:39","新北市五股區成泰路三段543巷23號","121.45056","25.1024916666667","6501500","五股區"
"248006","077-UY","2018/08/09 19:09:41","新北市五股區四維路112號","121.467648333333","25.0737833333333","6501500","五股區"
"248008","095-VK","2018/08/09 19:09:27","新北市五股區中興路一段118巷20號","121.466026666667","25.0744083333333","6501500","五股區"
"248020","225-UY","2018/08/09 19:09:24","新北市五股區凌雲路三段57號","121.425306666667","25.12501","6501500","五股區"
"248012","247-BX","2018/08/09 19:09:33","新北市五股區中興路四段48巷16號","121.438541666667","25.0834616666667","6501500","五股區"
"248004","677-BX","2018/08/09 19:09:41","新北市五股區五福路7號","121.434203333333","25.08786","6501500","五股區"
"248002","678-BX","2018/08/09 19:09:42","新北市五股區凌雲路一段158巷13號","121.447763333333","25.1034683333333","6501500","五股區"
"248010","682-TV","2018/08/09 19:09:43","新北市五股區水碓二路1號","121.43058","25.071285","6501500","五股區"
"234023","9380-KE","2018/08/09 19:09:42","新北市永和區中興街10巷7號","121.51542","25.0114016666667","6500400","永和區"
"234077","969-R7","2018/08/09 19:09:43","新北市永和區民族街33號","121.518666666667","24.9994116666667","6500400","永和區"
"234074","AAC-211","2018/08/09 19:09:38","新北市永和區竹林路222號","121.520748333333","25.008075","6500400","永和區"
"234067","AAC-212","2018/08/09 19:09:43","新北市永和區永和路一段63號","121.513038333333","25.0069183333333","6500400","永和區"
"234003","AAC-295","2018/08/09 19:09:25","新北市永和區保福路一段94號","121.512046666667","25.0104133333333","6500400","永和區"
"244017","069-UM","2018/08/09 19:09:35","新北市林口區公園路45-1號","121.367563333333","25.0685866666667","6501700","林口區"
"244007","080-UY","2018/08/09 19:09:36","新北市林口區後坑5號","121.36669","25.1256066666667","6501700","林口區"
"244019","403-UM","2018/08/09 19:09:44","新北市林口區文化二路一段565號","121.375081666667","25.0773883333333","6501700","林口區"
"244013","KEA-2802","2018/08/09 19:09:44","新北市林口區文化一路一段126號","121.375655","25.0721483333333","6501700","林口區"
"244023","483-VK","2018/08/09 19:09:27","新北市林口區文化三路一段617巷138號","121.371293333333","25.078195","6501700","林口區"
"244011","657-BX","2018/08/09 19:09:29","新北市林口區中正路298號","121.38838","25.0777583333333","6501700","林口區"
"244025","837-TS","2018/08/09 19:09:40","新北市林口區文化三路一段447巷55-1號","121.366736666667","25.0749533333333","6501700","林口區"
"243013","AAD-798","2018/08/09 19:09:32","新北市泰山區明志路三段277號","121.423176666667","25.03675","6501600","泰山區"
"243009","297-R6","2018/08/09 19:09:30","新北市泰山區明志路一段117巷24號","121.434203333333","25.0634283333333","6501600","泰山區"
"243016","KEA-2801","2018/08/09 19:09:40","新北市泰山區明志路二段335號","121.425625","25.0447666666667","6501600","泰山區"
"243015","421-VK","2018/08/09 19:09:38","新北市泰山區明志路一段440號","121.430766666667","25.0561066666667","6501600","泰山區"
"243011","KEA-2215","2018/08/09 19:09:38","新北市泰山區明志路二段322號","121.426263333333","25.0458833333333","6501600","泰山區"
"243010","KEA-2216","2018/08/09 19:09:37","新北市泰山區明志路一段473-1號","121.43097","25.0556816666667","6501600","泰山區"
"243012","646-TV","2018/08/09 19:09:28","新北市泰山區辭修路36巷8弄5號","121.427818333333","25.0587","6501600","泰山區"
"243014","680-BX","2018/08/09 19:09:42","新北市泰山區泰林路二段328號","121.430228333333","25.0630933333333","6501600","泰山區"
"222003","436-BY","2018/08/09 19:09:44","新北市深坑區深南路162號","121.626105","25.0150083333333","6501800","深坑區"
"222002","659-BX","2018/08/09 19:09:41","新北市深坑區北深路一段185號","121.631355","25.0101133333333","6501800","深坑區"
"231041","002-UM","2018/08/09 19:09:37","新北市新店區中央二街64號","121.526431666667","24.9744533333333","6500600","新店區"
"231059","046-UY","2018/08/09 19:09:31","新北市新店區安康路一段351-1號","121.51937","24.9640666666667","6500600","新店區"
"231040","047-UY","2018/08/09 19:09:42","新北市新店區三民路98-3號","121.53395","24.9734","6500600","新店區"
"231044","106-UY","2018/08/09 19:09:28","新北市新店區中興路三段172號","121.544276666667","24.98098","6500600","新店區"
"231046","107-UY","2018/08/09 19:09:38","新北市新店區華潭街14號","121.529518333333","24.9524083333333","6500600","新店區"
"231052","108-UY","2018/08/09 19:09:39","新北市新店區屈尺路87巷2號","121.545526666667","24.922795","6500600","新店區"
"231065","110-UY","2018/08/09 19:09:33","新北市新店區安祥路111號","121.475505","24.9568016666667","6500600","新店區"
"231047","187-VK","2018/08/09 19:09:25","新北市新店區德正街27巷29弄19號","121.54485","24.97186","6500600","新店區"
"231054","KEA-2219","2018/08/09 19:09:32","新北市新店區新店路104號","121.537101666667","24.954535","6500600","新店區"
"231042","268-BY","2018/08/09 19:09:33","新北市新店區中興路一段171號","121.542816666667","24.9645233333333","6500600","新店區"
"231051","278-BY","2018/08/09 19:09:29","新北市新店區中正路400巷21號","121.53524","24.97847","6500600","新店區"
"231050","AAD-862","2018/08/09 19:09:34","新北市新店區竹林路2巷7號","121.550803333333","24.9517783333333","6500600","新店區"
"231058","3713-VJ","2018/08/09 19:09:42","新北市新店區光明街138巷13弄9號","121.540221666667","24.96158","6500600","新店區"
"231066","4716-K9","2018/08/09 19:09:28","新北市新店區安祥路20號","121.49297","24.9548466666667","6500600","新店區"
"231056","4715-K9","2018/08/09 19:09:41","新北市新店區中央路39號","121.53286","24.977775","6500600","新店區"
"231067","4772-VM","2018/08/09 19:09:27","新北市新店區安康路一段150號","121.526366666667","24.9629333333333","6500600","新店區"
"231049","513-UM","2018/08/09 19:09:33","新北市新店區二十張路25巷1號","121.538848333333","24.9821533333333","6500600","新店區"
"231063","616-UM","2018/08/09 19:09:42","新北市新店區車子路148號","121.505305","24.9472166666667","6500600","新店區"
"231045","618-UM","2018/08/09 19:09:44","新北市新店區北宜路一段123號","121.540601666667","24.9536383333333","6500600","新店區"
"231061","619-UM","2018/08/09 19:09:42","新北市新店區安康路一段355-10號","121.520828333333","24.9638466666667","6500600","新店區"
"231064","719-UM","2018/08/09 19:09:29","新北市新店區安忠路56巷6號","121.512971666667","24.9594233333333","6500600","新店區"
"231062","720-UM","2018/08/09 19:09:31","新北市新店區安平路20號","121.524038333333","24.9671433333333","6500600","新店區"
"231060","897-TW","2018/08/09 19:09:33","新北市新店區安康路二段295-3號","121.503713333333","24.9577283333333","6500600","新店區"
"231043","899-TW","2018/08/09 19:09:32","新北市新店區中興路三段1-17號","121.546696666667","24.97621","6500600","新店區"
"231055","AKT-0513","2018/08/09 19:09:26","新北市新店區薏仁坑路自強巷1號","121.49685","24.9581533333333","6500600","新店區"
"241026","066-VK","2018/08/09 19:09:38","新北市三重區泉州街72號","121.4947","25.05485","6500200","三重區"
"241035","KEA-2210","2018/08/09 19:09:43","新北市三重區重陽路三段5巷3-1號","121.49064","25.0653266666667","6500200","三重區"
"241006","AAD-863","2018/08/09 19:09:35","新北市三重區車路頭街139巷14號","121.4844","25.0761416666667","6500200","三重區"
"241029","942-UM","2018/08/09 19:09:32","新北市三重區集美街238號","121.492375","25.0558116666667","6500200","三重區"
"235066","003-UY","2018/08/09 19:09:40","新北市中和區廣福路40號","121.504325","25.0022583333333","6500300","中和區"
"235064","005-UY","2018/08/09 19:09:46","新北市中和區泰和街38巷22號","121.498701666667","25.0009616666667","6500300","中和區"
"235063","006-UY","2018/08/09 19:09:41","新北市中和區建八路14號","121.486761666667","24.9985366666667","6500300","中和區"
"235056","096-UM","2018/08/09 19:09:32","新北市中和區員山路506巷10號","121.479888333333","25.0086333333333","6500300","中和區"
"235065","098-UM","2018/08/09 19:09:43","新北市中和區中山路二段136巷6弄6號","121.502118333333","25.0038616666667","6500300","中和區"
"235040","150-BY","2018/08/09 19:09:27","新北市中和區宜安路81號","121.510951666667","24.9974516666667","6500300","中和區"
"235058","151-BY","2018/08/09 19:09:37","新北市中和區員山路120號","121.481171666667","24.9958633333333","6500300","中和區"
"235055","183-VK","2018/08/09 19:09:33","新北市中和區德光路77巷6弄2號","121.469808333333","25.00343","6500300","中和區"
"235038","185-VK","2018/08/09 19:09:28","新北市中和區大仁街10巷27弄4號","121.519251666667","24.9926633333333","6500300","中和區"
"235049","186-VK","2018/08/09 19:09:18","新北市中和區明禮街43號","121.504085","24.9963683333333","6500300","中和區"
"235067","255-BX","2018/08/09 19:09:37","新北市中和區新生街178號","121.483716666667","24.9999033333333","6500300","中和區"
"235044","293-VK","2018/08/09 19:09:45","新北市中和區中興街222-5號","121.500635","24.9895766666667","6500300","中和區"
"235072","301-VK","2018/08/09 19:09:39","新北市中和區連城路144巷4弄11號","121.495731666667","24.9988933333333","6500300","中和區"
"235043","352-BY","2018/08/09 19:09:43","新北市中和區景平路100-1號","121.520166666667","24.9914816666667","6500300","中和區"
"235042","KEA-2878","2018/08/09 19:09:46","新北市中和區立人街67號","121.519911666667","24.9941533333333","6500300","中和區"
"235050","4979-A6","2018/08/09 19:09:39","新北市中和區復興路75號","121.503576666667","24.9902783333333","6500300","中和區"
"235069","4980-A6","2018/08/09 19:09:46","新北市中和區景平路736巷1弄6號","121.497235","25.0039833333333","6500300","中和區"
"235070","558-UM","2018/08/09 19:09:26","新北市中和區中和路33號","121.50005","25.0016033333333","6500300","中和區"
"235045","565-BX","2018/08/09 19:09:29","新北市中和區景新街467巷35弄22號","121.513941666667","24.9889666666667","6500300","中和區"
"235054","640-BX","2018/08/09 19:09:39","新北市中和區國光街60號","121.470456666667","25.0002916666667","6500300","中和區"
"235060","647-TV","2018/08/09 19:09:24","新北市中和區中山路三段124號","121.474268333333","25.0062333333333","6500300","中和區"
"235047","732-UM","2018/08/09 19:09:40","新北市中和區興南路二段87號","121.506358333333","24.9847166666667","6500300","中和區"
"235046","733-UM","2018/08/09 19:09:47","新北市中和區忠孝街1巷44號","121.508476666667","24.9841833333333","6500300","中和區"
"235071","783-BX","2018/08/09 19:09:33","新北市中和區連城路469-1號","121.483558333333","24.995805","6500300","中和區"
"235062","800-TS","2018/08/09 19:09:44","新北市中和區建一路1號","121.488301666667","25.0043116666667","6500300","中和區"
"235057","801-TS","2018/08/09 19:09:44","新北市中和區民利街80號","121.478121666667","24.9981466666667","6500300","中和區"
"235041","802-TS","2018/08/09 19:09:40","新北市中和區中和路258號","121.50754","24.9995566666667","6500300","中和區"
"235052","805-TS","2018/08/09 19:09:29","新北市中和區興南路二段142巷19弄40號","121.502451666667","24.9833466666667","6500300","中和區"
"235048","896-TW","2018/08/09 19:09:31","新北市中和區華新街133號","121.506693333333","24.9817166666667","6500300","中和區"
"235053","900-TW","2018/08/09 19:09:32","新北市中和區華福街83號","121.467543333333","24.9964816666667","6500300","中和區"
"235051","157-BY","2018/08/09 19:09:29","新北市中和區忠孝街19巷23號","121.509828333333","24.9842366666667","6500300","中和區"
"235037","AAC-213","2018/08/09 19:09:28","新北市中和區秀朗路三段58-1號","121.526036666667","24.9951816666667","6500300","中和區"
"220106","013-TV","2018/08/09 19:09:47","新北市板橋區雙十路三段18巷1弄2號","121.471968333333","25.0306816666667","6500100","板橋區"
"220055","015-TV","2018/08/09 19:09:28","新北市板橋區中山路一段120號","121.463158333333","25.01062","6500100","板橋區"
"220065","072-UY","2018/08/09 19:09:36","新北市板橋區民族路223號","121.469626666667","25.0072666666667","6500100","板橋區"
"220086","073-UY","2018/08/09 19:09:38","新北市板橋區中正路216巷142號","121.460408333333","25.0194666666667","6500100","板橋區"
"220069","AAD-861","2018/08/09 19:09:33","新北市板橋區四川路一段104號","121.459545","25.0046366666667","6500100","板橋區"
"226004","312-R5","2018/08/09 19:09:29","新北市平溪區十分里十分街106號","121.776796666667","25.04285","6502400","平溪區"
"235059","251-BX","2018/08/09 19:09:42","新北市中和區圓通路294巷17-5號","121.488653333333","24.99041","6500300","中和區"
"228003","097-TW","2018/08/09 19:09:42","新北市貢寮區和美里和美街42號","121.913523333333","25.0910283333333","6502600","貢寮區"
"228001","212-TW","2018/08/09 19:09:37","新北市貢寮區真理里新港街10號","121.925515","25.05432","6502600","貢寮區"
"228002","663-BX","2018/08/09 19:09:29","新北市貢寮區福隆里福隆街32-1號","121.945115","25.01741","6502600","貢寮區"
"224010","AGQ-8101","2018/08/09 19:09:26","新北市瑞芳區基山街3號","121.845175","25.1097583333333","6501200","瑞芳區"
"224006","676-BX","2018/08/09 19:09:39","新北市瑞芳區中山路157號","121.802155","25.1065066666667","6501200","瑞芳區"
"224008","285-BY","2018/08/09 19:09:31","新北市瑞芳區瑞芳街118號","121.801465","25.11096","6501200","瑞芳區"
"224007","275-VK","2018/08/09 19:09:36","新北市瑞芳區瑞竹路46號","121.763505","25.1033633333333","6501200","瑞芳區"
"224009","273-VK","2018/08/09 19:09:42","新北市瑞芳區洞頂路160號","121.86098","25.1185133333333","6501200","瑞芳區"
"224005","271-BY","2018/08/09 19:09:17","新北市瑞芳區瑞濱路185號","121.817953333333","25.1136566666667","6501200","瑞芳區"
"227004","642-TC","2018/08/09 19:09:43","新北市雙溪區平林里外平林9-25號","121.860091666667","25.0374766666667","6502500","雙溪區"
"227010","400-TW","2018/08/09 19:09:28","新北市雙溪區牡丹里自強路20號","121.865071666667","25.0392283333333","6502500","雙溪區"
"253005","032-BX","2018/08/09 19:09:43","新北市石門區阿里荖42-1號","121.602738333333","25.2858166666667","6502200","石門區"
"253006","295-VK","2018/08/09 19:09:36","新北市石門區崁子腳58-22號","121.531473333333","25.2875433333333","6502200","石門區"
"222001","KEA-2212","2018/08/09 19:09:38","新北市深坑區北深路一段300號","121.624211666667","25.0057883333333","6501800","深坑區"
"208002","KEA-2872","2018/08/09 19:09:36","新北市金山區仁愛路67巷18號","121.634331666667","25.2209983333333","6502700","金山區"
"208003","665-BX","2018/08/09 19:09:34","新北市金山區中正路139號","121.632291666667","25.2214866666667","6502700","金山區"
"208001","761-BX","2018/08/09 19:09:35","新北市金山區金包里街1-1號","121.640355","25.2205716666667","6502700","金山區"
"251009","008-UM","2018/08/09 19:09:32","新北市淡水區重建街61號","121.439845","25.1718383333333","6501000","淡水區"
"251005","010-UM","2018/08/09 19:09:45","新北市淡水區原德路25號","121.44212","25.1714633333333","6501000","淡水區"
"251001","011-UM","2018/08/09 19:09:31","新北市淡水區自強路201巷39號","121.462076666667","25.12682","6501000","淡水區"
"251013","KEA-2871","2018/08/09 19:09:43","新北市淡水區安子內12-1號","121.48152","25.2190883333333","6501000","淡水區"
"251016","179-VK","2018/08/09 19:09:37","新北市淡水區淡金路三段348號","121.450065","25.2088633333333","6501000","淡水區"
"251014","180-VK","2018/08/09 19:09:35","新北市淡水區小中寮19-8號","121.486653333333","25.2277816666667","6501000","淡水區"
"251015","181-VK","2018/08/09 19:09:26","新北市淡水區南勢埔6-3號","121.483105","25.1807966666667","6501000","淡水區"
"251010","413-VK","2018/08/09 19:09:38","新北市淡水區中正路一段156巷3號","121.421228333333","25.1802833333333","6501000","淡水區"
"251006","561-UM","2018/08/09 19:09:37","新北市淡水區中山北路三段116號","121.443846666667","25.193885","6501000","淡水區"
"251007","577-R6","2018/08/09 19:09:29","新北市淡水區民生路145巷58號","121.468","25.1387733333333","6501000","淡水區"
"251011","650-BX","2018/08/09 19:06:00","新北市淡水區中正東路二段143巷2弄1號","121.46073","25.1474116666667","6501000","淡水區"
"251002","672-BX","2018/08/09 19:09:42","新北市淡水區中山路95巷2號","121.44215","25.1705483333333","6501000","淡水區"
"251003","766-UM","2018/08/09 19:09:31","新北市淡水區中山北路一段84號","121.442341666667","25.176145","6501000","淡水區"
"207003","550-UM","2018/08/09 19:09:27","新北市萬里區大鵬里萬里加投24-2號","121.649138333333","25.207345","6502800","萬里區"
"207004","225-TW","2018/08/09 19:09:25","新北市萬里區萬里里瑪鋉下街29號","121.6913","25.1789116666667","6502800","萬里區"
"252002","178-VK","2018/08/09 19:09:39","新北市三芝區埔坪里埔頭坑84號","121.50808","25.25427","6502100","三芝區"
"252003","249-BX","2018/08/09 19:09:28","新北市三芝區錫板里南勢崗8號","121.47926","25.261625","6502100","三芝區"
"252001","292-VK","2018/08/09 19:09:45","新北市三芝區長勤街45巷2號","121.50032","25.2551216666667","6502100","三芝區"
"237004","KEA-2597","2018/08/09 19:09:32","新北市三峽區有木145號","121.444605","24.8486633333333","6500900","三峽區"
"237007","153-BY","2018/08/09 19:09:35","新北市三峽區中正路二段42巷84號","121.36432","24.9205533333333","6500900","三峽區"
"237013","252-BX","2018/08/09 19:09:34","新北市三峽區光明路69巷25號","121.376723333333","24.9292216666667","6500900","三峽區"
"237012","275-BY","2018/08/09 19:09:35","新北市三峽區三樹路222巷236弄23號","121.391383333333","24.943035","6500900","三峽區"
"237008","302-VK","2018/08/09 19:09:29","新北市三峽區大同路174巷10號","121.372653333333","24.9272366666667","6500900","三峽區"
"237014","433-BY","2018/08/09 19:09:42","新北市三峽區復興路489號","121.361141666667","24.9385383333333","6500900","三峽區"
"237006","5529-G3","2018/08/09 19:09:43","新北市三峽區溪東路233巷47弄2號","121.410593333333","24.93467","6500900","三峽區"
"237011","KEA-2596","2018/08/09 19:09:42","新北市三峽區介壽路三段47號","121.395575","24.9374866666667","6500900","三峽區"
"237016","649-BX","2018/08/09 19:09:42","新北市三峽區建安80-3號","121.452636666667","24.9226233333333","6500900","三峽區"
"237010","706-TV","2018/08/09 19:09:28","新北市三峽區國光街350巷21號","121.371666666667","24.9401616666667","6500900","三峽區"
"237005","AKY-6261","2018/08/09 19:09:36","新北市三峽區中山路459巷163-3號","121.34866","24.932845","6500900","三峽區"
"236070","105-UM","2018/08/09 19:09:28","新北市土城區裕生路65-1號","121.447533333333","24.9858033333333","6501300","土城區"
"236042","107-UM","2018/08/09 19:09:33","新北市土城區學府路一段239號","121.45042","24.9833316666667","6501300","土城區"
"236078","166-UM","2018/08/09 19:09:19","新北市土城區龍泉路43號","121.417071666667","24.9433016666667","6501300","土城區"
"236026","269-VK","2018/08/09 19:09:25","新北市土城區中正路56巷2號","121.443803333333","24.9753633333333","6501300","土城區"
"236014","270-VK","2018/08/09 19:09:38","新北市土城區學府路一段37巷30號","121.45732","24.987565","6501300","土城區"
"236038","271-VK","2018/08/09 19:09:29","新北市土城區清水路98巷3弄1號","121.457576666667","24.981305","6501300","土城區"
"236021","401-BY","2018/08/09 19:09:33","新北市土城區延峰街34巷1號","121.469545","24.9847216666667","6501300","土城區"
"236059","912-UM","2018/08/09 19:09:31","新北市土城區金城路一段139號","121.445186666667","24.9741066666667","6501300","土城區"
"236049","913-UM","2018/08/09 19:09:39","新北市土城區明德路一段365-1號","121.453661666667","24.979085","6501300","土城區"
"236063","915-UM","2018/08/09 19:09:40","新北市土城區金城路三段122號","121.46673","24.98714","6501300","土城區"
"236055","AAC-216","2018/08/09 19:09:32","新北市土城區學府路一段250號","121.451551666667","24.9845566666667","6501300","土城區"
"238015","755-BX","2018/08/09 19:09:26","新北市樹林區備內街68號","121.41125","24.9881816666667","6500700","樹林區"
"238023","601-UM","2018/08/09 19:09:30","新北市樹林區三興路39號","121.39595","25.0146016666667","6500700","樹林區"
"238019","599-UM","2018/08/09 19:09:34","新北市樹林區東華街37號","121.415176666667","24.9816333333333","6500700","樹林區"
"238018","571-TV","2018/08/09 19:09:47","新北市樹林區太平路56巷39號","121.417966666667","24.9815183333333","6500700","樹林區"
"238022","KEA-2213","2018/08/09 19:09:43","新北市樹林區中山路二段151巷6弄1號","121.406713333333","24.9785166666667","6500700","樹林區"
"238021","KEA-2539","2018/08/09 19:09:43","新北市樹林區柑園街二段458號","121.362666666667","24.9458416666667","6500700","樹林區"
"238025","303-VK","2018/08/09 19:09:36","新北市樹林區中山路三段72-1號","121.39371","24.9723383333333","6500700","樹林區"
"238017","283-BY","2018/08/09 19:09:30","新北市樹林區文化街91巷6號","121.415895","24.9895866666667","6500700","樹林區"
"238020","268-VK","2018/08/09 19:09:32","新北市樹林區俊英街133巷27號","121.423596666667","25.0112466666667","6500700","樹林區"
"238026","172-UY","2018/08/09 19:09:28","新北市樹林區佳園路二段86巷82號","121.39038","24.95883","6500700","樹林區"
"238016","169-UY","2018/08/09 19:09:33","新北市樹林區中山路一段306巷51弄26號","121.417723333333","24.9859216666667","6500700","樹林區"
"239007","AAC-297","2018/08/09 19:09:31","新北市鶯歌區中正一路211巷1弄2號","121.353643333333","24.9574","6500800","鶯歌區"
"239006","891-R6","2018/08/09 19:09:38","新北市鶯歌區鶯桃路296巷93弄1號","121.336113333333","24.9617466666667","6500800","鶯歌區"
"239008","527-UM","2018/08/09 19:09:09","新北市鶯歌區國際二路14巷2號","121.337695","24.9747233333333","6500800","鶯歌區"
"239005","526-UM","2018/08/09 19:09:34","新北市鶯歌區大湖路361巷24弄18號","121.33","24.97788","6500800","鶯歌區"
"239001","417-VK","2018/08/09 19:09:32","新北市鶯歌區永智街43巷23號","121.337173333333","24.95385","6500800","鶯歌區"
"239003","360-BY","2018/08/09 19:09:38","新北市鶯歌區八德路7-2號","121.33614","24.9505566666667","6500800","鶯歌區"
"239004","193-VK","2018/08/09 19:09:24","新北市鶯歌區中正三路300號","121.328393333333","24.935675","6500800","鶯歌區"
"221036","130-UY","2018/08/09 19:09:33","新北市汐止區康寧街901號","121.651041666667","25.075175","6501100","汐止區"
"221015","131-UY","2018/08/09 19:09:36","新北市汐止區汐萬路一段5號","121.656041666667","25.067395","6501100","汐止區"
"221010","269-BY","2018/08/09 19:09:27","新北市汐止區康寧街901號","121.6514","25.07509","6501100","汐止區"
"221012","278-VK","2018/08/09 19:09:29","新北市汐止區康寧街901號","121.650815","25.075225","6501100","汐止區"
"221023","279-VK","2018/08/09 18:49:17","新北市汐止區康寧街901號","121.650835","25.0752783333333","6501100","汐止區"
"221032","280-BY","2018/08/09 19:09:40","新北市汐止區橫科路241-6號","121.62251","25.0487083333333","6501100","汐止區"
"221027","281-BY","2018/08/09 19:09:46","新北市汐止區康寧街901號","121.6514","25.0749966666667","6501100","汐止區"
"221008","297-VK","2018/08/09 19:09:30","新北市汐止區康寧街467號","121.63178","25.06831","6501100","汐止區"
"221029","298-VK","2018/08/09 19:09:26","新北市汐止區汐萬路一段256巷3號","121.652411666667","25.0746083333333","6501100","汐止區"
"221021","299-VK","2018/08/09 19:09:41","新北市汐止區康寧街901號","121.651525","25.0750066666667","6501100","汐止區"
"221031","353-TW","2018/08/09 19:09:31","新北市汐止區福德三路127號","121.633588333333","25.0675733333333","6501100","汐止區"
"221002","129-UY","2018/08/09 19:09:41","新北市汐止區環河街207號","121.625918333333","25.0540983333333","6501100","汐止區"
"221025","623-UM","2018/08/09 19:09:27","新北市汐止區康寧街901號","121.651595","25.0749816666667","6501100","汐止區"
"221038","646-BX","2018/08/09 19:09:36","新北市汐止區康寧街901號","121.650713333333","25.0753","6501100","汐止區"
"221033","647-BX","2018/08/09 19:09:39","新北市汐止區南勢街1巷1號","121.627031666667","25.0374233333333","6501100","汐止區"
"220079","145-BY","2018/08/09 19:09:30","新北市板橋區民權路260巷10號","121.458136666667","25.0152816666667","6500100","板橋區"
"220080","200-UY","2018/08/09 19:09:40","新北市板橋區大觀路二段1巷44號","121.45017","25.003695","6500100","板橋區"
"220082","610-BX","2018/08/09 19:09:37","新北市板橋區溪崑二街89號","121.427266666667","24.9894516666667","6500100","板橋區"
"220091","267-BY","2018/08/09 19:09:26","新北市板橋區八德路二段62號","121.482075","25.02714","6500100","板橋區"
"220056","276-BY","2018/08/09 19:09:29","新北市板橋區信義路74巷1弄1號","121.457241666667","24.993185","6500100","板橋區"
"220072","277-BY","2018/08/09 19:09:32","新北市板橋區金門街260巷2號","121.429778333333","24.9869133333333","6500100","板橋區"
"220094","285-UM","2018/08/09 19:09:41","新北市板橋區光武街112號","121.465638333333","25.0293383333333","6500100","板橋區"
"220053","285-VK","2018/08/09 19:09:25","新北市板橋區懷仁街10巷28號","121.474946666667","25.0195333333333","6500100","板橋區"
"220083","286-VK","2018/08/09 19:09:39","新北市板橋區大觀路二段174巷173弄2號","121.441771666667","25.0036983333333","6500100","板橋區"
"220081","287-VK","2018/08/09 19:09:45","新北市板橋區南雅西路二段156巷6號","121.452213333333","25.0133333333333","6500100","板橋區"
"220090","288-VK","2018/08/09 19:09:29","新北市板橋區裕民街45巷2號","121.461496666667","25.0285083333333","6500100","板橋區"
"220061","293-UM","2018/08/09 19:09:34","新北市板橋區懷仁街85巷2弄2號","121.477636666667","25.0183916666667","6500100","板橋區"
"220062","295-UM","2018/08/09 19:09:26","新北市板橋區三民路二段245巷44號","121.48096","25.0125566666667","6500100","板橋區"
"220084","296-UM","2018/08/09 19:09:25","新北市板橋區溪崑二街16巷9號","121.428405","24.9918383333333","6500100","板橋區"
"220075","303-R5","2018/08/09 19:09:42","新北市板橋區南雅南路一段5巷19號","121.4564","25.005445","6500100","板橋區"
"220092","307-R5","2018/08/09 19:09:34","新北市板橋區文化路二段229號","121.470795","25.0284666666667","6500100","板橋區"
"220098","317-R6","2018/08/09 19:09:35","新北市板橋區自由路51巷11號","121.464916666667","25.023385","6500100","板橋區"
"220064","486-VK","2018/08/09 19:09:37","新北市板橋區民生路一段35號","121.475755","25.0125033333333","6500100","板橋區"
"220088","491-VK","2018/08/09 19:09:37","新北市板橋區文化路二段182巷1弄2號","121.470883333333","25.0274883333333","6500100","板橋區"
"220035","560-BX","2018/08/09 19:09:34","新北市板橋區中正路381號","121.454093333333","25.021575","6500100","板橋區"
"220103","561-BX","2018/08/09 19:09:28","新北市板橋區文化路一段188巷9弄114號","121.468655","25.01932","6500100","板橋區"
"220071","568-UM","2018/08/09 19:09:42","新北市板橋區重慶路353巷5號","121.464693333333","24.99813","6500100","板橋區"
"220063","609-BX","2018/08/09 19:09:26","新北市板橋區三民路二段155號","121.479246666667","25.0149066666667","6500100","板橋區"
"220054","630-UY","2018/08/09 19:09:39","新北市板橋區重慶路89巷25號","121.46314","25.0066183333333","6500100","板橋區"
"220057","686-BX","2018/08/09 19:09:35","新北市板橋區重慶路321號","121.463901666667","24.9985633333333","6500100","板橋區"
"220077","687-BX","2018/08/09 19:09:45","新北市板橋區大觀路二段57號","121.446653333333","25.002685","6500100","板橋區"
"220093","689-BX","2018/08/09 19:09:39","新北市板橋區民生路三段173號","121.465623333333","25.02714","6500100","板橋區"
"220102","KEA-2699","2018/08/09 19:09:41","新北市板橋區萬板路818巷9號","121.483","25.0266816666667","6500100","板橋區"
"220067","829-TW","2018/08/09 19:09:25","新北市板橋區長安街349號","121.474918333333","25.0124883333333","6500100","板橋區"
"220068","830-TW","2018/08/09 19:09:44","新北市板橋區中山路二段443巷84號","121.480745","25.0225833333333","6500100","板橋區"
"220096","831-TW","2018/08/09 19:09:33","新北市板橋區雙十路二段33巷20號","121.475906666667","25.025485","6500100","板橋區"
"220089","833-TW","2018/08/09 19:09:42","新北市板橋區文化路二段359號","121.472946666667","25.0307933333333","6500100","板橋區"
"220074","895-R6","2018/08/09 19:09:38","新北市板橋區中正路自強新村5-1號","121.455173333333","25.0140366666667","6500100","板橋區"
"220073","985-R7","2018/08/09 19:09:39","新北市板橋區中正路372巷6號","121.454796666667","25.02422","6500100","板橋區"
"220097","AAC-210","2018/08/09 19:09:25","新北市板橋區幸福路70巷23號","121.460163333333","25.02091","6500100","板橋區"
"220070","AAC-253","2018/08/09 19:09:34","新北市板橋區忠孝路40號","121.460426666667","25.00188","6500100","板橋區"
"235068","KEA-2873","2018/08/09 19:09:23","新北市中和區圓通路162巷37弄3號","121.496485","24.9955066666667","6500300","中和區"
"235061","KEA-2875","2018/08/09 19:09:23","新北市中和區民有街73號","121.476556666667","25.003105","6500300","中和區"
