"lineid","car","time","location","longitude","latitude","cityid","cityname"
"234046","148-BY","2018/08/09 19:19:48","新北市永和區永元路25號","121.52216","25.0007866666667","6500400","永和區"
"234007","207-UY","2018/08/09 19:19:30","新北市永和區中山路一段232號","121.507936666667","25.0081416666667","6500400","永和區"
"234081","298-R6","2018/08/09 19:19:32","新北市永和區福和路48號","121.523563333333","25.0081733333333","6500400","永和區"
"234064","337-UY","2018/08/09 19:19:26","新北市永和區永元路17巷6弄2號","121.521426666667","25.0006916666667","6500400","永和區"
"234086","338-UY","2018/08/09 19:19:24","新北市永和區永利路72號","121.520233333333","25.00426","6500400","永和區"
"234070","552-UM","2018/08/09 19:19:40","新北市永和區豫溪街86號","121.518343333333","25.0100216666667","6500400","永和區"
"234038","553-UM","2018/08/09 19:19:40","新北市永和區民樂街70號","121.527416666667","24.9983716666667","6500400","永和區"
"234017","745-BX","2018/08/09 19:19:29","新北市永和區文化路144巷31弄6號","121.512466666667","25.0167866666667","6500400","永和區"
"234030","746-BX","2018/08/09 19:19:40","新北市永和區厚德街9巷2號","121.5257","24.99839","6500400","永和區"
"234054","KEA-2590","2018/08/09 19:19:40","新北市永和區中興街20號","121.51608","25.0118583333333","6500400","永和區"
"234013","KEA-2591","2018/08/09 19:19:35","新北市永和區信義路77號","121.512438333333","25.0132733333333","6500400","永和區"
"234061","AAD-866","2018/08/09 19:19:29","新北市永和區秀朗路一段175號","121.517065","25.0036666666667","6500400","永和區"
"234042","862-TW","2018/08/09 19:19:30","新北市永和區保平路203巷33號","121.509681666667","25.0050566666667","6500400","永和區"
"234050","863-TW","2018/08/09 19:19:29","新北市永和區保福路二段88巷29號","121.512005","25.0137066666667","6500400","永和區"
"234026","9371-KE","2018/08/09 19:19:41","新北市永和區得和路42巷23號","121.515333333333","24.9996433333333","6500400","永和區"
"234011","9373-KE","2018/08/09 19:19:43","新北市永和區保福路二段9巷9號","121.51055","25.01087","6500400","永和區"
"249001","173-UM","2018/08/09 19:19:38","新北市八里區中山路一段418-3號","121.411116666667","25.157855","6502300","八里區"
"249003","593-UM","2018/08/09 19:19:38","新北市八里區中山路二段466巷5號","121.398728333333","25.1475","6502300","八里區"
"248008","095-VK","2018/08/09 19:19:27","新北市五股區中興路二段83巷26-3號","121.460123333333","25.07542","6501500","五股區"
"248020","225-UY","2018/08/09 19:19:44","新北市五股區凌雲路三段57號","121.425301666667","25.1250066666667","6501500","五股區"
"248012","247-BX","2018/08/09 19:19:33","新北市五股區中興路四段48巷16號","121.438618333333","25.0834416666667","6501500","五股區"
"248004","677-BX","2018/08/09 19:19:41","新北市五股區五福路136號","121.43209","25.0912483333333","6501500","五股區"
"248002","678-BX","2018/08/09 19:19:42","新北市五股區凌雲路一段158巷13號","121.447776666667","25.1034583333333","6501500","五股區"
"248010","682-TV","2018/08/09 19:19:43","新北市五股區水碓一路23號","121.430605","25.0713016666667","6501500","五股區"
"234023","9380-KE","2018/08/09 19:19:42","新北市永和區竹林路111號","121.51997","25.0118033333333","6500400","永和區"
"234077","969-R7","2018/08/09 19:19:36","新北市永和區民治街72巷3號","121.517893333333","24.998335","6500400","永和區"
"234074","AAC-211","2018/08/09 19:19:38","新北市永和區竹林路106號","121.51962","25.01186","6500400","永和區"
"234067","AAC-212","2018/08/09 19:19:43","新北市永和區保平路50巷6號","121.511255","25.0074016666667","6500400","永和區"
"234003","AAC-295","2018/08/09 19:19:45","新北市永和區永平路186-1號","121.510398333333","25.0092566666667","6500400","永和區"
"244017","069-UM","2018/08/09 19:19:35","新北市林口區湖南里70-9號","121.37595","25.0897133333333","6501700","林口區"
"244007","080-UY","2018/08/09 19:19:36","新北市八里區中山路三段390號","121.36837","25.135255","6501700","林口區"
"244019","403-UM","2018/08/09 19:19:33","新北市林口區中山路622號","121.375181666667","25.08614","6501700","林口區"
"244023","483-VK","2018/08/09 19:19:27","新北市林口區民有街66號","121.372783333333","25.0770933333333","6501700","林口區"
"244025","837-TS","2018/08/09 19:19:31","新北市林口區文化北路一段542巷55弄1號","121.369308333333","25.0786166666667","6501700","林口區"
"243013","AAD-798","2018/08/09 19:19:32","新北市泰山區明志路三段145巷7號","121.425426666667","25.040015","6501600","泰山區"
"243009","297-R6","2018/08/09 19:19:32","新北市泰山區和平街13巷7號","121.434386666667","25.06497","6501600","泰山區"
"243016","KEA-2801","2018/08/09 19:19:40","新北市泰山區明志路三段141號","121.425098333333","25.0401566666667","6501600","泰山區"
"243015","421-VK","2018/08/09 19:19:38","新北市泰山區公園路20號","121.429361666667","25.0542466666667","6501600","泰山區"
"243011","KEA-2215","2018/08/09 19:19:38","新北市泰山區中央路36巷3號","121.426225","25.0427516666667","6501600","泰山區"
"243010","KEA-2216","2018/08/09 19:19:37","新北市泰山區明志路二段34號","121.429475","25.0534416666667","6501600","泰山區"
"243012","646-TV","2018/08/09 19:19:28","新北市泰山區仁武街21號","121.433703333333","25.0546566666667","6501600","泰山區"
"243014","680-BX","2018/08/09 19:19:42","新北市泰山區泰林路二段92號","121.434868333333","25.0587616666667","6501600","泰山區"
"222003","436-BY","2018/08/09 19:19:44","新北市深坑區深南路204號","121.626635","25.0160616666667","6501800","深坑區"
"222002","659-BX","2018/08/09 19:19:41","新北市深坑區北深路一段177號","121.632568333333","25.0108883333333","6501800","深坑區"
"231041","002-UM","2018/08/09 19:19:37","新北市新店區溪園路203號","121.526585","24.9841433333333","6500600","新店區"
"231059","046-UY","2018/08/09 19:19:31","新北市新店區安和路二段175號","121.518516666667","24.9747116666667","6500600","新店區"
"231040","047-UY","2018/08/09 19:19:42","新北市新店區三民路20巷2號","121.537606666667","24.97061","6500600","新店區"
"231044","106-UY","2018/08/09 19:19:40","新北市新店區中興路三段330號","121.542045","24.98659","6500600","新店區"
"231046","107-UY","2018/08/09 19:19:38","新北市新店區華城路5-3號","121.529271666667","24.9579133333333","6500600","新店區"
"231052","108-UY","2018/08/09 19:19:39","新北市新店區屈尺路72號","121.546943333333","24.9226683333333","6500600","新店區"
"231065","110-UY","2018/08/09 19:19:33","新北市新店區安祥路142號","121.473996666667","24.9557483333333","6500600","新店區"
"231047","187-VK","2018/08/09 19:19:25","新北市新店區中興路二段77號","121.546781666667","24.971125","6500600","新店區"
"231054","KEA-2219","2018/08/09 19:19:35","新北市新店區國校路44號","121.538241666667","24.9542233333333","6500600","新店區"
"231042","268-BY","2018/08/09 19:19:33","新北市新店區中興路一段84號","121.539735","24.9600733333333","6500600","新店區"
"231051","278-BY","2018/08/09 19:19:32","新北市新店區中央路133巷4號","121.530566666667","24.9737366666667","6500600","新店區"
"231050","AAD-862","2018/08/09 19:19:34","新北市新店區竹林路25巷10號","121.552311666667","24.9514","6500600","新店區"
"231058","3713-VJ","2018/08/09 19:19:37","新北市新店區北新路二段96號","121.542985","24.9731616666667","6500600","新店區"
"231066","4716-K9","2018/08/09 19:19:28","新北市新店區安康路三段359巷12弄27號","121.483991666667","24.9492733333333","6500600","新店區"
"231056","4715-K9","2018/08/09 19:19:41","新北市新店區光華街29號","121.51553","24.9697116666667","6500600","新店區"
"231067","4772-VM","2018/08/09 19:19:27","新北市新店區安康路一段247巷29號","121.52459","24.962045","6500600","新店區"
"231049","513-UM","2018/08/09 19:19:33","新北市新店區明德路64號","121.541596666667","24.9794033333333","6500600","新店區"
"231063","616-UM","2018/08/09 19:19:34","新北市新店區達觀路14巷2號","121.503336666667","24.9418133333333","6500600","新店區"
"231045","618-UM","2018/08/09 19:19:44","新北市新店區北宜路一段256號","121.545626666667","24.952795","6500600","新店區"
"231061","619-UM","2018/08/09 19:19:31","新北市新店區安康路一段107-2號","121.52887","24.9616783333333","6500600","新店區"
"231064","719-UM","2018/08/09 19:19:29","新北市新店區安忠路57巷26弄3號","121.513011666667","24.9587216666667","6500600","新店區"
"231062","720-UM","2018/08/09 19:19:31","新北市新店區莒光路38巷10號","121.522706666667","24.9587933333333","6500600","新店區"
"231060","897-TW","2018/08/09 19:19:33","新北市新店區安康路二段128號","121.512706666667","24.9624016666667","6500600","新店區"
"231043","899-TW","2018/08/09 19:19:32","新北市新店區北新路二段107號","121.542973333333","24.9744633333333","6500600","新店區"
"231055","AKT-0513","2018/08/09 19:19:46","新北市新店區溪園路379號","121.523085","24.9796883333333","6500600","新店區"
"241022","060-VK","2018/08/09 19:19:38","新北市三重區中正北路60-2號","121.486861666667","25.064435","6500200","三重區"
"241031","061-VK","2018/08/09 19:19:35","新北市三重區重新路四段97-1號","121.485883333333","25.054835","6500200","三重區"
"241017","063-VK","2018/08/09 19:19:39","新北市三重區大同北路213號","121.491901666667","25.0656416666667","6500200","三重區"
"241026","066-VK","2018/08/09 19:19:38","新北市三重區重安街103號","121.493906666667","25.055195","6500200","三重區"
"241009","267-UM","2018/08/09 19:19:33","新北市三重區溪尾街230巷42-1號","121.486178333333","25.081155","6500200","三重區"
"241032","269-UM","2018/08/09 19:19:42","新北市三重區新生街97號","121.483566666667","25.059395","6500200","三重區"
"241025","271-UM","2018/08/09 19:19:34","新北市三重區中正北路311號","121.474135","25.0713366666667","6500200","三重區"
"241007","398-BY","2018/08/09 19:19:30","新北市三重區慈愛街50號","121.48591","25.079115","6500200","三重區"
"241035","KEA-2210","2018/08/09 19:19:43","新北市三重區信義西街138號","121.4955","25.06429","6500200","三重區"
"241020","478-VK","2018/08/09 19:19:28","新北市三重區大智街238-3號","121.489386666667","25.0729266666667","6500200","三重區"
"241030","480-VK","2018/08/09 19:19:33","新北市三重區新興路42號","121.491443333333","25.0533483333333","6500200","三重區"
"241006","AAD-863","2018/08/09 19:19:35","新北市三重區車路頭街182號","121.483648333333","25.0772216666667","6500200","三重區"
"241029","942-UM","2018/08/09 19:19:32","新北市三重區重安街27號","121.491083333333","25.0571366666667","6500200","三重區"
"235066","003-UY","2018/08/09 19:19:40","新北市中和區中和路102號","121.5027","24.9997183333333","6500300","中和區"
"235064","005-UY","2018/08/09 19:19:46","新北市中和區中和路38號","121.499918333333","25.0014466666667","6500300","中和區"
"235063","006-UY","2018/08/09 19:19:41","新北市中和區連城路249巷21弄1號","121.49398","24.9961083333333","6500300","中和區"
"235056","096-UM","2018/08/09 19:19:33","新北市中和區員山路521號","121.479691666667","25.00678","6500300","中和區"
"235039","097-UM","2018/08/09 19:19:38","新北市中和區秀峰街121號","121.520001666667","24.990695","6500300","中和區"
"235065","098-UM","2018/08/09 19:19:43","新北市中和區中山路二段64巷12弄5號","121.503838333333","25.0053516666667","6500300","中和區"
"235040","150-BY","2018/08/09 19:19:27","新北市中和區保健路71-3號","121.510468333333","24.9968816666667","6500300","中和區"
"235058","151-BY","2018/08/09 19:19:37","新北市中和區連城路523巷11弄1號","121.481675","24.9943683333333","6500300","中和區"
"235055","183-VK","2018/08/09 19:19:33","新北市中和區德光路95號","121.46865","25.003365","6500300","中和區"
"235038","185-VK","2018/08/09 19:19:28","新北市中和區大仁街10巷67號","121.520285","24.99266","6500300","中和區"
"235049","186-VK","2018/08/09 19:19:38","新北市中和區景新街263號","121.50878","24.9940116666667","6500300","中和區"
"235067","255-BX","2018/08/09 19:19:37","新北市中和區中正路803號","121.48485","25.0009666666667","6500300","中和區"
"235044","293-VK","2018/08/09 19:19:25","新北市中和區復興路308號","121.501228333333","24.9903183333333","6500300","中和區"
"235072","301-VK","2018/08/09 19:19:39","新北市中和區連城路263巷4弄4號","121.491566666667","24.9957983333333","6500300","中和區"
"235043","352-BY","2018/08/09 19:19:43","新北市中和區景平路426號","121.50743","24.9933233333333","6500300","中和區"
"235042","KEA-2878","2018/08/09 19:19:26","新北市中和區安樂路217巷21弄16號","121.513938333333","24.9977966666667","6500300","中和區"
"235050","4979-A6","2018/08/09 19:19:39","新北市中和區景安路208巷17號","121.503146666667","24.9914266666667","6500300","中和區"
"235070","558-UM","2018/08/09 19:19:46","新北市中和區中山路二段269號","121.496881666667","25.0021566666667","6500300","中和區"
"235045","565-BX","2018/08/09 19:19:29","新北市中和區景新街423巷35弄19號","121.51387","24.9904516666667","6500300","中和區"
"235054","640-BX","2018/08/09 19:19:39","新北市中和區國光街107巷2弄5-4號","121.46996","24.999835","6500300","中和區"
"235060","647-TV","2018/08/09 19:19:24","新北市中和區員山路469巷1號","121.480316666667","25.0045116666667","6500300","中和區"
"235047","732-UM","2018/08/09 19:19:40","新北市中和區和平街38巷10號","121.509426666667","24.99087","6500300","中和區"
"235046","733-UM","2018/08/09 19:19:27","新北市中和區華新街98號","121.508623333333","24.9829233333333","6500300","中和區"
"235071","783-BX","2018/08/09 19:19:26","新北市中和區中正路637巷52弄1號","121.485528333333","24.9937083333333","6500300","中和區"
"235062","800-TS","2018/08/09 19:19:44","新北市中和區中正路893號","121.484248333333","25.0046033333333","6500300","中和區"
"235057","801-TS","2018/08/09 19:19:44","新北市中和區員山路423巷9號","121.480543333333","25.0031116666667","6500300","中和區"
"235041","802-TS","2018/08/09 19:19:40","新北市永和區中和路377號","121.508383333333","24.99992","6500300","中和區"
"235052","805-TS","2018/08/09 19:19:29","新北市中和區華新街137號","121.506621666667","24.9817333333333","6500300","中和區"
"235048","896-TW","2018/08/09 19:19:31","新北市中和區忠孝街104號","121.512145","24.9847216666667","6500300","中和區"
"235053","900-TW","2018/08/09 19:19:32","新北市中和區華安街21巷2號","121.467458333333","24.9974733333333","6500300","中和區"
"235051","157-BY","2018/08/09 19:19:29","新北市中和區和平街2巷4弄2號","121.510015","24.9905433333333","6500300","中和區"
"235037","AAC-213","2018/08/09 19:19:28","新北市中和區自立路15巷25號","121.523105","24.9959716666667","6500300","中和區"
"220106","013-TV","2018/08/09 19:19:27","新北市板橋區雙十路三段87號","121.470068333333","25.03265","6500100","板橋區"
"220055","015-TV","2018/08/09 19:19:28","新北市板橋區新民街4巷2弄2-1號","121.464081666667","25.0098466666667","6500100","板橋區"
"220065","072-UY","2018/08/09 19:19:36","新北市板橋區民族路170巷2-2號","121.467408333333","25.0078016666667","6500100","板橋區"
"220086","073-UY","2018/08/09 19:19:34","新北市板橋區中正路216巷74號","121.457935","25.0188133333333","6500100","板橋區"
"220069","AAD-861","2018/08/09 19:19:34","新北市板橋區華興街29號","121.45843","25.0044783333333","6500100","板橋區"
"226004","312-R5","2018/08/09 19:19:29","新北市平溪區靜安路三段375號","121.78092","25.04694","6502400","平溪區"
"235059","251-BX","2018/08/09 19:19:42","新北市中和區錦和路195巷3弄1號","121.491268333333","24.9909433333333","6500300","中和區"
"228003","097-TW","2018/08/09 19:19:42","新北市貢寮區和美里和美街22-1號","121.912788333333","25.0826466666667","6502600","貢寮區"
"228001","212-TW","2018/08/09 19:19:37","新北市貢寮區真理里新港街10號","121.925503333333","25.05435","6502600","貢寮區"
"228002","663-BX","2018/08/09 19:19:29","新北市貢寮區龍門里復興街46-1號","121.928288333333","25.0294866666667","6502600","貢寮區"
"224010","AGQ-8101","2018/08/09 19:19:26","新北市瑞芳區輕便路19號","121.847188333333","25.1112033333333","6501200","瑞芳區"
"224008","285-BY","2018/08/09 19:19:32","新北市瑞芳區一坑路71號","121.802733333333","25.1082916666667","6501200","瑞芳區"
"224005","271-BY","2018/08/09 19:19:37","新北市瑞芳區大寮路356-1號","121.784658333333","25.1032033333333","6501200","瑞芳區"
"227004","642-TC","2018/08/09 19:19:44","新北市雙溪區平林里梅竹蹊66-1號","121.860146666667","25.03584","6502500","雙溪區"
"227010","400-TW","2018/08/09 19:19:28","新北市雙溪區新基里新基北街40號","121.868508333333","25.0380216666667","6502500","雙溪區"
"253005","032-BX","2018/08/09 19:19:43","新北市石門區阿里荖10-1號","121.608678333333","25.28","6502200","石門區"
"253006","295-VK","2018/08/09 19:19:36","新北市石門區楓林18號","121.536423333333","25.2918683333333","6502200","石門區"
"222001","KEA-2212","2018/08/09 19:19:38","新北市深坑區北深路二段84號","121.617451666667","25.0035","6501800","深坑區"
"208002","KEA-2872","2018/08/09 19:19:29","新北市金山區中正路67號","121.633855","25.22169","6502700","金山區"
"208003","665-BX","2018/08/09 19:19:34","新北市金山區中山路175號","121.638521666667","25.2207666666667","6502700","金山區"
"208001","761-BX","2018/08/09 19:19:35","新北市金山區金包里街9號","121.639763333333","25.2207683333333","6502700","金山區"
"251009","008-UM","2018/08/09 19:19:32","新北市淡水區中正路114號","121.441715","25.1695866666667","6501000","淡水區"
"251005","010-UM","2018/08/09 19:19:45","新北市淡水區水源街一段34巷1號","121.443331666667","25.1722183333333","6501000","淡水區"
"251001","011-UM","2018/08/09 19:19:31","新北市淡水區自強路201巷43號","121.46202","25.126835","6501000","淡水區"
"251013","KEA-2871","2018/08/09 19:19:23","新北市淡水區安子內12-1號","121.481531666667","25.2190983333333","6501000","淡水區"
"251016","179-VK","2018/08/09 19:19:37","新北市淡水區下圭柔山119-51號","121.450728333333","25.2084833333333","6501000","淡水區"
"251014","180-VK","2018/08/09 19:19:35","新北市淡水區小中寮19-7號","121.484783333333","25.2296083333333","6501000","淡水區"
"251015","181-VK","2018/08/09 19:19:26","新北市淡水區山子邊5-2號","121.483666666667","25.1842216666667","6501000","淡水區"
"251010","413-VK","2018/08/09 19:19:38","新北市淡水區沙崙路27號","121.421495","25.1815233333333","6501000","淡水區"
"251006","561-UM","2018/08/09 19:19:37","新北市淡水區大信街33號","121.442061666667","25.1773616666667","6501000","淡水區"
"251007","577-R6","2018/08/09 19:19:29","新北市淡水區民生路117巷42-1號","121.464873333333","25.13981","6501000","淡水區"
"251011","650-BX","2018/08/09 19:06:00","新北市淡水區中正東路二段143巷2弄1號","121.46073","25.1474116666667","6501000","淡水區"
"251003","766-UM","2018/08/09 19:19:31","新北市淡水區中山北路一段168號","121.444441666667","25.1788066666667","6501000","淡水區"
"207003","550-UM","2018/08/09 19:19:27","新北市萬里區大鵬里萬里加投79-3號","121.647328333333","25.21234","6502800","萬里區"
"207004","225-TW","2018/08/09 19:19:45","新北市萬里區萬里里成功新村42號","121.687593333333","25.1747633333333","6502800","萬里區"
"252002","178-VK","2018/08/09 19:19:39","新北市三芝區淡金路二段18-1號","121.502656666667","25.2595466666667","6502100","三芝區"
"252001","292-VK","2018/08/09 19:19:45","新北市三芝區長勤街9巷11弄1號","121.501783333333","25.2546866666667","6502100","三芝區"
"237004","KEA-2597","2018/08/09 19:19:32","新北市三峽區有木206號","121.439173333333","24.8514766666667","6500900","三峽區"
"237007","153-BY","2018/08/09 19:19:35","新北市三峽區二鬮路156號","121.359676666667","24.9072616666667","6500900","三峽區"
"237009","210-TH","2018/08/09 19:19:39","新北市三峽區民生街231號","121.371135","24.934735","6500900","三峽區"
"237013","252-BX","2018/08/09 19:19:40","新北市三峽區光明路75巷21號","121.377358333333","24.9281533333333","6500900","三峽區"
"237012","275-BY","2018/08/09 19:19:35","新北市三峽區三樹路222巷132號","121.385306666667","24.94228","6500900","三峽區"
"237008","302-VK","2018/08/09 19:19:29","新北市三峽區光明路73號","121.37658","24.9276433333333","6500900","三峽區"
"237014","433-BY","2018/08/09 19:19:42","新北市三峽區中山路257巷20-1號","121.362111666667","24.9365416666667","6500900","三峽區"
"237006","5529-G3","2018/08/09 19:19:43","新北市三峽區橫溪路99巷12號","121.399736666667","24.9362016666667","6500900","三峽區"
"237011","KEA-2596","2018/08/09 19:19:42","新北市三峽區介壽路一段588號","121.388973333333","24.9344916666667","6500900","三峽區"
"237016","649-BX","2018/08/09 19:19:42","新北市三峽區安坑35-7號","121.453106666667","24.9313416666667","6500900","三峽區"
"237010","706-TV","2018/08/09 19:19:28","新北市三峽區國光街54-1號","121.374475","24.9380966666667","6500900","三峽區"
"237005","AKY-6261","2018/08/09 19:19:36","新北市三峽區中山路459巷52-1號","121.3567","24.9370416666667","6500900","三峽區"
"236070","105-UM","2018/08/09 19:19:28","新北市土城區學成路70巷11號","121.452073333333","24.9886433333333","6501300","土城區"
"236042","107-UM","2018/08/09 19:19:33","新北市土城區學府路一段239號","121.450428333333","24.983365","6501300","土城區"
"236078","166-UM","2018/08/09 19:19:39","新北市土城區中央路四段321巷34弄5號","121.412746666667","24.9509033333333","6501300","土城區"
"236026","269-VK","2018/08/09 19:19:44","新北市土城區中正路67巷27號","121.444246666667","24.976545","6501300","土城區"
"236014","270-VK","2018/08/09 19:19:38","新北市土城區學府路一段23巷25弄2號","121.45776","24.9867483333333","6501300","土城區"
"236021","401-BY","2018/08/09 19:19:33","新北市土城區峰廷街3號","121.469038333333","24.9872816666667","6501300","土城區"
"236059","912-UM","2018/08/09 19:19:33","新北市土城區中央路二段231號","121.440346666667","24.9724383333333","6501300","土城區"
"236049","913-UM","2018/08/09 19:19:39","新北市土城區明德路一段365-1號","121.453663333333","24.9790766666667","6501300","土城區"
"238015","755-BX","2018/08/09 19:19:26","新北市樹林區復興路202號","121.419763333333","24.990695","6500700","樹林區"
"238023","601-UM","2018/08/09 19:19:30","桃園市龜山區萬壽路一段791-1號","121.392258333333","25.0141066666667","6500700","樹林區"
"238019","599-UM","2018/08/09 19:19:34","新北市樹林區鎮前街347巷1弄23號","121.41716","24.9840216666667","6500700","樹林區"
"238018","571-TV","2018/08/09 19:19:27","新北市樹林區中華路353-1號","121.4148","24.9802366666667","6500700","樹林區"
"238022","KEA-2213","2018/08/09 19:19:23","新北市樹林區國凱街45號","121.420678333333","24.9790966666667","6500700","樹林區"
"238021","KEA-2539","2018/08/09 19:19:43","新北市樹林區柑園街二段203巷16號","121.376845","24.9511366666667","6500700","樹林區"
"238025","303-VK","2018/08/09 19:19:36","新北市樹林區中山路二段222-2號","121.410068333333","24.9805083333333","6500700","樹林區"
"238017","283-BY","2018/08/09 19:19:30","新北市樹林區光興街247號","121.406945","25.0053583333333","6500700","樹林區"
"238014","282-BY","2018/08/09 19:19:41","新北市樹林區保安二街5號","121.425331666667","24.9938366666667","6500700","樹林區"
"238020","268-VK","2018/08/09 19:19:32","新北市樹林區俊英街121巷25號","121.423515","25.01007","6500700","樹林區"
"238026","172-UY","2018/08/09 19:19:28","新北市樹林區佳園路三段95號","121.387745","24.9521966666667","6500700","樹林區"
"238016","169-UY","2018/08/09 19:19:33","新北市樹林區復興路464巷42-1號","121.412805","24.9834683333333","6500700","樹林區"
"239007","AAC-297","2018/08/09 19:19:30","新北市鶯歌區中山路138巷3-5號","121.349526666667","24.958195","6500800","鶯歌區"
"239006","891-R6","2018/08/09 19:19:38","新北市鶯歌區鶯桃路296巷94弄7號","121.337155","24.9618983333333","6500800","鶯歌區"
"239008","527-UM","2018/08/09 19:19:29","新北市鶯歌區國際二路6巷18號","121.339143333333","24.97382","6500800","鶯歌區"
"239005","526-UM","2018/08/09 19:19:34","新北市鶯歌區中湖街23號","121.347291666667","24.97285","6500800","鶯歌區"
"239001","417-VK","2018/08/09 19:19:39","新北市鶯歌區建國路596巷80號","121.340405","24.951775","6500800","鶯歌區"
"239003","360-BY","2018/08/09 19:19:38","新北市鶯歌區重慶街31號","121.35146","24.9526366666667","6500800","鶯歌區"
"239004","292-BY","2018/08/09 19:19:42","新北市鶯歌區鶯桃路182巷96弄13號","121.340565","24.9579916666667","6500800","鶯歌區"
"239004","193-VK","2018/08/09 19:19:44","新北市鶯歌區二甲路106巷2號","121.33385","24.93127","6500800","鶯歌區"
"221036","130-UY","2018/08/09 19:19:33","新北市汐止區康寧街901號","121.651043333333","25.07517","6501100","汐止區"
"221015","131-UY","2018/08/09 19:19:35","新北市汐止區康寧街901號","121.651685","25.074905","6501100","汐止區"
"221010","269-BY","2018/08/09 19:19:27","新北市汐止區康寧街901號","121.65138","25.0751033333333","6501100","汐止區"
"221012","278-VK","2018/08/09 19:19:29","新北市汐止區汐萬路一段312號","121.650365","25.0749716666667","6501100","汐止區"
"221023","279-VK","2018/08/09 19:19:25","新北市汐止區康寧街901號","121.650776666667","25.0752633333333","6501100","汐止區"
"221032","280-BY","2018/08/09 19:19:40","新北市汐止區南興路6巷4號","121.651911666667","25.0630566666667","6501100","汐止區"
"221027","281-BY","2018/08/09 19:19:26","新北市汐止區汐萬路一段312號","121.650505","25.0753633333333","6501100","汐止區"
"221008","297-VK","2018/08/09 19:19:30","新北市汐止區康寧街336號","121.627753333333","25.067375","6501100","汐止區"
"221029","298-VK","2018/08/09 19:19:26","新北市汐止區康寧街901號","121.65159","25.07501","6501100","汐止區"
"221021","299-VK","2018/08/09 19:19:41","新北市汐止區康寧街901號","121.651511666667","25.0750116666667","6501100","汐止區"
"221031","353-TW","2018/08/09 19:19:30","新北市汐止區汐萬路一段256巷3號","121.65335","25.0746916666667","6501100","汐止區"
"221002","129-UY","2018/08/09 19:19:41","新北市汐止區大同路一段398-1號","121.640181666667","25.0600216666667","6501100","汐止區"
"221025","623-UM","2018/08/09 19:19:27","新北市汐止區康寧街901號","121.651546666667","25.0749916666667","6501100","汐止區"
"221038","646-BX","2018/08/09 19:19:36","新北市汐止區康寧街901號","121.650713333333","25.07529","6501100","汐止區"
"221033","647-BX","2018/08/09 19:19:19","新北市汐止區南勢街1巷1號","121.627085","25.03748","6501100","汐止區"
"220079","145-BY","2018/08/09 19:19:44","新北市板橋區民權路202巷17弄13號","121.460131666667","25.01649","6500100","板橋區"
"220080","200-UY","2018/08/09 19:19:40","新北市板橋區大觀路二段3巷25號","121.448235","25.00367","6500100","板橋區"
"220082","610-BX","2018/08/09 19:19:36","新北市板橋區金門街322號","121.428593333333","24.9850133333333","6500100","板橋區"
"220091","267-BY","2018/08/09 19:19:26","新北市板橋區萬板路470號","121.479835","25.025885","6500100","板橋區"
"220056","276-BY","2018/08/09 19:19:33","新北市板橋區信義路201號","121.459175","24.991685","6500100","板橋區"
"220072","277-BY","2018/08/09 19:19:32","新北市板橋區篤行路二段161巷22號","121.429911666667","24.98718","6500100","板橋區"
"220094","285-UM","2018/08/09 19:19:23","新北市板橋區吳鳳路82號","121.466971666667","25.0312466666667","6500100","板橋區"
"220053","285-VK","2018/08/09 19:19:45","新北市板橋區永豐街146號","121.478148333333","25.021185","6500100","板橋區"
"220083","286-VK","2018/08/09 19:19:47","新北市板橋區大觀路二段174巷166弄1號","121.442171666667","25.0032483333333","6500100","板橋區"
"220081","287-VK","2018/08/09 19:19:27","新北市板橋區南雅西路一段52號","121.453773333333","25.0048733333333","6500100","板橋區"
"220090","288-VK","2018/08/09 19:19:38","新北市板橋區長江路一段106巷13弄20號","121.460865","25.029415","6500100","板橋區"
"220061","293-UM","2018/08/09 19:19:34","新北市板橋區中山路二段318巷20弄14號","121.480771666667","25.0188116666667","6500100","板橋區"
"220062","295-UM","2018/08/09 19:19:46","新北市板橋區三民路二段153巷36弄2號","121.481126666667","25.0141283333333","6500100","板橋區"
"220084","296-UM","2018/08/09 19:19:26","新北市板橋區滿平街136巷8弄12號","121.42743","24.987645","6500100","板橋區"
"220075","303-R5","2018/08/09 19:19:42","新北市板橋區中正路275巷93號","121.450618333333","25.0180166666667","6500100","板橋區"
"220092","307-R5","2018/08/09 19:19:34","新北市板橋區光武街48巷14號","121.467726666667","25.0267533333333","6500100","板橋區"
"220098","317-R6","2018/08/09 19:19:30","新北市板橋區民有街89巷8弄1-1號","121.464316666667","25.0273966666667","6500100","板橋區"
"220064","486-VK","2018/08/09 19:19:37","新北市板橋區縣民大道二段3號","121.462623333333","25.0124583333333","6500100","板橋區"
"220088","491-VK","2018/08/09 19:19:37","新北市板橋區三民路一段137號","121.479286666667","25.020095","6500100","板橋區"
"220035","560-BX","2018/08/09 19:19:34","新北市板橋區中正路360巷27號","121.455363333333","25.0234466666667","6500100","板橋區"
"220103","561-BX","2018/08/09 19:19:28","新北市板橋區介壽街22-1號","121.467696666667","25.0200783333333","6500100","板橋區"
"220071","568-UM","2018/08/09 19:19:31","新北市板橋區大豐街130號","121.460931666667","25.0011216666667","6500100","板橋區"
"220063","609-BX","2018/08/09 19:19:26","新北市板橋區三民路二段76號","121.479146666667","25.0169566666667","6500100","板橋區"
"220054","630-UY","2018/08/09 19:19:38","新北市板橋區校前街19號","121.460675","25.00313","6500100","板橋區"
"220057","686-BX","2018/08/09 19:19:46","新北市板橋區五權街32巷1號","121.464955","24.9931366666667","6500100","板橋區"
"220077","687-BX","2018/08/09 19:19:44","新北市板橋區僑中二街12巷2號","121.446958333333","25.0106583333333","6500100","板橋區"
"220093","689-BX","2018/08/09 19:19:39","新北市板橋區文化路一段263號","121.46455","25.01816","6500100","板橋區"
"220102","KEA-2699","2018/08/09 19:19:40","新北市板橋區田單街2巷38號","121.481896666667","25.0274983333333","6500100","板橋區"
"220067","829-TW","2018/08/09 19:19:25","新北市板橋區長安街138巷5弄62號","121.474031666667","25.0096233333333","6500100","板橋區"
"220068","830-TW","2018/08/09 19:19:39","新北市板橋區翠華街6巷61號","121.481181666667","25.0250016666667","6500100","板橋區"
"220096","831-TW","2018/08/09 19:19:39","新北市板橋區大同街26巷25號","121.478353333333","25.0265983333333","6500100","板橋區"
"220089","833-TW","2018/08/09 19:19:41","新北市板橋區文化路一段318號","121.467495","25.0221116666667","6500100","板橋區"
"220074","895-R6","2018/08/09 19:19:38","新北市板橋區中正路自強新村91-1號","121.454841666667","25.0131166666667","6500100","板橋區"
"220073","985-R7","2018/08/09 19:19:39","新北市板橋區新生街16號","121.455553333333","25.021085","6500100","板橋區"
"220097","AAC-210","2018/08/09 19:19:25","新北市板橋區幸福路60巷36號","121.460206666667","25.0217616666667","6500100","板橋區"
"220070","AAC-253","2018/08/09 19:19:34","新北市板橋區忠孝路149號","121.46348","25.0024616666667","6500100","板橋區"
"235068","KEA-2873","2018/08/09 19:19:23","新北市中和區連勝街38巷20號","121.497751666667","24.99813","6500300","中和區"
"235061","KEA-2875","2018/08/09 19:19:23","新北市中和區員山路270號","121.4813","25.0017716666667","6500300","中和區"
