"lineid","car","time","location","longitude","latitude","cityid","cityname"
"234046","148-BY","2018/08/09 20:09:28","新北市永和區得和路321號","121.523403333333","24.999565","6500400","永和區"
"234007","207-UY","2018/08/09 20:09:30","新北市永和區保順路51巷8號","121.50256","25.0104666666667","6500400","永和區"
"234081","298-R6","2018/08/09 20:09:34","新北市永和區國中路99號","121.524363333333","25.0062133333333","6500400","永和區"
"234064","337-UY","2018/08/09 20:09:26","新北市永和區永利路96號","121.52093","25.003765","6500400","永和區"
"234086","338-UY","2018/08/09 20:09:44","新北市永和區中正路625號","121.515758333333","25.0099266666667","6500400","永和區"
"234070","552-UM","2018/08/09 20:09:40","新北市永和區福和路196號","121.519956666667","25.00772","6500400","永和區"
"234038","553-UM","2018/08/09 20:09:40","新北市永和區成功路一段66號","121.526833333333","25.00369","6500400","永和區"
"234017","745-BX","2018/08/09 20:09:38","新北市永和區文化路164號","121.512203333333","25.015395","6500400","永和區"
"234030","746-BX","2018/08/09 20:09:40","新北市永和區民權路49巷33號","121.521845","24.9975933333333","6500400","永和區"
"234054","KEA-2590","2018/08/09 20:09:31","新北市永和區博愛街18巷2號","121.517283333333","25.0158133333333","6500400","永和區"
"234013","KEA-2591","2018/08/09 20:09:35","新北市永和區永貞路377號","121.508181666667","25.0084633333333","6500400","永和區"
"234061","AAD-866","2018/08/09 20:09:29","新北市永和區中正路151巷8弄2號","121.51595","24.9986616666667","6500400","永和區"
"234042","862-TW","2018/08/09 20:09:40","新北市永和區雙和街24號","121.508966666667","25.0022966666667","6500400","永和區"
"234050","863-TW","2018/08/09 20:09:29","新北市永和區永平路303號","121.505613333333","25.0138483333333","6500400","永和區"
"234026","9371-KE","2018/08/09 20:09:41","新北市永和區保生路55-1號","121.504566666667","25.01089","6500400","永和區"
"234011","9373-KE","2018/08/09 20:09:43","新北市永和區環河西路二段245-1號","121.500585","25.0091116666667","6500400","永和區"
"249005","172-UM","2018/08/09 20:09:47","新北市八里區下罟子59號","121.38734","25.1365283333333","6502300","八里區"
"249001","173-UM","2018/08/09 20:09:45","新北市八里區中華路二段326號","121.403251666667","25.14799","6502300","八里區"
"249004","303-UY","2018/08/09 20:09:32","新北市八里區中山路一段398巷52-2號","121.411315","25.1588583333333","6502300","八里區"
"249002","305-UY","2018/08/09 20:09:27","新北市八里區龍米路一段2-1號","121.458376666667","25.11465","6502300","八里區"
"249003","593-UM","2018/08/09 20:09:38","新北市八里區中山路二段540巷3號","121.39704","25.1469083333333","6502300","八里區"
"248016","026-BX","2018/08/09 20:09:44","新北市五股區天乙路60號","121.448153333333","25.1046633333333","6501500","五股區"
"248008","095-VK","2018/08/09 20:09:47","新北市五股區中興路一段1巷15號","121.469793333333","25.07127","6501500","五股區"
"248020","225-UY","2018/08/09 20:09:44","新北市五股區凌雲路二段6號","121.446518333333","25.1026333333333","6501500","五股區"
"248012","247-BX","2018/08/09 20:09:33","新北市五股區六合街94號","121.431246666667","25.0910316666667","6501500","五股區"
"248014","261-SL","2018/08/09 20:09:28","新北市五股區成泰路三段45號","121.4427","25.0891783333333","6501500","五股區"
"248004","677-BX","2018/08/09 20:09:41","新北市五股區成泰路二段25號","121.437175","25.0815483333333","6501500","五股區"
"248002","678-BX","2018/08/09 20:09:42","新北市五股區成泰路三段311-2號","121.447826666667","25.0949383333333","6501500","五股區"
"248010","682-TV","2018/08/09 20:09:43","新北市五股區成泰路一段7巷66號","121.432603333333","25.067825","6501500","五股區"
"234023","9380-KE","2018/08/09 20:09:41","新北市永和區中正路662巷48號","121.51833","25.0088166666667","6500400","永和區"
"234077","969-R7","2018/08/09 20:09:36","新北市永和區民光街22巷2號","121.516043333333","24.995705","6500400","永和區"
"234074","AAC-211","2018/08/09 20:09:38","新北市永和區豫溪街169巷2-1號","121.52192","25.0104583333333","6500400","永和區"
"234067","AAC-212","2018/08/09 20:09:43","新北市永和區保平路214巷10弄1號","121.509265","25.0065233333333","6500400","永和區"
"234003","AAC-295","2018/08/09 20:09:25","新北市永和區中正路618-1號","121.517031666667","25.00776","6500400","永和區"
"243013","AAD-798","2018/08/09 20:09:32","新北市泰山區明志路三段74巷7號","121.424471666667","25.0417383333333","6501600","泰山區"
"243009","297-R6","2018/08/09 20:09:29","新北市泰山區泰林路二段116巷5弄1號","121.435256666667","25.0596133333333","6501600","泰山區"
"243016","KEA-2801","2018/08/09 20:09:40","新北市泰山區貴陽街15號","121.4217","25.0332716666667","6501600","泰山區"
"243015","421-VK","2018/08/09 20:09:38","新北市泰山區明志路一段376號","121.430751666667","25.057605","6501600","泰山區"
"243011","KEA-2215","2018/08/09 20:09:38","新北市泰山區明志路三段182巷7號","121.423776666667","25.0390566666667","6501600","泰山區"
"243010","KEA-2216","2018/08/09 20:09:37","新北市泰山區明志路二段214巷16弄35號","121.426665","25.050205","6501600","泰山區"
"243012","646-TV","2018/08/09 20:09:48","新北市泰山區楓江路60號","121.436561666667","25.063105","6501600","泰山區"
"243014","680-BX","2018/08/09 20:09:41","新北市泰山區明志路一段24號","121.433635","25.06556","6501600","泰山區"
"222003","436-BY","2018/08/09 20:09:44","新北市深坑區埔新街57號","121.620446666667","25.00244","6501800","深坑區"
"222002","659-BX","2018/08/09 20:09:41","新北市深坑區北深路三段172號","121.602285","25.003665","6501800","深坑區"
"231041","002-UM","2018/08/09 20:09:37","新北市新店區中正路460號","121.534006666667","24.9793766666667","6500600","新店區"
"231059","046-UY","2018/08/09 20:09:31","新北市新店區安成街33號","121.509888333333","24.9608116666667","6500600","新店區"
"231040","047-UY","2018/08/09 20:09:42","新北市新店區中正路106號","121.543126666667","24.9706783333333","6500600","新店區"
"231044","106-UY","2018/08/09 20:09:28","新北市新店區寶慶街58巷4號","121.542136666667","24.9869233333333","6500600","新店區"
"231052","108-UY","2018/08/09 20:09:39","新北市新店區新烏路三段286號","121.550353333333","24.8985383333333","6500600","新店區"
"231065","110-UY","2018/08/09 20:09:33","新北市新店區安祥路106巷179號","121.473703333333","24.9597783333333","6500600","新店區"
"231047","187-VK","2018/08/09 20:09:45","新北市新店區寶橋路59-1號","121.545153333333","24.9749333333333","6500600","新店區"
"231054","KEA-2219","2018/08/09 20:09:42","新北市新店區檳榔路16號","121.54111","24.9644466666667","6500600","新店區"
"231057","256-BX","2018/08/09 20:09:39","新北市新店區花園一路一段2號","121.55306","24.93241","6500600","新店區"
"231042","268-BY","2018/08/09 20:09:33","新北市新店區中興路二段89號","121.547083333333","24.97147","6500600","新店區"
"231051","278-BY","2018/08/09 20:09:29","新北市新店區中央七街8號","121.530366666667","24.9746666666667","6500600","新店區"
"231050","AAD-862","2018/08/09 20:09:34","新北市新店區北新路一段89號","121.538766666667","24.9613983333333","6500600","新店區"
"231066","4716-K9","2018/08/09 20:09:28","新北市新店區柴埕路57號","121.513645","24.965135","6500600","新店區"
"231056","4715-K9","2018/08/09 20:09:41","新北市新店區中正路263-4號","121.538321666667","24.9739333333333","6500600","新店區"
"231067","4772-VM","2018/08/09 20:09:47","新北市新店區安康路一段35號","121.531728333333","24.960765","6500600","新店區"
"231049","513-UM","2018/08/09 20:09:33","新北市新店區北新路二段121巷6弄2號","121.542288333333","24.9751966666667","6500600","新店區"
"231063","616-UM","2018/08/09 20:09:34","新北市新店區黎明路53巷2號","121.502413333333","24.948525","6500600","新店區"
"231045","618-UM","2018/08/09 20:09:44","新北市新店區北宜路一段170號","121.540738333333","24.9530833333333","6500600","新店區"
"231061","619-UM","2018/08/09 20:09:31","新北市新店區安民街381號","121.516301666667","24.9764166666667","6500600","新店區"
"231068","718-UY","2018/08/09 20:09:37","新北市新店區中興路三段88號","121.545341666667","24.97894","6500600","新店區"
"231064","719-UM","2018/08/09 20:01:50","新北市新店區安民街36號","121.51586","24.96523","6500600","新店區"
"231062","720-UM","2018/08/09 20:09:11","新北市新店區安康路二段93號","121.513176666667","24.9627733333333","6500600","新店區"
"231060","897-TW","2018/08/09 20:09:33","新北市新店區安康路三段422號","121.485446666667","24.9515566666667","6500600","新店區"
"231043","899-TW","2018/08/09 20:09:40","新北市新店區民族路184號","121.536966666667","24.9761183333333","6500600","新店區"
"231055","AKT-0513","2018/08/09 20:09:26","新北市新店區中華路42巷10號","121.540381666667","24.9685016666667","6500600","新店區"
"241011","013-R5","2018/08/09 20:09:36","新北市三重區仁愛街30號","121.496321666667","25.0716883333333","6500200","三重區"
"241028","022-UY","2018/08/09 20:09:29","新北市三重區仁化街137號","121.494703333333","25.05741","6500200","三重區"
"241008","059-VK","2018/08/09 20:09:31","新北市三重區永福街197巷6-1號","121.478323333333","25.0744433333333","6500200","三重區"
"241022","060-VK","2018/08/09 20:09:38","新北市三重區新北大道一段56號","121.487461666667","25.0614966666667","6500200","三重區"
"241031","061-VK","2018/08/09 20:09:35","新北市三重區過圳街9-1號","121.48881","25.060115","6500200","三重區"
"241015","062-VK","2018/08/09 20:09:36","新北市三重區福德北路41號","121.50234","25.0648633333333","6500200","三重區"
"241017","063-VK","2018/08/09 20:09:39","新北市三重區自強路一段248號","121.492761666667","25.0674616666667","6500200","三重區"
"241024","065-VK","2018/08/09 20:09:35","新北市三重區力行路一段158號","121.482326666667","25.070895","6500200","三重區"
"241026","066-VK","2018/08/09 20:09:38","新北市三重區福德南路65巷1號","121.50245","25.0605116666667","6500200","三重區"
"241002","090-VK","2018/08/09 20:09:40","新北市三重區五華街35巷46號","121.49542","25.0816833333333","6500200","三重區"
"241003","091-VK","2018/08/09 20:09:45","新北市三重區富華街22號","121.489676666667","25.0824866666667","6500200","三重區"
"241005","265-UM","2018/08/09 20:09:32","新北市三重區五華街180巷34號","121.488053333333","25.0852766666667","6500200","三重區"
"241016","266-UM","2018/08/09 20:09:37","新北市三重區大同北路97-3號","121.494326666667","25.063615","6500200","三重區"
"241009","267-UM","2018/08/09 20:09:33","新北市三重區永福街18號","121.482696666667","25.07801","6500200","三重區"
"241018","268-UM","2018/08/09 20:09:42","新北市三重區正義北路256巷130號","121.493231666667","25.0677916666667","6500200","三重區"
"241032","269-UM","2018/08/09 20:09:30","新北市三重區捷運路61號","121.483551666667","25.0555","6500200","三重區"
"241013","270-UM","2018/08/09 20:09:42","新北市三重區三和路三段151巷60號","121.493935","25.0743733333333","6500200","三重區"
"241025","271-UM","2018/08/09 20:09:42","新北市三重區中正北路283號","121.474826666667","25.0711133333333","6500200","三重區"
"241007","398-BY","2018/08/09 20:09:30","新北市三重區三和路四段111-13號","121.486836666667","25.07763","6500200","三重區"
"241035","KEA-2210","2018/08/09 20:09:43","新北市三重區正義北路47號","121.497645","25.06409","6500200","三重區"
"241004","413-TH","2018/08/09 20:09:40","新北市三重區自強路四段107號","121.491585","25.0799","6500200","三重區"
"241023","475-VK","2018/08/09 20:09:44","新北市三重區頂崁街225號","121.477065","25.068125","6500200","三重區"
"241020","478-VK","2018/08/09 20:09:48","新北市三重區大智街179巷38號","121.490975","25.0729483333333","6500200","三重區"
"241030","480-VK","2018/08/09 20:09:33","新北市三重區成功路145巷33號","121.487633333333","25.0531616666667","6500200","三重區"
"241014","543-UM","2018/08/09 20:09:33","新北市三重區長樂街88號","121.501268333333","25.0694733333333","6500200","三重區"
"241001","547-UM","2018/08/09 20:09:35","新北市三重區溪尾街24-1號","121.491095","25.076365","6500200","三重區"
"241019","KEA-2593","2018/08/09 20:09:31","新北市三重區自強路二段33巷64-3號","121.490901666667","25.06993","6500200","三重區"
"241006","AAD-863","2018/08/09 20:09:35","新北市三重區力行路二段91巷21弄1號","121.48349","25.0759666666667","6500200","三重區"
"241012","941-UM","2018/08/09 20:09:38","新北市三重區仁愛街125巷95號","121.498371666667","25.0762166666667","6500200","三重區"
"241029","942-UM","2018/08/09 20:09:32","新北市三重區光明路32巷16號","121.49179","25.0587066666667","6500200","三重區"
"241033","AAC-255","2018/08/09 20:09:35","新北市三重區光復路一段68巷14號","121.471355","25.0492166666667","6500200","三重區"
"235066","003-UY","2018/08/09 20:09:40","新北市中和區水源路127巷2弄2號","121.508018333333","25.0040616666667","6500300","中和區"
"235039","097-UM","2018/08/09 20:09:38","新北市中和區大勇街25巷11弄1號","121.516545","24.99335","6500300","中和區"
"235065","098-UM","2018/08/09 20:09:43","新北市中和區福美路263號","121.498385","25.0050933333333","6500300","中和區"
"235040","150-BY","2018/08/09 20:09:30","新北市中和區保健路33巷13號","121.509353333333","24.9978833333333","6500300","中和區"
"247010","KEA-2869","2018/08/09 20:09:42","新北市蘆洲區集賢路406號","121.480075","25.0816733333333","6501400","蘆洲區"
"235050","4979-A6","2018/08/09 20:09:39","新北市中和區安樂路66號","121.512203333333","24.99322","6500300","中和區"
"235069","4980-A6","2018/08/09 20:09:46","新北市中和區中正路440號","121.491101666667","24.99434","6500300","中和區"
"235070","558-UM","2018/08/09 20:09:46","新北市中和區建一路128號","121.488011666667","24.999875","6500300","中和區"
"235046","733-UM","2018/08/09 20:09:27","新北市中和區忠孝街31巷41號","121.509735","24.9850966666667","6500300","中和區"
"235048","896-TW","2018/08/09 20:09:31","新北市中和區景新街475號","121.513433333333","24.9877433333333","6500300","中和區"
"235051","157-BY","2018/08/09 20:09:28","新北市中和區景安路220巷20號","121.502735","24.991425","6500300","中和區"
"235037","AAC-213","2018/08/09 20:09:48","新北市中和區立人街17號","121.52143","24.994075","6500300","中和區"
"220055","015-TV","2018/08/09 20:09:28","新北市板橋區仁愛路86巷5-1號","121.461093333333","24.9993916666667","6500100","板橋區"
"220086","073-UY","2018/08/09 20:09:34","新北市八里區中山路三段382號","121.368556666667","25.1360733333333","6500100","板橋區"
"220069","AAD-861","2018/08/09 20:09:33","新北市板橋區貴興路113號","121.45585","25.002445","6500100","板橋區"
"247024","893-R6","2018/08/09 20:09:41","新北市蘆洲區光明路102號","121.463335","25.0881016666667","6501400","蘆洲區"
"247014","546-UM","2018/08/09 20:09:42","新北市蘆洲區中山二路263號","121.469846666667","25.0796366666667","6501400","蘆洲區"
"247022","500-BY","2018/08/09 20:09:45","新北市蘆洲區三民路193號","121.470571666667","25.087625","6501400","蘆洲區"
"247012","339-TH","2018/08/09 20:09:43","新北市蘆洲區民族路181號","121.478898333333","25.0887283333333","6501400","蘆洲區"
"247004","337-TH","2018/08/09 20:09:33","新北市蘆洲區永安南路二段328巷17弄16號","121.455818333333","25.083865","6501400","蘆洲區"
"247006","336-TH","2018/08/09 20:09:41","新北市蘆洲區中山二路300巷2號","121.468598333333","25.0769716666667","6501400","蘆洲區"
"247018","057-VK","2018/08/09 20:09:37","新北市蘆洲區民族路314巷24號","121.47798","25.09049","6501400","蘆洲區"
"247008","056-VK","2018/08/09 20:09:44","新北市蘆洲區中山一路174號","121.474361666667","25.0811816666667","6501400","蘆洲區"
"247016","053-VK","2018/08/09 20:09:44","新北市蘆洲區光華路157號","121.465318333333","25.0820916666667","6501400","蘆洲區"
"247002","002-UY","2018/08/09 20:09:36","新北市蘆洲區永康街52號","121.459198333333","25.086295","6501400","蘆洲區"
"247020","001-UY","2018/08/09 20:09:45","新北市蘆洲區民權路106巷5弄7號","121.474203333333","25.0891383333333","6501400","蘆洲區"
"235059","251-BX","2018/08/09 20:09:42","新北市中和區圓通路335巷37弄1號","121.493935","24.9890766666667","6500300","中和區"
"224010","AGQ-8101","2018/08/09 20:09:26","新北市瑞芳區輕便路131-2號","121.84357","25.108845","6501200","瑞芳區"
"227004","642-TC","2018/08/09 20:09:43","新北市雙溪區牡丹里中正路58巷18號","121.866183333333","25.0413933333333","6502500","雙溪區"
"222001","KEA-2212","2018/08/09 20:09:38","新北市深坑區北深路三段193號","121.601126666667","25.0036966666667","6501800","深坑區"
"208002","KEA-2872","2018/08/09 20:09:29","新北市金山區環金路19號","121.640785","25.217605","6502700","金山區"
"208003","665-BX","2018/08/09 20:09:34","新北市金山區海興路1-3號","121.63386","25.2438683333333","6502700","金山區"
"208001","761-BX","2018/08/09 20:09:35","新北市金山區南勢86號","121.626428333333","25.2202866666667","6502700","金山區"
"251009","008-UM","2018/08/09 20:09:32","新北市淡水區英專路28巷1號","121.445793333333","25.1699966666667","6501000","淡水區"
"251005","010-UM","2018/08/09 20:09:45","新北市淡水區忠愛街1-3號","121.455215","25.17153","6501000","淡水區"
"251001","011-UM","2018/08/09 20:09:31","新北市淡水區新市二路四段265號","121.445706666667","25.1924916666667","6501000","淡水區"
"251013","KEA-2871","2018/08/09 20:09:43","新北市淡水區奎柔山路295號","121.459875","25.205245","6501000","淡水區"
"251016","179-VK","2018/08/09 20:09:37","新北市淡水區番子田21號","121.458356666667","25.228075","6501000","淡水區"
"251014","180-VK","2018/08/09 20:09:35","新北市淡水區石頭厝1號","121.458753333333","25.2355116666667","6501000","淡水區"
"251015","181-VK","2018/08/09 20:09:46","新北市淡水區埤島79號","121.449475","25.190135","6501000","淡水區"
"251010","413-VK","2018/08/09 20:09:38","新北市淡水區濱海路三段148巷33號","121.425363333333","25.1942033333333","6501000","淡水區"
"251012","441-VK","2018/08/09 20:09:45","新北市淡水區淡金路三段341號","121.448873333333","25.2065833333333","6501000","淡水區"
"251008","442-VK","2018/08/09 20:09:40","新北市淡水區淡海路72巷30弄14號","121.424871666667","25.1825233333333","6501000","淡水區"
"251004","443-VK","2018/08/09 20:09:30","新北市淡水區民族路31巷39號","121.462023333333","25.1366916666667","6501000","淡水區"
"251006","561-UM","2018/08/09 20:09:37","新北市淡水區北新路141巷29號","121.448185","25.1796216666667","6501000","淡水區"
"251003","766-UM","2018/08/09 20:09:31","新北市淡水區中山北路二段157號","121.443685","25.18392","6501000","淡水區"
"207003","550-UM","2018/08/09 20:09:47","新北市萬里區大鵬里萬里加投205-5號","121.64329","25.21581","6502800","萬里區"
"207004","225-TW","2018/08/09 20:09:25","新北市萬里區北基里愛三街11號","121.681723333333","25.1766766666667","6502800","萬里區"
"252002","178-VK","2018/08/09 20:09:39","新北市三芝區中正路一段72號","121.503985","25.2576916666667","6502100","三芝區"
"252001","292-VK","2018/08/09 20:09:44","新北市三芝區公正街9號","121.499728333333","25.2575666666667","6502100","三芝區"
"237004","KEA-2597","2018/08/09 20:09:31","新北市三峽區嘉添225號","121.369788333333","24.9104416666667","6500900","三峽區"
"237008","302-VK","2018/08/09 20:09:28","新北市三峽區中華路67-1號","121.372383333333","24.9303516666667","6500900","三峽區"
"237014","433-BY","2018/08/09 20:09:42","新北市三峽區中正路一段116號","121.37388","24.9292933333333","6500900","三峽區"
"237006","5529-G3","2018/08/09 20:09:42","新北市三峽區中正路二段293號","121.366186666667","24.910905","6500900","三峽區"
"237011","KEA-2596","2018/08/09 20:09:42","新北市三峽區中園街45號","121.368213333333","24.9262133333333","6500900","三峽區"
"237016","649-BX","2018/08/09 20:09:42","新北市三峽區橫溪路99巷4號","121.39939","24.9357166666667","6500900","三峽區"
"237005","AKY-6261","2018/08/09 20:09:35","新北市三峽區三樹路98巷74弄28號","121.384813333333","24.9385033333333","6500900","三峽區"
"236070","105-UM","2018/08/09 20:09:28","新北市土城區中央路三段185-5號","121.431545","24.9649","6501300","土城區"
"236042","107-UM","2018/08/09 20:09:33","新北市土城區學享街70-3號","121.452585","24.9860316666667","6501300","土城區"
"236078","166-UM","2018/08/09 20:09:45","新北市土城區中山路45-1號","121.420375","24.96279","6501300","土城區"
"236030","253-BX","2018/08/09 20:09:33","新北市土城區中央路一段118巷1弄3號","121.446081666667","24.988085","6501300","土城區"
"236026","269-VK","2018/08/09 20:09:44","新北市土城區中央路一段267巷3號","121.445275","24.9851983333333","6501300","土城區"
"236014","270-VK","2018/08/09 20:09:38","新北市土城區廣興街19號","121.455915","24.99165","6501300","土城區"
"236038","271-VK","2018/08/09 20:09:29","新北市土城區明德路一段48巷13號","121.464643333333","24.9835883333333","6501300","土城區"
"236021","401-BY","2018/08/09 20:09:40","新北市土城區延吉街23巷37號","121.474263333333","24.987435","6501300","土城區"
"236059","912-UM","2018/08/09 20:09:30","新北市土城區中央路二段137號","121.442048333333","24.97705","6501300","土城區"
"236049","913-UM","2018/08/09 20:09:39","新北市土城區清水路251號","121.462713333333","24.9840766666667","6501300","土城區"
"236063","915-UM","2018/08/09 20:09:45","新北市土城區立德路135巷5弄2號","121.464961666667","24.9870166666667","6501300","土城區"
"236055","AAC-216","2018/08/09 20:09:30","新北市土城區中華路一段178號","121.441103333333","24.982575","6501300","土城區"
"242034","AAC-296","2018/08/09 20:09:31","新北市新莊區中正路318巷16號","121.446506666667","25.03595","6500500","新莊區"
"242058","986-R7","2018/08/09 20:09:40","新北市新莊區八德街145號","121.423631666667","25.0197533333333","6500500","新莊區"
"242053","751-BX","2018/08/09 20:09:30","新北市新莊區西盛街387巷34弄5號","121.42857","25.0129566666667","6500500","新莊區"
"242025","705-TV","2018/08/09 20:09:37","新北市新莊區五工三路78巷8號","121.45934","25.065215","6500500","新莊區"
"242027","615-BX","2018/08/09 20:09:29","新北市新莊區幸福路774號","121.446928333333","25.0491166666667","6500500","新莊區"
"242042","566-BX","2018/08/09 20:09:38","新北市新莊區青山路一段189號","121.399091666667","25.0309116666667","6500500","新莊區"
"242051","441-UM","2018/08/09 20:09:26","新北市新莊區民安西路171號","121.426078333333","25.0159866666667","6500500","新莊區"
"242056","440-UM","2018/08/09 20:09:38","新北市新莊區新莊路649巷15弄18-1號","121.44533","25.0315433333333","6500500","新莊區"
"242036","415-TV","2018/08/09 20:09:31","新北市新莊區後港一路130巷31號","121.429971666667","25.0261516666667","6500500","新莊區"
"242007","413-TV","2018/08/09 20:09:37","新北市新莊區福壽街142巷38號","121.459208333333","25.0518983333333","6500500","新莊區"
"242044","400-BY","2018/08/09 20:09:40","新北市新莊區中正路895-39號","121.412618333333","25.0209716666667","6500500","新莊區"
"242023","362-BY","2018/08/09 20:09:37","新北市新莊區化成路542號","121.466255","25.0535666666667","6500500","新莊區"
"242061","353-BY","2018/08/09 20:09:29","新北市新莊區中環路一段10號","121.442793333333","25.0258766666667","6500500","新莊區"
"242009","132-UY","2018/08/09 20:09:43","新北市新莊區昌盛街35巷4弄2號","121.454135","25.0504316666667","6500500","新莊區"
"242039","133-UY","2018/08/09 20:09:42","新北市新莊區龍安路481號","121.425521666667","25.018255","6500500","新莊區"
"242031","135-UY","2018/08/09 20:09:38","新北市新莊區中正路362號","121.443285","25.0343083333333","6500500","新莊區"
"242048","172-VK","2018/08/09 20:09:27","新北市新莊區四維路152巷47號","121.42186","25.0219533333333","6500500","新莊區"
"242011","173-VK","2018/08/09 20:09:00","新北市新莊區中和街204巷7弄2號","121.448381666667","25.0504216666667","6500500","新莊區"
"242017","175-VK","2018/08/09 20:09:37","新北市新莊區中港一街1號","121.451853333333","25.0456533333333","6500500","新莊區"
"242004","176-VK","2018/08/09 20:09:46","新北市新莊區頭興街3巷1號","121.463493333333","25.053545","6500500","新莊區"
"242013","347-TH","2018/08/09 20:09:29","新北市新莊區幸福路678巷3弄2號","121.450456666667","25.0496366666667","6500500","新莊區"
"242021","348-TH","2018/08/09 20:09:29","新北市新莊區中興街25號","121.449103333333","25.0365","6500500","新莊區"
"242002","349-TH","2018/08/09 20:09:28","新北市新莊區中正路145號","121.45963","25.0383366666667","6500500","新莊區"
"242019","350-TH","2018/08/09 20:09:38","新北市新莊區長青街15號","121.458508333333","25.04229","6500500","新莊區"
"239006","891-R6","2018/08/09 20:09:37","新北市鶯歌區文化路72號","121.355131666667","24.9539216666667","6500800","鶯歌區"
"221036","130-UY","2018/08/09 20:09:33","新北市汐止區新台五路二段112號","121.662716666667","25.0661383333333","6501100","汐止區"
"221015","131-UY","2018/08/09 20:09:35","新北市汐止區建成路56巷2號","121.663591666667","25.0729916666667","6501100","汐止區"
"221010","269-BY","2018/08/09 20:09:27","新北市汐止區八連路一段121-2號","121.643253333333","25.0797366666667","6501100","汐止區"
"221012","278-VK","2018/08/09 20:09:47","新北市汐止區汐平路二段36-1號","121.694821666667","25.0653433333333","6501100","汐止區"
"221023","279-VK","2018/08/09 20:09:36","新北市汐止區明峰街206號","121.62751","25.0693516666667","6501100","汐止區"
"221032","280-BY","2018/08/09 20:09:40","新北市汐止區弘道街8巷1弄2號","121.61704","25.0482983333333","6501100","汐止區"
"221027","281-BY","2018/08/09 20:09:26","新北市汐止區民生街4巷2號","121.660166666667","25.06879","6501100","汐止區"
"221008","297-VK","2018/08/09 20:09:30","新北市汐止區忠一街9巷7號","121.620535","25.0731716666667","6501100","汐止區"
"221029","298-VK","2018/08/09 20:09:26","新北市汐止區樟樹一路123巷18號","121.641288333333","25.0646533333333","6501100","汐止區"
"221021","299-VK","2018/08/09 20:09:41","新北市汐止區連興街122號","121.65371","25.06207","6501100","汐止區"
"221031","353-TW","2018/08/09 20:09:31","新北市汐止區原興路76巷2號","121.63191","25.06641","6501100","汐止區"
"221002","129-UY","2018/08/09 20:09:41","新北市汐止區中興路62號","121.635288333333","25.0612316666667","6501100","汐止區"
"221035","622-UM","2018/08/09 20:09:43","新北市汐止區長江街79巷2號","121.657181666667","25.0725083333333","6501100","汐止區"
"221025","623-UM","2018/08/09 20:09:47","新北市汐止區秀峰路77號","121.659998333333","25.0642766666667","6501100","汐止區"
"221038","646-BX","2018/08/09 20:09:36","新北市汐止區大同路三段66-3號","121.668081666667","25.07717","6501100","汐止區"
"221033","647-BX","2018/08/09 20:09:39","新北市汐止區東勢街201巷100號","121.633655","25.043065","6501100","汐止區"
"221018","753-BX","2018/08/09 20:09:27","新北市汐止區茄福街29號","121.672246666667","25.066575","6501100","汐止區"
"220053","285-VK","2018/08/09 20:09:25","新北市板橋區懷仁街82號","121.477328333333","25.01828","6500100","板橋區"
"220083","286-VK","2018/08/09 20:09:39","新北市板橋區僑中二街88巷33號","121.44467","25.009595","6500100","板橋區"
"220081","287-VK","2018/08/09 20:09:27","新北市板橋區僑中一街80巷7弄19號","121.446968333333","25.0128516666667","6500100","板橋區"
"220061","293-UM","2018/08/09 20:09:34","新北市板橋區觀光街57巷15弄1號","121.470343333333","25.0161466666667","6500100","板橋區"
"242015","281-VK","2018/08/09 20:09:44","新北市新莊區中平路26巷51號","121.447256666667","25.043545","6500500","新莊區"
"220092","307-R5","2018/08/09 20:09:46","新北市板橋區文化路一段45巷4號","121.460275","25.0134666666667","6500100","板橋區"
"220088","491-VK","2018/08/09 20:09:28","新北市板橋區民治街92-1號","121.479178333333","25.0317383333333","6500100","板橋區"
"220035","560-BX","2018/08/09 20:09:34","新北市板橋區新生街37號","121.45683","25.0211016666667","6500100","板橋區"
"220103","561-BX","2018/08/09 20:09:48","新北市板橋區自由路26巷19號","121.466458333333","25.0225116666667","6500100","板橋區"
"220057","686-BX","2018/08/09 20:09:35","新北市泰山區新五路一段135號","121.43931","25.063615","6500100","板橋區"
"220093","689-BX","2018/08/09 20:09:47","新北市板橋區長江路一段134號","121.460513333333","25.0299783333333","6500100","板橋區"
"220102","KEA-2699","2018/08/09 20:09:40","新北市板橋區懷德街78巷22號","121.477713333333","25.0313433333333","6500100","板橋區"
"220067","829-TW","2018/08/09 20:09:45","新北市板橋區中山路一段279號","121.469743333333","25.013785","6500100","板橋區"
"220068","830-TW","2018/08/09 20:09:39","新北市板橋區中山路二段312號","121.479895","25.0190633333333","6500100","板橋區"
"220089","833-TW","2018/08/09 20:09:41","新北市板橋區互助街68號","121.461051666667","25.0266383333333","6500100","板橋區"
"220074","895-R6","2018/08/09 20:09:38","新北市板橋區府後街7號","121.458876666667","25.0105","6500100","板橋區"
"220073","985-R7","2018/08/09 20:09:39","新北市板橋區僑中一街124巷86-4號","121.447663333333","25.01829","6500100","板橋區"
"220097","AAC-210","2018/08/09 20:09:45","新北市板橋區光正街24號","121.462435","25.0172583333333","6500100","板橋區"
"220070","AAC-253","2018/08/09 20:09:34","新北市板橋區德興街30號","121.45338","24.9939183333333","6500100","板橋區"
"235068","KEA-2873","2018/08/09 20:09:23","新北市中和區中山路二段274號","121.496783333333","25.0024083333333","6500300","中和區"
