"lineid","car","time","location","longitude","latitude","cityid","cityname"
"234007","207-UY","2018/08/09 20:19:30","新北市永和區環河西路二段229巷1號","121.501383333333","25.01003","6500400","永和區"
"234081","298-R6","2018/08/09 20:19:32","新北市永和區國中路132巷18號","121.524223333333","25.0077166666667","6500400","永和區"
"234064","337-UY","2018/08/09 20:19:26","新北市永和區得和路227號","121.519796666667","25.00021","6500400","永和區"
"234086","338-UY","2018/08/09 20:19:44","新北市永和區永和路二段271號","121.515971666667","25.0154266666667","6500400","永和區"
"234070","552-UM","2018/08/09 20:19:40","新北市永和區永寧街115巷1號","121.51835","25.00616","6500400","永和區"
"234038","553-UM","2018/08/09 20:19:40","新北市永和區成功路一段93巷11-1號","121.527735","25.0027833333333","6500400","永和區"
"234017","745-BX","2018/08/09 20:19:29","新北市永和區文化路10號","121.515493333333","25.015025","6500400","永和區"
"234030","746-BX","2018/08/09 20:19:40","新北市中和區自強路20號","121.520226666667","24.995425","6500400","永和區"
"234054","KEA-2590","2018/08/09 20:19:31","新北市永和區光復街2巷27號","121.517356666667","25.0166733333333","6500400","永和區"
"234013","KEA-2591","2018/08/09 20:19:35","新北市永和區保生路64號","121.505111666667","25.0090116666667","6500400","永和區"
"234061","AAD-866","2018/08/09 20:19:29","新北市永和區得和路44號","121.515796666667","25.0002233333333","6500400","永和區"
"234042","862-TW","2018/08/09 20:19:30","新北市中和區中安街166號","121.510886666667","25.0001333333333","6500400","永和區"
"234050","863-TW","2018/08/09 20:19:29","新北市永和區文化路226號","121.509905","25.016965","6500400","永和區"
"234011","9373-KE","2018/08/09 20:19:43","新北市永和區保生路55-1號","121.504545","25.0109183333333","6500400","永和區"
"249005","172-UM","2018/08/09 20:19:47","新北市八里區下罟子2-19號","121.387898333333","25.14175","6502300","八里區"
"249001","173-UM","2018/08/09 20:19:45","新北市八里區中華路二段538號","121.399085","25.145055","6502300","八里區"
"249004","303-UY","2018/08/09 20:19:32","新北市八里區中山路一段127號","121.41349","25.1592916666667","6502300","八里區"
"249002","305-UY","2018/08/09 20:19:46","新北市八里區龍米路一段302號","121.451551666667","25.1296916666667","6502300","八里區"
"249003","593-UM","2018/08/09 20:19:38","新北市八里區中山路二段447巷19號","121.3973","25.145275","6502300","八里區"
"248016","026-BX","2018/08/09 20:19:43","新北市五股區凌雲路一段158巷22-1號","121.448276666667","25.1035733333333","6501500","五股區"
"248012","247-BX","2018/08/09 20:19:33","新北市五股區民義路一段206號","121.430513333333","25.0891116666667","6501500","五股區"
"248014","261-SL","2018/08/09 20:19:28","新北市八里區荖阡坑路22-6號","121.398983333333","25.134355","6501500","五股區"
"248002","678-BX","2018/08/09 20:19:42","新北市五股區成泰路三段173號","121.445366666667","25.0918733333333","6501500","五股區"
"248010","682-TV","2018/08/09 20:19:43","新北市泰山區中港西路2號","121.444605","25.0691283333333","6501500","五股區"
"234023","9380-KE","2018/08/09 20:19:42","新北市永和區復興街60號","121.51659","25.013345","6500400","永和區"
"234077","969-R7","2018/08/09 20:19:36","新北市永和區中正路102號","121.514428333333","24.995825","6500400","永和區"
"234074","AAC-211","2018/08/09 20:19:38","新北市永和區豫溪街160巷1號","121.523305","25.0096266666667","6500400","永和區"
"234067","AAC-212","2018/08/09 20:19:43","新北市永和區保平路268巷11號","121.508345","25.005395","6500400","永和區"
"234003","AAC-295","2018/08/09 20:19:25","新北市永和區自強街2號","121.513996666667","25.00804","6500400","永和區"
"243013","AAD-798","2018/08/09 20:19:32","新北市泰山區新民路26號","121.426715","25.044605","6501600","泰山區"
"243009","297-R6","2018/08/09 20:19:30","新北市泰山區明志路一段195號","121.432743333333","25.0616283333333","6501600","泰山區"
"243016","KEA-2801","2018/08/09 20:19:40","新北市泰山區明志路3段87-1號","121.424983333333","25.0414216666667","6501600","泰山區"
"243015","421-VK","2018/08/09 20:19:38","新北市泰山區仁德路52號","121.434083333333","25.05676","6501600","泰山區"
"243011","KEA-2215","2018/08/09 20:19:38","新北市泰山區明志路三段529號","121.420461666667","25.0299733333333","6501600","泰山區"
"243010","KEA-2216","2018/08/09 20:19:37","新北市泰山區明志路二段273巷5弄4號","121.427968333333","25.04738","6501600","泰山區"
"243012","646-TV","2018/08/09 20:19:28","新北市泰山區楓江路121號","121.439091666667","25.0645633333333","6501600","泰山區"
"243014","680-BX","2018/08/09 20:19:41","新北市泰山區泰林路二段353號","121.42829","25.063625","6501600","泰山區"
"222003","436-BY","2018/08/09 20:19:44","新北市深坑區文化街82號","121.617896666667","25.0017583333333","6501800","深坑區"
"222002","659-BX","2018/08/09 20:19:41","新北市深坑區萬福路75巷33號","121.598751666667","25.0096616666667","6501800","深坑區"
"231041","002-UM","2018/08/09 20:19:37","新北市新店區民權路42-1號","121.540363333333","24.98291","6500600","新店區"
"231059","046-UY","2018/08/09 20:19:31","新北市新店區安成街35號","121.50978","24.96109","6500600","新店區"
"231040","047-UY","2018/08/09 20:19:47","新北市新店區中正路211號","121.53978","24.97265","6500600","新店區"
"231044","106-UY","2018/08/09 20:19:48","新北市新店區北新路三段99號","121.541535","24.9819566666667","6500600","新店區"
"231052","108-UY","2018/08/09 20:19:39","新北市新店區新烏路二段315-1號","121.549848333333","24.9110383333333","6500600","新店區"
"231065","110-UY","2018/08/09 20:19:33","新北市新店區安祥路104-9號","121.479298333333","24.962135","6500600","新店區"
"231047","187-VK","2018/08/09 20:19:45","新北市新店區寶橋路97號","121.546896666667","24.97671","6500600","新店區"
"231054","KEA-2219","2018/08/09 20:19:32","新北市新店區檳榔路109號","121.544363333333","24.9617016666667","6500600","新店區"
"231057","256-BX","2018/08/09 20:19:39","新北市新店區花園七路一段14號","121.554031666667","24.9349566666667","6500600","新店區"
"231042","268-BY","2018/08/09 20:19:32","新北市新店區中興路二段100巷1號","121.54755","24.9716833333333","6500600","新店區"
"231051","278-BY","2018/08/09 20:19:29","新北市新店區中央六街115號","121.52532","24.9775583333333","6500600","新店區"
"231050","AAD-862","2018/08/09 20:19:40","新北市新店區博愛街8巷2號","121.54114","24.9733833333333","6500600","新店區"
"231066","4716-K9","2018/08/09 20:19:28","新北市新店區安民街133巷26號","121.515291666667","24.9693966666667","6500600","新店區"
"231056","4715-K9","2018/08/09 20:19:41","新北市新店區中正路328巷36號","121.537951666667","24.9762066666667","6500600","新店區"
"231067","4772-VM","2018/08/09 20:19:47","新北市新店區溪洲路8巷64號","121.533318333333","24.9624066666667","6500600","新店區"
"231049","513-UM","2018/08/09 20:19:33","新北市新店區北新路一段319號","121.54165","24.96814","6500600","新店區"
"231063","616-UM","2018/08/09 20:19:34","新北市新店區薏仁坑路自強巷6號","121.49685","24.9584983333333","6500600","新店區"
"231045","618-UM","2018/08/09 20:19:44","新北市新店區新坡一街10號","121.548358333333","24.961865","6500600","新店區"
"231061","619-UM","2018/08/09 20:19:31","新北市新店區安興路61號","121.516108333333","24.9726183333333","6500600","新店區"
"231068","718-UY","2018/08/09 20:19:37","新北市新店區寶安街30號","121.542026666667","24.982395","6500600","新店區"
"231064","719-UM","2018/08/09 20:19:29","新北市新店區安利街30號","121.519098333333","24.97479","6500600","新店區"
"231062","720-UM","2018/08/09 20:19:31","新北市新店區安泰路7巷16號","121.485723333333","24.9510016666667","6500600","新店區"
"231060","897-TW","2018/08/09 20:19:33","新北市新店區錦秀路11巷96弄2號","121.4801","24.9420066666667","6500600","新店區"
"231043","899-TW","2018/08/09 20:19:32","新北市新店區建國路133號","121.539358333333","24.9782466666667","6500600","新店區"
"231055","AKT-0513","2018/08/09 20:19:26","新北市新店區新明街14號","121.540948333333","24.968285","6500600","新店區"
"241011","013-R5","2018/08/09 20:19:36","新北市三重區龍門路190號","121.499478333333","25.0734566666667","6500200","三重區"
"241028","022-UY","2018/08/09 20:19:29","新北市三重區大同南路143-2號","121.496583333333","25.057425","6500200","三重區"
"241008","059-VK","2018/08/09 20:19:31","新北市三重區永福街211巷21號","121.47915","25.0740916666667","6500200","三重區"
"241022","060-VK","2018/08/09 20:19:41","新北市三重區市前街14號","121.489111666667","25.0623783333333","6500200","三重區"
"241031","061-VK","2018/08/09 20:19:35","新北市三重區三寧街22號","121.48954","25.0599316666667","6500200","三重區"
"241015","062-VK","2018/08/09 20:19:36","新北市三重區重新路一段128號","121.500265","25.062845","6500200","三重區"
"241017","063-VK","2018/08/09 20:19:39","新北市三重區大同北路223號","121.491383333333","25.06617","6500200","三重區"
"241024","065-VK","2018/08/09 20:19:35","新北市三重區中正北路278號","121.480855","25.0685366666667","6500200","三重區"
"241026","066-VK","2018/08/09 20:19:38","新北市三重區和平街59號","121.502055","25.0626033333333","6500200","三重區"
"241002","090-VK","2018/08/09 20:19:40","新北市三重區仁義街101巷2號","121.497926666667","25.0801133333333","6500200","三重區"
"241003","091-VK","2018/08/09 20:19:45","新北市三重區富華街82號","121.490798333333","25.0833016666667","6500200","三重區"
"241005","265-UM","2018/08/09 20:19:32","新北市三重區碧華街233號","121.489103333333","25.0827916666667","6500200","三重區"
"241016","266-UM","2018/08/09 20:19:27","新北市三重區大同北路97-3號","121.49434","25.0635916666667","6500200","三重區"
"241009","267-UM","2018/08/09 20:19:33","新北市三重區三和路四段382巷69號","121.480845","25.07842","6500200","三重區"
"241018","268-UM","2018/08/09 20:19:42","新北市三重區自強路一段155-1號","121.493506666667","25.06712","6500200","三重區"
"241032","269-UM","2018/08/09 20:19:30","新北市三重區捷運路19巷6弄21號","121.484256666667","25.0569766666667","6500200","三重區"
"241013","270-UM","2018/08/09 20:19:42","新北市三重區三和路三段167巷5號","121.492181666667","25.0741416666667","6500200","三重區"
"241025","271-UM","2018/08/09 20:19:34","新北市三重區三民街277號","121.4792","25.0680616666667","6500200","三重區"
"241007","398-BY","2018/08/09 20:19:30","新北市三重區溪尾街108巷59號","121.487461666667","25.078225","6500200","三重區"
"241035","KEA-2210","2018/08/09 20:19:43","新北市三重區正義北路33巷25號","121.498415","25.0638","6500200","三重區"
"241004","413-TH","2018/08/09 20:19:40","新北市三重區慈愛街193號","121.490451666667","25.0804116666667","6500200","三重區"
"241023","475-VK","2018/08/09 20:19:44","新北市三重區頂崁街140號","121.477686666667","25.06514","6500200","三重區"
"241020","478-VK","2018/08/09 20:19:47","新北市三重區三和路三段170巷10號","121.492373333333","25.072885","6500200","三重區"
"241030","480-VK","2018/08/09 20:19:33","新北市三重區集美街89巷21號","121.488351666667","25.05278","6500200","三重區"
"241014","543-UM","2018/08/09 20:19:33","新北市三重區河邊北街96-1號","121.503955","25.0699916666667","6500200","三重區"
"241001","547-UM","2018/08/09 20:19:35","新北市三重區自強路四段3巷38號","121.490045","25.0765316666667","6500200","三重區"
"241019","KEA-2593","2018/08/09 20:19:31","新北市三重區忠孝路一段34號","121.491391666667","25.0717916666667","6500200","三重區"
"241006","AAD-863","2018/08/09 20:19:35","新北市三重區車路頭街139巷12號","121.48424","25.0762816666667","6500200","三重區"
"241012","941-UM","2018/08/09 20:19:38","新北市三重區河邊北街379-1號","121.501795","25.0765083333333","6500200","三重區"
"241029","942-UM","2018/08/09 20:19:32","新北市三重區重安街98號","121.492653333333","25.0561516666667","6500200","三重區"
"241033","AAC-255","2018/08/09 20:19:15","新北市三重區五谷王北街77號","121.475738333333","25.0501333333333","6500200","三重區"
"235066","003-UY","2018/08/09 20:19:40","新北市中和區保平路249號","121.507416666667","25.0038783333333","6500300","中和區"
"235039","097-UM","2018/08/09 20:19:38","新北市中和區大勇街27巷16號","121.516696666667","24.9939516666667","6500300","中和區"
"235065","098-UM","2018/08/09 20:19:43","新北市中和區永和路128巷47號","121.497651666667","25.0068783333333","6500300","中和區"
"247010","KEA-2869","2018/08/09 20:19:42","新北市蘆洲區信義路188巷18弄1號","121.480403333333","25.0845333333333","6501400","蘆洲區"
"235050","4979-A6","2018/08/09 20:19:40","新北市中和區景平路464巷1號","121.505635","24.9938","6500300","中和區"
"235069","4980-A6","2018/08/09 20:19:46","新北市中和區中正路531號","121.487976666667","24.994345","6500300","中和區"
"235046","733-UM","2018/08/09 20:19:27","新北市中和區和平街7-1號","121.509298333333","24.9902483333333","6500300","中和區"
"220055","015-TV","2018/08/09 20:19:28","新北市板橋區仁愛路25號","121.45898","24.9994233333333","6500100","板橋區"
"220086","073-UY","2018/08/09 20:19:34","新北市八里區下罟子1-5號","121.388835","25.1422966666667","6500100","板橋區"
"247024","893-R6","2018/08/09 20:19:41","新北市蘆洲區光明路112巷31號","121.463938333333","25.0874","6501400","蘆洲區"
"247014","546-UM","2018/08/09 20:19:42","新北市蘆洲區中山二路137巷28號","121.472333333333","25.0808866666667","6501400","蘆洲區"
"247022","500-BY","2018/08/09 20:19:43","新北市蘆洲區民族路449號","121.467443333333","25.0887733333333","6501400","蘆洲區"
"247012","339-TH","2018/08/09 20:19:43","新北市蘆洲區中興街48號","121.48161","25.0872216666667","6501400","蘆洲區"
"247004","337-TH","2018/08/09 20:19:33","新北市蘆洲區永康街116號","121.458213333333","25.0853416666667","6501400","蘆洲區"
"247006","336-TH","2018/08/09 20:19:41","新北市蘆洲區九芎街153巷4號","121.465235","25.078805","6501400","蘆洲區"
"247018","057-VK","2018/08/09 20:19:37","新北市蘆洲區民族路408巷3號","121.474683333333","25.0917166666667","6501400","蘆洲區"
"247008","056-VK","2018/08/09 20:19:44","新北市蘆洲區集賢路209號","121.483493333333","25.087295","6501400","蘆洲區"
"247016","053-VK","2018/08/09 20:19:44","新北市蘆洲區光華路132巷39號","121.46579","25.0837966666667","6501400","蘆洲區"
"247002","002-UY","2018/08/09 20:19:36","新北市蘆洲區長安街331巷13號","121.456011666667","25.0865183333333","6501400","蘆洲區"
"247020","001-UY","2018/08/09 20:19:45","新北市蘆洲區仁愛街37號","121.472253333333","25.092805","6501400","蘆洲區"
"235059","251-BX","2018/08/09 20:19:42","新北市中和區圓通路356-2號","121.48439","24.9870733333333","6500300","中和區"
"224010","AGQ-8101","2018/08/09 20:19:26","新北市瑞芳區基山街31巷19號","121.84588","25.1100333333333","6501200","瑞芳區"
"222001","KEA-2212","2018/08/09 20:19:38","新北市深坑區北深路三段223號","121.600195","25.0040766666667","6501800","深坑區"
"251001","011-UM","2018/08/09 20:19:31","新北市淡水區新市二路四段265號","121.445706666667","25.1924683333333","6501000","淡水區"
"251013","KEA-2871","2018/08/09 20:19:43","新北市淡水區相公山1-2號","121.474343333333","25.2066933333333","6501000","淡水區"
"251016","179-VK","2018/08/09 20:19:37","新北市淡水區淡金路四段660號","121.45254","25.2320333333333","6501000","淡水區"
"251014","180-VK","2018/08/09 20:19:35","新北市淡水區石頭厝1號","121.458748333333","25.2355033333333","6501000","淡水區"
"251015","181-VK","2018/08/09 20:19:46","新北市淡水區淡金路三段170號","121.448661666667","25.202585","6501000","淡水區"
"251010","413-VK","2018/08/09 20:19:38","新北市淡水區新民街一段132號","121.428088333333","25.1888216666667","6501000","淡水區"
"251012","441-VK","2018/08/09 20:19:34","新北市淡水區淡金路三段426號","121.45043","25.2114066666667","6501000","淡水區"
"251008","442-VK","2018/08/09 20:19:40","新北市淡水區淡海路150巷19號","121.42237","25.184475","6501000","淡水區"
"251006","561-UM","2018/08/09 20:19:37","新北市淡水區淡金路一段571號","121.452653333333","25.1805116666667","6501000","淡水區"
"251002","672-BX","2018/08/09 20:19:42","新北市淡水區中正路216號","121.439531666667","25.170385","6501000","淡水區"
"251003","766-UM","2018/08/09 20:19:31","新北市淡水區中山北路一段229號","121.444495","25.1795616666667","6501000","淡水區"
"207004","225-TW","2018/08/09 20:19:45","新北市萬里區北基里仁三街2號","121.682405","25.1755083333333","6502800","萬里區"
"252002","178-VK","2018/08/09 20:19:39","新北市三芝區中正路一段29號","121.503045","25.2584783333333","6502100","三芝區"
"252001","292-VK","2018/08/09 20:19:44","新北市三芝區中山路一段14號","121.500773333333","25.2581616666667","6502100","三芝區"
"237014","433-BY","2018/08/09 20:19:42","新北市樹林區學勤路214號","121.377566666667","24.9465866666667","6500900","三峽區"
"237006","5529-G3","2018/08/09 20:19:42","新北市三峽區中正路二段269號","121.366013333333","24.9117133333333","6500900","三峽區"
"237016","649-BX","2018/08/09 20:19:42","新北市三峽區介壽路二段138巷13-1號","121.395655","24.9338133333333","6500900","三峽區"
"236070","105-UM","2018/08/09 20:19:28","新北市土城區中山路28號","121.422986666667","24.9632933333333","6501300","土城區"
"236030","253-BX","2018/08/09 20:19:29","新北市土城區學成路128巷8弄1號","121.449555","24.9900333333333","6501300","土城區"
"236026","269-VK","2018/08/09 20:19:45","新北市土城區中央路一段249巷11號","121.445913333333","24.9855716666667","6501300","土城區"
"236014","270-VK","2018/08/09 20:19:38","新北市土城區廣明街90巷21號","121.455388333333","24.9945333333333","6501300","土城區"
"236059","912-UM","2018/08/09 20:19:30","新北市土城區中央路三段38號","121.438241666667","24.968615","6501300","土城區"
"242034","AAC-296","2018/08/09 20:19:38","新北市新莊區仁愛街40號","121.44448","25.036645","6500500","新莊區"
"242058","986-R7","2018/08/09 20:19:40","新北市新莊區龍安路266巷30號","121.421641666667","25.01858","6500500","新莊區"
"242053","751-BX","2018/08/09 20:19:30","新北市新莊區民安西路261巷22號","121.426971666667","25.013065","6500500","新莊區"
"242025","705-TV","2018/08/09 20:19:37","新北市新莊區五工二路70巷2號","121.460378333333","25.06579","6500500","新莊區"
"242027","615-BX","2018/08/09 20:19:29","新北市新莊區幸福路567號","121.454171666667","25.0492083333333","6500500","新莊區"
"242042","566-BX","2018/08/09 20:19:38","新北市新莊區壽山路73號","121.40963","25.032675","6500500","新莊區"
"242051","441-UM","2018/08/09 20:19:46","新北市新莊區民安西路252巷5號","121.425471666667","25.0136566666667","6500500","新莊區"
"242056","440-UM","2018/08/09 20:19:33","新北市新莊區新莊路649巷24號","121.445015","25.0321716666667","6500500","新莊區"
"242036","415-TV","2018/08/09 20:19:39","新北市新莊區建安街97號","121.426783333333","25.0243266666667","6500500","新莊區"
"242007","413-TV","2018/08/09 20:19:37","新北市新莊區福壽街124巷41弄16號","121.459281666667","25.0518066666667","6500500","新莊區"
"242044","400-BY","2018/08/09 20:19:39","新北市新莊區中正路新建巷28弄2號","121.414255","25.021775","6500500","新莊區"
"242023","362-BY","2018/08/09 20:19:37","新北市新莊區化成路387號","121.465385","25.05836","6500500","新莊區"
"242061","353-BY","2018/08/09 20:19:34","新北市新莊區新樹路52-26號","121.437396666667","25.0267583333333","6500500","新莊區"
"242009","132-UY","2018/08/09 20:19:43","新北市新莊區昌平街11號","121.454846666667","25.0517866666667","6500500","新莊區"
"242039","133-UY","2018/08/09 20:19:44","新北市新莊區成功街67號","121.424868333333","25.0202866666667","6500500","新莊區"
"242031","135-UY","2018/08/09 20:19:38","新北市新莊區三和路18-1號","121.439993333333","25.0372066666667","6500500","新莊區"
"242048","172-VK","2018/08/09 20:19:27","新北市新莊區龍安路273號","121.420355","25.01988","6500500","新莊區"
"242011","173-VK","2018/08/09 20:19:41","新北市新莊區中信街32號","121.450288333333","25.0508116666667","6500500","新莊區"
"242017","175-VK","2018/08/09 20:19:37","新北市新莊區中港一街131號","121.448276666667","25.0450716666667","6500500","新莊區"
"242004","176-VK","2018/08/09 20:19:46","新北市新莊區頭前路32號","121.467473333333","25.0525183333333","6500500","新莊區"
"242013","347-TH","2018/08/09 20:19:37","新北市新莊區中和街186巷1號","121.447698333333","25.0498266666667","6500500","新莊區"
"242021","348-TH","2018/08/09 20:19:29","新北市新莊區復興路一段19號","121.445963333333","25.0417033333333","6500500","新莊區"
"242002","349-TH","2018/08/09 20:19:28","新北市新莊區中正路1號","121.4651","25.0415566666667","6500500","新莊區"
"242019","350-TH","2018/08/09 20:19:38","新北市新莊區銘德街1號","121.459343333333","25.0437733333333","6500500","新莊區"
"221036","130-UY","2018/08/09 20:19:33","新北市汐止區福安街61巷18號","121.665055","25.0635683333333","6501100","汐止區"
"221015","131-UY","2018/08/09 20:19:35","新北市汐止區建成路142巷21號","121.662411666667","25.0739","6501100","汐止區"
"221010","269-BY","2018/08/09 20:19:47","新北市汐止區八連路一段530巷2號","121.64003","25.0917083333333","6501100","汐止區"
"221012","278-VK","2018/08/09 20:19:29","新北市汐止區保新街275號","121.692235","25.0685216666667","6501100","汐止區"
"221023","279-VK","2018/08/09 20:19:36","新北市汐止區明峰街298巷3弄2號","121.625058333333","25.0682616666667","6501100","汐止區"
"221032","280-BY","2018/08/09 20:19:40","新北市汐止區橫科路73巷2-2號","121.619688333333","25.0504033333333","6501100","汐止區"
"221027","281-BY","2018/08/09 20:19:46","新北市汐止區大同路二段357號","121.657105","25.06723","6501100","汐止區"
"221008","297-VK","2018/08/09 20:19:30","台北市內湖區康樂街201巷47號","121.622733333333","25.0768983333333","6501100","汐止區"
"221029","298-VK","2018/08/09 20:19:26","新北市汐止區樟樹一路99巷7弄1號","121.641241666667","25.0636033333333","6501100","汐止區"
"221021","299-VK","2018/08/09 20:19:41","新北市汐止區水源路一段291巷1號","121.654293333333","25.0583816666667","6501100","汐止區"
"221031","353-TW","2018/08/09 20:19:30","新北市汐止區中興路150巷13號","121.63291","25.0650016666667","6501100","汐止區"
"221002","129-UY","2018/08/09 20:19:41","新北市汐止區福德三路99號","121.635903333333","25.0688633333333","6501100","汐止區"
"221035","622-UM","2018/08/09 20:19:43","新北市汐止區長江街101-5號","121.658726666667","25.073195","6501100","汐止區"
"221025","623-UM","2018/08/09 20:19:27","新北市汐止區水源路二段30號","121.654753333333","25.057335","6501100","汐止區"
"221038","646-BX","2018/08/09 20:19:36","新北市汐止區忠孝東路481號","121.666103333333","25.0733266666667","6501100","汐止區"
"221033","647-BX","2018/08/09 20:19:39","新北市汐止區東勢街190巷1號","121.63381","25.0417033333333","6501100","汐止區"
"221018","753-BX","2018/08/09 20:19:47","新北市汐止區茄安路25號","121.673098333333","25.067975","6501100","汐止區"
"220083","286-VK","2018/08/09 20:19:39","新北市板橋區僑中二街102巷26號","121.445121666667","25.008555","6500100","板橋區"
"220061","293-UM","2018/08/09 20:19:34","新北市板橋區中山路一段156-3號","121.465311666667","25.0117683333333","6500100","板橋區"
"242015","281-VK","2018/08/09 20:19:33","新北市新莊區永樂街224號","121.446538333333","25.0444","6500500","新莊區"
"220103","561-BX","2018/08/09 20:19:28","新北市板橋區陽明街279巷4-4號","121.461748333333","25.0260633333333","6500100","板橋區"
"220102","KEA-2699","2018/08/09 20:19:40","新北市板橋區永豐街89巷5弄10號","121.472625","25.019645","6500100","板橋區"
"220089","833-TW","2018/08/09 20:19:41","新北市板橋區四維路163號","121.464751666667","25.0259283333333","6500100","板橋區"
"220073","985-R7","2018/08/09 20:19:39","新北市五股區成泰路三段544-1號","121.454496666667","25.1030066666667","6500100","板橋區"
"220097","AAC-210","2018/08/09 20:19:45","新北市板橋區民權路202巷8弄7-1號","121.460405","25.0147383333333","6500100","板橋區"
"220070","AAC-253","2018/08/09 20:19:37","新北市板橋區四川路二段245巷12-2號","121.450888333333","24.9930083333333","6500100","板橋區"
"235068","KEA-2873","2018/08/09 20:19:23","新北市中和區勝利路35巷1弄20號","121.499676666667","25.0076366666667","6500300","中和區"
