"lineid","car","time","location","longitude","latitude","cityid","cityname"
"234077","969-R7","2018/08/09 21:29:36","新北市五股區天乙路102-22號","121.448495","25.1069533333333","6500400","永和區"
"231047","187-VK","2018/08/09 21:29:45","新北市新店區薏仁坑路自強巷6號","121.49685","24.9585433333333","6500600","新店區"
"231063","616-UM","2018/08/09 21:29:33","新北市新店區如意街98號","121.496196666667","24.9469183333333","6500600","新店區"
"241011","013-R5","2018/08/09 21:29:39","新北市三重區龍濱路182號","121.501278333333","25.0730216666667","6500200","三重區"
"241017","063-VK","2018/08/09 21:29:39","新北市三重區中正北路25巷2號","121.493186666667","25.06266","6500200","三重區"
"241024","065-VK","2018/08/09 21:29:35","新北市三重區中正北路145巷14號","121.484125","25.0678033333333","6500200","三重區"
"241026","066-VK","2018/08/09 21:29:38","新北市三重區中正南路184-1號","121.494221666667","25.056305","6500200","三重區"
"241005","265-UM","2018/08/09 21:29:32","新北市三重區仁華街85號","121.485721666667","25.0829583333333","6500200","三重區"
"241016","266-UM","2018/08/09 21:29:47","新北市三重區正義北路109號","121.497028333333","25.06564","6500200","三重區"
"241007","398-BY","2018/08/09 21:29:30","新北市三重區正義北路124號","121.496815","25.06554","6500200","三重區"
"241006","AAD-863","2018/08/09 21:29:34","新北市五股區中直路17-4號","121.422558333333","25.1114016666667","6500200","三重區"
"241033","AAC-255","2018/08/09 21:29:35","新北市三重區中興北街184號","121.468926666667","25.0579883333333","6500200","三重區"
"247010","KEA-2869","2018/08/09 21:29:42","新北市五股區四維路185巷26號","121.46538","25.0775016666667","6501400","蘆洲區"
"235010","733-UM","2018/08/09 21:27:37","新北市中和區員山路36巷13號","121.484195","24.9908116666667","6500300","中和區"
"247006","336-TH","2018/08/09 21:29:41","新北市五股區中興路二段182巷15弄13號","121.457221666667","25.081565","6501400","蘆洲區"
"251009","008-UM","2018/08/09 21:29:32","新北市淡水區民族路65巷62號","121.463535","25.1360566666667","6501000","淡水區"
"251005","010-UM","2018/08/09 21:29:45","新北市淡水區長興街43巷9號","121.443571666667","25.17178","6501000","淡水區"
"251001","011-UM","2018/08/09 21:29:31","新北市淡水區濱海路二段200號","121.43471","25.1901283333333","6501000","淡水區"
"251013","KEA-2871","2018/08/09 21:29:43","新北市淡水區埤島50-2號","121.46106","25.19803","6501000","淡水區"
"251016","179-VK","2018/08/09 21:29:37","新北市淡水區前洲子11號","121.441075","25.2193933333333","6501000","淡水區"
"251014","180-VK","2018/08/09 21:29:35","新北市淡水區六塊厝2-5號","121.44843","25.2404083333333","6501000","淡水區"
"251010","413-VK","2018/08/09 21:29:38","新北市淡水區沙崙路25巷21號","121.420546666667","25.182415","6501000","淡水區"
"251012","441-VK","2018/08/09 21:29:34","新北市淡水區石頭埔8號","121.452518333333","25.2346883333333","6501000","淡水區"
"251008","442-VK","2018/08/09 21:29:38","新北市淡水區水源街二段150號","121.454331666667","25.1750183333333","6501000","淡水區"
"251004","443-VK","2018/08/09 21:29:30","新北市淡水區民族路2號","121.46034","25.136975","6501000","淡水區"
"251006","561-UM","2018/08/09 21:29:37","新北市淡水區公明街57號","121.443541666667","25.16867","6501000","淡水區"
"251007","577-R6","2018/08/09 21:29:49","新北市淡水區水源街二段194號","121.45692","25.1761166666667","6501000","淡水區"
"251011","650-BX","2018/08/09 21:29:47","新北市淡水區新民街164號","121.43704","25.1783666666667","6501000","淡水區"
"251003","766-UM","2018/08/09 21:29:31","新北市淡水區崁頂15-5號","121.439038333333","25.1858966666667","6501000","淡水區"
"221036","130-UY","2018/08/09 21:24:44","新北市汐止區汐萬路一段256巷1號","121.651811666667","25.0748216666667","6501100","汐止區"
"220073","985-R7","2018/08/09 21:23:43","新北市板橋區華東街1-10號","121.448266666667","24.9949633333333","6500100","板橋區"
"220070","AAC-253","2018/08/09 21:29:34","新北市五股區新五路三段19號","121.445596666667","25.0893616666667","6500100","板橋區"
