"lineid","car","time","location","longitude","latitude","cityid","cityname"
"232003","290-BY","2018/08/10 06:39:28","新北市坪林區北宜路八段558號","121.718086666667","24.9092833333333","6502000","坪林區"
"232015","291-BY","2018/08/10 06:39:19","新北市坪林區北宜路八段558號","121.71789","24.9091316666667","6502000","坪林區"
"232008","758-BX","2018/08/10 06:39:19","新北市坪林區北宜路八段558號","121.717953333333","24.90921","6502000","坪林區"
"235001","611-BX","2018/08/10 06:39:30","新北市中和區圓通路367巷4號","121.491461666667","24.98936","6500300","中和區"
"223006","022-BY","2018/08/10 06:39:13","新北市石碇區碇坪路一段89號","121.66215","24.990315","6501900","石碇區"
"223002","KEA-2673","2018/08/10 06:39:11","新北市石碇區碇坪路一段130號","121.65938","24.99125","6501900","石碇區"
"223003","205-TH","2018/08/10 06:39:24","新北市石碇區碇坪路一段107號","121.66376","24.9888866666667","6501900","石碇區"
"223008","406-TH","2018/08/10 06:39:10","新北市石碇區碇坪路一段111號","121.66424","24.98831","6501900","石碇區"
"223007","661-BX","2018/08/10 06:39:14","新北市石碇區雙溪52號","121.651781666667","25.0062833333333","6501900","石碇區"
"223005","677-TV","2018/08/10 06:38:53","新北市石碇區小粗坑(潭邊里)9-2號","121.678868333333","24.986155","6501900","石碇區"
"227005","282-VK","2018/08/10 06:39:29","新北市雙溪區牡丹里中正路103號","121.861616666667","25.0474316666667","6502500","雙溪區"
"252003","249-BX","2018/08/10 06:39:12","新北市三芝區中正路三段3號","121.50309","25.254315","6502100","三芝區"
