"lineid","car","time","location","longitude","latitude","cityid","cityname"
"248005","653-BX","2018/08/10 06:59:19","新北市五股區中興路二段182巷3號","121.456498333333","25.0780716666667","6501500","五股區"
"232003","290-BY","2018/08/10 06:59:28","新北市坪林區國中路8號","121.71326","24.939555","6502000","坪林區"
"232015","291-BY","2018/08/10 06:59:19","新北市坪林區粗窟3號","121.681566666667","24.93637","6502000","坪林區"
"232019","705-BZ","2018/08/10 06:59:24","新北市坪林區坪雙路一段106號","121.72421","24.9471416666667","6502000","坪林區"
"232008","758-BX","2018/08/10 06:59:23","新北市坪林區鶯子瀨2-1號","121.7086","24.91294","6502000","坪林區"
"244004","248-BX","2018/08/10 06:59:17","新北市林口區中山路516號","121.379021666667","25.0831","6501700","林口區"
"235001","611-BX","2018/08/10 06:59:03","新北市中和區圓通路367巷4號","121.49146","24.989315","6500300","中和區"
"226006","AGD-0702","2018/08/10 06:59:23","新北市平溪區石底里公園街18-3號","121.733455","25.025715","6502400","平溪區"
"223006","022-BY","2018/08/10 06:59:13","新北市石碇區石崁14-1號","121.65496","24.99496","6501900","石碇區"
"223002","KEA-2673","2018/08/10 06:59:11","新北市石碇區半路店5號","121.645268333333","24.9626566666667","6501900","石碇區"
"223003","205-TH","2018/08/10 06:59:24","新北市石碇區石碇東街141號","121.659011666667","24.9893416666667","6501900","石碇區"
"223008","406-TH","2018/08/10 06:59:21","新北市石碇區雙溪84號","121.662671666667","25.0088366666667","6501900","石碇區"
"223001","592-UM","2018/08/10 06:59:22","新北市石碇區石碇西街9號","121.659035","24.990795","6501900","石碇區"
"223004","660-BX","2018/08/10 06:59:18","新北市石碇區碇坪路一段52號","121.656936666667","24.99157","6501900","石碇區"
"223007","661-BX","2018/08/10 06:59:16","新北市石碇區雙溪81-2號","121.665121666667","25.0090466666667","6501900","石碇區"
"223005","677-TV","2018/08/10 06:59:13","新北市石碇區碇坪路一段56號","121.657026666667","24.9915883333333","6501900","石碇區"
"227005","282-VK","2018/08/10 06:59:29","新北市雙溪區新基里自強路5號","121.866335","25.0390466666667","6502500","雙溪區"
"252003","249-BX","2018/08/10 06:59:12","新北市三芝區中正路二段48-1號","121.503138333333","25.2544","6502100","三芝區"
