"lineid","car","time","location","longitude","latitude","cityid","cityname"
"248005","653-BX","2018/08/14 07:59:40","新北市五股區明德路12巷6號","121.433353333333","25.0717883333333","6501500","五股區"
"244002","248-BX","2018/08/14 07:59:36","新北市林口區下福149-1號","121.300806666667","25.1160366666667","6501700","林口區"
"244001","658-BX","2018/08/14 07:59:34","新北市林口區粉寮路60-17號","121.404251666667","25.090095","6501700","林口區"
"222004","289-BY","2018/08/14 07:59:24","新北市深坑區文山路二段30巷31號","121.615621666667","24.9987566666667","6501800","深坑區"
"231007","189-VK","2018/08/14 07:59:38","新北市新店區安一路一段1-1號","121.519588333333","24.9611516666667","6500600","新店區"
"231009","192-VK","2018/08/14 07:59:33","新北市新店區安一路一段1-1號","121.519215","24.9612233333333","6500600","新店區"
"235001","611-BX","2018/08/14 07:59:43","新北市中和區圓通路367巷4號","121.49143","24.9892816666667","6500300","中和區"
"226005","5620-A6","2018/08/14 07:59:30","新北市平溪區石底里公園街18-3號","121.733471666667","25.0255933333333","6502400","平溪區"
"226002","7418-A5","2018/08/14 07:59:35","新北市平溪區南山里乾坑11號","121.782703333333","25.0471833333333","6502400","平溪區"
"226006","AGD-0702","2018/08/14 07:59:31","新北市平溪區新寮里頂寮子3-10號","121.773671666667","25.0517933333333","6502400","平溪區"
"223006","022-BY","2018/08/14 07:59:31","新北市坪林區北宜路八段558號","121.717163333333","24.9094966666667","6501900","石碇區"
"223002","KEA-2673","2018/08/14 07:59:25","新北市石碇區月扇湖3-7號","121.661103333333","24.95607","6501900","石碇區"
"223003","205-TH","2018/08/14 07:57:41","新北市石碇區崩山36-1號","121.672085","24.9581433333333","6501900","石碇區"
"223001","592-UM","2018/08/14 07:59:29","新北市石碇區橫坪1號","121.668995","24.9672466666667","6501900","石碇區"
"223004","660-BX","2018/08/14 07:59:35","新北市石碇區外按9-2號","121.650595","24.99737","6501900","石碇區"
"223007","661-BX","2018/08/14 07:45:16","新北市石碇區靜安路一段337號","121.698921666667","25.0145833333333","6501900","石碇區"
"223005","677-TV","2018/08/14 07:59:35","新北市石碇區外按16-1號","121.650676666667","24.99749","6501900","石碇區"
"227006","282-VK","2018/08/14 07:59:29","新北市雙溪區平林里梅竹蹊16號","121.861973333333","25.0360083333333","6502500","雙溪區"
"252004","249-BX","2018/08/14 07:59:29","新北市三芝區興華里車埕36-8號","121.50576","25.193055","6502100","三芝區"
"252007","AAC-283","2018/08/14 07:59:34","新北市三芝區後厝里土地公坑61-6號","121.465061666667","25.2462233333333","6502100","三芝區"
"236008","165-UM","2018/08/14 07:59:31","新北市土城區延吉街294號","121.464655","24.9841116666667","6501300","土城區"
"236002","339-SR","2018/08/14 07:59:40","新北市土城區龍泉路80-1號","121.434501666667","24.942785","6501300","土城區"
"236006","498-BY","2018/08/14 07:59:44","新北市土城區永平街51號","121.42765","24.9591833333333","6501300","土城區"
