"lineid","car","time","location","longitude","latitude","cityid","cityname"
"248005","653-BX","2018/08/14 08:09:40","新北市五股區明德路12巷6號","121.433328333333","25.0718216666667","6501500","五股區"
"244002","248-BX","2018/08/14 08:09:36","新北市林口區下福87號","121.289545","25.111815","6501700","林口區"
"244001","658-BX","2018/08/14 08:09:33","新北市林口區仁愛路二段201-1號","121.377985","25.0748083333333","6501700","林口區"
"222004","289-BY","2018/08/14 08:05:43","新北市深坑區昇高坑路51-1號","121.629693333333","24.9938133333333","6501800","深坑區"
"231007","189-VK","2018/08/14 08:09:38","新北市新店區華城路18-1號","121.529003333333","24.9572033333333","6500600","新店區"
"231009","192-VK","2018/08/14 08:09:33","新北市新店區安康路一段33-1號","121.532298333333","24.9604816666667","6500600","新店區"
"235001","611-BX","2018/08/14 08:09:43","新北市中和區圓通路367巷33弄56號","121.496273333333","24.9849516666667","6500300","中和區"
"226005","5620-A6","2018/08/14 08:09:30","新北市平溪區望古里灰3-1號","121.754755","25.02877","6502400","平溪區"
"226002","7418-A5","2018/08/14 08:09:35","新北市平溪區十分里姜仔坑2號","121.766733333333","25.0353183333333","6502400","平溪區"
"226006","AGD-0702","2018/08/14 08:09:31","新北市平溪區十分里十分街45號","121.774508333333","25.0408116666667","6502400","平溪區"
"223006","022-BY","2018/08/14 08:09:40","新北市坪林區北宜路八段558號","121.717668333333","24.9093483333333","6501900","石碇區"
"223002","KEA-2673","2018/08/14 08:02:05","新北市石碇區大格門3號","121.668861666667","24.9564066666667","6501900","石碇區"
"223003","205-TH","2018/08/14 07:57:41","新北市石碇區崩山36-1號","121.672085","24.9581433333333","6501900","石碇區"
"223008","406-TH","2018/08/14 08:09:35","新北市石碇區靜安路一段268號","121.684096666667","25.0091","6501900","石碇區"
"223001","592-UM","2018/08/14 08:01:49","新北市石碇區樟空子10-1號","121.666936666667","24.9624816666667","6501900","石碇區"
"223004","660-BX","2018/08/14 08:09:35","新北市石碇區外按11-5號","121.651016666667","24.9989283333333","6501900","石碇區"
"223005","677-TV","2018/08/14 08:09:35","新北市石碇區外按11-5號","121.651243333333","24.9990466666667","6501900","石碇區"
"227006","282-VK","2018/08/14 08:09:29","新北市雙溪區牡丹里中正路71號","121.864386666667","25.0442833333333","6502500","雙溪區"
"252004","249-BX","2018/08/14 08:09:29","新北市三芝區興華里車埕15-3號","121.502025","25.1967583333333","6502100","三芝區"
"252007","AAC-283","2018/08/14 08:09:34","新北市淡水區淡金路五段172號","121.457271666667","25.24035","6502100","三芝區"
"236008","165-UM","2018/08/14 08:09:31","新北市土城區青雲路322巷28號","121.457485","24.975415","6501300","土城區"
"236002","339-SR","2018/08/14 08:09:44","新北市土城區龍泉路66-2號","121.414845","24.941445","6501300","土城區"
"236006","498-BY","2018/08/14 08:09:24","新北市土城區永平街51號","121.42766","24.9591966666667","6501300","土城區"
