"lineid","car","time","location","longitude","latitude","cityid","cityname"
"248005","653-BX","2018/08/14 10:19:41","新北市五股區中興路二段37巷24號","121.46073","25.075015","6501500","五股區"
"231007","189-VK","2018/08/14 10:19:38","新北市新店區新潭路三段215巷25號","121.508113333333","24.9040916666667","6500600","新店區"
"231009","192-VK","2018/08/14 10:18:53","新北市新店區小坑一路88-1號","121.530061666667","24.90652","6500600","新店區"
"227006","282-VK","2018/08/14 10:19:29","新北市雙溪區平林里外平林17號","121.857191666667","25.03743","6502500","雙溪區"
"227012","030-BX","2018/08/14 10:19:41","新北市坪林區鷺鶿岫4號","121.783523333333","24.9563366666667","6502500","雙溪區"
"252007","AAC-283","2018/08/14 10:19:33","新北市三芝區新庄里番社后27號","121.500016666667","25.2731983333333","6502100","三芝區"
"237011","760-BX","2018/08/14 10:19:30","新北市三峽區隆恩街192號","121.360838333333","24.942355","6500900","三峽區"
