"lineid","car","time","location","longitude","latitude","cityid","cityname"
"234044","148-BY","2018/08/14 13:09:32","新北市永和區得和路373巷31弄12號","121.524343333333","25.0004","6500400","永和區"
"234070","149-BY","2018/08/14 13:09:43","新北市永和區四維街64號","121.524256666667","24.998215","6500400","永和區"
"234005","207-UY","2018/08/14 13:09:42","新北市永和區中山路一段143號","121.51027","25.0097016666667","6500400","永和區"
"234078","298-R6","2018/08/14 13:09:27","新北市永和區國中路156號","121.522555","25.0066133333333","6500400","永和區"
"234062","337-UY","2018/08/14 13:09:36","新北市永和區秀朗路二段57號","121.521888333333","25.0021516666667","6500400","永和區"
"234084","338-UY","2018/08/14 13:09:45","新北市永和區永貞路90號","121.519466666667","25.0045783333333","6500400","永和區"
"234068","552-UM","2018/08/14 13:09:40","新北市永和區豫溪街95巷10弄2號","121.518315","25.0107583333333","6500400","永和區"
"234036","553-UM","2018/08/14 13:09:36","新北市永和區民樂街69巷15號","121.527878333333","24.9978316666667","6500400","永和區"
"234015","745-BX","2018/08/14 13:09:42","新北市永和區文化路90巷17號","121.513641666667","25.0161283333333","6500400","永和區"
"234028","746-BX","2018/08/14 13:09:26","新北市永和區民生路29號","121.522743333333","24.9986516666667","6500400","永和區"
"234052","KEA-2590","2018/08/14 13:09:37","新北市永和區竹林路72巷4號","121.518856666667","25.0129283333333","6500400","永和區"
"234012","KEA-2591","2018/08/14 13:09:36","新北市永和區保福路二段53號","121.510981666667","25.0119933333333","6500400","永和區"
"234060","AAD-866","2018/08/14 13:09:34","新北市永和區自由街35號","121.514313333333","25.0061533333333","6500400","永和區"
"234040","862-TW","2018/08/14 13:09:41","新北市永和區保平路93巷3號","121.511771666667","25.0067033333333","6500400","永和區"
"234048","863-TW","2018/08/14 13:09:45","新北市永和區仁愛路104巷7弄58號","121.510946666667","25.0142433333333","6500400","永和區"
"234025","9371-KE","2018/08/14 13:09:34","新北市永和區自強街8巷5弄1號","121.514716666667","25.0077566666667","6500400","永和區"
"234010","9373-KE","2018/08/14 13:09:43","新北市永和區仁愛路31巷2弄1號","121.514206666667","25.01294","6500400","永和區"
"248017","225-UY","2018/08/14 13:09:36","新北市五股區御史路2號","121.442283333333","25.0902283333333","6501500","五股區"
"234022","9380-KE","2018/08/14 13:09:29","新北市永和區竹林路124巷30號","121.518283333333","25.0112866666667","6500400","永和區"
"234076","969-R7","2018/08/14 13:09:40","新北市永和區中正路160號","121.515015","24.9964533333333","6500400","永和區"
"234072","AAC-211","2018/08/14 13:09:30","新北市永和區竹林路202號","121.520566666667","25.008715","6500400","永和區"
"234066","AAC-212","2018/08/14 13:09:39","新北市永和區永和路一段93號","121.51334","25.0076016666667","6500400","永和區"
"234001","AAC-295","2018/08/14 13:09:42","新北市永和區永和路二段3號","121.514408333333","25.0099233333333","6500400","永和區"
"244002","248-BX","2018/08/14 13:09:33","新北市林口區後湖74-32號","121.367011666667","25.088025","6501700","林口區"
"244001","658-BX","2018/08/14 13:09:37","新北市林口區文化一路二段226號","121.384011666667","25.0824216666667","6501700","林口區"
"231028","046-UY","2018/08/14 13:09:32","新北市新店區安華路28-1號","121.519536666667","24.9606966666667","6500600","新店區"
"231001","047-UY","2018/08/14 13:09:35","新北市新店區安一路一段1-1號","121.518981666667","24.9611116666667","6500600","新店區"
"231005","106-UY","2018/08/14 13:09:36","新北市新店區安華路28-1號","121.519613333333","24.9608316666667","6500600","新店區"
"231010","107-UY","2018/08/14 13:09:39","新北市新店區安一路一段1-1號","121.519376666667","24.9613266666667","6500600","新店區"
"231020","110-UY","2018/08/14 13:09:24","新北市新店區安一路一段1-1號","121.519508333333","24.961215","6500600","新店區"
"231023","KEA-2219","2018/08/14 13:09:41","新北市新店區安一路一段1-1號","121.519828333333","24.961205","6500600","新店區"
"231026","256-BX","2018/08/14 13:09:40","新北市新店區安華路30巷1號","121.519503333333","24.9598433333333","6500600","新店區"
"231003","268-BY","2018/08/14 13:09:24","新北市新店區安華路1-1號","121.519453333333","24.96049","6500600","新店區"
"231018","278-BY","2018/08/14 13:09:30","新北市新店區安一路一段1-1號","121.519326666667","24.961035","6500600","新店區"
"231015","AAD-862","2018/08/14 13:09:31","新北市新店區安一路一段1-1號","121.519868333333","24.96114","6500600","新店區"
"231025","4715-K9","2018/08/14 13:09:38","新北市新店區安華路28-1號","121.51947","24.9605483333333","6500600","新店區"
"231036","512-UM","2018/08/14 13:09:38","新北市新店區安一路一段1-1號","121.519363333333","24.961295","6500600","新店區"
"231013","513-UM","2018/08/14 13:09:44","新北市新店區安一路一段1-1號","121.5197","24.9610816666667","6500600","新店區"
"231030","619-UM","2018/08/14 13:09:26","新北市新店區安華路28-1號","121.519701666667","24.9608633333333","6500600","新店區"
"231034","641-BX","2018/08/14 13:09:25","新北市新店區安華路28-1號","121.519438333333","24.9605916666667","6500600","新店區"
"231035","719-UM","2018/08/14 13:09:35","新北市新店區安一路一段1-1號","121.519521666667","24.9611466666667","6500600","新店區"
"231032","720-UM","2018/08/14 13:09:39","新北市新店區安一路一段1-1號","121.519228333333","24.9611","6500600","新店區"
"231029","897-TW","2018/08/14 13:09:39","新北市新店區安華路28-1號","121.51972","24.9605966666667","6500600","新店區"
"235028","005-UY","2018/08/14 13:09:37","新北市中和區中正路277號","121.495221666667","24.99376","6500300","中和區"
"235027","006-UY","2018/08/14 13:09:42","新北市中和區員山路36巷16-3號","121.485128333333","24.9912816666667","6500300","中和區"
"235003","097-UM","2018/08/14 13:09:36","新北市中和區錦和路350-1號","121.490511666667","24.9936033333333","6500300","中和區"
"235029","098-UM","2018/08/14 13:09:33","新北市中和區莊敬路49巷20弄20號","121.502641666667","25.00586","6500300","中和區"
"235004","150-BY","2018/08/14 13:09:29","新北市中和區和城路一段271巷1號","121.485478333333","24.9916283333333","6500300","中和區"
"235022","151-BY","2018/08/14 13:09:41","新北市中和區圓通路367巷62-8號","121.493126666667","24.9828266666667","6500300","中和區"
"235019","183-VK","2018/08/14 13:09:23","新北市中和區員山路36巷16-3號","121.485021666667","24.9914366666667","6500300","中和區"
"235002","185-VK","2018/08/14 13:09:23","新北市中和區景平路116號","121.519421666667","24.9917616666667","6500300","中和區"
"235031","255-BX","2018/08/14 13:09:41","新北市中和區中正路797-2號","121.484421666667","25.0003616666667","6500300","中和區"
"235006","KEA-2878","2018/08/14 13:09:29","新北市中和區景平路183號","121.511773333333","24.99239","6500300","中和區"
"235014","4979-A6","2018/08/14 13:09:38","新北市中和區中正路273號","121.495611666667","24.9937116666667","6500300","中和區"
"235034","558-UM","2018/08/14 13:09:34","新北市中和區中正路395號","121.48953","24.9935983333333","6500300","中和區"
"235018","640-BX","2018/08/14 13:09:30","新北市中和區國光街6巷2號","121.472113333333","25.0001983333333","6500300","中和區"
"235026","800-TS","2018/08/14 13:09:44","新北市中和區橋和路87號","121.490051666667","25.0055633333333","6500300","中和區"
"235021","801-TS","2018/08/14 13:09:06","新北市中和區員山路36巷16-3號","121.484813333333","24.99156","6500300","中和區"
"235005","802-TS","2018/08/14 13:09:39","新北市中和區中正路273-3號","121.495576666667","24.9934533333333","6500300","中和區"
"235016","805-TS","2018/08/14 13:09:25","新北市中和區錦和路350-1號","121.490388333333","24.9936033333333","6500300","中和區"
"235017","900-TW","2018/08/14 13:09:25","新北市中和區員山路36巷16-3號","121.484976666667","24.991775","6500300","中和區"
"235035","911-UM","2018/08/14 13:09:41","新北市中和區立德街216號","121.483893333333","25.0098133333333","6500300","中和區"
"235015","157-BY","2018/08/14 13:09:26","新北市中和區中正路273號","121.49563","24.99364","6500300","中和區"
"235001","AAC-213","2018/08/14 13:09:29","新北市中和區景平路149號","121.513968333333","24.9921233333333","6500300","中和區"
"235023","AAC-215","2018/08/14 13:09:25","新北市中和區員山路36巷16-3號","121.484941666667","24.9914433333333","6500300","中和區"
"235011","251-BX","2018/08/14 13:09:23","新北市中和區員山路36巷16-8號","121.485406666667","24.9922983333333","6500300","中和區"
"228004","212-TW","2018/08/14 13:09:35","新北市貢寮區吉林里內寮街75號","121.891236666667","24.97241","6502600","貢寮區"
"228005","828-UM","2018/08/14 13:09:41","新北市貢寮區仁理村研海街45號","121.926413333333","25.040865","6502600","貢寮區"
"207002","749-BX","2018/08/14 13:09:33","新北市萬里區崁腳里崁腳路150號","121.645806666667","25.1561933333333","6502800","萬里區"
"207001","662-BX","2018/08/14 13:09:35","新北市萬里區萬里里瑪鋉路141號","121.689365","25.17768","6502800","萬里區"
"252005","AAC-283","2018/08/14 13:09:26","新北市三芝區八賢里八連溪29號","121.512073333333","25.23882","6502100","三芝區"
"236006","498-BY","2018/08/14 13:09:34","新北市土城區亞洲路60號","121.435345","24.9734833333333","6501300","土城區"
"242048","172-VK","2018/08/14 13:09:29","新北市新莊區裕民街136號","121.417915","25.021745","6500500","新莊區"
"221010","269-BY","2018/08/14 13:09:30","新北市汐止區忠三街8號","121.624738333333","25.0784283333333","6501100","汐止區"
"221032","280-BY","2018/08/14 13:09:25","新北市汐止區大同路二段375號","121.657401666667","25.067285","6501100","汐止區"
"221021","299-VK","2018/08/14 13:09:30","新北市汐止區福德一路393巷23號","121.628336666667","25.05981","6501100","汐止區"
"220025","687-BX","2018/08/14 13:09:34","新北市板橋區華東街1-10號","121.448365","24.9949933333333","6500100","板橋區"
"235032","KEA-2873","2018/08/14 13:09:23","新北市中和區員山路36巷16-3號","121.485046666667","24.9912466666667","6500300","中和區"
"235025","KEA-2875","2018/08/14 13:09:27","新北市中和區連城路607號","121.478315","24.99309","6500300","中和區"
