"lineid","car","time","location","longitude","latitude","cityid","cityname"
"234044","148-BY","2018/08/14 13:19:32","新北市永和區永元路68號","121.522495","25.00162","6500400","永和區"
"234070","149-BY","2018/08/14 13:19:23","新北市永和區得和路372號","121.52453","24.999285","6500400","永和區"
"234005","207-UY","2018/08/14 13:19:36","新北市永和區中山路一段341號","121.505885","25.00601","6500400","永和區"
"234078","298-R6","2018/08/14 13:19:27","新北市永和區福和路38號","121.52384","25.008305","6500400","永和區"
"234062","337-UY","2018/08/14 13:19:36","新北市永和區永元路17巷19號","121.521306666667","25.0008333333333","6500400","永和區"
"234084","338-UY","2018/08/14 13:19:25","新北市永和區永利路62號","121.519295","25.0050916666667","6500400","永和區"
"234068","552-UM","2018/08/14 13:19:40","新北市永和區豫溪街33號","121.516425","25.00982","6500400","永和區"
"234036","553-UM","2018/08/14 13:19:37","新北市永和區民樂街59巷6號","121.527611666667","24.9982433333333","6500400","永和區"
"234015","745-BX","2018/08/14 13:19:42","新北市永和區環河西路一段85巷4弄20號","121.511995","25.0170116666667","6500400","永和區"
"234028","746-BX","2018/08/14 13:19:26","新北市永和區厚德街89號","121.523983333333","24.99881","6500400","永和區"
"234052","KEA-2590","2018/08/14 13:19:37","新北市永和區中興街27號","121.516121666667","25.0119433333333","6500400","永和區"
"234012","KEA-2591","2018/08/14 13:19:35","新北市永和區信義路23號","121.51398","25.0122766666667","6500400","永和區"
"234060","AAD-866","2018/08/14 13:19:34","新北市永和區中正路381號","121.517151666667","25.0037316666667","6500400","永和區"
"234040","862-TW","2018/08/14 13:19:41","新北市永和區保平路151巷6弄12號","121.509768333333","25.0050766666667","6500400","永和區"
"234048","863-TW","2018/08/14 13:19:40","新北市永和區仁愛路104巷10號","121.512081666667","25.0137233333333","6500400","永和區"
"234025","9371-KE","2018/08/14 13:19:34","新北市永和區大新街39號","121.515358333333","25.0084866666667","6500400","永和區"
"234010","9373-KE","2018/08/14 13:19:43","新北市永和區永和路二段405巷35號","121.514558333333","25.016935","6500400","永和區"
"248017","225-UY","2018/08/14 13:19:36","新北市五股區御史路170號","121.426703333333","25.10346","6501500","五股區"
"234022","9380-KE","2018/08/14 13:19:10","新北市永和區竹林路91巷18號","121.520345","25.0123383333333","6500400","永和區"
"234076","969-R7","2018/08/14 13:19:25","新北市永和區民有街98巷4號","121.51751","24.99578","6500400","永和區"
"234072","AAC-211","2018/08/14 13:19:30","新北市永和區竹林路44號","121.517651666667","25.0143383333333","6500400","永和區"
"234066","AAC-212","2018/08/14 13:19:36","新北市永和區保平路50巷1號","121.51118","25.0071933333333","6500400","永和區"
"234001","AAC-295","2018/08/14 13:19:22","新北市永和區和平街54巷5弄18號","121.512238333333","25.0105216666667","6500400","永和區"
"244002","248-BX","2018/08/14 13:19:43","新北市林口區頂福16號","121.357986666667","25.0876833333333","6501700","林口區"
"244001","658-BX","2018/08/14 13:19:37","新北市林口區仁愛路二段700號","121.369093333333","25.0809066666667","6501700","林口區"
"231006","001-UM","2018/08/14 13:19:26","新北市新店區安華路28-1號","121.519503333333","24.9609683333333","6500600","新店區"
"231002","002-UM","2018/08/14 13:19:32","新北市新店區安華路28-1號","121.519668333333","24.96089","6500600","新店區"
"231027","0293-UT","2018/08/14 13:19:42","新北市新店區安康路一段9-2號","121.533938333333","24.9605666666667","6500600","新店區"
"231028","046-UY","2018/08/14 13:19:32","新北市新店區安華路28-1號","121.519516666667","24.9606566666667","6500600","新店區"
"231001","047-UY","2018/08/14 13:19:35","新北市新店區安華路28-1號","121.519193333333","24.9609533333333","6500600","新店區"
"231005","106-UY","2018/08/14 13:19:36","新北市新店區安華路28-1號","121.519661666667","24.9607516666667","6500600","新店區"
"231010","107-UY","2018/08/14 13:19:39","新北市新店區安康路一段92號","121.527998333333","24.9619883333333","6500600","新店區"
"231020","110-UY","2018/08/14 13:19:24","新北市新店區安一路一段1-1號","121.5195","24.961425","6500600","新店區"
"231012","187-VK","2018/08/14 13:19:38","新北市新店區安一路一段1-1號","121.519585","24.9611066666667","6500600","新店區"
"231023","KEA-2219","2018/08/14 13:19:41","新北市新店區安康路一段323-1號","121.521675","24.9638116666667","6500600","新店區"
"231026","256-BX","2018/08/14 13:19:40","新北市新店區安一路一段1-1號","121.519686666667","24.9611366666667","6500600","新店區"
"231003","268-BY","2018/08/14 13:19:44","新北市新店區安華路28-1號","121.519403333333","24.960625","6500600","新店區"
"231018","278-BY","2018/08/14 13:19:30","新北市新店區安華路8號","121.519716666667","24.96238","6500600","新店區"
"231015","AAD-862","2018/08/14 13:19:31","新北市新店區安康路一段35號","121.531595","24.960805","6500600","新店區"
"231004","355-BY","2018/08/14 13:19:29","新北市新店區安一路一段1-1號","121.519216666667","24.9610033333333","6500600","新店區"
"231037","4716-K9","2018/08/14 13:19:41","新北市新店區安華路28-1號","121.519661666667","24.9609933333333","6500600","新店區"
"231025","4715-K9","2018/08/14 13:19:38","新北市新店區中央路181-1號","121.535855","24.9690783333333","6500600","新店區"
"231036","512-UM","2018/08/14 13:19:38","新北市新店區安華路30巷12-1號","121.518361666667","24.9580983333333","6500600","新店區"
"231013","513-UM","2018/08/14 13:19:25","新北市新店區安一路一段1-1號","121.519656666667","24.9611133333333","6500600","新店區"
"231030","619-UM","2018/08/14 13:19:26","新北市新店區安華路28-1號","121.519596666667","24.9609466666667","6500600","新店區"
"231034","641-BX","2018/08/14 13:19:25","新北市新店區安華路1-1號","121.51951","24.9604733333333","6500600","新店區"
"231035","719-UM","2018/08/14 13:19:35","新北市新店區安一路一段1-1號","121.519565","24.9612916666667","6500600","新店區"
"231032","720-UM","2018/08/14 13:19:39","新北市新店區安一路一段1-1號","121.519438333333","24.9612666666667","6500600","新店區"
"231029","897-TW","2018/08/14 13:19:39","新北市新店區安華路28-1號","121.519821666667","24.9606833333333","6500600","新店區"
"231024","AKT-0513","2018/08/14 13:19:35","新北市新店區環河路29巷1號","121.537025","24.9613466666667","6500600","新店區"
"235030","003-UY","2018/08/14 13:19:32","新北市中和區中山路二段120號","121.502885","25.0038083333333","6500300","中和區"
"235028","005-UY","2018/08/14 13:19:37","新北市中和區圓通路180號","121.496693333333","24.9944183333333","6500300","中和區"
"235027","006-UY","2018/08/14 13:19:23","新北市中和區中正路637巷52弄1號","121.485541666667","24.9935216666667","6500300","中和區"
"235020","096-UM","2018/08/14 13:19:29","新北市中和區員山路36巷16號","121.484345","24.991555","6500300","中和區"
"235003","097-UM","2018/08/14 13:19:36","新北市中和區安平路38號","121.509751666667","24.994905","6500300","中和區"
"235029","098-UM","2018/08/14 13:19:33","新北市中和區莊敬路49巷20弄20號","121.502626666667","25.0058116666667","6500300","中和區"
"235004","150-BY","2018/08/14 13:19:28","新北市中和區中正路1號","121.50322","24.993495","6500300","中和區"
"235022","151-BY","2018/08/14 13:19:41","新北市中和區圓通路290巷1號","121.490583333333","24.989515","6500300","中和區"
"235019","183-VK","2018/08/14 13:19:43","新北市中和區連城路607號","121.478203333333","24.9931683333333","6500300","中和區"
"235002","185-VK","2018/08/14 13:19:23","新北市中和區大智街111號","121.523523333333","24.992555","6500300","中和區"
"235013","186-VK","2018/08/14 13:19:36","新北市中和區中正路637巷52弄1號","121.485501666667","24.993415","6500300","中和區"
"235031","255-BX","2018/08/14 13:19:41","新北市中和區員山路148巷38號","121.482383333333","24.99698","6500300","中和區"
"235008","293-VK","2018/08/14 13:19:25","新北市中和區中正路507號","121.488568333333","24.9935816666667","6500300","中和區"
"235036","301-VK","2018/08/14 13:19:43","新北市中和區連城路297號","121.490113333333","24.9964433333333","6500300","中和區"
"235007","352-BY","2018/08/14 13:19:41","新北市中和區中正路2-1號","121.50328","24.9936666666667","6500300","中和區"
"235006","KEA-2878","2018/08/14 13:19:29","新北市中和區大仁街20巷25弄27號","121.518991666667","24.99366","6500300","中和區"
"235014","4979-A6","2018/08/14 13:19:38","新北市中和區捷運路61巷9號","121.50911","24.9893766666667","6500300","中和區"
"235033","4980-A6","2018/08/14 13:19:33","新北市中和區圓通路297巷11弄2號","121.495873333333","24.9912583333333","6500300","中和區"
"235034","558-UM","2018/08/14 13:19:34","新北市中和區圓通路115號","121.499323333333","24.9964533333333","6500300","中和區"
"235009","565-BX","2018/08/14 13:19:32","新北市中和區復興路260-1號","121.503483333333","24.9903216666667","6500300","中和區"
"235018","640-BX","2018/08/14 13:19:30","新北市中和區民享街119巷2號","121.474371666667","24.998675","6500300","中和區"
"235024","647-TV","2018/08/14 13:19:26","新北市中和區員山路36巷16-3號","121.484776666667","24.991505","6500300","中和區"
"235026","800-TS","2018/08/14 13:19:32","新北市中和區景平路782-1號","121.496011666667","25.0054816666667","6500300","中和區"
"235021","801-TS","2018/08/14 13:19:26","新北市中和區民利街3號","121.48091","24.9991716666667","6500300","中和區"
"235005","802-TS","2018/08/14 13:19:39","新北市永和區中和路381號","121.508471666667","24.9999033333333","6500300","中和區"
"235016","805-TS","2018/08/14 13:19:25","新北市中和區興南路一段164號","121.508035","24.986655","6500300","中和區"
"235012","896-TW","2018/08/14 13:19:32","新北市中和區員山路36巷16-4號","121.485076666667","24.9920616666667","6500300","中和區"
"235017","900-TW","2018/08/14 13:19:45","新北市中和區員山路36巷16-3號","121.48495","24.99184","6500300","中和區"
"235035","911-UM","2018/08/14 13:19:38","新北市中和區中板路18巷1弄15號","121.483353333333","25.0125466666667","6500300","中和區"
"235015","157-BY","2018/08/14 13:19:26","新北市中和區信義街78號","121.511613333333","24.9879666666667","6500300","中和區"
"235001","AAC-213","2018/08/14 13:19:29","新北市中和區景德街95-1號","121.515636666667","24.9914566666667","6500300","中和區"
"235023","AAC-215","2018/08/14 13:19:25","新北市中和區員山路36巷16-3號","121.484926666667","24.9913816666667","6500300","中和區"
"220017","AAD-861","2018/08/14 13:19:30","新北市板橋區華東街1-10號","121.448321666667","24.9951083333333","6500100","板橋區"
"235011","251-BX","2018/08/14 13:19:43","新北市中和區復興路300號","121.501481666667","24.9903266666667","6500300","中和區"
"228004","212-TW","2018/08/14 13:19:36","新北市貢寮區吉林里內寮街23號","121.901875","24.985305","6502600","貢寮區"
"228005","828-UM","2018/08/14 13:19:35","新北市貢寮區美豐里丹裡街18-2號","121.912436666667","25.0573266666667","6502600","貢寮區"
"207002","749-BX","2018/08/14 13:19:33","新北市萬里區崁腳里崁腳路166號","121.645056666667","25.1558466666667","6502800","萬里區"
"207001","662-BX","2018/08/14 13:19:35","新北市萬里區龜吼里新墾丁路30號","121.679785","25.194235","6502800","萬里區"
"252005","AAC-283","2018/08/14 13:19:26","新北市三芝區圓山里木屐寮38號","121.52864","25.2258633333333","6502100","三芝區"
"236006","498-BY","2018/08/14 13:19:34","新北市土城區大安路138巷13號","121.434016666667","24.971315","6501300","土城區"
"242048","172-VK","2018/08/14 13:19:29","新北市新莊區裕民街35號","121.41898","25.0251233333333","6500500","新莊區"
"221010","269-BY","2018/08/14 13:19:30","台北市內湖區大湖山莊街119號","121.601718333333","25.086125","6501100","汐止區"
"221032","280-BY","2018/08/14 13:19:25","新北市汐止區龍安路44號","121.654136666667","25.0635816666667","6501100","汐止區"
"221021","299-VK","2018/08/14 13:19:30","新北市汐止區福德一路326號","121.631226666667","25.0631966666667","6501100","汐止區"
"220030","610-BX","2018/08/14 13:19:33","新北市板橋區華東街1-9號","121.448251666667","24.9949316666667","6500100","板橋區"
"220025","687-BX","2018/08/14 13:19:34","新北市板橋區華東街1-10號","121.448325","24.9949683333333","6500100","板橋區"
"220022","895-R6","2018/08/14 13:19:43","新北市板橋區華東街1-10號","121.44824","24.994995","6500100","板橋區"
"220021","985-R7","2018/08/14 13:19:23","新北市板橋區華東街1-10號","121.448323333333","24.99504","6500100","板橋區"
"235032","KEA-2873","2018/08/14 13:19:23","新北市中和區員山路36巷16-3號","121.48506","24.9913116666667","6500300","中和區"
"235025","KEA-2875","2018/08/14 13:19:27","新北市中和區國光街107巷4弄22號","121.469953333333","24.9991333333333","6500300","中和區"
