"lineid","car","time","location","longitude","latitude","cityid","cityname"
"234044","148-BY","2018/08/14 13:29:32","新北市永和區得和路418號","121.526216666667","24.9990866666667","6500400","永和區"
"234070","149-BY","2018/08/14 13:29:43","新北市中和區永貞路262巷3號","121.513708333333","25.0040016666667","6500400","永和區"
"234005","207-UY","2018/08/14 13:29:22","新北市永和區中山路一段174號","121.509205","25.0090483333333","6500400","永和區"
"234078","298-R6","2018/08/14 13:29:27","新北市永和區林森路8號","121.526461666667","25.0057566666667","6500400","永和區"
"234062","337-UY","2018/08/14 13:29:36","新北市永和區得和路243巷21號","121.52055","25.0009366666667","6500400","永和區"
"234084","338-UY","2018/08/14 13:29:45","新北市永和區國中路2-1號","121.524071666667","25.0042116666667","6500400","永和區"
"234068","552-UM","2018/08/14 13:29:40","新北市永和區竹林路181號","121.520616666667","25.009715","6500400","永和區"
"234036","553-UM","2018/08/14 13:29:35","新北市永和區民樂街33巷1號","121.5276","25.00132","6500400","永和區"
"234015","745-BX","2018/08/14 13:29:42","新北市永和區環河西路一段5號","121.515103333333","25.0180216666667","6500400","永和區"
"234028","746-BX","2018/08/14 13:29:46","新北市永和區四維街72號","121.523771666667","24.9983933333333","6500400","永和區"
"234052","KEA-2590","2018/08/14 13:29:37","新北市永和區永和路二段170號","121.515556666667","25.0130833333333","6500400","永和區"
"234012","KEA-2591","2018/08/14 13:29:35","新北市永和區中山路一段184巷9弄1號","121.508463333333","25.009235","6500400","永和區"
"234060","AAD-866","2018/08/14 13:29:34","新北市永和區永貞路180號","121.51646","25.004255","6500400","永和區"
"234040","862-TW","2018/08/14 13:29:41","新北市永和區中和路519巷12號","121.510933333333","25.0032566666667","6500400","永和區"
"234048","863-TW","2018/08/14 13:29:40","新北市永和區仁愛路96號","121.512288333333","25.0133183333333","6500400","永和區"
"234025","9371-KE","2018/08/14 13:29:35","新北市永和區永和路一段212號","121.514346666667","25.0094666666667","6500400","永和區"
"234010","9373-KE","2018/08/14 13:29:43","新北市永和區仁愛路141巷5弄12號","121.51234","25.0121766666667","6500400","永和區"
"248017","225-UY","2018/08/14 13:29:36","新北市五股區民義路二段52巷3-8號","121.410736666667","25.1063316666667","6501500","五股區"
"234022","9380-KE","2018/08/14 13:29:29","新北市永和區豫溪街159號","121.521456666667","25.010525","6500400","永和區"
"234076","969-R7","2018/08/14 13:29:38","新北市永和區智光街18號","121.518081666667","24.9992833333333","6500400","永和區"
"234072","AAC-211","2018/08/14 13:29:30","新北市永和區永和路二段159號","121.515156666667","25.0129433333333","6500400","永和區"
"234066","AAC-212","2018/08/14 13:29:32","新北市永和區保平路113號","121.510911666667","25.0066516666667","6500400","永和區"
"234001","AAC-295","2018/08/14 13:29:22","新北市永和區永和路一段107號","121.513935","25.007945","6500400","永和區"
"244002","248-BX","2018/08/14 13:28:33","新北市林口區頂福里5號","121.362075","25.0819033333333","6501700","林口區"
"244001","658-BX","2018/08/14 13:29:37","新北市林口區文化二路66-5號","121.365406666667","25.0692683333333","6501700","林口區"
"231006","001-UM","2018/08/14 13:29:26","新北市新店區安康路一段65號","121.530378333333","24.9610733333333","6500600","新店區"
"231002","002-UM","2018/08/14 13:29:32","新北市新店區秀山路68-1號","121.531023333333","24.960965","6500600","新店區"
"231027","0293-UT","2018/08/14 13:29:42","新北市新店區北宜路一段2號","121.537993333333","24.9585733333333","6500600","新店區"
"231028","046-UY","2018/08/14 13:29:32","新北市新店區安華路28-1號","121.519613333333","24.960885","6500600","新店區"
"231001","047-UY","2018/08/14 13:29:35","新北市新店區秀山路20號","121.532451666667","24.9604466666667","6500600","新店區"
"231005","106-UY","2018/08/14 13:29:36","新北市新店區安康路一段52巷2號","121.53014","24.9611566666667","6500600","新店區"
"231010","107-UY","2018/08/14 13:29:39","新北市新店區中央路3號","121.533451666667","24.9787283333333","6500600","新店區"
"231020","110-UY","2018/08/14 13:29:43","新北市新店區北宜路一段190號","121.541195","24.952795","6500600","新店區"
"231012","187-VK","2018/08/14 13:29:38","新北市新店區環河路17號","121.537431666667","24.96143","6500600","新店區"
"231023","KEA-2219","2018/08/14 13:29:41","新北市新店區北宜路一段168號","121.540416666667","24.9529966666667","6500600","新店區"
"231026","256-BX","2018/08/14 13:29:40","新北市新店區北新路一段91號","121.538808333333","24.9616666666667","6500600","新店區"
"231003","268-BY","2018/08/14 13:29:24","新北市新店區安康路一段85號","121.52952","24.9614066666667","6500600","新店區"
"231018","278-BY","2018/08/14 13:29:30","新北市新店區環河路120號","121.536476666667","24.9684383333333","6500600","新店區"
"231015","AAD-862","2018/08/14 13:29:31","新北市新店區北宜路二段56巷3弄1號","121.549135","24.9509166666667","6500600","新店區"
"231004","355-BY","2018/08/14 13:29:29","新北市新店區安華路28-1號","121.519175","24.9609666666667","6500600","新店區"
"231038","3712-VJ","2018/08/14 13:29:33","新北市新店區安華路28-1號","121.519255","24.9606516666667","6500600","新店區"
"231037","4716-K9","2018/08/14 13:29:41","新北市新店區安豐路45號","121.500291666667","24.9552983333333","6500600","新店區"
"231025","4715-K9","2018/08/14 13:29:38","新北市新店區中央六街56號","121.527915","24.9757516666667","6500600","新店區"
"231036","512-UM","2018/08/14 13:29:40","新北市新店區建業路96號","121.479933333333","24.9552366666667","6500600","新店區"
"231013","513-UM","2018/08/14 13:29:44","新北市新店區安康路一段35號","121.531745","24.9607466666667","6500600","新店區"
"231030","619-UM","2018/08/14 13:29:26","新北市新店區安華路28-1號","121.519745","24.9606616666667","6500600","新店區"
"231034","641-BX","2018/08/14 13:29:25","新北市新店區安華路1-1號","121.51948","24.96045","6500600","新店區"
"231035","719-UM","2018/08/14 13:29:35","新北市新店區安一路一段1-1號","121.51951","24.9612333333333","6500600","新店區"
"231032","720-UM","2018/08/14 13:29:39","新北市新店區安豐路60號","121.49847","24.9539766666667","6500600","新店區"
"231029","897-TW","2018/08/14 13:29:39","新北市新店區安華路1-1號","121.519761666667","24.9604633333333","6500600","新店區"
"231024","AKT-0513","2018/08/14 13:29:35","新北市新店區中正路122號","121.542265","24.9712666666667","6500600","新店區"
"235030","003-UY","2018/08/14 13:29:32","新北市中和區中山路二段110號","121.503001666667","25.00387","6500300","中和區"
"235028","005-UY","2018/08/14 13:29:37","新北市中和區連城路139巷51號","121.496823333333","24.997455","6500300","中和區"
"235027","006-UY","2018/08/14 13:29:42","新北市中和區連城路347巷2弄1號","121.488215","24.9957133333333","6500300","中和區"
"235020","096-UM","2018/08/14 13:29:29","新北市中和區新生街22號","121.483146666667","25.004145","6500300","中和區"
"235003","097-UM","2018/08/14 13:29:36","新北市中和區大勇街27巷1號","121.5173","24.9934683333333","6500300","中和區"
"235029","098-UM","2018/08/14 13:29:33","新北市中和區莊敬路49巷17號","121.501433333333","25.00574","6500300","中和區"
"235004","150-BY","2018/08/14 13:29:28","新北市中和區安平路59號","121.509483333333","24.9951733333333","6500300","中和區"
"235022","151-BY","2018/08/14 13:29:41","新北市中和區圓通路369巷72號","121.490138333333","24.9822116666667","6500300","中和區"
"235019","183-VK","2018/08/14 13:29:43","新北市中和區莒光路205-1號","121.47115","24.9972616666667","6500300","中和區"
"235002","185-VK","2018/08/14 13:29:43","新北市中和區自強路54號","121.520051666667","24.9947583333333","6500300","中和區"
"235013","186-VK","2018/08/14 13:29:36","新北市中和區景安路136號","121.505066666667","24.9943266666667","6500300","中和區"
"235031","255-BX","2018/08/14 13:29:41","新北市中和區新生街220巷15弄2號","121.482855","24.9979333333333","6500300","中和區"
"235008","293-VK","2018/08/14 13:29:25","新北市中和區復興路301巷2弄1號","121.501453333333","24.9898516666667","6500300","中和區"
"235036","301-VK","2018/08/14 13:29:31","新北市中和區連城路263-2號","121.491595","24.9964316666667","6500300","中和區"
"235007","352-BY","2018/08/14 13:29:41","新北市中和區景平路313號","121.506305","24.993145","6500300","中和區"
"235006","KEA-2878","2018/08/14 13:29:29","新北市中和區自立路56巷4號","121.523158333333","24.9918466666667","6500300","中和區"
"235014","4979-A6","2018/08/14 13:29:39","新北市中和區景新街362巷10號","121.511896666667","24.9901366666667","6500300","中和區"
"235033","4980-A6","2018/08/14 13:29:33","新北市中和區連城路127巷19-10號","121.496795","24.9981716666667","6500300","中和區"
"235034","558-UM","2018/08/14 13:29:34","新北市中和區南華路69號","121.504721666667","24.9973016666667","6500300","中和區"
"235009","565-BX","2018/08/14 13:29:32","新北市中和區南山路236巷24弄20號","121.504943333333","24.989045","6500300","中和區"
"235018","640-BX","2018/08/14 13:29:31","新北市中和區民享街86巷8號","121.474026666667","25.0009066666667","6500300","中和區"
"235024","647-TV","2018/08/14 13:29:26","新北市中和區員山路291號","121.481251666667","24.9998666666667","6500300","中和區"
"235026","800-TS","2018/08/14 13:29:32","新北市中和區景平路747號","121.496326666667","25.0046533333333","6500300","中和區"
"235021","801-TS","2018/08/14 13:29:45","新北市中和區民享街97巷17號","121.475455","24.999615","6500300","中和區"
"235005","802-TS","2018/08/14 13:29:39","新北市中和區中和路358號","121.510423333333","25.0016183333333","6500300","中和區"
"235016","805-TS","2018/08/14 13:29:25","新北市中和區興南路二段96號","121.505","24.9839733333333","6500300","中和區"
"235012","896-TW","2018/08/14 13:29:32","新北市中和區中正路637巷52弄1號","121.485463333333","24.99352","6500300","中和區"
"235017","900-TW","2018/08/14 13:29:25","新北市中和區民享街465號","121.470198333333","24.992055","6500300","中和區"
"235035","911-UM","2018/08/14 13:29:38","新北市中和區光環路二段21號","121.483968333333","25.0135633333333","6500300","中和區"
"235015","157-BY","2018/08/14 13:29:26","新北市中和區興南路二段142巷19弄6號","121.502845","24.9834883333333","6500300","中和區"
"235001","AAC-213","2018/08/14 13:29:29","新北市中和區景平路111巷9弄2號","121.516631666667","24.9910716666667","6500300","中和區"
"235023","AAC-215","2018/08/14 13:29:45","新北市中和區員山路36巷16-3號","121.4849","24.99145","6500300","中和區"
"220034","073-UY","2018/08/14 13:29:34","新北市板橋區華東街1-10號","121.448228333333","24.9949833333333","6500100","板橋區"
"220017","AAD-861","2018/08/14 13:29:30","新北市板橋區華東街1-10號","121.44836","24.995115","6500100","板橋區"
"235011","251-BX","2018/08/14 13:29:23","新北市中和區南山路487號","121.507975","24.9879466666667","6500300","中和區"
"228004","212-TW","2018/08/14 13:29:35","新北市貢寮區龍崗里石壁坑街17號","121.910341666667","24.9894783333333","6502600","貢寮區"
"228005","828-UM","2018/08/14 13:29:41","新北市貢寮區美豐里文秀坑8號","121.902628333333","25.0504766666667","6502600","貢寮區"
"207002","749-BX","2018/08/14 13:29:33","新北市萬里區崁腳里崁腳路166號","121.645056666667","25.1558216666667","6502800","萬里區"
"207001","662-BX","2018/08/14 13:29:34","新北市萬里區龜吼里漁澳路2號","121.685416666667","25.1937366666667","6502800","萬里區"
"252005","AAC-283","2018/08/14 13:29:26","新北市三芝區圓山里二坪頂46號","121.54017","25.23056","6502100","三芝區"
"236006","498-BY","2018/08/14 13:29:34","新北市土城區亞洲路11巷1弄2號","121.435121666667","24.971645","6501300","土城區"
"242048","172-VK","2018/08/14 13:29:29","新北市新莊區成德街51號","121.423255","25.0209466666667","6500500","新莊區"
"221010","269-BY","2018/08/14 13:29:30","新北市汐止區長青路131巷2弄12號","121.60522","25.1103766666667","6501100","汐止區"
"221032","280-BY","2018/08/14 13:29:25","新北市汐止區水源路一段56號","121.65749","25.065695","6501100","汐止區"
"221021","299-VK","2018/08/14 13:29:30","新北市汐止區大同路一段349-1號","121.639365","25.0597566666667","6501100","汐止區"
"220027","145-BY","2018/08/14 13:29:24","新北市板橋區華東街1-10號","121.448366666667","24.9950816666667","6500100","板橋區"
"220030","610-BX","2018/08/14 13:29:33","新北市板橋區華東街1-10號","121.448305","24.9949583333333","6500100","板橋區"
"220004","276-BY","2018/08/14 13:29:30","新北市板橋區華東街1-9號","121.448183333333","24.9949183333333","6500100","板橋區"
"220043","285-UM","2018/08/14 13:29:29","新北市板橋區民生路二段161巷1號","121.470203333333","25.0198683333333","6500100","板橋區"
"220031","286-VK","2018/08/14 13:29:34","新北市板橋區華東街1-10號","121.448365","24.99507","6500100","板橋區"
"220032","296-UM","2018/08/14 13:29:33","新北市板橋區華東街1-9號","121.448161666667","24.9949733333333","6500100","板橋區"
"220023","303-R5","2018/08/14 13:29:29","新北市板橋區華東街1-10號","121.448278333333","24.9949283333333","6500100","板橋區"
"220012","486-VK","2018/08/14 13:29:41","新北市板橋區南雅南路二段144巷60號","121.450106666667","24.9972816666667","6500100","板橋區"
"220002","630-UY","2018/08/14 13:29:29","新北市板橋區華東街1-9號","121.448156666667","24.9949116666667","6500100","板橋區"
"220025","687-BX","2018/08/14 13:29:34","新北市板橋區大觀路二段265巷7-7號","121.44408","24.9946383333333","6500100","板橋區"
"220003","827-TW","2018/08/14 13:29:30","新北市板橋區華東街1-9號","121.448195","24.9949183333333","6500100","板橋區"
"220022","895-R6","2018/08/14 13:29:22","新北市板橋區四川路二段130巷31號","121.449438333333","24.9944066666667","6500100","板橋區"
"220021","985-R7","2018/08/14 13:29:43","新北市板橋區華東街1-10號","121.448366666667","24.9950183333333","6500100","板橋區"
"220018","AAC-253","2018/08/14 13:29:35","新北市板橋區華東街1-9號","121.448258333333","24.9948733333333","6500100","板橋區"
"235032","KEA-2873","2018/08/14 13:29:23","新北市中和區中正路273-3號","121.49562","24.9934516666667","6500300","中和區"
"235025","KEA-2875","2018/08/14 13:29:27","新北市中和區民享街88巷22號","121.473491666667","25.0003533333333","6500300","中和區"
