"lineid","car","time","location","longitude","latitude","cityid","cityname"
"234070","149-BY","2018/08/14 14:39:23","新北市林口區太平里180號","121.368093333333","25.1344483333333","6500400","永和區"
"234062","337-UY","2018/08/14 14:39:36","新北市永和區環河西路二段219號","121.501185","25.0104733333333","6500400","永和區"
"234028","746-BX","2018/08/14 14:39:45","新北市永和區民權路82號","121.519881666667","24.99714","6500400","永和區"
"234040","862-TW","2018/08/14 14:39:41","新北市永和區永和路二段127號","121.515038333333","25.0120966666667","6500400","永和區"
"234025","9371-KE","2018/08/14 14:39:34","新北市永和區中和路501巷6號","121.510596666667","25.002615","6500400","永和區"
"248017","225-UY","2018/08/14 14:39:36","新北市五股區外寮路13-1號","121.424811666667","25.0812433333333","6501500","五股區"
"234072","AAC-211","2018/08/14 14:39:37","新北市永和區環河東路二段54號","121.523298333333","25.0116233333333","6500400","永和區"
"234001","AAC-295","2018/08/14 14:39:42","新北市永和區中正路618號","121.517018333333","25.0076816666667","6500400","永和區"
"244002","248-BX","2018/08/14 14:39:33","新北市林口區南勢里31號","121.352123333333","25.0704666666667","6501700","林口區"
"244010","701-TV","2018/08/14 14:39:35","新北市林口區粉寮69號","121.404918333333","25.0908033333333","6501700","林口區"
"231006","001-UM","2018/08/14 14:39:26","新北市新店區北宜路二段115號","121.550546666667","24.95282","6500600","新店區"
"231002","002-UM","2018/08/14 14:39:32","新北市新店區中正路468號","121.534046666667","24.9794316666667","6500600","新店區"
"231027","0293-UT","2018/08/14 14:39:42","新北市新店區中正路102巷8弄8號","121.543698333333","24.971225","6500600","新店區"
"231028","046-UY","2018/08/14 14:39:32","新北市新店區安成街26-1號","121.510176666667","24.960905","6500600","新店區"
"231001","047-UY","2018/08/14 14:39:45","新北市新店區中正路98號","121.543396666667","24.970415","6500600","新店區"
"231005","106-UY","2018/08/14 14:39:36","新北市新店區復興路2號","121.532455","24.9882733333333","6500600","新店區"
"231020","110-UY","2018/08/14 14:39:24","新北市新店區桂山路55-1號","121.564761666667","24.9010883333333","6500600","新店區"
"231012","187-VK","2018/08/14 14:39:38","新北市新店區寶宏路3-3號","121.54918","24.97665","6500600","新店區"
"231023","KEA-2219","2018/08/14 14:39:41","新北市新店區中興路一段140號","121.542356666667","24.9635883333333","6500600","新店區"
"231003","268-BY","2018/08/14 14:39:44","新北市新店區中興路一段285-1號","121.545491666667","24.9685666666667","6500600","新店區"
"231018","278-BY","2018/08/14 14:39:30","新北市新店區中央二街3號","121.529245","24.9730866666667","6500600","新店區"
"231015","AAD-862","2018/08/14 14:39:31","新北市新店區北宜路三段221號","121.592508333333","24.9533016666667","6500600","新店區"
"231004","355-BY","2018/08/14 14:39:29","新北市新店區中正路265號","121.538063333333","24.974105","6500600","新店區"
"231038","3712-VJ","2018/08/14 14:39:33","新北市新店區溪洲路187-2號","121.529328333333","24.9646216666667","6500600","新店區"
"231037","4716-K9","2018/08/14 14:39:41","新北市新店區安德街60巷9-3號","121.50917","24.9620716666667","6500600","新店區"
"231036","512-UM","2018/08/14 14:39:38","新北市新店區安祥路106巷345號","121.472945","24.9595866666667","6500600","新店區"
"231013","513-UM","2018/08/14 14:39:28","新北市新店區明德路31號","121.541686666667","24.9773666666667","6500600","新店區"
"231030","619-UM","2018/08/14 14:39:26","新北市新店區安民街172號","121.516795","24.9707333333333","6500600","新店區"
"231034","641-BX","2018/08/14 14:39:25","新北市新店區黎明路51巷2號","121.501996666667","24.9491566666667","6500600","新店區"
"231039","718-UY","2018/08/14 14:39:43","新北市新店區安一路一段1-1號","121.51925","24.961265","6500600","新店區"
"231035","719-UM","2018/08/14 14:37:15","新北市新店區安康路二段58巷9號","121.513281666667","24.96403","6500600","新店區"
"231029","897-TW","2018/08/14 14:39:39","新北市新店區安康路三段455號","121.482915","24.94956","6500600","新店區"
"231024","AKT-0513","2018/08/14 14:39:35","新北市新店區力行路14巷14弄1號","121.539236666667","24.9652966666667","6500600","新店區"
"241005","262-UM","2018/08/14 14:39:40","新北市三重區頂崁街99號","121.477936666667","25.0638466666667","6500200","三重區"
"235030","003-UY","2018/08/14 14:39:32","新北市中和區景新街129號","121.505715","24.9973116666667","6500300","中和區"
"235027","006-UY","2018/08/14 14:39:42","新北市中和區連城路261號","121.492595","24.9967383333333","6500300","中和區"
"235020","096-UM","2018/08/14 14:39:29","新北市中和區員山路581巷31弄1號","121.47726","25.0103616666667","6500300","中和區"
"235003","097-UM","2018/08/14 14:39:36","新北市中和區安平路149號","121.512215","24.9981033333333","6500300","中和區"
"235029","098-UM","2018/08/14 14:39:33","新北市中和區莊敬路4號","121.499565","25.0042016666667","6500300","中和區"
"235004","150-BY","2018/08/14 14:39:28","新北市中和區宜安路11巷29號","121.512396666667","24.9946","6500300","中和區"
"235022","151-BY","2018/08/14 14:39:42","新北市中和區員山路146-1號","121.481445","24.9968483333333","6500300","中和區"
"235019","183-VK","2018/08/14 14:39:43","新北市中和區國光街112巷2弄1號","121.469921666667","25.00092","6500300","中和區"
"235002","185-VK","2018/08/14 14:39:43","新北市中和區自強路27巷6號","121.521068333333","24.9930416666667","6500300","中和區"
"235013","186-VK","2018/08/14 14:39:36","新北市中和區景新街212號","121.507031666667","24.9952283333333","6500300","中和區"
"235031","255-BX","2018/08/14 14:39:40","新北市中和區連城路340巷14弄1號","121.483348333333","24.9971716666667","6500300","中和區"
"235008","293-VK","2018/08/14 14:39:40","新北市中和區興南路一段71號","121.510133333333","24.9892533333333","6500300","中和區"
"235036","301-VK","2018/08/14 14:39:31","新北市中和區保平路340巷18號","121.506048333333","25.0046266666667","6500300","中和區"
"235007","352-BY","2018/08/14 14:39:41","新北市中和區南山路94號","121.502865","24.9946516666667","6500300","中和區"
"235006","KEA-2878","2018/08/14 14:39:29","新北市中和區保健路9號","121.507846666667","24.9983466666667","6500300","中和區"
"247009","KEA-2869","2018/08/14 14:39:41","新北市蘆洲區信義路222巷57號","121.480991666667","25.0855383333333","6501400","蘆洲區"
"235014","4979-A6","2018/08/14 14:39:38","新北市中和區錦和路350-1號","121.490526666667","24.9936166666667","6500300","中和區"
"235034","558-UM","2018/08/14 14:39:34","新北市中和區景平路477號","121.500245","24.99719","6500300","中和區"
"235009","565-BX","2018/08/14 14:39:32","新北市中和區景平路177號","121.511823333333","24.9925016666667","6500300","中和區"
"235018","640-BX","2018/08/14 14:39:30","新北市中和區莒光路207-8號","121.470473333333","24.9964","6500300","中和區"
"235024","647-TV","2018/08/14 14:39:26","新北市中和區中山路二段523巷1弄1號","121.481691666667","25.0049233333333","6500300","中和區"
"235010","733-UM","2018/08/14 14:39:32","新北市中和區信義街113號","121.512231666667","24.9869516666667","6500300","中和區"
"235026","800-TS","2018/08/14 14:39:32","新北市中和區中山路二段411號","121.486005","25.0042233333333","6500300","中和區"
"235021","801-TS","2018/08/14 14:39:36","新北市中和區員山路284號","121.481378333333","25.002195","6500300","中和區"
"235005","802-TS","2018/08/14 14:39:39","新北市中和區宜安路137號","121.509518333333","24.9984883333333","6500300","中和區"
"235016","805-TS","2018/08/14 14:39:25","新北市中和區華新街192巷10號","121.506608333333","24.9827016666667","6500300","中和區"
"235012","896-TW","2018/08/14 14:39:32","新北市中和區四維街19號","121.513046666667","24.9871066666667","6500300","中和區"
"235017","900-TW","2018/08/14 14:39:45","新北市中和區國光街140巷1號","121.46832","25.00145","6500300","中和區"
"235035","911-UM","2018/08/14 14:39:38","新北市中和區連城路270號","121.484706666667","24.9962316666667","6500300","中和區"
"235015","157-BY","2018/08/14 14:39:46","新北市中和區中興街180巷51弄6號","121.498688333333","24.98908","6500300","中和區"
"235001","AAC-213","2018/08/14 14:39:28","新北市中和區秀朗路三段93號","121.526526666667","24.9953233333333","6500300","中和區"
"235023","AAC-215","2018/08/14 14:39:25","新北市中和區圓通路305巷7弄1號","121.493645","24.9900283333333","6500300","中和區"
"220105","013-TV","2018/08/14 14:39:47","新北市板橋區文化路二段620號","121.478171666667","25.035605","6500100","板橋區"
"220013","072-UY","2018/08/14 14:39:41","新北市板橋區民族路270巷37號","121.469293333333","25.0060333333333","6500100","板橋區"
"220034","073-UY","2018/08/14 14:39:42","新北市板橋區中正路48號","121.456466666667","25.014195","6500100","板橋區"
"220017","AAD-861","2018/08/14 14:39:40","新北市板橋區稚暉街2巷52號","121.455308333333","25.00285","6500100","板橋區"
"247023","893-R6","2018/08/14 14:39:40","新北市蘆洲區正和街63巷9號","121.469203333333","25.0807033333333","6501400","蘆洲區"
"247013","546-UM","2018/08/14 14:39:28","新北市蘆洲區成功路129號","121.472356666667","25.0822266666667","6501400","蘆洲區"
"247011","339-TH","2018/08/14 14:39:39","新北市蘆洲區中興街55號","121.481426666667","25.0872883333333","6501400","蘆洲區"
"247003","337-TH","2018/08/14 14:39:30","新北市五股區中興路三段2巷10號","121.449043333333","25.0809333333333","6501400","蘆洲區"
"247005","336-TH","2018/08/14 14:39:28","新北市蘆洲區中華街28號","121.462715","25.0812516666667","6501400","蘆洲區"
"247007","056-VK","2018/08/14 14:39:44","新北市蘆洲區信義路56號","121.475336666667","25.0796783333333","6501400","蘆洲區"
"247001","053-VK","2018/08/14 14:39:36","新北市蘆洲區永樂街31巷7-1號","121.458203333333","25.0872166666667","6501400","蘆洲區"
"247015","007-UY","2018/08/14 14:39:34","新北市蘆洲區正和街27號","121.469743333333","25.0820183333333","6501400","蘆洲區"
"247019","001-UY","2018/08/14 14:39:34","新北市蘆洲區民義街90號","121.47358","25.09042","6501400","蘆洲區"
"235011","251-BX","2018/08/14 14:39:43","新北市中和區南山路283巷6號","121.504445","24.992325","6500300","中和區"
"228004","212-TW","2018/08/14 14:39:35","新北市貢寮區福隆里龜壽谷街30-4號","121.946893333333","25.0141883333333","6502600","貢寮區"
"228005","828-UM","2018/08/14 14:39:41","新北市貢寮區美豐里雞母嶺街6-6號","121.902116666667","25.0642083333333","6502600","貢寮區"
"207002","749-BX","2018/08/14 14:39:33","新北市萬里區崁腳里崁腳路73號","121.647626666667","25.1595783333333","6502800","萬里區"
"207004","291-VK","2018/08/14 14:16:18","新北市萬里區萬里里獅頭路23號","121.69386","25.1782533333333","6502800","萬里區"
"207001","662-BX","2018/08/14 14:39:35","新北市萬里區磺潭里員潭路54號","121.643506666667","25.1907316666667","6502800","萬里區"
"252005","AAC-283","2018/08/14 14:39:26","新北市三芝區埔坪里埔頭坑120號","121.518401666667","25.2450366666667","6502100","三芝區"
"236065","105-UM","2018/08/14 14:39:36","新北市土城區永豐路342-1號","121.47448","24.9764866666667","6501300","土城區"
"236040","107-UM","2018/08/14 14:39:33","新北市土城區裕民路92巷16弄2號","121.449931666667","24.9865233333333","6501300","土城區"
"236074","166-UM","2018/08/14 14:39:43","新北市土城區中央路四段52巷10號","121.420061666667","24.9608916666667","6501300","土城區"
"236029","253-BX","2018/08/14 14:39:35","新北市土城區中華路二段199號","121.438073333333","24.9741933333333","6501300","土城區"
"236024","269-VK","2018/08/14 14:39:44","新北市土城區千歲路13號","121.440968333333","24.969585","6501300","土城區"
"236013","270-VK","2018/08/14 14:39:27","新北市土城區清水路278巷28弄2號","121.462553333333","24.9825633333333","6501300","土城區"
"236032","271-VK","2018/08/14 14:39:41","新北市土城區明德路一段245號","121.4627","24.9780216666667","6501300","土城區"
"236017","401-BY","2018/08/14 14:39:33","新北市土城區延吉街270號","121.465861666667","24.984435","6501300","土城區"
"236057","912-UM","2018/08/14 14:39:10","新北市土城區中央路三段229號","121.42908","24.9643166666667","6501300","土城區"
"236045","913-UM","2018/08/14 14:39:41","新北市土城區金城路三段11號","121.464686666667","24.9861133333333","6501300","土城區"
"236060","915-UM","2018/08/14 14:39:43","新北市土城區延壽路13巷36號","121.470081666667","24.9913683333333","6501300","土城區"
"236054","AAC-216","2018/08/14 14:39:42","新北市土城區中華路一段25號","121.446441666667","24.9891383333333","6501300","土城區"
"221010","269-BY","2018/08/14 14:39:30","新北市汐止區伯爵街12巷22弄1號","121.642206666667","25.07711","6501100","汐止區"
"221032","280-BY","2018/08/14 14:39:25","新北市林口區太平里180號","121.368215","25.1344533333333","6501100","汐止區"
"220027","145-BY","2018/08/14 14:39:36","新北市板橋區建國街54巷18號","121.459551666667","25.0169466666667","6500100","板橋區"
"220028","200-UY","2018/08/14 14:39:38","新北市板橋區大觀路二段71號","121.446636666667","25.00235","6500100","板橋區"
"220030","610-BX","2018/08/14 14:39:42","新北市板橋區篤行路一段37號","121.432083333333","24.99398","6500100","板橋區"
"220050","245-BX","2018/08/14 14:39:41","新北市板橋區莒光路200巷26號","121.47315","25.0221833333333","6500100","板橋區"
"220040","267-BY","2018/08/14 14:39:43","新北市板橋區懷德街139巷1號","121.479335","25.0305566666667","6500100","板橋區"
"220004","276-BY","2018/08/14 14:39:30","新北市板橋區四川路二段47巷3弄2號","121.454268333333","24.994595","6500100","板橋區"
"220020","277-BY","2018/08/14 14:39:35","新北市板橋區金門街127巷13號","121.433538333333","24.99132","6500100","板橋區"
"220019","283-VK","2018/08/14 14:39:40","新北市板橋區五權街32巷32號","121.463768333333","24.9926566666667","6500100","板橋區"
"220043","285-UM","2018/08/14 14:39:33","新北市板橋區宏國路41號","121.468293333333","25.0318166666667","6500100","板橋區"
"220001","285-VK","2018/08/14 14:39:26","新北市板橋區民享街137巷1號","121.477015","25.01633","6500100","板橋區"
"220031","286-VK","2018/08/14 14:39:34","新北市板橋區龍興街63巷10號","121.442848333333","25.001425","6500100","板橋區"
"220029","287-VK","2018/08/14 14:39:39","新北市板橋區大觀路一段28巷28號","121.449933333333","25.0092933333333","6500100","板橋區"
"220039","288-VK","2018/08/14 14:39:30","新北市板橋區新海路431巷16號","121.45783","25.0269266666667","6500100","板橋區"
"220009","293-UM","2018/08/14 14:39:40","新北市板橋區中山路一段283巷16號","121.470291666667","25.015095","6500100","板橋區"
"220032","296-UM","2018/08/14 14:39:33","新北市樹林區水源街213號","121.42426","24.98709","6500100","板橋區"
"220023","303-R5","2018/08/14 14:39:29","新北市板橋區大勇街61號","121.453461666667","25.0168266666667","6500100","板橋區"
"220010","305-R5","2018/08/14 14:39:33","新北市板橋區三民路二段29巷15號","121.482023333333","25.01811","6500100","板橋區"
"220041","307-R5","2018/08/14 14:39:42","新北市板橋區自由路51巷24弄7-2號","121.464403333333","25.023395","6500100","板橋區"
"220047","317-R6","2018/08/14 14:39:35","新北市板橋區裕民街111巷8號","121.45985","25.0272766666667","6500100","板橋區"
"220012","486-VK","2018/08/14 14:39:41","新北市板橋區民族路68號","121.462728333333","25.0094866666667","6500100","板橋區"
"220037","491-VK","2018/08/14 14:39:31","新北市板橋區文化路二段580號","121.476703333333","25.0346716666667","6500100","板橋區"
"220104","560-BX","2018/08/14 14:39:37","新北市板橋區新生街29巷15弄6號","121.456306666667","25.022045","6500100","板橋區"
"220052","561-BX","2018/08/14 14:39:19","新北市板橋區文化路一段371號","121.467091666667","25.021465","6500100","板橋區"
"220011","609-BX","2018/08/14 14:39:38","新北市板橋區三民路一段31巷39-1號","121.480588333333","25.0231883333333","6500100","板橋區"
"220002","630-UY","2018/08/14 14:39:29","新北市板橋區實踐路75號","121.463831666667","25.00628","6500100","板橋區"
"220005","686-BX","2018/08/14 14:39:36","新北市板橋區和平路安樂巷53號","121.462325","24.9931233333333","6500100","板橋區"
"220025","687-BX","2018/08/14 14:39:34","新北市板橋區僑中二街120巷2號","121.445548333333","25.0060933333333","6500100","板橋區"
"220042","689-BX","2018/08/14 14:39:35","新北市板橋區新海路436號","121.458106666667","25.0277783333333","6500100","板橋區"
"220051","KEA-2699","2018/08/14 14:39:28","新北市板橋區雙十路二段46巷20號","121.476283333333","25.02814","6500100","板橋區"
"220003","827-TW","2018/08/14 14:39:30","新北市板橋區國慶路149巷13弄1-2號","121.460885","24.9971333333333","6500100","板橋區"
"220014","829-TW","2018/08/14 14:39:42","新北市板橋區長安街251巷24號","121.472235","25.0108833333333","6500100","板橋區"
"220016","830-TW","2018/08/14 14:39:40","新北市板橋區中山路二段416巷33號","121.48325","25.019885","6500100","板橋區"
"220045","831-TW","2018/08/14 14:39:39","新北市板橋區民生路二段226巷19號","121.470756666667","25.02191","6500100","板橋區"
"220038","833-TW","2018/08/14 14:39:24","新北市板橋區英士路49-1號","121.461121666667","25.0245633333333","6500100","板橋區"
"220022","895-R6","2018/08/14 14:39:42","新北市板橋區縣民大道一段322號","121.461643333333","25.0110966666667","6500100","板橋區"
"220021","985-R7","2018/08/14 14:39:43","新北市板橋區大仁街89-1號","121.453465","25.0160133333333","6500100","板橋區"
"220046","AAC-210","2018/08/14 14:39:30","新北市板橋區漢生西路87號","121.462388333333","25.0195","6500100","板橋區"
"220018","AAC-253","2018/08/14 14:39:34","新北市板橋區民族路231號","121.469801666667","25.0071333333333","6500100","板橋區"
"235032","KEA-2873","2018/08/14 14:39:40","新北市中和區中山路二段250巷14號","121.497508333333","25.0030866666667","6500300","中和區"
