"lineid","car","time","location","longitude","latitude","cityid","cityname"
"234070","149-BY","2018/08/14 14:59:43","新北市三重區光復路二段175號","121.472653333333","25.0618066666667","6500400","永和區"
"234040","862-TW","2018/08/14 14:59:41","新北市五股區凌雲路三段24巷10號","121.43578","25.1070916666667","6500400","永和區"
"248017","225-UY","2018/08/14 14:59:36","新北市五股區登林路83號","121.426468333333","25.07061","6501500","五股區"
"244010","701-TV","2018/08/14 14:59:28","新北市林口區粉寮路二段160巷40號","121.40558","25.09111","6501700","林口區"
"231006","001-UM","2018/08/14 14:59:46","新北市新店區新坡一街72號","121.548931666667","24.9645433333333","6500600","新店區"
"231002","002-UM","2018/08/14 14:59:32","新北市新店區民權路178號","121.534723333333","24.98279","6500600","新店區"
"231028","046-UY","2018/08/14 14:59:32","新北市新店區安豐路5號","121.501703333333","24.9572533333333","6500600","新店區"
"231001","047-UY","2018/08/14 14:59:35","新北市新店區中正路270號","121.538958333333","24.9736016666667","6500600","新店區"
"231005","106-UY","2018/08/14 14:59:36","新北市新店區復興路36號","121.539","24.98676","6500600","新店區"
"231020","110-UY","2018/08/14 14:59:43","新北市新店區新烏路二段9號","121.544998333333","24.92918","6500600","新店區"
"231012","187-VK","2018/08/14 14:59:38","新北市新店區寶橋路97號","121.547228333333","24.9762933333333","6500600","新店區"
"231023","KEA-2219","2018/08/14 14:59:41","新北市新店區檳榔路150號","121.544311666667","24.96155","6500600","新店區"
"231026","256-BX","2018/08/14 14:59:32","新北市新店區博愛街3號","121.54068","24.9726733333333","6500600","新店區"
"231003","268-BY","2018/08/14 14:59:44","新北市新店區中興路一段306號","121.546388333333","24.9698116666667","6500600","新店區"
"231018","278-BY","2018/08/14 14:59:30","新北市新店區中央路192號","121.53085","24.9748366666667","6500600","新店區"
"231015","AAD-862","2018/08/14 14:59:31","新北市新店區北宜路二段579巷1-1號","121.565268333333","24.9534516666667","6500600","新店區"
"231004","355-BY","2018/08/14 14:59:40","新北市新店區建國路110號","121.539703333333","24.9780333333333","6500600","新店區"
"231038","3712-VJ","2018/08/14 14:59:33","新北市新店區安華路28-1號","121.519695","24.960905","6500600","新店區"
"231037","4716-K9","2018/08/14 14:59:41","新北市新店區薏仁坑路自強巷6號","121.497003333333","24.9586216666667","6500600","新店區"
"231025","4715-K9","2018/08/14 14:59:38","新北市新店區二十張路33巷30號","121.539575","24.9803966666667","6500600","新店區"
"231036","512-UM","2018/08/14 14:59:38","新北市新店區安祥路102巷28號","121.484105","24.9640066666667","6500600","新店區"
"231030","619-UM","2018/08/14 14:59:26","新北市新店區安民街341-1號","121.516863333333","24.9748966666667","6500600","新店區"
"231034","641-BX","2018/08/14 14:59:45","新北市新店區玫瑰路4-1號","121.493671666667","24.9514366666667","6500600","新店區"
"231039","718-UY","2018/08/14 14:59:23","新北市新店區寶興路43號","121.549161666667","24.9736566666667","6500600","新店區"
"231035","719-UM","2018/08/14 14:59:35","新北市新店區安和路二段238號","121.516618333333","24.9781366666667","6500600","新店區"
"231032","720-UM","2018/08/14 14:59:38","新北市新店區安泰路60巷53-2號","121.484011666667","24.9456766666667","6500600","新店區"
"231029","897-TW","2018/08/14 14:59:39","新北市新店區安康路三段561巷2弄12號","121.475815","24.944195","6500600","新店區"
"231024","AKT-0513","2018/08/14 14:59:35","新北市新店區中華路83巷67號","121.538376666667","24.9672566666667","6500600","新店區"
"241028","022-UY","2018/08/14 14:59:26","新北市五股區四維路2號","121.467226666667","25.0699316666667","6500200","三重區"
"241008","059-VK","2018/08/14 14:59:37","新北市三重區重新路四段121號","121.484691666667","25.0515316666667","6500200","三重區"
"241003","091-VK","2018/08/14 14:59:45","新北市三重區新北大道一段252號","121.479886666667","25.06142","6500200","三重區"
"241005","262-UM","2018/08/14 14:59:40","新北市五股區中興路三段163號","121.44925","25.0807283333333","6500200","三重區"
"235030","003-UY","2018/08/14 14:59:32","新北市中和區中山路二段23號","121.504845","25.0053333333333","6500300","中和區"
"235020","096-UM","2018/08/14 14:59:29","新北市中和區中山路三段136巷2號","121.473973333333","25.0065033333333","6500300","中和區"
"235003","097-UM","2018/08/14 14:59:36","新北市中和區宜安路52巷24號","121.512658333333","24.99745","6500300","中和區"
"235029","098-UM","2018/08/14 14:59:33","新北市中和區福美路319號","121.49662","25.0046733333333","6500300","中和區"
"235004","150-BY","2018/08/14 14:59:28","新北市中和區景安路79巷27-3號","121.507123333333","24.9965533333333","6500300","中和區"
"235008","293-VK","2018/08/14 14:59:45","新北市中和區板南路188-1號","121.50043","24.99281","6500300","中和區"
"235036","301-VK","2018/08/14 14:59:31","新北市中和區板南路386號","121.49336","24.9992116666667","6500300","中和區"
"235007","352-BY","2018/08/14 14:59:41","新北市中和區興南路二段9號","121.508021666667","24.9861866666667","6500300","中和區"
"235014","4979-A6","2018/08/14 14:59:38","新北市中和區景平路187號","121.511561666667","24.9925916666667","6500300","中和區"
"235033","4980-A6","2018/08/14 14:58:37","新北市中和區景平路634-2號","121.500848333333","24.998375","6500300","中和區"
"235034","558-UM","2018/08/14 14:59:34","新北市中和區中正路637巷52弄1號","121.485526666667","24.99402","6500300","中和區"
"235018","640-BX","2018/08/14 14:59:30","新北市中和區民樂路36號","121.483008333333","25.0012733333333","6500300","中和區"
"235010","733-UM","2018/08/14 14:59:32","新北市中和區興南路一段105巷20弄4號","121.510241666667","24.98584","6500300","中和區"
"235012","896-TW","2018/08/14 14:59:32","新北市中和區忠孝街1巷2-1號","121.509153333333","24.9830816666667","6500300","中和區"
"235035","911-UM","2018/08/14 14:59:38","新北市中和區建三路69號","121.486176666667","25.0014733333333","6500300","中和區"
"235015","157-BY","2018/08/14 14:59:26","新北市中和區景安路220巷20號","121.50282","24.9914733333333","6500300","中和區"
"235001","AAC-213","2018/08/14 14:59:28","新北市中和區自立路99巷24號","121.523363333333","24.994635","6500300","中和區"
"235023","AAC-215","2018/08/14 14:59:45","新北市中和區圓通路365號","121.491351666667","24.98968","6500300","中和區"
"220105","013-TV","2018/08/14 14:59:47","新北市板橋區文化路二段417巷14號","121.474028333333","25.03332","6500100","板橋區"
"220013","072-UY","2018/08/14 14:59:41","新北市板橋區中山路一段154巷3弄2號","121.465441666667","25.0104466666667","6500100","板橋區"
"220017","AAD-861","2018/08/14 14:59:30","新北市板橋區大明街25巷2弄17號","121.45756","25.0025483333333","6500100","板橋區"
"247006","336-TH","2018/08/14 14:55:33","新北市五股區中興路三段163號","121.449355","25.0807283333333","6501400","蘆洲區"
"228004","212-TW","2018/08/14 14:59:35","新北市貢寮區雙玉里田寮洋街24號","121.928905","25.01781","6502600","貢寮區"
"207002","749-BX","2018/08/14 14:59:33","新北市萬里區崁腳里崁腳路60-1號","121.648235","25.1603066666667","6502800","萬里區"
"207001","662-BX","2018/08/14 14:59:35","新北市萬里區雙興里二坪路9號","121.645998333333","25.1750033333333","6502800","萬里區"
"236065","105-UM","2018/08/14 14:59:36","新北市土城區裕生路84巷16號","121.446623333333","24.98567","6501300","土城區"
"236040","107-UM","2018/08/14 14:59:33","新北市土城區學士路29號","121.453048333333","24.9823783333333","6501300","土城區"
"236074","166-UM","2018/08/14 14:59:43","新北市土城區中央路四段69號","121.417826666667","24.95794","6501300","土城區"
"236029","253-BX","2018/08/14 14:59:35","新北市土城區中央路二段144號","121.442035","24.9771516666667","6501300","土城區"
"236024","269-VK","2018/08/14 14:59:44","新北市土城區中正路74巷3弄1號","121.444746666667","24.9748466666667","6501300","土城區"
"236013","270-VK","2018/08/14 14:59:47","新北市土城區永豐路13巷1-1號","121.461616666667","24.9888366666667","6501300","土城區"
"236032","271-VK","2018/08/14 14:59:33","新北市土城區清水路146號","121.459128333333","24.98145","6501300","土城區"
"236017","401-BY","2018/08/14 14:59:33","新北市土城區延吉街166號","121.468418333333","24.9853766666667","6501300","土城區"
"236057","912-UM","2018/08/14 14:59:30","新北市土城區金城路二段206號","121.455176666667","24.9820233333333","6501300","土城區"
"236045","913-UM","2018/08/14 14:59:43","新北市土城區明德路一段280號","121.457483333333","24.97749","6501300","土城區"
"236060","915-UM","2018/08/14 14:59:43","新北市土城區金城路三段93巷26號","121.466875","24.9886733333333","6501300","土城區"
"236054","AAC-216","2018/08/14 14:59:42","新北市土城區學成路122號","121.44944","24.9895283333333","6501300","土城區"
"221010","269-BY","2018/08/14 14:59:30","新北市汐止區汐萬路一段256巷3號","121.652118333333","25.0747883333333","6501100","汐止區"
"221032","280-BY","2018/08/14 14:59:45","新北市五股區成洲一路23號","121.449801666667","25.095685","6501100","汐止區"
"220027","145-BY","2018/08/14 14:59:24","新北市板橋區南雅西路二段233號","121.451045","25.013885","6500100","板橋區"
"220030","610-BX","2018/08/14 14:59:33","新北市板橋區篤行路一段29號","121.43203","24.994805","6500100","板橋區"
"220050","245-BX","2018/08/14 14:59:42","新北市板橋區莒光路167-4號","121.474366666667","25.0234566666667","6500100","板橋區"
"220040","267-BY","2018/08/14 14:59:36","新北市板橋區民治街138號","121.477556666667","25.0307783333333","6500100","板橋區"
"220019","283-VK","2018/08/14 14:59:40","新北市板橋區國慶路7號","121.457871666667","24.9952716666667","6500100","板橋區"
"220043","285-UM","2018/08/14 14:59:29","新北市板橋區陽明街239號","121.463251666667","25.0245366666667","6500100","板橋區"
"220001","285-VK","2018/08/14 14:59:40","新北市板橋區永豐街155號","121.475285","25.0202466666667","6500100","板橋區"
"220031","286-VK","2018/08/14 14:59:43","新北市板橋區僑中二街88巷21號","121.445243333333","25.0095383333333","6500100","板橋區"
"220029","287-VK","2018/08/14 14:59:39","新北市板橋區僑中一街102巷7弄2號","121.446821666667","25.0128916666667","6500100","板橋區"
"220039","288-VK","2018/08/14 14:59:30","新北市板橋區幸福路32巷54號","121.460445","25.02223","6500100","板橋區"
"220009","293-UM","2018/08/14 14:59:40","新北市板橋區觀光街2-1號","121.472385","25.0153716666667","6500100","板橋區"
"220023","303-R5","2018/08/14 14:59:28","新北市板橋區金華街21巷1號","121.45568","25.0204033333333","6500100","板橋區"
"220010","305-R5","2018/08/14 14:59:33","新北市板橋區萬安街146號","121.483308333333","25.0261916666667","6500100","板橋區"
"220041","307-R5","2018/08/14 14:59:42","新北市板橋區裕民街128巷3號","121.45885","25.02773","6500100","板橋區"
"220047","317-R6","2018/08/14 14:59:43","新北市板橋區新海路72巷5弄4號","121.462105","25.0222066666667","6500100","板橋區"
"220012","486-VK","2018/08/14 14:59:41","新北市板橋區漢生東路195號","121.470046666667","25.0113816666667","6500100","板橋區"
"220037","491-VK","2018/08/14 14:59:31","新北市板橋區懷德街61號","121.477516666667","25.032495","6500100","板橋區"
"220052","561-BX","2018/08/14 14:59:39","新北市板橋區文化路一段435巷31弄11號","121.46682","25.02296","6500100","板橋區"
"220011","609-BX","2018/08/14 14:59:38","新北市板橋區三民路一段107號","121.479388333333","25.02138","6500100","板橋區"
"220002","630-UY","2018/08/14 14:59:44","新北市板橋區忠孝路忠義巷9弄44號","121.465215","25.0045566666667","6500100","板橋區"
"220005","686-BX","2018/08/14 14:59:30","新北市板橋區華東街1-10號","121.448411666667","24.9950683333333","6500100","板橋區"
"220025","687-BX","2018/08/14 14:59:34","新北市板橋區大觀路一段29巷47-1號","121.451361666667","25.0075033333333","6500100","板橋區"
"220042","689-BX","2018/08/14 14:59:35","新北市板橋區文化路二段604號","121.47711","25.0349533333333","6500100","板橋區"
"220051","KEA-2699","2018/08/14 14:59:28","新北市板橋區文聖街49號","121.476543333333","25.0314166666667","6500100","板橋區"
"220003","827-TW","2018/08/14 14:59:30","新北市板橋區重慶路290巷22弄2號","121.462348333333","24.9990716666667","6500100","板橋區"
"220014","829-TW","2018/08/14 14:59:39","新北市板橋區漢生東路163號","121.469261666667","25.0125666666667","6500100","板橋區"
"220016","830-TW","2018/08/14 14:59:39","新北市板橋區中山路二段318巷2弄2號","121.480393333333","25.0191233333333","6500100","板橋區"
"220038","833-TW","2018/08/14 14:59:44","新北市板橋區龍泉街108巷11號","121.45633","25.0244433333333","6500100","板橋區"
"220046","AAC-210","2018/08/14 14:59:44","新北市板橋區光正街9巷22弄12號","121.462091666667","25.0167616666667","6500100","板橋區"
"220018","AAC-253","2018/08/14 14:59:34","新北市板橋區四川路一段133號","121.459843333333","25.004485","6500100","板橋區"
"235032","KEA-2873","2018/08/14 14:59:23","新北市中和區福祥路8號","121.499551666667","25.0030016666667","6500300","中和區"
