"lineid","car","time","location","longitude","latitude","cityid","cityname"
"234070","149-BY","2018/08/14 15:09:43","新北市中和區橋和路241號","121.494411666667","25.00663","6500400","永和區"
"234040","862-TW","2018/08/14 15:09:41","新北市八里區中山路三段386號","121.368483333333","25.1360566666667","6500400","永和區"
"248017","225-UY","2018/08/14 15:09:36","新北市五股區登林路97-2號","121.415791666667","25.0754483333333","6501500","五股區"
"244010","701-TV","2018/08/14 15:00:20","新北市林口區粉寮路二段160巷40號","121.40557","25.09113","6501700","林口區"
"231006","001-UM","2018/08/14 15:09:06","新北市新店區新坡一街18巷8弄2號","121.550166666667","24.9612316666667","6500600","新店區"
"231002","002-UM","2018/08/14 15:09:33","新北市新店區中正路545號","121.533768333333","24.9876466666667","6500600","新店區"
"231028","046-UY","2018/08/14 15:09:32","新北市新店區僑信路132巷1號","121.500706666667","24.9457733333333","6500600","新店區"
"231001","047-UY","2018/08/14 15:09:35","新北市新店區中正路232號","121.539921666667","24.9728966666667","6500600","新店區"
"231005","106-UY","2018/08/14 15:09:36","新北市新店區順安街30號","121.541123333333","24.98543","6500600","新店區"
"231020","110-UY","2018/08/14 15:09:43","新北市新店區永福路54號","121.558115","24.928705","6500600","新店區"
"231012","187-VK","2018/08/14 15:09:38","新北市新店區寶元路一段65號","121.542256666667","24.98584","6500600","新店區"
"231023","KEA-2219","2018/08/14 15:09:41","新北市新店區檳榔路109號","121.54429","24.9616966666667","6500600","新店區"
"231026","256-BX","2018/08/14 15:09:32","新北市新店區建國路74號","121.540555","24.9761983333333","6500600","新店區"
"231003","268-BY","2018/08/14 15:09:47","新北市新店區寶橋路103號","121.54826","24.9768333333333","6500600","新店區"
"231018","278-BY","2018/08/14 15:09:30","新北市新店區中央六街47號","121.5284","24.9756633333333","6500600","新店區"
"231015","AAD-862","2018/08/14 15:09:31","新北市新店區明山路140號","121.565861666667","24.9592316666667","6500600","新店區"
"231004","355-BY","2018/08/14 15:09:29","新北市新店區博愛街13巷23號","121.54031","24.974085","6500600","新店區"
"231038","3712-VJ","2018/08/14 15:09:33","新北市新店區安華路28-1號","121.519701666667","24.9609183333333","6500600","新店區"
"231025","4715-K9","2018/08/14 15:09:38","新北市新店區中正路485號","121.533733333333","24.98197","6500600","新店區"
"231036","512-UM","2018/08/14 15:09:45","新北市新店區安祥路102巷76號","121.485785","24.9639633333333","6500600","新店區"
"231030","619-UM","2018/08/14 15:09:46","新北市新店區安民街341號","121.516966666667","24.9749766666667","6500600","新店區"
"231034","641-BX","2018/08/14 15:09:45","新北市新店區玫瑰路4-1號","121.493643333333","24.9513916666667","6500600","新店區"
"231039","718-UY","2018/08/14 15:09:43","新北市新店區寶安街6巷2號","121.542321666667","24.981295","6500600","新店區"
"231035","719-UM","2018/08/14 15:09:15","新北市新店區永安街34巷9號","121.518001666667","24.9859933333333","6500600","新店區"
"231032","720-UM","2018/08/14 15:09:38","新北市新店區安泰路177號","121.490935","24.9321133333333","6500600","新店區"
"231029","897-TW","2018/08/14 15:09:39","新北市新店區安康路三段716號","121.473978333333","24.942065","6500600","新店區"
"231024","AKT-0513","2018/08/14 15:09:35","新北市新店區北新路一段297巷34號","121.540461666667","24.968415","6500600","新店區"
"241028","022-UY","2018/08/14 15:09:26","新北市五股區中興路三段2巷10號","121.44925","25.0807983333333","6500200","三重區"
"241008","059-VK","2018/08/14 15:09:37","新北市三重區光復路二段131號","121.47221","25.0589266666667","6500200","三重區"
"241017","063-VK","2018/08/14 15:09:37","新北市三重區重新路四段121號","121.48507","25.0520033333333","6500200","三重區"
"241003","091-VK","2018/08/14 15:09:25","新北市五股區更洲路70號","121.453068333333","25.0787233333333","6500200","三重區"
"241005","262-UM","2018/08/14 15:09:40","新北市五股區中興路三段163號","121.448838333333","25.0808683333333","6500200","三重區"
"241019","KEA-2593","2018/08/14 15:09:27","新北市三重區重新路四段121號","121.484615","25.052285","6500200","三重區"
"235030","003-UY","2018/08/14 15:09:32","新北市中和區水源路154巷4號","121.508138333333","25.0032483333333","6500300","中和區"
"235020","096-UM","2018/08/14 15:09:29","新北市中和區中山路三段144號","121.47369","25.0062866666667","6500300","中和區"
"235004","150-BY","2018/08/14 15:09:28","新北市中和區保健路10巷21弄31號","121.508536666667","24.9977633333333","6500300","中和區"
"235007","352-BY","2018/08/14 15:09:41","新北市中和區興南路二段159巷1號","121.505356666667","24.9832866666667","6500300","中和區"
"235014","4979-A6","2018/08/14 15:09:41","新北市中和區安樂路1號","121.511625","24.99184","6500300","中和區"
"235033","4980-A6","2018/08/14 15:09:33","新北市中和區南山路81巷63號","121.50435","24.9978916666667","6500300","中和區"
"235012","896-TW","2018/08/14 15:09:32","新北市中和區興南路一段151號","121.508556666667","24.987245","6500300","中和區"
"235035","911-UM","2018/08/14 15:09:37","新北市中和區中山路二段546號","121.485061666667","25.0050066666667","6500300","中和區"
"235001","AAC-213","2018/08/14 15:09:28","新北市中和區自立路193號","121.524216666667","24.9913616666667","6500300","中和區"
"235023","AAC-215","2018/08/14 15:09:25","新北市中和區圓通路335巷37弄12號","121.493741666667","24.98893","6500300","中和區"
"220017","AAD-861","2018/08/14 15:09:30","新北市板橋區南雅南路二段1-1號","121.454725","25.003625","6500100","板橋區"
"247006","336-TH","2018/08/14 14:55:33","新北市五股區中興路三段163號","121.449355","25.0807283333333","6501400","蘆洲區"
"228004","212-TW","2018/08/14 15:09:35","新北市貢寮區雙玉里田寮洋街16-2號","121.921853333333","25.0251083333333","6502600","貢寮區"
"207002","749-BX","2018/08/14 15:09:42","新北市萬里區崁腳里內中福路66號","121.655356666667","25.1667583333333","6502800","萬里區"
"207001","662-BX","2018/08/14 15:09:35","新北市萬里區雙興里麗水路8-1號","121.649921666667","25.1872783333333","6502800","萬里區"
"236065","105-UM","2018/08/14 15:09:36","新北市土城區學成路132號","121.449076666667","24.9896683333333","6501300","土城區"
"236040","107-UM","2018/08/14 15:09:33","新北市土城區金城路二段245巷52號","121.455121666667","24.983565","6501300","土城區"
"236074","166-UM","2018/08/14 15:09:43","新北市土城區中州路1-7號","121.414316666667","24.9571483333333","6501300","土城區"
"236029","253-BX","2018/08/14 15:09:37","新北市土城區中央路一段318巷35號","121.441973333333","24.981965","6501300","土城區"
"236024","269-VK","2018/08/14 15:09:44","新北市土城區中央路二段179號","121.442241666667","24.9760033333333","6501300","土城區"
"236013","270-VK","2018/08/14 15:09:27","新北市土城區學府路一段23巷23號","121.457785","24.9870316666667","6501300","土城區"
"236032","271-VK","2018/08/14 15:09:33","新北市土城區明德路一段153號","121.464881666667","24.9798233333333","6501300","土城區"
"236017","401-BY","2018/08/14 15:09:33","新北市土城區明峰街83號","121.468961666667","24.9873233333333","6501300","土城區"
"236057","912-UM","2018/08/14 15:09:30","新北市土城區金城路一段131號","121.444831666667","24.9737283333333","6501300","土城區"
"236045","913-UM","2018/08/14 15:09:44","新北市土城區清水路211號","121.460416666667","24.9819766666667","6501300","土城區"
"236060","915-UM","2018/08/14 15:09:43","新北市中和區莒光路260-1號","121.467468333333","24.9935016666667","6501300","土城區"
"236054","AAC-216","2018/08/14 15:09:42","新北市土城區學府路一段276號","121.450255","24.9833233333333","6501300","土城區"
"220050","245-BX","2018/08/14 15:09:39","新北市板橋區莊敬路75巷31號","121.473848333333","25.0263016666667","6500100","板橋區"
"220043","285-UM","2018/08/14 15:09:29","新北市板橋區民生路二段56-6號","121.471","25.0191733333333","6500100","板橋區"
"220031","286-VK","2018/08/14 15:09:34","新北市板橋區僑中二街100巷26號","121.444936666667","25.0086716666667","6500100","板橋區"
"220009","293-UM","2018/08/14 15:09:40","新北市板橋區館前東路1號","121.459425","25.0071333333333","6500100","板橋區"
"220010","305-R5","2018/08/14 15:09:33","新北市板橋區民生路二段161巷1號","121.470248333333","25.01998","6500100","板橋區"
"220041","307-R5","2018/08/14 15:09:42","新北市板橋區文化路一段45巷18號","121.460391666667","25.0140683333333","6500100","板橋區"
"220052","561-BX","2018/08/14 15:09:39","新北市板橋區陽明街279巷24-4號","121.46113","25.0257266666667","6500100","板橋區"
"220011","609-BX","2018/08/14 15:09:38","新北市板橋區中山路二段287號","121.478188333333","25.0180616666667","6500100","板橋區"
"220042","689-BX","2018/08/14 15:09:35","新北市板橋區長江路二段59號","121.464611666667","25.0314533333333","6500100","板橋區"
"220051","KEA-2699","2018/08/14 15:09:28","新北市板橋區文聖街109號","121.477843333333","25.029325","6500100","板橋區"
"220003","827-TW","2018/08/14 15:09:30","新北市板橋區仁愛路23號","121.458908333333","24.9995033333333","6500100","板橋區"
"220014","829-TW","2018/08/14 15:09:33","新北市板橋區中山路一段206巷25號","121.470376666667","25.0131483333333","6500100","板橋區"
"220016","830-TW","2018/08/14 15:09:39","新北市板橋區光復街230號","121.484845","25.021375","6500100","板橋區"
"220038","833-TW","2018/08/14 15:09:44","新北市板橋區互助街104號","121.459858333333","25.0259983333333","6500100","板橋區"
"220046","AAC-210","2018/08/14 15:09:45","新北市板橋區光正街23巷52號","121.461411666667","25.0154883333333","6500100","板橋區"
"220018","AAC-253","2018/08/14 15:09:34","新北市板橋區四川路二段245巷121號","121.453103333333","24.99243","6500100","板橋區"
