"lineid","car","time","location","longitude","latitude","cityid","cityname"
"234026","9371-KE","2018/08/14 18:16:05","新北市永和區自由街33號","121.514373333333","25.00636","6500400","永和區"
"249005","172-UM","2018/08/14 18:16:17","新北市八里區荖阡坑路15-40號","121.40164","25.1399433333333","6502300","八里區"
"249001","173-UM","2018/08/14 18:15:59","新北市八里區龍米路一段221號","121.451445","25.1318183333333","6502300","八里區"
"249004","303-UY","2018/08/14 18:16:08","新北市八里區龍米路二段206巷3號","121.432793333333","25.15906","6502300","八里區"
"249002","305-UY","2018/08/14 18:16:07","新北市八里區龍形三街9巷2號","121.450665","25.1319116666667","6502300","八里區"
"248016","026-BX","2018/08/14 18:16:16","新北市五股區西雲路134號","121.445428333333","25.09382","6501500","五股區"
"248006","077-UY","2018/08/14 18:16:12","新北市五股區中興路二段1號","121.46331","25.07417","6501500","五股區"
"248008","095-VK","2018/08/14 18:16:16","新北市五股區更洲路32巷8弄13號","121.459806666667","25.079705","6501500","五股區"
"248020","225-UY","2018/08/14 18:16:08","新北市五股區孝義路47巷10號","121.453615","25.110175","6501500","五股區"
"248012","247-BX","2018/08/14 18:16:18","新北市五股區御史路1巷75號","121.441186666667","25.0904833333333","6501500","五股區"
"248014","261-SL","2018/08/14 18:16:09","新北市五股區成泰路一段191號","121.434865","25.0765333333333","6501500","五股區"
"248004","677-BX","2018/08/14 18:16:13","新北市五股區中興路四段59號","121.437853333333","25.082815","6501500","五股區"
"248002","678-BX","2018/08/14 18:16:07","新北市五股區西雲路16號","121.443106666667","25.090335","6501500","五股區"
"248010","682-TV","2018/08/14 18:16:11","新北市五股區成泰路一段189巷20-2號","121.433266666667","25.0769316666667","6501500","五股區"
"244007","080-UY","2018/08/14 18:16:06","新北市林口區林口路124巷10弄5號","121.389146666667","25.0816266666667","6501700","林口區"
"244019","403-UM","2018/08/14 18:16:17","新北市林口區忠孝路561巷10號","121.373241666667","25.0687783333333","6501700","林口區"
"244013","KEA-2802","2018/08/14 18:16:14","新北市林口區中山路188-2號","121.389238333333","25.0789516666667","6501700","林口區"
"244009","410-SL","2018/08/14 18:16:07","新北市林口區文林二街28號","121.376303333333","25.0882916666667","6501700","林口區"
"244023","483-VK","2018/08/14 18:16:13","新北市林口區東湖路153巷135號","121.382258333333","25.073555","6501700","林口區"
"244017","485-VK","2018/08/14 18:16:12","新北市林口區八德路48巷76號","121.36727","25.0674283333333","6501700","林口區"
"244011","657-BX","2018/08/14 18:16:09","新北市林口區中正路74巷5弄1號","121.394583333333","25.07798","6501700","林口區"
"244025","837-TS","2018/08/14 18:16:19","新北市林口區南勢六街18號","121.357125","25.0706383333333","6501700","林口區"
"244021","838-TS","2018/08/14 18:16:01","新北市林口區自強一街48號","121.399315","25.07746","6501700","林口區"
"243013","AAD-798","2018/08/14 18:15:23","新北市泰山區南林路103號","121.415393333333","25.044195","6501600","泰山區"
"222003","436-BY","2018/08/14 18:16:11","新北市深坑區旺耽路67號","121.626243333333","25.0030116666667","6501800","深坑區"
"222002","659-BX","2018/08/14 18:16:14","新北市深坑區文化街14號","121.620223333333","25.00142","6501800","深坑區"
"231045","001-UM","2018/08/14 18:16:08","新北市新店區安華路28-1號","121.519466666667","24.9609666666667","6500600","新店區"
"231041","002-UM","2018/08/14 18:16:07","新北市新店區安華路28-1號","121.51955","24.9607016666667","6500600","新店區"
"231059","046-UY","2018/08/14 18:16:02","新北市新店區安華路28-1號","121.519508333333","24.9608816666667","6500600","新店區"
"231040","047-UY","2018/08/14 18:16:14","新北市新店區安一路一段1-1號","121.518931666667","24.961085","6500600","新店區"
"231044","106-UY","2018/08/14 18:16:16","新北市新店區安華路28-1號","121.519713333333","24.9607883333333","6500600","新店區"
"231046","107-UY","2018/08/14 18:16:06","新北市新店區直潭七街60號","121.532251666667","24.939915","6500600","新店區"
"231053","110-UY","2018/08/14 18:16:12","新北市新店區安一路一段1-1號","121.519768333333","24.9615866666667","6500600","新店區"
"231048","187-VK","2018/08/14 18:16:00","新北市新店區安一路一段1-1號","121.520035","24.96114","6500600","新店區"
"231054","KEA-2219","2018/08/14 18:16:10","新北市新店區安華路28-1號","121.51989","24.9610516666667","6500600","新店區"
"221031","KEA-2785","2018/08/14 18:16:13","新北市汐止區中興路108號","121.633288333333","25.0636966666667","6501100","汐止區"
"231057","256-BX","2018/08/14 18:16:03","新北市新店區安一路一段1-1號","121.519531666667","24.9611716666667","6500600","新店區"
"231042","268-BY","2018/08/14 18:16:16","新北市新店區安華路1-1號","121.519386666667","24.960415","6500600","新店區"
"231050","AAD-862","2018/08/14 18:16:02","新北市新店區安一路一段1-1號","121.520023333333","24.9611266666667","6500600","新店區"
"231043","355-BY","2018/08/14 18:16:09","新北市新店區安華路3號","121.518935","24.9606633333333","6500600","新店區"
"231058","3713-VJ","2018/08/14 18:16:07","新北市新店區安康路一段222-3號","121.522583333333","24.9637233333333","6500600","新店區"
"231066","4716-K9","2018/08/14 18:16:03","新北市新店區安華路28-1號","121.519948333333","24.9609933333333","6500600","新店區"
"231056","4715-K9","2018/08/14 18:16:03","新北市新店區環河路121號","121.529631666667","24.9718516666667","6500600","新店區"
"231067","4772-VM","2018/08/14 18:16:15","新北市新店區安華路28-1號","121.519","24.9607716666667","6500600","新店區"
"231049","513-UM","2018/08/14 18:16:03","新北市新店區安一路一段1-1號","121.51965","24.9612333333333","6500600","新店區"
"231061","619-UM","2018/08/14 18:16:14","新北市新店區安華路1-1號","121.519411666667","24.9603716666667","6500600","新店區"
"231063","641-BX","2018/08/14 18:16:11","新北市新店區安華路1-1號","121.519511666667","24.9604366666667","6500600","新店區"
"231064","719-UM","2018/08/14 18:16:11","新北市新店區安一路一段1-1號","121.519405","24.9612683333333","6500600","新店區"
"231062","720-UM","2018/08/14 18:16:11","新北市新店區安一路一段1-1號","121.519105","24.9614","6500600","新店區"
"231060","897-TW","2018/08/14 18:16:08","新北市新店區安華路28-1號","121.519458333333","24.9606666666667","6500600","新店區"
"231055","AKT-0513","2018/08/14 18:16:13","新北市新店區秀山路66號","121.530841666667","24.96098","6500600","新店區"
"241033","AAC-255","2018/08/14 18:16:02","新北市三重區中興北街42巷17弄8號","121.468935","25.0500216666667","6500200","三重區"
"235030","003-UY","2018/08/14 18:16:09","新北市中和區中山路二段120號","121.502655","25.0037466666667","6500300","中和區"
"235064","005-UY","2018/08/14 18:16:14","新北市中和區中正路166號","121.498353333333","24.9938883333333","6500300","中和區"
"235063","006-UY","2018/08/14 18:16:02","新北市中和區中正路525號","121.48792","24.9938033333333","6500300","中和區"
"235056","096-UM","2018/08/14 18:15:58","新北市中和區中正路839巷33號","121.483625","25.00207","6500300","中和區"
"235039","097-UM","2018/08/14 18:16:20","新北市中和區中正路169號","121.497981666667","24.9936683333333","6500300","中和區"
"235065","098-UM","2018/08/14 18:16:13","新北市中和區莊敬路49巷18號","121.501656666667","25.0061366666667","6500300","中和區"
"235040","150-BY","2018/08/14 18:16:00","新北市中和區中正路2號","121.503173333333","24.9938166666667","6500300","中和區"
"235058","151-BY","2018/08/14 18:16:14","新北市中和區圓通路367巷15-1號","121.492221666667","24.987425","6500300","中和區"
"235055","183-VK","2018/08/14 18:16:03","新北市中和區連城路523巷13弄28號","121.482318333333","24.9936216666667","6500300","中和區"
"235038","185-VK","2018/08/14 18:16:13","新北市中和區大仁街120號","121.520836666667","24.9920066666667","6500300","中和區"
"235049","186-VK","2018/08/14 18:16:05","新北市中和區員山路36巷13號","121.484143333333","24.9909783333333","6500300","中和區"
"235067","255-BX","2018/08/14 18:16:11","新北市中和區和城路一段271巷1號","121.485748333333","24.9917083333333","6500300","中和區"
"235044","293-VK","2018/08/14 18:16:09","新北市中和區和城路一段271巷1號","121.485371666667","24.9920566666667","6500300","中和區"
"235072","301-VK","2018/08/14 18:16:14","新北市中和區錦和路101號","121.49007","24.9953683333333","6500300","中和區"
"235043","352-BY","2018/08/14 18:16:15","新北市中和區錦和路350-1號","121.490573333333","24.99357","6500300","中和區"
"235042","KEA-2878","2018/08/14 18:16:00","新北市中和區大勇街46巷2號","121.517413333333","24.9938233333333","6500300","中和區"
"235050","4979-A6","2018/08/14 18:16:03","新北市中和區中正路169號","121.498175","24.9936216666667","6500300","中和區"
"235069","4980-A6","2018/08/14 18:16:15","新北市中和區景平路626巷1號","121.500311666667","24.9977633333333","6500300","中和區"
"235070","558-UM","2018/08/14 18:16:14","新北市中和區圓通路156號","121.497825","24.995665","6500300","中和區"
"235045","565-BX","2018/08/14 18:16:07","新北市中和區中正路16號","121.502813333333","24.99373","6500300","中和區"
"235054","640-BX","2018/08/14 18:16:03","新北市中和區民享街86巷22號","121.473541666667","25.0007666666667","6500300","中和區"
"235060","647-TV","2018/08/14 18:16:17","新北市中和區員山路160號","121.481413333333","24.9994133333333","6500300","中和區"
"235046","733-UM","2018/08/14 18:15:59","新北市中和區員山路36巷13號","121.484071666667","24.9909866666667","6500300","中和區"
"235062","800-TS","2018/08/14 18:16:15","新北市中和區中山路二段478號","121.487953333333","25.0047616666667","6500300","中和區"
"235057","801-TS","2018/08/14 18:16:08","新北市中和區民安街180號","121.476123333333","24.9999183333333","6500300","中和區"
"235041","802-TS","2018/08/14 18:16:06","新北市中和區員山路36巷16-2號","121.485041666667","24.9919083333333","6500300","中和區"
"235052","805-TS","2018/08/14 18:16:09","新北市中和區捷運路129號","121.507108333333","24.99076","6500300","中和區"
"235048","896-TW","2018/08/14 18:16:08","新北市中和區員山路36巷16-3號","121.484903333333","24.9918266666667","6500300","中和區"
"235051","157-BY","2018/08/14 18:16:03","新北市中和區信義街77號","121.51185","24.9875416666667","6500300","中和區"
"235037","AAC-213","2018/08/14 18:16:05","新北市中和區景德街54號","121.517501666667","24.9914983333333","6500300","中和區"
"226004","205-ST","2018/08/14 18:16:18","新北市平溪區靜安路二段7巷8號","121.708393333333","25.01878","6502400","平溪區"
"235047","251-BX","2018/08/14 18:16:09","新北市中和區南山路250巷2號","121.507696666667","24.9890616666667","6500300","中和區"
"228001","212-TW","2018/08/14 18:16:04","新北市貢寮區真理里新港街26巷55弄2-1號","121.92738","25.0528916666667","6502600","貢寮區"
"228002","663-BX","2018/08/14 18:16:06","新北市貢寮區福連里馬崗街2-7號","122.000458333333","25.0147783333333","6502600","貢寮區"
"228003","828-UM","2018/08/14 18:15:58","新北市貢寮區真理里美艷山街19-1號","121.92378","25.0681616666667","6502600","貢寮區"
"224006","676-BX","2018/08/14 18:16:18","新北市瑞芳區三爪子坑路106巷35號","121.809145","25.1039283333333","6501200","瑞芳區"
"224002","639-TC","2018/08/14 18:16:18","新北市瑞芳區三爪子坑路30號","121.810498333333","25.1062483333333","6501200","瑞芳區"
"224008","285-BY","2018/08/14 18:16:15","新北市瑞芳區逢甲路38號","121.81135","25.1084083333333","6501200","瑞芳區"
"224007","275-VK","2018/08/14 18:16:21","新北市瑞芳區大埔路67巷5-1號","121.764288333333","25.1016683333333","6501200","瑞芳區"
"224009","273-VK","2018/08/14 18:16:04","新北市瑞芳區新山路7號","121.854798333333","25.10956","6501200","瑞芳區"
"224005","271-BY","2018/08/14 18:16:16","新北市瑞芳區建基新村8號","121.812301666667","25.13197","6501200","瑞芳區"
"227003","642-TC","2018/08/14 18:16:18","新北市雙溪區共和里中山路2號","121.863781666667","25.033815","6502500","雙溪區"
"227009","400-TW","2018/08/14 18:16:17","新北市雙溪區牡丹里牡丹73號","121.851705","25.0593566666667","6502500","雙溪區"
"253005","032-BX","2018/08/14 18:16:20","新北市石門區中央路46號","121.567981666667","25.2930616666667","6502200","石門區"
"253006","295-VK","2018/08/14 18:16:08","新北市石門區老梅路89號","121.546503333333","25.2892016666667","6502200","石門區"
"222001","KEA-2212","2018/08/14 18:16:20","新北市深坑區北深路二段57號","121.618795","25.003955","6501800","深坑區"
"208002","KEA-2872","2018/08/14 18:16:03","新北市金山區清泉里清水路60巷14號","121.633485","25.2342216666667","6502700","金山區"
"208003","665-BX","2018/08/14 18:16:16","新北市金山區民生路1154號","121.647121666667","25.223275","6502700","金山區"
"208001","761-BX","2018/08/14 18:16:00","新北市金山區磺港里磺港路171-1號","121.644906666667","25.224085","6502700","金山區"
"251005","010-UM","2018/08/14 18:16:04","新北市淡水區水源街一段122巷33號","121.447226666667","25.17081","6501000","淡水區"
"251001","011-UM","2018/08/14 18:16:05","新北市淡水區自強路299號","121.461593333333","25.131405","6501000","淡水區"
"251013","KEA-2871","2018/08/14 18:16:20","新北市淡水區後寮9號","121.477543333333","25.19884","6501000","淡水區"
"251016","179-VK","2018/08/14 18:16:05","新北市淡水區淡金路三段228巷35號","121.450033333333","25.20487","6501000","淡水區"
"251014","180-VK","2018/08/14 18:16:08","新北市淡水區崙頂30號","121.486908333333","25.222565","6501000","淡水區"
"251015","181-VK","2018/08/14 18:16:19","新北市淡水區興福寮88巷1號","121.48539","25.1649883333333","6501000","淡水區"
"251010","413-VK","2018/08/14 18:16:07","新北市淡水區淡海路222號","121.420223333333","25.185845","6501000","淡水區"
"251012","441-VK","2018/08/14 18:16:10","新北市淡水區北新路二段77-5號","121.480486666667","25.1855333333333","6501000","淡水區"
"251008","442-VK","2018/08/14 18:16:10","新北市淡水區淡金路21號","121.456996666667","25.15988","6501000","淡水區"
"251004","443-VK","2018/08/14 18:16:02","新北市淡水區民權路215巷102號","121.462738333333","25.1336083333333","6501000","淡水區"
"251006","561-UM","2018/08/14 18:16:12","新北市淡水區新民街76巷34弄1號","121.439318333333","25.17766","6501000","淡水區"
"251007","577-R6","2018/08/14 18:16:15","新北市淡水區中正東路二段143巷2弄1號","121.460571666667","25.1472516666667","6501000","淡水區"
"251011","650-BX","2018/08/14 18:16:19","新北市淡水區坪頂路259號","121.470663333333","25.1622466666667","6501000","淡水區"
"251002","672-BX","2018/08/14 18:16:07","新北市淡水區中正東路一段127巷2號","121.455545","25.159395","6501000","淡水區"
"251003","673-BX","2018/08/14 18:16:18","新北市淡水區北新路180號","121.449468333333","25.1786466666667","6501000","淡水區"
"207003","681-TV","2018/08/14 18:16:10","新北市萬里區野柳里港西路56-1號","121.68611","25.20347","6502800","萬里區"
"207004","291-VK","2018/08/14 18:16:03","新北市萬里區中幅里中福路215號","121.671718333333","25.1653216666667","6502800","萬里區"
"252002","178-VK","2018/08/14 18:16:03","新北市三芝區中山路二段38號","121.502973333333","25.2551233333333","6502100","三芝區"
"252003","249-BX","2018/08/14 18:16:10","新北市三芝區古庄里四棧橋38-1號","121.483498333333","25.2631566666667","6502100","三芝區"
"252001","702-TV","2018/08/14 18:15:59","新北市三芝區中興街二段2號","121.49832","25.2566633333333","6502100","三芝區"
"237007","153-BY","2018/08/14 18:16:07","新北市三峽區中正路二段463號","121.360836666667","24.9064066666667","6500900","三峽區"
"237009","210-TH","2018/08/14 18:16:11","新北市三峽區大勇路36巷4號","121.366675","24.9372683333333","6500900","三峽區"
"237013","252-BX","2018/08/14 18:16:18","新北市三峽區大同路10號","121.378208333333","24.92996","6500900","三峽區"
"237012","275-BY","2018/08/14 18:16:04","新北市三峽區民生街19巷7弄16號","121.377","24.9356316666667","6500900","三峽區"
"237008","302-VK","2018/08/14 18:16:20","新北市三峽區白雞64-5號","121.38522","24.91269","6500900","三峽區"
"237014","433-BY","2018/08/14 18:16:10","新北市三峽區復興路110巷2弄12號","121.373093333333","24.9379066666667","6500900","三峽區"
"237006","5529-G3","2018/08/14 18:16:13","新北市三峽區溪東路218巷2-1號","121.407271666667","24.93229","6500900","三峽區"
"237011","KEA-2596","2018/08/14 18:16:14","新北市三峽區溪東路89號","121.401411666667","24.93464","6500900","三峽區"
"237016","649-BX","2018/08/14 18:16:10","新北市三峽區紫新路21號","121.423118333333","24.920945","6500900","三峽區"
"237010","706-TV","2018/08/14 18:16:08","新北市三峽區仁愛街13號","121.36848","24.933795","6500900","三峽區"
"237005","AKY-6261","2018/08/14 18:16:18","新北市三峽區秀川街26巷3號","121.371516666667","24.9343666666667","6500900","三峽區"
"236070","105-UM","2018/08/14 18:16:08","新北市土城區明德路一段198號","121.461733333333","24.97786","6501300","土城區"
"236042","107-UM","2018/08/14 18:16:18","新北市土城區裕生路21巷1弄2號","121.448655","24.9871683333333","6501300","土城區"
"236079","166-UM","2018/08/14 18:16:12","新北市土城區永安街115巷24號","121.428941666667","24.963215","6501300","土城區"
"236030","253-BX","2018/08/14 18:16:19","新北市土城區中央路二段141號","121.441998333333","24.9768583333333","6501300","土城區"
"236026","269-VK","2018/08/14 18:16:15","新北市土城區承天路18號","121.439398333333","24.9635316666667","6501300","土城區"
"236014","270-VK","2018/08/14 18:16:14","新北市土城區金城路二段188號","121.454143333333","24.9813116666667","6501300","土城區"
"236038","271-VK","2018/08/14 18:16:10","新北市土城區青雲路453號","121.458923333333","24.9745966666667","6501300","土城區"
"236021","401-BY","2018/08/14 18:16:11","新北市土城區中華路二段2號","121.438981666667","24.9798066666667","6501300","土城區"
"236059","912-UM","2018/08/14 18:16:08","新北市土城區中央路四段322號","121.413698333333","24.9556866666667","6501300","土城區"
"236049","913-UM","2018/08/14 18:16:02","新北市土城區明德路一段365-1號","121.453565","24.97904","6501300","土城區"
"236063","915-UM","2018/08/14 18:16:03","新北市土城區金城路三段202-3號","121.469518333333","24.98857","6501300","土城區"
"236055","AAC-216","2018/08/14 18:16:07","新北市土城區中華路二段88號","121.438573333333","24.9753716666667","6501300","土城區"
"242058","986-R7","2018/08/14 18:16:20","新北市新莊區壽山路49-3號","121.414365","25.030915","6500500","新莊區"
"242025","705-TV","2018/08/14 18:16:13","新北市新莊區五工二路94巷1號","121.459361666667","25.0667383333333","6500500","新莊區"
"242027","615-BX","2018/08/14 18:16:06","新北市新莊區幸福路567號","121.454215","25.04925","6500500","新莊區"
"242042","566-BX","2018/08/14 18:16:07","新北市新莊區天祥街135巷8弄2號","121.41372","25.029455","6500500","新莊區"
"242046","497-BY","2018/08/14 18:16:09","新北市新莊區福營路338號","121.42165","25.0267116666667","6500500","新莊區"
"242054","442-UM","2018/08/14 18:16:05","新北市新莊區西盛街429巷32號","121.427896666667","25.01139","6500500","新莊區"
"242051","441-UM","2018/08/14 18:16:08","新北市新莊區民安西路69號","121.427385","25.0199666666667","6500500","新莊區"
"242056","440-UM","2018/08/14 18:16:11","新北市新莊區豐年街豐2巷4號","121.446875","25.0306816666667","6500500","新莊區"
"242037","415-TV","2018/08/14 18:16:16","新北市新莊區建福路48巷7號","121.425995","25.027465","6500500","新莊區"
"242007","413-TV","2018/08/14 18:16:09","新北市新莊區中華路二段100號","121.453475","25.0473033333333","6500500","新莊區"
"242044","400-BY","2018/08/14 18:15:58","新北市新莊區新北大道七段339號","121.412993333333","25.027595","6500500","新莊區"
"242061","353-BY","2018/08/14 18:16:16","新北市新莊區新樹路166號","121.43494","25.0224116666667","6500500","新莊區"
"242009","132-UY","2018/08/14 18:16:17","新北市新莊區中華路二段158號","121.453221666667","25.0510083333333","6500500","新莊區"
"242039","133-UY","2018/08/14 18:16:11","新北市新莊區民安東路185號","121.432991666667","25.0204966666667","6500500","新莊區"
"242032","135-UY","2018/08/14 18:16:11","新北市新莊區新泰路255巷83號","121.442746666667","25.0394016666667","6500500","新莊區"
"242048","172-VK","2018/08/14 18:16:03","新北市新莊區民安路49號","121.42394","25.0261966666667","6500500","新莊區"
"242011","173-VK","2018/08/14 18:16:15","新北市新莊區中榮街13號","121.450856666667","25.0527333333333","6500500","新莊區"
"242015","346-TH","2018/08/14 18:16:17","新北市新莊區中平路152巷16號","121.446111666667","25.04728","6500500","新莊區"
"242013","347-TH","2018/08/14 18:16:07","新北市新莊區瓊林南路77-41號","121.437465","25.0134333333333","6500500","新莊區"
"242021","348-TH","2018/08/14 18:16:04","新北市新莊區新興街27巷2號","121.450688333333","25.0374966666667","6500500","新莊區"
"242002","349-TH","2018/08/14 18:16:19","新北市新莊區新莊路96號","121.456465","25.0362016666667","6500500","新莊區"
"238015","755-BX","2018/08/14 18:16:12","新北市樹林區啟智街86巷11號","121.418238333333","24.99082","6500700","樹林區"
"238023","601-UM","2018/08/14 18:16:14","新北市樹林區忠義街18號","121.409603333333","25.0145083333333","6500700","樹林區"
"238019","599-UM","2018/08/14 18:16:06","新北市樹林區國凱街136巷32號","121.423721666667","24.9795233333333","6500700","樹林區"
"238018","571-TV","2018/08/14 18:16:19","新北市樹林區保安街一段16巷23號","121.42821","24.9941783333333","6500700","樹林區"
"238022","KEA-2217","2018/08/14 18:16:08","新北市樹林區佳園路二段81號","121.390633333333","24.9596066666667","6500700","樹林區"
"238022","KEA-2213","2018/08/14 18:16:03","新北市樹林區太順街108巷1號","121.415815","24.9778366666667","6500700","樹林區"
"238021","KEA-2539","2018/08/14 18:16:12","新北市樹林區柑園街一段216號","121.39318","24.956335","6500700","樹林區"
"238025","303-VK","2018/08/14 18:16:08","新北市樹林區保安街一段269號","121.419408333333","24.9970516666667","6500700","樹林區"
"238017","283-BY","2018/08/14 18:16:08","新北市樹林區保安街二段333巷3號","121.411528333333","25.0075066666667","6500700","樹林區"
"238014","282-BY","2018/08/14 18:16:20","新北市樹林區潭興街103號","121.424796666667","24.998515","6500700","樹林區"
"238020","268-VK","2018/08/14 18:16:02","新北市樹林區三龍街96號","121.414523333333","25.0184083333333","6500700","樹林區"
"238026","172-UY","2018/08/14 18:16:03","新北市樹林區佳園路一段75巷9號","121.394028333333","24.9702266666667","6500700","樹林區"
"238016","169-UY","2018/08/14 18:16:16","新北市樹林區文化街28號","121.419315","24.9877416666667","6500700","樹林區"
"239007","AAC-297","2018/08/14 18:16:08","新北市鶯歌區尖山埔路32號","121.349218333333","24.95119","6500800","鶯歌區"
"239006","891-R6","2018/08/14 18:16:20","新北市鶯歌區鶯桃路385號","121.333543333333","24.9636966666667","6500800","鶯歌區"
"239008","527-UM","2018/08/14 18:15:57","新北市鶯歌區國際一路179號","121.336183333333","24.9764483333333","6500800","鶯歌區"
"239005","526-UM","2018/08/14 18:16:10","新北市鶯歌區鶯桃路二段27號","121.325578333333","24.9724633333333","6500800","鶯歌區"
"239001","417-VK","2018/08/14 18:16:03","新北市鶯歌區中正三路福德巷10號","121.340846666667","24.9409683333333","6500800","鶯歌區"
"239003","360-BY","2018/08/14 18:16:04","新北市鶯歌區福安街13巷1號","121.335621666667","24.9653333333333","6500800","鶯歌區"
"239002","359-BY","2018/08/14 18:16:05","新北市鶯歌區國慶街13號","121.349668333333","24.9564716666667","6500800","鶯歌區"
"239004","193-VK","2018/08/14 18:16:14","新北市鶯歌區尖山路143號","121.346595","24.948535","6500800","鶯歌區"
"221008","489-VK","2018/08/14 18:16:00","新北市汐止區康寧街661號","121.637805","25.0725583333333","6501100","汐止區"
"221036","130-UY","2018/08/14 18:16:02","新北市汐止區長興街一段43號","121.669861666667","25.07974","6501100","汐止區"
"221015","131-UY","2018/08/14 18:16:08","新北市汐止區鄉長路二段26巷2-4號","121.668471666667","25.0829","6501100","汐止區"
"221010","269-BY","2018/08/14 18:16:06","新北市汐止區祥雲街20號","121.6465","25.090125","6501100","汐止區"
"221012","278-VK","2018/08/14 18:16:12","新北市汐止區保長路35巷15弄2號","121.673268333333","25.0800933333333","6501100","汐止區"
"221023","279-VK","2018/08/14 18:16:04","新北市汐止區中興路201號","121.62918","25.068495","6501100","汐止區"
"221032","280-BY","2018/08/14 18:16:04","新北市汐止區力行街1號","121.617298333333","25.05133","6501100","汐止區"
"221027","281-BY","2018/08/14 18:16:08","新北市汐止區和平街6巷8-1號","121.663665","25.0717333333333","6501100","汐止區"
"221029","298-VK","2018/08/14 18:16:12","新北市汐止區樟樹二路322號","121.641413333333","25.070045","6501100","汐止區"
"221021","299-VK","2018/08/14 18:16:13","新北市汐止區連興街118號","121.653681666667","25.0626016666667","6501100","汐止區"
"221002","129-UY","2018/08/14 18:16:06","新北市汐止區福德一路201巷30號","121.63597","25.064975","6501100","汐止區"
"221035","622-UM","2018/08/14 18:16:14","新北市汐止區大同路二段179號","121.651975","25.0642033333333","6501100","汐止區"
"221025","623-UM","2018/08/14 18:16:09","新北市汐止區勤進路12巷39號","121.659121666667","25.062745","6501100","汐止區"
"221038","646-BX","2018/08/14 18:16:02","新北市汐止區仁愛路319號","121.66447","25.0676166666667","6501100","汐止區"
"221033","647-BX","2018/08/14 18:16:06","新北市汐止區宜興街35巷2號","121.622343333333","25.0423383333333","6501100","汐止區"
"221018","753-BX","2018/08/14 18:16:11","新北市汐止區茄苳路125號","121.667261666667","25.07051","6501100","汐止區"
"220082","610-BX","2018/08/14 18:16:11","新北市板橋區華東街1-10號","121.448218333333","24.99501","6500100","板橋區"
"220073","985-R7","2018/08/14 18:16:18","新北市板橋區華東街1-10號","121.448275","24.9949833333333","6500100","板橋區"
"235068","KEA-2873","2018/08/14 18:16:17","新北市中和區員山路36巷16-3號","121.485216666667","24.9912283333333","6500300","中和區"
"235061","KEA-2875","2018/08/14 18:16:06","新北市中和區國光街215巷24弄4號","121.46668","25.0001766666667","6500300","中和區"
