"lineid","car","time","location","longitude","latitude","cityid","cityname"
"234046","148-BY","2018/08/14 18:29:40","新北市永和區豫溪街217巷3號","121.52522","25.00983","6500400","永和區"
"234007","207-UY","2018/08/14 18:29:45","新北市永和區環河西路二段7-9號","121.508976666667","25.01692","6500400","永和區"
"234081","298-R6","2018/08/14 18:29:35","新北市永和區福和路8巷1號","121.52501","25.0090366666667","6500400","永和區"
"234086","338-UY","2018/08/14 18:29:38","新北市永和區豫溪街217巷29號","121.524591666667","25.010475","6500400","永和區"
"234013","KEA-2591","2018/08/14 18:29:35","新北市永和區福和路1號","121.526085","25.0094533333333","6500400","永和區"
"234026","9371-KE","2018/08/14 18:29:45","新北市永和區豫溪街52巷4號","121.515806666667","25.0095966666667","6500400","永和區"
"234011","9373-KE","2018/08/14 18:29:36","新北市永和區保安路69號","121.509095","25.0154183333333","6500400","永和區"
"249005","172-UM","2018/08/14 18:29:37","新北市八里區長坑口47-8號","121.390338333333","25.13416","6502300","八里區"
"249001","173-UM","2018/08/14 18:29:39","新北市八里區龍米路一段148號","121.452893333333","25.1258066666667","6502300","八里區"
"249004","303-UY","2018/08/14 18:29:48","新北市八里區忠孝路90號","121.425953333333","25.1604216666667","6502300","八里區"
"249002","305-UY","2018/08/14 18:29:47","新北市八里區龍形三街26號","121.448013333333","25.1316033333333","6502300","八里區"
"248016","026-BX","2018/08/14 18:29:36","新北市五股區凌雲路一段83巷1-4號","121.450408333333","25.1007916666667","6501500","五股區"
"248006","077-UY","2018/08/14 18:29:42","新北市五股區四維路55號","121.4672","25.07154","6501500","五股區"
"248008","095-VK","2018/08/14 18:29:36","新北市五股區中興路二段88號","121.461043333333","25.078765","6501500","五股區"
"248020","225-UY","2018/08/14 18:29:48","新北市五股區天乙路112號","121.447136666667","25.11254","6501500","五股區"
"248012","247-BX","2018/08/14 18:29:38","新北市五股區御史路28號","121.442068333333","25.0914933333333","6501500","五股區"
"248014","261-SL","2018/08/14 18:29:50","新北市五股區自強路90巷57號","121.43157","25.0711583333333","6501500","五股區"
"248004","677-BX","2018/08/14 18:29:33","新北市五股區工商路130號","121.43608","25.0860266666667","6501500","五股區"
"248002","678-BX","2018/08/14 18:29:47","新北市五股區西雲路116-6號","121.44471","25.0936716666667","6501500","五股區"
"248010","682-TV","2018/08/14 18:29:51","新北市五股區水碓路11號","121.433628333333","25.072355","6501500","五股區"
"234067","AAC-212","2018/08/14 18:29:28","新北市永和區福和路1號","121.526356666667","25.0095816666667","6500400","永和區"
"244007","080-UY","2018/08/14 18:29:46","新北市林口區湖子36-1號","121.386201666667","25.0945066666667","6501700","林口區"
"244019","403-UM","2018/08/14 18:29:37","新北市林口區忠孝路614號","121.377216666667","25.06825","6501700","林口區"
"244013","KEA-2802","2018/08/14 18:29:44","新北市林口區文化一路二段196號","121.382848333333","25.08047","6501700","林口區"
"244009","410-SL","2018/08/14 18:29:47","新北市林口區文化二路二段369號","121.38149","25.0864566666667","6501700","林口區"
"244023","483-VK","2018/08/14 18:29:33","新北市林口區仁愛路二段62巷59號","121.383536666667","25.075955","6501700","林口區"
"244017","485-VK","2018/08/14 18:29:32","新北市林口區八德路78號","121.3655","25.0656833333333","6501700","林口區"
"244011","657-BX","2018/08/14 18:29:33","新北市林口區中原街23號","121.392815","25.0781866666667","6501700","林口區"
"244025","837-TS","2018/08/14 18:29:31","新北市林口區南勢四街196巷17號","121.356856666667","25.0730066666667","6501700","林口區"
"244021","838-TS","2018/08/14 18:29:41","新北市林口區自強二街50號","121.399176666667","25.07709","6501700","林口區"
"243013","AAD-798","2018/08/14 18:29:06","新北市泰山區明志路三段206巷3號","121.423308333333","25.0379266666667","6501600","泰山區"
"222003","436-BY","2018/08/14 18:29:31","新北市深坑區文山路一段28-1號","121.630833333333","25.00539","6501800","深坑區"
"222002","659-BX","2018/08/14 18:29:34","新北市深坑區雲鄉路157號","121.621418333333","24.998045","6501800","深坑區"
"231045","001-UM","2018/08/14 18:29:48","新北市新店區安華路28-1號","121.51942","24.9608133333333","6500600","新店區"
"231041","002-UM","2018/08/14 18:29:48","新北市新店區安華路28-1號","121.519638333333","24.9607333333333","6500600","新店區"
"231059","046-UY","2018/08/14 18:29:42","新北市新店區安華路28-1號","121.519541666667","24.9609266666667","6500600","新店區"
"231040","047-UY","2018/08/14 18:29:33","新北市新店區安一路一段1-1號","121.51889","24.9611366666667","6500600","新店區"
"231044","106-UY","2018/08/14 18:29:36","新北市新店區安華路28-1號","121.519768333333","24.9607433333333","6500600","新店區"
"231046","107-UY","2018/08/14 18:29:46","新北市新店區直潭七街60號","121.532258333333","24.9398983333333","6500600","新店區"
"231053","110-UY","2018/08/14 18:29:32","新北市新店區新烏路一段50-2號","121.545733333333","24.9492783333333","6500600","新店區"
"231048","187-VK","2018/08/14 18:29:40","新北市新店區安華路28-1號","121.520261666667","24.961115","6500600","新店區"
"231054","KEA-2219","2018/08/14 18:29:30","新北市新店區安一路一段1-1號","121.519883333333","24.9611766666667","6500600","新店區"
"221031","KEA-2785","2018/08/14 18:29:33","新北市汐止區光復街7巷34號","121.64107","25.0601166666667","6501100","汐止區"
"231057","256-BX","2018/08/14 18:29:43","新北市新店區安康路一段24巷4號","121.532498333333","24.9604916666667","6500600","新店區"
"231042","268-BY","2018/08/14 18:29:35","新北市新店區安華路1-1號","121.519343333333","24.9604933333333","6500600","新店區"
"231050","AAD-862","2018/08/14 18:29:42","新北市新店區安一路一段1-1號","121.519881666667","24.9611816666667","6500600","新店區"
"231043","355-BY","2018/08/14 18:29:49","新北市新店區安華路28-1號","121.519011666667","24.9608216666667","6500600","新店區"
"231058","3713-VJ","2018/08/14 18:29:47","新北市新店區北宜路一段9號","121.538135","24.957985","6500600","新店區"
"231066","4716-K9","2018/08/14 18:29:43","新北市新店區安華路28-1號","121.519948333333","24.9609733333333","6500600","新店區"
"231056","4715-K9","2018/08/14 18:29:43","新北市新店區二十張路127號","121.535876666667","24.979315","6500600","新店區"
"231067","4772-VM","2018/08/14 18:29:35","新北市新店區安華路1-1號","121.519141666667","24.9605483333333","6500600","新店區"
"231049","513-UM","2018/08/14 18:29:44","新北市新店區安一路一段1-1號","121.519653333333","24.9613316666667","6500600","新店區"
"231061","619-UM","2018/08/14 18:29:34","新北市新店區安華路28-1號","121.519433333333","24.9607666666667","6500600","新店區"
"231063","641-BX","2018/08/14 18:29:31","新北市新店區安華路1-1號","121.519493333333","24.9604566666667","6500600","新店區"
"231064","719-UM","2018/08/14 18:29:50","新北市新店區安一路一段1-1號","121.519431666667","24.96135","6500600","新店區"
"231062","720-UM","2018/08/14 18:29:50","新北市新店區安一路一段1-1號","121.519066666667","24.9614316666667","6500600","新店區"
"231060","897-TW","2018/08/14 18:29:48","新北市新店區安華路28-1號","121.519526666667","24.960725","6500600","新店區"
"231055","AKT-0513","2018/08/14 18:29:33","新北市新店區三民路18號","121.538463333333","24.970635","6500600","新店區"
"241033","AAC-255","2018/08/14 18:29:42","新北市三重區光復路一段61巷21號","121.473248333333","25.049235","6500200","三重區"
"235030","003-UY","2018/08/14 18:29:48","新北市中和區中山路二段118號","121.502568333333","25.003925","6500300","中和區"
"235064","005-UY","2018/08/14 18:29:34","新北市中和區連城路139巷45號","121.49666","24.9975783333333","6500300","中和區"
"235063","006-UY","2018/08/14 18:29:41","新北市中和區連城路389巷10弄1號","121.486563333333","24.9954566666667","6500300","中和區"
"235056","096-UM","2018/08/14 18:29:38","新北市中和區員山路611巷1號","121.477861666667","25.011375","6500300","中和區"
"235039","097-UM","2018/08/14 18:29:40","新北市中和區安平路192-1號","121.513198333333","24.9993716666667","6500300","中和區"
"235065","098-UM","2018/08/14 18:29:33","新北市中和區中山路二段64巷16弄2號","121.503371666667","25.0056833333333","6500300","中和區"
"235040","150-BY","2018/08/14 18:29:40","新北市中和區安平路38號","121.509783333333","24.994935","6500300","中和區"
"235058","151-BY","2018/08/14 18:29:34","新北市中和區圓通路369巷30弄34號","121.488923333333","24.9846733333333","6500300","中和區"
"235055","183-VK","2018/08/14 18:29:43","新北市中和區莒光路185號","121.472613333333","24.9990833333333","6500300","中和區"
"235038","185-VK","2018/08/14 18:29:33","新北市中和區秀朗路三段128巷17弄23號","121.523285","24.993375","6500300","中和區"
"235049","186-VK","2018/08/14 18:29:45","新北市中和區景安路157號","121.505283333333","24.9949016666667","6500300","中和區"
"235067","255-BX","2018/08/14 18:29:51","新北市中和區連城路467-4號","121.483683333333","24.996135","6500300","中和區"
"235044","293-VK","2018/08/14 18:29:30","新北市中和區復興路301巷2弄1號","121.501518333333","24.9898583333333","6500300","中和區"
"235072","301-VK","2018/08/14 18:29:35","新北市中和區連城路144巷4弄11號","121.495771666667","24.9988666666667","6500300","中和區"
"235043","352-BY","2018/08/14 18:29:35","新北市中和區景平路307號","121.506503333333","24.9931583333333","6500300","中和區"
"235042","KEA-2878","2018/08/14 18:29:40","新北市中和區自立路56巷10號","121.522951666667","24.9917533333333","6500300","中和區"
"235050","4979-A6","2018/08/14 18:29:43","新北市中和區景新街362巷8號","121.51198","24.9901783333333","6500300","中和區"
"235069","4980-A6","2018/08/14 18:29:35","新北市中和區連城路127巷19-10號","121.496806666667","24.9981316666667","6500300","中和區"
"235070","558-UM","2018/08/14 18:29:34","新北市中和區安和路159號","121.505951666667","24.99738","6500300","中和區"
"235045","565-BX","2018/08/14 18:29:46","新北市中和區南山路236巷24弄21號","121.504903333333","24.9889883333333","6500300","中和區"
"235054","640-BX","2018/08/14 18:29:45","新北市中和區民享街91-12號","121.474601666667","25.00075","6500300","中和區"
"235060","647-TV","2018/08/14 18:29:40","新北市中和區員山路276號","121.481278333333","25.0020166666667","6500300","中和區"
"235046","733-UM","2018/08/14 18:29:31","新北市中和區南山路291號","121.504375","24.9920183333333","6500300","中和區"
"235062","800-TS","2018/08/14 18:29:35","新北市中和區中山路二段312巷33弄29號","121.494611666667","25.0043933333333","6500300","中和區"
"235057","801-TS","2018/08/14 18:29:48","新北市中和區民安街42巷2號","121.479955","25.000595","6500300","中和區"
"235041","802-TS","2018/08/14 18:29:46","新北市中和區景安路70號","121.505783333333","24.99666","6500300","中和區"
"235052","805-TS","2018/08/14 18:29:49","新北市中和區興南路二段96號","121.50517","24.9842316666667","6500300","中和區"
"235048","896-TW","2018/08/14 18:29:48","新北市中和區中正路67號","121.501175","24.9935166666667","6500300","中和區"
"235053","900-TW","2018/08/14 18:29:34","新北市中和區連城路569巷9弄24號","121.479698333333","24.9935116666667","6500300","中和區"
"235051","157-BY","2018/08/14 18:29:43","新北市中和區興南路二段142巷35弄2號","121.502268333333","24.984615","6500300","中和區"
"235037","AAC-213","2018/08/14 18:29:45","新北市中和區景德街67號","121.516858333333","24.9913366666667","6500300","中和區"
"220065","072-UY","2018/08/14 18:29:47","新北市板橋區遠東路9號","121.457503333333","24.9988783333333","6500100","板橋區"
"220086","073-UY","2018/08/14 18:29:35","新北市板橋區南雅南路二段18號","121.454638333333","25.0035816666667","6500100","板橋區"
"220069","AAD-861","2018/08/14 18:29:44","新北市板橋區華東街1-10號","121.448315","24.9950433333333","6500100","板橋區"
"226004","205-ST","2018/08/14 18:29:38","新北市平溪區石底里公園街17號","121.73697","25.0249083333333","6502400","平溪區"
"235047","251-BX","2018/08/14 18:29:48","新北市中和區南山路250巷2號","121.507685","24.98904","6500300","中和區"
"228001","212-TW","2018/08/14 18:29:43","新北市貢寮區仁理村仁和路120號","121.92296","25.051085","6502600","貢寮區"
"228002","663-BX","2018/08/14 18:28:25","新北市貢寮區福連里香蘭街32號","121.986621666667","25.01997","6502600","貢寮區"
"228003","828-UM","2018/08/14 18:29:38","新北市貢寮區和美里和美街40-1號","121.912921666667","25.0904183333333","6502600","貢寮區"
"224006","676-BX","2018/08/14 18:29:38","新北市瑞芳區逢甲路76-2號","121.810358333333","25.1083866666667","6501200","瑞芳區"
"224002","639-TC","2018/08/14 18:29:38","新北市瑞芳區三爪子坑路29巷35號","121.813808333333","25.1065816666667","6501200","瑞芳區"
"224008","285-BY","2018/08/14 18:29:34","新北市瑞芳區逢甲路169-1號","121.805406666667","25.1104333333333","6501200","瑞芳區"
"224007","275-VK","2018/08/14 18:29:37","新北市瑞芳區大埔路有勝二村28號","121.76384","25.0997133333333","6501200","瑞芳區"
"224009","273-VK","2018/08/14 18:29:44","新北市瑞芳區五號路308號","121.856841666667","25.1116383333333","6501200","瑞芳區"
"224005","271-BY","2018/08/14 18:29:36","新北市瑞芳區瑞濱路147-14號","121.818228333333","25.1183616666667","6501200","瑞芳區"
"227003","642-TC","2018/08/14 18:29:38","新北市雙溪區魚行里坤溪22號","121.870368333333","25.02902","6502500","雙溪區"
"227009","400-TW","2018/08/14 18:29:38","新北市雙溪區牡丹里牡丹51號","121.851676666667","25.0602166666667","6502500","雙溪區"
"253005","032-BX","2018/08/14 18:29:40","新北市石門區老崩山11-13號","121.551833333333","25.2907016666667","6502200","石門區"
"253006","295-VK","2018/08/14 18:29:28","新北市石門區公地47-3號","121.545493333333","25.2901716666667","6502200","石門區"
"222001","KEA-2212","2018/08/14 18:29:36","新北市深坑區北深路一段177號","121.632375","25.0108116666667","6501800","深坑區"
"208002","KEA-2872","2018/08/14 18:29:43","新北市金山區民生路45號","121.641986666667","25.2209883333333","6502700","金山區"
"208003","665-BX","2018/08/14 18:29:35","新北市金山區中山路250號","121.635701666667","25.2238233333333","6502700","金山區"
"208001","761-BX","2018/08/14 18:29:40","新北市金山區文化一路6號","121.637253333333","25.2239183333333","6502700","金山區"
"251005","010-UM","2018/08/14 18:29:44","新北市淡水區中正東路3號","121.445215","25.16871","6501000","淡水區"
"251001","011-UM","2018/08/14 18:29:45","新北市淡水區自強路399號","121.465121666667","25.1338883333333","6501000","淡水區"
"251013","KEA-2871","2018/08/14 18:29:40","新北市淡水區椿子林20-2號","121.481233333333","25.203405","6501000","淡水區"
"251016","179-VK","2018/08/14 18:29:45","新北市淡水區下圭柔山102號","121.441015","25.2088133333333","6501000","淡水區"
"251014","180-VK","2018/08/14 18:29:48","新北市淡水區南平25號","121.494938333333","25.214505","6501000","淡水區"
"251015","181-VK","2018/08/14 18:29:39","新北市淡水區興福寮88巷177號","121.485828333333","25.166865","6501000","淡水區"
"251010","413-VK","2018/08/14 18:29:41","新北市淡水區沙崙路181巷1號","121.424153333333","25.18423","6501000","淡水區"
"251012","441-VK","2018/08/14 18:29:36","新北市淡水區北新路一段165號","121.458998333333","25.1822616666667","6501000","淡水區"
"251008","442-VK","2018/08/14 18:29:30","新北市淡水區北投子83-1號","121.468775","25.1807533333333","6501000","淡水區"
"251004","443-VK","2018/08/14 18:29:42","新北市淡水區民族路31巷21-3號","121.462108333333","25.1364883333333","6501000","淡水區"
"251006","561-UM","2018/08/14 18:29:32","新北市淡水區新生街51巷49號","121.441285","25.1761766666667","6501000","淡水區"
"251007","577-R6","2018/08/14 18:29:35","新北市淡水區中正東路二段143巷2弄1號","121.460595","25.1472016666667","6501000","淡水區"
"251011","650-BX","2018/08/14 18:29:39","新北市淡水區中正東路8-8號","121.447943333333","25.1666433333333","6501000","淡水區"
"251002","672-BX","2018/08/14 18:29:47","新北市淡水區竿蓁二街19巷20弄1號","121.45307","25.1637216666667","6501000","淡水區"
"251003","673-BX","2018/08/14 18:29:38","新北市淡水區北新路169巷17號","121.449803333333","25.1799","6501000","淡水區"
"207003","681-TV","2018/08/14 18:29:50","新北市萬里區野柳里港東路73號","121.688201666667","25.2050283333333","6502800","萬里區"
"207004","291-VK","2018/08/14 18:29:43","新北市萬里區萬里里瑪鋉路272-1號","121.688868333333","25.180915","6502800","萬里區"
"252002","178-VK","2018/08/14 18:29:43","新北市三芝區中山路二段38號","121.502996666667","25.255155","6502100","三芝區"
"252003","249-BX","2018/08/14 18:29:50","新北市三芝區後厝里北勢子45-26號","121.468935","25.2506666666667","6502100","三芝區"
"252001","702-TV","2018/08/14 18:29:39","新北市三芝區中興街二段2號","121.498301666667","25.2566466666667","6502100","三芝區"
"237007","153-BY","2018/08/14 18:29:47","新北市三峽區中正路三段170巷2號","121.352618333333","24.9038833333333","6500900","三峽區"
"237009","210-TH","2018/08/14 18:29:31","新北市三峽區大同路255號","121.366636666667","24.9259783333333","6500900","三峽區"
"237013","252-BX","2018/08/14 18:29:38","新北市三峽區光明路69巷25號","121.376665","24.92922","6500900","三峽區"
"237012","275-BY","2018/08/14 18:29:44","新北市樹林區佳園路三段582號","121.380031666667","24.9437233333333","6500900","三峽區"
"237008","302-VK","2018/08/14 18:29:39","新北市三峽區白雞68-225號","121.390715","24.9089783333333","6500900","三峽區"
"237014","433-BY","2018/08/14 18:29:30","新北市三峽區文化路109號","121.3705","24.9360983333333","6500900","三峽區"
"237006","5529-G3","2018/08/14 18:29:33","新北市三峽區溪東路315巷53號","121.41167","24.9313283333333","6500900","三峽區"
"237011","KEA-2596","2018/08/14 18:29:34","新北市三峽區成福路101號","121.419113333333","24.9297766666667","6500900","三峽區"
"237016","649-BX","2018/08/14 18:29:50","新北市三峽區紫微南路13-1號","121.422451666667","24.91689","6500900","三峽區"
"237010","706-TV","2018/08/14 18:29:28","新北市三峽區復興路447號","121.362671666667","24.9384766666667","6500900","三峽區"
"237005","AKY-6261","2018/08/14 18:29:38","新北市三峽區清水街339號","121.371071666667","24.9338","6500900","三峽區"
"236070","105-UM","2018/08/14 18:29:49","新北市土城區永豐路255巷27弄41號","121.477033333333","24.973845","6501300","土城區"
"236042","107-UM","2018/08/14 18:29:45","新北市土城區裕民路67巷4弄12號","121.450255","24.98766","6501300","土城區"
"236079","166-UM","2018/08/14 18:29:32","新北市土城區中央路四段45-1號","121.422338333333","24.96184","6501300","土城區"
"236030","253-BX","2018/08/14 18:29:39","新北市土城區福仁街30巷10號","121.439458333333","24.9759633333333","6501300","土城區"
"236026","269-VK","2018/08/14 18:29:35","新北市土城區南天母路135巷1-1號","121.447768333333","24.9542983333333","6501300","土城區"
"236014","270-VK","2018/08/14 18:29:49","新北市土城區青雲路151巷21號","121.459923333333","24.9844483333333","6501300","土城區"
"236038","271-VK","2018/08/14 18:29:50","新北市土城區青雲路449-1號","121.458726666667","24.9748033333333","6501300","土城區"
"236021","401-BY","2018/08/14 18:29:31","新北市土城區明德路一段107號","121.465623333333","24.9823533333333","6501300","土城區"
"236059","912-UM","2018/08/14 18:29:48","新北市土城區中央路四段260號","121.414905","24.95691","6501300","土城區"
"236049","913-UM","2018/08/14 18:29:44","新北市土城區青雲路461號","121.458725","24.9743716666667","6501300","土城區"
"236063","915-UM","2018/08/14 18:29:43","新北市土城區延壽路77巷6弄4號","121.46857","24.992715","6501300","土城區"
"236055","AAC-216","2018/08/14 18:29:46","新北市土城區中華路二段61號","121.43951","24.9787733333333","6501300","土城區"
"242058","986-R7","2018/08/14 18:29:40","新北市新莊區新北大道七段842號","121.413716666667","25.0236533333333","6500500","新莊區"
"242025","705-TV","2018/08/14 18:29:33","新北市新莊區五工五路9號","121.455318333333","25.0621466666667","6500500","新莊區"
"242042","566-BX","2018/08/14 18:29:47","新北市新莊區天祥街81巷28號","121.415095","25.0285066666667","6500500","新莊區"
"242046","497-BY","2018/08/14 18:29:49","新北市新莊區中正路803巷37號","121.422015","25.027825","6500500","新莊區"
"242054","442-UM","2018/08/14 18:29:45","新北市新莊區民安西路480巷8號","121.431888333333","25.007125","6500500","新莊區"
"242056","440-UM","2018/08/14 18:29:51","新北市新莊區瓊泰路63巷21弄9號","121.442626666667","25.0284116666667","6500500","新莊區"
"242007","413-TV","2018/08/14 18:29:49","新北市新莊區新泰路357巷3弄27號","121.441936666667","25.0406416666667","6500500","新莊區"
"242044","400-BY","2018/08/14 18:29:46","新北市新莊區中正路新旺巷11號","121.415848333333","25.0233766666667","6500500","新莊區"
"242061","353-BY","2018/08/14 18:29:40","新北市新莊區建國二路11號","121.434628333333","25.0238366666667","6500500","新莊區"
"242009","132-UY","2018/08/14 18:29:36","新北市新莊區中華路二段45巷5號","121.45302","25.04656","6500500","新莊區"
"242011","173-VK","2018/08/14 18:25:37","新北市新莊區中榮街26號","121.450188333333","25.0529333333333","6500500","新莊區"
"242002","349-TH","2018/08/14 18:29:29","新北市新莊區瓊林路13-6號","121.448428333333","25.030475","6500500","新莊區"
"238015","755-BX","2018/08/14 18:29:45","新北市樹林區大安路519號","121.414255","24.9861183333333","6500700","樹林區"
"238023","601-UM","2018/08/14 18:29:34","新北市樹林區三福街114號","121.406441666667","25.0163233333333","6500700","樹林區"
"238019","599-UM","2018/08/14 18:29:46","新北市樹林區中華路190-16號","121.411756666667","24.9805866666667","6500700","樹林區"
"238018","571-TV","2018/08/14 18:29:39","新北市樹林區樹新路86號","121.429333333333","24.997515","6500700","樹林區"
"238022","KEA-2217","2018/08/14 18:29:07","新北市樹林區佳園路三段20-3號","121.387971666667","24.95413","6500700","樹林區"
"238021","KEA-2539","2018/08/14 18:29:32","新北市樹林區柑園街二段123號","121.384395","24.9548116666667","6500700","樹林區"
"238025","303-VK","2018/08/14 18:29:39","新北市樹林區大安路586號","121.411698333333","24.9834433333333","6500700","樹林區"
"238017","283-BY","2018/08/14 18:29:28","新北市樹林區光興街47號","121.411593333333","25.0030333333333","6500700","樹林區"
"238014","282-BY","2018/08/14 18:29:40","新北市樹林區大安路111巷11號","121.423071666667","24.9976116666667","6500700","樹林區"
"238020","268-VK","2018/08/14 18:29:42","新北市樹林區三龍街21號","121.413235","25.0190083333333","6500700","樹林區"
"238026","172-UY","2018/08/14 18:29:43","新北市樹林區八德街828-16號","121.392556666667","24.96904","6500700","樹林區"
"238016","169-UY","2018/08/14 18:29:36","新北市樹林區文化街27號","121.419188333333","24.987625","6500700","樹林區"
"239007","AAC-297","2018/08/14 18:29:48","新北市鶯歌區中正一路460號","121.36461","24.9564583333333","6500800","鶯歌區"
"239006","891-R6","2018/08/14 18:29:44","新北市鶯歌區鶯桃路296巷38弄2號","121.335425","24.960955","6500800","鶯歌區"
"239008","527-UM","2018/08/14 18:29:37","新北市鶯歌區國際一路179號","121.336236666667","24.976475","6500800","鶯歌區"
"239005","526-UM","2018/08/14 18:29:45","新北市鶯歌區鳳吉一街152號","121.32851","24.9753533333333","6500800","鶯歌區"
"239001","417-VK","2018/08/14 18:29:43","新北市鶯歌區二甲路光照巷10弄2-1號","121.33807","24.94033","6500800","鶯歌區"
"239003","360-BY","2018/08/14 18:29:44","新北市鶯歌區永和街65號","121.332815","24.96775","6500800","鶯歌區"
"239002","359-BY","2018/08/14 18:29:45","新北市鶯歌區中正一路187號","121.353415","24.95694","6500800","鶯歌區"
"239004","193-VK","2018/08/14 18:29:33","新北市鶯歌區尖山路240巷9號","121.342485","24.9472616666667","6500800","鶯歌區"
"221008","489-VK","2018/08/14 18:29:40","新北市汐止區康寧街901號","121.651375","25.0751683333333","6501100","汐止區"
"221036","130-UY","2018/08/14 18:29:42","新北市汐止區南昌街31號","121.663155","25.0691133333333","6501100","汐止區"
"221015","131-UY","2018/08/14 18:29:48","新北市汐止區鄉友街41號","121.668931666667","25.0816066666667","6501100","汐止區"
"221010","269-BY","2018/08/14 18:29:46","新北市汐止區瑞松街42號","121.64553","25.1059266666667","6501100","汐止區"
"221012","278-VK","2018/08/14 18:29:32","新北市汐止區保長路147巷2號","121.677008333333","25.0765333333333","6501100","汐止區"
"221023","279-VK","2018/08/14 18:29:44","新北市汐止區康寧街488號","121.632685","25.06844","6501100","汐止區"
"221032","280-BY","2018/08/14 18:29:44","新北市汐止區福山街60巷1號","121.617773333333","25.04649","6501100","汐止區"
"221027","281-BY","2018/08/14 18:29:28","新北市汐止區和平街84號","121.661416666667","25.070795","6501100","汐止區"
"221029","298-VK","2018/08/14 18:29:32","新北市汐止區樟樹二路330巷68號","121.642963333333","25.0698183333333","6501100","汐止區"
"221021","299-VK","2018/08/14 18:29:32","新北市汐止區復興路48巷2號","121.65677","25.0627666666667","6501100","汐止區"
"221002","129-UY","2018/08/14 18:29:46","新北市汐止區福德一路158號","121.63635","25.06657","6501100","汐止區"
"221035","622-UM","2018/08/14 18:29:34","新北市汐止區大同路二段199號","121.652568333333","25.06437","6501100","汐止區"
"221025","623-UM","2018/08/14 18:29:29","新北市汐止區福安街22巷4號","121.662835","25.0646133333333","6501100","汐止區"
"221038","646-BX","2018/08/14 18:29:42","新北市汐止區汐萬路一段132號","121.653485","25.0713216666667","6501100","汐止區"
"221033","647-BX","2018/08/14 18:29:46","新北市汐止區宜興街7號","121.621205","25.0414533333333","6501100","汐止區"
"221018","753-BX","2018/08/14 18:29:31","新北市汐止區茄苳路250巷4號","121.671268333333","25.0680083333333","6501100","汐止區"
"220079","145-BY","2018/08/14 18:29:33","新北市板橋區華東街1-10號","121.448341666667","24.9950766666667","6500100","板橋區"
"220082","610-BX","2018/08/14 18:29:51","新北市板橋區華東街1-10號","121.448233333333","24.9949733333333","6500100","板橋區"
"220056","276-BY","2018/08/14 18:29:38","新北市板橋區華東街1-9號","121.448115","24.9949716666667","6500100","板橋區"
"220071","283-VK","2018/08/14 18:29:38","新北市板橋區華東街1-9號","121.448063333333","24.9949466666667","6500100","板橋區"
"220081","287-VK","2018/08/14 18:29:33","新北市板橋區華東街1-9號","121.44818","24.9950316666667","6500100","板橋區"
"220084","296-UM","2018/08/14 18:29:33","新北市板橋區華東街1-9號","121.448143333333","24.9949566666667","6500100","板橋區"
"220064","486-VK","2018/08/14 18:29:40","新北市板橋區南雅南路二段120-24號","121.451651666667","24.998785","6500100","板橋區"
"220035","560-BX","2018/08/14 18:29:42","新北市板橋區南雅南路二段4巷2號","121.45464","25.0037566666667","6500100","板橋區"
"220054","630-UY","2018/08/14 18:29:39","新北市板橋區華東街1-9號","121.448101666667","24.9949516666667","6500100","板橋區"
"220057","686-BX","2018/08/14 18:29:46","新北市板橋區華東街1-9號","121.448185","24.994975","6500100","板橋區"
"220077","687-BX","2018/08/14 18:29:31","新北市板橋區華東街1-10號","121.448273333333","24.995","6500100","板橋區"
"220074","895-R6","2018/08/14 18:29:38","新北市板橋區華東街1-9號","121.448193333333","24.9949816666667","6500100","板橋區"
"220073","985-R7","2018/08/14 18:29:38","新北市板橋區華東街1-10號","121.448301666667","24.99497","6500100","板橋區"
"235068","KEA-2873","2018/08/14 18:29:47","新北市中和區中正路273-5號","121.495665","24.9933383333333","6500300","中和區"
"235061","KEA-2875","2018/08/14 18:29:19","新北市中和區民享街89巷4弄15號","121.475401666667","25.0011066666667","6500300","中和區"
