"lineid","car","time","location","longitude","latitude","cityid","cityname"
"234046","148-BY","2018/08/14 18:39:42","新北市永和區永元路66號","121.522605","25.0013816666667","6500400","永和區"
"234007","207-UY","2018/08/14 18:39:45","新北市永和區文化路164號","121.512165","25.015385","6500400","永和區"
"234081","298-R6","2018/08/14 18:39:35","新北市永和區林森路75號","121.52405","25.0039466666667","6500400","永和區"
"234086","338-UY","2018/08/14 18:39:38","新北市永和區中正路31號","121.514251666667","24.9958866666667","6500400","永和區"
"234038","553-UM","2018/08/14 18:39:49","新北市永和區福和路1號","121.52658","25.0099566666667","6500400","永和區"
"234017","745-BX","2018/08/14 18:39:49","新北市永和區福和路1號","121.526331666667","25.0095016666667","6500400","永和區"
"234030","746-BX","2018/08/14 18:39:40","新北市永和區得和路321號","121.523353333333","24.9996116666667","6500400","永和區"
"234013","KEA-2591","2018/08/14 18:39:35","新北市永和區信義路14-1號","121.51436","25.0121683333333","6500400","永和區"
"234050","863-TW","2018/08/14 18:39:30","新北市永和區福和路1號","121.526465","25.0099433333333","6500400","永和區"
"234026","9371-KE","2018/08/14 18:39:45","新北市永和區永貞路417巷7號","121.506995","25.0091033333333","6500400","永和區"
"234011","9373-KE","2018/08/14 18:39:36","新北市永和區文化路9巷22弄24號","121.514706666667","25.01462","6500400","永和區"
"249005","172-UM","2018/08/14 18:39:37","新北市八里區中華路三段198號","121.38851","25.12592","6502300","八里區"
"249001","173-UM","2018/08/14 18:39:39","新北市八里區龍米路一段398號","121.451376666667","25.1329216666667","6502300","八里區"
"249004","303-UY","2018/08/14 18:39:48","新北市八里區中山路一段10號","121.423228333333","25.1590183333333","6502300","八里區"
"249002","305-UY","2018/08/14 18:39:47","新北市八里區龍形一街33巷8-3號","121.449263333333","25.1298283333333","6502300","八里區"
"248016","026-BX","2018/08/14 18:39:36","新北市五股區凌雲路一段149巷5-1號","121.448916666667","25.101695","6501500","五股區"
"248008","095-VK","2018/08/14 18:39:41","新北市五股區中興路一段148號","121.464686666667","25.0740416666667","6501500","五股區"
"248020","225-UY","2018/08/14 18:36:08","新北市五股區孝義路102號","121.445153333333","25.119805","6501500","五股區"
"248012","247-BX","2018/08/14 18:39:50","新北市五股區成泰路三段2巷1-20號","121.44103","25.0865083333333","6501500","五股區"
"248014","261-SL","2018/08/14 18:39:49","新北市五股區蓬萊路24號","121.43413","25.0798783333333","6501500","五股區"
"248004","677-BX","2018/08/14 18:39:33","新北市五股區民義路一段206號","121.43039","25.0890916666667","6501500","五股區"
"248002","678-BX","2018/08/14 18:39:47","新北市五股區西雲路199號","121.448081666667","25.0961883333333","6501500","五股區"
"248010","682-TV","2018/08/14 18:39:31","新北市五股區明德路41號","121.434256666667","25.0713183333333","6501500","五股區"
"234023","9380-KE","2018/08/14 18:39:42","新北市永和區福和路76巷5弄14號","121.522391666667","25.008385","6500400","永和區"
"234077","969-R7","2018/08/14 18:39:40","新北市永和區中正路164號","121.515026666667","24.9966983333333","6500400","永和區"
"234067","AAC-212","2018/08/14 18:39:48","新北市永和區安樂路268號","121.514556666667","25.00386","6500400","永和區"
"234003","AAC-295","2018/08/14 18:39:42","新北市永和區福和路1號","121.526586666667","25.009845","6500400","永和區"
"244007","080-UY","2018/08/14 18:39:46","新北市林口區後湖23-1號","121.387683333333","25.0990016666667","6501700","林口區"
"244019","403-UM","2018/08/14 18:39:37","新北市林口區忠孝路627號","121.379736666667","25.06939","6501700","林口區"
"244013","KEA-2802","2018/08/14 18:39:44","新北市林口區中正路514巷6弄1號","121.382196666667","25.0780533333333","6501700","林口區"
"244009","410-SL","2018/08/14 18:39:47","新北市林口區竹林路326巷68號","121.39262","25.0820966666667","6501700","林口區"
"244023","483-VK","2018/08/14 18:39:33","新北市林口區文化一路二段84號","121.381456666667","25.0784183333333","6501700","林口區"
"244017","485-VK","2018/08/14 18:39:32","新北市林口區文化二路一段82號","121.366163333333","25.0694716666667","6501700","林口區"
"244011","657-BX","2018/08/14 18:39:49","新北市林口區興林路17巷5弄3號","121.390533333333","25.07713","6501700","林口區"
"244025","837-TS","2018/08/14 18:39:31","新北市林口區南勢六街240號","121.355783333333","25.0745283333333","6501700","林口區"
"244021","838-TS","2018/08/14 18:39:41","新北市林口區工六路12號","121.397966666667","25.0790733333333","6501700","林口區"
"243013","AAD-798","2018/08/14 18:29:06","新北市泰山區明志路三段206巷3號","121.423308333333","25.0379266666667","6501600","泰山區"
"243016","KEA-2801","2018/08/14 18:39:38","新北市泰山區泰林路二段580號","121.422368333333","25.06362","6501600","泰山區"
"243012","646-TV","2018/08/14 18:39:47","新北市泰山區福興三街13號","121.43449","25.0577316666667","6501600","泰山區"
"222003","436-BY","2018/08/14 18:39:31","新北市深坑區翠谷街37巷1號","121.62649","25.0093683333333","6501800","深坑區"
"222002","659-BX","2018/08/14 18:39:34","新北市深坑區雲鄉路1號","121.621026666667","24.99959","6501800","深坑區"
"231045","001-UM","2018/08/14 18:39:28","新北市新店區安華路28-1號","121.519423333333","24.96088","6500600","新店區"
"231041","002-UM","2018/08/14 18:39:48","新北市新店區安華路28-1號","121.519636666667","24.9607466666667","6500600","新店區"
"231059","046-UY","2018/08/14 18:39:41","新北市新店區安華路28-1號","121.51969","24.9608966666667","6500600","新店區"
"231040","047-UY","2018/08/14 18:39:33","新北市新店區安一路一段1-1號","121.518835","24.9610666666667","6500600","新店區"
"231044","106-UY","2018/08/14 18:39:36","新北市新店區光明街137號","121.539343333333","24.9620733333333","6500600","新店區"
"231046","107-UY","2018/08/14 18:39:26","新北市新店區直潭二街1號","121.53553","24.943205","6500600","新店區"
"231053","110-UY","2018/08/14 18:39:43","新北市新店區長興路21號","121.546488333333","24.9399116666667","6500600","新店區"
"231048","187-VK","2018/08/14 18:39:40","新北市新店區安康路一段226號","121.523525","24.96357","6500600","新店區"
"231054","KEA-2219","2018/08/14 18:39:30","新北市新店區安一路一段1-1號","121.519893333333","24.961185","6500600","新店區"
"221031","KEA-2785","2018/08/14 18:39:33","新北市汐止區福德一路274號","121.632123333333","25.0639316666667","6501100","汐止區"
"231057","256-BX","2018/08/14 18:39:43","新北市新店區新烏路一段215號","121.548698333333","24.9311583333333","6500600","新店區"
"231042","268-BY","2018/08/14 18:39:35","新北市新店區安華路1-1號","121.519346666667","24.9605016666667","6500600","新店區"
"231051","278-BY","2018/08/14 18:39:39","新北市新店區安康路一段48號","121.530398333333","24.9611183333333","6500600","新店區"
"231050","AAD-862","2018/08/14 18:39:42","新北市新店區安一路一段1-1號","121.519805","24.9610933333333","6500600","新店區"
"231043","355-BY","2018/08/14 18:39:29","新北市新店區安華路28-1號","121.51904","24.9609166666667","6500600","新店區"
"231058","3713-VJ","2018/08/14 18:39:47","新北市新店區新店後街16號","121.53805","24.9532333333333","6500600","新店區"
"231066","4716-K9","2018/08/14 18:39:43","新北市新店區安華路28-1號","121.519908333333","24.9608766666667","6500600","新店區"
"231056","4715-K9","2018/08/14 18:39:43","新北市新店區建國路194號","121.537815","24.98038","6500600","新店區"
"231067","4772-VM","2018/08/14 18:39:35","新北市新店區安華路28-1號","121.519103333333","24.9606483333333","6500600","新店區"
"231049","513-UM","2018/08/14 18:39:44","新北市新店區安一路一段1-1號","121.519738333333","24.9611033333333","6500600","新店區"
"231061","619-UM","2018/08/14 18:39:34","新北市新店區安華路28-1號","121.519493333333","24.9606933333333","6500600","新店區"
"231063","641-BX","2018/08/14 18:39:51","新北市新店區安華路28-1號","121.519578333333","24.9605466666667","6500600","新店區"
"231064","719-UM","2018/08/14 18:39:30","新北市新店區安一路一段1-1號","121.519461666667","24.9613266666667","6500600","新店區"
"231062","720-UM","2018/08/14 18:39:50","新北市新店區安一路一段1-1號","121.519053333333","24.961365","6500600","新店區"
"231060","897-TW","2018/08/14 18:39:48","新北市新店區安華路1-1號","121.519441666667","24.960465","6500600","新店區"
"231055","AKT-0513","2018/08/14 18:39:33","新北市新店區中華路47巷2弄2號","121.539723333333","24.9676416666667","6500600","新店區"
"235030","003-UY","2018/08/14 18:39:48","新北市中和區水源路39號","121.504638333333","25.0035783333333","6500300","中和區"
"235064","005-UY","2018/08/14 18:39:34","新北市中和區連城路109巷83號","121.497488333333","24.997535","6500300","中和區"
"235063","006-UY","2018/08/14 18:39:41","新北市中和區連城路347巷4弄28號","121.48711","24.99561","6500300","中和區"
"235056","096-UM","2018/08/14 18:39:38","新北市中和區員山路611巷1號","121.477901666667","25.0112883333333","6500300","中和區"
"235039","097-UM","2018/08/14 18:39:40","新北市永和區中正路9號","121.513925","24.9957033333333","6500300","中和區"
"235065","098-UM","2018/08/14 18:39:33","新北市中和區莊敬路33巷40號","121.500313333333","25.006575","6500300","中和區"
"235040","150-BY","2018/08/14 18:39:40","新北市中和區宜安路47巷2號","121.511776666667","24.9964916666667","6500300","中和區"
"235058","151-BY","2018/08/14 18:39:49","新北市中和區連城路384號","121.480578333333","24.9950883333333","6500300","中和區"
"235055","183-VK","2018/08/14 18:39:43","新北市板橋區國泰街75巷49號","121.468525","25.0049583333333","6500300","中和區"
"235038","185-VK","2018/08/14 18:39:33","新北市中和區大勇街60巷30號","121.519301666667","24.9946216666667","6500300","中和區"
"235049","186-VK","2018/08/14 18:39:47","新北市中和區景平路504巷2號","121.503985","24.99371","6500300","中和區"
"235067","255-BX","2018/08/14 18:39:31","新北市中和區新生街10號","121.483148333333","25.0045333333333","6500300","中和區"
"235044","293-VK","2018/08/14 18:39:30","新北市中和區復興路280巷13號","121.502275","24.9912816666667","6500300","中和區"
"235072","301-VK","2018/08/14 18:39:35","新北市中和區永和路1號","121.499905","25.00282","6500300","中和區"
"235043","352-BY","2018/08/14 18:39:35","新北市中和區景平路111巷2號","121.516488333333","24.9917966666667","6500300","中和區"
"235042","KEA-2878","2018/08/14 18:39:46","新北市中和區成功路48號","121.526046666667","24.992905","6500300","中和區"
"235050","4979-A6","2018/08/14 18:39:42","新北市中和區忠孝街124巷10號","121.512766666667","24.9859316666667","6500300","中和區"
"235069","4980-A6","2018/08/14 18:39:39","新北市中和區連城路99巷53號","121.497201666667","24.998615","6500300","中和區"
"235070","558-UM","2018/08/14 18:39:35","新北市中和區景平路608號","121.500771666667","24.9967583333333","6500300","中和區"
"235045","565-BX","2018/08/14 18:39:47","新北市中和區南山路236巷34-10號","121.504373333333","24.9881766666667","6500300","中和區"
"235054","640-BX","2018/08/14 18:39:42","新北市中和區莒光路129巷1弄10號","121.473048333333","25.0023683333333","6500300","中和區"
"235060","647-TV","2018/08/14 18:39:38","新北市中和區中山路二段475號","121.483161666667","25.004815","6500300","中和區"
"235046","733-UM","2018/08/14 18:39:50","新北市中和區忠孝街101巷1號","121.511855","24.986095","6500300","中和區"
"235062","800-TS","2018/08/14 18:39:35","新北市中和區中山路二段312巷12號","121.495306666667","25.0037583333333","6500300","中和區"
"235057","801-TS","2018/08/14 18:39:48","新北市中和區員山路325-5號","121.480976666667","25.0010333333333","6500300","中和區"
"235041","802-TS","2018/08/14 18:39:46","新北市中和區宜安路118巷42號","121.511198333333","24.9991366666667","6500300","中和區"
"235052","805-TS","2018/08/14 18:39:49","新北市中和區興南路三段80號","121.492123333333","24.9741566666667","6500300","中和區"
"235048","896-TW","2018/08/14 18:39:28","新北市中和區南山路389號","121.506375","24.9903466666667","6500300","中和區"
"235053","900-TW","2018/08/14 18:39:44","新北市中和區民享街492號","121.469628333333","24.9922516666667","6500300","中和區"
"235051","157-BY","2018/08/14 18:39:43","新北市中和區華新街143巷106弄3號","121.506051666667","24.9790066666667","6500300","中和區"
"235037","AAC-213","2018/08/14 18:39:45","新北市中和區景德街37號","121.518308333333","24.9913083333333","6500300","中和區"
"235059","AAC-215","2018/08/14 18:39:44","新北市中和區錦和路354巷15號","121.489773333333","24.9915633333333","6500300","中和區"
"220065","072-UY","2018/08/14 18:39:47","新北市板橋區民族路129巷26號","121.467985","25.0089833333333","6500100","板橋區"
"220086","073-UY","2018/08/14 18:39:35","新北市板橋區南雅西路二段192巷1弄50號","121.45254","25.0153816666667","6500100","板橋區"
"220069","AAD-861","2018/08/14 18:39:44","新北市板橋區華東街1-8號","121.44773","24.9948483333333","6500100","板橋區"
"226004","205-ST","2018/08/14 18:39:38","新北市平溪區平溪里平溪街22號","121.738838333333","25.02532","6502400","平溪區"
"235047","251-BX","2018/08/14 18:39:29","新北市中和區南山路320巷10弄11號","121.506888333333","24.9865866666667","6500300","中和區"
"228001","212-TW","2018/08/14 18:39:43","新北市貢寮區仁理村保健街73號","121.92368","25.051755","6502600","貢寮區"
"228002","663-BX","2018/08/14 18:39:46","新北市貢寮區福隆里東興街6-11號","121.950765","25.0210933333333","6502600","貢寮區"
"228003","828-UM","2018/08/14 18:39:38","新北市貢寮區和美里龍洞街40-1號","121.91556","25.1116616666667","6502600","貢寮區"
"224010","AGQ-8101","2018/08/14 18:38:32","新北市瑞芳區崙頂路43號","121.844758333333","25.107245","6501200","瑞芳區"
"224006","676-BX","2018/08/14 18:39:38","新北市瑞芳區明燈路三段86號","121.805613333333","25.1083183333333","6501200","瑞芳區"
"224002","639-TC","2018/08/14 18:39:38","新北市瑞芳區明燈路二段66號","121.809315","25.107375","6501200","瑞芳區"
"224008","285-BY","2018/08/14 18:39:34","新北市瑞芳區瑞芳街21號","121.806551666667","25.109545","6501200","瑞芳區"
"224007","275-VK","2018/08/14 18:39:37","新北市瑞芳區大埔路115巷18號","121.762913333333","25.1013216666667","6501200","瑞芳區"
"224009","273-VK","2018/08/14 18:39:43","新北市瑞芳區祈堂路2號","121.859768333333","25.1117466666667","6501200","瑞芳區"
"224005","271-BY","2018/08/14 18:39:35","新北市瑞芳區瑞濱路30號","121.826541666667","25.1215733333333","6501200","瑞芳區"
"227003","642-TC","2018/08/14 18:39:38","新北市雙溪區魚行里坤溪3-5號","121.87622","25.0208266666667","6502500","雙溪區"
"227009","400-TW","2018/08/14 18:39:38","新北市雙溪區牡丹里下坑11號","121.85102","25.0561866666667","6502500","雙溪區"
"253005","032-BX","2018/08/14 18:39:40","新北市石門區石門街22號","121.566138333333","25.290595","6502200","石門區"
"253006","295-VK","2018/08/14 18:39:48","新北市石門區崁子腳1-1號","121.531818333333","25.2880416666667","6502200","石門區"
"222001","KEA-2212","2018/08/14 18:39:36","新北市深坑區北深路一段82號","121.636348333333","25.0106116666667","6501800","深坑區"
"208002","KEA-2872","2018/08/14 18:39:43","新北市金山區仁愛路15-7號","121.63837","25.21876","6502700","金山區"
"208003","665-BX","2018/08/14 18:39:36","新北市金山區中山路344號","121.63345","25.2252983333333","6502700","金山區"
"208001","761-BX","2018/08/14 18:39:39","新北市金山區文化三路7號","121.63518","25.2249466666667","6502700","金山區"
"251005","010-UM","2018/08/14 18:39:44","新北市淡水區中正路18巷6號","121.437653333333","25.172845","6501000","淡水區"
"251001","011-UM","2018/08/14 18:39:45","新北市淡水區自強路415巷2號","121.46546","25.134175","6501000","淡水區"
"251013","KEA-2871","2018/08/14 18:39:40","新北市淡水區雲廣坑7號","121.475316666667","25.2120233333333","6501000","淡水區"
"251016","179-VK","2018/08/14 18:39:45","新北市淡水區下圭柔山72號","121.445916666667","25.2048183333333","6501000","淡水區"
"251014","180-VK","2018/08/14 18:39:48","新北市淡水區崙頂12-8號","121.49556","25.2172666666667","6501000","淡水區"
"251015","181-VK","2018/08/14 18:39:39","新北市淡水區興福寮66巷313號","121.48506","25.16176","6501000","淡水區"
"251010","413-VK","2018/08/14 18:39:41","新北市淡水區沙崙路145號","121.423423333333","25.183065","6501000","淡水區"
"251012","441-VK","2018/08/14 18:39:50","新北市淡水區北新路121號","121.44899","25.1786483333333","6501000","淡水區"
"251008","442-VK","2018/08/14 18:39:49","新北市淡水區北投子19-3號","121.453905","25.1840433333333","6501000","淡水區"
"251004","443-VK","2018/08/14 18:39:42","新北市淡水區中正東路二段161巷11弄12號","121.461435","25.146195","6501000","淡水區"
"251006","561-UM","2018/08/14 18:39:32","新北市淡水區崁頂36-7號","121.43874","25.193165","6501000","淡水區"
"251007","577-R6","2018/08/14 18:39:35","新北市淡水區中正東路二段143巷2弄1號","121.460583333333","25.147265","6501000","淡水區"
"251011","650-BX","2018/08/14 18:39:39","新北市淡水區鄧公路36巷15號","121.455661666667","25.1692366666667","6501000","淡水區"
"251002","672-BX","2018/08/14 18:39:47","新北市淡水區中正東路一段3巷14弄1號","121.450893333333","25.16418","6501000","淡水區"
"251003","673-BX","2018/08/14 18:39:38","新北市淡水區北新路69巷26號","121.446713333333","25.1801133333333","6501000","淡水區"
"207003","681-TV","2018/08/14 18:39:30","新北市萬里區野柳里八斗60號","121.666975","25.2043983333333","6502800","萬里區"
"207004","291-VK","2018/08/14 18:39:43","新北市萬里區萬里里獅頭路10-1號","121.69211","25.1787633333333","6502800","萬里區"
"252002","178-VK","2018/08/14 18:39:43","新北市三芝區民生街66號","121.503363333333","25.255515","6502100","三芝區"
"252003","249-BX","2018/08/14 18:39:50","新北市三芝區後厝里土地公坑73號","121.460821666667","25.247645","6502100","三芝區"
"252001","702-TV","2018/08/14 18:39:39","新北市三芝區埔頭里埔頭14號","121.500211666667","25.2543383333333","6502100","三芝區"
"237007","153-BY","2018/08/14 18:39:47","新北市三峽區中正路二段496巷2號","121.361765","24.90639","6500900","三峽區"
"237009","210-TH","2018/08/14 18:39:51","新北市三峽區弘園街53號","121.366556666667","24.9274233333333","6500900","三峽區"
"237013","252-BX","2018/08/14 18:39:38","新北市三峽區光明路69巷25號","121.376725","24.9291783333333","6500900","三峽區"
"237012","275-BY","2018/08/14 18:39:44","新北市三峽區三樹路358號","121.383915","24.9434533333333","6500900","三峽區"
"237008","302-VK","2018/08/14 18:39:39","新北市三峽區白雞57-30號","121.391618333333","24.9115216666667","6500900","三峽區"
"237014","433-BY","2018/08/14 18:39:30","新北市三峽區復興路485號","121.361548333333","24.9386616666667","6500900","三峽區"
"237006","5529-G3","2018/08/14 18:39:49","新北市三峽區溪東路235號","121.406671666667","24.932615","6500900","三峽區"
"237011","KEA-2596","2018/08/14 18:39:34","新北市三峽區溪東路39號","121.400396666667","24.9349016666667","6500900","三峽區"
"237016","649-BX","2018/08/14 18:39:50","新北市三峽區竹崙路155號","121.434503333333","24.9068733333333","6500900","三峽區"
"237010","706-TV","2018/08/14 18:39:28","新北市三峽區復興路447號","121.362728333333","24.9384383333333","6500900","三峽區"
"237005","AKY-6261","2018/08/14 18:39:38","新北市三峽區新興街25號","121.372725","24.9353666666667","6500900","三峽區"
"236070","105-UM","2018/08/14 18:39:49","新北市土城區永豐路157巷29弄1號","121.468701666667","24.9814633333333","6501300","土城區"
"236042","107-UM","2018/08/14 18:39:38","新北市土城區裕民路55巷17號","121.44934","24.9887416666667","6501300","土城區"
"236079","166-UM","2018/08/14 18:39:32","新北市土城區頂埔街57號","121.417225","24.959275","6501300","土城區"
"236030","253-BX","2018/08/14 18:39:48","新北市土城區福仁街72號","121.439123333333","24.9742083333333","6501300","土城區"
"236026","269-VK","2018/08/14 18:39:35","新北市土城區忠義路49-1號","121.440458333333","24.9690483333333","6501300","土城區"
"236014","270-VK","2018/08/14 18:39:48","新北市土城區清水路278巷28弄2號","121.462616666667","24.9825616666667","6501300","土城區"
"236038","271-VK","2018/08/14 18:39:39","新北市土城區明德路一段291巷19號","121.460465","24.9759783333333","6501300","土城區"
"236021","401-BY","2018/08/14 18:39:51","新北市土城區延吉街238號","121.466916666667","24.98486","6501300","土城區"
"236059","912-UM","2018/08/14 18:39:48","新北市土城區中央路四段21號","121.42515","24.9626566666667","6501300","土城區"
"236049","913-UM","2018/08/14 18:39:42","新北市土城區明德路一段65號","121.465358333333","24.9843066666667","6501300","土城區"
"236063","915-UM","2018/08/14 18:39:43","新北市土城區延壽路55巷7弄6號","121.469651666667","24.991625","6501300","土城區"
"236055","AAC-216","2018/08/14 18:39:46","新北市土城區中華路一段23號","121.446938333333","24.989105","6501300","土城區"
"242058","986-R7","2018/08/14 18:39:40","新北市新莊區中正路897-10號","121.411601666667","25.0216583333333","6500500","新莊區"
"242025","705-TV","2018/08/14 18:39:33","新北市新莊區中原路662號","121.44273","25.054475","6500500","新莊區"
"242042","566-BX","2018/08/14 18:39:47","新北市新莊區天祥街92巷14號","121.415588333333","25.0299566666667","6500500","新莊區"
"242054","442-UM","2018/08/14 18:39:45","新北市新莊區樹新路120巷49弄1號","121.430378333333","24.9957366666667","6500500","新莊區"
"242061","353-BY","2018/08/14 18:39:40","新北市新莊區富國路176巷5號","121.424126666667","25.0241966666667","6500500","新莊區"
"242002","349-TH","2018/08/14 18:39:49","新北市新莊區環河路636-7號","121.437446666667","25.0117683333333","6500500","新莊區"
"238023","601-UM","2018/08/14 18:39:34","新北市樹林區三福街114號","121.40644","25.0163116666667","6500700","樹林區"
"238019","599-UM","2018/08/14 18:39:46","新北市樹林區中華路190-16號","121.411736666667","24.9805633333333","6500700","樹林區"
"238018","571-TV","2018/08/14 18:39:39","新北市樹林區鎮前街165號","121.422246666667","24.98717","6500700","樹林區"
"238022","KEA-2217","2018/08/14 18:29:07","新北市樹林區佳園路三段20-3號","121.387971666667","24.95413","6500700","樹林區"
"238025","303-VK","2018/08/14 18:39:39","新北市樹林區中山路三段22號","121.39558","24.973015","6500700","樹林區"
"238017","283-BY","2018/08/14 18:39:48","新北市樹林區光興街50號","121.409835","25.0027733333333","6500700","樹林區"
"238014","282-BY","2018/08/14 18:39:40","新北市樹林區大安路111巷11號","121.423061666667","24.9975933333333","6500700","樹林區"
"238020","268-VK","2018/08/14 18:39:42","新北市樹林區俊安街15號","121.419726666667","25.0138416666667","6500700","樹林區"
"238026","172-UY","2018/08/14 18:39:43","新北市樹林區八德街1146號","121.390925","24.9685066666667","6500700","樹林區"
"238016","169-UY","2018/08/14 18:39:36","新北市樹林區文化街23號","121.41945","24.9875616666667","6500700","樹林區"
"239007","AAC-297","2018/08/14 18:39:48","新北市鶯歌區中正一路建德巷38號","121.364503333333","24.9578283333333","6500800","鶯歌區"
"239006","891-R6","2018/08/14 18:39:44","新北市鶯歌區鶯桃路268巷18號","121.336001666667","24.96043","6500800","鶯歌區"
"239008","527-UM","2018/08/14 18:39:37","新北市鶯歌區國際一路179號","121.33623","24.9764583333333","6500800","鶯歌區"
"239005","526-UM","2018/08/14 18:39:45","新北市鶯歌區鳳吉一街104號","121.327355","24.97456","6500800","鶯歌區"
"239001","417-VK","2018/08/14 18:39:43","新北市鶯歌區中正二路192-3號","121.339566666667","24.943425","6500800","鶯歌區"
"239003","360-BY","2018/08/14 18:39:44","新北市鶯歌區永和街37號","121.33219","24.967185","6500800","鶯歌區"
"239002","359-BY","2018/08/14 18:39:45","新北市鶯歌區國華路1-1號","121.343343333333","24.9569483333333","6500800","鶯歌區"
"239004","193-VK","2018/08/14 18:39:33","新北市鶯歌區尖山路302巷22號","121.342001666667","24.94323","6500800","鶯歌區"
"221008","489-VK","2018/08/14 18:39:40","新北市汐止區康寧街901號","121.65138","25.07516","6501100","汐止區"
"221036","130-UY","2018/08/14 18:39:42","新北市汐止區水碓街55號","121.665146666667","25.0692183333333","6501100","汐止區"
"221015","131-UY","2018/08/14 18:39:28","新北市汐止區鄉長路二段18巷1號","121.668446666667","25.0819833333333","6501100","汐止區"
"221010","269-BY","2018/08/14 18:39:46","新北市汐止區汐萬路三段14號","121.643061666667","25.09119","6501100","汐止區"
"221012","278-VK","2018/08/14 18:39:32","新北市汐止區汐萬路一段144-2號","121.653026666667","25.0711816666667","6501100","汐止區"
"221023","279-VK","2018/08/14 18:39:44","新北市汐止區明峰街59號","121.632908333333","25.071275","6501100","汐止區"
"221032","280-BY","2018/08/14 18:39:44","新北市汐止區民權街二段79號","121.619213333333","25.04802","6501100","汐止區"
"221027","281-BY","2018/08/14 18:39:48","新北市汐止區汐萬路一段256巷3號","121.652531666667","25.0745833333333","6501100","汐止區"
"221029","298-VK","2018/08/14 18:39:32","新北市汐止區樟樹一路131號","121.642178333333","25.065025","6501100","汐止區"
"221021","299-VK","2018/08/14 18:39:32","新北市汐止區新興路32號","121.656678333333","25.064185","6501100","汐止區"
"221002","129-UY","2018/08/14 18:39:46","新北市汐止區中興路25號","121.636893333333","25.0596266666667","6501100","汐止區"
"221035","622-UM","2018/08/14 18:39:34","新北市汐止區汐萬路一段3號","121.656038333333","25.0672983333333","6501100","汐止區"
"221025","623-UM","2018/08/14 18:39:29","新北市汐止區仁愛路113巷8號","121.662198333333","25.0638733333333","6501100","汐止區"
"221038","646-BX","2018/08/14 18:39:42","新北市汐止區汐萬路一段312號","121.650688333333","25.075295","6501100","汐止區"
"221033","647-BX","2018/08/14 18:39:46","新北市汐止區南勢街1巷1號","121.627035","25.03749","6501100","汐止區"
"221018","753-BX","2018/08/14 18:39:31","新北市汐止區茄苳路301號","121.673228333333","25.06699","6501100","汐止區"
"220079","145-BY","2018/08/14 18:39:33","新北市板橋區館前西路162號","121.452863333333","25.0085516666667","6500100","板橋區"
"220080","200-UY","2018/08/14 18:39:49","新北市板橋區大觀路二段265巷76弄30號","121.441341666667","24.99682","6500100","板橋區"
"220082","610-BX","2018/08/14 18:39:31","新北市板橋區大觀路三段52號","121.432185","24.9960233333333","6500100","板橋區"
"220056","276-BY","2018/08/14 18:39:39","新北市板橋區四川路二段121號","121.451198333333","24.994205","6500100","板橋區"
"220072","277-BY","2018/08/14 18:39:35","新北市板橋區大觀路三段52號","121.432325","24.99615","6500100","板橋區"
"220071","283-VK","2018/08/14 18:39:38","新北市板橋區四川路二段121號","121.451101666667","24.99417","6500100","板橋區"
"220094","285-UM","2018/08/14 18:39:30","新北市板橋區民生路二段161巷3號","121.469993333333","25.0197433333333","6500100","板橋區"
"220083","286-VK","2018/08/14 18:39:32","新北市板橋區大觀路二段107號","121.446313333333","25.0016083333333","6500100","板橋區"
"220081","287-VK","2018/08/14 18:39:33","新北市板橋區大觀路一段31號","121.449733333333","25.0085016666667","6500100","板橋區"
"220084","296-UM","2018/08/14 18:39:32","新北市板橋區大觀路二段251號","121.443388333333","24.9992366666667","6500100","板橋區"
"220075","303-R5","2018/08/14 18:39:48","新北市板橋區南雅南路二段120-1號","121.452216666667","24.99975","6500100","板橋區"
"220062","305-R5","2018/08/14 18:39:36","新北市板橋區民生路二段161巷3號","121.47028","25.0198733333333","6500100","板橋區"
"220098","317-R6","2018/08/14 18:39:35","新北市板橋區民生路二段161巷3號","121.470195","25.0197866666667","6500100","板橋區"
"220064","486-VK","2018/08/14 18:39:40","新北市板橋區館前西路47號","121.45805","25.006695","6500100","板橋區"
"220035","560-BX","2018/08/14 18:39:42","新北市板橋區南雅西路二段145巷10號","121.451588333333","25.0119216666667","6500100","板橋區"
"220103","561-BX","2018/08/14 18:39:31","新北市板橋區民生路二段120號","121.47034","25.0196566666667","6500100","板橋區"
"220054","630-UY","2018/08/14 18:39:39","新北市板橋區南雅南路二段120-8號","121.452288333333","24.9995116666667","6500100","板橋區"
"220057","686-BX","2018/08/14 18:39:46","新北市板橋區華東街1-9號","121.448193333333","24.994955","6500100","板橋區"
"220077","687-BX","2018/08/14 18:39:31","新北市板橋區大觀路二段174巷104弄1號","121.44105","25.001365","6500100","板橋區"
"220055","827-TW","2018/08/14 18:39:42","新北市板橋區南雅南路二段144巷60號","121.45012","24.997275","6500100","板橋區"
"220074","895-R6","2018/08/14 18:39:38","新北市板橋區南雅南路一段131號","121.455086666667","25.0044216666667","6500100","板橋區"
"220073","985-R7","2018/08/14 18:39:38","新北市板橋區貴興路35號","121.457541666667","25.0039016666667","6500100","板橋區"
"220070","AAC-253","2018/08/14 18:39:35","新北市板橋區南雅南路二段120-23號","121.451615","24.9986933333333","6500100","板橋區"
"235068","KEA-2873","2018/08/14 18:39:47","新北市中和區中正路216-2號","121.496645","24.99381","6500300","中和區"
"235061","KEA-2875","2018/08/14 18:39:49","新北市中和區民享街114巷10號","121.47404","24.99945","6500300","中和區"
