"lineid","car","time","location","longitude","latitude","cityid","cityname"
"234046","148-BY","2018/08/14 18:58:13","新北市永和區得和路373巷31弄4號","121.52496","25.0005","6500400","永和區"
"234007","207-UY","2018/08/14 18:58:09","新北市永和區永和路二段100號","121.515133333333","25.0119283333333","6500400","永和區"
"234081","298-R6","2018/08/14 18:58:15","新北市永和區國中路156號","121.522663333333","25.0066683333333","6500400","永和區"
"234062","337-UY","2018/08/14 18:58:04","新北市永和區秀朗路一段156號","121.518333333333","25.0033633333333","6500400","永和區"
"234086","338-UY","2018/08/14 18:58:17","新北市永和區永寧街125號","121.51812","25.00553","6500400","永和區"
"234070","552-UM","2018/08/14 18:58:08","新北市永和區中興街84巷8號","121.518363333333","25.0116733333333","6500400","永和區"
"234038","553-UM","2018/08/14 18:58:09","新北市永和區成功路二段199-1號","121.526546666667","24.9961533333333","6500400","永和區"
"234017","745-BX","2018/08/14 18:58:09","新北市永和區永和路二段304號","121.516265","25.0159533333333","6500400","永和區"
"234030","746-BX","2018/08/14 18:58:20","新北市永和區秀朗路二段291號","121.526186666667","24.9979383333333","6500400","永和區"
"234054","KEA-2590","2018/08/14 18:58:02","新北市永和區竹林路64號","121.518216666667","25.01354","6500400","永和區"
"234013","KEA-2591","2018/08/14 18:58:15","新北市永和區保福路二段2號","121.511181666667","25.0107833333333","6500400","永和區"
"234061","AAD-866","2018/08/14 18:58:05","新北市永和區福和路309巷1號","121.516445","25.0070533333333","6500400","永和區"
"234042","862-TW","2018/08/14 18:58:04","新北市永和區永貞路304號","121.512031666667","25.0048216666667","6500400","永和區"
"234050","863-TW","2018/08/14 18:58:10","新北市永和區保安路2號","121.510721666667","25.01748","6500400","永和區"
"234026","9371-KE","2018/08/14 18:58:05","新北市永和區自由街58號","121.513775","25.00595","6500400","永和區"
"234011","9373-KE","2018/08/14 18:58:16","新北市永和區文化路146號","121.51261","25.015295","6500400","永和區"
"249005","172-UM","2018/08/14 18:58:17","新北市八里區長道坑11號","121.39514","25.12194","6502300","八里區"
"249001","173-UM","2018/08/14 18:58:19","新北市八里區龍米路二段226巷1號","121.432871666667","25.1584583333333","6502300","八里區"
"248016","026-BX","2018/08/14 18:58:16","新北市五股區成泰路三段543巷54號","121.44967","25.1030483333333","6501500","五股區"
"248006","077-UY","2018/08/14 18:58:18","新北市五股區中興路一段38號","121.46838","25.072645","6501500","五股區"
"248008","095-VK","2018/08/14 18:58:16","新北市五股區中興路一段128巷38號","121.465866666667","25.0754433333333","6501500","五股區"
"248020","225-UY","2018/08/14 18:58:08","新北市五股區凌雲路三段57號","121.425306666667","25.1250233333333","6501500","五股區"
"248012","247-BX","2018/08/14 18:58:18","新北市五股區工商路34號","121.439583333333","25.0838183333333","6501500","五股區"
"248014","261-SL","2018/08/14 18:58:09","新北市五股區成泰路二段252號","121.440581666667","25.0873833333333","6501500","五股區"
"248004","677-BX","2018/08/14 18:58:14","新北市五股區民義路二段68號","121.405776666667","25.1077266666667","6501500","五股區"
"248002","678-BX","2018/08/14 18:58:07","新北市五股區凌雲路一段107號","121.450146666667","25.1017416666667","6501500","五股區"
"248010","682-TV","2018/08/14 18:58:16","新北市五股區水碓九路16號","121.427965","25.0715083333333","6501500","五股區"
"234023","9380-KE","2018/08/14 18:58:02","新北市永和區竹林路75巷33弄47號","121.52129","25.0147166666667","6500400","永和區"
"234077","969-R7","2018/08/14 18:58:00","新北市永和區智光街22號","121.518056666667","24.9991933333333","6500400","永和區"
"234074","AAC-211","2018/08/14 18:58:20","新北市永和區環河東路二段98號","121.524126666667","25.0103533333333","6500400","永和區"
"234067","AAC-212","2018/08/14 18:58:08","新北市永和區中和路623號","121.5128","25.0049933333333","6500400","永和區"
"234003","AAC-295","2018/08/14 18:58:02","新北市永和區和平街26號","121.513586666667","25.0099333333333","6500400","永和區"
"232011","375-UM","2018/08/14 18:58:11","新北市坪林區水聳淒坑19-1號","121.712628333333","24.9349466666667","6502000","坪林區"
"244007","080-UY","2018/08/14 18:58:06","新北市林口區太平里16號","121.377198333333","25.11509","6501700","林口區"
"244019","403-UM","2018/08/14 18:58:17","新北市林口區麗園二街1巷1號","121.377418333333","25.069805","6501700","林口區"
"244013","KEA-2802","2018/08/14 18:58:04","新北市林口區麗園一街11巷1號","121.376926666667","25.0703616666667","6501700","林口區"
"244009","410-SL","2018/08/14 18:58:07","新北市林口區台電新村141號","121.388623333333","25.0876033333333","6501700","林口區"
"244023","483-VK","2018/08/14 18:58:13","新北市林口區民權路106號","121.373726666667","25.0828233333333","6501700","林口區"
"244017","485-VK","2018/08/14 18:58:11","新北市林口區文化二路一段20巷25弄17號","121.365513333333","25.0674066666667","6501700","林口區"
"244011","657-BX","2018/08/14 18:58:09","新北市林口區仁愛路一段285巷32號","121.395595","25.0755083333333","6501700","林口區"
"244025","837-TS","2018/08/14 18:58:10","新北市林口區南勢街192巷11號","121.361063333333","25.075135","6501700","林口區"
"243013","AAD-798","2018/08/14 18:58:08","新北市泰山區明志路三段206巷3號","121.423295","25.0379383333333","6501600","泰山區"
"243009","297-R6","2018/08/14 18:58:20","新北市泰山區泰林路二段365號","121.427963333333","25.0637233333333","6501600","泰山區"
"243016","KEA-2801","2018/08/14 18:58:18","新北市泰山區明志路二段137號","121.427628333333","25.0506316666667","6501600","泰山區"
"243015","421-VK","2018/08/14 18:58:14","新北市泰山區美寧街6號","121.430186666667","25.0634883333333","6501600","泰山區"
"243011","KEA-2215","2018/08/14 18:58:01","新北市泰山區明志路二段246-1號","121.426921666667","25.0481483333333","6501600","泰山區"
"243010","KEA-2216","2018/08/14 18:58:02","新北市泰山區辭修路28號","121.429006666667","25.05825","6501600","泰山區"
"243012","646-TV","2018/08/14 18:58:07","新北市泰山區福興三街193號","121.43339","25.0573333333333","6501600","泰山區"
"243014","680-BX","2018/08/14 18:58:13","新北市泰山區黎明路23號","121.420953333333","25.0625566666667","6501600","泰山區"
"222003","436-BY","2018/08/14 18:58:11","新北市深坑區深南路51-1號","121.621353333333","25.01017","6501800","深坑區"
"222002","659-BX","2018/08/14 18:58:14","新北市深坑區文山路一段33號","121.62912","25.0036033333333","6501800","深坑區"
"231045","001-UM","2018/08/14 18:58:08","新北市新店區光明街53號","121.538588333333","24.9602083333333","6500600","新店區"
"231041","002-UM","2018/08/14 18:58:07","新北市新店區環河路62號","121.537103333333","24.9626833333333","6500600","新店區"
"231059","046-UY","2018/08/14 18:58:02","新北市新店區安華路28-1號","121.519801666667","24.960895","6500600","新店區"
"231040","047-UY","2018/08/14 18:58:14","新北市新店區中央路43號","121.533008333333","24.977495","6500600","新店區"
"231044","106-UY","2018/08/14 18:58:16","新北市新店區寶中路72號","121.547876666667","24.980635","6500600","新店區"
"231046","107-UY","2018/08/14 18:58:06","新北市新店區直潭六街46號","121.533116666667","24.9403966666667","6500600","新店區"
"231053","110-UY","2018/08/14 18:58:12","新北市新店區屈尺路58號","121.547346666667","24.9227533333333","6500600","新店區"
"231048","187-VK","2018/08/14 18:58:20","新北市新店區德正街23巷1號","121.544061666667","24.9719283333333","6500600","新店區"
"231054","KEA-2219","2018/08/14 18:58:10","新北市新店區新店路13號","121.540298333333","24.952875","6500600","新店區"
"221031","KEA-2785","2018/08/14 18:58:13","新北市汐止區福德二路156巷3號","121.630038333333","25.0653966666667","6501100","汐止區"
"231042","268-BY","2018/08/14 18:58:15","新北市新店區中正路71號","121.543493333333","24.9697166666667","6500600","新店區"
"231051","278-BY","2018/08/14 18:58:18","新北市新店區百忍街1-1號","121.535011666667","24.9755466666667","6500600","新店區"
"231050","AAD-862","2018/08/14 18:58:02","新北市新店區北宜路二段30巷5弄2號","121.547991666667","24.950855","6500600","新店區"
"231043","355-BY","2018/08/14 18:58:09","新北市新店區北新路一段303號","121.54148","24.9675166666667","6500600","新店區"
"231058","3713-VJ","2018/08/14 18:58:07","新北市新店區中興路一段284號","121.545755","24.9689116666667","6500600","新店區"
"231066","4716-K9","2018/08/14 18:58:03","新北市新店區車子路10-3號","121.504053333333","24.9545183333333","6500600","新店區"
"231056","4715-K9","2018/08/14 18:58:03","新北市新店區民權路105巷7號","121.536676666667","24.9821516666667","6500600","新店區"
"231067","4772-VM","2018/08/14 18:58:15","新北市新店區安華路28-1號","121.519105","24.9606066666667","6500600","新店區"
"231065","512-UM","2018/08/14 18:58:09","新北市新店區安康路三段108號","121.491478333333","24.9518283333333","6500600","新店區"
"231049","513-UM","2018/08/14 18:58:04","新北市新店區中正路454-5號","121.534433333333","24.9790883333333","6500600","新店區"
"231061","619-UM","2018/08/14 18:58:14","新北市新店區安華路28-1號","121.51967","24.9608316666667","6500600","新店區"
"231063","641-BX","2018/08/14 18:58:11","新北市新店區安華路28-1號","121.51969","24.9605166666667","6500600","新店區"
"231064","719-UM","2018/08/14 18:58:10","新北市新店區安一路一段1-1號","121.519601666667","24.961355","6500600","新店區"
"231062","720-UM","2018/08/14 18:58:20","新北市新店區安豐路58-2號","121.498911666667","24.9542616666667","6500600","新店區"
"231060","897-TW","2018/08/14 18:58:08","新北市新店區安華路28-1號","121.519651666667","24.960715","6500600","新店區"
"231055","AKT-0513","2018/08/14 18:58:13","新北市新店區力行路12號","121.539401666667","24.9646333333333","6500600","新店區"
"241035","462-BY","2018/08/14 18:58:15","新北市三重區過圳街16號","121.488915","25.058725","6500200","三重區"
"241029","942-UM","2018/08/14 18:58:13","新北市三重區重安街14號","121.490256666667","25.0582016666667","6500200","三重區"
"235030","003-UY","2018/08/14 18:58:21","新北市中和區中山路二段131巷12號","121.502908333333","25.002105","6500300","中和區"
"235064","005-UY","2018/08/14 18:58:14","新北市中和區泰和街44巷3號","121.498661666667","25.000205","6500300","中和區"
"235063","006-UY","2018/08/14 18:58:22","新北市中和區中正路514號","121.488365","24.9944233333333","6500300","中和區"
"235056","096-UM","2018/08/14 18:58:18","新北市中和區員山路466巷34號","121.482218333333","25.0063033333333","6500300","中和區"
"235039","097-UM","2018/08/14 18:58:20","新北市中和區安樂路217巷20弄17號","121.51344","24.99897","6500300","中和區"
"235065","098-UM","2018/08/14 18:58:13","新北市中和區勝利路35巷3弄2號","121.499105","25.0070816666667","6500300","中和區"
"235040","150-BY","2018/08/14 18:58:20","新北市中和區宜安路1巷20號","121.512646666667","24.99469","6500300","中和區"
"235058","151-BY","2018/08/14 18:58:14","新北市中和區員山路143巷30號","121.479716666667","24.9956916666667","6500300","中和區"
"235055","183-VK","2018/08/14 18:58:18","新北市中和區民德路8號","121.468781666667","25.00302","6500300","中和區"
"235038","185-VK","2018/08/14 18:58:13","新北市中和區立人街24-5號","121.518836666667","24.9941833333333","6500300","中和區"
"235049","186-VK","2018/08/14 18:58:05","新北市中和區景安路167巷15號","121.506278333333","24.9947933333333","6500300","中和區"
"235067","255-BX","2018/08/14 18:58:11","新北市中和區民樂路78號","121.484476666667","25.0012283333333","6500300","中和區"
"235044","293-VK","2018/08/14 18:58:09","新北市中和區中興街161巷10弄1號","121.501288333333","24.99091","6500300","中和區"
"235072","301-VK","2018/08/14 18:58:14","新北市中和區中山路二段172號","121.500941666667","25.0028916666667","6500300","中和區"
"235043","352-BY","2018/08/14 18:58:15","新北市中和區成功路5號","121.526495","24.9941583333333","6500300","中和區"
"235042","KEA-2878","2018/08/14 18:58:00","新北市中和區秀朗路三段50巷17號","121.524985","24.9952166666667","6500300","中和區"
"235050","4979-A6","2018/08/14 18:58:03","新北市中和區忠孝街35號","121.510603333333","24.9833266666667","6500300","中和區"
"235069","4980-A6","2018/08/14 18:58:15","新北市中和區南山路52巷10號","121.501605","24.9974216666667","6500300","中和區"
"235070","558-UM","2018/08/14 18:58:14","新北市中和區中和路130號","121.503661666667","24.9997183333333","6500300","中和區"
"235045","565-BX","2018/08/14 18:58:07","新北市中和區景新街467巷22號","121.514163333333","24.988335","6500300","中和區"
"235054","640-BX","2018/08/14 18:58:16","新北市中和區國光街6巷2號","121.472128333333","25.0002933333333","6500300","中和區"
"235060","647-TV","2018/08/14 18:58:17","新北市中和區民治街3巷1號","121.474981666667","25.0053383333333","6500300","中和區"
"235046","733-UM","2018/08/14 18:58:11","新北市中和區興南路二段3巷17號","121.50873","24.98642","6500300","中和區"
"235062","800-TS","2018/08/14 18:58:15","新北市中和區景平路703巷3號","121.496175","25.0034383333333","6500300","中和區"
"235057","801-TS","2018/08/14 18:58:08","新北市中和區民利街40巷1弄11號","121.479025","24.9988816666667","6500300","中和區"
"235041","802-TS","2018/08/14 18:58:06","新北市中和區中安街178巷3弄5-2號","121.510988333333","24.9989216666667","6500300","中和區"
"235052","805-TS","2018/08/14 18:58:09","新北市中和區興南路二段342巷15號","121.501221666667","24.9808133333333","6500300","中和區"
"235048","896-TW","2018/08/14 18:58:08","新北市中和區華新街109巷16號","121.508753333333","24.981125","6500300","中和區"
"235053","900-TW","2018/08/14 18:58:14","新北市中和區華順街128號","121.46508","24.996275","6500300","中和區"
"235051","157-BY","2018/08/14 18:58:03","新北市中和區忠孝街11巷1號","121.509853333333","24.983095","6500300","中和區"
"235037","AAC-213","2018/08/14 18:58:04","新北市中和區自立路5號","121.522516666667","24.9966016666667","6500300","中和區"
"235059","AAC-215","2018/08/14 18:58:04","新北市中和區圓通路369巷5弄15號","121.491635","24.9884616666667","6500300","中和區"
"220106","013-TV","2018/08/14 18:58:12","新北市板橋區文化路二段102-1號","121.469955","25.0262866666667","6500100","板橋區"
"220065","072-UY","2018/08/14 18:58:07","新北市板橋區漢生東路326巷2弄1號","121.471423333333","25.0079433333333","6500100","板橋區"
"220086","073-UY","2018/08/14 18:58:15","新北市板橋區中正路250巷25號","121.456691666667","25.0195033333333","6500100","板橋區"
"220069","AAD-861","2018/08/14 18:58:04","新北市板橋區華興街75號","121.45698","25.0050283333333","6500100","板橋區"
"226004","205-ST","2018/08/14 18:58:18","新北市平溪區南山里南山坪23號","121.771171666667","25.03618","6502400","平溪區"
"235047","251-BX","2018/08/14 18:58:09","新北市中和區興南路二段34巷25號","121.506201666667","24.98616","6500300","中和區"
"228001","212-TW","2018/08/14 18:58:04","新北市貢寮區仁理村研海街12-1號","121.923863333333","25.0516483333333","6502600","貢寮區"
"228002","663-BX","2018/08/14 18:58:06","新北市貢寮區福隆里東興街44號","121.948651666667","25.0178566666667","6502600","貢寮區"
"228003","828-UM","2018/08/14 18:58:18","新北市貢寮區和美里龍洞街60-2號","121.914478333333","25.1164866666667","6502600","貢寮區"
"224010","AGQ-8101","2018/08/14 18:58:12","新北市瑞芳區基山街11號","121.84529","25.1095966666667","6501200","瑞芳區"
"224006","676-BX","2018/08/14 18:58:18","新北市瑞芳區中正路30號","121.80733","25.1072016666667","6501200","瑞芳區"
"224002","639-TC","2018/08/14 18:58:18","新北市瑞芳區靜安路四段2巷1號","121.793486666667","25.0837833333333","6501200","瑞芳區"
"224008","285-BY","2018/08/14 18:58:14","新北市瑞芳區逢甲路191號","121.804706666667","25.1103583333333","6501200","瑞芳區"
"224007","275-VK","2018/08/14 18:58:17","新北市瑞芳區中央路48巷180號","121.758418333333","25.1028916666667","6501200","瑞芳區"
"224009","273-VK","2018/08/14 18:58:03","新北市瑞芳區洞頂路131號","121.860503333333","25.1175416666667","6501200","瑞芳區"
"224005","271-BY","2018/08/14 18:58:16","新北市瑞芳區豎崎路32-5號","121.824258333333","25.1210716666667","6501200","瑞芳區"
"227003","642-TC","2018/08/14 18:58:18","新北市雙溪區平林里康福家園10號","121.858795","25.0373733333333","6502500","雙溪區"
"227009","400-TW","2018/08/14 18:58:17","新北市雙溪區牡丹里中正路58巷23號","121.866426666667","25.0415433333333","6502500","雙溪區"
"253005","032-BX","2018/08/14 18:58:00","新北市石門區中央路32號","121.567985","25.2923833333333","6502200","石門區"
"253006","295-VK","2018/08/14 18:58:08","新北市石門區八甲11-3號","121.522281666667","25.2810983333333","6502200","石門區"
"222001","KEA-2212","2018/08/14 18:58:15","新北市深坑區北深路一段170號","121.634055","25.0107283333333","6501800","深坑區"
"208002","KEA-2872","2018/08/14 18:58:03","新北市金山區信義路72號","121.635158333333","25.2196616666667","6502700","金山區"
"208003","665-BX","2018/08/14 18:58:16","新北市金山區中正路32號","121.63554","25.222245","6502700","金山區"
"208001","761-BX","2018/08/14 18:58:20","新北市金山區中山路99號","121.639865","25.2191366666667","6502700","金山區"
"251005","010-UM","2018/08/14 18:58:04","新北市淡水區中正路18巷6號","121.43765","25.17282","6501000","淡水區"
"251001","011-UM","2018/08/14 18:58:05","新北市淡水區自強路58號","121.463236666667","25.1275166666667","6501000","淡水區"
"251013","KEA-2871","2018/08/14 18:58:20","新北市淡水區安子內12-1號","121.481565","25.2190966666667","6501000","淡水區"
"251016","179-VK","2018/08/14 18:58:05","新北市淡水區淡金路三段331巷3號","121.448568333333","25.2061033333333","6501000","淡水區"
"251014","180-VK","2018/08/14 18:58:08","新北市淡水區小中寮32-1號","121.49127","25.2262216666667","6501000","淡水區"
"251015","181-VK","2018/08/14 18:57:59","新北市淡水區糞箕湖60號","121.485195","25.1723116666667","6501000","淡水區"
"251010","413-VK","2018/08/14 18:58:21","新北市淡水區沙崙路25巷20號","121.42123","25.1823483333333","6501000","淡水區"
"251007","577-R6","2018/08/14 18:58:15","新北市淡水區民生路113巷1弄56號","121.462416666667","25.1385916666667","6501000","淡水區"
"251002","672-BX","2018/08/14 18:58:07","新北市淡水區中山路18-1號","121.444565","25.169325","6501000","淡水區"
"251003","673-BX","2018/08/14 18:58:18","新北市淡水區中山北路一段149巷24號","121.442941666667","25.1780416666667","6501000","淡水區"
"207003","681-TV","2018/08/14 18:58:11","新北市萬里區大鵬里頂社40號","121.656076666667","25.211325","6502800","萬里區"
"207004","291-VK","2018/08/14 18:58:03","新北市萬里區萬里里獅頭路23號","121.693266666667","25.1782766666667","6502800","萬里區"
"252002","178-VK","2018/08/14 18:58:03","新北市三芝區中正路一段82號","121.504158333333","25.2572766666667","6502100","三芝區"
"252003","249-BX","2018/08/14 18:58:10","新北市三芝區後厝里北勢子45-33號","121.470326666667","25.2511933333333","6502100","三芝區"
"252001","702-TV","2018/08/14 18:58:19","新北市三芝區中正路三段29號","121.502155","25.2527516666667","6502100","三芝區"
"237007","153-BY","2018/08/14 18:58:07","新北市三峽區大埔路24號","121.36599","24.9093733333333","6500900","三峽區"
"237013","252-BX","2018/08/14 18:58:17","新北市三峽區光明路69巷25號","121.376763333333","24.929275","6500900","三峽區"
"237012","275-BY","2018/08/14 18:58:04","新北市三峽區三樹路222巷236弄2號","121.390685","24.9427216666667","6500900","三峽區"
"237008","302-VK","2018/08/14 18:58:20","新北市三峽區中正路一段283-1號","121.371615","24.92573","6500900","三峽區"
"237014","433-BY","2018/08/14 18:58:10","新北市三峽區隆恩街166-2號","121.364201666667","24.9429216666667","6500900","三峽區"
"237006","5529-G3","2018/08/14 18:58:13","新北市三峽區溪東路205巷25號","121.405185","24.9341516666667","6500900","三峽區"
"237011","KEA-2596","2018/08/14 18:58:14","新北市三峽區介壽路三段61號","121.395488333333","24.93773","6500900","三峽區"
"237016","649-BX","2018/08/14 18:58:10","新北市三峽區安坑1-2號","121.434498333333","24.9243716666667","6500900","三峽區"
"237010","706-TV","2018/08/14 18:58:08","新北市三峽區國光街362號","121.371041666667","24.93976","6500900","三峽區"
"237005","AKY-6261","2018/08/14 18:58:18","新北市三峽區中山路459巷163-3號","121.348658333333","24.9329433333333","6500900","三峽區"
"236070","105-UM","2018/08/14 18:58:08","新北市土城區立清街16號","121.460053333333","24.9858183333333","6501300","土城區"
"236042","107-UM","2018/08/14 18:58:18","新北市土城區學府路一段229巷11號","121.451753333333","24.9838066666667","6501300","土城區"
"236079","166-UM","2018/08/14 18:58:12","新北市土城區中央路四段300號","121.414061666667","24.9561683333333","6501300","土城區"
"236030","253-BX","2018/08/14 18:58:19","新北市土城區中央路二段233號","121.440295","24.9724033333333","6501300","土城區"
"236026","269-VK","2018/08/14 18:58:15","新北市土城區光明街4號","121.442005","24.974555","6501300","土城區"
"236014","270-VK","2018/08/14 18:58:13","新北市土城區延和路1號","121.463521666667","24.9875466666667","6501300","土城區"
"236038","271-VK","2018/08/14 18:58:10","新北市土城區青仁路14號","121.459881666667","24.9785833333333","6501300","土城區"
"236021","401-BY","2018/08/14 18:58:11","新北市土城區延吉街168巷9號","121.468096666667","24.9858583333333","6501300","土城區"
"236059","912-UM","2018/08/14 18:58:08","新北市土城區明德路一段385-1號","121.452893333333","24.98018","6501300","土城區"
"236049","913-UM","2018/08/14 18:58:02","新北市土城區青雲路217號","121.459168333333","24.981935","6501300","土城區"
"236063","915-UM","2018/08/14 18:58:23","新北市土城區延和路41巷6弄16號","121.466671666667","24.9902883333333","6501300","土城區"
"236055","AAC-216","2018/08/14 18:58:07","新北市土城區學成路179號","121.447858333333","24.988625","6501300","土城區"
"242058","986-R7","2018/08/14 18:58:00","新北市泰山區新北大道六段299號","121.424065","25.0340133333333","6500500","新莊區"
"242002","349-TH","2018/08/14 18:58:09","新北市新莊區環河路636-7號","121.43744","25.0117683333333","6500500","新莊區"
"238023","601-UM","2018/08/14 18:58:14","新北市樹林區大慶街152號","121.396808333333","25.01351","6500700","樹林區"
"238019","599-UM","2018/08/14 18:58:06","新北市樹林區東華街30號","121.414663333333","24.9821066666667","6500700","樹林區"
"238022","KEA-2213","2018/08/14 18:58:03","新北市樹林區東興街14-2號","121.410058333333","24.9785283333333","6500700","樹林區"
"238021","KEA-2539","2018/08/14 18:58:21","新北市樹林區柑園街二段276巷40號","121.371606666667","24.9537983333333","6500700","樹林區"
"238025","303-VK","2018/08/14 18:57:59","新北市樹林區民和街77號","121.380551666667","24.9719133333333","6500700","樹林區"
"238017","283-BY","2018/08/14 18:58:08","新北市樹林區光興街50號","121.409831666667","25.0027816666667","6500700","樹林區"
"238014","282-BY","2018/08/14 18:58:00","新北市樹林區潭興街26號","121.425253333333","24.9990466666667","6500700","樹林區"
"238020","268-VK","2018/08/14 18:58:02","新北市樹林區俊英街79號","121.42614","25.0075166666667","6500700","樹林區"
"238026","172-UY","2018/08/14 18:58:16","新北市樹林區中山路三段341號","121.390381666667","24.9708583333333","6500700","樹林區"
"238016","169-UY","2018/08/14 18:58:19","新北市樹林區復興路373巷7弄14號","121.417851666667","24.98682","6500700","樹林區"
"239007","AAC-297","2018/08/14 18:58:18","新北市鶯歌區中正一路211巷8號","121.353665","24.9573983333333","6500800","鶯歌區"
"239006","891-R6","2018/08/14 18:58:04","新北市鶯歌區鶯桃路296巷36號","121.335398333333","24.96101","6500800","鶯歌區"
"239008","527-UM","2018/08/14 18:58:17","新北市鶯歌區國際二路14巷16號","121.338143333333","24.975035","6500800","鶯歌區"
"239005","526-UM","2018/08/14 18:58:05","新北市鶯歌區大湖路333號","121.341605","24.9725783333333","6500800","鶯歌區"
"239001","417-VK","2018/08/14 18:58:02","新北市鶯歌區永安街30號","121.337608333333","24.9559716666667","6500800","鶯歌區"
"239003","360-BY","2018/08/14 18:58:04","新北市鶯歌區鶯桃路403號","121.33315","24.9641333333333","6500800","鶯歌區"
"239002","359-BY","2018/08/14 18:58:05","新北市鶯歌區中山路173號","121.348301666667","24.9569033333333","6500800","鶯歌區"
"239004","193-VK","2018/08/14 18:58:14","新北市鶯歌區中正三路230巷5-6號","121.330476666667","24.9386483333333","6500800","鶯歌區"
"221008","489-VK","2018/08/14 18:58:00","新北市汐止區汐萬路一段312號","121.650646666667","25.0753716666667","6501100","汐止區"
"221036","130-UY","2018/08/14 18:58:02","新北市汐止區南昌街16號","121.662928333333","25.0684366666667","6501100","汐止區"
"221015","131-UY","2018/08/14 18:58:08","新北市汐止區大同路二段703號","121.665176666667","25.07271","6501100","汐止區"
"221010","269-BY","2018/08/14 18:58:06","新北市汐止區康寧街901號","121.65141","25.0749866666667","6501100","汐止區"
"221012","278-VK","2018/08/14 18:58:12","新北市汐止區康寧街901號","121.650801666667","25.075285","6501100","汐止區"
"221023","279-VK","2018/08/14 18:58:04","新北市汐止區康寧街901號","121.65099","25.075215","6501100","汐止區"
"221032","280-BY","2018/08/14 18:58:04","新北市汐止區橫科路407巷30弄28號","121.627288333333","25.0483233333333","6501100","汐止區"
"221027","281-BY","2018/08/14 18:58:08","新北市汐止區康寧街901號","121.65146","25.0750016666667","6501100","汐止區"
"221029","298-VK","2018/08/14 18:58:12","新北市汐止區樟樹一路234號","121.642226666667","25.0667716666667","6501100","汐止區"
"221021","299-VK","2018/08/14 18:58:12","新北市汐止區康寧街901號","121.651573333333","25.07493","6501100","汐止區"
"221002","129-UY","2018/08/14 18:58:06","新北市汐止區大同路一段4號","121.621113333333","25.0550716666667","6501100","汐止區"
"221038","646-BX","2018/08/14 18:58:02","新北市汐止區汐萬路一段312號","121.650663333333","25.0753316666667","6501100","汐止區"
"221033","647-BX","2018/08/14 18:58:06","新北市汐止區南勢街1巷1號","121.62708","25.0375116666667","6501100","汐止區"
"220079","145-BY","2018/08/14 18:58:12","新北市板橋區民權路202巷12弄2號","121.46049","25.0154766666667","6500100","板橋區"
"220080","200-UY","2018/08/14 18:58:16","新北市板橋區大觀路二段文和巷66號","121.443443333333","24.9985716666667","6500100","板橋區"
"220082","610-BX","2018/08/14 18:58:11","新北市板橋區溪崑一街112號","121.429258333333","24.9887533333333","6500100","板橋區"
"220101","245-BX","2018/08/14 18:58:03","新北市板橋區文化路二段59號","121.469378333333","25.02555","6500100","板橋區"
"220091","267-BY","2018/08/14 18:58:11","新北市板橋區萬板路153號","121.473706666667","25.0234333333333","6500100","板橋區"
"220056","276-BY","2018/08/14 18:57:58","新北市板橋區信義路147號","121.458095","24.9929083333333","6500100","板橋區"
"220072","277-BY","2018/08/14 18:58:20","新北市板橋區金門街254號","121.430325","24.9868766666667","6500100","板橋區"
"220071","283-VK","2018/08/14 18:58:18","新北市板橋區重慶路247-2號","121.463523333333","25.000495","6500100","板橋區"
"220094","285-UM","2018/08/14 18:58:10","新北市板橋區莒光路9號","121.469796666667","25.0249383333333","6500100","板橋區"
"220053","285-VK","2018/08/14 18:58:16","新北市板橋區中山路二段87號","121.473936666667","25.0159783333333","6500100","板橋區"
"220083","286-VK","2018/08/14 18:58:12","新北市板橋區大觀路一段38巷156弄10號","121.44241","25.0048366666667","6500100","板橋區"
"220081","287-VK","2018/08/14 18:58:21","新北市板橋區光華街19巷31號","121.452998333333","25.0118666666667","6500100","板橋區"
"220090","288-VK","2018/08/14 18:58:03","新北市板橋區民有街25號","121.466016666667","25.0252033333333","6500100","板橋區"
"220061","293-UM","2018/08/14 18:58:19","新北市板橋區太和街6巷9號","121.473858333333","25.0202683333333","6500100","板橋區"
"220084","296-UM","2018/08/14 18:58:13","新北市板橋區大觀路二段142號","121.442706666667","24.9991433333333","6500100","板橋區"
"220075","303-R5","2018/08/14 18:58:08","新北市板橋區茶館街15號","121.45667","25.0106133333333","6500100","板橋區"
"220062","305-R5","2018/08/14 18:58:16","新北市板橋區民享街143號","121.47758","25.0168966666667","6500100","板橋區"
"220092","307-R5","2018/08/14 18:58:16","新北市板橋區板新路238號","121.467996666667","25.0162916666667","6500100","板橋區"
"220098","317-R6","2018/08/14 18:58:16","新北市板橋區民有街12號","121.466361666667","25.0247433333333","6500100","板橋區"
"220064","486-VK","2018/08/14 18:57:59","新北市板橋區縣民大道二段102號","121.466691666667","25.01518","6500100","板橋區"
"220088","491-VK","2018/08/14 18:58:15","新北市板橋區民生路二段148號","121.471218333333","25.0197166666667","6500100","板橋區"
"220035","560-BX","2018/08/14 18:58:22","新北市板橋區中正路325巷2號","121.454676666667","25.0200133333333","6500100","板橋區"
"220103","561-BX","2018/08/14 18:58:11","新北市板橋區民生路二段89-1號","121.471508333333","25.0185333333333","6500100","板橋區"
"220063","609-BX","2018/08/14 18:58:06","新北市板橋區中山路二段113號","121.474775","25.0162016666667","6500100","板橋區"
"220054","630-UY","2018/08/14 18:58:20","新北市板橋區重慶路139巷2號","121.46252","25.0044566666667","6500100","板橋區"
"220057","686-BX","2018/08/14 18:58:06","新北市板橋區重慶路91-1號","121.46211","25.00588","6500100","板橋區"
"220077","687-BX","2018/08/14 18:58:11","新北市板橋區大觀路二段327號","121.441541666667","24.9984833333333","6500100","板橋區"
"220093","689-BX","2018/08/14 18:58:15","新北市板橋區民生路三段64號","121.467111666667","25.0252883333333","6500100","板橋區"
"220102","KEA-2699","2018/08/14 18:58:18","新北市板橋區萬板路478號","121.479938333333","25.0261433333333","6500100","板橋區"
"220055","827-TW","2018/08/14 18:58:12","新北市板橋區新站路1號","121.467186666667","25.0111983333333","6500100","板橋區"
"220067","829-TW","2018/08/14 18:58:11","新北市板橋區三民路二段144號","121.478835","25.0155","6500100","板橋區"
"220068","830-TW","2018/08/14 18:58:17","新北市板橋區三民路一段31巷36弄3號","121.481016666667","25.022925","6500100","板橋區"
"220096","831-TW","2018/08/14 18:58:21","新北市板橋區莒光路133巷7弄7號","121.472443333333","25.0241666666667","6500100","板橋區"
"220089","833-TW","2018/08/14 18:58:15","新北市板橋區文化路二段80號","121.469453333333","25.02547","6500100","板橋區"
"220074","895-R6","2018/08/14 18:58:18","新北市板橋區西門街59號","121.454453333333","25.00923","6500100","板橋區"
"220073","985-R7","2018/08/14 18:58:18","新北市板橋區中正路148號","121.456733333333","25.0162166666667","6500100","板橋區"
"220097","AAC-210","2018/08/14 18:58:15","新北市板橋區漢生東路93巷35號","121.468191666667","25.0167283333333","6500100","板橋區"
"220070","AAC-253","2018/08/14 18:58:21","新北市板橋區四川路一段285號","121.459191666667","25.0013466666667","6500100","板橋區"
"235068","KEA-2873","2018/08/14 18:58:17","新北市中和區圓通路269號","121.495875","24.9930916666667","6500300","中和區"
"235061","KEA-2875","2018/08/14 18:58:19","新北市中和區民享街40-3號","121.474006666667","25.00281","6500300","中和區"
