"lineid","car","time","location","longitude","latitude","cityid","cityname"
"234046","148-BY","2018/08/14 19:29:40","新北市永和區得和路423號","121.52624","24.9992483333333","6500400","永和區"
"234007","207-UY","2018/08/14 19:29:45","新北市永和區永和路一段208號","121.514341666667","25.0093666666667","6500400","永和區"
"234081","298-R6","2018/08/14 19:29:34","新北市永和區林森路8號","121.526536666667","25.0057033333333","6500400","永和區"
"234064","337-UY","2018/08/14 19:29:44","新北市永和區得和路243巷26號","121.520771666667","25.00118","6500400","永和區"
"234086","338-UY","2018/08/14 19:29:38","新北市永和區林森路78號","121.523506666667","25.003885","6500400","永和區"
"234070","552-UM","2018/08/14 19:29:48","新北市永和區警光街5-1號","121.519738333333","25.0095","6500400","永和區"
"234038","553-UM","2018/08/14 19:29:49","新北市永和區民樂街37巷1號","121.52756","25.0007633333333","6500400","永和區"
"234017","745-BX","2018/08/14 19:29:49","新北市永和區環河西路一段61號","121.513426666667","25.0181233333333","6500400","永和區"
"234030","746-BX","2018/08/14 19:29:40","新北市永和區民生路57號","121.522698333333","24.9975883333333","6500400","永和區"
"234054","KEA-2590","2018/08/14 19:29:42","新北市永和區復興街19巷2號","121.516178333333","25.0131116666667","6500400","永和區"
"234013","KEA-2591","2018/08/14 19:29:35","新北市永和區信義路14-3號","121.514405","25.012195","6500400","永和區"
"234061","AAD-866","2018/08/14 19:29:45","新北市永和區中正路467號","121.51706","25.0060766666667","6500400","永和區"
"234042","862-TW","2018/08/14 19:29:44","新北市永和區中和路545號","121.511516666667","25.0031933333333","6500400","永和區"
"234050","863-TW","2018/08/14 19:29:50","新北市永和區信義路120號","121.51243","25.0146716666667","6500400","永和區"
"234026","9371-KE","2018/08/14 19:29:45","新北市永和區安樂路46號","121.514646666667","24.9970933333333","6500400","永和區"
"234011","9373-KE","2018/08/14 19:29:36","新北市永和區保福路二段163巷17號","121.508866666667","25.014615","6500400","永和區"
"249002","305-UY","2018/08/14 19:29:47","新北市八里區龍形一街33巷1-6號","121.449396666667","25.1294666666667","6502300","八里區"
"249003","593-UM","2018/08/14 19:29:34","新北市八里區商港六路11號","121.396896666667","25.1482816666667","6502300","八里區"
"248016","026-BX","2018/08/14 19:29:50","新北市五股區成洲五路40號","121.45263","25.1020216666667","6501500","五股區"
"248008","095-VK","2018/08/14 19:29:36","新北市五股區中興路一段95巷9號","121.466578333333","25.07236","6501500","五股區"
"248020","225-UY","2018/08/14 19:29:48","新北市五股區凌雲路三段72-1號","121.431555","25.11502","6501500","五股區"
"248012","247-BX","2018/08/14 19:29:38","新北市五股區成泰路二段97號","121.437956666667","25.084295","6501500","五股區"
"248014","261-SL","2018/08/14 19:29:45","新北市五股區民義路一段183巷9-3號","121.430075","25.086625","6501500","五股區"
"248004","677-BX","2018/08/14 19:29:33","新北市五股區工商路148-1號","121.433895","25.0873283333333","6501500","五股區"
"248002","678-BX","2018/08/14 19:29:47","新北市五股區凌雲路一段158巷14-1號","121.447816666667","25.10348","6501500","五股區"
"248010","682-TV","2018/08/14 19:29:31","新北市五股區水碓一路23號","121.430593333333","25.07132","6501500","五股區"
"234023","9380-KE","2018/08/14 19:29:42","新北市永和區竹林路91巷43弄2號","121.521323333333","25.01284","6500400","永和區"
"234077","969-R7","2018/08/14 19:29:40","新北市永和區民權路58巷3號","121.519623333333","24.9982916666667","6500400","永和區"
"234074","AAC-211","2018/08/14 19:29:40","新北市永和區環河東路一段122號","121.520591666667","25.015655","6500400","永和區"
"234067","AAC-212","2018/08/14 19:29:48","新北市永和區保平路186號","121.510566666667","25.0064683333333","6500400","永和區"
"234003","AAC-295","2018/08/14 19:29:47","新北市永和區自強街8巷5弄2號","121.514625","25.0074566666667","6500400","永和區"
"244019","403-UM","2018/08/14 19:29:37","新北市林口區嘉寶里15鄰43號","121.341405","25.1064416666667","6501700","林口區"
"244023","483-VK","2018/08/14 19:29:33","新北市林口區民富街93號","121.370055","25.074895","6501700","林口區"
"244017","485-VK","2018/08/14 19:29:32","新北市林口區嘉寶里1鄰4-1號","121.343868333333","25.1018083333333","6501700","林口區"
"243013","AAD-798","2018/08/14 19:29:47","新北市泰山區貴子路38號","121.42595","25.0417183333333","6501600","泰山區"
"243009","297-R6","2018/08/14 19:29:42","新北市泰山區半山雅6號","121.43146","25.067425","6501600","泰山區"
"243016","KEA-2801","2018/08/14 19:29:38","新北市泰山區工專路5號","121.424076666667","25.039355","6501600","泰山區"
"243015","421-VK","2018/08/14 19:29:40","新北市泰山區民權街5號","121.428045","25.0509883333333","6501600","泰山區"
"243011","KEA-2215","2018/08/14 19:29:41","新北市泰山區貴子路120號","121.428315","25.0406433333333","6501600","泰山區"
"243010","KEA-2216","2018/08/14 19:29:42","新北市泰山區民生路17巷48號","121.42932","25.051315","6501600","泰山區"
"243012","646-TV","2018/08/14 19:29:47","新北市泰山區明志路一段501巷19號","121.431308333333","25.05453","6501600","泰山區"
"243014","680-BX","2018/08/14 19:29:53","新北市泰山區仁義路220巷53號","121.432188333333","25.0527083333333","6501600","泰山區"
"222003","436-BY","2018/08/14 19:29:51","新北市深坑區深南路51-1號","121.62125","25.0098516666667","6501800","深坑區"
"222002","659-BX","2018/08/14 19:29:34","新北市深坑區北深路一段177號","121.632566666667","25.01089","6501800","深坑區"
"231045","001-UM","2018/08/14 19:29:48","新北市新店區北宜路二段213號","121.553241666667","24.9534083333333","6500600","新店區"
"231041","002-UM","2018/08/14 19:29:48","新北市新店區中正路543-3號","121.533586666667","24.9872883333333","6500600","新店區"
"231059","046-UY","2018/08/14 19:29:41","新北市新店區安和路三段7號","121.518131666667","24.9805533333333","6500600","新店區"
"231040","047-UY","2018/08/14 19:29:34","新北市新店區北新路一段14號","121.540803333333","24.965685","6500600","新店區"
"231044","106-UY","2018/08/14 19:29:36","新北市新店區中興路三段145號","121.544533333333","24.9799216666667","6500600","新店區"
"231046","107-UY","2018/08/14 19:29:46","新北市新店區環河路25號","121.537331666667","24.9614083333333","6500600","新店區"
"231053","110-UY","2018/08/14 19:29:32","新北市新店區廣興路96號","121.537841666667","24.9129066666667","6500600","新店區"
"231048","187-VK","2018/08/14 19:29:40","新北市新店區中興路一段254巷5號","121.544996666667","24.9666133333333","6500600","新店區"
"231054","KEA-2219","2018/08/14 19:29:50","新北市新店區文中路45號","121.539608333333","24.9566216666667","6500600","新店區"
"221031","KEA-2785","2018/08/14 19:29:33","新北市汐止區康寧街901號","121.650816666667","25.0753433333333","6501100","汐止區"
"231057","256-BX","2018/08/14 19:29:41","新北市新店區花園一路三段45號","121.550631666667","24.9328716666667","6500600","新店區"
"231042","268-BY","2018/08/14 19:29:35","新北市新店區中興路一段60號","121.539308333333","24.9595316666667","6500600","新店區"
"231051","278-BY","2018/08/14 19:29:39","新北市新店區中央五街23號","121.52932","24.9746333333333","6500600","新店區"
"231050","AAD-862","2018/08/14 19:29:42","新北市新店區竹林路97巷17號","121.554851666667","24.9493066666667","6500600","新店區"
"231043","355-BY","2018/08/14 19:29:49","新北市新店區北新路二段173號","121.542866666667","24.9765666666667","6500600","新店區"
"231058","3713-VJ","2018/08/14 19:29:47","新北市新店區寶橋路85巷55號","121.544326666667","24.977215","6500600","新店區"
"231066","4716-K9","2018/08/14 19:29:43","新北市新店區安康路三段355巷20號","121.484876666667","24.94991","6500600","新店區"
"231067","4772-VM","2018/08/14 19:29:35","新北市新店區柴埕路116號","121.50472","24.9599183333333","6500600","新店區"
"231065","512-UM","2018/08/14 19:29:50","新北市新店區安祥路109巷3弄15號","121.478406666667","24.9612233333333","6500600","新店區"
"231049","513-UM","2018/08/14 19:29:44","新北市新店區北新路三段65巷12弄25號","121.540656666667","24.981895","6500600","新店區"
"231061","619-UM","2018/08/14 19:29:34","新北市新店區安康路一段226-2號","121.523388333333","24.963625","6500600","新店區"
"231063","641-BX","2018/08/14 19:29:31","新北市新店區達觀路16號","121.503218333333","24.9407416666667","6500600","新店區"
"231064","719-UM","2018/08/14 19:29:50","新北市新店區安康路二段85巷10號","121.513531666667","24.962525","6500600","新店區"
"231062","720-UM","2018/08/14 19:29:31","新北市新店區莒光路67號","121.5238","24.9566883333333","6500600","新店區"
"231060","897-TW","2018/08/14 19:29:48","新北市新店區安康路二段3-1號","121.516068333333","24.9637216666667","6500600","新店區"
"231055","AKT-0513","2018/08/14 19:29:13","新北市新店區中華路83巷4弄13號","121.538245","24.9684616666667","6500600","新店區"
"241028","022-UY","2018/08/14 19:29:46","新北市三重區中寮街90號","121.493258333333","25.0580283333333","6500200","三重區"
"241008","059-VK","2018/08/14 19:29:37","新北市三重區永福街135巷38號","121.47723","25.07729","6500200","三重區"
"241022","060-VK","2018/08/14 19:29:44","新北市三重區三民街163-1號","121.483528333333","25.0648433333333","6500200","三重區"
"241031","061-VK","2018/08/14 19:29:33","新北市三重區集美街100號","121.488508333333","25.05418","6500200","三重區"
"241017","063-VK","2018/08/14 19:29:37","新北市三重區國隆路27號","121.492651666667","25.0642216666667","6500200","三重區"
"241026","066-VK","2018/08/14 19:29:48","新北市三重區文化南路38-2號","121.500308333333","25.06093","6500200","三重區"
"241009","267-UM","2018/08/14 19:29:43","新北市三重區仁美街123號","121.485646666667","25.08131","6500200","三重區"
"241025","271-UM","2018/08/14 19:29:39","新北市三重區頂崁街210巷28弄3號","121.475796666667","25.0676633333333","6500200","三重區"
"241007","398-BY","2018/08/14 19:29:45","新北市三重區慈愛街151號","121.48944","25.07937","6500200","三重區"
"241035","462-BY","2018/08/14 19:29:35","新北市三重區信義西街1巷21號","121.497983333333","25.0652866666667","6500200","三重區"
"241020","478-VK","2018/08/14 19:29:38","新北市三重區三和路四段44巷1號","121.490331666667","25.07431","6500200","三重區"
"241030","480-VK","2018/08/14 19:29:47","新北市三重區成功路41巷3號","121.49024","25.05143","6500200","三重區"
"241023","545-UM","2018/08/14 19:29:45","新北市三重區頂崁街99號","121.47801","25.0638183333333","6500200","三重區"
"241006","AAD-863","2018/08/14 19:29:38","新北市三重區車路頭街79號","121.484456666667","25.0740816666667","6500200","三重區"
"241029","942-UM","2018/08/14 19:29:33","新北市三重區重安街103號","121.493971666667","25.05521","6500200","三重區"
"235030","003-UY","2018/08/14 19:29:48","新北市中和區景新街32號","121.503236666667","24.999305","6500300","中和區"
"235064","005-UY","2018/08/14 19:29:34","新北市中和區景新街64巷11弄2號","121.503823333333","24.9983366666667","6500300","中和區"
"235063","006-UY","2018/08/14 19:29:41","新北市中和區連城路219巷17號","121.495041666667","24.9960966666667","6500300","中和區"
"235056","096-UM","2018/08/14 19:29:38","新北市中和區民富街56號","121.476603333333","25.0072733333333","6500300","中和區"
"235039","097-UM","2018/08/14 19:29:40","新北市中和區秀峰街119巷6弄14號","121.518971666667","24.9900433333333","6500300","中和區"
"235065","098-UM","2018/08/14 19:29:53","新北市中和區中山路二段2巷7弄2號","121.504191666667","25.0066066666667","6500300","中和區"
"235040","150-BY","2018/08/14 19:29:40","新北市中和區保健路46巷22弄2號","121.508833333333","24.99591","6500300","中和區"
"235058","151-BY","2018/08/14 19:29:34","新北市中和區連城路525號","121.481585","24.9950783333333","6500300","中和區"
"235055","183-VK","2018/08/14 19:29:43","新北市中和區國光街102巷27號","121.471285","25.0007016666667","6500300","中和區"
"235038","185-VK","2018/08/14 19:29:33","新北市中和區自立路111號","121.522005","24.9945833333333","6500300","中和區"
"235049","186-VK","2018/08/14 19:29:45","新北市中和區景新街273巷13號","121.509898333333","24.993885","6500300","中和區"
"235067","255-BX","2018/08/14 19:29:31","新北市中和區連城路340巷10弄2號","121.4827","24.99654","6500300","中和區"
"235044","293-VK","2018/08/14 19:29:29","新北市中和區捷運路52-5號","121.50777","24.990645","6500300","中和區"
"235072","301-VK","2018/08/14 19:29:34","新北市中和區連城路265巷6弄1號","121.491541666667","24.9958383333333","6500300","中和區"
"235043","352-BY","2018/08/14 19:29:35","新北市中和區景新街153號","121.506516666667","24.99652","6500300","中和區"
"235042","KEA-2878","2018/08/14 19:29:40","新北市中和區中和路350巷8弄4號","121.510396666667","25.0004166666667","6500300","中和區"
"235050","4979-A6","2018/08/14 19:29:42","新北市中和區中正路637巷60弄61號","121.485378333333","24.9925583333333","6500300","中和區"
"235070","558-UM","2018/08/14 19:29:34","新北市中和區景平路551號","121.498451666667","24.9996033333333","6500300","中和區"
"235045","565-BX","2018/08/14 19:29:46","新北市中和區景新街384號","121.51245","24.9899866666667","6500300","中和區"
"235054","640-BX","2018/08/14 19:29:42","新北市中和區國光街102巷11弄11號","121.470635","25.0011216666667","6500300","中和區"
"235060","647-TV","2018/08/14 19:29:37","新北市中和區中山路二段523巷58號","121.482331666667","25.0028316666667","6500300","中和區"
"235046","733-UM","2018/08/14 19:29:50","新北市中和區忠孝街37巷44號","121.510656666667","24.98483","6500300","中和區"
"235057","801-TS","2018/08/14 19:29:47","新北市中和區中山路三段7號","121.479733333333","25.0059383333333","6500300","中和區"
"235041","802-TS","2018/08/14 19:29:46","新北市中和區中安街122號","121.511108333333","25.0006183333333","6500300","中和區"
"235052","805-TS","2018/08/14 19:29:49","新北市中和區華新街143巷67弄33號","121.50751","24.9792866666667","6500300","中和區"
"235048","896-TW","2018/08/14 19:29:48","新北市中和區忠孝街146-1號","121.512531666667","24.987305","6500300","中和區"
"235053","900-TW","2018/08/14 19:29:33","新北市中和區華順街13號","121.467583333333","24.99871","6500300","中和區"
"235071","911-UM","2018/08/14 19:29:39","新北市中和區連城路469巷21弄11號","121.484118333333","24.9952483333333","6500300","中和區"
"235051","157-BY","2018/08/14 19:29:42","新北市中和區景新街218號","121.507138333333","24.99512","6500300","中和區"
"235037","AAC-213","2018/08/14 19:29:45","新北市中和區秀朗路三段10巷14弄2號","121.525361666667","24.996495","6500300","中和區"
"235059","AAC-215","2018/08/14 19:29:44","新北市中和區圓通路252巷6號","121.49302","24.991755","6500300","中和區"
"220106","013-TV","2018/08/14 19:29:33","新北市板橋區文化路二段441巷11號","121.474565","25.0334933333333","6500100","板橋區"
"220065","072-UY","2018/08/14 19:29:47","新北市板橋區國泰街75巷45號","121.468278333333","25.0049183333333","6500100","板橋區"
"220086","073-UY","2018/08/14 19:29:51","新北市板橋區中正路216巷117號","121.459553333333","25.0194466666667","6500100","板橋區"
"220069","AAD-861","2018/08/14 19:29:44","新北市板橋區稚暉街39號","121.45722","25.004165","6500100","板橋區"
"226004","205-ST","2018/08/14 19:29:38","新北市平溪區十分里十分街66巷2號","121.775818333333","25.0421166666667","6502400","平溪區"
"235047","251-BX","2018/08/14 19:29:29","新北市中和區景平路241巷56號","121.507951666667","24.9922883333333","6500300","中和區"
"228001","212-TW","2018/08/14 19:29:43","新北市貢寮區真理里延平街68-1號","121.925395","25.0574516666667","6502600","貢寮區"
"228003","828-UM","2018/08/14 19:29:38","新北市貢寮區和美里和美街19-2號","121.912785","25.0826166666667","6502600","貢寮區"
"224010","AGQ-8101","2018/08/14 19:29:32","新北市瑞芳區基山街141號","121.843978333333","25.108285","6501200","瑞芳區"
"224002","639-TC","2018/08/14 19:29:40","新北市瑞芳區三爪子坑路19號","121.813706666667","25.1076016666667","6501200","瑞芳區"
"227003","642-TC","2018/08/14 19:29:38","新北市雙溪區雙溪里太平路54號","121.864791666667","25.0353616666667","6502500","雙溪區"
"227009","400-TW","2018/08/14 19:29:38","新北市雙溪區新基里新基北街43號","121.868203333333","25.03971","6502500","雙溪區"
"253005","032-BX","2018/08/14 19:29:40","新北市石門區小坑9號","121.594418333333","25.288405","6502200","石門區"
"253006","295-VK","2018/08/14 19:29:48","新北市石門區小坑12號","121.591803333333","25.28907","6502200","石門區"
"222001","KEA-2212","2018/08/14 19:29:35","新北市深坑區北深路二段134號","121.615893333333","25.002955","6501800","深坑區"
"208002","KEA-2872","2018/08/14 19:29:43","新北市金山區仁愛路87巷1號","121.634621666667","25.2214983333333","6502700","金山區"
"208003","665-BX","2018/08/14 19:29:35","新北市金山區中山路263巷14號","121.63638","25.2216316666667","6502700","金山區"
"208001","761-BX","2018/08/14 19:29:39","新北市金山區南勢40號","121.628898333333","25.220865","6502700","金山區"
"251005","010-UM","2018/08/14 19:29:44","新北市淡水區水源街一段47巷22號","121.444068333333","25.1730266666667","6501000","淡水區"
"251001","011-UM","2018/08/14 19:29:45","新北市淡水區民權路159號","121.46","25.1360533333333","6501000","淡水區"
"251013","KEA-2871","2018/08/14 19:29:40","新北市淡水區安子內20號","121.476313333333","25.2189416666667","6501000","淡水區"
"251016","179-VK","2018/08/14 19:29:44","新北市淡水區下圭柔山119-51號","121.450711666667","25.2084816666667","6501000","淡水區"
"251014","180-VK","2018/08/14 19:29:48","新北市淡水區小中寮15-1號","121.485708333333","25.23036","6501000","淡水區"
"251015","181-VK","2018/08/14 19:29:39","新北市淡水區山子頂24-1號","121.491511666667","25.18731","6501000","淡水區"
"251010","413-VK","2018/08/14 19:29:40","新北市淡水區中正路二段142-1號","121.422065","25.1875066666667","6501000","淡水區"
"251008","442-VK","2018/08/14 19:29:33","新北市淡水區中正路一段68號","121.425221666667","25.1770233333333","6501000","淡水區"
"251006","561-UM","2018/08/14 19:29:32","新北市淡水區大義街32號","121.442405","25.17836","6501000","淡水區"
"251009","575-R6","2018/08/14 19:29:49","新北市淡水區大忠街5巷9號","121.443363333333","25.1766283333333","6501000","淡水區"
"251007","577-R6","2018/08/14 19:29:35","新北市淡水區坪頂路40號","121.457511666667","25.1623083333333","6501000","淡水區"
"251011","650-BX","2018/08/14 19:29:36","新北市淡水區中正東路二段143巷2弄1號","121.460806666667","25.1474333333333","6501000","淡水區"
"207003","681-TV","2018/08/14 19:29:50","新北市萬里區大鵬里萬里加投205號","121.643928333333","25.2151","6502800","萬里區"
"207004","291-VK","2018/08/14 19:29:43","新北市萬里區萬里里瑪鋉路123號","121.689075","25.1781533333333","6502800","萬里區"
"252002","178-VK","2018/08/14 19:29:43","新北市三芝區淡金路二段18-1號","121.502658333333","25.2595266666667","6502100","三芝區"
"252001","702-TV","2018/08/14 19:29:39","新北市三芝區長勤街48號","121.500505","25.2554516666667","6502100","三芝區"
"237007","153-BY","2018/08/14 19:29:47","新北市三峽區二鬮路136巷20弄73號","121.357735","24.90936","6500900","三峽區"
"237009","210-TH","2018/08/14 19:29:31","新北市三峽區民權街42號","121.36971","24.93358","6500900","三峽區"
"237013","252-BX","2018/08/14 19:29:45","新北市三峽區介壽路一段309號","121.381268333333","24.930555","6500900","三峽區"
"237012","275-BY","2018/08/14 19:29:44","新北市三峽區民生街3號","121.374616666667","24.9354433333333","6500900","三峽區"
"237008","302-VK","2018/08/14 19:29:39","新北市三峽區光明路60號","121.374948333333","24.92942","6500900","三峽區"
"237014","433-BY","2018/08/14 19:29:30","新北市三峽區中山路188號","121.363781666667","24.9368866666667","6500900","三峽區"
"237006","5529-G3","2018/08/14 19:29:33","新北市三峽區中正路一段336巷15弄2號","121.369978333333","24.924965","6500900","三峽區"
"237016","649-BX","2018/08/14 19:29:30","新北市三峽區安坑34-1號","121.448928333333","24.9282266666667","6500900","三峽區"
"237010","706-TV","2018/08/14 19:29:48","新北市三峽區復興路38號","121.373808333333","24.9368316666667","6500900","三峽區"
"237005","AKY-6261","2018/08/14 19:29:38","新北市三峽區復興路367巷1弄2號","121.363875","24.9381683333333","6500900","三峽區"
"236070","105-UM","2018/08/14 19:29:48","新北市土城區學府路一段129巷16號","121.45435","24.9859683333333","6501300","土城區"
"236079","166-UM","2018/08/14 19:29:32","新北市土城區中州路27巷76號","121.412636666667","24.956385","6501300","土城區"
"236026","269-VK","2018/08/14 19:29:35","新北市土城區中央路二段61巷20號","121.443203333333","24.9789083333333","6501300","土城區"
"236014","270-VK","2018/08/14 19:29:34","新北市土城區廣明街1號","121.456006666667","24.991695","6501300","土城區"
"236021","401-BY","2018/08/14 19:29:31","新北市土城區峰廷街18號","121.468996666667","24.9872933333333","6501300","土城區"
"236059","912-UM","2018/08/14 19:29:48","新北市土城區中央路二段93號","121.442206666667","24.9780766666667","6501300","土城區"
"236049","913-UM","2018/08/14 19:29:42","新北市土城區清水路198號","121.460425","24.9818183333333","6501300","土城區"
"236055","AAC-216","2018/08/14 19:29:46","新北市土城區學府路一段276號","121.45026","24.9833283333333","6501300","土城區"
"242058","986-R7","2018/08/14 19:06:21","新北市新莊區新泰路357巷3弄57號","121.442313333333","25.03925","6500500","新莊區"
"242023","362-BY","2018/08/14 19:29:52","新北市新莊區新泰路502巷41弄2號","121.443833333333","25.04644","6500500","新莊區"
"242032","135-UY","2018/08/14 19:29:40","新北市新莊區新泰路225巷20號","121.445313333333","25.0392283333333","6500500","新莊區"
"242005","176-VK","2018/08/14 19:29:38","新北市新莊區化成路11巷83號","121.462343333333","25.0435083333333","6500500","新莊區"
"242013","347-TH","2018/08/14 19:29:47","新北市新莊區中和街59巷8號","121.44709","25.0467966666667","6500500","新莊區"
"242002","349-TH","2018/08/14 19:29:49","新北市新莊區環河路636-7號","121.437453333333","25.0117533333333","6500500","新莊區"
"238015","755-BX","2018/08/14 19:29:45","新北市樹林區中興街60號","121.421166666667","24.9915433333333","6500700","樹林區"
"238023","601-UM","2018/08/14 19:29:34","新北市樹林區三福街114號","121.406488333333","25.0163933333333","6500700","樹林區"
"238019","599-UM","2018/08/14 19:29:46","新北市樹林區大同街3號","121.418898333333","24.98283","6500700","樹林區"
"238024","5061-A6","2018/08/14 19:29:42","新北市樹林區中山路三段125-1號","121.397221666667","24.9735283333333","6500700","樹林區"
"238022","KEA-2217","2018/08/14 19:25:18","新北市樹林區育德街76巷1號","121.3887","24.9680666666667","6500700","樹林區"
"238022","KEA-2213","2018/08/14 19:29:43","新北市樹林區太順街31號","121.419153333333","24.9796033333333","6500700","樹林區"
"238021","KEA-2539","2018/08/14 19:29:42","新北市樹林區大雅路278號","121.380265","24.9482183333333","6500700","樹林區"
"238025","303-VK","2018/08/14 19:29:39","新北市樹林區中山路一段80號","121.423445","24.991505","6500700","樹林區"
"238017","283-BY","2018/08/14 19:29:48","新北市樹林區保安街二段105號","121.415513333333","25.0013033333333","6500700","樹林區"
"238014","282-BY","2018/08/14 19:29:40","新北市樹林區保安二街64巷25號","121.42448","24.996575","6500700","樹林區"
"238020","268-VK","2018/08/14 19:29:42","新北市樹林區俊英街107號","121.425075","25.009605","6500700","樹林區"
"238026","172-UY","2018/08/14 19:29:43","新北市樹林區佳園路二段129號","121.390305","24.958025","6500700","樹林區"
"239007","AAC-297","2018/08/14 19:29:48","新北市鶯歌區大湖路326巷22號","121.34619","24.96994","6500800","鶯歌區"
"239006","891-R6","2018/08/14 19:29:44","新北市鶯歌區尖山埔路133號","121.346635","24.9510866666667","6500800","鶯歌區"
"239001","417-VK","2018/08/14 19:29:43","新北市鶯歌區國華路37號","121.342863333333","24.95549","6500800","鶯歌區"
"239003","360-BY","2018/08/14 19:29:44","新北市鶯歌區中正一路497號","121.376535","24.96198","6500800","鶯歌區"
"239002","359-BY","2018/08/14 19:29:45","新北市鶯歌區大湖路214號","121.344106666667","24.967395","6500800","鶯歌區"
"239004","193-VK","2018/08/14 19:29:33","新北市鶯歌區二甲路26-2號","121.339041666667","24.93588","6500800","鶯歌區"
"221008","489-VK","2018/08/14 19:29:40","新北市汐止區康寧街227號","121.62316","25.0667116666667","6501100","汐止區"
"221036","130-UY","2018/08/14 19:29:42","新北市汐止區康寧街901號","121.650826666667","25.0752116666667","6501100","汐止區"
"221015","131-UY","2018/08/14 19:29:48","新北市汐止區康寧街901號","121.651645","25.07492","6501100","汐止區"
"221010","269-BY","2018/08/14 19:29:46","新北市汐止區連峰街5巷2號","121.646623333333","25.0769533333333","6501100","汐止區"
"221012","278-VK","2018/08/14 19:29:40","新北市汐止區大同路三段186號","121.674343333333","25.0746066666667","6501100","汐止區"
"221023","279-VK","2018/08/14 19:29:44","新北市汐止區康寧街609號","121.63609","25.0708916666667","6501100","汐止區"
"221027","281-BY","2018/08/14 19:29:48","新北市汐止區忠孝東路9號","121.658293333333","25.0659533333333","6501100","汐止區"
"221029","298-VK","2018/08/14 19:29:52","新北市汐止區康寧街901號","121.651518333333","25.0749316666667","6501100","汐止區"
"221021","299-VK","2018/08/14 19:29:32","新北市汐止區康寧街901號","121.651583333333","25.0749383333333","6501100","汐止區"
"221002","129-UY","2018/08/14 19:29:46","新北市汐止區大同路一段337巷16弄1號","121.638125","25.0600166666667","6501100","汐止區"
"221025","623-UM","2018/08/14 19:29:49","新北市汐止區新台五路二段10號","121.660285","25.0650216666667","6501100","汐止區"
"221038","646-BX","2018/08/14 19:29:43","新北市汐止區汐萬路一段6號","121.656153333333","25.067305","6501100","汐止區"
"221033","647-BX","2018/08/14 19:29:46","新北市汐止區南勢街1巷1號","121.62713","25.03751","6501100","汐止區"
"220079","145-BY","2018/08/14 19:29:33","新北市板橋區建國街5號","121.457175","25.0169083333333","6500100","板橋區"
"220080","200-UY","2018/08/14 19:29:36","新北市板橋區大觀路二段37巷180號","121.449595","25.00217","6500100","板橋區"
"220082","610-BX","2018/08/14 19:29:51","新北市板橋區金門街100-2號","121.433005","24.992325","6500100","板橋區"
"220101","245-BX","2018/08/14 19:29:43","新北市板橋區莊敬路208巷4弄2號","121.471641666667","25.0209683333333","6500100","板橋區"
"220091","267-BY","2018/08/14 19:29:31","新北市板橋區文聖街135巷23號","121.478923333333","25.0289516666667","6500100","板橋區"
"220056","276-BY","2018/08/14 19:29:39","新北市板橋區國慶路49巷19弄1號","121.459235","24.99619","6500100","板橋區"
"220072","277-BY","2018/08/14 19:29:35","新北市板橋區金門街253巷17弄1號","121.43317","24.9887616666667","6500100","板橋區"
"220071","283-VK","2018/08/14 19:29:38","新北市板橋區忠孝路24巷25號","121.4603","25.00084","6500100","板橋區"
"220094","285-UM","2018/08/14 19:29:45","新北市板橋區松江街124巷7號","121.469521666667","25.0302766666667","6500100","板橋區"
"220053","285-VK","2018/08/14 19:29:36","新北市板橋區永豐街245號","121.477603333333","25.0213166666667","6500100","板橋區"
"220083","286-VK","2018/08/14 19:29:32","新北市板橋區大觀路二段174巷177號","121.4421","25.0037333333333","6500100","板橋區"
"220081","287-VK","2018/08/14 19:29:33","新北市板橋區大觀路一段28巷1弄102號","121.451776666667","25.0063066666667","6500100","板橋區"
"220090","288-VK","2018/08/14 19:29:43","新北市板橋區裕民街96號","121.460143333333","25.028185","6500100","板橋區"
"220061","293-UM","2018/08/14 19:29:38","新北市板橋區成功路6巷19號","121.476101666667","25.0172266666667","6500100","板橋區"
"220084","296-UM","2018/08/14 19:29:32","新北市板橋區滿平街84巷70號","121.425893333333","24.9874683333333","6500100","板橋區"
"220075","303-R5","2018/08/14 19:29:48","新北市板橋區大勇街4巷16號","121.454913333333","25.01801","6500100","板橋區"
"220062","305-R5","2018/08/14 19:29:36","新北市板橋區三民路二段153巷4號","121.479708333333","25.0148966666667","6500100","板橋區"
"220092","307-R5","2018/08/14 19:29:36","新北市板橋區光武街2巷41號","121.468438333333","25.0259066666667","6500100","板橋區"
"220098","317-R6","2018/08/14 19:29:46","新北市板橋區民生路三段263巷4弄2號","121.463738333333","25.0296666666667","6500100","板橋區"
"220064","486-VK","2018/08/14 19:29:40","新北市板橋區中山路一段1號","121.459193333333","25.00769","6500100","板橋區"
"220088","491-VK","2018/08/14 19:29:46","新北市板橋區文化路二段476號","121.475063333333","25.03293","6500100","板橋區"
"220035","560-BX","2018/08/14 19:29:42","新北市板橋區中正路399巷17號","121.45292","25.0227016666667","6500100","板橋區"
"220103","561-BX","2018/08/14 19:29:51","新北市板橋區文化路一段188巷1-1號","121.46628","25.019515","6500100","板橋區"
"220063","609-BX","2018/08/14 19:29:46","新北市板橋區萬安街53巷37號","121.482536666667","25.0235233333333","6500100","板橋區"
"220054","630-UY","2018/08/14 19:29:39","新北市板橋區光明街86號","121.461896666667","25.0028116666667","6500100","板橋區"
"220057","686-BX","2018/08/14 19:29:46","新北市板橋區和平路101巷1號","121.462383333333","24.9949583333333","6500100","板橋區"
"220077","687-BX","2018/08/14 19:29:46","新北市板橋區僑中三街26號","121.445893333333","25.0047466666667","6500100","板橋區"
"220093","689-BX","2018/08/14 19:29:35","新北市板橋區新海路332號","121.460336666667","25.0242416666667","6500100","板橋區"
"220102","KEA-2699","2018/08/14 19:29:38","新北市板橋區松柏街22巷43號","121.475083333333","25.0288833333333","6500100","板橋區"
"220055","827-TW","2018/08/14 19:29:42","新北市板橋區重慶路290巷22弄14號","121.462275","24.99945","6500100","板橋區"
"220067","829-TW","2018/08/14 19:29:51","新北市板橋區漢生東路324號","121.471713333333","25.00808","6500100","板橋區"
"220068","830-TW","2018/08/14 19:29:36","新北市板橋區翠華街8巷17號","121.481876666667","25.0249516666667","6500100","板橋區"
"220096","831-TW","2018/08/14 19:29:30","新北市板橋區莒光路114巷3號","121.472553333333","25.02344","6500100","板橋區"
"220089","833-TW","2018/08/14 19:29:35","新北市板橋區民權路186號","121.459423333333","25.013655","6500100","板橋區"
"220074","895-R6","2018/08/14 19:29:38","新北市板橋區後菜園街4號","121.457695","25.0104933333333","6500100","板橋區"
"220073","985-R7","2018/08/14 19:29:38","新北市板橋區國光路67巷19號","121.459058333333","25.0188483333333","6500100","板橋區"
"220097","AAC-210","2018/08/14 19:29:47","新北市板橋區漢生西路151號","121.463136666667","25.022085","6500100","板橋區"
"220070","AAC-253","2018/08/14 19:29:49","新北市板橋區四川路一段22號","121.459373333333","25.0063733333333","6500100","板橋區"
"235068","KEA-2873","2018/08/14 19:29:47","新北市中和區景平路493巷10號","121.499265","24.99703","6500300","中和區"
"235061","KEA-2875","2018/08/14 19:29:19","新北市中和區民利街69號","121.478783333333","24.9983816666667","6500300","中和區"
