"lineid","car","time","location","longitude","latitude","cityid","cityname"
"234077","969-R7","2018/08/14 21:19:40","新北市八里區中山路三段247號","121.381633333333","25.1402733333333","6500400","永和區"
"244018","403-UM","2018/08/14 21:01:23","新北市林口區粉寮69號","121.40503","25.09084","6501700","林口區"
"243001","297-R6","2018/08/14 21:10:15","新北市泰山區黎明路31-1號","121.421483333333","25.0603633333333","6501600","泰山區"
"243006","680-BX","2018/08/14 21:05:30","新北市泰山區黎明路25號","121.422055","25.0608066666667","6501600","泰山區"
"231059","046-UY","2018/08/14 21:19:41","新北市新店區安豐路30-1號","121.500673333333","24.9569","6500600","新店區"
"231040","047-UY","2018/08/14 21:19:46","新北市新店區北新路一段2號","121.540666666667","24.96525","6500600","新店區"
"231048","187-VK","2018/08/14 21:19:40","新北市新店區中正路424號","121.534246666667","24.978015","6500600","新店區"
"231054","KEA-2219","2018/08/14 21:19:50","新北市新店區北新路一段193號","121.54032","24.9647683333333","6500600","新店區"
"231051","278-BY","2018/08/14 21:19:38","新北市新店區復興路106-11號","121.53139","24.9895533333333","6500600","新店區"
"231050","AAD-862","2018/08/14 21:19:42","新北市新店區中正路187號","121.54062","24.9722083333333","6500600","新店區"
"231063","641-BX","2018/08/14 21:19:51","新北市新店區吉祥街15巷1號","121.497713333333","24.9456516666667","6500600","新店區"
"231060","897-TW","2018/08/14 21:19:48","新北市新店區薏仁坑路自強巷6號","121.496401666667","24.95819","6500600","新店區"
"241011","013-R5","2018/08/14 21:19:43","新北市三重區龍濱路197號","121.501863333333","25.0714433333333","6500200","三重區"
"241028","022-UY","2018/08/14 21:19:46","新北市三重區正義南路165-1號","121.498888333333","25.05755","6500200","三重區"
"241008","059-VK","2018/08/14 21:19:37","新北市三重區自強路一段155號","121.493513333333","25.067005","6500200","三重區"
"241031","061-VK","2018/08/14 21:19:33","新北市三重區五谷王南街46巷37號","121.47572","25.04553","6500200","三重區"
"241017","063-VK","2018/08/14 21:19:37","新北市三重區國隆路31號","121.492465","25.0645533333333","6500200","三重區"
"241024","065-VK","2018/08/14 21:19:42","新北市三重區中正北路145巷14號","121.484143333333","25.0677966666667","6500200","三重區"
"241026","066-VK","2018/08/14 21:19:48","新北市三重區大同南路218號","121.496813333333","25.05639","6500200","三重區"
"241003","091-VK","2018/08/14 21:19:47","新北市三重區仁義街319號","121.495438333333","25.0843616666667","6500200","三重區"
"241005","262-UM","2018/08/14 21:19:40","新北市三重區五華街180巷19號","121.488221666667","25.08583","6500200","三重區"
"241016","266-UM","2018/08/14 21:19:36","新北市三重區自強路一段95號","121.495833333333","25.066325","6500200","三重區"
"241009","267-UM","2018/08/14 21:19:43","新北市三重區新北大道一段190號","121.482538333333","25.0619533333333","6500200","三重區"
"241018","268-UM","2018/08/14 21:19:37","新北市三重區忠孝路二段130號","121.482681666667","25.0686216666667","6500200","三重區"
"241032","269-UM","2018/08/14 21:19:41","新北市三重區光復路二段178-1號","121.472205","25.06192","6500200","三重區"
"241013","270-UM","2018/08/14 21:19:41","新北市三重區仁愛街81-1號","121.496021666667","25.0731933333333","6500200","三重區"
"241025","271-UM","2018/08/14 21:19:38","新北市三重區中正北路208巷10弄4號","121.48243","25.0668933333333","6500200","三重區"
"241007","398-BY","2018/08/14 21:19:44","新北市三重區忠孝路一段6-3號","121.492185","25.0717466666667","6500200","三重區"
"241004","475-VK","2018/08/14 21:19:43","新北市三重區碧華街392號","121.491575","25.0847016666667","6500200","三重區"
"241030","480-VK","2018/08/14 21:19:54","新北市三重區五谷王北街181-2號","121.477016666667","25.0554266666667","6500200","三重區"
"241014","543-UM","2018/08/14 21:19:52","新北市三重區萬全街9號","121.49936","25.069685","6500200","三重區"
"241023","545-UM","2018/08/14 21:19:45","新北市三重區忠孝路三段40巷21號","121.482555","25.065885","6500200","三重區"
"241001","547-UM","2018/08/14 21:19:52","新北市三重區碧華街211-1號","121.488585","25.0827733333333","6500200","三重區"
"241019","KEA-2593","2018/08/14 21:19:47","新北市三重區重陽路三段7-3號","121.489128333333","25.0665516666667","6500200","三重區"
"241006","AAD-863","2018/08/14 21:19:38","新北市三重區新北大道一段115號","121.483785","25.0613316666667","6500200","三重區"
"241033","AAC-255","2018/08/14 21:19:45","新北市三重區光復路二段102巷8-4號","121.47134","25.0580866666667","6500200","三重區"
"235040","150-BY","2018/08/14 21:19:40","新北市中和區員山路36巷13號","121.48413","24.990595","6500300","中和區"
"247010","KEA-2869","2018/08/14 21:19:34","新北市蘆洲區鷺江街16-1號","121.478931666667","25.0825533333333","6501400","蘆洲區"
"247024","893-R6","2018/08/14 21:19:36","新北市蘆洲區長榮路269巷26號","121.459556666667","25.0859966666667","6501400","蘆洲區"
"247014","546-UM","2018/08/14 21:19:33","新北市蘆洲區保和街50-5號","121.469793333333","25.0862933333333","6501400","蘆洲區"
"247022","500-BY","2018/08/14 21:19:51","新北市蘆洲區三民路247號","121.468831666667","25.089035","6501400","蘆洲區"
"247012","339-TH","2018/08/14 21:19:33","新北市蘆洲區集賢路224巷66號","121.480741666667","25.0880866666667","6501400","蘆洲區"
"247004","337-TH","2018/08/14 21:19:34","新北市蘆洲區永安南路二段324號","121.456946666667","25.082845","6501400","蘆洲區"
"247006","336-TH","2018/08/14 21:19:44","新北市蘆洲區長安街63號","121.462913333333","25.0798016666667","6501400","蘆洲區"
"247018","057-VK","2018/08/14 21:19:46","新北市蘆洲區復興路105巷11號","121.47638","25.0884266666667","6501400","蘆洲區"
"247008","056-VK","2018/08/14 21:19:52","新北市蘆洲區中山一路161號","121.475603333333","25.0815633333333","6501400","蘆洲區"
"247002","053-VK","2018/08/14 21:19:39","新北市蘆洲區永樂街80號","121.456791666667","25.0885866666667","6501400","蘆洲區"
"247016","007-UY","2018/08/14 21:19:46","新北市蘆洲區永康街1巷13號","121.459706666667","25.085545","6501400","蘆洲區"
"247020","001-UY","2018/08/14 21:19:36","新北市蘆洲區民族路422巷116號","121.47269","25.09422","6501400","蘆洲區"
"251005","010-UM","2018/08/14 21:19:44","新北市淡水區仁愛街18巷2號","121.446818333333","25.1703933333333","6501000","淡水區"
"251001","011-UM","2018/08/14 21:19:45","新北市淡水區濱海路一段306巷60弄33號","121.44195","25.191615","6501000","淡水區"
"251013","KEA-2871","2018/08/14 21:19:40","新北市淡水區行忠路328號","121.460543333333","25.199575","6501000","淡水區"
"251016","179-VK","2018/08/14 21:19:44","新北市淡水區前洲子11號","121.441076666667","25.2193616666667","6501000","淡水區"
"251014","180-VK","2018/08/14 21:19:48","新北市淡水區六塊厝2-1號","121.450123333333","25.2404733333333","6501000","淡水區"
"251015","181-VK","2018/08/14 21:19:38","新北市淡水區淡金路四段542巷83弄13號","121.456446666667","25.2267283333333","6501000","淡水區"
"251010","413-VK","2018/08/14 21:19:40","新北市淡水區中正路一段156巷51號","121.421821666667","25.1809083333333","6501000","淡水區"
"251012","441-VK","2018/08/14 21:19:50","新北市淡水區淡金路五段35巷46號","121.452461666667","25.23474","6501000","淡水區"
"251008","442-VK","2018/08/14 21:19:49","新北市淡水區水源街二段212號","121.459688333333","25.17653","6501000","淡水區"
"251006","561-UM","2018/08/14 21:19:52","新北市淡水區中正路一段102號","121.423971666667","25.1778383333333","6501000","淡水區"
"251009","575-R6","2018/08/14 21:19:48","新北市淡水區民族路33巷16-14號","121.463191666667","25.135715","6501000","淡水區"
"251007","577-R6","2018/08/14 21:19:35","新北市淡水區水源街二段194號","121.456936666667","25.17612","6501000","淡水區"
"251011","650-BX","2018/08/14 21:19:36","新北市淡水區新民街120巷29號","121.438921666667","25.1787833333333","6501000","淡水區"
"251002","672-BX","2018/08/14 21:19:47","新北市淡水區學府路172巷21號","121.448331666667","25.1749066666667","6501000","淡水區"
"251003","673-BX","2018/08/14 21:19:38","新北市淡水區崁頂15-5號","121.438971666667","25.1858516666667","6501000","淡水區"
"242051","441-UM","2018/08/14 21:19:47","新北市樹林區中山路三段212號","121.3825","24.9659883333333","6500500","新莊區"
"242023","362-BY","2018/08/14 21:19:32","新北市樹林區八德街1012號","121.391375","24.9684333333333","6500500","新莊區"
"220070","AAC-253","2018/08/14 21:19:54","新北市八里區荖阡坑路41-3號","121.399793333333","25.132435","6500100","板橋區"
