"lineid","car","time","location","longitude","latitude","cityid","cityname"
"234040","862-TW","2018/08/14 22:11:37","新北市永和區福和路1號","121.526435","25.0096866666667","6500400","永和區"
"241028","022-UY","2018/08/14 22:19:46","新北市五股區中興路三段163號","121.44929","25.080595","6500200","三重區"
"241006","AAD-863","2018/08/14 22:19:37","新北市三重區光復路二段178號","121.471698333333","25.062305","6500200","三重區"
"247010","KEA-2869","2018/08/14 22:19:34","新北市五股區中興路三段2巷10號","121.448971666667","25.0810783333333","6501400","蘆洲區"
"251010","413-VK","2018/08/14 22:19:40","新北市淡水區沙崙路200號","121.424686666667","25.18389","6501000","淡水區"
"251008","442-VK","2018/08/14 22:19:49","新北市淡水區學府路104號","121.449865","25.171795","6501000","淡水區"
"251004","443-VK","2018/08/14 22:19:49","新北市淡水區民族路33號","121.462208333333","25.1357683333333","6501000","淡水區"
"251007","577-R6","2018/08/14 22:19:55","新北市淡水區北新路180號","121.449445","25.1787733333333","6501000","淡水區"
"251011","650-BX","2018/08/14 22:19:36","新北市淡水區水碓街7號","121.443173333333","25.1771816666667","6501000","淡水區"
