"lineid","car","time","location","longitude","latitude","cityid","cityname"
"248005","653-BX","2018/10/04 08:09:42","新北市五股區明德路10號","121.433403333333","25.0717216666667","6501500","五股區"
"232001","290-BY","2018/10/04 08:09:37","新北市坪林區大粗坑6-1號","121.732311666667","24.9483266666667","6502000","坪林區"
"232014","291-BY","2018/10/04 08:09:29","新北市坪林區金瓜寮19-1號","121.680928333333","24.9143633333333","6502000","坪林區"
"232007","758-BX","2018/10/04 08:09:24","新北市坪林區北宜路八段477號","121.706778333333","24.921635","6502000","坪林區"
"244022","069-UM","2018/10/04 08:09:34","新北市林口區仁愛路一段667巷45號","121.387061666667","25.07638","6501700","林口區"
"244006","080-UY","2018/10/04 08:09:37","新北市林口區中華路96號","121.38477","25.0904333333333","6501700","林口區"
"244003","248-BX","2018/10/04 08:09:33","新北市林口區嘉溪雅坑5-4號","121.349253333333","25.0996783333333","6501700","林口區"
"244012","KEA-2802","2018/10/04 08:09:35","新北市林口區中山路49號","121.394458333333","25.07849","6501700","林口區"
"244016","485-VK","2018/10/04 08:09:39","新北市林口區粉寮路二段1-1號","121.400378333333","25.0831933333333","6501700","林口區"
"244008","656-BX","2018/10/04 08:09:35","新北市林口區東林街45號","121.394235","25.0799383333333","6501700","林口區"
"244010","701-TV","2018/10/04 08:09:31","新北市林口區仁愛路一段246號","121.3956","25.075845","6501700","林口區"
"244024","837-TS","2018/10/04 08:09:26","新北市林口區中山路68號","121.393835","25.078555","6501700","林口區"
"244020","838-TS","2018/10/04 08:09:30","新北市林口區粉寮路二段160巷29號","121.405736666667","25.0914133333333","6501700","林口區"
"222006","289-BY","2018/10/04 08:09:27","新北市深坑區深坑街6號","121.616465","25.00296","6501800","深坑區"
"231069","189-VK","2018/10/04 08:09:33","新北市新店區華城路77巷6號","121.52523","24.94631","6500600","新店區"
"231008","192-VK","2018/10/04 08:09:37","新北市新店區行政街14巷1號","121.543221666667","24.96616","6500600","新店區"
"235001","611-BX","2018/10/04 08:09:23","新北市中和區圓通路367巷33弄96號","121.494761666667","24.9836983333333","6500300","中和區"
"235001","157-BY","2018/10/04 08:09:22","新北市中和區中正路568號","121.486541666667","24.994635","6500300","中和區"
"226005","5620-A6","2018/10/04 08:09:31","新北市平溪區靜安路三段10號","121.752253333333","25.026665","6502400","平溪區"
"226007","7418-A5","2018/10/04 08:09:21","新北市平溪區十分里姜仔坑12號","121.769038333333","25.0377166666667","6502400","平溪區"
"226003","AGD-0702","2018/10/04 08:09:19","新北市平溪區十分里十分街310號","121.775368333333","25.0438133333333","6502400","平溪區"
"223006","022-BY","2018/10/04 07:59:09","新北市石碇區十八重溪16號","121.67722","25.0112583333333","6501900","石碇區"
"223002","KEA-2673","2018/10/04 08:09:29","新北市石碇區北宜路五段58號","121.634011666667","24.9532233333333","6501900","石碇區"
"223008","406-TH","2018/10/04 08:09:30","新北市石碇區靜安路一段266號","121.684","25.0090266666667","6501900","石碇區"
"223004","437-BY","2018/10/04 08:09:37","新北市石碇區外按11-5號","121.651406666667","24.9990016666667","6501900","石碇區"
"223001","592-UM","2018/10/04 08:08:23","新北市石碇區北宜路六段獅子頭坑巷6-1號","121.64509","24.9424983333333","6501900","石碇區"
"223005","677-TV","2018/10/04 08:09:39","新北市石碇區外按11-5號","121.651626666667","24.9991116666667","6501900","石碇區"
"252004","249-BX","2018/10/04 08:09:32","新北市三芝區興華里車埕15-4號","121.504398333333","25.19445","6502100","三芝區"
"252007","AAC-283","2018/10/04 08:09:20","新北市三芝區後厝里大片頭90號","121.456161666667","25.2468266666667","6502100","三芝區"
"237001","159-UY","2018/10/04 08:09:38","新北市三峽區學成路260號","121.375728333333","24.94283","6500900","三峽區"
"242057","986-R7","2018/10/04 08:09:24","新北市新莊區中正路726-2號","121.41603","25.0242916666667","6500500","新莊區"
"242055","751-BX","2018/10/04 08:09:38","新北市新莊區瓊林路13-2號","121.449106666667","25.0312516666667","6500500","新莊區"
"242028","705-TV","2018/10/04 08:09:25","新北市新莊區復興路一段123號","121.449631666667","25.04312","6500500","新莊區"
"242026","615-BX","2018/10/04 08:09:32","新北市新莊區福壽街110號","121.45803","25.0505933333333","6500500","新莊區"
"242024","613-BX","2018/10/04 08:09:33","新北市新莊區思源路108號","121.460143333333","25.0465816666667","6500500","新莊區"
"242043","566-BX","2018/10/04 08:09:30","新北市新莊區中正路871巷9弄1號","121.418655","25.0267683333333","6500500","新莊區"
"242047","497-BY","2018/10/04 08:09:36","新北市新莊區萬安街109號","121.420868333333","25.0228533333333","6500500","新莊區"
"242052","441-UM","2018/10/04 08:09:20","新北市板橋區大觀路三段50巷79號","121.431388333333","24.996365","6500500","新莊區"
"242001","440-UM","2018/10/04 08:09:22","新北市新莊區新莊路328號","121.450426666667","25.0337416666667","6500500","新莊區"
"242038","415-TV","2018/10/04 08:09:38","新北市新莊區民安西路39號","121.427546666667","25.0208666666667","6500500","新莊區"
"242008","413-TV","2018/10/04 08:09:43","新北市新莊區福壽街169巷3號","121.457233333333","25.0536916666667","6500500","新莊區"
"242045","400-BY","2018/10/04 08:09:42","新北市新莊區福營路103號","121.434008333333","25.0322983333333","6500500","新莊區"
"242022","362-BY","2018/10/04 08:09:26","新北市新莊區民樂街39號","121.457778333333","25.0413916666667","6500500","新莊區"
"242059","353-BY","2018/10/04 08:09:35","新北市新莊區瓊林南路136號","121.434773333333","25.0080616666667","6500500","新莊區"
"242010","132-UY","2018/10/04 08:09:35","新北市新莊區中華路二段233號","121.451701666667","25.0530666666667","6500500","新莊區"
"242040","133-UY","2018/10/04 08:09:34","新北市新莊區中正路614巷8弄2號","121.42526","25.0308933333333","6500500","新莊區"
"242049","172-VK","2018/10/04 08:09:29","新北市新莊區西盛街313號","121.428198333333","25.0152766666667","6500500","新莊區"
"242012","173-VK","2018/10/04 08:09:40","新北市新莊區中誠街99號","121.449945","25.047605","6500500","新莊區"
"242018","175-VK","2018/10/04 08:09:30","新北市新莊區中港路209號","121.45484","25.04202","6500500","新莊區"
"242001","233-RS","2018/10/04 08:09:27","新北市新莊區中正路285號","121.448856666667","25.035345","6500500","新莊區"
"242016","346-TH","2018/10/04 08:07:17","新北市新莊區復興路一段127巷12號","121.448945","25.0437266666667","6500500","新莊區"
"242030","348-TH","2018/10/04 08:09:39","新北市新莊區新泰路321巷3弄4號","121.444491666667","25.041255","6500500","新莊區"
"242003","349-TH","2018/10/04 08:09:32","新北市新莊區自立街208號","121.456948333333","25.045455","6500500","新莊區"
"242020","350-TH","2018/10/04 08:09:26","新北市新莊區復興路一段216號","121.45294","25.0438033333333","6500500","新莊區"
"242014","351-TH","2018/10/04 08:09:31","新北市新莊區新泰路345號","121.444736666667","25.0420766666667","6500500","新莊區"
"242033","281-VK","2018/10/04 08:09:38","新北市新莊區新莊路546號","121.44515","25.03291","6500500","新莊區"
"242006","280-VK","2018/10/04 08:09:36","新北市新莊區自信街81巷17弄1號","121.456011666667","25.0487","6500500","新莊區"
