"lineid","car","time","location","longitude","latitude","cityid","cityname"
"234084","338-UY","2018/10/04 12:19:25","新北市永和區福和路1號","121.526255","25.0097733333333","6500400","永和區"
"234040","862-TW","2018/10/04 12:19:30","新北市永和區福和路1號","121.526351666667","25.0097766666667","6500400","永和區"
"243005","AAD-798","2018/10/04 12:17:46","新北市泰山區黎明路25號","121.422006666667","25.060765","6501600","泰山區"
"243008","KEA-2801","2018/10/04 12:07:29","新北市泰山區犁頭窠3-1號","121.422255","25.0606333333333","6501600","泰山區"
"228005","097-TW","2018/10/04 12:19:40","新北市貢寮區福連里香蘭街26號","121.984635","25.02125","6502600","貢寮區"
"228004","212-TW","2018/10/04 12:19:42","新北市貢寮區貢寮里長泰路17-2號","121.892108333333","25.0209983333333","6502600","貢寮區"
"235025","KEA-2875","2018/10/04 12:19:44","新北市中和區員山路36巷13號","121.484161666667","24.99179","6500300","中和區"
