"lineid","car","time","location","longitude","latitude","cityid","cityname"
"234044","148-BY","2018/10/04 13:09:45","新北市永和區永元路18巷25號","121.523583333333","25.0002683333333","6500400","永和區"
"234005","207-UY","2018/10/04 13:09:39","新北市永和區中山路一段147號","121.510168333333","25.00958","6500400","永和區"
"234078","298-R6","2018/10/04 13:09:35","新北市永和區福和路57巷14弄1號","121.522671666667","25.00692","6500400","永和區"
"234036","336-UY","2018/10/04 13:09:45","新北市永和區民樂街71巷1號","121.52737","24.9975483333333","6500400","永和區"
"234062","337-UY","2018/10/04 13:09:32","新北市永和區秀朗路二段15號","121.520951666667","25.00268","6500400","永和區"
"234084","338-UY","2018/10/04 13:09:45","新北市永和區中正路500號","121.517535","25.0043516666667","6500400","永和區"
"234068","552-UM","2018/10/04 13:09:38","新北市永和區豫溪街137巷1弄24號","121.518413333333","25.0104816666667","6500400","永和區"
"234015","745-BX","2018/10/04 13:09:35","新北市永和區文化路90巷17號","121.513636666667","25.0161483333333","6500400","永和區"
"234028","746-BX","2018/10/04 13:09:44","新北市永和區民生路21號","121.52281","24.9988416666667","6500400","永和區"
"234052","KEA-2590","2018/10/04 13:09:40","新北市永和區竹林路78號","121.519313333333","25.0128516666667","6500400","永和區"
"234012","KEA-2591","2018/10/04 13:09:38","新北市永和區保福路二段20號","121.510961666667","25.0114683333333","6500400","永和區"
"234060","AAD-866","2018/10/04 13:09:39","新北市永和區安樂路449號","121.514265","25.0049133333333","6500400","永和區"
"234040","862-TW","2018/10/04 13:09:30","新北市永和區保平路93巷2弄1號","121.511701666667","25.0066833333333","6500400","永和區"
"234048","863-TW","2018/10/04 13:09:37","新北市永和區文化路135巷20弄1號","121.510336666667","25.015135","6500400","永和區"
"234025","9371-KE","2018/10/04 13:09:28","新北市永和區秀朗路一段10巷21號","121.51337","25.0062766666667","6500400","永和區"
"234010","9373-KE","2018/10/04 13:09:47","新北市永和區文化路115號","121.512741666667","25.0152116666667","6500400","永和區"
"248015","026-BX","2018/10/04 13:09:28","新北市五股區中興路三段198號","121.441783333333","25.08203","6501500","五股區"
"248005","077-UY","2018/10/04 13:09:36","新北市五股區中興路二段82號","121.460866666667","25.0772966666667","6501500","五股區"
"248007","095-VK","2018/10/04 13:09:28","新北市五股區更洲路32巷26號","121.45922","25.0800433333333","6501500","五股區"
"248017","225-UY","2018/10/04 13:09:42","新北市五股區工商路12號","121.439813333333","25.0829233333333","6501500","五股區"
"248011","247-BX","2018/10/04 13:09:26","新北市五股區中興路三段196號","121.44207","25.0819483333333","6501500","五股區"
"248003","677-BX","2018/10/04 13:09:39","新北市五股區新五路二段258號","121.4406","25.0822533333333","6501500","五股區"
"248009","682-TV","2018/10/04 13:09:29","新北市五股區成泰路一段189巷24-4號","121.43374","25.077615","6501500","五股區"
"234022","9380-KE","2018/10/04 13:09:35","新北市永和區中興街10巷19號","121.515895","25.01118","6500400","永和區"
"234076","969-R7","2018/10/04 13:09:42","新北市永和區民光街2號","121.515163333333","24.996445","6500400","永和區"
"234072","AAC-211","2018/10/04 13:09:30","新北市永和區竹林路217號","121.520721666667","25.008665","6500400","永和區"
"234066","AAC-212","2018/10/04 13:09:33","新北市永和區永和路一段49巷17號","121.512101666667","25.0070666666667","6500400","永和區"
"234001","AAC-295","2018/10/04 13:09:38","新北市永和區永和路二段3號","121.514378333333","25.0099016666667","6500400","永和區"
"244003","248-BX","2018/10/04 13:09:45","新北市林口區嘉寶里11鄰67號","121.339261666667","25.1099016666667","6501700","林口區"
"243005","AAD-798","2018/10/04 13:09:32","新北市泰山區南林路93號","121.4155","25.0511633333333","6501600","泰山區"
"231028","001-UM","2018/10/04 13:09:40","新北市新店區安華路28-1號","121.51954","24.96091","6500600","新店區"
"231002","002-UM","2018/10/04 13:09:38","新北市新店區安華路28-1號","121.519631666667","24.9609033333333","6500600","新店區"
"231027","0293-UT","2018/10/04 13:09:43","新北市新店區安華路1-1號","121.519583333333","24.9605083333333","6500600","新店區"
"231001","047-UY","2018/10/04 13:09:31","新北市新店區安一路一段1-1號","121.519356666667","24.9610183333333","6500600","新店區"
"231005","106-UY","2018/10/04 13:09:38","新北市新店區安華路28-1號","121.519676666667","24.960735","6500600","新店區"
"231010","107-UY","2018/10/04 13:09:35","新北市新店區安一路一段1-1號","121.519516666667","24.961345","6500600","新店區"
"231021","110-UY","2018/10/04 13:09:33","新北市新店區安一路一段1-1號","121.51944","24.9615216666667","6500600","新店區"
"231011","187-VK","2018/10/04 13:09:37","新北市新店區安一路一段1-1號","121.519566666667","24.9611633333333","6500600","新店區"
"231031","188-VK","2018/10/04 13:09:44","新北市新店區安一路一段1-1號","121.519403333333","24.9616816666667","6500600","新店區"
"231026","256-BX","2018/10/04 13:09:41","新北市新店區安華路3號","121.519305","24.9597066666667","6500600","新店區"
"231003","268-BY","2018/10/04 13:09:40","新北市新店區安華路28-1號","121.519493333333","24.9607166666667","6500600","新店區"
"231018","278-BY","2018/10/04 13:09:48","新北市新店區安一路一段1-1號","121.519685","24.9610966666667","6500600","新店區"
"231017","AAD-862","2018/10/04 13:09:35","新北市新店區安華路28-1號","121.520016666667","24.960945","6500600","新店區"
"231037","4716-K9","2018/10/04 13:09:42","新北市新店區安華路28-1號","121.519715","24.9609483333333","6500600","新店區"
"231025","4715-K9","2018/10/04 13:09:42","新北市新店區安康路一段238號","121.522028333333","24.9637716666667","6500600","新店區"
"231036","512-UM","2018/10/04 13:09:30","新北市新店區安一路一段1-1號","121.519271666667","24.9613983333333","6500600","新店區"
"231013","513-UM","2018/10/04 13:09:31","新北市新店區安一路一段1-1號","121.519635","24.9610883333333","6500600","新店區"
"231034","616-UM","2018/10/04 13:09:43","新北市新店區安華路28-1號","121.519476666667","24.9605516666667","6500600","新店區"
"231006","617-UM","2018/10/04 13:09:42","新北市新店區安華路28-1號","121.519556666667","24.9609966666667","6500600","新店區"
"231030","619-UM","2018/10/04 13:09:40","新北市新店區安華路28-1號","121.519608333333","24.96089","6500600","新店區"
"231035","719-UM","2018/10/04 13:09:47","新北市新店區安一路一段1-1號","121.51966","24.9612483333333","6500600","新店區"
"231029","897-TW","2018/10/04 13:09:43","新北市新店區安華路30巷1號","121.5195","24.9598116666667","6500600","新店區"
"231004","899-TW","2018/10/04 13:09:39","新北市新店區安華路28-1號","121.519296666667","24.9608466666667","6500600","新店區"
"231024","AKT-0513","2018/10/04 13:09:30","新北市新店區安華路28-1號","121.519525","24.9605333333333","6500600","新店區"
"235030","003-UY","2018/10/04 13:09:47","新北市中和區中山路二段201號","121.499826666667","25.0026766666667","6500300","中和區"
"235028","005-UY","2018/10/04 13:09:47","新北市中和區中正路213號","121.497093333333","24.9937066666667","6500300","中和區"
"235027","006-UY","2018/10/04 13:09:45","新北市中和區員山路36巷16-3號","121.485063333333","24.9913466666667","6500300","中和區"
"235003","097-UM","2018/10/04 13:09:30","新北市中和區員山路36巷16-8號","121.485356666667","24.992145","6500300","中和區"
"235029","098-UM","2018/10/04 13:09:39","新北市中和區莊敬路49巷20弄22號","121.502768333333","25.0058466666667","6500300","中和區"
"235022","151-BY","2018/10/04 13:09:41","新北市中和區圓通路367巷68號","121.493355","24.9832483333333","6500300","中和區"
"235002","185-VK","2018/10/04 13:09:45","新北市中和區大智街2號","121.519833333333","24.99184","6500300","中和區"
"235031","255-BX","2018/10/04 13:09:30","新北市中和區中正路839巷2號","121.48479","25.0024966666667","6500300","中和區"
"235014","4979-A6","2018/10/04 13:09:40","新北市中和區錦和路350-1號","121.490486666667","24.99357","6500300","中和區"
"235034","558-UM","2018/10/04 13:09:44","新北市中和區中正路291號","121.493483333333","24.99386","6500300","中和區"
"235009","565-BX","2018/10/04 13:09:43","新北市中和區和城路一段271巷1號","121.485465","24.99215","6500300","中和區"
"235018","640-BX","2018/10/04 13:09:49","新北市土城區延壽路117號","121.468966666667","24.9943033333333","6500300","中和區"
"235011","732-UM","2018/10/04 13:09:37","新北市中和區錦和路350-1號","121.490591666667","24.993555","6500300","中和區"
"235035","783-BX","2018/10/04 13:09:41","新北市中和區板南路520巷1號","121.484046666667","25.0088533333333","6500300","中和區"
"235026","800-TS","2018/10/04 13:09:40","新北市中和區錦和路77巷1號","121.48941","24.9980133333333","6500300","中和區"
"235021","801-TS","2018/10/04 13:09:48","新北市中和區員山路36巷16-2號","121.485333333333","24.9917766666667","6500300","中和區"
"235041","802-TS","2018/10/04 13:09:28","新北市中和區中正路501號","121.488926666667","24.9936016666667","6500300","中和區"
"235012","896-TW","2018/10/04 13:09:31","新北市中和區員山路36巷16-2號","121.48508","24.9919866666667","6500300","中和區"
"235015","157-BY","2018/10/04 13:09:46","新北市中和區捷運路6號","121.510215","24.9894883333333","6500300","中和區"
"235001","AAC-213","2018/10/04 13:09:30","新北市中和區景平路147號","121.514018333333","24.9921883333333","6500300","中和區"
"228005","097-TW","2018/10/04 13:09:40","新北市貢寮區仁理村研海街62-2號","121.925718333333","25.0446183333333","6502600","貢寮區"
"228004","212-TW","2018/10/04 13:09:41","新北市貢寮區吉林里內寮街71-1號","121.892748333333","24.9739783333333","6502600","貢寮區"
"253003","6232-TK","2018/10/04 13:09:29","新北市石門區石崩山23號","121.56668","25.278055","6502200","石門區"
"253001","6251-TK","2018/10/04 13:09:29","新北市石門區老梅路43-2號","121.545398333333","25.2896283333333","6502200","石門區"
"253002","637-UY","2018/10/04 13:09:32","新北市石門區九芎林3-1號","121.556961666667","25.27366","6502200","石門區"
"253004","8270-PC","2018/10/04 13:09:34","新北市石門區阿里荖28-1號","121.607163333333","25.28076","6502200","石門區"
"207002","749-BX","2018/10/04 13:09:28","新北市萬里區崁腳里崁腳路106-4號","121.645995","25.1586133333333","6502800","萬里區"
"207001","662-BX","2018/10/04 13:09:30","新北市萬里區萬里里瑪鋉路177號","121.690096666667","25.1784533333333","6502800","萬里區"
"252005","AAC-283","2018/10/04 13:09:40","新北市三芝區八賢里八連溪24號","121.511493333333","25.239935","6502100","三芝區"
"242001","233-RS","2018/10/04 13:09:30","新北市新莊區環河路636-7號","121.437578333333","25.0116566666667","6500500","新莊區"
"221010","269-BY","2018/10/04 13:09:39","新北市汐止區忠三街8號","121.624716666667","25.078445","6501100","汐止區"
"221032","280-BY","2018/10/04 13:09:42","新北市汐止區大同路二段411號","121.658443333333","25.067235","6501100","汐止區"
"235032","KEA-2873","2018/10/04 13:09:18","新北市中和區連城路270號","121.485121666667","24.9964483333333","6500300","中和區"
"235025","KEA-2875","2018/10/04 13:09:27","新北市土城區金城路三段257號","121.47185","24.9900716666667","6500300","中和區"
