"lineid","car","time","location","longitude","latitude","cityid","cityname"
"234044","148-BY","2018/10/04 13:27:46","新北市永和區秀朗路二段163號","121.525166666667","25.0016566666667","6500400","永和區"
"234005","207-UY","2018/10/04 13:27:46","新北市永和區中山路一段297號","121.506703333333","25.0067283333333","6500400","永和區"
"234078","298-R6","2018/10/04 13:27:35","新北市永和區環河東路三段52巷2弄2號","121.526493333333","25.006055","6500400","永和區"
"234036","336-UY","2018/10/04 13:27:45","新北市永和區成功路二段65號","121.527361666667","25.00011","6500400","永和區"
"234062","337-UY","2018/10/04 13:27:42","新北市永和區得和路243巷31號","121.520736666667","25.00137","6500400","永和區"
"234084","338-UY","2018/10/04 13:27:45","新北市永和區永利路86號","121.52059","25.0039283333333","6500400","永和區"
"234068","552-UM","2018/10/04 13:27:38","新北市永和區警光街5-1號","121.519713333333","25.0095066666667","6500400","永和區"
"234015","745-BX","2018/10/04 13:27:36","新北市永和區環河西路一段59號","121.513556666667","25.0181316666667","6500400","永和區"
"234028","746-BX","2018/10/04 13:27:44","新北市永和區民生路31號","121.522633333333","24.9983716666667","6500400","永和區"
"234052","KEA-2590","2018/10/04 13:27:40","新北市永和區復興街21號","121.5161","25.0130816666667","6500400","永和區"
"234012","KEA-2591","2018/10/04 13:27:29","新北市永和區信義路23號","121.513971666667","25.0122366666667","6500400","永和區"
"234060","AAD-866","2018/10/04 13:27:39","新北市永和區中正路471號","121.517038333333","25.006235","6500400","永和區"
"234040","862-TW","2018/10/04 13:27:30","新北市永和區中和路585號","121.51207","25.0039666666667","6500400","永和區"
"234048","863-TW","2018/10/04 13:27:37","新北市永和區仁愛路102號","121.51212","25.013175","6500400","永和區"
"234025","9371-KE","2018/10/04 13:27:48","新北市永和區豫溪街52巷20號","121.515678333333","25.0090916666667","6500400","永和區"
"234010","9373-KE","2018/10/04 13:27:40","新北市永和區仁愛路141巷5弄1號","121.511643333333","25.012165","6500400","永和區"
"248015","026-BX","2018/10/04 13:27:28","新北市五股區凌雲路一段109巷18號","121.449795","25.10121","6501500","五股區"
"248005","077-UY","2018/10/04 13:27:36","新北市五股區四維路79號","121.4673","25.0722733333333","6501500","五股區"
"248007","095-VK","2018/10/04 13:27:48","新北市五股區中興路二段27-7號","121.460485","25.0791283333333","6501500","五股區"
"248017","225-UY","2018/10/04 13:27:42","新北市五股區御史路269號","121.421836666667","25.1061516666667","6501500","五股區"
"248011","247-BX","2018/10/04 13:27:26","新北市五股區御成路148號","121.440898333333","25.094435","6501500","五股區"
"248003","677-BX","2018/10/04 13:27:39","新北市五股區工商路130號","121.435921666667","25.086055","6501500","五股區"
"248001","678-BX","2018/10/04 13:27:45","新北市五股區西雲路118號","121.444801666667","25.0938716666667","6501500","五股區"
"248009","682-TV","2018/10/04 13:27:49","新北市五股區自強路89號","121.432505","25.0718266666667","6501500","五股區"
"234022","9380-KE","2018/10/04 13:27:47","新北市永和區竹林路91巷47弄2號","121.52157","25.0130833333333","6500400","永和區"
"234076","969-R7","2018/10/04 13:27:42","新北市永和區智光街49號","121.517243333333","24.9980766666667","6500400","永和區"
"234072","AAC-211","2018/10/04 13:27:30","新北市永和區永和路二段103號","121.514818333333","25.0118216666667","6500400","永和區"
"234066","AAC-212","2018/10/04 13:27:33","新北市永和區保平路50巷22弄2號","121.5107","25.0079116666667","6500400","永和區"
"234001","AAC-295","2018/10/04 13:27:38","新北市永和區保平路12號","121.512581666667","25.00762","6500400","永和區"
"244003","248-BX","2018/10/04 13:27:45","新北市林口區瑞平里7鄰52號","121.341505","25.1243433333333","6501700","林口區"
"243005","AAD-798","2018/10/04 13:24:38","新北市泰山區明志路三段206巷3號","121.42329","25.0379316666667","6501600","泰山區"
"243008","KEA-2801","2018/10/04 13:27:49","新北市泰山區犁頭窠3-1號","121.42242","25.0605566666667","6501600","泰山區"
"231028","001-UM","2018/10/04 13:27:40","新北市新店區安華路28-1號","121.519668333333","24.96094","6500600","新店區"
"231002","002-UM","2018/10/04 13:27:38","新北市新店區環河路29巷1號","121.536988333333","24.961375","6500600","新店區"
"231027","0293-UT","2018/10/04 13:27:44","新北市新店區北宜路一段3號","121.538001666667","24.9584283333333","6500600","新店區"
"231001","047-UY","2018/10/04 13:27:31","新北市新店區安康路一段35號","121.531746666667","24.9607383333333","6500600","新店區"
"231005","106-UY","2018/10/04 13:27:39","新北市新店區北新路一段128-3號","121.542213333333","24.9697966666667","6500600","新店區"
"231010","107-UY","2018/10/04 13:27:35","新北市新店區中央路137號","121.53028","24.9736466666667","6500600","新店區"
"231021","110-UY","2018/10/04 13:27:34","新北市新店區新烏路一段9-1號","121.547151666667","24.9516033333333","6500600","新店區"
"231011","187-VK","2018/10/04 13:27:37","新北市新店區光明街231號","121.540258333333","24.9644733333333","6500600","新店區"
"231031","188-VK","2018/10/04 13:27:44","新北市新店區安豐路59號","121.498558333333","24.9540433333333","6500600","新店區"
"231023","KEA-2219","2018/10/04 13:27:32","新北市新店區新店路13號","121.540348333333","24.952865","6500600","新店區"
"231026","256-BX","2018/10/04 13:27:41","新北市新店區安康路一段3-1號","121.535026666667","24.9608733333333","6500600","新店區"
"231003","268-BY","2018/10/04 13:27:39","新北市新店區安康路一段70號","121.52846","24.9617883333333","6500600","新店區"
"231018","278-BY","2018/10/04 13:27:48","新北市新店區中央路183-3號","121.536193333333","24.9687916666667","6500600","新店區"
"231017","AAD-862","2018/10/04 13:27:35","新北市新店區新烏路一段9-1號","121.547305","24.95141","6500600","新店區"
"231038","3712-VJ","2018/10/04 13:27:31","新北市新店區安華路28-1號","121.519271666667","24.9606683333333","6500600","新店區"
"231037","4716-K9","2018/10/04 13:27:42","新北市新店區安豐路49號","121.500008333333","24.95402","6500600","新店區"
"231025","4715-K9","2018/10/04 13:27:42","新北市新店區中央五街51號","121.527905","24.9753383333333","6500600","新店區"
"231036","512-UM","2018/10/04 13:27:30","新北市新店區建業路47-1號","121.478738333333","24.9551733333333","6500600","新店區"
"231013","513-UM","2018/10/04 13:27:31","新北市新店區安康路一段3-1號","121.53522","24.96094","6500600","新店區"
"231034","616-UM","2018/10/04 13:27:43","新北市新店區安華路30巷1號","121.519571666667","24.95966","6500600","新店區"
"231006","617-UM","2018/10/04 13:27:42","新北市新店區安華路28-1號","121.519538333333","24.9609666666667","6500600","新店區"
"231030","619-UM","2018/10/04 13:27:40","新北市新店區安華路28-1號","121.519655","24.96089","6500600","新店區"
"231035","719-UM","2018/10/04 13:27:47","新北市新店區安一路一段1-1號","121.519573333333","24.96114","6500600","新店區"
"231029","897-TW","2018/10/04 13:27:43","新北市新店區安一路一段1-1號","121.519675","24.9615533333333","6500600","新店區"
"231004","899-TW","2018/10/04 13:27:39","新北市新店區安一路一段1-1號","121.519598333333","24.9617","6500600","新店區"
"231024","AKT-0513","2018/10/04 13:27:50","新北市新店區中正路156號","121.541528333333","24.97179","6500600","新店區"
"235030","003-UY","2018/10/04 13:27:47","新北市中和區中山路二段109號","121.503163333333","25.0037883333333","6500300","中和區"
"235028","005-UY","2018/10/04 13:27:47","新北市中和區圓通路158巷1弄9號","121.497191666667","24.9959533333333","6500300","中和區"
"235027","006-UY","2018/10/04 13:27:45","新北市中和區中正路561號","121.487005","24.9942133333333","6500300","中和區"
"235020","096-UM","2018/10/04 13:27:38","新北市中和區新生街1號","121.483151666667","25.0047816666667","6500300","中和區"
"235003","097-UM","2018/10/04 13:27:30","新北市中和區景新街289號","121.50978","24.9932983333333","6500300","中和區"
"235029","098-UM","2018/10/04 13:27:39","新北市中和區莊敬路49巷10弄24號","121.502605","25.0055533333333","6500300","中和區"
"235004","150-BY","2018/10/04 13:27:39","新北市中和區安平路59號","121.509456666667","24.9951866666667","6500300","中和區"
"235022","151-BY","2018/10/04 13:27:41","新北市中和區圓通路369巷72號","121.490075","24.9822066666667","6500300","中和區"
"235019","183-VK","2018/10/04 13:27:41","新北市中和區莒光路207號","121.469978333333","24.995695","6500300","中和區"
"235002","185-VK","2018/10/04 13:27:45","新北市中和區自立路147號","121.52259","24.9929816666667","6500300","中和區"
"235013","186-VK","2018/10/04 13:27:30","新北市中和區景安路142號","121.504945","24.99404","6500300","中和區"
"235031","255-BX","2018/10/04 13:27:30","新北市中和區連城路340巷14弄22號","121.482836666667","24.9971733333333","6500300","中和區"
"235036","301-VK","2018/10/04 13:27:32","新北市中和區連城路263巷1號","121.491965","24.9964416666667","6500300","中和區"
"235006","KEA-2878","2018/10/04 13:27:36","新北市中和區自立路56巷7號","121.5232","24.9917566666667","6500300","中和區"
"235014","4979-A6","2018/10/04 13:27:40","新北市中和區景新街362巷3號","121.512038333333","24.99007","6500300","中和區"
"235033","4980-A6","2018/10/04 13:27:35","新北市中和區連城路127巷9-1號","121.496541666667","24.9986566666667","6500300","中和區"
"235034","558-UM","2018/10/04 13:27:43","新北市中和區南華路13號","121.502376666667","24.9955516666667","6500300","中和區"
"235009","565-BX","2018/10/04 13:27:43","新北市中和區南山路236巷22弄21號","121.505058333333","24.9892683333333","6500300","中和區"
"235018","640-BX","2018/10/04 13:27:29","新北市中和區民享街121巷2號","121.474428333333","24.99863","6500300","中和區"
"235011","732-UM","2018/10/04 13:27:37","新北市中和區南山路493號","121.507968333333","24.98788","6500300","中和區"
"235035","783-BX","2018/10/04 13:27:41","新北市中和區環中路126號","121.481858333333","25.0126716666667","6500300","中和區"
"235026","800-TS","2018/10/04 13:27:40","新北市中和區景平路989巷25號","121.495388333333","25.0051883333333","6500300","中和區"
"235021","801-TS","2018/10/04 13:27:28","新北市中和區民享街97巷11號","121.475308333333","24.99954","6500300","中和區"
"235005","802-TS","2018/10/04 13:27:48","新北市中和區中和路324巷6弄5號","121.50961","25.0003683333333","6500300","中和區"
"235012","896-TW","2018/10/04 13:27:31","新北市中和區員山路36巷16-2號","121.485065","24.9919583333333","6500300","中和區"
"235017","911-UM","2018/10/04 13:27:31","新北市中和區連城路469巷79弄14號","121.483743333333","24.9936366666667","6500300","中和區"
"235015","157-BY","2018/10/04 13:27:46","新北市中和區興南路二段142巷35弄2號","121.502433333333","24.9845683333333","6500300","中和區"
"235001","AAC-213","2018/10/04 13:27:30","新北市中和區景平路151巷59號","121.51484","24.9900333333333","6500300","中和區"
"235023","AAC-215","2018/10/04 13:27:38","新北市中和區員山路36巷16-3號","121.48493","24.9914","6500300","中和區"
"220013","072-UY","2018/10/04 13:27:35","新北市板橋區華興街91巷4號","121.456601666667","25.00529","6500100","板橋區"
"220016","120-SR","2018/10/04 13:27:36","新北市板橋區民生路二段120號","121.47034","25.0198483333333","6500100","板橋區"
"247009","056-VK","2018/10/04 13:27:43","新北市五股區中興路三段2巷10號","121.44913","25.0812683333333","6501400","蘆洲區"
"247021","001-UY","2018/10/04 13:27:34","新北市五股區中興路三段2巷10號","121.44917","25.0808666666667","6501400","蘆洲區"
"235007","251-BX","2018/10/04 13:27:34","新北市中和區景平路335-3號","121.5055","24.9933183333333","6500300","中和區"
"228005","097-TW","2018/10/04 13:27:40","新北市貢寮區美豐里文秀坑8號","121.902013333333","25.05063","6502600","貢寮區"
"228004","212-TW","2018/10/04 13:27:41","新北市貢寮區龍崗里石壁坑街17號","121.910183333333","24.9895283333333","6502600","貢寮區"
"253003","6232-TK","2018/10/04 13:27:29","新北市石門區內石門85號","121.568553333333","25.264685","6502200","石門區"
"253001","6251-TK","2018/10/04 13:27:29","新北市石門區八甲1號","121.521233333333","25.2840866666667","6502200","石門區"
"253002","637-UY","2018/10/04 13:27:32","新北市石門區九芎林5-3號","121.559565","25.2687633333333","6502200","石門區"
"253004","8270-PC","2018/10/04 13:27:34","新北市石門區竹子湖11號","121.617886666667","25.2585966666667","6502200","石門區"
"207002","749-BX","2018/10/04 13:27:28","新北市萬里區崁腳里崁腳路166號","121.645161666667","25.1558066666667","6502800","萬里區"
"207001","662-BX","2018/10/04 13:27:30","新北市萬里區龜吼里光宇大道2號","121.679475","25.1909","6502800","萬里區"
"252005","AAC-283","2018/10/04 13:27:40","新北市三芝區圓山里八連溪頭8-1號","121.528261666667","25.22067","6502100","三芝區"
"242001","233-RS","2018/10/04 13:27:30","新北市新莊區中港路287號","121.452786666667","25.0439683333333","6500500","新莊區"
"221010","269-BY","2018/10/04 13:27:39","新北市汐止區康寧街706-2號","121.63858","25.0732583333333","6501100","汐止區"
"221032","280-BY","2018/10/04 13:27:42","新北市汐止區龍安路34號","121.654845","25.064155","6501100","汐止區"
"220028","200-UY","2018/10/04 13:27:36","新北市板橋區華東街1-9號","121.448118333333","24.9949283333333","6500100","板橋區"
"220030","610-BX","2018/10/04 13:27:44","新北市板橋區華東街1-10號","121.448271666667","24.9949283333333","6500100","板橋區"
"220004","276-BY","2018/10/04 13:27:33","新北市板橋區華東街1-9號","121.448138333333","24.9949833333333","6500100","板橋區"
"220019","283-VK","2018/10/04 13:27:42","新北市板橋區華東街1-9號","121.448071666667","24.9950166666667","6500100","板橋區"
"220031","286-VK","2018/10/04 13:27:46","新北市板橋區華東街1-10號","121.44834","24.995115","6500100","板橋區"
"220032","296-UM","2018/10/04 13:27:31","新北市板橋區華東街1-9號","121.448156666667","24.9949483333333","6500100","板橋區"
"220023","303-R5","2018/10/04 13:27:34","新北市板橋區華東街1-9號","121.44821","24.9949666666667","6500100","板橋區"
"220012","486-VK","2018/10/04 13:27:33","新北市板橋區南雅南路二段4巷6號","121.454006666667","25.0036183333333","6500100","板橋區"
"220005","686-BX","2018/10/04 13:27:42","新北市板橋區華東街1-9號","121.448171666667","24.994925","6500100","板橋區"
"220025","687-BX","2018/10/04 13:27:43","新北市板橋區大觀路三段59巷17弄6-1號","121.43531","24.9956066666667","6500100","板橋區"
"220002","741-BX","2018/10/04 13:27:40","新北市板橋區華東街1-9號","121.448091666667","24.9949333333333","6500100","板橋區"
"220021","985-R7","2018/10/04 13:27:50","新北市板橋區華東街1-10號","121.448278333333","24.9949583333333","6500100","板橋區"
"235032","KEA-2873","2018/10/04 13:27:48","新北市中和區和城路一段271巷1號","121.48541","24.9919416666667","6500300","中和區"
"235025","KEA-2875","2018/10/04 13:27:27","新北市中和區民享街88巷11號","121.47399","25.0004233333333","6500300","中和區"
"235024","KEA-2876","2018/10/04 13:27:43","新北市中和區員山路425號","121.481028333333","25.003465","6500300","中和區"
