"lineid","car","time","location","longitude","latitude","cityid","cityname"
"234044","148-BY","2018/10/04 13:49:45","新北市永和區永利路248號","121.524371666667","25.003235","6500400","永和區"
"234005","207-UY","2018/10/04 13:49:39","新北市永和區永和路一段23號","121.51302","25.0057433333333","6500400","永和區"
"234078","298-R6","2018/10/04 13:49:35","新北市永和區永亨路98號","121.52299","25.0048633333333","6500400","永和區"
"234036","336-UY","2018/10/04 13:49:45","新北市永和區民樂街59巷5號","121.527923333333","24.9984783333333","6500400","永和區"
"234062","337-UY","2018/10/04 13:49:32","新北市永和區中正路368巷4號","121.517998333333","25.0008533333333","6500400","永和區"
"234084","338-UY","2018/10/04 13:49:45","新北市永和區林森路62號","121.523971666667","25.0043116666667","6500400","永和區"
"234068","552-UM","2018/10/04 13:49:38","新北市永和區竹林路88號","121.519438333333","25.0126083333333","6500400","永和區"
"234015","745-BX","2018/10/04 13:49:40","新北市永和區文化路69號","121.51398","25.0151166666667","6500400","永和區"
"234028","746-BX","2018/10/04 13:49:44","新北市永和區民生路67巷14號","121.52331","24.997165","6500400","永和區"
"234052","KEA-2590","2018/10/04 13:49:40","新北市永和區竹林路39巷28弄25號","121.519798333333","25.0144116666667","6500400","永和區"
"234012","KEA-2591","2018/10/04 13:49:49","新北市永和區仁愛路215號","121.509543333333","25.0123333333333","6500400","永和區"
"234060","AAD-866","2018/10/04 13:49:39","新北市永和區中正路7號","121.513876666667","24.99571","6500400","永和區"
"234040","862-TW","2018/10/04 13:49:41","新北市永和區中和路389巷51-1號","121.507918333333","25.0021","6500400","永和區"
"234048","863-TW","2018/10/04 13:49:41","新北市永和區保安路2號","121.510838333333","25.0174033333333","6500400","永和區"
"234025","9371-KE","2018/10/04 13:49:48","新北市永和區保生路55-1號","121.504516666667","25.0109166666667","6500400","永和區"
"234010","9373-KE","2018/10/04 13:49:47","新北市永和區保順路11號","121.504746666667","25.0096166666667","6500400","永和區"
"248015","026-BX","2018/10/04 13:49:28","新北市五股區凌雲路一段149巷42號","121.448585","25.1009183333333","6501500","五股區"
"248005","077-UY","2018/10/04 13:49:36","新北市五股區四維路96號","121.467516666667","25.0735016666667","6501500","五股區"
"248007","095-VK","2018/10/04 13:49:48","新北市五股區中興路一段151巷54號","121.465148333333","25.0722916666667","6501500","五股區"
"248017","225-UY","2018/10/04 13:49:42","新北市五股區民義路二段22巷21-1號","121.421796666667","25.0977766666667","6501500","五股區"
"248011","247-BX","2018/10/04 13:49:46","新北市五股區成泰路二段195巷1號","121.440321666667","25.0873616666667","6501500","五股區"
"248003","677-BX","2018/10/04 13:49:39","新北市五股區民義路二段23-1號","121.417055","25.0988816666667","6501500","五股區"
"248001","678-BX","2018/10/04 13:49:38","新北市五股區成泰路三段513號","121.451331666667","25.1004166666667","6501500","五股區"
"248009","682-TV","2018/10/04 13:49:30","新北市五股區水碓七路34號","121.429095","25.0716866666667","6501500","五股區"
"234022","9380-KE","2018/10/04 13:49:35","新北市永和區復興街2巷4號","121.51571","25.012605","6500400","永和區"
"234076","969-R7","2018/10/04 13:49:42","新北市永和區民族街37巷1弄2號","121.518936666667","24.999065","6500400","永和區"
"234072","AAC-211","2018/10/04 13:49:30","新北市永和區竹林路179巷46號","121.522526666667","25.0102383333333","6500400","永和區"
"234066","AAC-212","2018/10/04 13:49:33","新北市永和區永貞路353號","121.50905","25.0074783333333","6500400","永和區"
"234001","AAC-295","2018/10/04 13:49:38","新北市永和區永和路一段107號","121.513865","25.0078966666667","6500400","永和區"
"244003","248-BX","2018/10/04 13:49:25","新北市林口區汕頭18號","121.363393333333","25.134635","6501700","林口區"
"244001","658-BX","2018/10/04 13:49:38","新北市林口區文化北路一段472號","121.365406666667","25.0776666666667","6501700","林口區"
"243005","AAD-798","2018/10/04 13:24:38","新北市泰山區明志路三段206巷3號","121.42329","25.0379316666667","6501600","泰山區"
"243008","KEA-2801","2018/10/04 13:49:29","新北市泰山區明志路二段137號","121.427635","25.0507183333333","6501600","泰山區"
"243007","421-VK","2018/10/04 13:49:41","新北市泰山區美寧街55號","121.430346666667","25.064845","6501600","泰山區"
"243003","KEA-2215","2018/10/04 13:48:56","新北市泰山區公園路89號","121.425513333333","25.0551116666667","6501600","泰山區"
"243002","KEA-2216","2018/10/04 13:49:31","新北市泰山區辭修路48號","121.428431666667","25.05726","6501600","泰山區"
"243004","646-TV","2018/10/04 13:49:32","新北市泰山區泰林路二段73巷35號","121.434325","25.0577666666667","6501600","泰山區"
"243006","680-BX","2018/10/04 13:49:44","新北市泰山區黎明路25號","121.422248333333","25.0606616666667","6501600","泰山區"
"231028","001-UM","2018/10/04 13:49:40","新北市新店區安和路二段175號","121.518526666667","24.9746383333333","6500600","新店區"
"231002","002-UM","2018/10/04 13:49:39","新北市新店區溪園路393號","121.524305","24.9790416666667","6500600","新店區"
"231027","0293-UT","2018/10/04 13:49:43","新北市新店區北宜路一段3號","121.538463333333","24.9583766666667","6500600","新店區"
"231001","047-UY","2018/10/04 13:49:40","新北市新店區三民路96-1號","121.534036666667","24.9731283333333","6500600","新店區"
"231005","106-UY","2018/10/04 13:49:38","新北市新店區寶中路121-1號","121.54965","24.97945","6500600","新店區"
"231010","107-UY","2018/10/04 13:49:35","新北市新店區三民路60巷2號","121.535426666667","24.9724616666667","6500600","新店區"
"231021","110-UY","2018/10/04 13:49:34","新北市新店區永興路132-3號","121.544833333333","24.9316183333333","6500600","新店區"
"231011","187-VK","2018/10/04 13:49:37","新北市新店區德正街27巷29弄135號","121.545728333333","24.973335","6500600","新店區"
"231031","188-VK","2018/10/04 13:49:44","新北市新店區安康路一段75-1號","121.530151666667","24.9611016666667","6500600","新店區"
"231023","KEA-2219","2018/10/04 13:49:32","新北市新店區國校路59號","121.53831","24.9543816666667","6500600","新店區"
"231026","256-BX","2018/10/04 13:49:41","新北市新店區三民路96-1號","121.534031666667","24.9731616666667","6500600","新店區"
"231003","268-BY","2018/10/04 13:49:39","新北市新店區中興路一段203號","121.543661666667","24.9659133333333","6500600","新店區"
"231018","278-BY","2018/10/04 13:49:48","新北市新店區中正路402號","121.534605","24.97747","6500600","新店區"
"231017","AAD-862","2018/10/04 13:49:35","新北市新店區竹林路82號","121.554388333333","24.9505216666667","6500600","新店區"
"231038","3712-VJ","2018/10/04 13:49:31","新北市新店區安華路1-1號","121.519443333333","24.9604933333333","6500600","新店區"
"231037","4716-K9","2018/10/04 13:49:42","新北市新店區安康路三段359巷12弄2號","121.484535","24.9500766666667","6500600","新店區"
"231025","4715-K9","2018/10/04 13:49:45","新北市新店區中正路277號","121.537651666667","24.9743916666667","6500600","新店區"
"231036","512-UM","2018/10/04 13:49:30","新北市新店區安祥路113號","121.475091666667","24.9569583333333","6500600","新店區"
"231013","513-UM","2018/10/04 13:49:31","新北市新店區二十張路25巷18弄16號","121.539258333333","24.98154","6500600","新店區"
"231034","616-UM","2018/10/04 13:49:43","新北市新店區達觀路16號","121.502956666667","24.9403316666667","6500600","新店區"
"231006","617-UM","2018/10/04 13:49:42","新北市新店區北宜路一段202號","121.54342","24.952995","6500600","新店區"
"231030","619-UM","2018/10/04 13:49:40","新北市新店區安康路一段121號","121.528335","24.9617783333333","6500600","新店區"
"231035","719-UM","2018/10/04 13:49:27","新北市新店區安忠路205巷8號","121.509881666667","24.95538","6500600","新店區"
"231029","897-TW","2018/10/04 13:49:43","新北市新店區安康路二段149號","121.51105","24.9598483333333","6500600","新店區"
"231004","899-TW","2018/10/04 13:49:39","新北市新店區寶橋路97號","121.547158333333","24.9762183333333","6500600","新店區"
"231024","AKT-0513","2018/10/04 13:49:49","新北市新店區新生街22號","121.539763333333","24.96657","6500600","新店區"
"235030","003-UY","2018/10/04 13:49:27","新北市中和區水源路7巷4號","121.504046666667","25.0036266666667","6500300","中和區"
"235028","005-UY","2018/10/04 13:49:47","新北市中和區泰和街2號","121.500025","25.0013033333333","6500300","中和區"
"235027","006-UY","2018/10/04 13:49:45","新北市中和區連城路317-1號","121.489251666667","24.9962016666667","6500300","中和區"
"235020","096-UM","2018/10/04 13:49:38","新北市中和區立德街329號","121.481476666667","25.010445","6500300","中和區"
"235003","097-UM","2018/10/04 13:49:30","新北市中和區大勇街25巷1號","121.517135","24.9931283333333","6500300","中和區"
"235029","098-UM","2018/10/04 13:49:39","新北市中和區勝利路35巷11弄1號","121.499675","25.0067516666667","6500300","中和區"
"235004","150-BY","2018/10/04 13:49:39","新北市中和區保健路48巷3號","121.510016666667","24.99693","6500300","中和區"
"235022","151-BY","2018/10/04 13:49:41","新北市中和區連城路508號","121.476856666667","24.9920483333333","6500300","中和區"
"235019","183-VK","2018/10/04 13:49:41","新北市中和區德光路70號","121.469358333333","25.0038333333333","6500300","中和區"
"235002","185-VK","2018/10/04 13:49:45","新北市中和區大勇街43巷14號","121.517243333333","24.9947666666667","6500300","中和區"
"235013","186-VK","2018/10/04 13:49:30","新北市中和區景安路177巷12號","121.505878333333","24.9942166666667","6500300","中和區"
"235031","255-BX","2018/10/04 13:49:30","新北市中和區新生街242巷1弄5號","121.48341","24.997605","6500300","中和區"
"235008","293-VK","2018/10/04 13:49:44","新北市中和區中興街152號","121.499683333333","24.9919616666667","6500300","中和區"
"235036","301-VK","2018/10/04 13:49:32","新北市中和區中山路二段86號","121.503483333333","25.0042966666667","6500300","中和區"
"235006","KEA-2878","2018/10/04 13:49:36","新北市中和區秀朗路三段78巷1弄3號","121.52561","24.9939316666667","6500300","中和區"
"247011","KEA-2869","2018/10/04 13:49:42","新北市五股區成泰路三段544-1號","121.453983333333","25.1012983333333","6501400","蘆洲區"
"235014","4979-A6","2018/10/04 13:49:40","新北市中和區忠孝街60巷15號","121.511978333333","24.9837833333333","6500300","中和區"
"235033","4980-A6","2018/10/04 13:49:35","新北市中和區南山路81巷8弄12號","121.502575","24.9977366666667","6500300","中和區"
"235034","558-UM","2018/10/04 13:49:43","新北市中和區南山路6號","121.502001666667","24.9986733333333","6500300","中和區"
"235009","565-BX","2018/10/04 13:49:43","新北市中和區興南路一段1號","121.511478333333","24.9912316666667","6500300","中和區"
"235018","640-BX","2018/10/04 13:49:49","新北市中和區莒光路129巷1弄10號","121.473101666667","25.00232","6500300","中和區"
"235011","732-UM","2018/10/04 13:49:37","新北市中和區興南路二段34巷58號","121.504895","24.98499","6500300","中和區"
"235010","733-UM","2018/10/04 13:49:39","新北市中和區仁愛街36巷43號","121.51131","24.9867183333333","6500300","中和區"
"235035","783-BX","2018/10/04 13:49:41","新北市中和區中山路二段486號","121.487556666667","25.0051733333333","6500300","中和區"
"235026","800-TS","2018/10/04 13:49:40","新北市中和區中山路二段312巷18號","121.49526","25.0039183333333","6500300","中和區"
"235021","801-TS","2018/10/04 13:49:48","新北市中和區民安街38號","121.480033333333","25.000475","6500300","中和區"
"235005","802-TS","2018/10/04 13:49:48","新北市中和區永貞路227號","121.513455","25.0037283333333","6500300","中和區"
"235016","805-TS","2018/10/04 13:49:37","新北市中和區興南路三段80號","121.4918","24.9739983333333","6500300","中和區"
"235012","896-TW","2018/10/04 13:49:31","新北市中和區南山路188號","121.505853333333","24.9905966666667","6500300","中和區"
"235017","911-UM","2018/10/04 13:49:31","新北市中和區華福街12號","121.46568","24.9967733333333","6500300","中和區"
"235015","157-BY","2018/10/04 13:49:28","新北市中和區忠孝街29號","121.51051","24.98302","6500300","中和區"
"235001","AAC-213","2018/10/04 13:49:30","新北市中和區秀朗路三段130號","121.52461","24.9920533333333","6500300","中和區"
"235023","AAC-215","2018/10/04 13:49:46","新北市中和區圓通路391-2號","121.489978333333","24.9891483333333","6500300","中和區"
"220013","072-UY","2018/10/04 13:49:35","新北市板橋區漢生東路217號","121.471008333333","25.009515","6500100","板橋區"
"220034","073-UY","2018/10/04 13:49:35","新北市板橋區大智街10號","121.456033333333","25.014835","6500100","板橋區"
"220105","075-UY","2018/10/04 13:49:32","新北市板橋區民生路二段161巷7號","121.470135","25.0196516666667","6500100","板橋區"
"220069","AAD-861","2018/10/04 13:49:39","新北市板橋區大華街11號","121.458978333333","25.006175","6500100","板橋區"
"220016","120-SR","2018/10/04 13:49:36","新北市板橋區縣民大道三段264-1號","121.478206666667","25.0232366666667","6500100","板橋區"
"247005","337-TH","2018/10/04 13:49:45","新北市蘆洲區和平路77號","121.469313333333","25.0791183333333","6501400","蘆洲區"
"247007","336-TH","2018/10/04 13:49:31","新北市蘆洲區重陽街86號","121.481896666667","25.0844","6501400","蘆洲區"
"247019","057-VK","2018/10/04 13:49:35","新北市蘆洲區民族路422巷48弄34號","121.474796666667","25.0928083333333","6501400","蘆洲區"
"247009","056-VK","2018/10/04 13:49:43","新北市蘆洲區復興路323巷140號","121.481016666667","25.0955966666667","6501400","蘆洲區"
"247003","002-UY","2018/10/04 13:49:49","新北市蘆洲區長安街108巷37號","121.462221666667","25.0826583333333","6501400","蘆洲區"
"247021","001-UY","2018/10/04 13:49:34","新北市蘆洲區中正路491號","121.461948333333","25.0963116666667","6501400","蘆洲區"
"235007","251-BX","2018/10/04 13:49:34","新北市中和區成功路40號","121.52607","24.992985","6500300","中和區"
"228005","097-TW","2018/10/04 13:49:40","新北市雙溪區三港里雙澳路100號","121.88925","25.0558916666667","6502600","貢寮區"
"228004","212-TW","2018/10/04 13:49:41","新北市貢寮區龍崗里嵩陽街41號","121.905196666667","25.0139333333333","6502600","貢寮區"
"253003","6232-TK","2018/10/04 13:49:49","新北市石門區尖子鹿7-1號","121.57478","25.2801533333333","6502200","石門區"
"253001","6251-TK","2018/10/04 13:49:29","新北市石門區八甲56號","121.525461666667","25.2725683333333","6502200","石門區"
"253002","637-UY","2018/10/04 13:49:31","新北市石門區尖山湖1-1號","121.567008333333","25.245665","6502200","石門區"
"253004","8270-PC","2018/10/04 13:49:34","新北市石門區阿里荖58-1號","121.603171666667","25.2744716666667","6502200","石門區"
"207002","749-BX","2018/10/04 13:49:28","新北市萬里區崁腳里崁腳路166號","121.645133333333","25.15583","6502800","萬里區"
"207001","662-BX","2018/10/04 13:49:42","新北市萬里區磺潭里公館崙42號","121.630086666667","25.2077033333333","6502800","萬里區"
"252005","AAC-283","2018/10/04 13:49:40","新北市三芝區圓山里二坪頂67號","121.540226666667","25.232955","6502100","三芝區"
"236068","105-UM","2018/10/04 13:49:45","新北市土城區城林路6巷80號","121.438601666667","24.9796666666667","6501300","土城區"
"236040","107-UM","2018/10/04 13:49:28","新北市土城區城林路6巷80號","121.438511666667","24.9797633333333","6501300","土城區"
"236032","271-VK","2018/10/04 13:49:43","新北市土城區城林路6巷80號","121.43857","24.97977","6501300","土城區"
"236017","401-BY","2018/10/04 13:49:31","新北市土城區城林路6巷80號","121.438438333333","24.9797866666667","6501300","土城區"
"236057","912-UM","2018/10/04 13:49:45","新北市土城區中華路二段196號","121.437471666667","24.9702833333333","6501300","土城區"
"236045","913-UM","2018/10/04 13:49:39","新北市土城區城林路6巷80號","121.438475","24.979745","6501300","土城區"
"236060","915-UM","2018/10/04 13:49:30","新北市土城區城林路6巷80號","121.438476666667","24.9797116666667","6501300","土城區"
"236054","AAC-216","2018/10/04 13:49:38","新北市土城區城林路6巷80號","121.438671666667","24.9797633333333","6501300","土城區"
"242001","233-RS","2018/10/04 13:49:30","新北市新莊區自強街37巷14弄11號","121.454086666667","25.046915","6500500","新莊區"
"221010","269-BY","2018/10/04 13:49:19","新北市汐止區八連路二段619號","121.620576666667","25.1122233333333","6501100","汐止區"
"220027","145-BY","2018/10/04 13:49:37","新北市板橋區大智街71巷3弄1號","121.453483333333","25.0152866666667","6500100","板橋區"
"220028","200-UY","2018/10/04 13:49:35","新北市板橋區大觀路二段265巷60弄19號","121.442215","24.997815","6500100","板橋區"
"220030","610-BX","2018/10/04 13:49:44","新北市板橋區篤行路三段玉平巷76弄8號","121.427668333333","24.98584","6500100","板橋區"
"220004","276-BY","2018/10/04 13:49:33","新北市板橋區四川路二段23-2號","121.454601666667","24.9955433333333","6500100","板橋區"
"220020","277-BY","2018/10/04 13:49:43","新北市板橋區金門街25巷16號","121.434068333333","24.994315","6500100","板橋區"
"220043","283-UM","2018/10/04 13:49:37","新北市板橋區民生路二段161巷1號","121.470043333333","25.0198066666667","6500100","板橋區"
"220019","283-VK","2018/10/04 13:49:42","新北市板橋區重慶路245巷62號","121.465406666667","25.0009316666667","6500100","板橋區"
"220031","286-VK","2018/10/04 13:49:46","新北市板橋區僑中二街98號","121.446205","25.0084733333333","6500100","板橋區"
"220029","287-VK","2018/10/04 13:49:31","新北市板橋區南雅西路二段90號","121.45257","25.0111883333333","6500100","板橋區"
"220009","293-UM","2018/10/04 13:49:43","新北市板橋區民生路二段89-4號","121.47128","25.0184116666667","6500100","板橋區"
"220032","296-UM","2018/10/04 13:49:47","新北市板橋區大觀路二段150巷32號","121.441633333333","24.9999316666667","6500100","板橋區"
"220046","299-UM","2018/10/04 13:49:35","新北市板橋區民生路二段120號","121.470405","25.0196766666667","6500100","板橋區"
"220023","303-R5","2018/10/04 13:49:41","新北市板橋區南雅東路79-1號","121.453306666667","25.0079233333333","6500100","板橋區"
"220010","305-R5","2018/10/04 13:49:41","新北市板橋區中山路二段26號","121.47262","25.015115","6500100","板橋區"
"220012","486-VK","2018/10/04 13:49:33","新北市板橋區民生路二段36-1號","121.472126666667","25.0167233333333","6500100","板橋區"
"220038","487-VK","2018/10/04 13:49:41","新北市板橋區民生路二段161巷1號","121.470126666667","25.0201216666667","6500100","板橋區"
"220104","560-BX","2018/10/04 13:49:34","新北市板橋區南雅西路二段319巷24號","121.451845","25.016425","6500100","板橋區"
"220052","561-BX","2018/10/04 13:49:41","新北市板橋區民生路二段161巷5號","121.47016","25.0196983333333","6500100","板橋區"
"220011","609-BX","2018/10/04 13:49:30","新北市板橋區民生路二段56-2號","121.472023333333","25.017025","6500100","板橋區"
"220005","686-BX","2018/10/04 13:49:44","新北市板橋區館前東路10-4號","121.459871666667","25.0070966666667","6500100","板橋區"
"220025","687-BX","2018/10/04 13:49:43","新北市板橋區大觀路三段133巷8號","121.433083333333","24.9939816666667","6500100","板橋區"
"220042","689-BX","2018/10/04 13:49:30","新北市板橋區莊敬路220巷29弄7號","121.472845","25.0201983333333","6500100","板橋區"
"220002","741-BX","2018/10/04 13:49:40","新北市板橋區館前東路26-4號","121.46044","25.0070466666667","6500100","板橋區"
"220051","KEA-2699","2018/10/04 13:49:49","新北市板橋區民生路二段120號","121.470418333333","25.0195583333333","6500100","板橋區"
"220003","827-TW","2018/10/04 13:49:42","新北市板橋區中山路一段156號","121.464806666667","25.0115016666667","6500100","板橋區"
"220014","830-TW","2018/10/04 13:49:41","新北市板橋區民生路一段87號","121.47457","25.0141133333333","6500100","板橋區"
"220022","895-R6","2018/10/04 13:49:45","新北市板橋區南門街39號","121.457386666667","25.0088133333333","6500100","板橋區"
"220021","985-R7","2018/10/04 13:49:29","新北市板橋區府中路65號","121.458225","25.0094066666667","6500100","板橋區"
"220018","AAC-253","2018/10/04 13:49:36","新北市板橋區四川路一段107號","121.459733333333","25.00518","6500100","板橋區"
"235032","KEA-2873","2018/10/04 13:49:48","新北市中和區中正路271-5號","121.495835","24.9932666666667","6500300","中和區"
"235025","KEA-2875","2018/10/04 13:49:27","新北市中和區民治街21巷1號","121.475316666667","25.0024783333333","6500300","中和區"
"235024","KEA-2876","2018/10/04 13:49:44","新北市中和區中山路三段218號","121.471276666667","25.00651","6500300","中和區"
