"lineid","car","time","location","longitude","latitude","cityid","cityname"
"234078","298-R6","2018/10/04 14:39:35","新北市永和區永貞路82號","121.520121666667","25.0050783333333","6500400","永和區"
"234062","337-UY","2018/10/04 14:39:32","新北市永和區永亨路2號","121.51916","25.0052516666667","6500400","永和區"
"234068","552-UM","2018/10/04 14:39:38","新北市新店區安和路三段4巷3號","121.518706666667","24.9809483333333","6500400","永和區"
"234028","746-BX","2018/10/04 14:39:44","新北市中和區景平路112號","121.519755","24.9918066666667","6500400","永和區"
"234052","KEA-2590","2018/10/04 14:39:40","新北市永和區環河東路一段82號","121.519665","25.0164833333333","6500400","永和區"
"234060","AAD-866","2018/10/04 14:39:39","新北市永和區秀朗路一段175號","121.517006666667","25.003625","6500400","永和區"
"234040","862-TW","2018/10/04 14:39:29","新北市永和區永元路124號","121.522763333333","25.0029033333333","6500400","永和區"
"234048","863-TW","2018/10/04 14:39:17","新北市永和區保安路128號","121.508955","25.0154516666667","6500400","永和區"
"234025","9371-KE","2018/10/04 14:39:48","新北市永和區雙和街7巷7-1號","121.509553333333","25.00144","6500400","永和區"
"248015","026-BX","2018/10/04 14:39:47","新北市五股區成泰路三段643號","121.452681666667","25.1048983333333","6501500","五股區"
"248007","095-VK","2018/10/04 14:39:28","新北市五股區四維路155巷6弄4號","121.467526666667","25.0746116666667","6501500","五股區"
"248017","225-UY","2018/10/04 14:32:22","新北市五股區外寮路13-1號","121.424806666667","25.0812416666667","6501500","五股區"
"248011","247-BX","2018/10/04 14:39:46","新北市五股區民義路一段112-10號","121.435366666667","25.0852483333333","6501500","五股區"
"248003","677-BX","2018/10/04 14:39:39","新北市五股區中興路四段56號","121.437868333333","25.0831783333333","6501500","五股區"
"248001","678-BX","2018/10/04 14:39:38","新北市五股區成泰路三段369-3號","121.449001666667","25.095975","6501500","五股區"
"248009","682-TV","2018/10/04 14:39:49","新北市五股區登林路76-5號","121.430666666667","25.06943","6501500","五股區"
"234072","AAC-211","2018/10/04 14:39:45","新北市永和區環河東路二段20號","121.522296666667","25.0131583333333","6500400","永和區"
"234001","AAC-295","2018/10/04 14:39:38","新北市永和區中正路624巷2號","121.51712","25.007855","6500400","永和區"
"244003","248-BX","2018/10/04 14:39:42","新北市林口區竹林路266號","121.389621666667","25.080855","6501700","林口區"
"244001","658-BX","2018/10/04 14:39:38","新北市林口區文化二路一段166號","121.368761666667","25.07167","6501700","林口區"
"243005","AAD-798","2018/10/04 14:39:34","新北市泰山區應化街13號","121.423845","25.043725","6501600","泰山區"
"243001","297-R6","2018/10/04 14:39:45","新北市泰山區泰林路二段142巷13弄7號","121.434716666667","25.0606133333333","6501600","泰山區"
"243008","KEA-2801","2018/10/04 14:39:49","新北市泰山區貴鳳街2號","121.421151666667","25.0311666666667","6501600","泰山區"
"243007","421-VK","2018/10/04 14:39:41","新北市泰山區明志路二段214巷16弄2號","121.426878333333","25.0490766666667","6501600","泰山區"
"243003","KEA-2215","2018/10/04 14:39:36","新北市泰山區明志路三段204巷10弄20號","121.422951666667","25.0387466666667","6501600","泰山區"
"243002","KEA-2216","2018/10/04 14:39:31","新北市泰山區明志路二段136巷24號","121.426296666667","25.0519916666667","6501600","泰山區"
"243004","646-TV","2018/10/04 14:39:32","新北市泰山區楓江路23-2號","121.434211666667","25.06255","6501600","泰山區"
"243006","680-BX","2018/10/04 14:39:44","新北市泰山區泰林路二段137號","121.434108333333","25.059945","6501600","泰山區"
"231028","001-UM","2018/10/04 14:39:40","新北市新店區安成街24號","121.510255","24.9608883333333","6500600","新店區"
"231002","002-UM","2018/10/04 14:39:39","新北市新店區中正路444號","121.534065","24.9784983333333","6500600","新店區"
"231027","0293-UT","2018/10/04 14:39:43","新北市新店區中正路100號","121.543398333333","24.9707033333333","6500600","新店區"
"231001","047-UY","2018/10/04 14:39:31","新北市新店區中正路7號","121.545776666667","24.9692616666667","6500600","新店區"
"231005","106-UY","2018/10/04 14:39:38","新北市新店區順安街69號","121.540838333333","24.986595","6500600","新店區"
"231021","110-UY","2018/10/04 14:39:34","新北市新店區桂山路35號","121.558438333333","24.9029933333333","6500600","新店區"
"231011","187-VK","2018/10/04 14:39:37","新北市新店區寶橋路103號","121.548158333333","24.9767433333333","6500600","新店區"
"231031","188-VK","2018/10/04 14:39:44","新北市新店區安業街33號","121.517438333333","24.9771766666667","6500600","新店區"
"231023","KEA-2219","2018/10/04 14:39:32","新北市新店區檳榔路40號","121.54154","24.9637566666667","6500600","新店區"
"231003","268-BY","2018/10/04 14:39:39","新北市新店區中興路一段280號","121.545458333333","24.96848","6500600","新店區"
"231018","278-BY","2018/10/04 14:39:28","新北市新店區中央二街29號","121.528145","24.973785","6500600","新店區"
"231017","AAD-862","2018/10/04 14:39:35","新北市新店區北宜路三段221號","121.592383333333","24.9532033333333","6500600","新店區"
"231038","3712-VJ","2018/10/04 14:39:51","新北市新店區溪洲路174號","121.52925","24.9653983333333","6500600","新店區"
"231037","4716-K9","2018/10/04 14:39:42","新北市新店區柴埕路2-1號","121.514976666667","24.9659416666667","6500600","新店區"
"231036","512-UM","2018/10/04 14:39:30","新北市新店區安祥路106巷254號","121.473181666667","24.95922","6500600","新店區"
"231013","513-UM","2018/10/04 14:39:31","新北市新店區明德路31號","121.541676666667","24.977355","6500600","新店區"
"231034","616-UM","2018/10/04 14:39:43","新北市新店區黎明路45號","121.502041666667","24.94957","6500600","新店區"
"231006","617-UM","2018/10/04 14:39:42","新北市新店區北宜路二段103號","121.550208333333","24.9523816666667","6500600","新店區"
"231030","619-UM","2018/10/04 14:39:40","新北市新店區安民街152號","121.516673333333","24.96988","6500600","新店區"
"231035","719-UM","2018/10/04 14:30:27","新北市新店區安民街14號","121.515448333333","24.9645466666667","6500600","新店區"
"231029","897-TW","2018/10/04 14:39:43","新北市新店區安康路三段261號","121.486673333333","24.9517866666667","6500600","新店區"
"231004","899-TW","2018/10/04 14:39:39","新北市新店區中正路287號","121.5374","24.9745216666667","6500600","新店區"
"231024","AKT-0513","2018/10/04 14:39:30","新北市新店區新生街5巷2號","121.540188333333","24.965985","6500600","新店區"
"235030","003-UY","2018/10/04 14:39:47","新北市中和區南華路89號","121.505631666667","24.9974633333333","6500300","中和區"
"235028","005-UY","2018/10/04 14:39:47","新北市中和區圓通路10號","121.50168","24.9980783333333","6500300","中和區"
"235027","006-UY","2018/10/04 14:39:45","新北市中和區連城路174號","121.49331","24.9971383333333","6500300","中和區"
"235020","096-UM","2018/10/04 14:39:38","新北市中和區員山路581巷31弄22號","121.476578333333","25.0103833333333","6500300","中和區"
"235003","097-UM","2018/10/04 14:39:50","新北市中和區安平路161號","121.512355","24.9984183333333","6500300","中和區"
"235029","098-UM","2018/10/04 14:39:39","新北市中和區莊敬路31巷17號","121.500071666667","25.0053466666667","6500300","中和區"
"235004","150-BY","2018/10/04 14:39:39","新北市中和區宜安路11巷24號","121.512728333333","24.9951","6500300","中和區"
"235022","151-BY","2018/10/04 14:39:41","新北市中和區員山路124巷15號","121.482061666667","24.9960383333333","6500300","中和區"
"235019","183-VK","2018/10/04 14:39:40","新北市中和區民生街20號","121.470151666667","25.005395","6500300","中和區"
"235002","185-VK","2018/10/04 14:39:45","新北市中和區自強路27巷16號","121.52131","24.9931516666667","6500300","中和區"
"235013","186-VK","2018/10/04 14:39:36","新北市中和區安平路10-1號","121.509163333333","24.9939616666667","6500300","中和區"
"235031","255-BX","2018/10/04 14:39:30","新北市中和區新生街240號","121.483776666667","24.9979266666667","6500300","中和區"
"235008","293-VK","2018/10/04 14:39:39","新北市中和區捷運路59號","121.509353333333","24.9894166666667","6500300","中和區"
"235036","301-VK","2018/10/04 14:39:32","新北市中和區中山路二段3巷22弄7號","121.506268333333","25.0051216666667","6500300","中和區"
"235006","KEA-2878","2018/10/04 14:39:36","新北市中和區保健路2巷16號","121.507385","24.9979116666667","6500300","中和區"
"247011","KEA-2869","2018/10/04 14:39:42","新北市蘆洲區集賢路224巷46弄60-1號","121.480811666667","25.0880416666667","6501400","蘆洲區"
"235014","4979-A6","2018/10/04 14:39:40","新北市中和區中正路637巷52弄1號","121.48535","24.9934733333333","6500300","中和區"
"235034","558-UM","2018/10/04 14:39:43","新北市中和區景平路634-4號","121.499213333333","24.9991333333333","6500300","中和區"
"235009","565-BX","2018/10/04 14:39:43","新北市中和區景新街448號","121.513396666667","24.9878433333333","6500300","中和區"
"235018","640-BX","2018/10/04 14:39:49","新北市中和區德光路88號","121.468828333333","25.00366","6500300","中和區"
"235011","732-UM","2018/10/04 14:39:37","新北市中和區景平路329巷2弄10號","121.505468333333","24.9929883333333","6500300","中和區"
"235010","733-UM","2018/10/04 14:39:39","新北市中和區景新街504號","121.513638333333","24.9869333333333","6500300","中和區"
"235035","783-BX","2018/10/04 14:39:41","新北市中和區連城路469巷21弄22號","121.48419","24.9951016666667","6500300","中和區"
"235026","800-TS","2018/10/04 14:39:40","新北市中和區中山路二段526巷29號","121.48574","25.0058183333333","6500300","中和區"
"235021","801-TS","2018/10/04 14:39:28","新北市中和區員山路259號","121.481395","24.99896","6500300","中和區"
"235005","802-TS","2018/10/04 14:39:48","新北市中和區中和路252巷1號","121.507566666667","24.9992683333333","6500300","中和區"
"235016","805-TS","2018/10/04 14:39:37","新北市中和區華新街143巷63弄2號","121.506451666667","24.97915","6500300","中和區"
"235012","896-TW","2018/10/04 14:39:31","新北市中和區四維街20號","121.513013333333","24.9871583333333","6500300","中和區"
"235017","911-UM","2018/10/04 14:39:50","新北市中和區國光街215巷47號","121.467236666667","25.0004183333333","6500300","中和區"
"235015","157-BY","2018/10/04 14:39:46","新北市中和區中興街180巷52弄1號","121.498606666667","24.9883166666667","6500300","中和區"
"235001","AAC-213","2018/10/04 14:39:50","新北市中和區秀朗路三段22巷15號","121.52553","24.9959866666667","6500300","中和區"
"235023","AAC-215","2018/10/04 14:39:40","新北市中和區圓通路305巷1-1號","121.49346","24.9906466666667","6500300","中和區"
"220013","072-UY","2018/10/04 14:39:15","新北市板橋區國泰街106號","121.466608333333","25.006425","6500100","板橋區"
"220034","073-UY","2018/10/04 14:39:35","新北市板橋區中正路170號","121.456406666667","25.017245","6500100","板橋區"
"220105","075-UY","2018/10/04 14:39:32","新北市板橋區文化路二段548巷8弄1號","121.47661","25.0337683333333","6500100","板橋區"
"220069","AAD-861","2018/10/04 14:39:39","新北市板橋區縣民大道一段64巷27號","121.456076666667","25.0032833333333","6500100","板橋區"
"220016","120-SR","2018/10/04 14:39:44","新北市板橋區中山路二段422-11號","121.483583333333","25.0214033333333","6500100","板橋區"
"247001","893-R6","2018/10/04 14:39:35","新北市蘆洲區永樂街38巷4號","121.458146666667","25.088575","6501400","蘆洲區"
"247015","546-UM","2018/10/04 14:39:42","新北市蘆洲區正和街50號","121.469193333333","25.0815833333333","6501400","蘆洲區"
"247023","500-BY","2018/10/04 14:39:40","新北市蘆洲區正和街63巷11號","121.469251666667","25.0806433333333","6501400","蘆洲區"
"247013","339-TH","2018/10/04 14:39:44","新北市蘆洲區中山二路138號","121.471363333333","25.0815266666667","6501400","蘆洲區"
"247005","337-TH","2018/10/04 14:39:45","新北市蘆洲區中華街73號","121.462063333333","25.0804933333333","6501400","蘆洲區"
"247007","336-TH","2018/10/04 14:39:30","新北市蘆洲區信義路33號","121.474311666667","25.0794116666667","6501400","蘆洲區"
"247019","057-VK","2018/10/04 14:39:35","新北市蘆洲區民權路131巷8號","121.471565","25.08998","6501400","蘆洲區"
"247009","056-VK","2018/10/04 14:39:43","新北市蘆洲區信義路222巷34弄2號","121.48077","25.0854366666667","6501400","蘆洲區"
"247003","002-UY","2018/10/04 14:39:49","新北市蘆洲區永安南路二段328巷2號","121.456938333333","25.08304","6501400","蘆洲區"
"247021","001-UY","2018/10/04 14:39:34","新北市蘆洲區仁愛街264號","121.465173333333","25.092775","6501400","蘆洲區"
"235007","251-BX","2018/10/04 14:39:34","新北市中和區安樂路49號","121.511803333333","24.9935133333333","6500300","中和區"
"228005","097-TW","2018/10/04 14:39:40","新北市貢寮區美豐里雞母嶺街6-6號","121.902091666667","25.064235","6502600","貢寮區"
"228004","212-TW","2018/10/04 14:39:41","新北市貢寮區福隆里龜壽谷街30-5號","121.946918333333","25.014055","6502600","貢寮區"
"253003","6232-TK","2018/10/04 14:39:49","新北市石門區尖子鹿42號","121.58012","25.2664866666667","6502200","石門區"
"253001","6251-TK","2018/10/04 14:38:38","新北市石門區崁子腳36號","121.537605","25.268935","6502200","石門區"
"253002","637-UY","2018/10/04 14:37:51","新北市三芝區橫山里橫山39-3號","121.545791666667","25.2538733333333","6502200","石門區"
"253004","8270-PC","2018/10/04 14:39:38","新北市石門區內阿里磅55號","121.579206666667","25.249155","6502200","石門區"
"207002","749-BX","2018/10/04 14:39:28","新北市萬里區崁腳里崁腳路73號","121.6476","25.15961","6502800","萬里區"
"207001","662-BX","2018/10/04 14:39:30","新北市萬里區磺潭里員潭路55-4號","121.643856666667","25.19282","6502800","萬里區"
"252005","AAC-283","2018/10/04 14:39:40","新北市三芝區埔坪里埔頭坑147號","121.51033","25.2499066666667","6502100","三芝區"
"236068","105-UM","2018/10/04 14:39:45","新北市土城區永豐路306號","121.472045","24.9775583333333","6501300","土城區"
"236040","107-UM","2018/10/04 14:39:48","新北市土城區裕民路92巷20號","121.449695","24.9862866666667","6501300","土城區"
"236074","166-UM","2018/10/04 14:39:38","新北市土城區中央路四段76-9號","121.418513333333","24.9601466666667","6501300","土城區"
"236024","269-VK","2018/10/04 14:39:33","新北市土城區忠義路47-1號","121.440845","24.9695033333333","6501300","土城區"
"236012","270-VK","2018/10/04 14:39:46","新北市土城區清水路240號","121.461146666667","24.98244","6501300","土城區"
"236032","271-VK","2018/10/04 14:39:43","新北市土城區明德路一段291巷5號","121.460386666667","24.976905","6501300","土城區"
"236017","401-BY","2018/10/04 14:39:31","新北市土城區延吉街276號","121.46568","24.9844266666667","6501300","土城區"
"236029","752-BX","2018/10/04 14:39:21","新北市土城區中華路二段171號","121.438526666667","24.9751466666667","6501300","土城區"
"236057","912-UM","2018/10/04 14:39:44","新北市土城區中央路三段285號","121.425915","24.96308","6501300","土城區"
"236045","913-UM","2018/10/04 14:39:19","新北市土城區明德路一段95號","121.465581666667","24.9830366666667","6501300","土城區"
"236060","915-UM","2018/10/04 14:39:50","新北市土城區延壽路23號","121.471203333333","24.9908983333333","6501300","土城區"
"236054","AAC-216","2018/10/04 14:39:38","新北市土城區中華路一段45號","121.445705","24.98846","6501300","土城區"
"242001","233-RS","2018/10/04 14:39:30","新北市五股區中興路三段198號","121.441528333333","25.081995","6500500","新莊區"
"221010","269-BY","2018/10/04 14:39:39","新北市汐止區八連路二段618號","121.623106666667","25.1098116666667","6501100","汐止區"
"220027","145-BY","2018/10/04 14:39:37","新北市板橋區復興街30號","121.458135","25.0173166666667","6500100","板橋區"
"220028","200-UY","2018/10/04 14:39:41","新北市板橋區大觀路二段37巷19號","121.447821666667","25.0027133333333","6500100","板橋區"
"220030","610-BX","2018/10/04 14:39:44","新北市板橋區大觀路三段162號","121.431375","24.9931416666667","6500100","板橋區"
"220050","245-BX","2018/10/04 14:39:39","新北市板橋區萬板路48號","121.47199","25.0228733333333","6500100","板橋區"
"220040","267-BY","2018/10/04 14:39:48","新北市板橋區懷德街139巷20弄66號","121.480318333333","25.0303766666667","6500100","板橋區"
"220004","276-BY","2018/10/04 14:39:46","新北市板橋區四川路一段338號","121.456788333333","24.9967033333333","6500100","板橋區"
"220020","277-BY","2018/10/04 14:39:45","新北市板橋區金門街215巷2弄52號","121.433055","24.9885466666667","6500100","板橋區"
"220043","283-UM","2018/10/04 14:39:37","新北市板橋區宏國路93號","121.46975","25.0323166666667","6500100","板橋區"
"220019","283-VK","2018/10/04 14:39:42","新北市板橋區廣權路85號","121.464235","24.992315","6500100","板橋區"
"220001","285-VK","2018/10/04 14:39:33","新北市板橋區中山路二段148巷29號","121.47726","25.01624","6500100","板橋區"
"220031","286-VK","2018/10/04 14:39:46","新北市板橋區龍興街63巷39號","121.441835","25.00174","6500100","板橋區"
"220029","287-VK","2018/10/04 14:39:51","新北市板橋區大觀路一段29巷179弄20號","121.44899","25.0047216666667","6500100","板橋區"
"220039","288-VK","2018/10/04 14:39:39","新北市板橋區龍泉街54巷8弄12號","121.457405","25.02687","6500100","板橋區"
"220009","293-UM","2018/10/04 14:39:31","新北市板橋區中山路一段265巷16號","121.468655","25.0146733333333","6500100","板橋區"
"220032","296-UM","2018/10/04 14:39:38","新北市板橋區滿平二街2巷1弄6號","121.425111666667","24.9863583333333","6500100","板橋區"
"220046","299-UM","2018/10/04 14:39:35","新北市板橋區漢生西路89巷2弄16號","121.46174","25.01969","6500100","板橋區"
"220023","303-R5","2018/10/04 14:39:43","新北市板橋區大仁街110巷24號","121.452575","25.01672","6500100","板橋區"
"220010","305-R5","2018/10/04 14:39:50","新北市板橋區三民路二段29巷31弄15號","121.481895","25.0178033333333","6500100","板橋區"
"220041","307-R5","2018/10/04 14:39:46","新北市板橋區文化路一段379號","121.466991666667","25.0216566666667","6500100","板橋區"
"220047","317-R6","2018/10/04 14:39:46","新北市板橋區裕民街111巷1號","121.459783333333","25.0275283333333","6500100","板橋區"
"220012","486-VK","2018/10/04 14:39:35","新北市板橋區民族路47號","121.463151666667","25.0095583333333","6500100","板橋區"
"220038","487-VK","2018/10/04 14:39:45","新北市板橋區英士路49-1號","121.461083333333","25.0245883333333","6500100","板橋區"
"220037","491-VK","2018/10/04 14:39:42","新北市板橋區雙十路二段83-3號","121.475831666667","25.0274483333333","6500100","板橋區"
"220104","560-BX","2018/10/04 14:39:34","新北市板橋區新生街98巷12號","121.458778333333","25.02171","6500100","板橋區"
"220052","561-BX","2018/10/04 14:39:41","新北市板橋區文化路一段341號","121.466686666667","25.0208533333333","6500100","板橋區"
"220011","609-BX","2018/10/04 14:39:46","新北市板橋區三民路二段202-8號","121.479028333333","25.014225","6500100","板橋區"
"220005","686-BX","2018/10/04 14:39:41","新北市板橋區廣和街58-1號","121.461958333333","24.9939633333333","6500100","板橋區"
"220025","687-BX","2018/10/04 14:39:43","新北市板橋區僑中二街90巷1號","121.446435","25.0090733333333","6500100","板橋區"
"220042","689-BX","2018/10/04 14:39:30","新北市板橋區新海路362號","121.45957","25.025065","6500100","板橋區"
"220002","741-BX","2018/10/04 14:39:40","新北市板橋區忠孝路忠義巷15弄104號","121.46535","25.0059233333333","6500100","板橋區"
"220051","KEA-2699","2018/10/04 14:39:49","新北市板橋區松柏街36巷22號","121.475561666667","25.0292283333333","6500100","板橋區"
"220003","827-TW","2018/10/04 14:39:41","新北市板橋區國慶路149巷4弄16-4號","121.461896666667","24.9970016666667","6500100","板橋區"
"220014","830-TW","2018/10/04 14:39:41","新北市板橋區漢生東路279巷12號","121.47199","25.00921","6500100","板橋區"
"220045","831-TW","2018/10/04 14:39:47","新北市板橋區民生路二段232-9號","121.468926666667","25.0227066666667","6500100","板橋區"
"220022","895-R6","2018/10/04 14:39:44","新北市板橋區宮口街1號","121.457328333333","25.009565","6500100","板橋區"
"220021","985-R7","2018/10/04 14:39:29","新北市板橋區瑞安街57號","121.455443333333","25.0220716666667","6500100","板橋區"
"220018","AAC-253","2018/10/04 14:39:32","新北市板橋區館前東路108-1號","121.463081666667","25.0077016666667","6500100","板橋區"
"235032","KEA-2873","2018/10/04 14:39:48","新北市中和區福美路301巷39號","121.497828333333","25.0035283333333","6500300","中和區"
"235025","KEA-2875","2018/10/04 14:39:27","新北市中和區員山路160號","121.481606666667","24.9995566666667","6500300","中和區"
"235024","KEA-2876","2018/10/04 14:39:43","新北市中和區中山路二段481號","121.4829","25.00494","6500300","中和區"
