"lineid","car","time","location","longitude","latitude","cityid","cityname"
"231028","001-UM","2018/10/04 15:38:40","新北市新店區僑義路25號","121.500441666667","24.950915","6500600","新店區"
"231046","107-UY","2018/10/04 15:59:00","新北市新店區安康路一段323-3號","121.521126666667","24.9638533333333","6500600","新店區"
"231021","110-UY","2018/10/04 15:53:34","新北市新店區新烏路一段87巷3號","121.546191666667","24.9419116666667","6500600","新店區"
"231011","187-VK","2018/10/04 15:43:17","新北市新店區文化路79號","121.544928333333","24.9826033333333","6500600","新店區"
"231031","188-VK","2018/10/04 15:42:04","新北市新店區雙城路133號","121.497913333333","24.9387733333333","6500600","新店區"
"231023","KEA-2219","2018/10/04 15:35:32","新北市新店區大新街4號","121.54362","24.9693216666667","6500600","新店區"
"231026","256-BX","2018/10/04 15:39:03","新北市新店區三民路75巷3弄4號","121.535785","24.97094","6500600","新店區"
"231003","268-BY","2018/10/04 15:39:19","新北市新店區寶高路102巷20號","121.552858333333","24.9741233333333","6500600","新店區"
"231018","278-BY","2018/10/04 15:56:28","新北市新店區中正路663巷1弄2號","121.532925","24.9900283333333","6500600","新店區"
"231017","AAD-862","2018/10/04 15:53:35","新北市新店區三民路2號","121.539791666667","24.9725533333333","6500600","新店區"
"231038","3712-VJ","2018/10/04 15:54:10","新北市新店區安康路二段226號","121.509566666667","24.959255","6500600","新店區"
"231037","4716-K9","2018/10/04 15:56:10","新北市新店區吉安街37-1號","121.515703333333","24.9660966666667","6500600","新店區"
"231013","513-UM","2018/10/04 15:42:51","新北市新店區永業路81巷9弄3號","121.53102","24.95054","6500600","新店區"
"231034","616-UM","2018/10/04 15:33:23","新北市新店區玫瑰路58巷33號","121.493793333333","24.9467833333333","6500600","新店區"
"231030","619-UM","2018/10/04 15:40:20","新北市新店區新和街93巷8號","121.52091","24.9867266666667","6500600","新店區"
"231039","718-UY","2018/10/04 15:40:34","新北市新店區寶元路二段11號","121.546118333333","24.9823833333333","6500600","新店區"
"231035","719-UM","2018/10/04 15:49:07","新北市新店區安興路83-8號","121.515195","24.9755283333333","6500600","新店區"
"231029","897-TW","2018/10/04 15:43:03","新北市新店區安康路二段341巷2號","121.496465","24.9551033333333","6500600","新店區"
"241028","022-UY","2018/10/04 15:57:48","新北市三重區電信街90號","121.495758333333","25.0582566666667","6500200","三重區"
"241008","059-VK","2018/10/04 15:57:13","新北市三重區重新路四段121號","121.485101666667","25.0524316666667","6500200","三重區"
"241015","062-VK","2018/10/04 15:57:51","新北市三重區重新路四段121號","121.484745","25.0524633333333","6500200","三重區"
"241017","063-VK","2018/10/04 15:59:05","新北市三重區大仁街48巷28號","121.49081","25.0643816666667","6500200","三重區"
"241024","065-VK","2018/10/04 15:58:04","新北市三重區力行路一段38巷8號","121.485138333333","25.0663833333333","6500200","三重區"
"241026","066-VK","2018/10/04 15:55:37","新北市三重區光興街9號","121.500151666667","25.0604016666667","6500200","三重區"
"241005","262-UM","2018/10/04 15:58:05","新北市三重區環河北路三段288號","121.492326666667","25.0898933333333","6500200","三重區"
"241011","265-UM","2018/10/04 15:47:12","新北市三重區文化北路248號","121.497431666667","25.0699466666667","6500200","三重區"
"241016","266-UM","2018/10/04 15:57:38","新北市三重區重新路四段121號","121.484785","25.052525","6500200","三重區"
"241018","268-UM","2018/10/04 15:57:20","新北市三重區重新路三段107-1號","121.491228333333","25.0596466666667","6500200","三重區"
"241032","269-UM","2018/10/04 15:56:48","新北市三重區三陽路100巷3弄13號","121.48303","25.058155","6500200","三重區"
"241013","270-UM","2018/10/04 15:51:35","新北市三重區三和路三段28-2號","121.496485","25.0705533333333","6500200","三重區"
"241025","271-UM","2018/10/04 15:55:41","新北市三重區忠孝路三段52號","121.480685","25.0656766666667","6500200","三重區"
"241004","475-VK","2018/10/04 15:53:43","新北市三重區重新路四段121號","121.484753333333","25.0525016666667","6500200","三重區"
"241020","478-VK","2018/10/04 15:58:05","新北市三重區忠孝路二段99-1號","121.484033333333","25.069945","6500200","三重區"
"241030","480-VK","2018/10/04 15:52:55","新北市三重區重新路四段121號","121.484813333333","25.0524266666667","6500200","三重區"
"241014","543-UM","2018/10/04 15:58:13","新北市三重區重新路四段121號","121.485006666667","25.052365","6500200","三重區"
"241023","545-UM","2018/10/04 15:53:38","新北市三重區忠孝路三段84巷7-1號","121.480596666667","25.0644766666667","6500200","三重區"
"241006","AAD-863","2018/10/04 15:58:49","新北市三重區重新路四段121號","121.484681666667","25.0522533333333","6500200","三重區"
"241001","887-TS","2018/10/04 15:58:36","新北市三重區忠孝路一段183號","121.48725","25.0717316666667","6500200","三重區"
"241029","942-UM","2018/10/04 15:49:28","新北市三重區大同南路159號","121.49686","25.0557533333333","6500200","三重區"
"241033","AAC-255","2018/10/04 15:44:30","新北市三重區光復路一段42號","121.471928333333","25.047795","6500200","三重區"
"235014","4979-A6","2018/10/04 15:29:40","新北市中和區景新街129號","121.505758333333","24.9972716666667","6500300","中和區"
"235033","4980-A6","2018/10/04 15:45:55","","121.483345","24.9937","6500300","中和區"
"235023","AAC-215","2018/10/04 15:39:37","新北市中和區員山路32號","121.48104","24.987675","6500300","中和區"
"220016","120-SR","2018/10/04 15:29:56","新北市五股區五工一路109號","121.45678","25.070775","6500100","板橋區"
"235007","251-BX","2018/10/04 15:57:14","新北市中和區興南路二段62號","121.50628","24.9848666666667","6500300","中和區"
"227010","400-TW","2018/10/04 15:56:04","新北市雙溪區三港里雙澳路2號","121.868938333333","25.0474083333333","6502500","雙溪區"
"227004","030-BX","2018/10/04 15:43:06","新北市雙溪區平林里梅竹蹊1巷26號","121.861818333333","25.03853","6502500","雙溪區"
"253001","6251-TK","2018/10/04 15:35:29","新北市石門區小坑9號","121.593851666667","25.28856","6502200","石門區"
"207001","662-BX","2018/10/04 15:36:50","新北市萬里區龜吼里美崙路90號","121.685801666667","25.1848583333333","6502800","萬里區"
"236068","105-UM","2018/10/04 15:44:45","新北市土城區中央路三段92-2號","121.435768333333","24.96662","6501300","土城區"
"236057","912-UM","2018/10/04 15:39:24","新北市土城區中央路二段49號","121.442728333333","24.9797666666667","6501300","土城區"
"242001","233-RS","2018/10/04 15:43:49","新北市新莊區環河路636-7號","121.437545","25.011625","6500500","新莊區"
"238002","755-BX","2018/10/04 15:41:34","新北市樹林區長壽街70巷2號","121.421788333333","24.9942166666667","6500700","樹林區"
"238010","601-UM","2018/10/04 15:40:23","新北市樹林區龍興街13巷20號","121.403583333333","25.0163566666667","6500700","樹林區"
"238006","599-UM","2018/10/04 15:32:10","新北市樹林區太平路104號","121.418583333333","24.9789716666667","6500700","樹林區"
"238005","571-TV","2018/10/04 15:32:39","新北市樹林區立仁街1號","121.422928333333","24.988245","6500700","樹林區"
"238011","5061-A6","2018/10/04 15:33:45","新北市樹林區中山路二段219號","121.402803333333","24.97637","6500700","樹林區"
"238022","KEA-2213","2018/10/04 15:32:47","新北市樹林區和平街1巷2號","121.421021666667","24.9814666666667","6500700","樹林區"
"238004","283-BY","2018/10/04 15:45:07","新北市樹林區光榮街21號","121.412156666667","25.0036533333333","6500700","樹林區"
"238001","282-BY","2018/10/04 15:36:38","新北市樹林區潭興街107巷1弄13號","121.424855","24.9986283333333","6500700","樹林區"
"238007","268-VK","2018/10/04 15:38:50","新北市樹林區俊英街176號","121.42628","25.0073983333333","6500700","樹林區"
"238013","172-UY","2018/10/04 15:50:25","新北市樹林區中山路三段96號","121.39301","24.9722366666667","6500700","樹林區"
"238003","169-UY","2018/10/04 15:34:52","新北市樹林區長壽街4號","121.42385","24.9933333333333","6500700","樹林區"
"221010","269-BY","2018/10/04 15:57:59","新北市汐止區汐萬路一段256巷3號","121.652691666667","25.0746233333333","6501100","汐止區"
"220029","287-VK","2018/10/04 15:58:11","新北市樹林區柑園街一段26號","121.405803333333","24.9620966666667","6500100","板橋區"
"220009","293-UM","2018/10/04 15:32:51","新北市板橋區僑中一街124巷70-5號","121.449101666667","25.0162283333333","6500100","板橋區"
"220012","486-VK","2018/10/04 15:58:22","新北市板橋區溪城路90-2號","121.429431666667","24.980395","6500100","板橋區"
"220052","561-BX","2018/10/04 15:29:21","新北市板橋區漢生東路33巷42號","121.466105","25.0176816666667","6500100","板橋區"
"220051","KEA-2699","2018/10/04 15:33:29","新北市板橋區民生路二段253號","121.468206666667","25.022445","6500100","板橋區"
"220003","827-TW","2018/10/04 15:34:19","新北市板橋區華東街1-9號","121.448153333333","24.99489","6500100","板橋區"
"220018","AAC-253","2018/10/04 15:55:53","新北市板橋區華東街1-9號","121.448235","24.9948483333333","6500100","板橋區"
