"lineid","car","time","location","longitude","latitude","cityid","cityname"
"234067","AAC-212","2018/10/04 16:00:33","新北市永和區福和路1號","121.526401666667","25.0096583333333","6500400","永和區"
"243009","297-R6","2018/10/04 16:00:24","新北市泰山區黎明路25號","121.42184","25.0609216666667","6501600","泰山區"
"231046","107-UY","2018/10/04 16:01:00","新北市新店區安康路一段94-3號","121.527635","24.962235","6500600","新店區"
"231018","278-BY","2018/10/04 16:01:08","新北市新店區中正路700巷1號","121.533926666667","24.9911966666667","6500600","新店區"
"231030","619-UM","2018/10/04 15:46:40","新北市新店區永安街78號","121.520083333333","24.9863616666667","6500600","新店區"
"231035","719-UM","2018/10/04 15:54:07","新北市新店區安民街379巷14號","121.515853333333","24.9762866666667","6500600","新店區"
"241028","022-UY","2018/10/04 16:01:09","新北市三重區電信街20號","121.497481666667","25.0584916666667","6500200","三重區"
"241008","059-VK","2018/10/04 16:00:33","新北市三重區重新路四段121號","121.48496","25.0517966666667","6500200","三重區"
"241022","060-VK","2018/10/04 16:01:10","新北市三重區中正北路174-8號","121.483306666667","25.066625","6500200","三重區"
"241015","062-VK","2018/10/04 16:00:31","新北市三重區重新路四段121號","121.484695","25.0523833333333","6500200","三重區"
"241017","063-VK","2018/10/04 16:01:05","新北市三重區大仁街48巷6號","121.491336666667","25.0644816666667","6500200","三重區"
"241024","065-VK","2018/10/04 16:01:09","新北市三重區中正北路145巷5弄11號","121.484991666667","25.06734","6500200","三重區"
"241026","066-VK","2018/10/04 16:01:09","新北市三重區重新路二段91號","121.49599","25.0616966666667","6500200","三重區"
"241002","090-VK","2018/10/04 16:00:59","新北市三重區仁義街91號","121.499735","25.0794883333333","6500200","三重區"
"241005","262-UM","2018/10/04 16:01:05","新北市三重區五華街259號","121.488686666667","25.0866366666667","6500200","三重區"
"241011","265-UM","2018/10/04 15:59:32","新北市三重區雙園街1巷7號","121.497168333333","25.0683183333333","6500200","三重區"
"241016","266-UM","2018/10/04 16:00:59","新北市三重區重新路四段121號","121.484793333333","25.0525333333333","6500200","三重區"
"241018","268-UM","2018/10/04 16:01:00","新北市三重區大仁街20號","121.491486666667","25.0635533333333","6500200","三重區"
"241032","269-UM","2018/10/04 16:01:08","新北市三重區三陽路100巷3弄13號","121.483025","25.0581483333333","6500200","三重區"
"241013","270-UM","2018/10/04 15:57:35","新北市三重區三和路三段16巷24號","121.496206666667","25.0699433333333","6500200","三重區"
"241025","271-UM","2018/10/04 16:01:01","新北市三重區三民街197號","121.482088333333","25.065795","6500200","三重區"
"241004","475-VK","2018/10/04 16:01:04","新北市三重區重新路四段121號","121.484745","25.05254","6500200","三重區"
"241020","478-VK","2018/10/04 16:01:12","新北市三重區力行路一段247號","121.48269","25.07071","6500200","三重區"
"241030","480-VK","2018/10/04 16:00:35","新北市三重區重新路四段121號","121.484871666667","25.0524883333333","6500200","三重區"
"241014","543-UM","2018/10/04 16:00:33","新北市三重區成功路106-1號","121.487581666667","25.0515916666667","6500200","三重區"
"241023","545-UM","2018/10/04 16:00:38","新北市三重區中正北路214號","121.482351666667","25.0674316666667","6500200","三重區"
"241006","AAD-863","2018/10/04 16:00:49","新北市三重區重新路四段121號","121.484758333333","25.0518766666667","6500200","三重區"
"241019","743-BX","2018/10/04 16:01:03","新北市三重區捷運路36號","121.483196666667","25.0544766666667","6500200","三重區"
"241001","887-TS","2018/10/04 16:00:56","新北市三重區福隆路2號","121.489401666667","25.077345","6500200","三重區"
"241029","942-UM","2018/10/04 16:01:08","新北市三重區大同南路212巷51號","121.498113333333","25.056725","6500200","三重區"
"241033","AAC-255","2018/10/04 15:56:50","新北市三重區重新路五段509-5號","121.472065","25.0468","6500200","三重區"
"235046","733-UM","2018/10/04 15:59:33","新北市中和區員山路36巷13號","121.484148333333","24.99082","6500300","中和區"
"235026","800-TS","2018/10/04 16:01:00","新北市中和區橋和路77號","121.489315","25.0051283333333","6500300","中和區"
"235053","911-UM","2018/10/04 16:01:10","新北市中和區員山路36巷16-2號","121.485148333333","24.9917383333333","6500300","中和區"
"224007","275-VK","2018/10/04 16:01:04","新北市瑞芳區大埔路52號","121.769105","25.1042533333333","6501200","瑞芳區"
"227010","400-TW","2018/10/04 16:01:04","新北市雙溪區三港里雙澳路26號","121.86954","25.048315","6502500","雙溪區"
"227004","030-BX","2018/10/04 16:01:06","新北市雙溪區平林里外平林71號","121.842411666667","25.0349733333333","6502500","雙溪區"
"251008","181-VK","2018/10/04 16:00:57","新北市淡水區中正路二段18號","121.419751666667","25.1811283333333","6501000","淡水區"
"236057","912-UM","2018/10/04 15:49:04","新北市土城區中央路一段158號","121.445985","24.98712","6501300","土城區"
"242001","233-RS","2018/10/04 15:43:49","新北市新莊區環河路636-7號","121.437545","25.011625","6500500","新莊區"
"238002","755-BX","2018/10/04 15:47:14","新北市樹林區樹德街99號","121.420033333333","24.9923533333333","6500700","樹林區"
"238010","601-UM","2018/10/04 15:45:23","新北市樹林區龍興街32巷20號","121.402148333333","25.015585","6500700","樹林區"
"238006","599-UM","2018/10/04 15:40:10","新北市樹林區八德街134號","121.421423333333","24.978945","6500700","樹林區"
"238022","KEA-2213","2018/10/04 15:44:27","新北市樹林區太順街62巷4號","121.417748333333","24.9795233333333","6500700","樹林區"
"238004","283-BY","2018/10/04 15:52:07","新北市樹林區保安街二段197巷11號","121.413993333333","25.0031116666667","6500700","樹林區"
"238007","268-VK","2018/10/04 15:40:50","新北市樹林區俊英街210號","121.425218333333","25.0094133333333","6500700","樹林區"
"238013","172-UY","2018/10/04 15:56:25","新北市樹林區育德街35號","121.391918333333","24.9702933333333","6500700","樹林區"
"238003","169-UY","2018/10/04 15:47:52","新北市樹林區復興路314號","121.416653333333","24.9869","6500700","樹林區"
"220029","287-VK","2018/10/04 16:01:11","新北市土城區民權街17號","121.414148333333","24.9639583333333","6500100","板橋區"
