"lineid","car","time","location","longitude","latitude","cityid","cityname"
"234007","207-UY","2018/10/04 18:19:45","新北市永和區保生路55-1號","121.504775","25.0108866666667","6500400","永和區"
"234026","9371-KE","2018/10/04 18:19:38","新北市永和區豫溪街42巷3號","121.515528333333","25.0096133333333","6500400","永和區"
"234011","9373-KE","2018/10/04 18:19:32","新北市永和區環河東路一段162號","121.52143","25.0146316666667","6500400","永和區"
"249005","172-UM","2018/10/04 18:19:35","新北市八里區荖阡坑路15-18號","121.400218333333","25.1405916666667","6502300","八里區"
"249001","173-UM","2018/10/04 18:19:33","新北市八里區龍米路一段198號","121.451956666667","25.1277433333333","6502300","八里區"
"249004","303-UY","2018/10/04 18:19:39","新北市八里區龍米路二段232巷1弄2號","121.431356666667","25.1589533333333","6502300","八里區"
"249002","305-UY","2018/10/04 18:19:46","新北市八里區龍形三街6巷9-1號","121.449996666667","25.1325183333333","6502300","八里區"
"248016","026-BX","2018/10/04 18:19:37","新北市五股區西雲路293號","121.449493333333","25.099205","6501500","五股區"
"248006","077-UY","2018/10/04 18:19:29","新北市五股區中興路一段142-1號","121.464918333333","25.0737933333333","6501500","五股區"
"248008","095-VK","2018/10/04 18:19:44","新北市五股區更洲路32巷8弄14號","121.459226666667","25.07965","6501500","五股區"
"248020","225-UY","2018/10/04 18:19:30","新北市五股區成泰路三段643號","121.45286","25.104765","6501500","五股區"
"248012","247-BX","2018/10/04 18:19:34","新北市五股區御史路1巷101弄2號","121.441018333333","25.0910383333333","6501500","五股區"
"248014","261-SL","2018/10/04 18:19:30","新北市五股區成泰路一段173-1號","121.435148333333","25.0748716666667","6501500","五股區"
"248004","677-BX","2018/10/04 18:19:32","新北市五股區成泰路二段156號","121.43836","25.0841766666667","6501500","五股區"
"248002","678-BX","2018/10/04 18:19:42","新北市五股區西雲路46號","121.443485","25.0909466666667","6501500","五股區"
"248010","682-TV","2018/10/04 18:19:33","新北市五股區成泰路一段189巷8號","121.434543333333","25.0766016666667","6501500","五股區"
"234067","AAC-212","2018/10/04 18:19:36","新北市永和區福和路1號","121.526476666667","25.0096033333333","6500400","永和區"
"244023","069-UM","2018/10/04 18:19:36","新北市林口區仁愛路二段8號","121.385823333333","25.0762916666667","6501700","林口區"
"244007","080-UY","2018/10/04 18:19:42","新北市林口區林口路115號","121.388848333333","25.0807466666667","6501700","林口區"
"244019","403-UM","2018/10/04 18:19:36","新北市林口區忠孝路606號","121.37648","25.068025","6501700","林口區"
"244013","KEA-2802","2018/10/04 18:19:35","新北市林口區中山路142巷2號","121.391563333333","25.0789616666667","6501700","林口區"
"244017","485-VK","2018/10/04 18:19:33","新北市林口區八德路78號","121.36565","25.0655766666667","6501700","林口區"
"244009","656-BX","2018/10/04 18:19:30","新北市林口區民生路166號","121.379696666667","25.0876833333333","6501700","林口區"
"244011","701-TV","2018/10/04 18:19:26","新北市林口區新生街9號","121.3942","25.0768016666667","6501700","林口區"
"244025","837-TS","2018/10/04 18:19:31","新北市林口區文化北路一段192-100號","121.357653333333","25.070735","6501700","林口區"
"244021","838-TS","2018/10/04 18:19:42","新北市林口區自強一街65號","121.399745","25.077205","6501700","林口區"
"243013","AAD-798","2018/10/04 18:18:51","新北市泰山區錢厝坑13號","121.416333333333","25.039845","6501600","泰山區"
"222003","436-BY","2018/10/04 18:19:44","新北市深坑區旺耽路67號","121.626251666667","25.0030016666667","6501800","深坑區"
"222002","659-BX","2018/10/04 18:19:30","新北市深坑區文山路二段17號","121.62207","24.9999733333333","6501800","深坑區"
"231059","001-UM","2018/10/04 18:19:41","新北市新店區安華路28-1號","121.519573333333","24.9608283333333","6500600","新店區"
"231040","047-UY","2018/10/04 18:19:27","新北市新店區安一路一段1-1號","121.518923333333","24.9609733333333","6500600","新店區"
"231044","106-UY","2018/10/04 18:19:36","新北市新店區安華路28-1號","121.51964","24.96078","6500600","新店區"
"231046","107-UY","2018/10/04 18:19:41","新北市新店區直潭七街60號","121.532261666667","24.9398433333333","6500600","新店區"
"231052","110-UY","2018/10/04 18:19:39","新北市新店區安康路一段3-1號","121.534436666667","24.960715","6500600","新店區"
"231047","187-VK","2018/10/04 18:19:37","新北市新店區安一路一段1-1號","121.519578333333","24.9612166666667","6500600","新店區"
"231062","188-VK","2018/10/04 18:19:45","新北市新店區安一路一段1-1號","121.51938","24.9612316666667","6500600","新店區"
"231054","KEA-2219","2018/10/04 18:19:30","新北市新店區安一路一段1-1號","121.519803333333","24.96128","6500600","新店區"
"231057","256-BX","2018/10/04 18:19:37","新北市新店區安一路一段1-1號","121.519668333333","24.96109","6500600","新店區"
"231051","278-BY","2018/10/04 18:19:12","新北市新店區安一路一段1-1號","121.51978","24.9612066666667","6500600","新店區"
"231050","AAD-862","2018/10/04 18:19:35","新北市新店區安華路28-1號","121.519826666667","24.96097","6500600","新店區"
"231058","3713-VJ","2018/10/04 18:19:29","新北市新店區安康路一段3-1號","121.535006666667","24.9608516666667","6500600","新店區"
"231066","4716-K9","2018/10/04 18:19:26","新北市新店區安一路一段1-1號","121.51946","24.9612883333333","6500600","新店區"
"231056","4715-K9","2018/10/04 18:19:39","新北市新店區中正路438號","121.534161666667","24.9782766666667","6500600","新店區"
"231065","512-UM","2018/10/04 18:19:32","新北市新店區安一路一段1-1號","121.51944","24.9613083333333","6500600","新店區"
"231049","513-UM","2018/10/04 18:19:39","新北市新店區安一路一段1-1號","121.519658333333","24.9611283333333","6500600","新店區"
"231063","616-UM","2018/10/04 18:19:24","新北市新店區安華路1-1號","121.519586666667","24.9604883333333","6500600","新店區"
"231045","617-UM","2018/10/04 18:19:27","新北市新店區安華路28-1號","121.51947","24.96087","6500600","新店區"
"231061","619-UM","2018/10/04 18:19:30","新北市新店區安華路28-1號","121.519461666667","24.96082","6500600","新店區"
"231060","897-TW","2018/10/04 18:19:43","新北市新店區安華路28-1號","121.519631666667","24.960525","6500600","新店區"
"231043","899-TW","2018/10/04 18:19:31","新北市新店區安華路28-1號","121.519151666667","24.960905","6500600","新店區"
"231055","AKT-0513","2018/10/04 18:19:48","新北市新店區北新路二段2號","121.542575","24.97074","6500600","新店區"
"251014","742-BX","2018/10/04 18:19:35","新北市淡水區崙頂16號","121.491931666667","25.2214433333333","6501000","淡水區"
"241033","AAC-255","2018/10/04 18:19:30","新北市三重區中興北街52-2號","121.468953333333","25.0505583333333","6500200","三重區"
"235066","003-UY","2018/10/04 18:19:40","新北市中和區中山路二段120號","121.502738333333","25.0036383333333","6500300","中和區"
"235064","005-UY","2018/10/04 18:19:38","新北市中和區中正路148號","121.499055","24.993885","6500300","中和區"
"235063","006-UY","2018/10/04 18:19:42","新北市中和區中正路545巷1號","121.48738","24.9938633333333","6500300","中和區"
"235056","096-UM","2018/10/04 18:19:39","新北市中和區中山路二段584號","121.482516666667","25.0051483333333","6500300","中和區"
"235039","097-UM","2018/10/04 18:19:32","新北市中和區景平路406號","121.508671666667","24.9931016666667","6500300","中和區"
"235065","098-UM","2018/10/04 18:19:36","新北市中和區莊敬路49巷18號","121.501653333333","25.0060433333333","6500300","中和區"
"235040","150-BY","2018/10/04 18:19:30","新北市中和區錦和路350-1號","121.490106666667","24.9934216666667","6500300","中和區"
"235058","151-BY","2018/10/04 18:19:34","新北市中和區圓通路369巷39-30號","121.489696666667","24.9858833333333","6500300","中和區"
"235055","183-VK","2018/10/04 18:19:34","新北市中和區員山路82巷6-3號","121.481333333333","24.99355","6500300","中和區"
"235038","185-VK","2018/10/04 18:19:40","新北市中和區大智街109巷7號","121.523351666667","24.9925366666667","6500300","中和區"
"235049","186-VK","2018/10/04 18:19:34","新北市中和區中正路589巷15號","121.48565","24.9936516666667","6500300","中和區"
"235067","255-BX","2018/10/04 18:19:41","新北市中和區和城路一段271巷1號","121.485733333333","24.9917683333333","6500300","中和區"
"235072","301-VK","2018/10/04 18:19:43","新北市中和區連城路301號","121.489853333333","24.9964233333333","6500300","中和區"
"235042","KEA-2878","2018/10/04 18:19:32","新北市中和區景平路64巷13弄21號","121.52181","24.9913183333333","6500300","中和區"
"247012","KEA-2869","2018/10/04 18:19:46","新北市蘆洲區永平街32巷69弄31號","121.458641666667","25.093865","6501400","蘆洲區"
"235050","4979-A6","2018/10/04 18:19:45","新北市中和區捷運路59號","121.509078333333","24.9895333333333","6500300","中和區"
"235069","4980-A6","2018/10/04 18:19:37","新北市中和區錦和路158號","121.489858333333","24.9959983333333","6500300","中和區"
"235070","558-UM","2018/10/04 18:19:34","新北市中和區景平路594號","121.500978333333","24.9960883333333","6500300","中和區"
"235045","565-BX","2018/10/04 18:19:36","新北市中和區景安路200巷5號","121.50346","24.9916216666667","6500300","中和區"
"235054","640-BX","2018/10/04 18:19:40","新北市中和區莒光路183號","121.472676666667","24.9990833333333","6500300","中和區"
"235047","732-UM","2018/10/04 18:19:42","新北市中和區南山路250巷2號","121.507686666667","24.989035","6500300","中和區"
"235046","733-UM","2018/10/04 18:19:33","新北市中和區中正路637巷52弄1號","121.485413333333","24.9934533333333","6500300","中和區"
"235062","800-TS","2018/10/04 18:19:38","新北市中和區橋和路122-1號","121.492753333333","25.00597","6500300","中和區"
"235057","801-TS","2018/10/04 18:19:32","新北市中和區民安街178號","121.476391666667","24.9998916666667","6500300","中和區"
"235041","802-TS","2018/10/04 18:19:43","新北市中和區中正路395號","121.4896","24.99364","6500300","中和區"
"235052","805-TS","2018/10/04 18:19:30","新北市中和區興南路一段86號","121.509891666667","24.9892983333333","6500300","中和區"
"235048","896-TW","2018/10/04 18:19:26","新北市中和區錦和路350-1號","121.490393333333","24.9935616666667","6500300","中和區"
"235051","157-BY","2018/10/04 18:19:34","新北市中和區華新街232巷3號","121.505968333333","24.9816766666667","6500300","中和區"
"235037","AAC-213","2018/10/04 18:19:35","新北市中和區景德街67號","121.5169","24.99139","6500300","中和區"
"220065","072-UY","2018/10/04 18:19:28","新北市板橋區華東街1-10號","121.448706666667","24.9947883333333","6500100","板橋區"
"226004","312-R5","2018/10/04 18:19:29","新北市平溪區薯榔里一坑路17號","121.7138","25.021595","6502400","平溪區"
"235043","251-BX","2018/10/04 18:19:37","新北市中和區景平路379號","121.50407","24.9934133333333","6500300","中和區"
"228003","097-TW","2018/10/04 18:19:32","新北市貢寮區真理里美艷山街66號","121.918228333333","25.0740833333333","6502600","貢寮區"
"228001","212-TW","2018/10/04 18:19:32","新北市貢寮區真理里新港街26巷55弄2-1號","121.9274","25.052885","6502600","貢寮區"
"228002","663-BX","2018/10/04 18:19:44","新北市貢寮區福連里福興街12-1號","121.990265","25.0121583333333","6502600","貢寮區"
"224006","676-BX","2018/10/04 18:19:44","新北市瑞芳區中正路2號","121.809323333333","25.107095","6501200","瑞芳區"
"224002","639-TC","2018/10/04 18:19:41","新北市瑞芳區三爪子坑路91巷41號","121.812106666667","25.1062183333333","6501200","瑞芳區"
"224008","285-BY","2018/10/04 18:19:40","新北市瑞芳區逢甲路15號","121.809793333333","25.1087166666667","6501200","瑞芳區"
"224007","275-VK","2018/10/04 18:19:45","新北市瑞芳區大埔路67巷5-1號","121.764328333333","25.1015116666667","6501200","瑞芳區"
"224009","273-VK","2018/10/04 18:19:27","新北市瑞芳區祈堂路219號","121.856213333333","25.1090866666667","6501200","瑞芳區"
"224005","271-BY","2018/10/04 18:19:44","新北市瑞芳區建基新村1號","121.813213333333","25.13012","6501200","瑞芳區"
"227010","400-TW","2018/10/04 18:19:43","新北市雙溪區牡丹里牡丹73號","121.851706666667","25.059355","6502500","雙溪區"
"227004","030-BX","2018/10/04 18:19:41","新北市雙溪區共和里中山路2號","121.863821666667","25.0338283333333","6502500","雙溪區"
"253006","032-BX","2018/10/04 18:19:25","新北市石門區老梅路89號","121.546551666667","25.2892583333333","6502200","石門區"
"253005","295-VK","2018/10/04 18:19:29","新北市石門區中央路37-5號","121.570291666667","25.2967466666667","6502200","石門區"
"222001","KEA-2212","2018/10/04 18:19:38","新北市深坑區北深路二段66號","121.619001666667","25.0041733333333","6501800","深坑區"
"208002","KEA-2872","2018/10/04 18:19:38","新北市金山區磺清路135號","121.63938","25.2273383333333","6502700","金山區"
"208003","665-BX","2018/10/04 18:19:26","新北市金山區中山路16號","121.641711666667","25.2180616666667","6502700","金山區"
"208001","761-BX","2018/10/04 18:19:33","新北市金山區中山路16號","121.641306666667","25.217655","6502700","金山區"
"251005","010-UM","2018/10/04 18:19:31","新北市淡水區水源街一段122巷37號","121.447116666667","25.17052","6501000","淡水區"
"251013","KEA-2871","2018/10/04 18:19:39","新北市淡水區行忠路899號","121.480251666667","25.2002816666667","6501000","淡水區"
"251016","179-VK","2018/10/04 18:19:43","新北市淡水區淡金路三段228巷12號","121.449371666667","25.2049516666667","6501000","淡水區"
"251015","180-VK","2018/10/04 18:19:37","新北市淡水區興福寮66巷541號","121.484586666667","25.165155","6501000","淡水區"
"251008","181-VK","2018/10/04 18:19:37","新北市淡水區水源街二段346巷1弄1號","121.464241666667","25.17547","6501000","淡水區"
"251010","413-VK","2018/10/04 18:19:38","新北市淡水區淡海路199號","121.420391666667","25.1848666666667","6501000","淡水區"
"251012","441-VK","2018/10/04 18:19:38","新北市淡水區北新路二段77-5號","121.480523333333","25.1855366666667","6501000","淡水區"
"251004","443-VK","2018/10/04 18:19:39","新北市淡水區民族路102號","121.462433333333","25.135325","6501000","淡水區"
"251001","559-UM","2018/10/04 18:19:29","新北市淡水區自強路108-19號","121.461636666667","25.1313766666667","6501000","淡水區"
"251006","561-UM","2018/10/04 18:19:31","新北市淡水區新民街76巷36弄1號","121.439458333333","25.1779933333333","6501000","淡水區"
"251011","650-BX","2018/10/04 18:19:45","新北市淡水區坪頂路51巷2號","121.458193333333","25.1625083333333","6501000","淡水區"
"251002","672-BX","2018/10/04 18:19:37","新北市淡水區中正東路一段36號","121.452613333333","25.162315","6501000","淡水區"
"251003","766-UM","2018/10/04 18:19:45","新北市淡水區北新路180號","121.449486666667","25.1787083333333","6501000","淡水區"
"207003","681-TV","2018/10/04 18:19:27","新北市萬里區野柳里港東路6號","121.686435","25.20313","6502800","萬里區"
"207004","225-TW","2018/10/04 18:19:43","新北市萬里區中幅里中福路123號","121.676645","25.165865","6502800","萬里區"
"252002","178-VK","2018/10/04 18:19:35","新北市三芝區中山路二段39號","121.502895","25.2551216666667","6502100","三芝區"
"252003","249-BX","2018/10/04 18:19:26","新北市三芝區錫板里海尾11-7號","121.47848","25.2608333333333","6502100","三芝區"
"252001","292-VK","2018/10/04 18:19:28","新北市三芝區中興街二段2號","121.498401666667","25.2566533333333","6502100","三芝區"
"237004","KEA-2597","2018/10/04 18:19:31","新北市三峽區圳頭35號","121.37594","24.887375","6500900","三峽區"
"237007","153-BY","2018/10/04 18:19:36","新北市三峽區中正路二段572號","121.359583333333","24.906065","6500900","三峽區"
"237009","210-TH","2018/10/04 18:19:38","新北市三峽區大仁路13巷2號","121.366488333333","24.9371816666667","6500900","三峽區"
"237013","252-BX","2018/10/04 18:19:48","新北市三峽區永安街3號","121.377996666667","24.9299666666667","6500900","三峽區"
"237012","275-BY","2018/10/04 18:19:42","新北市三峽區民生街1巷6-9號","121.377001666667","24.9357083333333","6500900","三峽區"
"237008","302-VK","2018/10/04 18:19:33","新北市三峽區白雞64-2號","121.385455","24.9126983333333","6500900","三峽區"
"237014","433-BY","2018/10/04 18:19:46","新北市三峽區復興路110巷2弄4號","121.372885","24.9379666666667","6500900","三峽區"
"237006","5529-G3","2018/10/04 18:19:43","新北市三峽區溪東路235號","121.406556666667","24.932635","6500900","三峽區"
"237011","KEA-2596","2018/10/04 18:19:41","新北市三峽區介壽路二段91號","121.391983333333","24.93545","6500900","三峽區"
"237016","649-BX","2018/10/04 18:19:30","新北市三峽區紫微路42-1號","121.42225","24.9198816666667","6500900","三峽區"
"237010","706-TV","2018/10/04 18:19:45","新北市三峽區民族街6號","121.36894","24.931525","6500900","三峽區"
"237005","AKY-6261","2018/10/04 18:19:29","新北市三峽區民權街52號","121.369616666667","24.9333833333333","6500900","三峽區"
"236070","105-UM","2018/10/04 18:19:32","新北市土城區永豐路302-2號","121.471593333333","24.9777466666667","6501300","土城區"
"236042","107-UM","2018/10/04 18:19:44","新北市土城區裕生路21巷2弄32號","121.447886666667","24.9861483333333","6501300","土城區"
"236078","166-UM","2018/10/04 18:19:32","新北市土城區中央路三段281巷19號","121.425871666667","24.962405","6501300","土城區"
"236026","269-VK","2018/10/04 18:19:29","新北市土城區承天路18號","121.439423333333","24.96362","6501300","土城區"
"236014","270-VK","2018/10/04 18:19:36","新北市土城區青雲路39巷7號","121.460321666667","24.9874233333333","6501300","土城區"
"236038","271-VK","2018/10/04 18:19:43","新北市土城區青雲路483巷4號","121.459336666667","24.9736","6501300","土城區"
"236021","401-BY","2018/10/04 18:19:27","新北市土城區明德路一段137-4號","121.465481666667","24.9813916666667","6501300","土城區"
"236030","752-BX","2018/10/04 18:19:36","新北市土城區順風路30號","121.440053333333","24.9771683333333","6501300","土城區"
"236059","912-UM","2018/10/04 18:19:29","新北市土城區中央路四段426-2號","121.410881666667","24.9517383333333","6501300","土城區"
"236049","913-UM","2018/10/04 18:19:33","新北市土城區明德路一段280號","121.457465","24.9774316666667","6501300","土城區"
"236063","915-UM","2018/10/04 18:19:29","新北市土城區金城路二段260號","121.457801666667","24.9837666666667","6501300","土城區"
"236055","AAC-216","2018/10/04 18:19:43","新北市土城區中華路二段104號","121.43805","24.9742983333333","6501300","土城區"
"242058","986-R7","2018/10/04 18:19:39","新北市新莊區中山路三段551號","121.412281666667","25.0268783333333","6500500","新莊區"
"242056","751-BX","2018/10/04 18:19:30","新北市新莊區豐年街66號","121.446336666667","25.0315416666667","6500500","新莊區"
"242025","613-BX","2018/10/04 18:19:35","新北市新莊區五工三路95號","121.4582","25.0655533333333","6500500","新莊區"
"242044","566-BX","2018/10/04 18:19:37","新北市新莊區天泉二街24巷1號","121.414648333333","25.02552","6500500","新莊區"
"242053","441-UM","2018/10/04 18:19:43","新北市新莊區樹新路120巷51號","121.430056666667","24.99585","6500500","新莊區"
"242002","440-UM","2018/10/04 18:19:30","新北市新莊區碧江街27號","121.453403333333","25.0336133333333","6500500","新莊區"
"242009","413-TV","2018/10/04 18:19:41","新北市新莊區自立街62號","121.453946666667","25.04544","6500500","新莊區"
"242046","400-BY","2018/10/04 18:19:36","新北市新莊區福營路336號","121.421661666667","25.0267833333333","6500500","新莊區"
"242061","353-BY","2018/10/04 18:19:36","新北市新莊區新樹路69-6號","121.438726666667","25.0296883333333","6500500","新莊區"
"242011","132-UY","2018/10/04 18:19:40","新北市新莊區中港路585號","121.450931666667","25.0522933333333","6500500","新莊區"
"242042","133-UY","2018/10/04 18:19:42","新北市新莊區天祥街53號","121.414848333333","25.0304266666667","6500500","新莊區"
"242051","172-VK","2018/10/04 18:19:41","新北市新莊區新樹路295號","121.433851666667","25.0202166666667","6500500","新莊區"
"242031","348-TH","2018/10/04 18:19:40","新北市新莊區新泰路255巷49號","121.444198333333","25.0395183333333","6500500","新莊區"
"242004","349-TH","2018/10/04 18:19:27","新北市新莊區中平路82巷2號","121.444896666667","25.0447333333333","6500500","新莊區"
"242021","350-TH","2018/10/04 18:19:36","新北市新莊區中正路265號","121.44955","25.03537","6500500","新莊區"
"242015","351-TH","2018/10/04 18:19:47","新北市新莊區中和街85號","121.447436666667","25.047835","6500500","新莊區"
"238015","755-BX","2018/10/04 18:19:29","新北市樹林區文化街79巷1號","121.416815","24.9890766666667","6500700","樹林區"
"238023","601-UM","2018/10/04 18:19:43","新北市樹林區忠信街1號","121.40951","25.0149783333333","6500700","樹林區"
"238019","599-UM","2018/10/04 18:19:30","新北市樹林區國凱街136巷5號","121.423453333333","24.9801733333333","6500700","樹林區"
"238018","571-TV","2018/10/04 18:19:44","新北市樹林區保安街一段14巷49號","121.428725","24.99421","6500700","樹林區"
"238024","5061-A6","2018/10/04 18:19:39","新北市樹林區育英街1號","121.42272","24.989","6500700","樹林區"
"238025","303-VK","2018/10/04 18:19:27","新北市樹林區保安街一段356號","121.417726666667","24.99829","6500700","樹林區"
"238017","283-BY","2018/10/04 18:19:26","新北市樹林區保安街二段337巷15號","121.411401666667","25.00803","6500700","樹林區"
"238020","268-VK","2018/10/04 18:19:30","新北市樹林區三龍街92號","121.414486666667","25.01851","6500700","樹林區"
"238026","172-UY","2018/10/04 18:19:32","新北市樹林區佳園路一段75巷11弄53號","121.395158333333","24.9699466666667","6500700","樹林區"
"238016","169-UY","2018/10/04 18:19:32","新北市樹林區文化街23號","121.419231666667","24.9876583333333","6500700","樹林區"
"239007","AAC-297","2018/10/04 18:19:32","新北市鶯歌區尖山埔路10號","121.34963","24.9511316666667","6500800","鶯歌區"
"239006","891-R6","2018/10/04 18:19:40","新北市鶯歌區德昌街140巷12號","121.332123333333","24.9609616666667","6500800","鶯歌區"
"239008","527-UM","2018/10/04 18:19:37","新北市鶯歌區國際一路179號","121.336261666667","24.9765166666667","6500800","鶯歌區"
"239005","526-UM","2018/10/04 18:19:34","新北市鶯歌區鶯桃路668巷73號","121.329965","24.971855","6500800","鶯歌區"
"239001","417-VK","2018/10/04 18:19:45","新北市鶯歌區國中街183號","121.339068333333","24.9396283333333","6500800","鶯歌區"
"239003","360-BY","2018/10/04 18:19:31","新北市鶯歌區福安街58號","121.335585","24.9651916666667","6500800","鶯歌區"
"239002","359-BY","2018/10/04 18:19:32","新北市鶯歌區建國路154號","121.350756666667","24.95388","6500800","鶯歌區"
"221008","489-VK","2018/10/04 18:19:39","新北市汐止區明峰街70-1號","121.631906666667","25.0711633333333","6501100","汐止區"
"221036","130-UY","2018/10/04 18:19:34","新北市汐止區長興街一段19號","121.669563333333","25.0788916666667","6501100","汐止區"
"221015","131-UY","2018/10/04 18:19:40","新北市汐止區鄉長路二段23巷3號","121.667291666667","25.0825683333333","6501100","汐止區"
"221010","269-BY","2018/10/04 18:19:28","新北市汐止區祥雲街51號","121.647501666667","25.089575","6501100","汐止區"
"221012","278-VK","2018/10/04 18:19:46","新北市汐止區保長路35巷16弄1號","121.673041666667","25.0798016666667","6501100","汐止區"
"221023","279-VK","2018/10/04 18:19:42","新北市汐止區中興路250號","121.629195","25.068535","6501100","汐止區"
"221032","280-BY","2018/10/04 18:19:42","新北市汐止區橫科路73巷1號","121.619341666667","25.0506566666667","6501100","汐止區"
"221027","281-BY","2018/10/04 18:19:46","新北市汐止區和平街6巷5弄2號","121.663603333333","25.0717766666667","6501100","汐止區"
"221029","298-VK","2018/10/04 18:19:46","新北市汐止區汐萬路一段329號","121.649786666667","25.07573","6501100","汐止區"
"221021","299-VK","2018/10/04 18:19:45","新北市汐止區連興街52號","121.653883333333","25.0628783333333","6501100","汐止區"
"221031","353-TW","2018/10/04 18:19:43","新北市汐止區大同路一段160-7號","121.635581666667","25.0557416666667","6501100","汐止區"
"221035","622-UM","2018/10/04 18:19:36","新北市汐止區大同路二段187巷8弄5號","121.652711666667","25.0656433333333","6501100","汐止區"
"221025","623-UM","2018/10/04 18:19:40","新北市汐止區勤進路12巷29號","121.659213333333","25.0623666666667","6501100","汐止區"
"221038","646-BX","2018/10/04 18:19:40","新北市汐止區仁愛路315號","121.664653333333","25.0676016666667","6501100","汐止區"
"221002","707-TV","2018/10/04 18:19:29","新北市汐止區福德一路213巷35號","121.63577","25.0649133333333","6501100","汐止區"
"221018","753-BX","2018/10/04 18:19:43","新北市汐止區茄苳路94號","121.667276666667","25.070455","6501100","汐止區"
"220082","610-BX","2018/10/04 18:19:30","新北市板橋區華東街1-9號","121.44822","24.9948883333333","6500100","板橋區"
"220054","741-BX","2018/10/04 18:19:30","新北市板橋區華東街1-9號","121.448113333333","24.99486","6500100","板橋區"
"235068","KEA-2873","2018/10/04 18:19:45","新北市中和區員山路36巷16-3號","121.485146666667","24.9911866666667","6500300","中和區"
"235061","KEA-2875","2018/10/04 18:19:37","新北市中和區國光街215巷10弄12號","121.466868333333","25.00048","6500300","中和區"
"235060","KEA-2876","2018/10/04 18:19:39","新北市中和區連城路525號","121.481613333333","24.9952266666667","6500300","中和區"
