"lineid","car","time","location","longitude","latitude","cityid","cityname"
"234046","148-BY","2018/10/04 18:49:18","新北市永和區秀朗路二段124-3號","121.524831666667","25.0015283333333","6500400","永和區"
"234007","207-UY","2018/10/04 18:49:05","新北市永和區文化路123號","121.51228","25.0153566666667","6500400","永和區"
"234081","298-R6","2018/10/04 18:49:06","新北市永和區林森路112巷12弄8號","121.522595","25.0045833333333","6500400","永和區"
"234038","336-UY","2018/10/04 18:49:07","新北市永和區成功路一段40號","121.526976666667","25.004465","6500400","永和區"
"234064","337-UY","2018/10/04 18:49:10","新北市永和區福和路1號","121.52641","25.0098366666667","6500400","永和區"
"234086","338-UY","2018/10/04 18:49:15","新北市永和區中正路39-1號","121.514325","24.9959683333333","6500400","永和區"
"234070","552-UM","2018/10/04 18:49:03","新北市永和區中興街106號","121.519208333333","25.0122233333333","6500400","永和區"
"234017","745-BX","2018/10/04 18:49:09","新北市永和區永和路二段405巷3號","121.51524","25.017075","6500400","永和區"
"234030","746-BX","2018/10/04 18:49:14","新北市永和區得和路325號","121.523446666667","24.9996333333333","6500400","永和區"
"234054","KEA-2590","2018/10/04 18:49:14","新北市永和區豫溪街191巷3弄2號","121.52356","25.0104166666667","6500400","永和區"
"234013","KEA-2591","2018/10/04 18:49:01","新北市永和區保福路二段133巷34號","121.508866666667","25.0134266666667","6500400","永和區"
"234061","AAD-866","2018/10/04 18:49:13","新北市永和區福和路247號","121.51811","25.00743","6500400","永和區"
"234042","862-TW","2018/10/04 18:49:09","新北市永和區永貞路306號","121.511896666667","25.00488","6500400","永和區"
"234050","863-TW","2018/10/04 18:49:12","新北市永和區福和路1號","121.526345","25.009775","6500400","永和區"
"234026","9371-KE","2018/10/04 18:48:59","新北市永和區自由街58號","121.51374","25.0059366666667","6500400","永和區"
"234011","9373-KE","2018/10/04 18:49:12","新北市永和區文化路124號","121.513058333333","25.0153216666667","6500400","永和區"
"249005","172-UM","2018/10/04 18:49:15","新北市八里區長道坑17號","121.39639","25.1155533333333","6502300","八里區"
"249001","173-UM","2018/10/04 18:49:13","新北市八里區龍米路二段16號","121.448946666667","25.139085","6502300","八里區"
"248016","026-BX","2018/10/04 18:49:17","新北市五股區凌雲路一段149巷42號","121.448596666667","25.1009533333333","6501500","五股區"
"248006","077-UY","2018/10/04 18:49:07","新北市五股區四維路1巷2弄2號","121.466561666667","25.070125","6501500","五股區"
"248008","095-VK","2018/10/04 18:49:04","新北市五股區中興路一段151巷10號","121.465006666667","25.0731916666667","6501500","五股區"
"248020","225-UY","2018/10/04 18:49:10","新北市五股區孝義路90-1號","121.448061666667","25.1160583333333","6501500","五股區"
"248012","247-BX","2018/10/04 18:49:14","新北市五股區成泰路二段147巷6號","121.437695","25.0891433333333","6501500","五股區"
"248014","261-SL","2018/10/04 18:49:10","新北市五股區成泰路二段252號","121.440466666667","25.0872316666667","6501500","五股區"
"248004","677-BX","2018/10/04 18:49:12","新北市五股區民義路二段23號","121.416533333333","25.0994533333333","6501500","五股區"
"248002","678-BX","2018/10/04 18:49:08","新北市五股區成泰路三段435巷6號","121.44968","25.0979216666667","6501500","五股區"
"248010","682-TV","2018/10/04 18:49:13","新北市五股區水碓五路81號","121.429993333333","25.0719033333333","6501500","五股區"
"234023","9380-KE","2018/10/04 18:49:13","新北市永和區竹林路119巷45號","121.521921666667","25.01188","6500400","永和區"
"234077","969-R7","2018/10/04 18:49:06","新北市永和區中正路42巷14號","121.513511666667","24.9940833333333","6500400","永和區"
"234067","AAC-212","2018/10/04 18:49:16","新北市永和區中和路625號","121.513013333333","25.004915","6500400","永和區"
"234003","AAC-295","2018/10/04 18:49:14","新北市永和區中正路696-1號","121.516448333333","25.009805","6500400","永和區"
"232011","375-UM","2018/10/04 18:49:01","新北市坪林區坪林街79號","121.711515","24.9371966666667","6502000","坪林區"
"244023","069-UM","2018/10/04 18:49:15","新北市林口區文化三路二段211巷95號","121.375158333333","25.08484","6501700","林口區"
"244007","080-UY","2018/10/04 18:49:02","新北市林口區湖北里61-7號","121.382656666667","25.1085366666667","6501700","林口區"
"244019","403-UM","2018/10/04 18:49:15","新北市林口區麗園二街3巷2-2號","121.378198333333","25.0696433333333","6501700","林口區"
"244013","KEA-2802","2018/10/04 18:49:15","新北市林口區文化一路一段100巷10弄16號","121.374915","25.071315","6501700","林口區"
"244017","485-VK","2018/10/04 18:49:12","新北市林口區文化二路66-6號","121.365998333333","25.0688516666667","6501700","林口區"
"244009","656-BX","2018/10/04 18:49:10","新北市林口區竹林路462號","121.387711666667","25.0849683333333","6501700","林口區"
"244011","701-TV","2018/10/04 18:49:06","新北市林口區中正路41巷13號","121.395611666667","25.0766583333333","6501700","林口區"
"244025","837-TS","2018/10/04 18:49:11","新北市林口區南勢街200號","121.360015","25.0748466666667","6501700","林口區"
"244021","838-TS","2018/10/04 18:49:02","新北市林口區工六路100號","121.40125","25.07657","6501700","林口區"
"243013","AAD-798","2018/10/04 18:39:07","新北市泰山區明志路三段206巷3號","121.423291666667","25.0379266666667","6501600","泰山區"
"243009","297-R6","2018/10/04 18:49:17","新北市泰山區黎明路25號","121.421978333333","25.0608383333333","6501600","泰山區"
"243016","KEA-2801","2018/10/04 18:49:07","新北市泰山區明志路二段126號","121.427836666667","25.0512916666667","6501600","泰山區"
"243011","KEA-2215","2018/10/04 18:49:05","新北市泰山區公園路80號","121.42341","25.0563733333333","6501600","泰山區"
"243010","KEA-2216","2018/10/04 18:49:05","新北市泰山區明志路二段6號","121.430123333333","25.053875","6501600","泰山區"
"243012","646-TV","2018/10/04 18:49:11","新北市泰山區泰林路二段73巷21號","121.434528333333","25.0578883333333","6501600","泰山區"
"243014","680-BX","2018/10/04 18:48:56","新北市泰山區黎明路25號","121.422096666667","25.06064","6501600","泰山區"
"222003","436-BY","2018/10/04 18:49:04","新北市深坑區深南路32號","121.621891666667","25.0074316666667","6501800","深坑區"
"222002","659-BX","2018/10/04 18:49:09","新北市深坑區文山路一段69號","121.626983333333","25.0018883333333","6501800","深坑區"
"231059","001-UM","2018/10/04 18:49:01","新北市新店區安華路28-1號","121.519495","24.9609316666667","6500600","新店區"
"231041","002-UM","2018/10/04 18:49:07","新北市新店區安華路28-1號","121.519601666667","24.9608116666667","6500600","新店區"
"231040","047-UY","2018/10/04 18:49:07","新北市新店區力行路15號","121.537038333333","24.965615","6500600","新店區"
"231044","106-UY","2018/10/04 18:48:56","新北市新店區北新路一段341號","121.541955","24.9688316666667","6500600","新店區"
"231046","107-UY","2018/10/04 18:49:07","新北市新店區直潭路37號","121.533915","24.9426983333333","6500600","新店區"
"231052","110-UY","2018/10/04 18:48:59","新北市新店區新烏路一段159號","121.544766666667","24.9355533333333","6500600","新店區"
"231047","187-VK","2018/10/04 18:48:56","新北市新店區北新路二段2號","121.542541666667","24.9705183333333","6500600","新店區"
"231062","188-VK","2018/10/04 18:49:05","新北市新店區安一路一段1-1號","121.519161666667","24.9614","6500600","新店區"
"231054","KEA-2219","2018/10/04 18:49:11","新北市新店區光明街84號","121.538783333333","24.9601283333333","6500600","新店區"
"231042","268-BY","2018/10/04 18:48:58","新北市新店區安康路一段48號","121.53049","24.9610933333333","6500600","新店區"
"231051","278-BY","2018/10/04 18:49:13","新北市新店區中央路63號","121.53258","24.9771866666667","6500600","新店區"
"231050","AAD-862","2018/10/04 18:49:15","新北市新店區安康路一段75-1號","121.5301","24.9611416666667","6500600","新店區"
"231058","3713-VJ","2018/10/04 18:49:09","新北市新店區北宜路一段105巷2號","121.539503333333","24.9554716666667","6500600","新店區"
"231066","4716-K9","2018/10/04 18:49:06","新北市新店區安一路一段1-1號","121.51936","24.96139","6500600","新店區"
"231056","4715-K9","2018/10/04 18:48:59","新北市新店區二十張路33巷8號","121.538563333333","24.9810383333333","6500600","新店區"
"231067","4772-VM","2018/10/04 18:49:17","新北市新店區安華路28-1號","121.519103333333","24.96065","6500600","新店區"
"231065","512-UM","2018/10/04 18:49:12","新北市新店區安忠路57巷26弄62號","121.511888333333","24.956805","6500600","新店區"
"231049","513-UM","2018/10/04 18:49:19","新北市新店區環河路116-11號","121.536805","24.9677916666667","6500600","新店區"
"231063","616-UM","2018/10/04 18:49:04","新北市新店區安華路1-1號","121.519483333333","24.9604616666667","6500600","新店區"
"231045","617-UM","2018/10/04 18:49:07","新北市新店區安康路一段355號","121.519835","24.9632166666667","6500600","新店區"
"231061","619-UM","2018/10/04 18:49:10","新北市新店區安一路一段1-1號","121.51956","24.9610666666667","6500600","新店區"
"231064","719-UM","2018/10/04 18:49:01","新北市新店區安一路一段1-1號","121.51946","24.9612983333333","6500600","新店區"
"231043","899-TW","2018/10/04 18:49:11","新北市新店區安康路一段323-1號","121.521585","24.96382","6500600","新店區"
"231055","AKT-0513","2018/10/04 18:49:08","新北市新店區新生街13巷10號","121.539495","24.9660066666667","6500600","新店區"
"251014","742-BX","2018/10/04 18:49:08","新北市淡水區崙頂2號","121.491985","25.2240233333333","6501000","淡水區"
"235066","003-UY","2018/10/04 18:49:00","新北市中和區水源路7巷25號","121.503971666667","25.003895","6500300","中和區"
"235064","005-UY","2018/10/04 18:49:08","新北市中和區連城路87號","121.496856666667","25.0002866666667","6500300","中和區"
"235063","006-UY","2018/10/04 18:49:02","新北市中和區連城路347巷4弄34號","121.486776666667","24.9956966666667","6500300","中和區"
"235056","096-UM","2018/10/04 18:48:59","新北市中和區員山路611巷5弄9號","121.478286666667","25.0111216666667","6500300","中和區"
"235039","097-UM","2018/10/04 18:49:12","新北市中和區宜安路52巷1號","121.512031666667","24.9969183333333","6500300","中和區"
"235065","098-UM","2018/10/04 18:49:16","新北市中和區中山路二段2巷45弄20號","121.501673333333","25.006955","6500300","中和區"
"235040","150-BY","2018/10/04 18:49:11","新北市中和區保健路106巷26號","121.511316666667","24.99481","6500300","中和區"
"235058","151-BY","2018/10/04 18:49:14","新北市中和區連城路571-1號","121.479276666667","24.99449","6500300","中和區"
"235055","183-VK","2018/10/04 18:49:14","新北市中和區民生街59號","121.469386666667","25.0050116666667","6500300","中和區"
"235038","185-VK","2018/10/04 18:49:00","新北市中和區大勇街41號","121.517673333333","24.9945433333333","6500300","中和區"
"235049","186-VK","2018/10/04 18:49:14","新北市中和區明義街11巷12弄2號","121.503623333333","24.9946883333333","6500300","中和區"
"235067","255-BX","2018/10/04 18:49:01","新北市中和區中正路839巷2號","121.484503333333","25.0024533333333","6500300","中和區"
"235044","293-VK","2018/10/04 18:49:10","新北市中和區中興街145號","121.49998","24.9912316666667","6500300","中和區"
"235072","301-VK","2018/10/04 18:49:03","新北市中和區中山路二段18號","121.504796666667","25.00543","6500300","中和區"
"235042","KEA-2878","2018/10/04 18:49:12","新北市中和區秀朗路三段70巷50號","121.525045","24.9943666666667","6500300","中和區"
"247012","KEA-2869","2018/10/04 18:49:07","新北市八里區中山路三段409號","121.36938","25.1362183333333","6501400","蘆洲區"
"235050","4979-A6","2018/10/04 18:49:03","新北市中和區忠孝街62巷9弄10號","121.513176666667","24.9839716666667","6500300","中和區"
"235069","4980-A6","2018/10/04 18:48:57","新北市中和區南山路81巷8弄12號","121.502521666667","24.9976866666667","6500300","中和區"
"235070","558-UM","2018/10/04 18:49:14","新北市中和區中和路170號","121.504578333333","24.99966","6500300","中和區"
"235045","565-BX","2018/10/04 18:49:16","新北市中和區捷運路129號","121.507063333333","24.9908016666667","6500300","中和區"
"235054","640-BX","2018/10/04 18:49:00","新北市中和區民享街68巷2號","121.473906666667","25.0019516666667","6500300","中和區"
"235047","732-UM","2018/10/04 18:49:11","新北市中和區興南路二段92號","121.505256666667","24.98451","6500300","中和區"
"235046","733-UM","2018/10/04 18:49:13","新北市中和區仁愛街36巷45號","121.511273333333","24.9866333333333","6500300","中和區"
"235071","783-BX","2018/10/04 18:49:15","新北市中和區員山路36巷16-3號","121.485156666667","24.9912116666667","6500300","中和區"
"235062","800-TS","2018/10/04 18:48:58","新北市中和區中山路二段312巷33弄29號","121.494726666667","25.004385","6500300","中和區"
"235057","801-TS","2018/10/04 18:49:12","新北市中和區民安街23號","121.480406666667","25.0005183333333","6500300","中和區"
"235041","802-TS","2018/10/04 18:49:03","新北市中和區宜安路118巷16號","121.510745","24.998575","6500300","中和區"
"235052","805-TS","2018/10/04 18:49:10","新北市中和區興南路二段399巷98弄40號","121.499821666667","24.9773033333333","6500300","中和區"
"235048","896-TW","2018/10/04 18:49:06","新北市中和區華新街2-6號","121.507485","24.98511","6500300","中和區"
"235053","911-UM","2018/10/04 18:49:05","新北市中和區華福街49號","121.46649","24.9966766666667","6500300","中和區"
"235051","157-BY","2018/10/04 18:49:14","新北市中和區忠孝街106巷52號","121.513596666667","24.9842366666667","6500300","中和區"
"235037","AAC-213","2018/10/04 18:49:15","新北市中和區秀朗路三段128巷1弄2號","121.524608333333","24.9924216666667","6500300","中和區"
"235059","AAC-215","2018/10/04 18:49:15","新北市中和區錦和路408號","121.490985","24.9895816666667","6500300","中和區"
"220065","072-UY","2018/10/04 18:49:08","新北市板橋區民族路151巷52號","121.470108333333","25.008425","6500100","板橋區"
"220086","073-UY","2018/10/04 18:49:10","新北市板橋區大智街62號","121.45419","25.0154933333333","6500100","板橋區"
"220106","075-UY","2018/10/04 18:49:03","新北市板橋區民生路二段161巷9號","121.470305","25.0196466666667","6500100","板橋區"
"220069","AAD-861","2018/10/04 18:49:11","新北市板橋區大華街11號","121.458938333333","25.0061716666667","6500100","板橋區"
"226004","312-R5","2018/10/04 18:48:09","新北市平溪區平溪里三坑路38號","121.734001666667","25.031415","6502400","平溪區"
"235043","251-BX","2018/10/04 18:49:17","新北市中和區成功路139號","121.525865","24.9906366666667","6500300","中和區"
"228003","097-TW","2018/10/04 18:49:12","新北市貢寮區和美里龍洞街42號","121.913138333333","25.1127533333333","6502600","貢寮區"
"228001","212-TW","2018/10/04 18:49:12","新北市貢寮區仁理村保健街73號","121.92374","25.0516483333333","6502600","貢寮區"
"228002","663-BX","2018/10/04 18:49:04","新北市貢寮區福隆里東興街6-11號","121.950793333333","25.0210916666667","6502600","貢寮區"
"224010","AGQ-8101","2018/10/04 18:44:33","新北市瑞芳區金光路372號","121.849016666667","25.1110166666667","6501200","瑞芳區"
"224006","676-BX","2018/10/04 18:49:04","新北市瑞芳區中正路65號","121.806096666667","25.107465","6501200","瑞芳區"
"224002","639-TC","2018/10/04 18:49:16","新北市瑞芳區靜安路四段26號","121.798675","25.08952","6501200","瑞芳區"
"224008","285-BY","2018/10/04 18:49:04","新北市瑞芳區逢甲路277號","121.801531666667","25.112015","6501200","瑞芳區"
"224007","275-VK","2018/10/04 18:49:04","新北市瑞芳區大埔路東泰新村3號","121.761233333333","25.1012116666667","6501200","瑞芳區"
"224009","273-VK","2018/10/04 18:49:07","新北市瑞芳區山尖路54號","121.855595","25.1146066666667","6501200","瑞芳區"
"224005","271-BY","2018/10/04 18:49:04","新北市瑞芳區濱二路56-1號","121.831858333333","25.118285","6501200","瑞芳區"
"227010","400-TW","2018/10/04 18:49:03","新北市雙溪區牡丹里聖南10-3號","121.860716666667","25.0496083333333","6502500","雙溪區"
"227004","030-BX","2018/10/04 18:49:01","新北市雙溪區平林里梅竹蹊28號","121.86164","25.0360116666667","6502500","雙溪區"
"253006","032-BX","2018/10/04 18:48:46","新北市石門區下員坑15號","121.511703333333","25.2846366666667","6502200","石門區"
"253005","295-VK","2018/10/04 18:49:09","新北市石門區中山路28-3號","121.565746666667","25.28987","6502200","石門區"
"222001","KEA-2212","2018/10/04 18:49:18","新北市深坑區松柏街30巷1號","121.638711666667","25.0112616666667","6501800","深坑區"
"208002","KEA-2872","2018/10/04 18:48:58","新北市金山區信義路62號","121.635636666667","25.219005","6502700","金山區"
"208003","665-BX","2018/10/04 18:49:07","新北市金山區中山路342號","121.633478333333","25.2253083333333","6502700","金山區"
"208001","761-BX","2018/10/04 18:49:12","新北市金山區文化三路66巷1號","121.634125","25.22565","6502700","金山區"
"251009","008-UM","2018/10/04 18:49:10","新北市淡水區重建街181號","121.440801666667","25.1741716666667","6501000","淡水區"
"251005","010-UM","2018/10/04 18:49:11","新北市淡水區中正路18巷6號","121.437628333333","25.172845","6501000","淡水區"
"251013","KEA-2871","2018/10/04 18:48:59","新北市淡水區頂田寮路1111號","121.491295","25.2124","6501000","淡水區"
"251016","179-VK","2018/10/04 18:49:03","新北市淡水區下圭柔山71-3號","121.447035","25.20627","6501000","淡水區"
"251015","180-VK","2018/10/04 18:49:17","新北市淡水區興福寮66巷16號","121.486781666667","25.1622866666667","6501000","淡水區"
"251010","413-VK","2018/10/04 18:49:18","新北市淡水區沙崙路122號","121.423325","25.182745","6501000","淡水區"
"251012","441-VK","2018/10/04 18:48:58","新北市淡水區中山北路一段245號","121.444635","25.1799333333333","6501000","淡水區"
"251007","442-VK","2018/10/04 18:49:10","新北市淡水區中正東路二段143巷2弄1號","121.460615","25.1473316666667","6501000","淡水區"
"251004","443-VK","2018/10/04 18:49:04","新北市淡水區民權路41號","121.460501666667","25.14031","6501000","淡水區"
"251001","559-UM","2018/10/04 18:49:16","新北市淡水區自強路299號","121.461623333333","25.13149","6501000","淡水區"
"251011","650-BX","2018/10/04 18:49:05","新北市淡水區學府路61號","121.448285","25.1694533333333","6501000","淡水區"
"251002","672-BX","2018/10/04 18:49:17","新北市淡水區學府路63號","121.448255","25.1696183333333","6501000","淡水區"
"251003","766-UM","2018/10/04 18:49:05","新北市淡水區中山北路一段212巷38號","121.446176666667","25.1789816666667","6501000","淡水區"
"207003","681-TV","2018/10/04 18:49:07","新北市萬里區野柳里八斗60號","121.660398333333","25.207175","6502800","萬里區"
"207004","225-TW","2018/10/04 18:49:03","新北市萬里區萬里里獅頭路23號","121.693326666667","25.1782416666667","6502800","萬里區"
"252002","178-VK","2018/10/04 18:49:15","新北市三芝區中正路一段112號","121.504856666667","25.2563783333333","6502100","三芝區"
"252003","249-BX","2018/10/04 18:49:06","新北市三芝區後厝里大片頭81-1號","121.459126666667","25.2445766666667","6502100","三芝區"
"252001","292-VK","2018/10/04 18:49:08","新北市三芝區中正路三段9號","121.502861666667","25.2539716666667","6502100","三芝區"
"237004","KEA-2597","2018/10/04 18:49:11","新北市三峽區有木300號","121.422075","24.8625366666667","6500900","三峽區"
"237007","153-BY","2018/10/04 18:49:16","新北市三峽區大埔路66號","121.36645","24.9077233333333","6500900","三峽區"
"237009","210-TH","2018/10/04 18:49:18","新北市三峽區民權街153-1號","121.368418333333","24.9313366666667","6500900","三峽區"
"237013","252-BX","2018/10/04 18:48:57","新北市三峽區光明路69巷25號","121.37656","24.9291516666667","6500900","三峽區"
"237012","275-BY","2018/10/04 18:49:02","新北市樹林區佳園路三段558號","121.38034","24.9437966666667","6500900","三峽區"
"237008","302-VK","2018/10/04 18:49:13","新北市三峽區白雞33-58號","121.370656666667","24.913225","6500900","三峽區"
"237014","433-BY","2018/10/04 18:49:06","新北市三峽區復興路480巷32-2號","121.359733333333","24.939815","6500900","三峽區"
"237006","5529-G3","2018/10/04 18:49:03","新北市三峽區溪東路315巷94號","121.411773333333","24.931685","6500900","三峽區"
"237011","KEA-2596","2018/10/04 18:49:01","新北市三峽區溪東路305號","121.409561666667","24.9309983333333","6500900","三峽區"
"237016","649-BX","2018/10/04 18:49:09","新北市三峽區建安96號","121.45572","24.9237883333333","6500900","三峽區"
"237010","706-TV","2018/10/04 18:49:05","新北市三峽區復興路329號","121.364618333333","24.9388133333333","6500900","三峽區"
"237005","AKY-6261","2018/10/04 18:49:09","新北市三峽區中山路459巷163-3號","121.349158333333","24.9334466666667","6500900","三峽區"
"236070","105-UM","2018/10/04 18:49:12","新北市土城區延和路19號","121.464333333333","24.98838","6501300","土城區"
"236042","107-UM","2018/10/04 18:49:10","新北市土城區裕民路92巷25弄11號","121.450146666667","24.98559","6501300","土城區"
"236078","166-UM","2018/10/04 18:49:12","新北市土城區中央路四段67巷24號","121.417656666667","24.9573933333333","6501300","土城區"
"236026","269-VK","2018/10/04 18:48:49","新北市土城區興城路38號","121.441851666667","24.9728933333333","6501300","土城區"
"236014","270-VK","2018/10/04 18:49:15","新北市土城區金城路二段354巷20號","121.460715","24.98406","6501300","土城區"
"236038","271-VK","2018/10/04 18:49:03","新北市土城區明德路一段221巷5號","121.463708333333","24.9781066666667","6501300","土城區"
"236021","401-BY","2018/10/04 18:49:13","新北市土城區延安街42-5號","121.467523333333","24.9852133333333","6501300","土城區"
"236030","752-BX","2018/10/04 18:48:33","新北市土城區千歲路1號","121.440903333333","24.97022","6501300","土城區"
"236059","912-UM","2018/10/04 18:49:09","新北市土城區金城路一段84號","121.444671666667","24.9733116666667","6501300","土城區"
"236049","913-UM","2018/10/04 18:49:13","新北市土城區青雲路11號","121.460338333333","24.989605","6501300","土城區"
"236063","915-UM","2018/10/04 18:49:09","新北市土城區金城路三段207巷6弄1號","121.470223333333","24.9900366666667","6501300","土城區"
"236055","AAC-216","2018/10/04 18:49:13","新北市土城區裕民路190號","121.452975","24.98504","6501300","土城區"
"242058","986-R7","2018/10/04 18:49:00","新北市新莊區中正路879-6號","121.417726666667","25.02618","6500500","新莊區"
"238023","601-UM","2018/10/04 18:49:03","新北市樹林區工興街14巷1號","121.398971666667","25.0136666666667","6500700","樹林區"
"238019","599-UM","2018/10/04 18:49:10","新北市樹林區東陽街3號","121.412661666667","24.982295","6500700","樹林區"
"238024","5061-A6","2018/10/04 18:48:59","新北市樹林區八德街372號","121.407388333333","24.96972","6500700","樹林區"
"238022","KEA-2213","2018/10/04 18:49:06","新北市樹林區中華路379巷66號","121.413691666667","24.977855","6500700","樹林區"
"238025","303-VK","2018/10/04 18:47:47","新北市樹林區中山路三段214號","121.380103333333","24.9679416666667","6500700","樹林區"
"238020","268-VK","2018/10/04 18:49:10","新北市樹林區俊英街282號","121.423735","25.0133233333333","6500700","樹林區"
"238026","172-UY","2018/10/04 18:49:12","新北市樹林區信和街12號","121.3908","24.9727733333333","6500700","樹林區"
"238016","169-UY","2018/10/04 18:49:12","新北市樹林區文化街28-1號","121.419191666667","24.9878666666667","6500700","樹林區"
"239007","AAC-297","2018/10/04 18:49:11","新北市鶯歌區中正一路建德二巷2號","121.363946666667","24.956505","6500800","鶯歌區"
"239008","527-UM","2018/10/04 18:49:17","新北市鶯歌區國際一路179號","121.336255","24.9765216666667","6500800","鶯歌區"
"239005","526-UM","2018/10/04 18:49:15","新北市鶯歌區鳳吉二街84號","121.327176666667","24.97401","6500800","鶯歌區"
"239001","417-VK","2018/10/04 18:49:05","新北市鶯歌區鶯桃路66號","121.340535","24.9532666666667","6500800","鶯歌區"
"239003","360-BY","2018/10/04 18:49:11","新北市鶯歌區鶯桃路658巷135號","121.332791666667","24.9713733333333","6500800","鶯歌區"
"239004","193-VK","2018/10/04 18:49:06","新北市鶯歌區國中街178號","121.338305","24.93932","6500800","鶯歌區"
"221008","489-VK","2018/10/04 18:48:59","新北市汐止區康寧街901號","121.651471666667","25.0749783333333","6501100","汐止區"
"221036","130-UY","2018/10/04 18:49:14","新北市汐止區南昌街2巷15號","121.6629","25.0686133333333","6501100","汐止區"
"221015","131-UY","2018/10/04 18:49:00","新北市汐止區長安路17號","121.667443333333","25.07821","6501100","汐止區"
"221010","269-BY","2018/10/04 18:49:08","新北市汐止區汐萬路一段343巷13弄14號","121.649998333333","25.076445","6501100","汐止區"
"221012","278-VK","2018/10/04 18:49:06","新北市汐止區康寧街901號","121.650808333333","25.0752566666667","6501100","汐止區"
"221023","279-VK","2018/10/04 18:49:12","新北市汐止區康寧街753巷2弄8號","121.639361666667","25.0739266666667","6501100","汐止區"
"221032","280-BY","2018/10/04 18:49:03","新北市汐止區橫科路52巷9弄5號","121.619533333333","25.0501833333333","6501100","汐止區"
"221027","281-BY","2018/10/04 18:49:06","新北市汐止區汐萬路一段256巷3號","121.652473333333","25.0745666666667","6501100","汐止區"
"221029","298-VK","2018/10/04 18:49:06","新北市汐止區樟樹一路2巷57號","121.641488333333","25.06279","6501100","汐止區"
"221021","299-VK","2018/10/04 18:49:05","新北市汐止區新台五路一段151號","121.653521666667","25.06223","6501100","汐止區"
"221031","353-TW","2018/10/04 18:49:03","新北市汐止區福德一路298號","121.63128","25.0633333333333","6501100","汐止區"
"221035","622-UM","2018/10/04 18:49:16","新北市汐止區大同路二段264號","121.6545","25.0661016666667","6501100","汐止區"
"221025","623-UM","2018/10/04 18:49:00","新北市汐止區仁愛路113巷26號","121.661763333333","25.06432","6501100","汐止區"
"221038","646-BX","2018/10/04 18:49:00","新北市汐止區康寧街901號","121.650738333333","25.0753133333333","6501100","汐止區"
"221002","707-TV","2018/10/04 18:49:10","新北市汐止區大同路一段149號","121.632081666667","25.0561383333333","6501100","汐止區"
"221018","753-BX","2018/10/04 18:49:15","新北市汐止區茄苳路216號","121.670746666667","25.06874","6501100","汐止區"
"220079","145-BY","2018/10/04 18:49:11","新北市板橋區民權路202巷7弄2號","121.460068333333","25.0147666666667","6500100","板橋區"
"220080","200-UY","2018/10/04 18:49:03","新北市板橋區大觀路二段265巷3弄9號","121.443233333333","24.998255","6500100","板橋區"
"220082","610-BX","2018/10/04 18:49:16","新北市板橋區篤行路三段71號","121.427291666667","24.9854933333333","6500100","板橋區"
"220103","257-TC","2018/10/04 18:49:10","新北市板橋區民生路二段120號","121.470491666667","25.019535","6500100","板橋區"
"220056","276-BY","2018/10/04 18:49:01","新北市土城區四川路23號","121.455161666667","24.9958633333333","6500100","板橋區"
"220072","277-BY","2018/10/04 18:49:14","新北市板橋區大觀路三段36巷84號","121.434561666667","24.99745","6500100","板橋區"
"220094","283-UM","2018/10/04 18:48:56","新北市板橋區民生路二段161巷1號","121.470151666667","25.0198283333333","6500100","板橋區"
"220071","283-VK","2018/10/04 18:49:05","新北市板橋區忠孝路103號","121.462511666667","25.0023966666667","6500100","板橋區"
"220053","285-VK","2018/10/04 18:48:59","新北市板橋區介壽街119號","121.470506666667","25.0186633333333","6500100","板橋區"
"220083","286-VK","2018/10/04 18:48:56","新北市板橋區僑中二街108巷1號","121.44584","25.0072416666667","6500100","板橋區"
"220081","287-VK","2018/10/04 18:49:14","新北市板橋區光華街13巷6號","121.453888333333","25.0115466666667","6500100","板橋區"
"220090","288-VK","2018/10/04 18:49:04","新北市板橋區民生路二段120號","121.470393333333","25.0197833333333","6500100","板橋區"
"220061","293-UM","2018/10/04 18:48:58","新北市板橋區民生路二段123號","121.470613333333","25.01867","6500100","板橋區"
"220068","295-UM","2018/10/04 18:48:57","新北市板橋區三民路一段31巷39號","121.480711666667","25.02328","6500100","板橋區"
"220084","296-UM","2018/10/04 18:49:16","新北市板橋區大觀路二段150巷60-1號","121.441525","25.00057","6500100","板橋區"
"220097","299-UM","2018/10/04 18:49:10","新北市板橋區民生路二段120號","121.470321666667","25.01975","6500100","板橋區"
"220075","303-R5","2018/10/04 18:49:09","新北市板橋區館前西路152號","121.45537","25.00844","6500100","板橋區"
"220062","305-R5","2018/10/04 18:49:03","新北市板橋區中山路二段25號","121.472481666667","25.01533","6500100","板橋區"
"220098","317-R6","2018/10/04 18:49:11","新北市板橋區民生路二段161巷9號","121.470316666667","25.0196516666667","6500100","板橋區"
"220089","487-VK","2018/10/04 18:49:00","新北市板橋區民生路二段161巷1號","121.469911666667","25.0201266666667","6500100","板橋區"
"220088","491-VK","2018/10/04 18:49:11","新北市板橋區民生路二段161巷1號","121.47014","25.0200316666667","6500100","板橋區"
"220035","560-BX","2018/10/04 18:49:02","新北市板橋區中正路325巷41號","121.453415","25.019325","6500100","板橋區"
"220063","609-BX","2018/10/04 18:49:07","新北市板橋區民生路二段5號","121.472918333333","25.0157716666667","6500100","板橋區"
"220057","686-BX","2018/10/04 18:49:08","新北市板橋區館前西路49號","121.457803333333","25.0066233333333","6500100","板橋區"
"220077","687-BX","2018/10/04 18:49:00","新北市板橋區龍興街103巷1號","121.444485","25.0032933333333","6500100","板橋區"
"220093","689-BX","2018/10/04 18:47:02","新北市板橋區民生路二段171號","121.469741666667","25.0200416666667","6500100","板橋區"
"220054","741-BX","2018/10/04 18:49:10","新北市板橋區後埔街17號","121.460426666667","25.00671","6500100","板橋區"
"220102","KEA-2699","2018/10/04 18:48:59","新北市板橋區民生路二段161巷1號","121.470133333333","25.0200216666667","6500100","板橋區"
"220064","806-UM","2018/10/04 18:49:15","新北市板橋區民生路二段36-1號","121.472105","25.0168","6500100","板橋區"
"220055","827-TW","2018/10/04 18:49:05","新北市板橋區縣民大道一段314號","121.46114","25.0101233333333","6500100","板橋區"
"220067","830-TW","2018/10/04 18:49:16","新北市板橋區三民路二段正隆巷48號","121.476916666667","25.014145","6500100","板橋區"
"220074","895-R6","2018/10/04 18:49:09","新北市板橋區館前西路150-1號","121.455445","25.0084133333333","6500100","板橋區"
"220073","985-R7","2018/10/04 18:49:16","新北市板橋區館前西路225號","121.454483333333","25.0086483333333","6500100","板橋區"
"220070","AAC-253","2018/10/04 18:49:06","新北市板橋區館前西路4-1號","121.459148333333","25.0071083333333","6500100","板橋區"
"235068","KEA-2873","2018/10/04 18:49:15","新北市中和區中正路211巷8號","121.497028333333","24.9932316666667","6500300","中和區"
"235061","KEA-2875","2018/10/04 18:49:07","新北市中和區民享街40號","121.47385","25.002865","6500300","中和區"
"235060","KEA-2876","2018/10/04 18:49:09","新北市中和區中山路三段209號","121.472018333333","25.0064566666667","6500300","中和區"
