"lineid","car","time","location","longitude","latitude","cityid","cityname"
"234046","148-BY","2018/10/04 18:59:01","新北市永和區得和路373巷31弄2號","121.525031666667","25.0005","6500400","永和區"
"234007","207-UY","2018/10/04 18:59:05","新北市永和區中山路一段50號","121.51322","25.0106166666667","6500400","永和區"
"234081","298-R6","2018/10/04 18:59:13","新北市永和區永貞路39巷13號","121.522375","25.0064083333333","6500400","永和區"
"234038","336-UY","2018/10/04 18:59:07","新北市中和區秀朗路三段38號","121.526518333333","24.9958733333333","6500400","永和區"
"234064","337-UY","2018/10/04 18:59:10","新北市永和區秀朗路一段138號","121.517928333333","25.00345","6500400","永和區"
"234086","338-UY","2018/10/04 18:59:06","新北市永和區中正路397號","121.517258333333","25.00414","6500400","永和區"
"234070","552-UM","2018/10/04 18:59:03","新北市永和區中興街84巷8號","121.518525","25.0116166666667","6500400","永和區"
"234017","745-BX","2018/10/04 18:59:09","新北市永和區永和路二段299號","121.51605","25.0161066666667","6500400","永和區"
"234030","746-BX","2018/10/04 18:59:14","新北市永和區秀朗路二段269號","121.526178333333","24.9986166666667","6500400","永和區"
"234054","KEA-2590","2018/10/04 18:59:14","新北市永和區竹林路66巷15-7號","121.518313333333","25.013235","6500400","永和區"
"234013","KEA-2591","2018/10/04 18:59:01","新北市永和區信義路17巷9弄1號","121.513858333333","25.0116333333333","6500400","永和區"
"234061","AAD-866","2018/10/04 18:59:13","新北市永和區福和路309巷1號","121.516353333333","25.0070416666667","6500400","永和區"
"234042","862-TW","2018/10/04 18:59:09","新北市永和區永貞路306號","121.511891666667","25.00487","6500400","永和區"
"234050","863-TW","2018/10/04 18:59:12","新北市永和區保安路36號","121.510416666667","25.01699","6500400","永和區"
"234026","9371-KE","2018/10/04 18:59:19","新北市永和區安樂路451號","121.51431","25.0049583333333","6500400","永和區"
"234011","9373-KE","2018/10/04 18:59:12","新北市永和區文化路113巷31號","121.513163333333","25.0136916666667","6500400","永和區"
"249005","172-UM","2018/10/04 18:59:15","新北市八里區長道坑13-1號","121.394873333333","25.12273","6502300","八里區"
"249001","173-UM","2018/10/04 18:59:13","新北市八里區龍米路二段192號","121.433816666667","25.1584683333333","6502300","八里區"
"248016","026-BX","2018/10/04 18:59:17","新北市五股區成泰路三段543巷16號","121.450946666667","25.1022483333333","6501500","五股區"
"248006","077-UY","2018/10/04 18:59:07","新北市五股區中興路一段56號","121.467808333333","25.072655","6501500","五股區"
"248008","095-VK","2018/10/04 18:59:04","新北市五股區中興路一段118巷6弄1號","121.466191666667","25.0738866666667","6501500","五股區"
"248020","225-UY","2018/10/04 18:59:10","新北市五股區凌雲路三段田埔巷6號","121.433448333333","25.118795","6501500","五股區"
"248012","247-BX","2018/10/04 18:59:14","新北市五股區工商路38號","121.439533333333","25.0837983333333","6501500","五股區"
"248014","261-SL","2018/10/04 18:59:10","新北市五股區民義路一段87-3號","121.433718333333","25.0859433333333","6501500","五股區"
"248004","677-BX","2018/10/04 18:59:12","新北市五股區民義路二段116號","121.403588333333","25.1116916666667","6501500","五股區"
"248002","678-BX","2018/10/04 18:59:02","新北市五股區凌雲路一段88號","121.45065","25.101535","6501500","五股區"
"248010","682-TV","2018/10/04 18:59:13","新北市五股區水碓三路21號","121.429575","25.07083","6501500","五股區"
"234023","9380-KE","2018/10/04 18:59:13","新北市永和區竹林路39巷28弄39號","121.520068333333","25.0140566666667","6500400","永和區"
"234077","969-R7","2018/10/04 18:59:06","新北市永和區智光街22號","121.518018333333","24.9991933333333","6500400","永和區"
"234067","AAC-212","2018/10/04 18:59:16","新北市永和區自由街70-8號","121.513361666667","25.0054883333333","6500400","永和區"
"234003","AAC-295","2018/10/04 18:59:14","新北市永和區和平街28號","121.513373333333","25.0099616666667","6500400","永和區"
"244023","069-UM","2018/10/04 18:59:15","新北市林口區文林六街2-1號","121.370623333333","25.079755","6501700","林口區"
"244007","080-UY","2018/10/04 18:59:02","新北市林口區太平里4鄰20號","121.377663333333","25.116115","6501700","林口區"
"244019","403-UM","2018/10/04 18:59:15","新北市林口區麗園一街19號","121.3772","25.0688966666667","6501700","林口區"
"244013","KEA-2802","2018/10/04 18:59:15","新北市林口區麗園一街11巷11號","121.378781666667","25.07057","6501700","林口區"
"244017","485-VK","2018/10/04 18:59:12","新北市林口區公園路59-1號","121.36719","25.0689566666667","6501700","林口區"
"244011","701-TV","2018/10/04 18:59:06","新北市林口區仁愛路一段252號","121.394576666667","25.0759183333333","6501700","林口區"
"244025","837-TS","2018/10/04 18:59:11","新北市林口區南勢街196號","121.360415","25.0747833333333","6501700","林口區"
"243013","AAD-798","2018/10/04 18:59:10","新北市泰山區明志路三段206巷11號","121.423226666667","25.03759","6501600","泰山區"
"243009","297-R6","2018/10/04 18:58:57","新北市泰山區泰林路二段360號","121.428936666667","25.0636133333333","6501600","泰山區"
"243016","KEA-2801","2018/10/04 18:58:59","新北市泰山區明志路二段137號","121.42762","25.050675","6501600","泰山區"
"243015","421-VK","2018/10/04 18:59:08","新北市泰山區泰林路二段262號","121.431673333333","25.0623016666667","6501600","泰山區"
"243011","KEA-2215","2018/10/04 18:59:05","新北市泰山區明志路二段246-1號","121.427026666667","25.0481616666667","6501600","泰山區"
"243010","KEA-2216","2018/10/04 18:59:05","新北市泰山區辭修路30號","121.42896","25.0581533333333","6501600","泰山區"
"243012","646-TV","2018/10/04 18:59:11","新北市泰山區福興三街170號","121.432318333333","25.0570033333333","6501600","泰山區"
"243014","680-BX","2018/10/04 18:59:16","新北市泰山區泰林路二段595號","121.421665","25.0634483333333","6501600","泰山區"
"222003","436-BY","2018/10/04 18:59:03","新北市深坑區深南路51-1號","121.621283333333","25.0101633333333","6501800","深坑區"
"222002","659-BX","2018/10/04 18:59:09","新北市深坑區文山路一段33號","121.629331666667","25.0037933333333","6501800","深坑區"
"231059","001-UM","2018/10/04 18:59:01","新北市新店區安華路28-1號","121.519526666667","24.9608633333333","6500600","新店區"
"231041","002-UM","2018/10/04 18:59:07","新北市新店區環河路66號","121.536976666667","24.96302","6500600","新店區"
"231040","047-UY","2018/10/04 18:59:07","新北市新店區中央路9號","121.533373333333","24.9785316666667","6500600","新店區"
"231044","106-UY","2018/10/04 18:59:16","新北市新店區寶中路72號","121.547846666667","24.9806066666667","6500600","新店區"
"231046","107-UY","2018/10/04 18:59:00","新北市新店區直潭五街28號","121.53413","24.941595","6500600","新店區"
"231052","110-UY","2018/10/04 18:58:59","新北市新店區屈尺路48號","121.54774","24.9226516666667","6500600","新店區"
"231047","187-VK","2018/10/04 18:59:17","新北市新店區德正街27巷1號","121.544533333333","24.9713533333333","6500600","新店區"
"231062","188-VK","2018/10/04 18:59:05","新北市新店區安豐路58-2號","121.498923333333","24.9542483333333","6500600","新店區"
"231054","KEA-2219","2018/10/04 18:59:11","新北市新店區新店路13號","121.54036","24.9528083333333","6500600","新店區"
"231042","268-BY","2018/10/04 18:58:58","新北市新店區中正路82號","121.543683333333","24.9702633333333","6500600","新店區"
"231051","278-BY","2018/10/04 18:59:13","新北市新店區百忍街30號","121.533995","24.9757433333333","6500600","新店區"
"231050","AAD-862","2018/10/04 18:59:15","新北市新店區北宜路二段56巷1弄2號","121.549265","24.9509766666667","6500600","新店區"
"231058","3713-VJ","2018/10/04 18:59:09","新北市新店區中興路一段139號","121.542068333333","24.9635933333333","6500600","新店區"
"231066","4716-K9","2018/10/04 18:59:06","新北市新店區車子路10-4號","121.5049","24.9545666666667","6500600","新店區"
"231056","4715-K9","2018/10/04 18:58:59","新北市新店區民權路109號","121.53624","24.9820733333333","6500600","新店區"
"231067","4772-VM","2018/10/04 18:58:57","新北市新店區安康路一段222號","121.523761666667","24.9635466666667","6500600","新店區"
"231065","512-UM","2018/10/04 18:59:12","新北市新店區安祥路219號","121.476758333333","24.95551","6500600","新店區"
"231049","513-UM","2018/10/04 18:59:19","新北市新店區中正路454-5號","121.534426666667","24.979055","6500600","新店區"
"231063","616-UM","2018/10/04 18:59:05","新北市新店區安忠路57巷13號","121.513406666667","24.9574533333333","6500600","新店區"
"231045","617-UM","2018/10/04 18:59:07","新北市新店區光明街57號","121.538555","24.9603616666667","6500600","新店區"
"231061","619-UM","2018/10/04 18:59:10","新北市新店區安華路3號","121.519438333333","24.959815","6500600","新店區"
"231064","719-UM","2018/10/04 18:59:01","新北市新店區安一路一段1-1號","121.519551666667","24.9613966666667","6500600","新店區"
"231060","897-TW","2018/10/04 18:59:04","新北市新店區安忠路91巷2號","121.511353333333","24.9565266666667","6500600","新店區"
"231043","899-TW","2018/10/04 18:59:11","新北市新店區北新路二段2號","121.54262","24.970585","6500600","新店區"
"231055","AKT-0513","2018/10/04 18:59:08","新北市新店區中央一街2號","121.528826666667","24.9722916666667","6500600","新店區"
"241026","066-VK","2018/10/04 18:58:57","新北市三重區泉州街106號","121.4949","25.0537116666667","6500200","三重區"
"251014","742-BX","2018/10/04 18:59:08","新北市淡水區小中寮23-2號","121.489461666667","25.2298733333333","6501000","淡水區"
"241004","475-VK","2018/10/04 18:59:03","新北市三重區仁昌街30號","121.496638333333","25.0740616666667","6500200","三重區"
"235066","003-UY","2018/10/04 18:59:00","新北市中和區中山路二段131巷4號","121.502705","25.0025883333333","6500300","中和區"
"235064","005-UY","2018/10/04 18:59:08","新北市中和區泰和街36號","121.499288333333","25.0001316666667","6500300","中和區"
"235063","006-UY","2018/10/04 18:59:02","新北市中和區錦和路105號","121.49018","24.99529","6500300","中和區"
"235056","096-UM","2018/10/04 18:58:59","新北市中和區員山路466巷21弄18號","121.48105","25.007005","6500300","中和區"
"235039","097-UM","2018/10/04 18:59:12","新北市中和區安樂路217巷20弄14號","121.513485","24.99898","6500300","中和區"
"235065","098-UM","2018/10/04 18:59:16","新北市中和區福祥路131號","121.49849","25.00724","6500300","中和區"
"235040","150-BY","2018/10/04 18:58:50","新北市中和區保健路106巷53號","121.51169","24.9950683333333","6500300","中和區"
"235058","151-BY","2018/10/04 18:59:14","新北市中和區員山路147號","121.48109","24.996255","6500300","中和區"
"235055","183-VK","2018/10/04 18:59:14","新北市中和區民德路23號","121.469036666667","25.0026883333333","6500300","中和區"
"235038","185-VK","2018/10/04 18:59:00","新北市中和區立人街24-5號","121.518885","24.9942","6500300","中和區"
"235049","186-VK","2018/10/04 18:59:14","新北市中和區景安路167巷23號","121.506601666667","24.9950016666667","6500300","中和區"
"235067","255-BX","2018/10/04 18:59:01","新北市中和區中正路751巷3弄1號","121.484393333333","24.9996733333333","6500300","中和區"
"235044","293-VK","2018/10/04 18:59:10","新北市中和區中興街161巷3弄2號","121.5006","24.99091","6500300","中和區"
"235072","301-VK","2018/10/04 18:59:03","新北市中和區中山路二段201號","121.499691666667","25.0026833333333","6500300","中和區"
"235042","KEA-2878","2018/10/04 18:59:12","新北市中和區秀朗路三段22巷6號","121.525996666667","24.99637","6500300","中和區"
"247012","KEA-2869","2018/10/04 18:59:06","新北市五股區中直路9號","121.427571666667","25.1092016666667","6501400","蘆洲區"
"235050","4979-A6","2018/10/04 18:59:03","新北市中和區忠孝街58巷7號","121.512066666667","24.9833983333333","6500300","中和區"
"235069","4980-A6","2018/10/04 18:59:17","新北市中和區圓通路107號","121.499485","24.996645","6500300","中和區"
"235070","558-UM","2018/10/04 18:59:14","新北市中和區中和路180號","121.504856666667","24.999655","6500300","中和區"
"235045","565-BX","2018/10/04 18:58:55","新北市中和區景新街467巷20弄7號","121.514308333333","24.9880383333333","6500300","中和區"
"235054","640-BX","2018/10/04 18:59:00","新北市中和區中山路三段142號","121.473791666667","25.0062616666667","6500300","中和區"
"235047","732-UM","2018/10/04 18:59:02","新北市中和區興南路二段34巷25號","121.50607","24.9861733333333","6500300","中和區"
"235046","733-UM","2018/10/04 18:59:13","新北市中和區興南路一段135巷22弄2號","121.509135","24.9869066666667","6500300","中和區"
"235071","783-BX","2018/10/04 18:59:15","新北市中和區員山路36巷16-3號","121.485151666667","24.9912116666667","6500300","中和區"
"235062","800-TS","2018/10/04 18:59:10","新北市中和區中山路二段356號","121.492738333333","25.0029133333333","6500300","中和區"
"235057","801-TS","2018/10/04 18:59:12","新北市中和區民利街40巷3弄11號","121.47888","24.9990933333333","6500300","中和區"
"235041","802-TS","2018/10/04 18:59:03","新北市中和區安平路145巷12號","121.511598333333","24.9983583333333","6500300","中和區"
"235052","805-TS","2018/10/04 18:59:10","新北市中和區興南路二段256號","121.502938333333","24.981765","6500300","中和區"
"235048","896-TW","2018/10/04 18:59:06","新北市中和區華新街109巷16號","121.508701666667","24.98103","6500300","中和區"
"235053","911-UM","2018/10/04 18:59:05","新北市中和區壽德街20-1號","121.466186666667","24.994895","6500300","中和區"
"235051","157-BY","2018/10/04 18:59:14","新北市中和區忠孝街19巷14號","121.510115","24.9832466666667","6500300","中和區"
"235037","AAC-213","2018/10/04 18:59:15","新北市中和區自立路31號","121.522105","24.9957233333333","6500300","中和區"
"235059","AAC-215","2018/10/04 18:59:15","新北市中和區圓通路369巷2-2號","121.491043333333","24.9892983333333","6500300","中和區"
"220065","072-UY","2018/10/04 18:59:08","新北市板橋區漢生東路342號","121.471931666667","25.0075166666667","6500100","板橋區"
"220086","073-UY","2018/10/04 18:59:10","新北市板橋區中正路252號","121.455578333333","25.0192733333333","6500100","板橋區"
"220106","075-UY","2018/10/04 18:59:07","新北市板橋區文化路二段124巷24號","121.471156666667","25.025705","6500100","板橋區"
"220069","AAD-861","2018/10/04 18:59:11","新北市板橋區華興街87號","121.456731666667","25.0051916666667","6500100","板橋區"
"226004","312-R5","2018/10/04 18:59:09","新北市平溪區平溪里平溪街22號","121.738828333333","25.0253783333333","6502400","平溪區"
"235043","251-BX","2018/10/04 18:59:17","新北市中和區成功路3號","121.526393333333","24.9942083333333","6500300","中和區"
"228003","097-TW","2018/10/04 18:59:12","新北市貢寮區和美里龍洞街60號","121.914263333333","25.1162866666667","6502600","貢寮區"
"228001","212-TW","2018/10/04 18:59:12","新北市貢寮區仁理村研海街12-1號","121.923758333333","25.0516433333333","6502600","貢寮區"
"228002","663-BX","2018/10/04 18:59:04","新北市貢寮區福隆里東興街106巷25弄1號","121.946448333333","25.01833","6502600","貢寮區"
"224010","AGQ-8101","2018/10/04 18:56:36","新北市瑞芳區基山街62號","121.845203333333","25.1092216666667","6501200","瑞芳區"
"224006","676-BX","2018/10/04 18:59:04","新北市瑞芳區中正路2號","121.808928333333","25.10714","6501200","瑞芳區"
"224002","639-TC","2018/10/04 18:58:56","新北市平溪區新寮里五分寮10-2號","121.799771666667","25.0740016666667","6501200","瑞芳區"
"224008","285-BY","2018/10/04 18:59:08","新北市瑞芳區逢甲路337號","121.800978333333","25.1122516666667","6501200","瑞芳區"
"224007","275-VK","2018/10/04 18:59:04","新北市瑞芳區中央路48巷180號","121.758416666667","25.102865","6501200","瑞芳區"
"224009","273-VK","2018/10/04 18:59:07","新北市瑞芳區洞頂路101巷45號","121.860595","25.1205516666667","6501200","瑞芳區"
"224005","271-BY","2018/10/04 18:59:04","新北市瑞芳區豎崎路32-5號","121.823763333333","25.1209916666667","6501200","瑞芳區"
"227010","400-TW","2018/10/04 18:59:03","新北市雙溪區牡丹里中正路58巷6號","121.866308333333","25.0410716666667","6502500","雙溪區"
"227004","030-BX","2018/10/04 18:59:01","新北市雙溪區平林里康福家園10號","121.858818333333","25.03733","6502500","雙溪區"
"253006","032-BX","2018/10/04 18:59:05","新北市石門區八甲8-1號","121.521685","25.28193","6502200","石門區"
"253005","295-VK","2018/10/04 18:59:09","新北市石門區中央路10號","121.56674","25.2912066666667","6502200","石門區"
"222001","KEA-2212","2018/10/04 18:58:58","新北市深坑區北深路一段250號","121.629695","25.0087916666667","6501800","深坑區"
"208002","KEA-2872","2018/10/04 18:59:18","新北市金山區仁愛路67巷4號","121.634555","25.2209366666667","6502700","金山區"
"208003","665-BX","2018/10/04 18:59:11","新北市金山區中正路49號","121.634715","25.2220433333333","6502700","金山區"
"208001","761-BX","2018/10/04 18:59:12","新北市金山區中山路16號","121.64165","25.2176133333333","6502700","金山區"
"251009","008-UM","2018/10/04 18:59:10","新北市淡水區重建街81號","121.439828333333","25.17215","6501000","淡水區"
"251005","010-UM","2018/10/04 18:53:26","新北市淡水區中正路18巷6號","121.437623333333","25.1728366666667","6501000","淡水區"
"251013","KEA-2871","2018/10/04 18:58:59","新北市淡水區安子內12-1號","121.481535","25.2191233333333","6501000","淡水區"
"251016","179-VK","2018/10/04 18:59:03","新北市淡水區淡金路三段331巷8號","121.44847","25.206175","6501000","淡水區"
"251015","180-VK","2018/10/04 18:58:57","新北市淡水區糞箕湖60號","121.485208333333","25.1723683333333","6501000","淡水區"
"251010","413-VK","2018/10/04 18:58:58","新北市淡水區淡海路111號","121.421826666667","25.182695","6501000","淡水區"
"251007","442-VK","2018/10/04 18:59:10","新北市淡水區民生路113巷1弄42號","121.462961666667","25.1387433333333","6501000","淡水區"
"251004","443-VK","2018/10/04 18:59:04","新北市淡水區中正東路二段143巷2弄1號","121.460556666667","25.1473233333333","6501000","淡水區"
"251001","559-UM","2018/10/04 18:59:09","新北市淡水區自強路58號","121.463205","25.127455","6501000","淡水區"
"251011","650-BX","2018/10/04 18:59:05","新北市淡水區中正東路二段143巷2弄1號","121.46077","25.1474466666667","6501000","淡水區"
"251002","672-BX","2018/10/04 18:59:17","新北市淡水區中正東路49號","121.446676666667","25.16793","6501000","淡水區"
"251003","766-UM","2018/10/04 18:59:05","新北市淡水區中山北路一段149巷28號","121.442973333333","25.1781766666667","6501000","淡水區"
"207003","681-TV","2018/10/04 18:59:07","新北市萬里區大鵬里頂社27號","121.6566","25.2108116666667","6502800","萬里區"
"207004","225-TW","2018/10/04 18:59:03","新北市萬里區萬里里獅頭路23號","121.693341666667","25.1782533333333","6502800","萬里區"
"252002","178-VK","2018/10/04 18:59:15","新北市三芝區中正路一段68號","121.503723333333","25.2578733333333","6502100","三芝區"
"252003","249-BX","2018/10/04 18:59:06","新北市三芝區後厝里北勢子41-7號","121.472618333333","25.25297","6502100","三芝區"
"252001","292-VK","2018/10/04 18:59:08","新北市三芝區中興街二段260號","121.501706666667","25.2530866666667","6502100","三芝區"
"237004","KEA-2597","2018/10/04 18:59:11","新北市三峽區有木181號","121.445426666667","24.8334516666667","6500900","三峽區"
"237007","153-BY","2018/10/04 18:59:16","新北市三峽區中正路二段295號","121.365946666667","24.9109433333333","6500900","三峽區"
"237013","252-BX","2018/10/04 18:59:17","新北市三峽區光明路69巷25號","121.376611666667","24.9292466666667","6500900","三峽區"
"237012","275-BY","2018/10/04 18:59:02","新北市三峽區三樹路222巷196-38號","121.390018333333","24.9425666666667","6500900","三峽區"
"237008","302-VK","2018/10/04 18:59:13","新北市三峽區正義街100號","121.368766666667","24.9174116666667","6500900","三峽區"
"237014","433-BY","2018/10/04 18:59:06","新北市三峽區隆恩街158巷68號","121.365318333333","24.9456316666667","6500900","三峽區"
"237006","5529-G3","2018/10/04 18:59:03","新北市三峽區溪東路211巷18弄1-1號","121.406286666667","24.9344","6500900","三峽區"
"237011","KEA-2596","2018/10/04 18:59:01","新北市三峽區介壽路三段54-1號","121.395741666667","24.9371633333333","6500900","三峽區"
"237016","649-BX","2018/10/04 18:59:09","新北市三峽區建安80-2號","121.451418333333","24.9232433333333","6500900","三峽區"
"237010","706-TV","2018/10/04 18:59:05","新北市三峽區國光街350巷13號","121.371601666667","24.9400683333333","6500900","三峽區"
"237005","AKY-6261","2018/10/04 18:59:09","新北市三峽區中山路459巷163-3號","121.348763333333","24.9329383333333","6500900","三峽區"
"236070","105-UM","2018/10/04 18:59:12","新北市土城區金城路二段217號","121.454711666667","24.9818716666667","6501300","土城區"
"236042","107-UM","2018/10/04 18:59:08","新北市土城區學府路一段229巷3號","121.451448333333","24.9839216666667","6501300","土城區"
"236078","166-UM","2018/10/04 18:59:12","新北市土城區中央路四段448號","121.410538333333","24.9512766666667","6501300","土城區"
"236026","269-VK","2018/10/04 18:59:09","新北市土城區光明街35號","121.442131666667","24.9740766666667","6501300","土城區"
"236014","270-VK","2018/10/04 18:59:15","新北市土城區永豐路29巷6號","121.463345","24.9883916666667","6501300","土城區"
"236038","271-VK","2018/10/04 18:59:03","新北市土城區青仁路60號","121.461461666667","24.9793816666667","6501300","土城區"
"236021","401-BY","2018/10/04 18:59:06","新北市土城區延吉街168巷5弄1號","121.468181666667","24.985475","6501300","土城區"
"236030","752-BX","2018/10/04 18:59:16","新北市土城區中華路二段181號","121.438513333333","24.9749266666667","6501300","土城區"
"236059","912-UM","2018/10/04 18:59:09","新北市土城區金城路二段200號","121.454655","24.9816583333333","6501300","土城區"
"236049","913-UM","2018/10/04 18:59:13","新北市土城區青雲路318號","121.458775","24.97709","6501300","土城區"
"236063","915-UM","2018/10/04 18:59:09","新北市土城區金城路三段139巷11號","121.46781","24.9887316666667","6501300","土城區"
"236055","AAC-216","2018/10/04 18:59:03","新北市土城區學成路150號","121.448385","24.9894766666667","6501300","土城區"
"238023","601-UM","2018/10/04 18:59:03","新北市樹林區大慶街61號","121.39606","25.0136783333333","6500700","樹林區"
"238019","599-UM","2018/10/04 18:59:10","新北市樹林區東華街30號","121.41466","24.98214","6500700","樹林區"
"238022","KEA-2213","2018/10/04 18:59:06","新北市樹林區東興街2-1號","121.4092","24.9797183333333","6500700","樹林區"
"238021","KEA-2539","2018/10/04 18:57:43","新北市樹林區柑園街二段276巷28號","121.372236666667","24.95343","6500700","樹林區"
"238025","303-VK","2018/10/04 18:59:07","新北市樹林區中山路三段22號","121.395606666667","24.9729533333333","6500700","樹林區"
"238017","283-BY","2018/10/04 18:59:07","新北市樹林區中山路三段125-5號","121.398555","24.9740583333333","6500700","樹林區"
"238014","282-BY","2018/10/04 18:58:58","新北市樹林區潭興街143巷1-1號","121.425686666667","24.999835","6500700","樹林區"
"238020","268-VK","2018/10/04 18:59:10","新北市樹林區俊英街79號","121.426131666667","25.00755","6500700","樹林區"
"238026","172-UY","2018/10/04 18:59:12","新北市樹林區中和街11號","121.392036666667","24.9729116666667","6500700","樹林區"
"238016","169-UY","2018/10/04 18:59:12","新北市樹林區文化街23號","121.419221666667","24.9876616666667","6500700","樹林區"
"239007","AAC-297","2018/10/04 18:59:11","新北市鶯歌區中正一路303-2號","121.356378333333","24.9575283333333","6500800","鶯歌區"
"239006","891-R6","2018/10/04 18:59:13","新北市鶯歌區鶯桃路296巷55弄24號","121.33631","24.9618516666667","6500800","鶯歌區"
"239008","527-UM","2018/10/04 18:59:17","新北市鶯歌區國際二路70巷16號","121.335648333333","24.97592","6500800","鶯歌區"
"239005","526-UM","2018/10/04 18:59:15","新北市鶯歌區鳳吉一街120號","121.327691666667","24.9748116666667","6500800","鶯歌區"
"239001","417-VK","2018/10/04 18:59:05","新北市鶯歌區光明街232號","121.341508333333","24.95599","6500800","鶯歌區"
"239003","360-BY","2018/10/04 18:59:11","新北市鶯歌區鶯桃路393號","121.333333333333","24.9638566666667","6500800","鶯歌區"
"239004","193-VK","2018/10/04 18:59:06","新北市鶯歌區中正三路168號","121.333736666667","24.938625","6500800","鶯歌區"
"221008","489-VK","2018/10/04 18:58:59","新北市汐止區伯爵街2巷21號","121.642765","25.0755666666667","6501100","汐止區"
"221036","130-UY","2018/10/04 18:59:14","新北市汐止區連興街121號","121.653873333333","25.062415","6501100","汐止區"
"221015","131-UY","2018/10/04 18:59:00","新北市汐止區鄉長路一段37號","121.66531","25.074955","6501100","汐止區"
"221010","269-BY","2018/10/04 18:59:08","新北市汐止區康寧街901號","121.651565","25.0750083333333","6501100","汐止區"
"221012","278-VK","2018/10/04 18:59:06","新北市汐止區康寧街901號","121.650818333333","25.075265","6501100","汐止區"
"221023","279-VK","2018/10/04 18:59:12","新北市汐止區康寧街901號","121.651366666667","25.0750466666667","6501100","汐止區"
"221032","280-BY","2018/10/04 18:59:03","新北市汐止區橫科路407巷81弄5號","121.628863333333","25.048005","6501100","汐止區"
"221027","281-BY","2018/10/04 18:59:06","新北市汐止區康寧街901號","121.65083","25.0752616666667","6501100","汐止區"
"221029","298-VK","2018/10/04 18:59:06","新北市汐止區樟樹一路242號","121.642418333333","25.06694","6501100","汐止區"
"221021","299-VK","2018/10/04 18:59:05","新北市汐止區汐萬路一段256巷3號","121.652696666667","25.0744816666667","6501100","汐止區"
"221031","353-TW","2018/10/04 18:59:03","新北市汐止區福德二路156巷27號","121.630028333333","25.0654583333333","6501100","汐止區"
"221035","622-UM","2018/10/04 18:59:16","新北市汐止區中正路310號","121.65616","25.067955","6501100","汐止區"
"221025","623-UM","2018/10/04 18:59:00","新北市汐止區水源路一段3號","121.657121666667","25.0670866666667","6501100","汐止區"
"221038","646-BX","2018/10/04 18:59:00","新北市汐止區康寧街901號","121.650733333333","25.0753466666667","6501100","汐止區"
"221002","707-TV","2018/10/04 18:59:10","新北市汐止區大同路一段4號","121.621138333333","25.05501","6501100","汐止區"
"221018","753-BX","2018/10/04 18:59:03","新北市汐止區茄苳路3號","121.664668333333","25.0707633333333","6501100","汐止區"
"220079","145-BY","2018/10/04 18:59:13","新北市板橋區民權路202巷9弄4號","121.46029","25.015445","6500100","板橋區"
"220080","200-UY","2018/10/04 18:59:00","新北市板橋區大觀路二段37巷300號","121.450205","25.0020133333333","6500100","板橋區"
"220082","610-BX","2018/10/04 18:59:10","新北市板橋區滿平街135號","121.4289","24.9881816666667","6500100","板橋區"
"220101","245-BX","2018/10/04 18:59:05","新北市板橋區文化路二段182巷5弄2號","121.471656666667","25.0268216666667","6500100","板橋區"
"220103","257-TC","2018/10/04 18:59:10","新北市板橋區介壽街120號","121.469796666667","25.01774","6500100","板橋區"
"220091","267-BY","2018/10/04 18:59:17","新北市板橋區雙十路二段47巷52號","121.474753333333","25.0253283333333","6500100","板橋區"
"220056","276-BY","2018/10/04 18:59:18","新北市板橋區信義路147號","121.45825","24.9928433333333","6500100","板橋區"
"220072","277-BY","2018/10/04 18:59:14","新北市板橋區溪北路154號","121.430485","24.988285","6500100","板橋區"
"220094","283-UM","2018/10/04 18:59:17","新北市板橋區文化路二段76號","121.46938","25.02501","6500100","板橋區"
"220071","283-VK","2018/10/04 18:59:05","新北市板橋區重慶路247號","121.463368333333","25.0004966666667","6500100","板橋區"
"220053","285-VK","2018/10/04 18:58:59","新北市板橋區中山路二段147號","121.475556666667","25.0167066666667","6500100","板橋區"
"220083","286-VK","2018/10/04 18:59:16","新北市板橋區大觀路一段38巷158號","121.442275","25.0045833333333","6500100","板橋區"
"220081","287-VK","2018/10/04 18:59:15","新北市板橋區光華街19巷30號","121.453576666667","25.0120866666667","6500100","板橋區"
"220090","288-VK","2018/10/04 18:59:04","新北市板橋區四維路132號","121.465216666667","25.0252266666667","6500100","板橋區"
"220061","293-UM","2018/10/04 18:58:58","新北市板橋區富山街109巷112號","121.474845","25.02095","6500100","板橋區"
"220068","295-UM","2018/10/04 18:59:17","新北市板橋區中山路二段443巷82號","121.481056666667","25.0224883333333","6500100","板橋區"
"220084","296-UM","2018/10/04 18:59:16","新北市板橋區龍興街65巷1號","121.443341666667","25.0013283333333","6500100","板橋區"
"220097","299-UM","2018/10/04 18:59:10","新北市板橋區國光路212號","121.462133333333","25.0185766666667","6500100","板橋區"
"220075","303-R5","2018/10/04 18:59:09","新北市板橋區後菜園街30號","121.456766666667","25.0101783333333","6500100","板橋區"
"220062","305-R5","2018/10/04 18:59:03","新北市板橋區民享街56號","121.476173333333","25.01515","6500100","板橋區"
"220092","307-R5","2018/10/04 18:59:10","新北市板橋區文化路一段104巷1弄7-1號","121.465335","25.0179283333333","6500100","板橋區"
"220098","317-R6","2018/10/04 18:59:11","新北市板橋區民有街12號","121.466341666667","25.0247283333333","6500100","板橋區"
"220089","487-VK","2018/10/04 18:59:01","新北市板橋區文化路二段331號","121.472598333333","25.0303116666667","6500100","板橋區"
"220088","491-VK","2018/10/04 18:59:11","新北市板橋區民生路二段161巷1號","121.470275","25.02012","6500100","板橋區"
"220035","560-BX","2018/10/04 18:59:02","新北市板橋區中正路341巷8號","121.454518333333","25.0203933333333","6500100","板橋區"
"220063","609-BX","2018/10/04 18:59:07","新北市板橋區中山路二段161號","121.47586","25.0167433333333","6500100","板橋區"
"220057","686-BX","2018/10/04 18:59:08","新北市板橋區重慶路99號","121.462111666667","25.0055483333333","6500100","板橋區"
"220077","687-BX","2018/10/04 18:59:00","新北市板橋區大觀路二段142-1號","121.442655","24.9991866666667","6500100","板橋區"
"220093","689-BX","2018/10/04 18:59:02","新北市板橋區民生路三段66號","121.466978333333","25.0256333333333","6500100","板橋區"
"220054","741-BX","2018/10/04 18:59:10","新北市板橋區重慶路93巷47號","121.463398333333","25.006005","6500100","板橋區"
"220102","KEA-2699","2018/10/04 18:58:59","新北市板橋區萬板路570號","121.481166666667","25.0267116666667","6500100","板橋區"
"220064","806-UM","2018/10/04 18:59:15","新北市板橋區板新路139號","121.470326666667","25.0155183333333","6500100","板橋區"
"220055","827-TW","2018/10/04 18:59:05","新北市板橋區中山路一段158巷11號","121.46631","25.011485","6500100","板橋區"
"220067","830-TW","2018/10/04 18:59:16","新北市板橋區三民路二段正泰2巷15號","121.478056666667","25.0143783333333","6500100","板橋區"
"220096","831-TW","2018/10/04 18:59:16","新北市板橋區莒光路103號","121.472646666667","25.023975","6500100","板橋區"
"220074","895-R6","2018/10/04 18:59:09","新北市板橋區西門街59號","121.454471666667","25.00916","6500100","板橋區"
"220073","985-R7","2018/10/04 18:59:16","新北市板橋區民權路252號","121.458275","25.0147283333333","6500100","板橋區"
"220070","AAC-253","2018/10/04 18:59:06","新北市板橋區信義路13號","121.457028333333","24.9968366666667","6500100","板橋區"
"235068","KEA-2873","2018/10/04 18:59:14","新北市中和區圓通路265巷38號","121.49612","24.99246","6500300","中和區"
"235061","KEA-2875","2018/10/04 18:59:07","新北市中和區民治街130巷8號","121.474856666667","25.0025966666667","6500300","中和區"
"235060","KEA-2876","2018/10/04 18:59:09","新北市中和區民治街16號","121.475095","25.0044666666667","6500300","中和區"
