"lineid","car","time","location","longitude","latitude","cityid","cityname"
"234074","AAC-211","2018/10/04 20:49:18","新北市永和區竹林路75巷4弄34號","121.521683333333","25.0140483333333","6500400","永和區"
"222003","436-BY","2018/10/04 20:49:03","新北市深坑區文山路三段48-1號","121.609973333333","24.9985216666667","6501800","深坑區"
"222002","659-BX","2018/10/04 20:49:10","新北市深坑區北深路三段93巷41號","121.604535","25.0003983333333","6501800","深坑區"
"231059","001-UM","2018/10/04 20:49:20","新北市新店區僑信路132巷29號","121.499816666667","24.9453516666667","6500600","新店區"
"231040","047-UY","2018/10/04 20:49:07","新北市新店區中正路264號","121.539161666667","24.973525","6500600","新店區"
"231044","106-UY","2018/10/04 20:49:16","新北市新店區中正路367號","121.534881666667","24.9764483333333","6500600","新店區"
"231052","110-UY","2018/10/04 20:49:19","新北市新店區新烏路一段145-2號","121.546683333333","24.9364533333333","6500600","新店區"
"231047","187-VK","2018/10/04 20:49:16","新北市新店區寶元路一段109號","121.545911666667","24.983135","6500600","新店區"
"231062","188-VK","2018/10/04 20:49:05","新北市新店區和成街14巷2號","121.487906666667","24.94757","6500600","新店區"
"231054","KEA-2219","2018/10/04 20:49:11","新北市新店區北新路一段96巷23號","121.542936666667","24.9688983333333","6500600","新店區"
"231057","256-BX","2018/10/04 20:49:08","新北市新店區新烏路一段107號","121.54582","24.9403683333333","6500600","新店區"
"231042","268-BY","2018/10/04 20:49:18","新北市新店區寶高路120巷1號","121.55458","24.97603","6500600","新店區"
"231051","278-BY","2018/10/04 20:49:13","新北市新店區溪園路31號","121.53104","24.9885466666667","6500600","新店區"
"231050","AAD-862","2018/10/04 20:49:09","新北市新店區三民路20巷8號","121.537755","24.97082","6500600","新店區"
"231058","3713-VJ","2018/10/04 20:49:09","新北市新店區中央三街127號","121.523833333333","24.9767983333333","6500600","新店區"
"231066","4716-K9","2018/10/04 20:49:06","新北市新店區安興路105號","121.514703333333","24.9777533333333","6500600","新店區"
"231056","4715-K9","2018/10/04 20:49:19","新北市新店區安德街116巷26弄3號","121.508983333333","24.9620683333333","6500600","新店區"
"231067","4772-VM","2018/10/04 20:49:17","新北市新店區安華路8號","121.51983","24.9622233333333","6500600","新店區"
"231065","512-UM","2018/10/04 20:49:12","新北市新店區安祥路69巷19號","121.481908333333","24.9613033333333","6500600","新店區"
"231049","513-UM","2018/10/04 20:49:19","新北市新店區華城路2號","121.530481666667","24.9606066666667","6500600","新店區"
"231063","616-UM","2018/10/04 20:49:04","新北市新店區如意街31號","121.494058333333","24.9483633333333","6500600","新店區"
"231045","617-UM","2018/10/04 20:49:07","新北市新店區光明街314號","121.540791666667","24.965095","6500600","新店區"
"231061","619-UM","2018/10/04 20:49:10","新北市新店區新和街120號","121.521248333333","24.9865366666667","6500600","新店區"
"231068","718-UY","2018/10/04 20:49:09","新北市新店區中興路三段228巷28號","121.54471","24.9835","6500600","新店區"
"231064","719-UM","2018/10/04 20:49:03","新北市新店區安民街381號","121.516316666667","24.9764133333333","6500600","新店區"
"231060","897-TW","2018/10/04 20:49:04","新北市新店區錦秀路1號","121.479005","24.945965","6500600","新店區"
"231043","899-TW","2018/10/04 20:49:11","新北市新店區建國路82號","121.540551666667","24.9767416666667","6500600","新店區"
"241028","022-UY","2018/10/04 20:49:08","新北市三重區中正南路50號","121.49391","25.0599183333333","6500200","三重區"
"241008","059-VK","2018/10/04 20:49:02","新北市三重區永福街72巷11號","121.479418333333","25.07681","6500200","三重區"
"241022","060-VK","2018/10/04 20:49:12","新北市三重區過圳街27-5號","121.487895","25.06242","6500200","三重區"
"241031","061-VK","2018/10/04 20:49:20","新北市三重區重陽路一段113巷1弄1號","121.48746","25.0598183333333","6500200","三重區"
"241015","062-VK","2018/10/04 20:49:14","新北市三重區自強路一段8號","121.498865","25.068275","6500200","三重區"
"241017","063-VK","2018/10/04 20:49:05","新北市三重區民生街28號","121.491833333333","25.067155","6500200","三重區"
"241024","065-VK","2018/10/04 20:49:06","新北市三重區中正北路328號","121.478715","25.0692733333333","6500200","三重區"
"241026","066-VK","2018/10/04 20:49:17","新北市三重區和平街1號","121.50007","25.0623416666667","6500200","三重區"
"241002","090-VK","2018/10/04 20:49:19","新北市三重區仁義街211巷45號","121.497971666667","25.0825666666667","6500200","三重區"
"241003","091-VK","2018/10/04 20:46:09","新北市三重區進安街192號","121.49379","25.0865483333333","6500200","三重區"
"251014","742-BX","2018/10/04 20:49:08","新北市淡水區公埔子32-8號","121.46165","25.2323733333333","6501000","淡水區"
"241005","262-UM","2018/10/04 20:49:04","新北市三重區五華街141巷28號","121.492096666667","25.0855683333333","6500200","三重區"
"241011","265-UM","2018/10/04 20:49:13","新北市三重區龍濱路205巷2號","121.50217","25.07177","6500200","三重區"
"241016","266-UM","2018/10/04 20:49:18","新北市三重區正義北路204號","121.496238333333","25.0672483333333","6500200","三重區"
"241009","267-UM","2018/10/04 20:49:06","新北市三重區三和路四段388-2號","121.482025","25.0791416666667","6500200","三重區"
"241018","268-UM","2018/10/04 20:49:00","新北市三重區正義北路346號","121.49425","25.0710966666667","6500200","三重區"
"241032","269-UM","2018/10/04 20:49:02","新北市三重區興華街73號","121.484958333333","25.060215","6500200","三重區"
"241013","270-UM","2018/10/04 20:49:15","新北市三重區仁賢街4號","121.495623333333","25.07483","6500200","三重區"
"241025","271-UM","2018/10/04 20:49:07","新北市三重區貴陽街21號","121.484306666667","25.061865","6500200","三重區"
"241007","398-BY","2018/10/04 20:49:13","新北市三重區三和路四段145巷9號","121.484601666667","25.07832","6500200","三重區"
"241035","KEA-2210","2018/10/04 20:49:08","新北市三重區文化北路129號","121.497778333333","25.06893","6500200","三重區"
"241004","475-VK","2018/10/04 20:49:03","新北市三重區分子尾街7號","121.489578333333","25.0805083333333","6500200","三重區"
"241020","478-VK","2018/10/04 20:49:13","新北市三重區忠孝路一段101號","121.489426666667","25.0720583333333","6500200","三重區"
"241030","480-VK","2018/10/04 20:49:14","新北市三重區昌隆街26號","121.491935","25.05231","6500200","三重區"
"241014","543-UM","2018/10/04 20:49:14","新北市三重區萬全街69號","121.501356666667","25.0702466666667","6500200","三重區"
"241023","545-UM","2018/10/04 20:49:18","新北市三重區忠孝路三段84巷5號","121.480185","25.0643683333333","6500200","三重區"
"241006","AAD-863","2018/10/04 20:49:09","新北市三重區車路頭街139巷14號","121.4843","25.0761966666667","6500200","三重區"
"241019","743-BX","2018/10/04 20:49:05","新北市三重區自強路二段67巷16號","121.489108333333","25.070285","6500200","三重區"
"241001","887-TS","2018/10/04 20:49:09","新北市三重區自強路三段76巷16號","121.48603","25.0740666666667","6500200","三重區"
"241012","941-UM","2018/10/04 20:49:13","新北市三重區龍門路274巷45號","121.501191666667","25.0755566666667","6500200","三重區"
"241029","942-UM","2018/10/04 20:49:08","新北市三重區重安街18號","121.490346666667","25.058155","6500200","三重區"
"241033","AAC-255","2018/10/04 20:49:21","新北市三重區光復路二段2號","121.472125","25.0533083333333","6500200","三重區"
"235067","255-BX","2018/10/04 20:49:21","新北市中和區員山路36巷13號","121.484316666667","24.9906916666667","6500300","中和區"
"247012","KEA-2869","2018/10/04 20:49:07","新北市蘆洲區民族路236巷83號","121.48278","25.0897516666667","6501400","蘆洲區"
"235069","4980-A6","2018/10/04 20:49:12","新北市中和區員山路359巷1弄8號","121.481005","25.0015933333333","6500300","中和區"
"235048","896-TW","2018/10/04 20:49:05","新北市樹林區學府路382號","121.381116666667","24.9508683333333","6500300","中和區"
"247002","893-R6","2018/10/04 20:49:14","新北市蘆洲區長安街232號","121.45774","25.0856666666667","6501400","蘆洲區"
"247016","546-UM","2018/10/04 20:49:20","新北市蘆洲區中正路69號","121.470403333333","25.0827466666667","6501400","蘆洲區"
"247024","500-BY","2018/10/04 20:49:15","新北市蘆洲區長樂路136號","121.46205","25.0900933333333","6501400","蘆洲區"
"247014","339-TH","2018/10/04 20:49:02","新北市蘆洲區三民路95號","121.473946666667","25.0848633333333","6501400","蘆洲區"
"247006","337-TH","2018/10/04 20:49:02","新北市蘆洲區永安南路二段16巷8號","121.467798333333","25.07722","6501400","蘆洲區"
"247008","336-TH","2018/10/04 20:49:04","新北市蘆洲區集賢路269巷27號","121.482355","25.08331","6501400","蘆洲區"
"247020","057-VK","2018/10/04 20:49:10","新北市蘆洲區仁愛街66號","121.471511666667","25.093845","6501400","蘆洲區"
"247010","056-VK","2018/10/04 20:49:02","新北市蘆洲區三民路26巷43弄19號","121.477293333333","25.08369","6501400","蘆洲區"
"247004","053-VK","2018/10/04 20:49:08","新北市蘆洲區長安街100號","121.461701666667","25.0808716666667","6501400","蘆洲區"
"247022","001-UY","2018/10/04 20:49:16","新北市蘆洲區水湳街36-8號","121.471268333333","25.0898166666667","6501400","蘆洲區"
"222001","KEA-2212","2018/10/04 20:49:18","新北市深坑區北深路三段133號","121.603971666667","25.00253","6501800","深坑區"
"251013","KEA-2871","2018/10/04 20:49:19","新北市淡水區行忠路112號","121.45228","25.1988416666667","6501000","淡水區"
"251016","179-VK","2018/10/04 20:46:23","新北市淡水區後洲子9號","121.448125","25.2239483333333","6501000","淡水區"
"251015","180-VK","2018/10/04 20:49:17","新北市淡水區淡金路四段542巷17號","121.452725","25.22708","6501000","淡水區"
"251010","413-VK","2018/10/04 20:49:18","新北市淡水區沙崙路126號","121.423468333333","25.1829583333333","6501000","淡水區"
"251012","441-VK","2018/10/04 20:49:17","新北市淡水區淡金路四段508號","121.452073333333","25.2256266666667","6501000","淡水區"
"251007","442-VK","2018/10/04 20:49:10","新北市淡水區學府路102巷62號","121.453428333333","25.1711633333333","6501000","淡水區"
"251001","559-UM","2018/10/04 20:49:09","新北市淡水區淡金路一段69號","121.458811666667","25.1730683333333","6501000","淡水區"
"251011","650-BX","2018/10/04 20:49:05","新北市淡水區新民街一段13-1號","121.433115","25.1846133333333","6501000","淡水區"
"251002","672-BX","2018/10/04 20:49:17","新北市淡水區中正東路6號","121.44704","25.1670866666667","6501000","淡水區"
"251003","766-UM","2018/10/04 20:49:04","新北市淡水區中山北路一段207巷54號","121.44231","25.179275","6501000","淡水區"
"252002","178-VK","2018/10/04 20:49:15","新北市三芝區淡金路二段91號","121.504068333333","25.26092","6502100","三芝區"
"242036","AAC-296","2018/10/04 20:49:07","新北市新莊區中正路529號","121.439371666667","25.033265","6500500","新莊區"
"242029","705-TV","2018/10/04 20:49:01","新北市新莊區中華路二段26-1號","121.453523333333","25.0451016666667","6500500","新莊區"
"242027","615-BX","2018/10/04 20:49:05","新北市新莊區環河路48-7號","121.436705","25.00992","6500500","新莊區"
"242044","566-BX","2018/10/04 20:49:11","新北市新莊區龍安路108號","121.418315","25.02039","6500500","新莊區"
"242053","441-UM","2018/10/04 20:49:15","新北市新莊區新樹路310巷6號","121.433171666667","25.0043716666667","6500500","新莊區"
"242002","440-UM","2018/10/04 20:49:09","新北市新莊區中港路五守新村1巷7號","121.45531","25.03815","6500500","新莊區"
"242039","415-TV","2018/10/04 20:49:03","新北市新莊區瓊林路59-38號","121.441171666667","25.0234216666667","6500500","新莊區"
"242046","400-BY","2018/10/04 20:49:16","新北市樹林區中正路280-1號","121.415821666667","25.00952","6500500","新莊區"
"242023","362-BY","2018/10/04 20:49:03","新北市新莊區中正路119號","121.460458333333","25.0382516666667","6500500","新莊區"
"242011","132-UY","2018/10/04 20:49:19","新北市板橋區板城路319號","121.452038333333","25.0011366666667","6500500","新莊區"
"242042","133-UY","2018/10/04 20:49:01","新北市新莊區天祥街12號","121.417301666667","25.0270983333333","6500500","新莊區"
"242051","172-VK","2018/10/04 20:49:15","新北市新莊區新樹路222號","121.433803333333","25.0201966666667","6500500","新莊區"
"242031","348-TH","2018/10/04 20:49:18","新北市新莊區中正路508巷5弄2號","121.434971666667","25.0338683333333","6500500","新莊區"
"242004","349-TH","2018/10/04 20:49:07","新北市新莊區瓊林路13-9號","121.448078333333","25.029575","6500500","新莊區"
"221027","281-BY","2018/10/04 20:49:06","新北市汐止區汐萬路一段3號","121.656036666667","25.0673033333333","6501100","汐止區"
"221029","298-VK","2018/10/04 20:49:05","新北市汐止區樟樹二路106-1號","121.639645","25.064025","6501100","汐止區"
"221021","299-VK","2018/10/04 20:49:05","新北市汐止區新台五路一段210號","121.655698333333","25.0628866666667","6501100","汐止區"
"221035","622-UM","2018/10/04 20:49:16","新北市汐止區汐萬路一段310號","121.650356666667","25.0747116666667","6501100","汐止區"
"221038","646-BX","2018/10/04 20:49:00","新北市汐止區汐萬路一段256巷1號","121.65202","25.0747483333333","6501100","汐止區"
"221018","753-BX","2018/10/04 20:49:02","新北市汐止區中華街88巷3號","121.66852","25.070605","6501100","汐止區"
"220070","AAC-253","2018/10/04 20:49:06","新北市八里區中山路三段386號","121.368518333333","25.1358783333333","6500100","板橋區"
