"lineid","car","time","location","longitude","latitude","cityid","cityname"
"247012","KEA-2869","2018/10/04 21:49:07","新北市八里區下罟子8-10號","121.384598333333","25.1449233333333","6501400","蘆洲區"
"251009","008-UM","2018/10/04 21:49:09","新北市淡水區民族路35巷26號","121.464685","25.1367616666667","6501000","淡水區"
"251005","010-UM","2018/10/04 21:49:21","新北市淡水區鄧公路30巷6號","121.452813333333","25.1697966666667","6501000","淡水區"
"251008","181-VK","2018/10/04 21:49:17","新北市淡水區水源街二段22號","121.449783333333","25.1736816666667","6501000","淡水區"
"251010","413-VK","2018/10/04 21:49:18","新北市淡水區中正路二段215號","121.426273333333","25.1893283333333","6501000","淡水區"
"251012","441-VK","2018/10/04 21:49:17","新北市淡水區淡金路三段337號","121.448918333333","25.2064416666667","6501000","淡水區"
"251007","442-VK","2018/10/04 21:49:10","新北市淡水區水源街二段177巷61號","121.45239","25.1770116666667","6501000","淡水區"
"251004","443-VK","2018/10/04 21:49:00","新北市淡水區民權路88-2號","121.45903","25.1331466666667","6501000","淡水區"
"251006","561-UM","2018/10/04 21:49:11","新北市淡水區中正路11巷3號","121.437823333333","25.170765","6501000","淡水區"
"251011","650-BX","2018/10/04 21:49:05","新北市淡水區新民街322巷9號","121.436348333333","25.1828766666667","6501000","淡水區"
"251002","672-BX","2018/10/04 21:49:16","新北市淡水區學府路192號","121.446816666667","25.1761716666667","6501000","淡水區"
"251003","766-UM","2018/10/04 21:49:04","新北市淡水區新春街90號","121.438846666667","25.1823366666667","6501000","淡水區"
