"lineid","car","time","location","longitude","latitude","cityid","cityname"
"247012","KEA-2869","2018/10/04 22:19:07","新北市五股區中興路二段182巷18-1號","121.45577","25.081385","6501400","蘆洲區"
"247007","336-TH","2018/10/04 22:19:04","新北市五股區中興路三段2巷10號","121.44912","25.0809183333333","6501400","蘆洲區"
"251008","181-VK","2018/10/04 22:19:16","新北市淡水區學府路104號","121.44986","25.1717616666667","6501000","淡水區"
"251010","413-VK","2018/10/04 22:19:18","新北市淡水區沙崙路200號","121.424685","25.1839233333333","6501000","淡水區"
"251007","442-VK","2018/10/04 22:19:10","新北市淡水區北新路180號","121.449428333333","25.1787466666667","6501000","淡水區"
"251004","443-VK","2018/10/04 22:19:20","新北市淡水區民族路33號","121.462358333333","25.1358383333333","6501000","淡水區"
"251011","650-BX","2018/10/04 22:19:05","新北市淡水區水碓街7號","121.443178333333","25.1771383333333","6501000","淡水區"
