"lineid","car","time","location","longitude","latitude","cityid","cityname"
"248005","653-BX","2018/10/05 06:59:20","新北市五股區中興路二段182巷3號","121.457378333333","25.07816","6501500","五股區"
"232003","290-BY","2018/10/05 06:59:15","新北市坪林區桶盤嶼6號","121.712111666667","24.9565016666667","6502000","坪林區"
"232015","291-BY","2018/10/05 06:59:32","新北市坪林區灣潭7-6號","121.677615","24.9332766666667","6502000","坪林區"
"232019","705-BZ","2018/10/05 06:59:13","新北市坪林區坪雙路一段115號","121.728038333333","24.948115","6502000","坪林區"
"232008","758-BX","2018/10/05 06:59:24","新北市坪林區鶯子瀨3-8號","121.707136666667","24.914005","6502000","坪林區"
"244004","248-BX","2018/10/05 06:59:23","新北市林口區文化一路二段202號","121.38343","25.0806883333333","6501700","林口區"
"226001","7418-A5","2018/10/05 06:59:27","新北市平溪區石底里公園街18-3號","121.733465","25.025625","6502400","平溪區"
"223006","022-BY","2018/10/05 06:59:04","新北市石碇區石碇西街20號","121.658831666667","24.9905316666667","6501900","石碇區"
"223002","KEA-2673","2018/10/05 06:59:28","新北市石碇區碇格路二段8號","121.645641666667","24.960825","6501900","石碇區"
"223003","205-TH","2018/10/05 06:59:13","新北市石碇區石碇東街147號","121.658961666667","24.989005","6501900","石碇區"
"223008","406-TH","2018/10/05 06:59:14","新北市石碇區雙溪83號","121.663568333333","25.0089933333333","6501900","石碇區"
"223004","437-BY","2018/10/05 06:59:27","新北市石碇區碇坪路一段58號","121.657071666667","24.991535","6501900","石碇區"
"223001","592-UM","2018/10/05 06:59:18","新北市石碇區石碇西街9號","121.659128333333","24.9905966666667","6501900","石碇區"
"223007","661-BX","2018/10/05 06:59:30","新北市石碇區雙溪81-1號","121.664833333333","25.00906","6501900","石碇區"
"223005","677-TV","2018/10/05 06:59:14","新北市石碇區碇坪路一段60號","121.657148333333","24.9914966666667","6501900","石碇區"
"227005","282-VK","2018/10/05 06:59:21","新北市雙溪區新基里自強路5號","121.866316666667","25.039025","6502500","雙溪區"
"252005","073-UM","2018/10/05 06:59:15","新北市三芝區中正路三段3號","121.502968333333","25.254325","6502100","三芝區"
