"lineid","car","time","location","longitude","latitude","cityid","cityname"
"248010","682-TV","2018/03/30 08:59:30","新北市五股區明德路12巷6號","121.43343","25.0717916666667","6501500","五股區"
"222005","289-BY","2018/03/30 08:50:49","新北市深坑區大坪街11號","121.630731666667","25.0200733333333","6501800","深坑區"
"231007","189-VK","2018/03/30 08:59:31","新北市新店區新潭路三段119號","121.508375","24.9113033333333","6500600","新店區"
"231009","192-VK","2018/03/30 08:59:27","新北市新店區廣興路8號","121.54615","24.91219","6500600","新店區"
"235001","611-BX","2018/03/30 08:59:30","新北市中和區民享街136-1號","121.473401666667","24.9968166666667","6500300","中和區"
"226005","5620-A6","2018/03/30 08:59:23","新北市平溪區嶺腳里田子1-3號","121.750866666667","25.0242116666667","6502400","平溪區"
"226001","7418-A5","2018/03/30 08:44:44","新北市平溪區東勢里東勢格41號","121.760435","24.9897983333333","6502400","平溪區"
"226003","AGD-0702","2018/03/30 08:59:29","新北市平溪區嶺腳里嶺腳寮111號","121.746606666667","25.0343766666667","6502400","平溪區"
"223001","205-TH","2018/03/30 08:59:17","新北市石碇區北宜路五段2號","121.62768","24.9548083333333","6501900","石碇區"
"223008","406-TH","2018/03/30 08:59:17","新北市石碇區大溪墘2-4號","121.699385","25.011525","6501900","石碇區"
"223001","592-UM","2018/03/30 08:59:32","新北市石碇區北宜路五段2號","121.627563333333","24.954885","6501900","石碇區"
"223004","660-BX","2018/03/30 08:59:31","新北市石碇區磨石坑36號","121.691271666667","24.9678983333333","6501900","石碇區"
"223007","661-BX","2018/03/30 08:59:21","新北市石碇區頭9號","121.706003333333","25.00056","6501900","石碇區"
"223005","677-TV","2018/03/30 08:59:19","新北市石碇區磨石坑36-8號","121.691246666667","24.9659016666667","6501900","石碇區"
"227005","282-VK","2018/03/30 08:59:21","新北市雙溪區泰平里料角坑13-1號","121.816611666667","24.9731116666667","6502500","雙溪區"
"237001","159-UY","2018/03/30 08:59:30","新北市三峽區學府路100號","121.37389","24.94854","6500900","三峽區"
"236010","165-UM","2018/03/30 08:59:20","新北市土城區清水路32巷14號","121.45709","24.9812533333333","6501300","土城區"
"236004","339-SR","2018/03/30 08:59:21","新北市土城區福仁街1號","121.441405","24.9768283333333","6501300","土城區"
"236006","498-BY","2018/03/30 08:59:30","新北市土城區承天路13號","121.436266666667","24.9658783333333","6501300","土城區"
"220080","461-BY","2018/03/30 08:59:19","新北市板橋區大觀路一段29巷131弄125號","121.451725","25.0054633333333","6500100","板橋區"
