"lineid","car","time","location","longitude","latitude","cityid","cityname"
"248010","682-TV","2018/03/30 09:09:30","新北市五股區水碓路19號","121.433288333333","25.0726316666667","6501500","五股區"
"222005","289-BY","2018/03/30 09:09:32","新北市深坑區北深路一段240號","121.630006666667","25.0087866666667","6501800","深坑區"
"231007","189-VK","2018/03/30 09:07:11","新北市新店區新潭路三段236號","121.501351666667","24.902545","6500600","新店區"
"231009","192-VK","2018/03/30 09:09:20","新北市新店區廣興路60巷12-1號","121.540353333333","24.914705","6500600","新店區"
"235001","611-BX","2018/03/30 09:09:30","新北市土城區金城路三段253號","121.471673333333","24.9900916666667","6500300","中和區"
"226001","7418-A5","2018/03/30 08:44:44","新北市平溪區東勢里東勢格41號","121.760435","24.9897983333333","6502400","平溪區"
"226003","AGD-0702","2018/03/30 09:09:29","新北市平溪區靜安路二段295號","121.732645","25.0244033333333","6502400","平溪區"
"223001","205-TH","2018/03/30 09:09:16","新北市石碇區北宜路四段9號","121.61511","24.9610466666667","6501900","石碇區"
"223008","406-TH","2018/03/30 09:06:37","新北市石碇區南勢坑2-3號","121.69898","24.9896483333333","6501900","石碇區"
"223004","660-BX","2018/03/30 09:09:31","新北市石碇區磨石坑7-2號","121.68928","24.9756783333333","6501900","石碇區"
"223007","661-BX","2018/03/30 09:09:21","新北市石碇區南勢坑5號","121.698948333333","24.98109","6501900","石碇區"
"223005","677-TV","2018/03/30 09:09:19","新北市石碇區大崙19號","121.686865","24.9799283333333","6501900","石碇區"
"227005","282-VK","2018/03/30 09:08:01","新北市雙溪區泰平里料角坑22號","121.811638333333","24.97046","6502500","雙溪區"
"237001","159-UY","2018/03/30 09:09:30","新北市三峽區大德路300號","121.375091666667","24.9483783333333","6500900","三峽區"
"236010","165-UM","2018/03/30 09:09:20","新北市土城區金城路一段13號","121.439526666667","24.9690066666667","6501300","土城區"
"236006","498-BY","2018/03/30 09:09:30","新北市土城區中央路三段124號","121.435065","24.9660983333333","6501300","土城區"
