"lineid","car","time","location","longitude","latitude","cityid","cityname"
"234044","148-BY","2018/03/30 12:59:20","新北市永和區得和路373巷31弄9號","121.52467","25.0006416666667","6500400","永和區"
"234068","149-BY","2018/03/30 12:59:31","新北市永和區中興街84巷1號","121.518601666667","25.0119283333333","6500400","永和區"
"234005","207-UY","2018/03/30 12:59:25","新北市永和區永和路二段82號","121.514885","25.0113616666667","6500400","永和區"
"234078","298-R6","2018/03/30 12:59:25","新北市永和區永亨路59號","121.521011666667","25.0060466666667","6500400","永和區"
"234036","336-UY","2018/03/30 12:59:18","新北市永和區成功路二段203號","121.526525","24.995995","6500400","永和區"
"234062","337-UY","2018/03/30 12:59:21","新北市永和區秀朗路一段156號","121.518348333333","25.003425","6500400","永和區"
"234084","338-UY","2018/03/30 12:59:31","新北市永和區永寧街66-2號","121.51798","25.0052016666667","6500400","永和區"
"234015","745-BX","2018/03/30 12:59:22","新北市永和區永和路二段310號","121.516155","25.016035","6500400","永和區"
"234028","746-BX","2018/03/30 12:59:27","新北市永和區四維街44號","121.525215","24.9981516666667","6500400","永和區"
"234052","KEA-2590","2018/03/30 12:59:34","新北市永和區竹林路64號","121.51822","25.01349","6500400","永和區"
"234012","KEA-2591","2018/03/30 12:59:21","新北市永和區信義路17巷11號","121.513623333333","25.0113766666667","6500400","永和區"
"234060","AAD-866","2018/03/30 12:59:30","新北市永和區福和路313號","121.516176666667","25.0070916666667","6500400","永和區"
"234040","862-TW","2018/03/30 12:59:31","新北市永和區永貞路304號","121.51193","25.0047716666667","6500400","永和區"
"234048","863-TW","2018/03/30 12:59:26","新北市永和區文化路194號","121.510788333333","25.0163466666667","6500400","永和區"
"234025","9371-KE","2018/03/30 12:59:36","新北市永和區水源街2巷8弄1號","121.512413333333","25.0054816666667","6500400","永和區"
"234010","9373-KE","2018/03/30 12:59:24","新北市永和區仁愛路40巷9弄3號","121.513823333333","25.01398","6500400","永和區"
"248019","225-UY","2018/03/30 12:59:28","新北市五股區中興路二段83巷26-3號","121.460141666667","25.075375","6501500","五股區"
"234022","9380-KE","2018/03/30 12:59:29","新北市永和區竹林路72巷2號","121.518981666667","25.0129766666667","6500400","永和區"
"234076","969-R7","2018/03/30 12:59:29","新北市永和區民享街13號","121.515333333333","24.99529","6500400","永和區"
"234072","AAC-211","2018/03/30 12:59:24","新北市永和區環河東路二段98號","121.524086666667","25.0103383333333","6500400","永和區"
"234066","AAC-212","2018/03/30 12:59:32","新北市永和區永和路一段7號","121.512956666667","25.0052766666667","6500400","永和區"
"234001","AAC-295","2018/03/30 12:59:29","新北市永和區永和路一段139號","121.514131666667","25.008775","6500400","永和區"
"244004","248-BX","2018/03/30 12:59:19","新北市林口區粉寮路二段221號","121.4042","25.09066","6501700","林口區"
"231002","002-UM","2018/03/30 12:59:36","新北市新店區安華路28-1號","121.519515","24.9608316666667","6500600","新店區"
"231037","0291-UT","2018/03/30 12:59:18","新北市新店區安華路28-1號","121.519516666667","24.9606433333333","6500600","新店區"
"231025","0293-UT","2018/03/30 12:59:34","新北市新店區安華路28-1號","121.519451666667","24.96057","6500600","新店區"
"231028","046-UY","2018/03/30 12:59:33","新北市新店區安華路28-1號","121.51949","24.9609183333333","6500600","新店區"
"231030","047-UY","2018/03/30 12:59:36","新北市新店區安華路28-1號","121.518956666667","24.9609083333333","6500600","新店區"
"231029","106-UY","2018/03/30 12:59:25","新北市新店區安華路28-1號","121.519568333333","24.960835","6500600","新店區"
"231018","107-UY","2018/03/30 12:59:21","新北市新店區安華路28-1號","121.519406666667","24.96111","6500600","新店區"
"231012","108-UY","2018/03/30 12:59:29","新北市新店區安華路28-1號","121.519431666667","24.9610333333333","6500600","新店區"
"231022","187-VK","2018/03/30 12:59:34","新北市新店區安華路28-1號","121.519515","24.961245","6500600","新店區"
"231016","KEA-2219","2018/03/30 12:59:18","新北市新店區安華路28-1號","121.519691666667","24.9612966666667","6500600","新店區"
"231023","AAD-862","2018/03/30 12:59:25","新北市新店區安華路28-1號","121.51956","24.961085","6500600","新店區"
"231038","4715-K9","2018/03/30 12:59:31","新北市新店區安華路28-1號","121.519281666667","24.96068","6500600","新店區"
"231036","512-UM","2018/03/30 12:59:23","新北市新店區安華路28-1號","121.519336666667","24.961285","6500600","新店區"
"231035","513-UM","2018/03/30 12:59:28","新北市新店區安華路28-1號","121.519676666667","24.9612716666667","6500600","新店區"
"231001","619-UM","2018/03/30 12:59:37","新北市新店區安華路28-1號","121.51937","24.96085","6500600","新店區"
"231003","641-BX","2018/03/30 12:59:33","新北市新店區安華路28-1號","121.519531666667","24.9605366666667","6500600","新店區"
"231034","645-TV","2018/03/30 12:59:18","新北市新店區安華路28-1號","121.519296666667","24.960605","6500600","新店區"
"231013","719-UM","2018/03/30 12:59:23","新北市新店區安華路28-1號","121.519503333333","24.961225","6500600","新店區"
"231032","719-UY","2018/03/30 12:59:29","新北市新店區安華路28-1號","121.519808333333","24.9610516666667","6500600","新店區"
"231004","899-TW","2018/03/30 12:59:18","新北市新店區安華路28-1號","121.51925","24.9608716666667","6500600","新店區"
"235029","098-UM","2018/03/30 12:59:27","新北市中和區中山路二段315巷10號","121.494623333333","25.001115","6500300","中和區"
"235022","151-BY","2018/03/30 12:59:16","新北市中和區錦和路350-1號","121.490488333333","24.99352","6500300","中和區"
"235002","185-VK","2018/03/30 12:59:24","新北市中和區景平路257號","121.508565","24.9929716666667","6500300","中和區"
"235031","255-BX","2018/03/30 12:43:52","新北市中和區新生街37號","121.483368333333","25.0033433333333","6500300","中和區"
"235035","269-TV","2018/03/30 12:59:33","新北市中和區連城路469巷70弄2號","121.48341","24.993935","6500300","中和區"
"235006","551-UM","2018/03/30 12:59:31","新北市中和區和城路一段271巷1號","121.485421666667","24.9916883333333","6500300","中和區"
"235001","611-BX","2018/03/30 12:59:36","新北市中和區員山路111號","121.480796666667","24.9948583333333","6500300","中和區"
"235026","800-TS","2018/03/30 12:59:24","新北市中和區中正路589巷15號","121.485896666667","24.9936083333333","6500300","中和區"
"235005","802-TS","2018/03/30 12:59:33","新北市中和區員山路36巷16-2號","121.485283333333","24.9917766666667","6500300","中和區"
"235016","805-TS","2018/03/30 12:59:36","新北市中和區員山路36巷13號","121.48432","24.991505","6500300","中和區"
"235015","157-BY","2018/03/30 12:59:30","新北市中和區中正路637巷52弄1號","121.485483333333","24.9934116666667","6500300","中和區"
"235001","AAC-213","2018/03/30 12:59:29","新北市中和區中正路395號","121.4892","24.9935516666667","6500300","中和區"
"235003","251-BX","2018/03/30 12:59:27","新北市中和區和城路一段271巷1號","121.48552","24.9916733333333","6500300","中和區"
"207002","749-BX","2018/03/30 12:59:33","新北市萬里區雙興里大坪路49號","121.622503333333","25.1738933333333","6502800","萬里區"
"207001","662-BX","2018/03/30 12:59:16","新北市萬里區萬里里獅頭路22-1號","121.69308","25.1782833333333","6502800","萬里區"
"236006","498-BY","2018/03/30 12:59:22","新北市土城區亞洲路10號","121.436666666667","24.9748833333333","6501300","土城區"
"242001","233-RS","2018/03/30 12:59:29","新北市新莊區環河路636-7號","121.437371666667","25.01163","6500500","新莊區"
"221032","280-BY","2018/03/30 12:59:37","新北市汐止區建成路39號","121.662948333333","25.0730683333333","6501100","汐止區"
