"lineid","car","time","location","longitude","latitude","cityid","cityname"
"234044","148-BY","2018/03/30 13:59:20","新北市永和區成功路一段116號","121.526823333333","25.0024016666667","6500400","永和區"
"234068","149-BY","2018/03/30 13:59:21","新北市永和區國光路14號","121.519051666667","25.0083516666667","6500400","永和區"
"234005","207-UY","2018/03/30 13:59:25","新北市中和區宜安路180號","121.508795","24.9994816666667","6500400","永和區"
"234078","298-R6","2018/03/30 13:59:35","新北市永和區國中路8號","121.524236666667","25.0047566666667","6500400","永和區"
"234036","336-UY","2018/03/30 13:59:38","新北市永和區成功路二段56號","121.526681666667","24.999845","6500400","永和區"
"234062","337-UY","2018/03/30 13:59:21","新北市永和區中正路368巷1弄50號","121.51913","25.0009516666667","6500400","永和區"
"234084","338-UY","2018/03/30 13:59:33","新北市永和區福和路97號","121.521963333333","25.0078183333333","6500400","永和區"
"234015","745-BX","2018/03/30 13:59:22","新北市永和區文化路91號","121.513416666667","25.0151983333333","6500400","永和區"
"234028","746-BX","2018/03/30 13:59:26","新北市永和區四維街67號","121.525663333333","24.9979033333333","6500400","永和區"
"234052","KEA-2590","2018/03/30 13:59:34","新北市永和區竹林路39巷1號","121.517991666667","25.0143266666667","6500400","永和區"
"234012","KEA-2591","2018/03/30 13:59:21","新北市永和區保生路55號","121.50468","25.0106216666667","6500400","永和區"
"234060","AAD-866","2018/03/30 13:59:30","新北市永和區中正路127號","121.515871666667","24.997905","6500400","永和區"
"234040","862-TW","2018/03/30 13:59:31","新北市永和區中和路421巷5弄8號","121.508465","25.000895","6500400","永和區"
"234048","863-TW","2018/03/30 13:59:26","新北市永和區保安路264號","121.505938333333","25.0123216666667","6500400","永和區"
"234025","9371-KE","2018/03/30 13:59:35","新北市永和區自由街50號","121.513835","25.006165","6500400","永和區"
"234010","9373-KE","2018/03/30 13:59:24","新北市永和區仁愛路352巷112弄13號","121.500976666667","25.008625","6500400","永和區"
"248019","225-UY","2018/03/30 13:59:28","新北市五股區凌雲路三段57號","121.425335","25.1250166666667","6501500","五股區"
"234022","9380-KE","2018/03/30 13:59:29","新北市永和區復興街39號","121.51649","25.013215","6500400","永和區"
"234076","969-R7","2018/03/30 13:59:37","新北市永和區民族街43巷19號","121.519363333333","24.99837","6500400","永和區"
"234072","AAC-211","2018/03/30 13:59:24","新北市永和區豫溪街185號","121.522481666667","25.01034","6500400","永和區"
"234066","AAC-212","2018/03/30 13:59:32","新北市永和區永貞路358號","121.510148333333","25.006555","6500400","永和區"
"234001","AAC-295","2018/03/30 13:59:36","新北市永和區福和路318號","121.515738333333","25.00724","6500400","永和區"
"244004","248-BX","2018/03/30 13:59:39","新北市林口區信義路58-8號","121.381973333333","25.0788666666667","6501700","林口區"
"231002","002-UM","2018/03/30 13:59:36","新北市新店區中正路610號","121.533878333333","24.9885","6500600","新店區"
"231037","0291-UT","2018/03/30 13:59:38","新北市新店區安康路三段165巷5號","121.489651666667","24.951335","6500600","新店區"
"231025","0293-UT","2018/03/30 13:59:34","新北市新店區中正路273號","121.537695","24.9743633333333","6500600","新店區"
"231028","046-UY","2018/03/30 13:59:33","新北市新店區安和路三段153號","121.516658333333","24.98564","6500600","新店區"
"231030","047-UY","2018/03/30 13:59:36","新北市新店區安民街65巷21-2號","121.515146666667","24.967525","6500600","新店區"
"231029","106-UY","2018/03/30 13:59:38","新北市新店區安康路二段65號","121.513945","24.9631833333333","6500600","新店區"
"231018","107-UY","2018/03/30 13:59:21","新北市新店區中央路99號","121.5311","24.975065","6500600","新店區"
"231012","108-UY","2018/03/30 13:59:29","新北市新店區中興路一段282-5號","121.546276666667","24.968195","6500600","新店區"
"231022","187-VK","2018/03/30 13:59:34","新北市新店區新烏路三段23號","121.552848333333","24.905625","6500600","新店區"
"231016","KEA-2219","2018/03/30 13:59:18","新北市新店區郵政路41號","121.55601","24.9514566666667","6500600","新店區"
"231026","256-BX","2018/03/30 13:59:30","新北市新店區環河路182-3號","121.533976666667","24.9699483333333","6500600","新店區"
"231023","AAD-862","2018/03/30 13:59:25","新北市新店區文中路45號","121.539651666667","24.9566316666667","6500600","新店區"
"231027","3712-VJ","2018/03/30 13:59:26","新北市新店區北宜路一段39巷20號","121.538881666667","24.9582683333333","6500600","新店區"
"231024","4716-K9","2018/03/30 13:59:23","新北市新店區新生街13巷42號","121.538935","24.9665316666667","6500600","新店區"
"231038","4715-K9","2018/03/30 13:59:31","新北市新店區溪洲路121號","121.531421666667","24.9627733333333","6500600","新店區"
"231036","512-UM","2018/03/30 13:59:23","新北市新店區安祥路109巷1弄39號","121.476938333333","24.9603633333333","6500600","新店區"
"231035","513-UM","2018/03/30 13:59:28","新北市新店區安和路一段52巷2-1號","121.517658333333","24.9662666666667","6500600","新店區"
"231006","617-UM","2018/03/30 13:59:13","新北市新店區北宜路二段213號","121.55322","24.9533066666667","6500600","新店區"
"231005","618-UM","2018/03/30 13:59:19","新北市新店區中興路三段200號","121.543926666667","24.98189","6500600","新店區"
"231001","619-UM","2018/03/30 13:59:37","新北市新店區三民路47號","121.537085","24.9709416666667","6500600","新店區"
"231003","641-BX","2018/03/30 13:59:33","新北市新店區北宜路一段3號","121.538411666667","24.9585733333333","6500600","新店區"
"231034","645-TV","2018/03/30 13:59:38","新北市新店區達觀路16號","121.5035","24.940185","6500600","新店區"
"231013","719-UM","2018/03/30 13:59:23","新北市新店區明德路64號","121.541641666667","24.9794833333333","6500600","新店區"
"231032","719-UY","2018/03/30 13:57:29","新北市新店區華城路34-1號","121.528983333333","24.9567616666667","6500600","新店區"
"231004","899-TW","2018/03/30 13:59:18","新北市新店區北新路二段135號","121.542865","24.97553","6500600","新店區"
"235030","003-UY","2018/03/30 13:59:33","新北市中和區中山路二段131巷5弄1號","121.502793333333","25.0027933333333","6500300","中和區"
"235028","005-UY","2018/03/30 13:59:27","新北市中和區泰和街34號","121.499391666667","25.000195","6500300","中和區"
"235027","006-UY","2018/03/30 13:59:37","新北市中和區中正路570號","121.48648","24.9946316666667","6500300","中和區"
"235020","096-UM","2018/03/30 13:59:23","新北市中和區中正路1202號","121.480178333333","25.01038","6500300","中和區"
"235029","098-UM","2018/03/30 13:59:27","新北市中和區中山路二段136巷54號","121.501033333333","25.0044733333333","6500300","中和區"
"235004","150-BY","2018/03/30 13:59:26","新北市永和區中正路368巷53號","121.519176666667","25.0007533333333","6500300","中和區"
"235022","151-BY","2018/03/30 13:59:36","新北市中和區員山路143巷12號","121.48043","24.9961","6500300","中和區"
"235019","183-VK","2018/03/30 13:59:38","新北市中和區中山路三段206號","121.471611666667","25.006475","6500300","中和區"
"235002","185-VK","2018/03/30 13:59:23","新北市中和區立人街24-5號","121.518851666667","24.9941883333333","6500300","中和區"
"235013","186-VK","2018/03/30 13:59:20","新北市中和區景新街175號","121.506716666667","24.995445","6500300","中和區"
"235031","255-BX","2018/03/30 13:59:32","新北市中和區新生街226號","121.483875","24.99828","6500300","中和區"
"235008","293-VK","2018/03/30 13:59:20","新北市中和區中興街178號","121.499586666667","24.991","6500300","中和區"
"235036","301-VK","2018/03/30 13:59:28","新北市中和區中山路二段258號","121.497473333333","25.00243","6500300","中和區"
"235007","352-BY","2018/03/30 13:59:36","新北市中和區成功路117號","121.52591","24.9909583333333","6500300","中和區"
"235032","377-QA","2018/03/30 13:59:36","新北市中和區圓通路158巷1弄9號","121.497221666667","24.99599","6500300","中和區"
"235025","378-QA","2018/03/30 13:59:34","新北市中和區民有街57號","121.476206666667","25.0038216666667","6500300","中和區"
"235035","269-TV","2018/03/30 13:59:32","新北市中和區中山路二段482巷39號","121.490473333333","25.0067483333333","6500300","中和區"
"235014","4979-A6","2018/03/30 13:59:28","新北市中和區華新街50巷6號","121.507678333333","24.9839666666667","6500300","中和區"
"235033","4980-A6","2018/03/30 13:59:31","新北市中和區圓通路75號","121.499995","24.9969483333333","6500300","中和區"
"235006","551-UM","2018/03/30 13:59:31","新北市中和區秀朗路三段22巷11號","121.52573","24.9961983333333","6500300","中和區"
"235034","558-UM","2018/03/30 13:59:24","新北市中和區安和路215號","121.50598","24.999095","6500300","中和區"
"235009","565-BX","2018/03/30 13:59:36","新北市中和區景新街467巷20弄7-5號","121.514371666667","24.9878266666667","6500300","中和區"
"235018","640-BX","2018/03/30 13:59:29","新北市中和區民享街57號","121.474161666667","25.002485","6500300","中和區"
"235024","647-TV","2018/03/30 13:59:37","新北市中和區民治街18號","121.475093333333","25.0043833333333","6500300","中和區"
"235011","732-UM","2018/03/30 13:59:37","新北市中和區興南路二段32巷5號","121.507145","24.985425","6500300","中和區"
"235010","733-UM","2018/03/30 13:59:35","新北市中和區興南路一段135巷17號","121.509323333333","24.987005","6500300","中和區"
"235026","800-TS","2018/03/30 13:59:25","新北市中和區中山路二段366巷13-1號","121.491813333333","25.00438","6500300","中和區"
"235021","801-TS","2018/03/30 13:59:22","新北市中和區民利街58巷3弄1號","121.478848333333","24.999015","6500300","中和區"
"235005","802-TS","2018/03/30 13:59:33","新北市中和區中安街32-1號","121.513251666667","25.0029633333333","6500300","中和區"
"235016","805-TS","2018/03/30 13:59:16","新北市中和區興南路二段261巷6-3號","121.502501666667","24.9795466666667","6500300","中和區"
"235012","896-TW","2018/03/30 13:59:27","新北市中和區華新街28號","121.507658333333","24.9846466666667","6500300","中和區"
"235017","900-TW","2018/03/30 13:59:39","新北市中和區壽德街33-3號","121.466505","24.9947016666667","6500300","中和區"
"235015","157-BY","2018/03/30 13:59:30","新北市中和區忠孝街19巷22號","121.510043333333","24.9834283333333","6500300","中和區"
"235001","AAC-213","2018/03/30 13:59:29","新北市永和區民生路83號","121.522828333333","24.996715","6500300","中和區"
"235023","AAC-215","2018/03/30 13:59:21","新北市中和區圓通路367巷18-5號","121.491855","24.988485","6500300","中和區"
"220013","072-UY","2018/03/30 13:59:40","新北市板橋區漢生東路338號","121.471843333333","25.0075216666667","6500100","板橋區"
"220034","073-UY","2018/03/30 13:59:28","新北市板橋區中正路236巷34號","121.457001666667","25.0191583333333","6500100","板橋區"
"220017","AAD-861","2018/03/30 13:59:24","新北市板橋區華興街73-1號","121.457053333333","25.0050233333333","6500100","板橋區"
"247013","546-UM","2018/03/30 13:59:38","新北市蘆洲區中正路157號","121.469055","25.0850416666667","6501400","蘆洲區"
"247009","341-TH","2018/03/30 13:58:49","新北市蘆洲區中興街34號","121.481126666667","25.0869366666667","6501400","蘆洲區"
"247011","339-TH","2018/03/30 13:59:18","新北市蘆洲區民族路146號","121.479398333333","25.0859983333333","6501400","蘆洲區"
"247003","337-TH","2018/03/30 13:59:22","新北市蘆洲區長榮路28-1號","121.463453333333","25.082425","6501400","蘆洲區"
"247005","336-TH","2018/03/30 13:59:32","新北市蘆洲區永安南路二段76號","121.464671666667","25.0782166666667","6501400","蘆洲區"
"247017","057-VK","2018/03/30 13:59:33","新北市蘆洲區民族路255巷20號","121.475986666667","25.0893233333333","6501400","蘆洲區"
"247007","056-VK","2018/03/30 13:59:23","新北市三重區仁愛街755號","121.481118333333","25.080465","6501400","蘆洲區"
"247015","007-UY","2018/03/30 13:59:29","新北市蘆洲區光華路20號","121.469493333333","25.0835016666667","6501400","蘆洲區"
"247019","001-UY","2018/03/30 13:59:28","新北市蘆洲區民族路422巷35號","121.473428333333","25.0935233333333","6501400","蘆洲區"
"235003","251-BX","2018/03/30 13:59:27","新北市中和區景平路64巷13弄22號","121.52154","24.991505","6500300","中和區"
"227011","642-TC","2018/03/30 13:57:59","新北市雙溪區三貂里政光路3-1號","121.85099","25.0631833333333","6502500","雙溪區"
"207002","749-BX","2018/03/30 13:59:33","新北市萬里區溪底里溪底路9號","121.620975","25.14882","6502800","萬里區"
"207001","662-BX","2018/03/30 13:59:36","新北市萬里區磺潭里清水18號","121.637805","25.1974083333333","6502800","萬里區"
"236067","105-UM","2018/03/30 13:59:28","新北市土城區和平路49號","121.443626666667","24.9720533333333","6501300","土城區"
"236040","107-UM","2018/03/30 13:59:26","新北市土城區中央路二段215號","121.441075","24.9740766666667","6501300","土城區"
"236077","166-UM","2018/03/30 13:59:37","新北市土城區永寧路32巷10弄18-2號","121.42906","24.9609366666667","6501300","土城區"
"236029","253-BX","2018/03/30 13:59:28","新北市土城區城林路6巷80號","121.438143333333","24.9795116666667","6501300","土城區"
"236024","269-VK","2018/03/30 13:59:35","新北市土城區承天路67號","121.439521666667","24.9635966666667","6501300","土城區"
"236032","271-VK","2018/03/30 13:59:37","新北市土城區城林路6巷80號","121.438211666667","24.97953","6501300","土城區"
"236016","401-BY","2018/03/30 13:59:31","新北市土城區亞洲路58巷5弄8號","121.433661666667","24.9743583333333","6501300","土城區"
"236006","498-BY","2018/03/30 13:59:22","新北市土城區中央路一段61號","121.447905","24.9900333333333","6501300","土城區"
"236057","912-UM","2018/03/30 13:59:32","新北市土城區永寧路1號","121.430446666667","24.9648116666667","6501300","土城區"
"236045","913-UM","2018/03/30 13:59:31","新北市土城區員福街36號","121.441036666667","24.9788333333333","6501300","土城區"
"236060","915-UM","2018/03/30 13:59:30","新北市土城區城林路6巷80號","121.438188333333","24.9796866666667","6501300","土城區"
"236054","AAC-216","2018/03/30 13:59:18","新北市土城區亞洲路58巷5弄10號","121.433526666667","24.97426","6501300","土城區"
"242001","233-RS","2018/03/30 13:59:29","新北市新莊區自強街37巷14弄11號","121.454115","25.0468933333333","6500500","新莊區"
"220027","145-BY","2018/03/30 13:59:36","新北市板橋區民權路202巷7弄30號","121.458826666667","25.0150683333333","6500100","板橋區"
"220105","KEA-2550","2018/03/30 13:59:31","新北市板橋區莊敬路90號","121.471483333333","25.0247433333333","6500100","板橋區"
"220030","610-BX","2018/03/30 13:59:34","新北市樹林區博愛街115號","121.426476666667","24.990595","6500100","板橋區"
"220050","245-BX","2018/03/30 13:59:29","新北市板橋區文化路二段182巷5弄2號","121.471743333333","25.02704","6500100","板橋區"
"220004","276-BY","2018/03/30 13:59:32","新北市板橋區信義路126號","121.458495","24.9923783333333","6500100","板橋區"
"220019","283-VK","2018/03/30 13:59:30","新北市板橋區重慶路245巷50弄32號","121.46532","25.0006516666667","6500100","板橋區"
"220043","285-UM","2018/03/30 13:59:21","新北市板橋區文化路二段76號","121.469326666667","25.024975","6500100","板橋區"
"220001","285-VK","2018/03/30 13:59:23","新北市板橋區中山路二段98號","121.475513333333","25.0165333333333","6500100","板橋區"
"220031","286-VK","2018/03/30 13:59:31","新北市板橋區龍興街101巷1號","121.444378333333","25.0031766666667","6500100","板橋區"
"220029","287-VK","2018/03/30 13:59:35","新北市板橋區光華街19巷5號","121.45354","25.0120333333333","6500100","板橋區"
"220039","288-VK","2018/03/30 13:59:35","新北市板橋區四維路179號","121.464305","25.0263866666667","6500100","板橋區"
"220009","293-UM","2018/03/30 13:59:34","新北市板橋區懷仁街77巷2號","121.477628333333","25.0184883333333","6500100","板橋區"
"220032","296-UM","2018/03/30 13:59:28","新北市板橋區篤行路一段32號","121.431891666667","24.9939516666667","6500100","板橋區"
"220023","303-R5","2018/03/30 13:59:28","新北市板橋區館前西路211號","121.454618333333","25.0084266666667","6500100","板橋區"
"220010","305-R5","2018/03/30 13:59:30","新北市板橋區三民路二段245巷27-3號","121.480185","25.0125683333333","6500100","板橋區"
"220041","307-R5","2018/03/30 13:59:22","新北市板橋區文化路一段106號","121.464871666667","25.01809","6500100","板橋區"
"220047","317-R6","2018/03/30 13:59:36","新北市板橋區民有街18號","121.466226666667","25.0249816666667","6500100","板橋區"
"220028","461-BY","2018/03/30 13:59:31","新北市板橋區大觀路二段19巷126號","121.450376666667","25.0026","6500100","板橋區"
"220012","486-VK","2018/03/30 13:59:26","新北市板橋區縣民大道二段122號","121.467508333333","25.0157816666667","6500100","板橋區"
"220037","491-VK","2018/03/30 13:59:36","新北市板橋區民生路二段216號","121.469283333333","25.021555","6500100","板橋區"
"220104","560-BX","2018/03/30 13:59:18","新北市板橋區中正路375巷27號","121.453811666667","25.0201716666667","6500100","板橋區"
"220052","561-BX","2018/03/30 13:59:35","新北市板橋區縣民大道二段279號","121.47008","25.0177733333333","6500100","板橋區"
"220003","568-UM","2018/03/30 13:59:30","新北市板橋區中山路一段143號","121.464606666667","25.0117233333333","6500100","板橋區"
"220011","609-BX","2018/03/30 13:59:36","新北市板橋區中山路二段229號","121.476828333333","25.0172783333333","6500100","板橋區"
"220040","637-BX","2018/03/30 13:59:25","新北市板橋區大同街32號","121.478291666667","25.0273983333333","6500100","板橋區"
"220005","686-BX","2018/03/30 13:59:36","新北市板橋區館前東路51號","121.46124","25.00745","6500100","板橋區"
"220025","687-BX","2018/03/30 13:59:34","新北市板橋區大觀路二段174巷210號","121.442305","25.0041833333333","6500100","板橋區"
"220042","689-BX","2018/03/30 13:59:34","新北市板橋區民生路三段12號","121.467656666667","25.024155","6500100","板橋區"
"220002","741-BX","2018/03/30 13:59:23","新北市板橋區重慶路112號","121.462018333333","25.0050666666667","6500100","板橋區"
"220051","KEA-2699","2018/03/30 13:59:22","新北市板橋區萬板路710號","121.481895","25.02736","6500100","板橋區"
"220014","829-TW","2018/03/30 13:59:29","新北市板橋區三民路二段正隆巷35號","121.477198333333","25.0134133333333","6500100","板橋區"
"220016","830-TW","2018/03/30 13:59:31","新北市板橋區中山路二段465巷13號","121.481428333333","25.021025","6500100","板橋區"
"220045","831-TW","2018/03/30 13:59:27","新北市板橋區莒光路63號","121.471236666667","25.0242516666667","6500100","板橋區"
"220038","833-TW","2018/03/30 13:59:26","新北市板橋區文化路二段16-2號","121.46882","25.0243933333333","6500100","板橋區"
"220022","895-R6","2018/03/30 13:59:35","新北市板橋區林園街60號","121.453616666667","25.0107233333333","6500100","板橋區"
"220021","985-R7","2018/03/30 13:59:19","新北市板橋區中正路35號","121.456213333333","25.0130866666667","6500100","板橋區"
"220046","AAC-210","2018/03/30 13:59:22","新北市板橋區四維路137巷25號","121.463961666667","25.024755","6500100","板橋區"
"220018","AAC-253","2018/03/30 13:59:36","新北市板橋區四川路一段489號","121.457151666667","24.9971783333333","6500100","板橋區"
