"lineid","car","time","location","longitude","latitude","cityid","cityname"
"234068","149-BY","2018/03/30 14:29:21","新北市永和區永亨路6-1號","121.519498333333","25.0054816666667","6500400","永和區"
"234005","207-UY","2018/03/30 14:29:25","新北市永和區得和路2號","121.51492","25.0007083333333","6500400","永和區"
"234078","298-R6","2018/03/30 14:29:40","新北市永和區永貞路70巷2號","121.520401666667","25.00538","6500400","永和區"
"234036","336-UY","2018/03/30 14:29:18","新北市永和區環河東路四段42號","121.528843333333","24.998785","6500400","永和區"
"234062","337-UY","2018/03/30 14:29:21","新北市永和區中正路433號","121.517153333333","25.00508","6500400","永和區"
"234084","338-UY","2018/03/30 14:29:31","新北市永和區光復街21號","121.516523333333","25.0174616666667","6500400","永和區"
"234028","746-BX","2018/03/30 14:29:26","新北市永和區民權路84號","121.51986","24.9970083333333","6500400","永和區"
"234052","KEA-2590","2018/03/30 14:29:34","新北市永和區光復街60巷25號","121.517808333333","25.0175533333333","6500400","永和區"
"234060","AAD-866","2018/03/30 14:29:30","新北市永和區永貞路184號","121.516186666667","25.0042216666667","6500400","永和區"
"234040","862-TW","2018/03/30 14:29:31","新北市永和區安樂路348號","121.514451666667","25.006465","6500400","永和區"
"234048","863-TW","2018/03/30 14:29:26","新北市永和區環河西路二段79號","121.506728333333","25.0151166666667","6500400","永和區"
"234025","9371-KE","2018/03/30 14:29:35","新北市永和區安樂路60號","121.515038333333","24.99806","6500400","永和區"
"234072","AAC-211","2018/03/30 14:29:24","新北市永和區環河東路一段122號","121.520506666667","25.0154316666667","6500400","永和區"
"234001","AAC-295","2018/03/30 14:29:34","新北市永和區大新街47號","121.515628333333","25.00846","6500400","永和區"
"244004","248-BX","2018/03/30 14:29:18","新北市林口區竹林路265號","121.389661666667","25.0807283333333","6501700","林口區"
"231002","002-UM","2018/03/30 14:29:36","新北市新店區中正路347號","121.535395","24.9758833333333","6500600","新店區"
"231037","0291-UT","2018/03/30 14:29:18","新北市新店區柴埕路52巷10號","121.511765","24.96495","6500600","新店區"
"231025","0293-UT","2018/03/30 14:29:34","新北市新店區民族路161號","121.537635","24.976745","6500600","新店區"
"231028","046-UY","2018/03/30 14:29:33","新北市新店區安康路二段147-1號","121.511333333333","24.9598133333333","6500600","新店區"
"231030","047-UY","2018/03/30 14:29:40","新北市新店區安民街153號","121.516606666667","24.96983","6500600","新店區"
"231029","106-UY","2018/03/30 14:29:25","新北市新店區安康路二段383號","121.495003333333","24.9545633333333","6500600","新店區"
"231018","107-UY","2018/03/30 14:29:21","新北市新店區中央二街7-1號","121.529268333333","24.97309","6500600","新店區"
"231012","108-UY","2018/03/30 14:29:29","新北市新店區寶興路65巷2號","121.550796666667","24.971705","6500600","新店區"
"231022","187-VK","2018/03/30 14:29:34","新北市新店區桂山路73-1號","121.566286666667","24.9009083333333","6500600","新店區"
"231016","KEA-2219","2018/03/30 14:28:44","新北市新店區北宜路三段262-1號","121.5992","24.95354","6500600","新店區"
"231023","AAD-862","2018/03/30 14:29:25","新北市新店區光明街96巷3號","121.539443333333","24.9599866666667","6500600","新店區"
"231027","3712-VJ","2018/03/30 14:29:29","新北市新店區中正路76巷11弄24號","121.543775","24.971925","6500600","新店區"
"231038","4715-K9","2018/03/30 14:29:31","新北市新店區溪洲路160號","121.530253333333","24.9646783333333","6500600","新店區"
"231036","512-UM","2018/03/30 14:29:23","新北市新店區安祥路109巷3弄2號","121.475116666667","24.959365","6500600","新店區"
"231035","513-UM","2018/03/30 14:29:28","新北市新店區安光路13號","121.513408333333","24.9638533333333","6500600","新店區"
"231006","617-UM","2018/03/30 14:29:34","新北市新店區北宜路二段363號","121.55902","24.95433","6500600","新店區"
"231005","618-UM","2018/03/30 14:29:38","新北市新店區民權路25號","121.541103333333","24.9828166666667","6500600","新店區"
"231001","619-UM","2018/03/30 14:29:36","新北市新店區中正路75巷71號","121.543076666667","24.96884","6500600","新店區"
"231003","641-BX","2018/03/30 14:29:33","新北市新店區中興路一段269號","121.545068333333","24.9679983333333","6500600","新店區"
"231034","645-TV","2018/03/30 14:29:18","新北市新店區黎明路56巷1號","121.502358333333","24.94768","6500600","新店區"
"231013","719-UM","2018/03/30 14:29:22","新北市新店區民權路100-1號","121.536135","24.9833216666667","6500600","新店區"
"231032","719-UY","2018/03/30 14:29:29","新北市新店區安業街33號","121.517441666667","24.9772316666667","6500600","新店區"
"231004","899-TW","2018/03/30 14:29:18","新北市新店區中正路263-3號","121.538346666667","24.973775","6500600","新店區"
"235030","003-UY","2018/03/30 14:29:33","新北市中和區景新街2號","121.50256","24.9997566666667","6500300","中和區"
"235028","005-UY","2018/03/30 14:29:26","新北市中和區南山路127巷29號","121.50347","24.9974883333333","6500300","中和區"
"235027","006-UY","2018/03/30 14:29:37","新北市中和區安邦街3號","121.495888333333","24.9984033333333","6500300","中和區"
"235020","096-UM","2018/03/30 14:29:23","新北市中和區民富街1號","121.476633333333","25.00684","6500300","中和區"
"235029","098-UM","2018/03/30 14:29:27","新北市中和區莊敬路31巷13號","121.500175","25.005225","6500300","中和區"
"235004","150-BY","2018/03/30 14:23:26","新北市永和區中和路313號","121.506935","24.9997933333333","6500300","中和區"
"235022","151-BY","2018/03/30 14:29:36","新北市中和區員山路132巷11號","121.481978333333","24.9963516666667","6500300","中和區"
"235019","183-VK","2018/03/30 14:29:38","新北市中和區德光路27巷1弄1號","121.470878333333","25.0040266666667","6500300","中和區"
"235002","185-VK","2018/03/30 14:29:23","新北市中和區自立路31號","121.522108333333","24.9957516666667","6500300","中和區"
"235013","186-VK","2018/03/30 14:29:39","新北市中和區景新街285巷23號","121.51061","24.993725","6500300","中和區"
"235031","255-BX","2018/03/30 14:29:32","新北市中和區連城路332號","121.48317","24.9959183333333","6500300","中和區"
"235008","293-VK","2018/03/30 14:29:31","新北市中和區南山路160號","121.504328333333","24.9918066666667","6500300","中和區"
"235036","301-VK","2018/03/30 14:29:29","新北市中和區廣福路63號","121.502411666667","25.00109","6500300","中和區"
"235007","352-BY","2018/03/30 14:29:36","新北市中和區安樂路62號","121.512343333333","24.9931516666667","6500300","中和區"
"235032","377-QA","2018/03/30 14:29:36","新北市中和區中山路二段136巷3弄4號","121.50125","25.0035683333333","6500300","中和區"
"235025","378-QA","2018/03/30 14:29:34","新北市中和區民安街24號","121.48036","25.0007966666667","6500300","中和區"
"235035","269-TV","2018/03/30 14:29:32","新北市中和區連城路451號","121.484721666667","24.99612","6500300","中和區"
"235014","4979-A6","2018/03/30 14:29:28","新北市中和區員山路36巷16-3號","121.484605","24.99119","6500300","中和區"
"235033","4980-A6","2018/03/30 14:29:31","新北市中和區連城路134巷18號","121.495263333333","25.0001183333333","6500300","中和區"
"235006","551-UM","2018/03/30 14:29:31","新北市中和區中安街218號","121.511938333333","24.99896","6500300","中和區"
"235034","558-UM","2018/03/30 14:29:24","新北市中和區中和路59號","121.500483333333","25.0010883333333","6500300","中和區"
"235009","565-BX","2018/03/30 14:29:36","新北市中和區景新街475號","121.513493333333","24.98776","6500300","中和區"
"235018","640-BX","2018/03/30 14:29:29","新北市中和區國光街112巷15號","121.469688333333","25.0019666666667","6500300","中和區"
"235024","647-TV","2018/03/30 14:29:37","新北市中和區新生街114巷37弄12號","121.482191666667","25.0019016666667","6500300","中和區"
"235011","732-UM","2018/03/30 14:29:17","新北市中和區景平路259巷18號","121.507791666667","24.9927","6500300","中和區"
"235010","733-UM","2018/03/30 14:29:32","新北市中和區忠孝街37巷76號","121.510976666667","24.9849883333333","6500300","中和區"
"235026","800-TS","2018/03/30 14:29:24","新北市中和區中山路二段526巷23號","121.485711666667","25.0056833333333","6500300","中和區"
"235021","801-TS","2018/03/30 14:29:42","新北市中和區中山路三段37巷39號","121.479781666667","25.0047633333333","6500300","中和區"
"235005","802-TS","2018/03/30 14:29:33","新北市永和區中和路307號","121.506671666667","24.9996266666667","6500300","中和區"
"235016","805-TS","2018/03/30 14:29:36","新北市中和區華新街143巷69弄37號","121.507828333333","24.979085","6500300","中和區"
"235012","896-TW","2018/03/30 14:29:27","新北市中和區忠孝街39-2號","121.511665","24.98384","6500300","中和區"
"235017","900-TW","2018/03/30 14:29:30","新北市中和區民德路197號","121.468978333333","24.9983766666667","6500300","中和區"
"235015","157-BY","2018/03/30 14:29:30","新北市中和區捷運路125號","121.507313333333","24.9905983333333","6500300","中和區"
"235001","AAC-213","2018/03/30 14:29:29","新北市中和區秀朗路三段10巷14弄2號","121.525213333333","24.9965166666667","6500300","中和區"
"235023","AAC-215","2018/03/30 14:29:21","新北市中和區圓通路252-3號","121.49366","24.9911416666667","6500300","中和區"
"220013","072-UY","2018/03/30 14:29:40","新北市板橋區實踐路93巷101號","121.46732","25.0058283333333","6500100","板橋區"
"220034","073-UY","2018/03/30 14:29:29","新北市板橋區國光路184號","121.46094","25.0183866666667","6500100","板橋區"
"220017","AAD-861","2018/03/30 14:29:23","新北市板橋區稚暉街39號","121.45716","25.0040933333333","6500100","板橋區"
"247023","893-R6","2018/03/30 14:29:21","新北市蘆洲區中正路261號","121.467385","25.08735","6501400","蘆洲區"
"247013","546-UM","2018/03/30 14:29:18","新北市蘆洲區中山二路170號","121.470843333333","25.08085","6501400","蘆洲區"
"247021","500-BY","2018/03/30 14:29:34","新北市蘆洲區中正路392號","121.46323","25.093185","6501400","蘆洲區"
"247009","341-TH","2018/03/30 14:29:29","新北市蘆洲區鷺江街20號","121.478458333333","25.08247","6501400","蘆洲區"
"247011","339-TH","2018/03/30 14:29:38","新北市蘆洲區中興街125號","121.482055","25.08945","6501400","蘆洲區"
"247003","337-TH","2018/03/30 14:29:38","新北市蘆洲區長安街295號","121.45815","25.0847216666667","6501400","蘆洲區"
"247005","336-TH","2018/03/30 14:29:32","新北市蘆洲區長安街22巷31弄18號","121.464178333333","25.08045","6501400","蘆洲區"
"247017","057-VK","2018/03/30 14:29:33","新北市蘆洲區民族路314巷3弄3號","121.477353333333","25.090415","6501400","蘆洲區"
"247007","056-VK","2018/03/30 14:29:23","新北市蘆洲區信義路30巷15號","121.474505","25.078735","6501400","蘆洲區"
"247001","053-VK","2018/03/30 14:29:22","新北市蘆洲區永樂街38巷33弄60號","121.456491666667","25.089975","6501400","蘆洲區"
"247015","007-UY","2018/03/30 14:29:29","新北市蘆洲區中正路185巷25弄8號","121.466933333333","25.0841633333333","6501400","蘆洲區"
"247019","001-UY","2018/03/30 14:29:26","新北市蘆洲區水湳街389號","121.469901666667","25.0937133333333","6501400","蘆洲區"
"235003","251-BX","2018/03/30 14:29:27","新北市中和區秀峰街103巷7弄4號","121.519493333333","24.9889216666667","6500300","中和區"
"207002","749-BX","2018/03/30 14:29:33","新北市萬里區溪底里香員林路17-2號","121.636778333333","25.1600633333333","6502800","萬里區"
"207001","662-BX","2018/03/30 14:29:36","新北市萬里區磺潭里員潭路2號","121.644081666667","25.2010466666667","6502800","萬里區"
"236067","105-UM","2018/03/30 14:29:28","新北市土城區永豐路255巷21弄7號","121.474998333333","24.97419","6501300","土城區"
"236040","107-UM","2018/03/30 14:29:26","新北市土城區裕民路61巷4號","121.449396666667","24.9880083333333","6501300","土城區"
"236077","166-UM","2018/03/30 14:29:36","新北市土城區大暖路51-1號","121.422533333333","24.9587216666667","6501300","土城區"
"236029","253-BX","2018/03/30 14:29:31","新北市土城區中央路二段254號","121.441495","24.9748716666667","6501300","土城區"
"236024","269-VK","2018/03/30 14:29:35","新北市土城區承天路18號","121.439356666667","24.9634583333333","6501300","土城區"
"236013","270-VK","2018/03/30 14:29:32","新北市土城區青雲路39巷7號","121.460295","24.98744","6501300","土城區"
"236032","271-VK","2018/03/30 14:29:37","新北市土城區明德路一段295號","121.460005","24.9772633333333","6501300","土城區"
"236016","401-BY","2018/03/30 14:29:31","新北市土城區明德路一段93巷6號","121.466051666667","24.9832333333333","6501300","土城區"
"236006","498-BY","2018/03/30 14:29:22","新北市土城區中華路一段94號","121.4447","24.9874633333333","6501300","土城區"
"236057","912-UM","2018/03/30 14:29:32","新北市土城區中央路四段133-1號","121.416053333333","24.9574616666667","6501300","土城區"
"236045","913-UM","2018/03/30 14:29:31","新北市土城區青雲路369-2號","121.458761666667","24.97534","6501300","土城區"
"236060","915-UM","2018/03/30 14:29:30","新北市土城區延壽路1-9號","121.46918","24.9938583333333","6501300","土城區"
"236054","AAC-216","2018/03/30 14:29:18","新北市土城區中華路二段61號","121.439391666667","24.9786666666667","6501300","土城區"
"242001","233-RS","2018/03/30 14:29:29","新北市新莊區瓊林路59-87號","121.442901666667","25.0249733333333","6500500","新莊區"
"220027","145-BY","2018/03/30 14:29:24","新北市板橋區民權路302巷7號","121.457398333333","25.016555","6500100","板橋區"
"220105","KEA-2550","2018/03/30 14:29:38","新北市板橋區江寧路三段117號","121.473201666667","25.0330233333333","6500100","板橋區"
"220030","610-BX","2018/03/30 14:29:34","新北市板橋區大觀路三段261號","121.429311666667","24.9921816666667","6500100","板橋區"
"220050","245-BX","2018/03/30 14:29:29","新北市板橋區縣民大道三段133巷1號","121.477475","25.0232416666667","6500100","板橋區"
"220004","276-BY","2018/03/30 14:29:33","新北市板橋區信義路1巷26弄35號","121.4589","24.996755","6500100","板橋區"
"220019","283-VK","2018/03/30 14:29:29","新北市板橋區信義路69號","121.45714","24.995445","6500100","板橋區"
"220043","285-UM","2018/03/30 14:29:21","新北市板橋區松江街105號","121.468928333333","25.0304116666667","6500100","板橋區"
"220001","285-VK","2018/03/30 14:29:24","新北市板橋區富山街85巷2弄1號","121.476625","25.021565","6500100","板橋區"
"220031","286-VK","2018/03/30 14:29:37","新北市板橋區龍興街65巷72號","121.442096666667","25.0022183333333","6500100","板橋區"
"220029","287-VK","2018/03/30 14:29:35","新北市板橋區大觀路一段75巷11號","121.447706666667","25.0044633333333","6500100","板橋區"
"220039","288-VK","2018/03/30 14:29:34","新北市板橋區裕民街68號","121.461055","25.02845","6500100","板橋區"
"220009","293-UM","2018/03/30 14:29:41","新北市板橋區中山路一段265巷36弄1號","121.469111666667","25.0152","6500100","板橋區"
"220032","296-UM","2018/03/30 14:29:28","新北市板橋區溪崑二街112巷33弄20號","121.425238333333","24.9886733333333","6500100","板橋區"
"220023","303-R5","2018/03/30 14:29:28","新北市板橋區中正路275巷50號","121.453663333333","25.0182816666667","6500100","板橋區"
"220010","305-R5","2018/03/30 14:29:30","新北市板橋區三民路二段153巷2弄12-5號","121.47958","25.0143866666667","6500100","板橋區"
"220041","307-R5","2018/03/30 14:29:22","新北市板橋區光武街4巷15號","121.468236666667","25.0256983333333","6500100","板橋區"
"220047","317-R6","2018/03/30 14:29:36","新北市板橋區民生路三段263巷4弄2號","121.463745","25.0297283333333","6500100","板橋區"
"220028","461-BY","2018/03/30 14:29:31","新北市板橋區大觀路二段37巷57號","121.449373333333","25.0025333333333","6500100","板橋區"
"220012","486-VK","2018/03/30 14:29:26","新北市板橋區中山路一段26號","121.460501666667","25.008205","6500100","板橋區"
"220037","491-VK","2018/03/30 14:29:35","新北市板橋區雙十路一段22號","121.478036666667","25.024395","6500100","板橋區"
"220104","560-BX","2018/03/30 14:29:38","新北市板橋區公館街252號","121.46","25.0211733333333","6500100","板橋區"
"220052","561-BX","2018/03/30 14:29:36","新北市板橋區介壽街1號","121.4671","25.020435","6500100","板橋區"
"220003","568-UM","2018/03/30 14:29:29","新北市板橋區重慶路278巷16號","121.462393333333","24.9996683333333","6500100","板橋區"
"220011","609-BX","2018/03/30 14:25:42","新北市板橋區三民路二段253-1號","121.47909","25.011705","6500100","板橋區"
"220040","637-BX","2018/03/30 14:29:25","新北市板橋區文聖街132號","121.478323333333","25.0281533333333","6500100","板橋區"
"220005","686-BX","2018/03/30 14:29:36","新北市板橋區國慶路182巷32-1號","121.462798333333","24.9951383333333","6500100","板橋區"
"220025","687-BX","2018/03/30 14:29:34","新北市板橋區僑中二街92巷1號","121.446173333333","25.0088233333333","6500100","板橋區"
"220042","689-BX","2018/03/30 14:29:34","新北市板橋區雨農路27巷2號","121.461233333333","25.0242383333333","6500100","板橋區"
"220002","741-BX","2018/03/30 14:29:03","新北市板橋區忠孝路3號","121.459826666667","25.00184","6500100","板橋區"
"220051","KEA-2699","2018/03/30 14:29:38","新北市板橋區雙十路二段130巷2弄11號","121.474466666667","25.029","6500100","板橋區"
"220014","829-TW","2018/03/30 14:29:29","新北市板橋區漢生東路330-1號","121.471768333333","25.0078566666667","6500100","板橋區"
"220016","830-TW","2018/03/30 14:29:30","新北市板橋區中山路二段420號","121.483093333333","25.0211083333333","6500100","板橋區"
"220045","831-TW","2018/03/30 14:29:07","新北市板橋區萬板路65號","121.471496666667","25.0220783333333","6500100","板橋區"
"220038","833-TW","2018/03/30 14:29:26","新北市板橋區文化路一段189號","121.463205","25.016435","6500100","板橋區"
"220022","895-R6","2018/03/30 14:29:35","新北市板橋區縣民大道一段193號","121.45919","25.00848","6500100","板橋區"
"220021","985-R7","2018/03/30 14:29:39","新北市板橋區中正路431號","121.454211666667","25.0231966666667","6500100","板橋區"
"220046","AAC-210","2018/03/30 14:29:31","新北市板橋區陽明街245號","121.463076666667","25.02478","6500100","板橋區"
"220018","AAC-253","2018/03/30 14:29:36","新北市板橋區重慶路40號","121.461386666667","25.007475","6500100","板橋區"
