"lineid","car","time","location","longitude","latitude","cityid","cityname"
"231002","002-UM","2018/03/30 15:29:36","新北市新店區力行路15號","121.536828333333","24.9654216666667","6500600","新店區"
"231037","0291-UT","2018/03/30 15:29:38","新北市新店區安民街339號","121.516923333333","24.9749333333333","6500600","新店區"
"231025","0293-UT","2018/03/30 15:29:34","新北市新店區中央二街68號","121.526173333333","24.9746066666667","6500600","新店區"
"231028","046-UY","2018/03/30 15:29:33","新北市新店區僑義路5巷3號","121.500175","24.9519333333333","6500600","新店區"
"231030","047-UY","2018/03/30 15:29:36","新北市新店區新和街54號","121.519685","24.9852633333333","6500600","新店區"
"231029","106-UY","2018/03/30 15:29:35","新北市新店區安康路三段525巷56號","121.481923333333","24.9452066666667","6500600","新店區"
"231018","107-UY","2018/03/30 15:29:41","新北市新店區民生路126號","121.529775","24.9825883333333","6500600","新店區"
"231012","108-UY","2018/03/30 15:29:29","新北市新店區寶元路一段97-1號","121.543948333333","24.98513","6500600","新店區"
"231022","187-VK","2018/03/30 15:29:34","新北市新店區金興路12號","121.550068333333","24.9298","6500600","新店區"
"231026","256-BX","2018/03/30 15:29:38","新北市新店區三民路117巷6弄1號","121.534098333333","24.9712033333333","6500600","新店區"
"231023","AAD-862","2018/03/30 15:29:25","新北市新店區北新路一段96巷23號","121.542858333333","24.968755","6500600","新店區"
"231027","3712-VJ","2018/03/30 15:07:26","新北市新店區安華路28-1號","121.519296666667","24.9606266666667","6500600","新店區"
"231036","512-UM","2018/03/30 15:29:23","新北市新店區安祥路69巷89弄35號","121.482573333333","24.9610266666667","6500600","新店區"
"231035","513-UM","2018/03/30 15:29:28","新北市新店區安興路96-1號","121.515101666667","24.97652","6500600","新店區"
"231005","618-UM","2018/03/30 15:29:38","新北市新店區建國路293巷2號","121.536975","24.985935","6500600","新店區"
"231003","641-BX","2018/03/30 15:29:33","新北市新店區寶高路120巷1號","121.554581666667","24.976015","6500600","新店區"
"231039","718-UY","2018/03/30 15:29:35","新北市新店區寶元路一段84巷2號","121.5444","24.9838916666667","6500600","新店區"
"231032","719-UY","2018/03/30 15:29:29","新北市新店區雙城路45巷2號","121.492388333333","24.94798","6500600","新店區"
"231004","899-TW","2018/03/30 15:29:38","新北市新店區民族路108號","121.538178333333","24.9773616666667","6500600","新店區"
"241029","942-UM","2018/03/30 15:29:39","新北市三重區重新路四段121號","121.484696666667","25.0519183333333","6500200","三重區"
"235030","003-UY","2018/03/30 15:29:33","新北市中和區中山路二段3巷22弄19號","121.50601","25.0044033333333","6500300","中和區"
"235014","4979-A6","2018/03/30 15:29:28","新北市中和區南華路89號","121.505606666667","24.9973616666667","6500300","中和區"
"235033","4980-A6","2018/03/30 15:29:31","新北市中和區新生街290號","121.4836","24.99639","6500300","中和區"
"235046","733-UM","2018/03/30 15:24:25","新北市中和區員山路36巷13號","121.484151666667","24.9908283333333","6500300","中和區"
"235023","AAC-215","2018/03/30 15:29:21","新北市中和區圓通路332號","121.484406666667","24.9861616666667","6500300","中和區"
"247006","336-TH","2018/03/30 15:29:24","新北市五股區中興路三段2巷10號","121.448658333333","25.081975","6501400","蘆洲區"
"227011","642-TC","2018/03/30 15:29:31","新北市雙溪區三貂里政光路3-1號","121.850986666667","25.0631466666667","6502500","雙溪區"
"227003","400-TW","2018/03/30 15:29:37","新北市雙溪區三貂里政光路3-1號","121.851048333333","25.06312","6502500","雙溪區"
"236067","105-UM","2018/03/30 15:29:28","新北市土城區中央路二段280號","121.44082","24.974115","6501300","土城區"
"236040","107-UM","2018/03/30 15:29:36","新北市土城區學成路22巷4號","121.453378333333","24.9872566666667","6501300","土城區"
"236077","166-UM","2018/03/30 15:29:36","新北市土城區三民路63號","121.419553333333","24.9644516666667","6501300","土城區"
"236029","253-BX","2018/03/30 15:29:28","新北市土城區中央路一段118巷1弄11號","121.44587","24.98784","6501300","土城區"
"236024","269-VK","2018/03/30 15:29:35","新北市土城區中央路一段289號","121.444341666667","24.98432","6501300","土城區"
"236013","270-VK","2018/03/30 15:29:32","新北市土城區廣明街63巷2弄2號","121.454773333333","24.9935783333333","6501300","土城區"
"236032","271-VK","2018/03/30 15:29:37","新北市土城區延吉街363巷8號","121.464165","24.983495","6501300","土城區"
"236016","401-BY","2018/03/30 15:29:31","新北市土城區延吉街92號","121.470618333333","24.9863383333333","6501300","土城區"
"236057","912-UM","2018/03/30 15:29:38","新北市土城區中央路二段32號","121.442756666667","24.979955","6501300","土城區"
"236045","913-UM","2018/03/30 15:29:31","新北市土城區金城路二段396號","121.463935","24.985795","6501300","土城區"
"236060","915-UM","2018/03/30 15:29:30","新北市土城區延和路20號","121.464476666667","24.9882633333333","6501300","土城區"
"236054","AAC-216","2018/03/30 15:29:38","新北市土城區延和路13巷4號","121.464078333333","24.9882","6501300","土城區"
"242001","233-RS","2018/03/30 15:29:28","新北市新莊區環河路636-7號","121.437401666667","25.01168","6500500","新莊區"
"220050","245-BX","2018/03/30 15:29:29","新北市板橋區民生路二段120號","121.470291666667","25.0198733333333","6500100","板橋區"
"220052","561-BX","2018/03/30 15:29:36","新北市板橋區漢生東路43巷28號","121.46642","25.0176066666667","6500100","板橋區"
"220014","829-TW","2018/03/30 15:25:54","新北市板橋區民生路二段120號","121.470351666667","25.0197433333333","6500100","板橋區"
"220038","833-TW","2018/03/30 15:29:32","新北市板橋區四維路324號","121.462273333333","25.0301783333333","6500100","板橋區"
