"lineid","car","time","location","longitude","latitude","cityid","cityname"
"231037","0291-UT","2018/03/30 15:39:38","新北市新店區安民街339號","121.516933333333","24.97487","6500600","新店區"
"231028","046-UY","2018/03/30 15:39:33","新北市新店區安華路3號","121.519146666667","24.9595366666667","6500600","新店區"
"231030","047-UY","2018/03/30 15:39:36","新北市新店區永安街101-1號","121.520943333333","24.9859133333333","6500600","新店區"
"231029","106-UY","2018/03/30 15:39:25","新北市新店區安康路三段26號","121.493176666667","24.9532366666667","6500600","新店區"
"231018","107-UY","2018/03/30 15:39:21","新北市新店區溪園路245-2號","121.525796666667","24.9835233333333","6500600","新店區"
"231012","108-UY","2018/03/30 15:39:29","新北市新店區文化路92號","121.544948333333","24.9825","6500600","新店區"
"231022","187-VK","2018/03/30 15:39:34","新北市新店區新烏路一段87巷3號","121.546178333333","24.9418983333333","6500600","新店區"
"231016","KEA-2219","2018/03/30 15:39:38","新北市新店區北宜路一段201號","121.547291666667","24.9522366666667","6500600","新店區"
"231026","256-BX","2018/03/30 15:39:38","新北市新店區三民路75巷2弄1號","121.535706666667","24.9711316666667","6500600","新店區"
"231046","278-BY","2018/03/30 15:39:30","新北市新店區安華路28-1號","121.519693333333","24.9612016666667","6500600","新店區"
"231023","AAD-862","2018/03/30 15:39:25","新北市新店區中興路一段266-3號","121.544946666667","24.967405","6500600","新店區"
"231036","512-UM","2018/03/30 15:39:43","新北市新店區安康路二段379號","121.495091666667","24.9546433333333","6500600","新店區"
"231035","513-UM","2018/03/30 15:39:28","新北市新店區安興路96號","121.51514","24.9764183333333","6500600","新店區"
"231005","618-UM","2018/03/30 15:39:38","新北市新店區民族路203號","121.537113333333","24.9760566666667","6500600","新店區"
"231003","641-BX","2018/03/30 15:39:33","新北市新店區寶興路60巷4號","121.549796666667","24.97197","6500600","新店區"
"231039","718-UY","2018/03/30 15:39:32","新北市新店區寶中路69號","121.54738","24.9805833333333","6500600","新店區"
"231013","719-UM","2018/03/30 15:39:38","新北市新店區永業路81巷5弄7號","121.530426666667","24.9491716666667","6500600","新店區"
"231032","719-UY","2018/03/30 15:39:29","新北市新店區雙城路41巷1號","121.492411666667","24.9489183333333","6500600","新店區"
"231004","899-TW","2018/03/30 15:39:38","新北市新店區民族路108號","121.538196666667","24.97735","6500600","新店區"
"241011","013-R5","2018/03/30 15:39:31","新北市三重區三和路三段5號","121.49711","25.0705566666667","6500200","三重區"
"241028","022-UY","2018/03/30 15:39:25","新北市三重區重新路四段121號","121.484736666667","25.0526516666667","6500200","三重區"
"241015","062-VK","2018/03/30 15:39:23","新北市三重區重新路四段121號","121.485128333333","25.0519833333333","6500200","三重區"
"241017","063-VK","2018/03/30 15:39:24","新北市三重區大仁街1號","121.491661666667","25.0635666666667","6500200","三重區"
"241013","270-UM","2018/03/30 15:39:41","新北市三重區龍門路1號","121.494641666667","25.070855","6500200","三重區"
"241014","543-UM","2018/03/30 15:39:33","新北市三重區重新路四段121號","121.485028333333","25.0518683333333","6500200","三重區"
"241023","545-UM","2018/03/30 15:39:20","新北市三重區重新路四段121號","121.484725","25.0525316666667","6500200","三重區"
"241006","AAD-863","2018/03/30 15:39:36","新北市三重區重新路四段121號","121.48473","25.0521333333333","6500200","三重區"
"241012","941-UM","2018/03/30 15:39:24","新北市三重區自強路一段66號","121.497148333333","25.0665816666667","6500200","三重區"
"241029","942-UM","2018/03/30 15:39:39","新北市三重區大同南路202號","121.49678","25.0567166666667","6500200","三重區"
"235033","4980-A6","2018/03/30 15:39:31","新北市中和區新生街279號","121.483873333333","24.9977233333333","6500300","中和區"
"235046","733-UM","2018/03/30 15:24:25","新北市中和區員山路36巷13號","121.484151666667","24.9908283333333","6500300","中和區"
"235026","800-TS","2018/03/30 15:39:24","新北市中和區橋和路150號","121.493895","25.00621","6500300","中和區"
"235023","AAC-215","2018/03/30 15:39:41","新北市中和區員山路28-27號","121.480946666667","24.98673","6500300","中和區"
"247006","336-TH","2018/03/30 15:35:07","新北市五股區中興路三段163號","121.449103333333","25.081025","6501400","蘆洲區"
"227011","642-TC","2018/03/30 15:39:31","新北市雙溪區三貂里定福路1號","121.849493333333","25.0642666666667","6502500","雙溪區"
"227003","400-TW","2018/03/30 15:39:36","新北市雙溪區牡丹里頂坪5-1號","121.862731666667","25.03872","6502500","雙溪區"
"236067","105-UM","2018/03/30 15:39:28","新北市土城區中央路三段38號","121.43847","24.9688733333333","6501300","土城區"
"236077","166-UM","2018/03/30 15:39:36","新北市土城區金安街63號","121.420585","24.965","6501300","土城區"
"236029","253-BX","2018/03/30 15:39:28","新北市土城區學成路108巷13弄11號","121.449591666667","24.99002","6501300","土城區"
"236024","269-VK","2018/03/30 15:39:35","新北市土城區裕生路83巷18號","121.447458333333","24.98408","6501300","土城區"
"236013","270-VK","2018/03/30 15:39:32","新北市土城區廣明街61號","121.454995","24.9936533333333","6501300","土城區"
"236016","401-BY","2018/03/30 15:39:39","新北市土城區延吉街109號","121.471361666667","24.9866083333333","6501300","土城區"
"236057","912-UM","2018/03/30 15:39:32","新北市土城區中央路一段191號","121.446098333333","24.9870733333333","6501300","土城區"
"236045","913-UM","2018/03/30 15:39:31","新北市土城區金城路三段205-1號","121.470366666667","24.98933","6501300","土城區"
"236054","AAC-216","2018/03/30 15:39:38","新北市土城區中華路一段14號","121.447765","24.990565","6501300","土城區"
"242001","233-RS","2018/03/30 15:39:28","新北市新莊區環河路636-7號","121.437401666667","25.0116816666667","6500500","新莊區"
"220014","829-TW","2018/03/30 15:25:54","新北市板橋區民生路二段120號","121.470351666667","25.0197433333333","6500100","板橋區"
