"lineid","car","time","location","longitude","latitude","cityid","cityname"
"234038","336-UY","2018/03/30 15:52:18","新北市永和區福和路1號","121.526488333333","25.0101383333333","6500400","永和區"
"231018","107-UY","2018/03/30 16:19:41","新北市新店區中正路700巷40號","121.535545","24.9917383333333","6500600","新店區"
"231034","188-VK","2018/03/30 16:19:21","新北市新店區玫瑰路57巷29號","121.496736666667","24.94637","6500600","新店區"
"231046","278-BY","2018/03/30 16:19:29","新北市新店區灣潭路3-3號","121.538246666667","24.95077","6500600","新店區"
"241011","013-R5","2018/03/30 16:19:31","新北市三重區龍濱路285號","121.501163333333","25.0733933333333","6500200","三重區"
"241028","022-UY","2018/03/30 16:19:25","新北市三重區重安街170巷6號","121.49635","25.0548733333333","6500200","三重區"
"241008","059-VK","2018/03/30 16:19:23","新北市三重區永福街122-2號","121.47907","25.0753416666667","6500200","三重區"
"241009","060-VK","2018/03/30 16:19:35","新北市三重區溪尾街196巷7號","121.487888333333","25.0808783333333","6500200","三重區"
"241031","061-VK","2018/03/30 16:19:25","新北市三重區捷運路11-2號","121.485856666667","25.0562433333333","6500200","三重區"
"241015","062-VK","2018/03/30 16:19:23","新北市三重區福德北路79號","121.501993333333","25.06588","6500200","三重區"
"241017","063-VK","2018/03/30 16:19:24","新北市三重區大同北路91號","121.49479","25.0636583333333","6500200","三重區"
"241024","065-VK","2018/03/30 16:19:26","新北市三重區中正北路193巷27號","121.476183333333","25.070605","6500200","三重區"
"241002","090-VK","2018/03/30 16:19:41","新北市三重區仁義街91號","121.499643333333","25.0798216666667","6500200","三重區"
"241003","091-VK","2018/03/30 16:19:38","新北市三重區五華街57巷18號","121.493413333333","25.0830383333333","6500200","三重區"
"241005","262-UM","2018/03/30 16:19:37","新北市三重區溪尾街305號","121.487501666667","25.0837533333333","6500200","三重區"
"241016","265-UM","2018/03/30 16:19:22","新北市三重區大仁街37號","121.49292","25.065415","6500200","三重區"
"241022","267-UM","2018/03/30 16:19:39","新北市三重區新北大道一段15巷2號","121.487985","25.06084","6500200","三重區"
"241018","268-UM","2018/03/30 16:19:29","新北市三重區重陽路三段144號","121.489551666667","25.0672483333333","6500200","三重區"
"241013","270-UM","2018/03/30 16:19:21","新北市三重區三和路三段83巷96號","121.497483333333","25.073015","6500200","三重區"
"241025","271-UM","2018/03/30 16:19:42","新北市三重區中正北路560巷100弄2號","121.472553333333","25.0682566666667","6500200","三重區"
"241007","398-BY","2018/03/30 16:19:24","新北市三重區仁美街83號","121.486238333333","25.07949","6500200","三重區"
"241004","475-VK","2018/03/30 16:19:24","新北市三重區自強路五段89號","121.495261666667","25.0822366666667","6500200","三重區"
"241020","478-VK","2018/03/30 16:19:38","新北市三重區車路頭街17巷4號","121.484048333333","25.0705516666667","6500200","三重區"
"241030","480-VK","2018/03/30 16:19:37","新北市三重區重新路四段121號","121.484858333333","25.0527783333333","6500200","三重區"
"241014","543-UM","2018/03/30 16:19:33","新北市三重區長樂街130號","121.502365","25.0697416666667","6500200","三重區"
"241023","545-UM","2018/03/30 16:19:40","新北市三重區忠孝路三段32號","121.481263333333","25.0668033333333","6500200","三重區"
"241001","547-UM","2018/03/30 16:19:40","新北市三重區自強路四段77號","121.49082","25.0790783333333","6500200","三重區"
"241033","557-UM","2018/03/30 16:19:26","新北市三重區重新路五段430號","121.47516","25.04757","6500200","三重區"
"241019","KEA-2593","2018/03/30 16:19:37","新北市三重區重陽路三段172號","121.489971666667","25.0678766666667","6500200","三重區"
"241006","AAD-863","2018/03/30 16:19:36","新北市三重區永福街46巷29號","121.482203333333","25.07754","6500200","三重區"
"241026","887-TS","2018/03/30 16:19:31","新北市三重區正義南路54號","121.498291666667","25.060725","6500200","三重區"
"241012","941-UM","2018/03/30 16:19:24","新北市三重區河邊北街317號","121.502438333333","25.07492","6500200","三重區"
"241029","942-UM","2018/03/30 16:19:39","新北市三重區環河南路220-8號","121.493363333333","25.052695","6500200","三重區"
"235026","800-TS","2018/03/30 16:19:24","新北市中和區建八路125巷1號","121.489645","24.998995","6500300","中和區"
"224007","275-VK","2018/03/30 16:19:36","新北市瑞芳區大埔路126號","121.762021666667","25.1009816666667","6501200","瑞芳區"
"224005","271-BY","2018/03/30 16:19:33","新北市瑞芳區阿美家園51號","121.82036","25.1169383333333","6501200","瑞芳區"
"227011","642-TC","2018/03/30 16:19:29","新北市雙溪區三港里雙澳路80號","121.883793333333","25.05386","6502500","雙溪區"
"227003","400-TW","2018/03/30 16:19:36","新北市雙溪區上林里內平林80號","121.828323333333","25.0279766666667","6502500","雙溪區"
"251008","181-VK","2018/03/30 16:19:28","新北市淡水區民權路3號","121.459631666667","25.1421566666667","6501000","淡水區"
"242001","233-RS","2018/03/30 16:19:28","新北市新莊區環河路636-7號","121.437391666667","25.011675","6500500","新莊區"
