"lineid","car","time","location","longitude","latitude","cityid","cityname"
"249005","172-UM","2018/03/30 16:39:31","新北市八里區博物館路23號","121.414796666667","25.1633516666667","6502300","八里區"
"231046","278-BY","2018/03/30 16:39:29","新北市新店區灣潭路23號","121.538293333333","24.9412683333333","6500600","新店區"
"241011","013-R5","2018/03/30 16:39:31","新北市三重區仁愛街49號","121.496556666667","25.0716766666667","6500200","三重區"
"241028","022-UY","2018/03/30 16:39:25","新北市三重區重新路三段82號","121.49334","25.0608266666667","6500200","三重區"
"241008","059-VK","2018/03/30 16:39:23","新北市三重區永安北路一段27巷46號","121.477775","25.075565","6500200","三重區"
"241009","060-VK","2018/03/30 16:39:35","新北市三重區三和路四段203巷94號","121.484396666667","25.0801066666667","6500200","三重區"
"241031","061-VK","2018/03/30 16:39:25","新北市三重區重新路四段41巷5弄2號","121.487275","25.0585433333333","6500200","三重區"
"241015","062-VK","2018/03/30 16:39:23","新北市三重區文化北路37號","121.498955","25.0650433333333","6500200","三重區"
"241017","063-VK","2018/03/30 16:39:24","新北市三重區中正北路25巷16號","121.493526666667","25.0629733333333","6500200","三重區"
"241024","065-VK","2018/03/30 16:39:26","新北市三重區中正北路315巷6弄55號","121.476738333333","25.0722933333333","6500200","三重區"
"241002","090-VK","2018/03/30 16:39:41","新北市三重區仁義街241巷12號","121.496655","25.0828366666667","6500200","三重區"
"241003","091-VK","2018/03/30 16:39:38","新北市三重區五華街120號","121.492038333333","25.0832483333333","6500200","三重區"
"241005","262-UM","2018/03/30 16:39:37","新北市三重區仁華街142-1號","121.486911666667","25.0830666666667","6500200","三重區"
"241016","265-UM","2018/03/30 16:39:42","新北市三重區大智街1-1號","121.494813333333","25.0648616666667","6500200","三重區"
"241022","267-UM","2018/03/30 16:39:39","新北市三重區三民街88號","121.485593333333","25.0630133333333","6500200","三重區"
"241018","268-UM","2018/03/30 16:39:29","新北市三重區六張街58號","121.494015","25.07018","6500200","三重區"
"241032","269-UM","2018/03/30 16:39:41","新北市三重區新北大道一段21號","121.486331666667","25.0613516666667","6500200","三重區"
"241013","270-UM","2018/03/30 16:39:41","新北市三重區三和路三段101巷130號","121.498181666667","25.0735533333333","6500200","三重區"
"241025","271-UM","2018/03/30 16:39:42","新北市三重區中正北路428巷17號","121.474541666667","25.0700233333333","6500200","三重區"
"241007","398-BY","2018/03/30 16:39:24","新北市三重區仁美街86號","121.485966666667","25.0796766666667","6500200","三重區"
"241004","475-VK","2018/03/30 16:39:24","新北市三重區五福街14號","121.492871666667","25.0814883333333","6500200","三重區"
"241020","478-VK","2018/03/30 16:39:38","新北市三重區後竹圍街205巷25號","121.484825","25.0723783333333","6500200","三重區"
"241030","480-VK","2018/03/30 16:39:37","新北市三重區環河南路286號","121.488965","25.0488783333333","6500200","三重區"
"241014","543-UM","2018/03/30 16:39:33","新北市三重區龍濱路50號","121.502691666667","25.0685916666667","6500200","三重區"
"241023","545-UM","2018/03/30 16:39:40","新北市三重區忠孝路三段50巷53號","121.48326","25.064265","6500200","三重區"
"241001","547-UM","2018/03/30 16:39:40","新北市三重區仁愛街206號","121.493785","25.0775116666667","6500200","三重區"
"241033","557-UM","2018/03/30 16:38:47","新北市三重區光復路二段138號","121.47189","25.05937","6500200","三重區"
"241019","KEA-2593","2018/03/30 16:39:37","新北市三重區安慶街331號","121.487845","25.06709","6500200","三重區"
"241006","AAD-863","2018/03/30 16:39:36","新北市三重區車路頭街138-2號","121.483591666667","25.0754716666667","6500200","三重區"
"241026","887-TS","2018/03/30 16:39:26","新北市三重區福德南路53號","121.503083333333","25.0617","6500200","三重區"
"241012","941-UM","2018/03/30 16:39:44","新北市三重區仁興街4巷15號","121.499503333333","25.0737183333333","6500200","三重區"
"241029","942-UM","2018/03/30 16:39:39","新北市三重區集美街112巷13號","121.489445","25.054165","6500200","三重區"
"235062","800-TS","2018/03/30 16:31:36","新北市中和區員山路36巷16-3號","121.484936666667","24.9915616666667","6500300","中和區"
"247006","336-TH","2018/03/30 16:39:26","新北市五股區中興路三段190-2號","121.443548333333","25.0814583333333","6501400","蘆洲區"
"247020","001-UY","2018/03/30 16:39:31","新北市五股區中興路三段2巷10號","121.448391666667","25.0812583333333","6501400","蘆洲區"
"228002","663-BX","2018/03/30 16:39:30","新北市貢寮區貢寮里朝陽街20號","121.911426666667","25.0216183333333","6502600","貢寮區"
"228003","828-UM","2018/03/30 16:39:39","新北市貢寮區貢寮里朝陽街1-2號","121.912321666667","25.0212583333333","6502600","貢寮區"
"224007","275-VK","2018/03/30 16:39:36","新北市瑞芳區月眉路31號","121.760816666667","25.10882","6501200","瑞芳區"
"224009","273-VK","2018/03/30 16:39:33","新北市瑞芳區大寮路356-1號","121.784526666667","25.1033166666667","6501200","瑞芳區"
"224005","271-BY","2018/03/30 16:39:33","新北市瑞芳區洞頂路210-4號","121.861383333333","25.1246716666667","6501200","瑞芳區"
"227011","642-TC","2018/03/30 16:39:29","新北市雙溪區牡丹里中正路72號","121.864118333333","25.0445083333333","6502500","雙溪區"
"227003","400-TW","2018/03/30 16:39:36","新北市雙溪區外柑里外柑腳37號","121.80934","25.0182916666667","6502500","雙溪區"
"251008","181-VK","2018/03/30 16:39:27","台北市北投區中央北路四段30巷160號","121.47417","25.140485","6501000","淡水區"
"251011","650-BX","2018/03/30 16:39:22","新北市淡水區中正路二段31號","121.41931","25.1816583333333","6501000","淡水區"
"252002","178-VK","2018/03/30 16:39:30","新北市三芝區芝柏路59號","121.511241666667","25.2565383333333","6502100","三芝區"
"242001","233-RS","2018/03/30 16:25:36","新北市新莊區環河路636-7號","121.437386666667","25.011665","6500500","新莊區"
