"lineid","car","time","location","longitude","latitude","cityid","cityname"
"249005","172-UM","2018/03/30 17:29:31","新北市八里區荖阡坑路30號","121.405193333333","25.1294466666667","6502300","八里區"
"249001","173-UM","2018/03/30 17:29:42","新北市八里區中華路一段1號","121.423291666667","25.158645","6502300","八里區"
"249004","303-UY","2018/03/30 17:29:24","新北市八里區民治街102號","121.413495","25.15688","6502300","八里區"
"249002","305-UY","2018/03/30 17:29:26","新北市八里區龍米路二段41號","121.448275","25.140245","6502300","八里區"
"249003","593-UM","2018/03/30 17:29:38","新北市八里區中山路二段398號","121.400525","25.1478366666667","6502300","八里區"
"244013","069-UM","2018/03/30 17:29:36","新北市林口區文化一路二段200號","121.383005","25.080835","6501700","林口區"
"244007","080-UY","2018/03/30 17:29:31","新北市林口區建國路2號","121.38734","25.0929416666667","6501700","林口區"
"244025","742-UY","2018/03/30 17:29:36","新北市林口區民族路67-1號","121.365633333333","25.0753216666667","6501700","林口區"
"244009","410-SL","2018/03/30 17:29:39","新北市林口區中北一街76號","121.38577","25.0886966666667","6501700","林口區"
"244023","483-VK","2018/03/30 17:29:27","新北市林口區東明一街1巷12號","121.393483333333","25.0723133333333","6501700","林口區"
"244019","657-BX","2018/03/30 17:29:37","新北市林口區文化一路一段133號","121.37372","25.0717583333333","6501700","林口區"
"244021","838-TS","2018/03/30 17:29:31","新北市林口區粉寮路一段77-2號","121.397161666667","25.0796133333333","6501700","林口區"
"222002","659-BX","2018/03/30 17:29:26","新北市深坑區深南路88巷1號","121.621163333333","25.011395","6501800","深坑區"
"231046","278-BY","2018/03/30 17:29:30","新北市新店區直潭路92號","121.530898333333","24.9376083333333","6500600","新店區"
"241008","059-VK","2018/03/30 17:29:43","新北市三重區車路頭街76號","121.484348333333","25.073755","6500200","三重區"
"241015","062-VK","2018/03/30 17:29:43","新北市三重區長元街65巷22弄20號","121.503581666667","25.0659333333333","6500200","三重區"
"241017","063-VK","2018/03/30 17:29:24","新北市三重區大同北路34巷50號","121.493668333333","25.0619783333333","6500200","三重區"
"241024","065-VK","2018/03/30 17:29:26","新北市三重區國道路一段58巷20號","121.481286666667","25.0720116666667","6500200","三重區"
"241003","091-VK","2018/03/30 17:29:37","新北市三重區集賢路87-1號","121.493688333333","25.0868666666667","6500200","三重區"
"241005","262-UM","2018/03/30 17:29:37","新北市三重區碧華街91號","121.485458333333","25.0816083333333","6500200","三重區"
"241016","265-UM","2018/03/30 17:29:42","新北市三重區信義西街41號","121.49532","25.06397","6500200","三重區"
"241018","268-UM","2018/03/30 17:29:29","新北市三重區中正北路25巷16號","121.493505","25.0629933333333","6500200","三重區"
"241025","271-UM","2018/03/30 17:29:33","新北市三重區中正北路416號","121.475053333333","25.0708833333333","6500200","三重區"
"241007","398-BY","2018/03/30 17:29:24","新北市三重區三和路四段145巷223號","121.488931666667","25.0796333333333","6500200","三重區"
"241020","478-VK","2018/03/30 17:29:38","新北市三重區忠孝路二段34號","121.485795","25.0709883333333","6500200","三重區"
"241030","480-VK","2018/03/30 17:29:37","新北市三重區中正南路260-1號","121.493071666667","25.0528683333333","6500200","三重區"
"241014","543-UM","2018/03/30 17:29:33","新北市三重區長壽街63號","121.501681666667","25.0684616666667","6500200","三重區"
"241023","545-UM","2018/03/30 17:29:40","新北市三重區忠孝路三段84巷26號","121.481408333333","25.06445","6500200","三重區"
"241033","557-UM","2018/03/30 17:28:06","新北市三重區興德路145-2號","121.469001666667","25.05276","6500200","三重區"
"241019","KEA-2593","2018/03/30 17:29:37","新北市三重區自強路二段24號","121.489638333333","25.06926","6500200","三重區"
"241012","941-UM","2018/03/30 17:29:24","新北市三重區仁興街39巷14-6號","121.499876666667","25.07608","6500200","三重區"
"235061","378-QA","2018/03/30 17:15:58","新北市中和區員山路36巷16-2號","121.48528","24.99172","6500300","中和區"
"247024","893-R6","2018/03/30 17:29:29","新北市蘆洲區長興路292號","121.460351666667","25.0894133333333","6501400","蘆洲區"
"247014","546-UM","2018/03/30 17:29:43","新北市蘆洲區三民路33號","121.475473333333","25.082905","6501400","蘆洲區"
"247022","500-BY","2018/03/30 17:29:35","新北市蘆洲區三民路296號","121.466898333333","25.0905333333333","6501400","蘆洲區"
"247010","341-TH","2018/03/30 17:29:40","新北市蘆洲區信義路114號","121.479865","25.0821333333333","6501400","蘆洲區"
"247012","339-TH","2018/03/30 17:29:38","新北市蘆洲區民族路36號","121.476501666667","25.0843783333333","6501400","蘆洲區"
"247004","337-TH","2018/03/30 17:29:39","新北市蘆洲區長安街229號","121.459478333333","25.082735","6501400","蘆洲區"
"247006","336-TH","2018/03/30 17:29:26","新北市蘆洲區長安街22巷37號","121.464905","25.0802866666667","6501400","蘆洲區"
"247018","057-VK","2018/03/30 17:29:26","新北市蘆洲區民義街46號","121.472013333333","25.0890683333333","6501400","蘆洲區"
"247008","056-VK","2018/03/30 17:29:32","新北市蘆洲區成功路9號","121.473586666667","25.0782133333333","6501400","蘆洲區"
"247002","053-VK","2018/03/30 17:29:42","新北市蘆洲區永樂街38巷69號","121.458586666667","25.09057","6501400","蘆洲區"
"247016","007-UY","2018/03/30 17:29:41","新北市蘆洲區光華路22巷57號","121.467941666667","25.0850766666667","6501400","蘆洲區"
"247020","001-UY","2018/03/30 17:29:31","新北市蘆洲區仁愛街101巷8號","121.470725","25.0941333333333","6501400","蘆洲區"
"228002","663-BX","2018/03/30 17:29:26","新北市貢寮區福隆里興隆街20號","121.944781666667","25.0166816666667","6502600","貢寮區"
"228001","670-TC","2018/03/30 17:29:42","新北市貢寮區仁理村仁愛路46號","121.925248333333","25.0533716666667","6502600","貢寮區"
"228003","828-UM","2018/03/30 17:29:39","新北市貢寮區仁理村仁和路2-1號","121.923146666667","25.0486566666667","6502600","貢寮區"
"224010","AGQ-8101","2018/03/30 17:29:22","新北市瑞芳區岳王路25號","121.807361666667","25.1110266666667","6501200","瑞芳區"
"224008","285-BY","2018/03/30 17:29:39","新北市瑞芳區明燈路一段200號","121.830711666667","25.104915","6501200","瑞芳區"
"224007","275-VK","2018/03/30 17:29:36","新北市瑞芳區大寮路356-1號","121.78505","25.10333","6501200","瑞芳區"
"224009","273-VK","2018/03/30 17:29:33","新北市瑞芳區金光路334號","121.8482","25.10952","6501200","瑞芳區"
"224005","271-BY","2018/03/30 17:29:33","新北市瑞芳區海濱路2巷1號","121.836775","25.127335","6501200","瑞芳區"
"227003","400-TW","2018/03/30 17:29:36","新北市雙溪區平林里梅竹蹊51號","121.857956666667","25.0348133333333","6502500","雙溪區"
"251004","009-UM","2018/03/30 17:29:34","新北市淡水區中正東路二段88巷15號","121.458993333333","25.1505216666667","6501000","淡水區"
"251008","181-VK","2018/03/30 17:29:27","新北市淡水區大同路122巷18號","121.463425","25.1397783333333","6501000","淡水區"
"251010","413-VK","2018/03/30 17:29:29","新北市淡水區中正路二段211號","121.426195","25.1891116666667","6501000","淡水區"
"251012","441-VK","2018/03/30 17:29:37","新北市淡水區北新路115號","121.44857","25.17848","6501000","淡水區"
"251005","443-VK","2018/03/30 17:29:02","新北市淡水區鄧公路19號","121.451343333333","25.1700116666667","6501000","淡水區"
"251006","561-UM","2018/03/30 17:29:26","新北市淡水區大忠街5巷6號","121.443288333333","25.17652","6501000","淡水區"
"251009","575-R6","2018/03/30 17:29:39","新北市淡水區重建街1巷1弄6號","121.439736666667","25.1731166666667","6501000","淡水區"
"251007","577-R6","2018/03/30 17:29:42","新北市淡水區民生路56號","121.462038333333","25.1378933333333","6501000","淡水區"
"251011","650-BX","2018/03/30 17:29:42","新北市淡水區坪頂路712號","121.482501666667","25.158485","6501000","淡水區"
"251002","672-BX","2018/03/30 17:29:32","新北市淡水區中正路261號","121.4318","25.1748083333333","6501000","淡水區"
"251003","673-BX","2018/03/30 17:29:25","新北市淡水區文化路65號","121.437886666667","25.17292","6501000","淡水區"
"207003","550-UM","2018/03/30 17:29:32","新北市萬里區龜吼里翡翠路17號","121.683413333333","25.18688","6502800","萬里區"
"207004","225-TW","2018/03/30 17:29:25","新北市萬里區萬里里景美路11-2號","121.685356666667","25.1730666666667","6502800","萬里區"
"252002","178-VK","2018/03/30 17:29:30","新北市三芝區忠孝街1-14號","121.505498333333","25.2539516666667","6502100","三芝區"
"252001","292-VK","2018/03/30 17:29:27","新北市三芝區長安街119號","121.49799","25.2596483333333","6502100","三芝區"
"237012","275-BY","2018/03/30 17:29:36","新北市三峽區中山路459巷163-3號","121.348873333333","24.9332133333333","6500900","三峽區"
"237006","5529-G3","2018/03/30 17:29:26","新北市三峽區民生街92號","121.374076666667","24.935615","6500900","三峽區"
"242034","AAC-296","2018/03/30 17:29:36","新北市新莊區新莊路457號","121.449573333333","25.0334133333333","6500500","新莊區"
"242058","986-R7","2018/03/30 17:29:27","新北市新莊區中正路510-1號","121.434571666667","25.032695","6500500","新莊區"
"242054","751-BX","2018/03/30 17:29:35","新北市新莊區新樹路360號","121.432693333333","25.003365","6500500","新莊區"
"242029","705-TV","2018/03/30 17:29:41","新北市新莊區復興路二段188號","121.459101666667","25.0444116666667","6500500","新莊區"
"242027","615-BX","2018/03/30 17:29:28","新北市新莊區思源路38號","121.460178333333","25.0424833333333","6500500","新莊區"
"242025","613-BX","2018/03/30 17:29:41","新北市新莊區復興路二段60巷2弄16號","121.454776666667","25.0439583333333","6500500","新莊區"
"242041","566-BX","2018/03/30 17:29:40","新北市新莊區新樹路113巷19號","121.43917","25.026385","6500500","新莊區"
"242046","497-BY","2018/03/30 17:29:29","新北市新莊區福營路4號","121.440418333333","25.0327166666667","6500500","新莊區"
"242037","442-UM","2018/03/30 17:29:36","新北市新莊區建國二路1號","121.435065","25.0237233333333","6500500","新莊區"
"242050","441-UM","2018/03/30 17:29:42","新北市新莊區新樹路443號","121.43265","25.0136166666667","6500500","新莊區"
"242007","415-TV","2018/03/30 17:29:33","新北市新莊區中港路303號","121.452796666667","25.044495","6500500","新莊區"
"242044","400-BY","2018/03/30 17:29:32","新北市新莊區富國路74號","121.419948333333","25.0259283333333","6500500","新莊區"
"242023","362-BY","2018/03/30 17:29:32","新北市新莊區公園路148號","121.453106666667","25.0401183333333","6500500","新莊區"
"242060","353-BY","2018/03/30 17:29:29","新北市新莊區瓊林路118-1號","121.441761666667","25.02469","6500500","新莊區"
"242039","133-UY","2018/03/30 17:29:21","新北市新莊區民安路278號","121.427751666667","25.0214883333333","6500500","新莊區"
"242032","135-UY","2018/03/30 17:29:30","新北市新莊區新泰路401巷29號","121.442561666667","25.04397","6500500","新莊區"
"242048","172-VK","2018/03/30 17:29:38","新北市新莊區龍安路256號","121.42129","25.0195133333333","6500500","新莊區"
"242011","173-VK","2018/03/30 17:29:34","新北市新莊區中港路441號","121.452603333333","25.0482233333333","6500500","新莊區"
"242017","175-VK","2018/03/30 17:29:40","新北市新莊區建豐街15號","121.451641666667","25.04384","6500500","新莊區"
"242005","176-VK","2018/03/30 17:29:12","新北市新莊區中港路284號","121.453031666667","25.044175","6500500","新莊區"
"242015","346-TH","2018/03/30 17:29:38","新北市新莊區新泰路201號","121.446993333333","25.0381033333333","6500500","新莊區"
"242021","348-TH","2018/03/30 17:29:41","新北市新莊區中正路211號","121.452273333333","25.0361266666667","6500500","新莊區"
"242002","349-TH","2018/03/30 17:29:30","新北市新莊區新莊路213號","121.455301666667","25.0353633333333","6500500","新莊區"
"242019","350-TH","2018/03/30 17:29:29","新北市新莊區中港路72號","121.455521666667","25.038955","6500500","新莊區"
"242013","351-TH","2018/03/30 17:29:33","新北市新莊區中誠街16巷2號","121.451961666667","25.04829","6500500","新莊區"
"238015","755-BX","2018/03/30 17:29:40","新北市樹林區大安路261號","121.419171666667","24.993875","6500700","樹林區"
"238023","601-UM","2018/03/30 17:29:34","新北市樹林區中正路434-1號","121.413555","25.0114633333333","6500700","樹林區"
"238019","599-UM","2018/03/30 17:29:29","新北市樹林區太平路1-8號","121.418671666667","24.984465","6500700","樹林區"
"238018","571-TV","2018/03/30 17:29:32","新北市樹林區博愛街236號","121.42321","24.98844","6500700","樹林區"
"238024","5061-A6","2018/03/30 17:29:30","新北市樹林區博愛街191號","121.424488333333","24.98884","6500700","樹林區"
"238021","KEA-2217","2018/03/30 17:29:39","新北市樹林區民權街5巷7號","121.395085","24.9579483333333","6500700","樹林區"
"238022","KEA-2213","2018/03/30 17:29:45","新北市樹林區仁愛街40號","121.423188333333","24.9824933333333","6500700","樹林區"
"238025","303-VK","2018/03/30 17:29:38","新北市樹林區保安街一段195號","121.420981666667","24.996005","6500700","樹林區"
"238017","283-BY","2018/03/30 17:29:31","新北市樹林區光武街30巷6-1號","121.416981666667","25.0053483333333","6500700","樹林區"
"238014","282-BY","2018/03/30 17:29:29","新北市樹林區長壽街88號","121.419903333333","24.9960966666667","6500700","樹林區"
"238020","268-VK","2018/03/30 17:29:40","新北市樹林區俊英街114號","121.427406666667","25.0055","6500700","樹林區"
"238026","172-UY","2018/03/30 17:29:39","新北市樹林區新興街19巷6號","121.400458333333","24.972865","6500700","樹林區"
"238016","169-UY","2018/03/30 17:29:26","新北市樹林區長壽街28巷4弄1-2號","121.423313333333","24.9944033333333","6500700","樹林區"
"239007","AAC-297","2018/03/30 17:29:45","新北市鶯歌區中山路10號","121.35293","24.9570816666667","6500800","鶯歌區"
"239006","891-R6","2018/03/30 17:29:38","新北市鶯歌區鶯桃路466號","121.33264","24.9656716666667","6500800","鶯歌區"
"239008","527-UM","2018/03/30 17:29:39","新北市鶯歌區大湖路624號","121.334696666667","24.9748016666667","6500800","鶯歌區"
"239005","526-UM","2018/03/30 17:29:33","新北市鶯歌區福隆一街9號","121.325513333333","24.9718116666667","6500800","鶯歌區"
"239001","417-VK","2018/03/30 17:29:36","新北市鶯歌區高職西街109號","121.336058333333","24.94028","6500800","鶯歌區"
"239003","360-BY","2018/03/30 17:29:39","新北市鶯歌區德昌街9號","121.333583333333","24.9603566666667","6500800","鶯歌區"
"239002","359-BY","2018/03/30 17:29:22","新北市鶯歌區育才街27巷1號","121.349143333333","24.9549133333333","6500800","鶯歌區"
"239004","193-VK","2018/03/30 17:29:37","新北市鶯歌區三鶯路19號","121.35615","24.9415966666667","6500800","鶯歌區"
"221008","489-VK","2018/03/30 17:29:42","新北市汐止區康寧街901號","121.651391666667","25.0750066666667","6501100","汐止區"
"221033","647-BX","2018/03/30 17:29:41","新北市汐止區新江北路30巷15號","121.65278","25.0688033333333","6501100","汐止區"
"242009","281-VK","2018/03/30 17:29:25","新北市新莊區中原路189-1號","121.452511666667","25.0542933333333","6500500","新莊區"
"242056","280-VK","2018/03/30 17:29:31","新北市新莊區新泰路23號","121.449658333333","25.0327983333333","6500500","新莊區"
