"lineid","car","time","location","longitude","latitude","cityid","cityname"
"234026","9371-KE","2018/03/30 17:59:43","新北市永和區永和路一段45-1號","121.512776666667","25.0062616666667","6500400","永和區"
"249005","172-UM","2018/03/30 17:59:31","新北市八里區荖阡坑路20號","121.397256666667","25.1363516666667","6502300","八里區"
"249001","173-UM","2018/03/30 17:59:42","新北市八里區龍米路二段35號","121.448493333333","25.1400016666667","6502300","八里區"
"249004","303-UY","2018/03/30 17:59:24","新北市八里區龍米路二段159巷2-10號","121.438805","25.1530933333333","6502300","八里區"
"249002","305-UY","2018/03/30 17:59:26","新北市八里區龍米路一段259號","121.4507","25.1336416666667","6502300","八里區"
"249003","593-UM","2018/03/30 17:59:18","新北市八里區中華路二段258巷6號","121.405123333333","25.1496633333333","6502300","八里區"
"248006","077-UY","2018/03/30 17:59:43","新北市五股區中興路二段37巷28號","121.460193333333","25.0747716666667","6501500","五股區"
"248008","095-VK","2018/03/30 17:59:27","新北市五股區更洲路10號","121.458345","25.0788","6501500","五股區"
"248018","225-UY","2018/03/30 17:59:33","新北市五股區中興路二段83巷26-6號","121.459628333333","25.075335","6501500","五股區"
"248004","677-BX","2018/03/30 17:59:25","新北市五股區中興路二段37巷26號","121.46052","25.0749","6501500","五股區"
"248002","678-BX","2018/03/30 17:59:34","新北市五股區中興路二段37巷28號","121.460176666667","25.0748566666667","6501500","五股區"
"232011","375-UM","2018/03/30 17:59:27","新北市坪林區北宜路八段363號","121.709708333333","24.9328616666667","6502000","坪林區"
"244013","069-UM","2018/03/30 17:59:36","新北市林口區林口路46號","121.390996666667","25.0786","6501700","林口區"
"244007","080-UY","2018/03/30 17:59:31","新北市林口區林口路122號","121.388526666667","25.0815416666667","6501700","林口區"
"244025","742-UY","2018/03/30 17:59:36","新北市林口區三民路77-6號","121.35916","25.06911","6501700","林口區"
"244009","410-SL","2018/03/30 17:59:25","新北市林口區佳林路56巷39號","121.385141666667","25.0808683333333","6501700","林口區"
"244023","483-VK","2018/03/30 17:59:27","新北市林口區東湖路105巷58號","121.384406666667","25.0715116666667","6501700","林口區"
"244017","485-VK","2018/03/30 17:59:25","新北市林口區文化三路一段402巷2號","121.368513333333","25.07392","6501700","林口區"
"244019","657-BX","2018/03/30 17:59:37","新北市林口區文化一路一段102號","121.373468333333","25.0712133333333","6501700","林口區"
"244011","701-TV","2018/03/30 17:59:32","新北市林口區中正路255號","121.390575","25.077655","6501700","林口區"
"244021","838-TS","2018/03/30 17:59:31","新北市林口區新寮27-5號","121.396558333333","25.0666933333333","6501700","林口區"
"222003","436-BY","2018/03/30 17:59:24","新北市深坑區炮子崙23號","121.607173333333","24.990845","6501800","深坑區"
"222002","659-BX","2018/03/30 17:59:26","新北市深坑區深坑街35號","121.615936666667","25.001825","6501800","深坑區"
"231046","278-BY","2018/03/30 17:59:29","新北市新店區康雅崙路31號","121.537351666667","24.92625","6500600","新店區"
"231066","AKT-0513","2018/03/30 17:59:33","新北市新店區安華路1-1號","121.519541666667","24.960365","6500600","新店區"
"241024","065-VK","2018/03/30 17:59:26","新北市三重區中正北路193巷35弄21號","121.477026666667","25.0710633333333","6500200","三重區"
"241016","265-UM","2018/03/30 17:59:42","新北市三重區重新路三段82號","121.493068333333","25.0610683333333","6500200","三重區"
"241033","557-UM","2018/03/30 17:38:06","新北市三重區光復路一段108號","121.471858333333","25.0513333333333","6500200","三重區"
"235063","006-UY","2018/03/30 17:59:32","新北市中和區員山路36巷16-3號","121.484998333333","24.9912466666667","6500300","中和區"
"235065","098-UM","2018/03/30 17:59:33","新北市中和區新生街163號","121.483703333333","25.001195","6500300","中和區"
"235058","151-BY","2018/03/30 17:59:26","新北市中和區錦和路350-1號","121.49052","24.9934983333333","6500300","中和區"
"235038","185-VK","2018/03/30 17:59:31","新北市中和區中正路271號","121.495861666667","24.9938166666667","6500300","中和區"
"235061","378-QA","2018/03/30 17:59:40","新北市中和區員山路36巷16-4號","121.485261666667","24.9919366666667","6500300","中和區"
"235042","551-UM","2018/03/30 17:59:31","新北市中和區中正路637巷60弄61號","121.485451666667","24.9924933333333","6500300","中和區"
"235054","640-BX","2018/03/30 17:59:28","新北市中和區員山路36巷16-3號","121.485145","24.9914616666667","6500300","中和區"
"235046","733-UM","2018/03/30 17:59:45","新北市中和區員山路36巷13號","121.484115","24.9908416666667","6500300","中和區"
"235062","800-TS","2018/03/30 17:59:35","新北市中和區連城路469巷25號","121.483566666667","24.99498","6500300","中和區"
"235052","805-TS","2018/03/30 17:59:37","新北市中和區中正路637巷52弄1號","121.485396666667","24.9934266666667","6500300","中和區"
"235051","157-BY","2018/03/30 17:59:36","新北市中和區員山路36巷16-3號","121.484991666667","24.99147","6500300","中和區"
"235037","AAC-213","2018/03/30 17:59:29","新北市中和區錦和路350-1號","121.490311666667","24.99356","6500300","中和區"
"247014","546-UM","2018/03/30 17:59:43","新北市蘆洲區忠孝路53號","121.471386666667","25.0866333333333","6501400","蘆洲區"
"247012","339-TH","2018/03/30 17:59:44","新北市蘆洲區民族路252號","121.479041666667","25.088675","6501400","蘆洲區"
"247018","057-VK","2018/03/30 17:59:46","新北市蘆洲區民族路346號","121.476448333333","25.09064","6501400","蘆洲區"
"247002","053-VK","2018/03/30 17:59:42","新北市蘆洲區永平街32巷57弄13-1號","121.459325","25.092975","6501400","蘆洲區"
"247016","007-UY","2018/03/30 17:59:41","新北市蘆洲區長興路50巷33號","121.464558333333","25.08452","6501400","蘆洲區"
"247020","001-UY","2018/03/30 17:59:31","新北市蘆洲區民義街35巷5號","121.471591666667","25.0893533333333","6501400","蘆洲區"
"226004","205-ST","2018/03/30 17:59:41","新北市平溪區石底里石筍尖16號","121.732453333333","25.0261266666667","6502400","平溪區"
"235039","251-BX","2018/03/30 17:59:30","新北市中和區員山路36巷16-3號","121.484761666667","24.9912266666667","6500300","中和區"
"228002","663-BX","2018/03/30 17:59:25","新北市貢寮區福連里香蘭街2-1號","121.969535","25.0236216666667","6502600","貢寮區"
"228001","670-TC","2018/03/30 17:59:42","新北市貢寮區真理里新港街26巷53號","121.928043333333","25.053575","6502600","貢寮區"
"228003","828-UM","2018/03/30 17:59:39","新北市貢寮區真理里美艷山街6-2號","121.928765","25.06073","6502600","貢寮區"
"224010","AGQ-8101","2018/03/30 17:54:42","新北市瑞芳區烏勢巷147號","121.846886666667","25.1076083333333","6501200","瑞芳區"
"224002","639-TC","2018/03/30 17:59:33","新北市瑞芳區三爪子坑路36號","121.810488333333","25.1061133333333","6501200","瑞芳區"
"224008","285-BY","2018/03/30 17:59:39","新北市瑞芳區員山子路23號","121.821271666667","25.10307","6501200","瑞芳區"
"224007","275-VK","2018/03/30 17:59:36","新北市瑞芳區大寮路2-2號","121.785533333333","25.10187","6501200","瑞芳區"
"224009","273-VK","2018/03/30 17:59:33","新北市瑞芳區金光路255號","121.850103333333","25.1076733333333","6501200","瑞芳區"
"224005","271-BY","2018/03/30 17:59:33","新北市瑞芳區深澳路189-8號","121.821126666667","25.1342016666667","6501200","瑞芳區"
"227003","400-TW","2018/03/30 17:39:48","新北市雙溪區三貂里定福路1-2號","121.850643333333","25.0634866666667","6502500","雙溪區"
"253005","032-BX","2018/03/30 17:59:27","新北市石門區中山路62-11號","121.567575","25.2896233333333","6502200","石門區"
"253006","295-VK","2018/03/30 17:59:30","新北市石門區大丘田45-2號","121.549786666667","25.274885","6502200","石門區"
"208002","KEA-2872","2018/03/30 17:59:34","新北市金山區三界壇路2號","121.628276666667","25.2277266666667","6502700","金山區"
"208003","665-BX","2018/03/30 17:59:26","新北市金山區磺港里磺港路56號","121.647515","25.2280016666667","6502700","金山區"
"208001","761-BX","2018/03/30 17:59:26","新北市金山區磺港里青年路1號","121.639651666667","25.22559","6502700","金山區"
"251004","009-UM","2018/03/30 17:59:14","新北市淡水區民權路177巷69號","121.461085","25.1339616666667","6501000","淡水區"
"251001","011-UM","2018/03/30 17:59:26","新北市淡水區民權路94巷1號","121.46313","25.1248916666667","6501000","淡水區"
"251008","181-VK","2018/03/30 17:59:27","新北市淡水區八勢一街43-8號","121.461863333333","25.1558183333333","6501000","淡水區"
"251010","413-VK","2018/03/30 17:59:29","新北市淡水區淡海路51號","121.42319","25.1802366666667","6501000","淡水區"
"251012","441-VK","2018/03/30 17:59:37","新北市淡水區北新路三段40號","121.484276666667","25.187195","6501000","淡水區"
"251005","443-VK","2018/03/30 17:59:22","新北市淡水區英專路117號","121.44582","25.172355","6501000","淡水區"
"251006","561-UM","2018/03/30 17:59:26","新北市淡水區真理街1-1號","121.438143333333","25.1730933333333","6501000","淡水區"
"251009","575-R6","2018/03/30 17:59:39","新北市淡水區大仁街6巷1號","121.442418333333","25.1745866666667","6501000","淡水區"
"251007","577-R6","2018/03/30 17:59:22","新北市淡水區中正東路二段141號","121.459768333333","25.1476733333333","6501000","淡水區"
"251011","650-BX","2018/03/30 17:59:43","新北市淡水區三空泉9-2號","121.474071666667","25.16364","6501000","淡水區"
"251002","672-BX","2018/03/30 17:59:42","新北市淡水區中正東路6號","121.447168333333","25.1672316666667","6501000","淡水區"
"251003","673-BX","2018/03/30 17:59:45","新北市淡水區大忠街61號","121.445368333333","25.1768216666667","6501000","淡水區"
"207003","550-UM","2018/03/30 17:59:32","新北市萬里區港東路野柳風景區攤販66號","121.691305","25.20586","6502800","萬里區"
"207004","225-TW","2018/03/30 17:59:25","新北市萬里區中幅里中福路48號","121.683335","25.1741016666667","6502800","萬里區"
"252002","178-VK","2018/03/30 17:59:30","新北市三芝區中山路二段43號","121.502968333333","25.2550316666667","6502100","三芝區"
"252003","249-BX","2018/03/30 17:59:30","新北市三芝區埔坪里埔頭坑41號","121.50462","25.2646083333333","6502100","三芝區"
"252001","292-VK","2018/03/30 17:59:27","新北市三芝區中興街二段2號","121.498378333333","25.25668","6502100","三芝區"
"237004","KEA-2597","2018/03/30 17:59:26","新北市三峽區中園街227號","121.366916666667","24.919845","6500900","三峽區"
"237007","153-BY","2018/03/30 17:59:27","新北市三峽區中正路二段92號","121.366428333333","24.9178233333333","6500900","三峽區"
"237009","210-TH","2018/03/30 17:59:38","新北市三峽區中山路106巷35號","121.366","24.93667","6500900","三峽區"
"237013","252-BX","2018/03/30 17:59:39","新北市三峽區介壽路一段57-1號","121.375651666667","24.932855","6500900","三峽區"
"237012","275-BY","2018/03/30 17:59:36","新北市三峽區民生街27巷30號","121.376038333333","24.93612","6500900","三峽區"
"237008","302-VK","2018/03/30 17:59:35","新北市三峽區正義街185號","121.368123333333","24.914585","6500900","三峽區"
"237014","433-BY","2018/03/30 17:59:40","新北市三峽區和平街36巷5號","121.370581666667","24.9371216666667","6500900","三峽區"
"237006","5529-G3","2018/03/30 17:59:26","新北市三峽區介壽路二段138巷1弄160-19號","121.402273333333","24.9303816666667","6500900","三峽區"
"237010","706-TV","2018/03/30 17:59:35","新北市三峽區民權街162號","121.368015","24.9305983333333","6500900","三峽區"
"237005","AKY-6261","2018/03/30 17:59:24","新北市三峽區復興路235號","121.368201666667","24.9386783333333","6500900","三峽區"
"236069","105-UM","2018/03/30 17:59:38","新北市土城區明德路一段369號","121.455295","24.9779983333333","6501300","土城區"
"236042","107-UM","2018/03/30 17:59:41","新北市土城區自強街33號","121.432426666667","24.9730583333333","6501300","土城區"
"236079","166-UM","2018/03/30 17:59:38","新北市土城區中央路三段283號","121.42636","24.96328","6501300","土城區"
"236030","253-BX","2018/03/30 17:59:26","新北市土城區自強街33號","121.432548333333","24.9729716666667","6501300","土城區"
"236026","269-VK","2018/03/30 17:59:27","新北市土城區中華路二段48號","121.439228333333","24.97793","6501300","土城區"
"236014","270-VK","2018/03/30 17:59:32","新北市土城區城林路6巷80號","121.43813","24.9794866666667","6501300","土城區"
"236039","271-VK","2018/03/30 17:59:35","新北市土城區城林路6巷75號","121.437643333333","24.9789433333333","6501300","土城區"
"236020","401-BY","2018/03/30 17:59:28","新北市土城區亞洲路58巷5弄10號","121.433556666667","24.974265","6501300","土城區"
"236059","912-UM","2018/03/30 17:59:31","新北市土城區中央路三段238-5號","121.428278333333","24.9643083333333","6501300","土城區"
"236048","913-UM","2018/03/30 17:59:25","新北市土城區中華路一段301號","121.439905","24.9793766666667","6501300","土城區"
"236063","915-UM","2018/03/30 17:59:36","新北市土城區亞洲路58巷5弄12號","121.43377","24.9741133333333","6501300","土城區"
"236055","AAC-216","2018/03/30 17:59:29","新北市土城區自強街33號","121.432455","24.973","6501300","土城區"
"242034","AAC-296","2018/03/30 17:59:29","新北市新莊區景德路394號","121.44569","25.0334483333333","6500500","新莊區"
"242058","986-R7","2018/03/30 17:59:33","新北市新莊區壽山路162號","121.415153333333","25.031115","6500500","新莊區"
"242054","751-BX","2018/03/30 17:59:40","新北市新莊區光華街58號","121.428416666667","25.0118966666667","6500500","新莊區"
"242029","705-TV","2018/03/30 17:59:35","新北市新莊區中平路92巷2號","121.444811666667","25.0453033333333","6500500","新莊區"
"242027","615-BX","2018/03/30 17:59:28","新北市新莊區思源路331號","121.459755","25.0496416666667","6500500","新莊區"
"242025","613-BX","2018/03/30 17:59:41","新北市新莊區五工路70號","121.458058333333","25.0633883333333","6500500","新莊區"
"242041","566-BX","2018/03/30 17:59:32","新北市新莊區壽山路31號","121.419996666667","25.0287766666667","6500500","新莊區"
"242046","497-BY","2018/03/30 17:59:33","新北市新莊區福營路195巷24號","121.431943333333","25.0297866666667","6500500","新莊區"
"242037","442-UM","2018/03/30 17:59:38","新北市新莊區中正路695號","121.425923333333","25.02968","6500500","新莊區"
"242050","441-UM","2018/03/30 17:59:42","新北市新莊區民本街53巷22號","121.429033333333","25.0180816666667","6500500","新莊區"
"242007","415-TV","2018/03/30 17:59:33","新北市新莊區自信街63號","121.455415","25.0482716666667","6500500","新莊區"
"242044","400-BY","2018/03/30 17:59:32","新北市新莊區雙鳳路163巷2號","121.412751666667","25.0268333333333","6500500","新莊區"
"242023","362-BY","2018/03/30 17:59:32","新北市新莊區幸福路600號","121.45293","25.0493666666667","6500500","新莊區"
"242060","353-BY","2018/03/30 17:59:35","新北市新莊區新樹路391號","121.432858333333","25.0171766666667","6500500","新莊區"
"242039","133-UY","2018/03/30 17:59:41","新北市新莊區民安西路22號","121.4267","25.0213716666667","6500500","新莊區"
"242032","135-UY","2018/03/30 17:59:30","新北市新莊區新泰路289巷10號","121.44499","25.04061","6500500","新莊區"
"242048","172-VK","2018/03/30 17:59:38","新北市新莊區後港二路14號","121.422676666667","25.0238566666667","6500500","新莊區"
"242011","173-VK","2018/03/30 17:59:34","新北市新莊區中港路中慶巷13號","121.450661666667","25.0537316666667","6500500","新莊區"
"242017","175-VK","2018/03/30 17:59:40","新北市新莊區中港路339巷48號","121.45023","25.0450766666667","6500500","新莊區"
"242005","176-VK","2018/03/30 17:59:45","新北市新莊區自由街12號","121.45582","25.0475416666667","6500500","新莊區"
"242015","346-TH","2018/03/30 17:59:38","新北市新莊區中平路129巷15號","121.444075","25.04698","6500500","新莊區"
"242021","348-TH","2018/03/30 17:59:21","新北市新莊區建興街32號","121.450036666667","25.0372516666667","6500500","新莊區"
"242002","349-TH","2018/03/30 17:59:29","新北市新莊區中正路145-18號","121.458288333333","25.03763","6500500","新莊區"
"242019","350-TH","2018/03/30 17:59:29","新北市新莊區民樂街20巷2號","121.45774","25.0402683333333","6500500","新莊區"
"242013","351-TH","2018/03/30 17:59:33","新北市新莊區中平路184巷10弄7號","121.445501666667","25.048475","6500500","新莊區"
"238015","755-BX","2018/03/30 17:59:40","新北市樹林區大安路307巷1弄3號","121.41818","24.9922216666667","6500700","樹林區"
"238023","601-UM","2018/03/30 17:59:34","新北市樹林區龍興街31巷13號","121.403531666667","25.0160933333333","6500700","樹林區"
"238019","599-UM","2018/03/30 17:59:45","新北市樹林區中華路61號","121.423323333333","24.9832416666667","6500700","樹林區"
"238018","571-TV","2018/03/30 17:59:32","新北市樹林區中正路7-1號","121.43032","24.9975183333333","6500700","樹林區"
"238021","KEA-2217","2018/03/30 17:59:39","新北市樹林區柑園街一段157號","121.400006666667","24.95781","6500700","樹林區"
"238022","KEA-2213","2018/03/30 17:59:46","新北市樹林區太順街68號","121.417658333333","24.9791733333333","6500700","樹林區"
"238025","303-VK","2018/03/30 17:59:38","新北市樹林區三俊街30號","121.411628333333","25.0154283333333","6500700","樹林區"
"238017","283-BY","2018/03/30 17:59:32","新北市樹林區三德街34-4號","121.415191666667","25.0131366666667","6500700","樹林區"
"238014","282-BY","2018/03/30 17:59:29","新北市樹林區中正路105號","121.42496","25.0006066666667","6500700","樹林區"
"238020","268-VK","2018/03/30 17:59:40","新北市樹林區三俊街199巷10-10號","121.420178333333","25.0166133333333","6500700","樹林區"
"238026","172-UY","2018/03/30 17:59:39","新北市樹林區佳園路一段50號","121.392826666667","24.970635","6500700","樹林區"
"238016","169-UY","2018/03/30 17:59:26","新北市樹林區復興路282號","121.417903333333","24.9880883333333","6500700","樹林區"
"239007","AAC-297","2018/03/30 17:59:27","新北市鶯歌區永樂街7號","121.34177","24.9532016666667","6500800","鶯歌區"
"239006","891-R6","2018/03/30 17:59:38","新北市鶯歌區鶯桃路381巷2弄5號","121.333176666667","24.96355","6500800","鶯歌區"
"239008","527-UM","2018/03/30 17:59:39","新北市鶯歌區明圓街4號","121.336425","24.977465","6500800","鶯歌區"
"239005","526-UM","2018/03/30 17:59:33","新北市鶯歌區鶯桃路668巷73號","121.329908333333","24.97177","6500800","鶯歌區"
"239001","417-VK","2018/03/30 17:59:42","新北市鶯歌區中正三路3號","121.339538333333","24.9429583333333","6500800","鶯歌區"
"239003","360-BY","2018/03/30 17:59:39","新北市鶯歌區鶯桃路262號","121.335756666667","24.9598233333333","6500800","鶯歌區"
"239002","359-BY","2018/03/30 17:59:42","新北市鶯歌區光明街78號","121.34688","24.9560466666667","6500800","鶯歌區"
"239004","193-VK","2018/03/30 17:59:37","新北市鶯歌區尖山路103-7號","121.34805","24.94879","6500800","鶯歌區"
"221008","489-VK","2018/03/30 17:59:41","新北市汐止區明峰街19號","121.634641666667","25.07139","6501100","汐止區"
"221036","130-UY","2018/03/30 17:59:24","新北市汐止區大同路三段40號","121.66711","25.076695","6501100","汐止區"
"221015","131-UY","2018/03/30 17:59:25","新北市汐止區長江街329號","121.666715","25.0817633333333","6501100","汐止區"
"221010","269-BY","2018/03/30 17:59:34","新北市汐止區汐萬路二段245巷33號","121.644095","25.0875716666667","6501100","汐止區"
"221012","278-VK","2018/03/30 17:59:40","新北市汐止區長興街二段50巷21號","121.67448","25.0812833333333","6501100","汐止區"
"221023","279-VK","2018/03/30 17:59:37","新北市汐止區民族六街2巷2號","121.629001666667","25.07082","6501100","汐止區"
"221032","280-BY","2018/03/30 17:59:28","新北市汐止區大同路一段44號","121.6222","25.054925","6501100","汐止區"
"221027","281-BY","2018/03/30 17:59:34","新北市汐止區大同路二段383號","121.657586666667","25.0672733333333","6501100","汐止區"
"221029","298-VK","2018/03/30 17:59:45","新北市汐止區樟樹二路298-2號","121.641205","25.06924","6501100","汐止區"
"221021","299-VK","2018/03/30 17:59:39","新北市汐止區復興路24號","121.656056666667","25.0638483333333","6501100","汐止區"
"221031","353-TW","2018/03/30 17:59:35","新北市汐止區中興路194號","121.631428333333","25.0658016666667","6501100","汐止區"
"221025","623-UM","2018/03/30 17:59:28","新北市汐止區仁愛路19號","121.659245","25.0638833333333","6501100","汐止區"
"221038","646-BX","2018/03/30 17:59:37","新北市汐止區水源路一段238巷1號","121.654158333333","25.0604816666667","6501100","汐止區"
"221033","647-BX","2018/03/30 17:59:41","台北市南港區合順街8巷5弄53號","121.619858333333","25.0425733333333","6501100","汐止區"
"221002","707-TV","2018/03/30 17:59:38","新北市汐止區工建路202號","121.636813333333","25.06265","6501100","汐止區"
"242009","281-VK","2018/03/30 17:59:25","新北市新莊區中華路二段260號","121.452566666667","25.0531783333333","6500500","新莊區"
"242056","280-VK","2018/03/30 17:59:29","新北市新莊區豐年街124巷1號","121.446315","25.029815","6500500","新莊區"
