"lineid","car","time","location","longitude","latitude","cityid","cityname"
"234013","KEA-2591","2018/03/30 18:19:38","新北市永和區福和路1號","121.526186666667","25.009245","6500400","永和區"
"234026","9371-KE","2018/03/30 18:19:43","新北市永和區豫溪街28巷14號","121.515163333333","25.009375","6500400","永和區"
"234011","9373-KE","2018/03/30 18:19:27","新北市永和區保福路二段156號","121.509165","25.0150283333333","6500400","永和區"
"249005","172-UM","2018/03/30 18:19:31","新北市八里區荖阡坑路15-13號","121.40031","25.1404116666667","6502300","八里區"
"249001","173-UM","2018/03/30 18:19:22","新北市八里區龍米路一段162號","121.452606666667","25.125995","6502300","八里區"
"249004","303-UY","2018/03/30 18:19:44","新北市八里區文心街79號","121.427833333333","25.1609683333333","6502300","八里區"
"249002","305-UY","2018/03/30 18:19:26","新北市八里區龍形二街37號","121.450335","25.1329133333333","6502300","八里區"
"248014","025-BX","2018/03/30 18:19:38","新北市五股區自強路19巷11號","121.434613333333","25.073665","6501500","五股區"
"248006","077-UY","2018/03/30 18:19:43","新北市五股區中興路一段169號","121.464735","25.0737433333333","6501500","五股區"
"248008","095-VK","2018/03/30 18:19:27","新北市五股區更洲路32巷8弄14號","121.459251666667","25.0796216666667","6501500","五股區"
"248018","225-UY","2018/03/30 18:19:33","新北市五股區御史路150號","121.431431666667","25.1021416666667","6501500","五股區"
"248012","247-BX","2018/03/30 18:19:36","新北市五股區御史路1巷101弄2號","121.440958333333","25.0912066666667","6501500","五股區"
"248010","272-BY","2018/03/30 18:19:34","新北市五股區成泰路一段130-1號","121.43512","25.0750383333333","6501500","五股區"
"248004","677-BX","2018/03/30 18:19:25","新北市五股區成泰路二段156號","121.438315","25.0841933333333","6501500","五股區"
"248002","678-BX","2018/03/30 18:19:34","新北市五股區西雲路66號","121.443611666667","25.091625","6501500","五股區"
"232011","375-UM","2018/03/30 18:19:27","新北市坪林區坪雙路一段31號","121.71168","24.94243","6502000","坪林區"
"244013","069-UM","2018/03/30 18:19:36","新北市林口區中山路160巷5號","121.390986666667","25.0793916666667","6501700","林口區"
"244007","080-UY","2018/03/30 18:19:31","新北市林口區林口路296號","121.385973333333","25.085495","6501700","林口區"
"244025","742-UY","2018/03/30 18:19:45","新北市林口區南勢六街51號","121.355816666667","25.0714583333333","6501700","林口區"
"244009","410-SL","2018/03/30 18:19:45","新北市林口區福林路117-1號","121.377228333333","25.0893916666667","6501700","林口區"
"244023","483-VK","2018/03/30 18:19:27","新北市林口區仁愛路二段40號","121.385118333333","25.0759016666667","6501700","林口區"
"244017","485-VK","2018/03/30 18:19:45","新北市林口區公園路36號","121.366916666667","25.06774","6501700","林口區"
"244019","657-BX","2018/03/30 18:19:37","新北市林口區忠孝路561巷13號","121.373125","25.06875","6501700","林口區"
"244011","701-TV","2018/03/30 18:19:40","新北市林口區中正路93號","121.39443","25.0773166666667","6501700","林口區"
"244021","838-TS","2018/03/30 18:19:30","新北市林口區工六路6巷8號","121.397501666667","25.0787716666667","6501700","林口區"
"243013","646-TV","2018/03/30 18:19:26","新北市泰山區錢厝坑13號","121.416086666667","25.0361216666667","6501600","泰山區"
"222003","436-BY","2018/03/30 18:19:24","新北市深坑區旺耽路67號","121.626256666667","25.0030333333333","6501800","深坑區"
"222002","659-BX","2018/03/30 18:19:46","新北市深坑區雲鄉路1號","121.620971666667","25.0001116666667","6501800","深坑區"
"231041","002-UM","2018/03/30 18:19:42","新北市新店區安華路28-1號","121.519571666667","24.9608216666667","6500600","新店區"
"231058","0293-UT","2018/03/30 18:19:29","新北市新店區安康路一段9-2號","121.533621666667","24.960485","6500600","新店區"
"231059","046-UY","2018/03/30 18:19:28","新北市新店區安華路28-1號","121.519603333333","24.96073","6500600","新店區"
"231061","047-UY","2018/03/30 18:19:26","新北市新店區安華路28-1號","121.519046666667","24.9607533333333","6500600","新店區"
"231060","106-UY","2018/03/30 18:19:41","新北市新店區安華路28-1號","121.519611666667","24.9608066666667","6500600","新店區"
"231051","107-UY","2018/03/30 18:19:31","新北市新店區安華路28-1號","121.51917","24.9613316666667","6500600","新店區"
"231048","108-UY","2018/03/30 18:19:36","新北市新店區安華路28-1號","121.519443333333","24.9610933333333","6500600","新店區"
"231053","187-VK","2018/03/30 18:19:42","新北市新店區安康路一段75號","121.5302","24.9611033333333","6500600","新店區"
"231050","KEA-2219","2018/03/30 18:19:33","新北市新店區安華路28-1號","121.519663333333","24.961295","6500600","新店區"
"231057","256-BX","2018/03/30 18:19:39","新北市新店區安華路28-1號","121.519821666667","24.9611416666667","6500600","新店區"
"231063","268-BY","2018/03/30 18:19:31","新北市新店區安華路1-1號","121.51922","24.9605666666667","6500600","新店區"
"231046","278-BY","2018/03/30 18:19:29","新北市新店區直潭七街60號","121.532223333333","24.9399416666667","6500600","新店區"
"231054","AAD-862","2018/03/30 18:19:39","新北市新店區安華路28-1號","121.519693333333","24.961115","6500600","新店區"
"231027","3712-VJ","2018/03/30 18:19:42","新北市新店區安華路28-1號","121.519206666667","24.9606233333333","6500600","新店區"
"231056","3713-VJ","2018/03/30 18:19:34","新北市新店區中央路81號","121.532273333333","24.97666","6500600","新店區"
"231055","4716-K9","2018/03/30 18:19:38","新北市新店區安康路一段194號","121.52462","24.96334","6500600","新店區"
"231067","4772-VM","2018/03/30 18:19:29","新北市新店區安華路3號","121.518953333333","24.9605833333333","6500600","新店區"
"231065","512-UM","2018/03/30 18:19:39","新北市新店區安華路8號","121.520065","24.962595","6500600","新店區"
"231064","513-UM","2018/03/30 18:19:35","新北市新店區安華路28-1號","121.519541666667","24.96109","6500600","新店區"
"231045","617-UM","2018/03/30 18:19:33","新北市新店區安華路28-1號","121.519341666667","24.9605633333333","6500600","新店區"
"231040","619-UM","2018/03/30 18:19:28","新北市新店區安華路28-1號","121.519475","24.9607383333333","6500600","新店區"
"231042","641-BX","2018/03/30 18:19:29","新北市新店區安華路28-1號","121.519703333333","24.96056","6500600","新店區"
"231049","719-UM","2018/03/30 18:19:27","新北市新店區安華路28-1號","121.51956","24.9612116666667","6500600","新店區"
"231062","719-UY","2018/03/30 18:19:43","新北市新店區安華路28-1號","121.519698333333","24.961145","6500600","新店區"
"231043","899-TW","2018/03/30 18:19:37","新北市新店區安華路28-1號","121.518911666667","24.960985","6500600","新店區"
"231066","AKT-0513","2018/03/30 18:19:33","新北市新店區安華路28-1號","121.519438333333","24.9605366666667","6500600","新店區"
"235066","003-UY","2018/03/30 18:19:33","新北市中和區中山路二段123號","121.502628333333","25.0035283333333","6500300","中和區"
"235064","005-UY","2018/03/30 18:19:38","新北市中和區圓通路141巷48弄11號","121.498328333333","24.9941983333333","6500300","中和區"
"235063","006-UY","2018/03/30 18:19:31","新北市中和區中正路569號","121.48664","24.9942516666667","6500300","中和區"
"235056","096-UM","2018/03/30 18:19:23","新北市中和區中山路二段586號","121.482475","25.0051666666667","6500300","中和區"
"235065","098-UM","2018/03/30 18:19:33","新北市中和區莊敬路49巷18號","121.501613333333","25.0061116666667","6500300","中和區"
"235040","150-BY","2018/03/30 18:19:33","新北市中和區景安路84號","121.505536666667","24.99618","6500300","中和區"
"235058","151-BY","2018/03/30 18:19:46","新北市中和區圓通路395號","121.489531666667","24.9891533333333","6500300","中和區"
"235055","183-VK","2018/03/30 18:19:32","新北市中和區中正路637巷52弄1號","121.485408333333","24.9933633333333","6500300","中和區"
"235038","185-VK","2018/03/30 18:19:31","新北市中和區秀朗路三段128巷10號","121.524576666667","24.9926866666667","6500300","中和區"
"235049","186-VK","2018/03/30 18:19:36","新北市中和區中正路637巷60弄61號","121.48542","24.9925383333333","6500300","中和區"
"235072","301-VK","2018/03/30 18:19:30","新北市中和區錦和路107號","121.490161666667","24.9952733333333","6500300","中和區"
"235043","352-BY","2018/03/30 18:19:38","新北市中和區景平路379號","121.504046666667","24.9933366666667","6500300","中和區"
"235068","377-QA","2018/03/30 18:19:33","新北市中和區員山路36巷16-3號","121.485061666667","24.9911816666667","6500300","中和區"
"235061","378-QA","2018/03/30 18:19:40","新北市中和區國光街215巷63號","121.467686666667","24.999795","6500300","中和區"
"235050","4979-A6","2018/03/30 18:19:37","新北市中和區捷運路61巷7號","121.508978333333","24.9893333333333","6500300","中和區"
"235069","4980-A6","2018/03/30 18:19:38","新北市中和區連勝街49號","121.497966666667","24.9973766666667","6500300","中和區"
"235042","551-UM","2018/03/30 18:19:31","新北市中和區大仁街20巷25弄19號","121.518545","24.9936016666667","6500300","中和區"
"235070","558-UM","2018/03/30 18:19:43","新北市中和區圓通路120-4號","121.498901666667","24.9958783333333","6500300","中和區"
"235045","565-BX","2018/03/30 18:19:30","新北市中和區景安路200巷4弄1號","121.503525","24.99159","6500300","中和區"
"235054","640-BX","2018/03/30 18:19:28","新北市中和區莒光路185號","121.472681666667","24.9990066666667","6500300","中和區"
"235060","647-TV","2018/03/30 18:19:28","新北市中和區員山路163號","121.481121666667","24.9966583333333","6500300","中和區"
"235047","732-UM","2018/03/30 18:19:31","新北市中和區復興路269號","121.502641666667","24.9902783333333","6500300","中和區"
"235046","733-UM","2018/03/30 18:19:45","新北市中和區員山路36巷13號","121.484135","24.990795","6500300","中和區"
"235062","800-TS","2018/03/30 18:19:35","新北市中和區景平路989巷6號","121.495163333333","25.0052116666667","6500300","中和區"
"235057","801-TS","2018/03/30 18:19:30","新北市中和區民享街97巷21號","121.475375","24.9995116666667","6500300","中和區"
"235041","802-TS","2018/03/30 18:19:29","新北市中和區錦和路350-1號","121.490425","24.99358","6500300","中和區"
"235052","805-TS","2018/03/30 18:19:37","新北市中和區興南路二段96號","121.505006666667","24.984005","6500300","中和區"
"235048","896-TW","2018/03/30 18:19:33","新北市中和區錦和路350-1號","121.490168333333","24.9935566666667","6500300","中和區"
"235053","900-TW","2018/03/30 18:19:31","新北市中和區中正路637巷52弄1號","121.485431666667","24.99349","6500300","中和區"
"235051","157-BY","2018/03/30 18:19:36","新北市中和區興南路一段86號","121.509868333333","24.9893916666667","6500300","中和區"
"235037","AAC-213","2018/03/30 18:19:35","新北市中和區景德街78號","121.516578333333","24.9914766666667","6500300","中和區"
"220065","072-UY","2018/03/30 18:19:40","新北市板橋區華東街1-10號","121.448198333333","24.9951116666667","6500100","板橋區"
"226004","205-ST","2018/03/30 18:19:41","新北市平溪區薯榔里一坑路5號","121.71388","25.0214733333333","6502400","平溪區"
"235039","251-BX","2018/03/30 18:19:30","新北市中和區景安路121號","121.505756666667","24.9962766666667","6500300","中和區"
"228002","663-BX","2018/03/30 18:19:46","新北市貢寮區福連里福興街39-3號","121.992866666667","25.012355","6502600","貢寮區"
"228001","670-TC","2018/03/30 18:19:42","新北市貢寮區真理里新港街26巷55弄2-1號","121.92735","25.0528916666667","6502600","貢寮區"
"228003","828-UM","2018/03/30 18:19:39","新北市貢寮區真理里美艷山街66號","121.91845","25.0738183333333","6502600","貢寮區"
"224010","AGQ-8101","2018/03/30 17:54:42","新北市瑞芳區烏勢巷147號","121.846886666667","25.1076083333333","6501200","瑞芳區"
"224002","639-TC","2018/03/30 18:19:33","新北市瑞芳區三爪子坑路149巷22-2號","121.811393333333","25.10644","6501200","瑞芳區"
"224008","285-BY","2018/03/30 18:19:39","新北市瑞芳區逢甲路15號","121.809781666667","25.1086583333333","6501200","瑞芳區"
"224007","275-VK","2018/03/30 18:19:36","新北市瑞芳區大埔路67巷3-1號","121.764428333333","25.1015233333333","6501200","瑞芳區"
"224009","273-VK","2018/03/30 18:19:34","新北市瑞芳區新山路59號","121.85633","25.107745","6501200","瑞芳區"
"224005","271-BY","2018/03/30 18:19:33","新北市瑞芳區建基路二段84號","121.81459","25.1292116666667","6501200","瑞芳區"
"227011","642-TC","2018/03/30 18:19:29","新北市雙溪區牡丹里牡丹73號","121.851755","25.0593133333333","6502500","雙溪區"
"227003","400-TW","2018/03/30 18:19:37","新北市雙溪區共和里中山路2號","121.863766666667","25.0337883333333","6502500","雙溪區"
"253005","032-BX","2018/03/30 18:19:44","新北市石門區中央路1-17號","121.561093333333","25.2909566666667","6502200","石門區"
"253006","295-VK","2018/03/30 18:19:30","新北市石門區老梅路49號","121.545423333333","25.289285","6502200","石門區"
"222001","KEA-2212","2018/03/30 18:19:31","新北市深坑區北深路二段66號","121.618896666667","25.0043716666667","6501800","深坑區"
"208002","KEA-2872","2018/03/30 18:19:30","新北市金山區清泉里清水路60巷20號","121.634778333333","25.2339933333333","6502700","金山區"
"208003","665-BX","2018/03/30 18:19:46","新北市金山區中山路110號","121.639698333333","25.219425","6502700","金山區"
"208001","761-BX","2018/03/30 18:19:46","新北市金山區環金路19號","121.641068333333","25.2176633333333","6502700","金山區"
"251004","009-UM","2018/03/30 18:18:54","新北市淡水區民族路31巷18號","121.462763333333","25.1362566666667","6501000","淡水區"
"251001","011-UM","2018/03/30 18:19:26","新北市淡水區自強路303號","121.461968333333","25.1317383333333","6501000","淡水區"
"251008","181-VK","2018/03/30 18:19:27","新北市淡水區水源街二段240號","121.46124","25.1763033333333","6501000","淡水區"
"251010","413-VK","2018/03/30 18:19:29","新北市淡水區淡海路180巷12-3號","121.420383333333","25.1846416666667","6501000","淡水區"
"251012","441-VK","2018/03/30 18:19:37","新北市淡水區北新路二段77-5號","121.480523333333","25.1855433333333","6501000","淡水區"
"251005","443-VK","2018/03/30 18:19:42","新北市淡水區水源街一段122巷39號","121.447096666667","25.1703283333333","6501000","淡水區"
"251006","561-UM","2018/03/30 18:19:26","新北市淡水區新民街27號","121.439125","25.1756633333333","6501000","淡水區"
"251011","650-BX","2018/03/30 18:19:42","新北市淡水區坪頂路26號","121.456746666667","25.161895","6501000","淡水區"
"251002","672-BX","2018/03/30 18:19:32","新北市淡水區中正東路一段59號","121.452641666667","25.1624366666667","6501000","淡水區"
"251003","673-BX","2018/03/30 18:19:25","新北市淡水區北新路137號","121.449443333333","25.1788966666667","6501000","淡水區"
"207003","550-UM","2018/03/30 18:19:12","新北市萬里區野柳里港東路9號","121.686993333333","25.20355","6502800","萬里區"
"207004","225-TW","2018/03/30 18:19:45","新北市萬里區中幅里中福路37號","121.6788","25.1670433333333","6502800","萬里區"
"252002","178-VK","2018/03/30 18:19:30","新北市三芝區中山路二段39號","121.502913333333","25.2551716666667","6502100","三芝區"
"252003","249-BX","2018/03/30 18:19:30","新北市三芝區錫板里海尾14-33號","121.478228333333","25.2604616666667","6502100","三芝區"
"252001","292-VK","2018/03/30 18:19:27","新北市三芝區中興街二段2號","121.49838","25.25662","6502100","三芝區"
"237004","KEA-2597","2018/03/30 18:19:26","新北市三峽區五寮169號","121.359301666667","24.8575","6500900","三峽區"
"237007","153-BY","2018/03/30 18:19:27","新北市三峽區中正路三段70巷48號","121.355295","24.9047133333333","6500900","三峽區"
"237009","210-TH","2018/03/30 18:19:38","新北市三峽區中山路119號","121.365511666667","24.9359283333333","6500900","三峽區"
"237013","252-BX","2018/03/30 18:19:39","新北市三峽區永安街9巷50號","121.376228333333","24.9297066666667","6500900","三峽區"
"237012","275-BY","2018/03/30 18:19:36","新北市三峽區民生街1巷5-1號","121.378428333333","24.9364183333333","6500900","三峽區"
"237008","302-VK","2018/03/30 18:19:35","新北市三峽區白雞68-331號","121.391596666667","24.9096066666667","6500900","三峽區"
"237014","433-BY","2018/03/30 18:19:43","新北市三峽區文化路9號","121.37325","24.9356083333333","6500900","三峽區"
"237006","5529-G3","2018/03/30 18:19:26","新北市三峽區溪東路473巷10號","121.413935","24.9284083333333","6500900","三峽區"
"237010","706-TV","2018/03/30 18:19:35","新北市三峽區中山路154號","121.364873333333","24.9363566666667","6500900","三峽區"
"237005","AKY-6261","2018/03/30 18:19:44","新北市三峽區秀川街82號","121.370605","24.93347","6500900","三峽區"
"236069","105-UM","2018/03/30 18:19:38","新北市土城區永豐路149-2號","121.467285","24.9826483333333","6501300","土城區"
"236042","107-UM","2018/03/30 18:19:41","新北市土城區樂利街3巷14號","121.44852","24.986325","6501300","土城區"
"236079","166-UM","2018/03/30 18:19:18","新北市土城區中央路三段281巷21號","121.425778333333","24.9621566666667","6501300","土城區"
"236030","253-BX","2018/03/30 18:19:26","新北市土城區員福街38號","121.440916666667","24.9788566666667","6501300","土城區"
"236026","269-VK","2018/03/30 18:19:27","新北市土城區承天路43巷1號","121.438815","24.9644333333333","6501300","土城區"
"236014","270-VK","2018/03/30 18:19:32","新北市土城區青雲路39巷7號","121.4603","24.9874116666667","6501300","土城區"
"236039","271-VK","2018/03/30 18:19:35","新北市土城區青雲路483巷9號","121.459343333333","24.9736516666667","6501300","土城區"
"236020","401-BY","2018/03/30 18:19:28","新北市土城區青雲路322巷2弄4號","121.457918333333","24.9773166666667","6501300","土城區"
"236059","912-UM","2018/03/30 18:19:30","新北市土城區中央路四段464號","121.409913333333","24.9505866666667","6501300","土城區"
"236048","913-UM","2018/03/30 18:19:45","新北市土城區明德路一段375-1號","121.454853333333","24.9781133333333","6501300","土城區"
"236063","915-UM","2018/03/30 18:19:36","新北市土城區金城路三段189-2號","121.469845","24.988895","6501300","土城區"
"236055","AAC-216","2018/03/30 18:19:29","新北市土城區中華路二段104號","121.43805","24.974295","6501300","土城區"
"242058","986-R7","2018/03/30 18:19:33","新北市新莊區中正路891-51號","121.412555","25.0222","6500500","新莊區"
"242054","751-BX","2018/03/30 18:19:18","新北市新莊區民安西路468號","121.431531666667","25.008025","6500500","新莊區"
"242025","613-BX","2018/03/30 18:19:42","新北市新莊區五權一路12巷16號","121.457338333333","25.0644816666667","6500500","新莊區"
"242041","566-BX","2018/03/30 18:19:33","新北市新莊區天祥街81巷28號","121.41508","25.0285283333333","6500500","新莊區"
"242046","497-BY","2018/03/30 18:19:43","新北市新莊區中正路831-15號","121.42089","25.0277133333333","6500500","新莊區"
"242007","415-TV","2018/03/30 18:19:33","新北市新莊區中華路二段82號","121.453793333333","25.046865","6500500","新莊區"
"242044","400-BY","2018/03/30 18:19:32","新北市新莊區龍安路99號","121.416311666667","25.0223316666667","6500500","新莊區"
"242060","353-BY","2018/03/30 18:19:29","新北市新莊區後港一路105號","121.428305","25.026985","6500500","新莊區"
"242032","135-UY","2018/03/30 18:19:46","新北市新莊區新泰路277巷61號","121.44331","25.0399716666667","6500500","新莊區"
"242048","172-VK","2018/03/30 18:19:38","新北市樹林區中正路106-8號","121.424631666667","25.0016433333333","6500500","新莊區"
"242011","173-VK","2018/03/30 18:19:14","新北市新莊區中港路591巷34號","121.449596666667","25.05236","6500500","新莊區"
"242002","349-TH","2018/03/30 18:19:37","新北市新莊區碧江街96號","121.45048","25.0325033333333","6500500","新莊區"
"238015","755-BX","2018/03/30 18:19:45","新北市樹林區文化街87號","121.416653333333","24.9892066666667","6500700","樹林區"
"238023","601-UM","2018/03/30 18:19:34","新北市樹林區三福街67巷6號","121.407625","25.0158316666667","6500700","樹林區"
"238019","599-UM","2018/03/30 18:19:25","新北市樹林區八德街82號","121.419961666667","24.9813916666667","6500700","樹林區"
"238018","571-TV","2018/03/30 18:19:32","新北市樹林區保安街一段20巷8號","121.427711666667","24.993725","6500700","樹林區"
"238024","5061-A6","2018/03/30 18:19:30","新北市樹林區育英街2巷1-1號","121.423018333333","24.9888833333333","6500700","樹林區"
"238025","303-VK","2018/03/30 18:19:38","新北市樹林區保安街一段120號","121.423455","24.9949466666667","6500700","樹林區"
"238017","283-BY","2018/03/30 18:19:39","新北市樹林區保安街二段333巷2號","121.412353333333","25.0075216666667","6500700","樹林區"
"238014","282-BY","2018/03/30 18:19:29","新北市樹林區大安路111巷2號","121.42304","24.997565","6500700","樹林區"
"238020","268-VK","2018/03/30 18:19:40","新北市樹林區三俊街65巷2號","121.413498333333","25.01631","6500700","樹林區"
"238026","172-UY","2018/03/30 18:19:39","新北市樹林區八德街626號","121.397015","24.9696833333333","6500700","樹林區"
"238016","169-UY","2018/03/30 18:19:26","新北市樹林區文化街28號","121.419278333333","24.9877466666667","6500700","樹林區"
"239007","AAC-297","2018/03/30 18:19:45","新北市鶯歌區重慶街63-1號","121.349615","24.95166","6500800","鶯歌區"
"239006","891-R6","2018/03/30 18:19:38","新北市鶯歌區鶯桃路296巷46-3號","121.335828333333","24.9612866666667","6500800","鶯歌區"
"239008","527-UM","2018/03/30 18:19:39","新北市鶯歌區國際一路179號","121.336256666667","24.9765183333333","6500800","鶯歌區"
"239005","526-UM","2018/03/30 18:19:42","新北市鶯歌區鳳吉二街9號","121.325571666667","24.9729166666667","6500800","鶯歌區"
"239001","417-VK","2018/03/30 18:19:42","新北市鶯歌區國中街178號","121.338253333333","24.9392266666667","6500800","鶯歌區"
"239003","360-BY","2018/03/30 18:19:39","新北市鶯歌區福安街58號","121.335591666667","24.9651883333333","6500800","鶯歌區"
"239002","359-BY","2018/03/30 18:19:42","新北市鶯歌區中正一路303-2號","121.356361666667","24.957175","6500800","鶯歌區"
"239004","193-VK","2018/03/30 18:19:41","新北市鶯歌區尖山路258巷42號","121.34159","24.9467383333333","6500800","鶯歌區"
"221008","489-VK","2018/03/30 18:19:41","新北市汐止區連峰街1巷1號","121.646955","25.07605","6501100","汐止區"
"221036","130-UY","2018/03/30 18:19:24","新北市汐止區長興街一段50號","121.670843333333","25.0797016666667","6501100","汐止區"
"221015","131-UY","2018/03/30 18:19:25","新北市汐止區鄉長路二段23巷16號","121.667598333333","25.0831133333333","6501100","汐止區"
"221010","269-BY","2018/03/30 18:19:34","新北市汐止區汐萬路二段345號","121.644511666667","25.0909033333333","6501100","汐止區"
"221012","278-VK","2018/03/30 18:19:36","新北市汐止區保長路33號","121.672688333333","25.0795566666667","6501100","汐止區"
"221023","279-VK","2018/03/30 18:19:37","新北市汐止區康寧街474巷18-1號","121.631336666667","25.0676","6501100","汐止區"
"221032","280-BY","2018/03/30 18:19:28","新北市汐止區橫科路2巷9號","121.616388333333","25.0508933333333","6501100","汐止區"
"221027","281-BY","2018/03/30 18:19:34","新北市汐止區和平街13號","121.663045","25.0707483333333","6501100","汐止區"
"221029","298-VK","2018/03/30 18:19:24","新北市汐止區樟樹二路330巷72-1號","121.642908333333","25.0699433333333","6501100","汐止區"
"221021","299-VK","2018/03/30 18:19:39","新北市汐止區新台五路一段125號","121.651768333333","25.0616866666667","6501100","汐止區"
"221031","353-TW","2018/03/30 18:19:46","新北市汐止區大同路一段209號","121.633655","25.0573583333333","6501100","汐止區"
"221025","623-UM","2018/03/30 18:19:28","新北市汐止區勤進路12巷37號","121.65919","25.0625916666667","6501100","汐止區"
"221038","646-BX","2018/03/30 18:19:37","新北市汐止區忠孝東路303號","121.664231666667","25.0689633333333","6501100","汐止區"
"221033","647-BX","2018/03/30 18:19:41","新北市汐止區宜興街75號","121.622923333333","25.0432166666667","6501100","汐止區"
"221002","707-TV","2018/03/30 18:19:38","新北市汐止區福德一路213巷35號","121.63586","25.064795","6501100","汐止區"
"242009","281-VK","2018/03/30 18:19:25","新北市新莊區自立街62號","121.453983333333","25.045395","6500500","新莊區"
"242056","280-VK","2018/03/30 18:19:29","新北市新莊區豐年街豐2巷11號","121.447075","25.0307916666667","6500500","新莊區"
