"lineid","car","time","location","longitude","latitude","cityid","cityname"
"234046","148-BY","2018/03/30 19:49:43","新北市永和區永利路133號","121.524146666667","25.00322","6500400","永和區"
"234070","149-BY","2018/03/30 19:49:38","新北市永和區竹林路78號","121.519366666667","25.0127666666667","6500400","永和區"
"234007","208-UY","2018/03/30 19:49:30","新北市中和區中和路250-1號","121.50743","24.9995616666667","6500400","永和區"
"234081","298-R6","2018/03/30 19:49:27","新北市永和區永利路81巷21號","121.52231","25.00386","6500400","永和區"
"234038","336-UY","2018/03/30 19:49:44","新北市永和區秀朗路二段281號","121.52615","24.9981666666667","6500400","永和區"
"234064","337-UY","2018/03/30 19:49:36","新北市永和區中正路368巷22號","121.518576666667","25.0007416666667","6500400","永和區"
"234086","338-UY","2018/03/30 19:49:42","新北市永和區中正路505號","121.51693","25.0070233333333","6500400","永和區"
"234017","745-BX","2018/03/30 19:49:29","新北市永和區永和路二段297號","121.516095","25.016065","6500400","永和區"
"234030","746-BX","2018/03/30 19:49:38","新北市永和區民生路67巷52號","121.52539","24.9975233333333","6500400","永和區"
"234054","KEA-2590","2018/03/30 19:49:30","新北市永和區竹林路75巷25弄3號","121.520253333333","25.0141966666667","6500400","永和區"
"234013","KEA-2591","2018/03/30 19:49:44","新北市永和區永平路296號","121.507383333333","25.01217","6500400","永和區"
"234061","AAD-866","2018/03/30 19:49:41","新北市永和區中正路102號","121.514308333333","24.9957866666667","6500400","永和區"
"234042","862-TW","2018/03/30 19:49:27","新北市永和區中和路389巷13號","121.508065","25.0010466666667","6500400","永和區"
"234050","863-TW","2018/03/30 19:49:47","新北市永和區保安路79號","121.508576666667","25.0148466666667","6500400","永和區"
"234026","9371-KE","2018/03/30 19:49:42","新北市永和區雙和街25巷4號","121.50888","25.0019133333333","6500400","永和區"
"234011","9373-KE","2018/03/30 19:49:47","新北市永和區仁愛路306巷35弄2號","121.501898333333","25.008655","6500400","永和區"
"249001","173-UM","2018/03/30 19:49:25","新北市八里區中華路二段252號","121.405406666667","25.1496816666667","6502300","八里區"
"249004","303-UY","2018/03/30 19:49:27","新北市八里區仁愛路79號","121.411688333333","25.1598516666667","6502300","八里區"
"249002","305-UY","2018/03/30 19:49:46","新北市八里區頂寮五街17號","121.451366666667","25.1260816666667","6502300","八里區"
"249003","593-UM","2018/03/30 19:49:27","新北市八里區中華路二段560巷1號","121.398655","25.1450166666667","6502300","八里區"
"248014","025-BX","2018/03/30 19:49:40","新北市五股區五福路32巷21號","121.434938333333","25.089755","6501500","五股區"
"248008","095-VK","2018/03/30 19:49:27","新北市蘆洲區中山二路300巷1號","121.468501666667","25.0766883333333","6501500","五股區"
"248018","225-UY","2018/03/30 19:23:33","新北市五股區外寮路9-25號","121.415871666667","25.0793","6501500","五股區"
"248012","247-BX","2018/03/30 19:49:36","新北市五股區蓬萊路1-3號","121.434446666667","25.0796533333333","6501500","五股區"
"248010","272-BY","2018/03/30 19:49:34","新北市五股區登林路76-5號","121.430581666667","25.0695283333333","6501500","五股區"
"248004","677-BX","2018/03/30 19:49:46","新北市五股區成泰路一段148號","121.435081666667","25.0762083333333","6501500","五股區"
"248002","678-BX","2018/03/30 19:49:34","新北市五股區成泰路三段625-2號","121.45272","25.1043016666667","6501500","五股區"
"234077","969-R7","2018/03/30 19:49:32","新北市永和區民族街67巷8號","121.51895","24.9971533333333","6500400","永和區"
"234074","AAC-211","2018/03/30 19:49:40","新北市永和區豫溪街189巷1號","121.522576666667","25.0102716666667","6500400","永和區"
"234067","AAC-212","2018/03/30 19:49:45","新北市永和區保平路236巷24弄7號","121.508355","25.0070483333333","6500400","永和區"
"234003","AAC-295","2018/03/30 19:49:42","新北市永和區福和路319號","121.515795","25.0072216666667","6500400","永和區"
"243012","AAD-798","2018/03/30 19:49:42","新北市泰山區全興路20號","121.432303333333","25.05892","6501600","泰山區"
"243011","297-R6","2018/03/30 19:49:37","新北市泰山區明志路三段196巷22號","121.422776666667","25.0395616666667","6501600","泰山區"
"243015","380-SR","2018/03/30 19:49:44","新北市泰山區明志路二段237巷2號","121.427455","25.0481166666667","6501600","泰山區"
"243014","421-VK","2018/03/30 19:49:33","新北市泰山區泰林路二段33-7號","121.435226666667","25.0565133333333","6501600","泰山區"
"243016","539-UM","2018/03/30 19:49:32","新北市泰山區中山路三段114號","121.417926666667","25.0320916666667","6501600","泰山區"
"243010","KEA-2215","2018/03/30 19:49:40","新北市泰山區民生路33號","121.430603333333","25.0522083333333","6501600","泰山區"
"243009","KEA-2216","2018/03/30 19:49:38","新北市泰山區美寧街60號","121.430983333333","25.06469","6501600","泰山區"
"243013","646-TV","2018/03/30 19:34:20","新北市泰山區應化街13號","121.42384","25.0437116666667","6501600","泰山區"
"222003","436-BY","2018/03/30 19:49:37","新北市深坑區深南路51-1號","121.621301666667","25.0098583333333","6501800","深坑區"
"222002","659-BX","2018/03/30 19:49:42","新北市深坑區北深路一段355-1號","121.622881666667","25.0051766666667","6501800","深坑區"
"231041","002-UM","2018/03/30 19:49:42","新北市新店區中央路137號","121.53017","24.9736216666667","6500600","新店區"
"231059","046-UY","2018/03/30 19:49:28","新北市新店區安和路一段5號","121.516776666667","24.963975","6500600","新店區"
"231061","047-UY","2018/03/30 19:49:26","新北市新店區安興路102號","121.515265","24.9766233333333","6500600","新店區"
"231060","106-UY","2018/03/30 19:49:41","新北市新店區安康路二段199號","121.509146666667","24.958925","6500600","新店區"
"231051","107-UY","2018/03/30 19:49:31","新北市新店區中央三街30號","121.52829","24.973915","6500600","新店區"
"231048","108-UY","2018/03/30 19:49:35","新北市新店區中興路二段196號","121.548556666667","24.9738133333333","6500600","新店區"
"231053","187-VK","2018/03/30 19:49:42","新北市新店區新烏路三段1號","121.551668333333","24.9068483333333","6500600","新店區"
"231050","KEA-2219","2018/03/30 19:49:33","新北市新店區北宜路二段579巷1-1號","121.565561666667","24.95357","6500600","新店區"
"231057","256-BX","2018/03/30 19:49:39","新北市新店區梅崗三路1號","121.558135","24.931155","6500600","新店區"
"231063","268-BY","2018/03/30 19:49:31","新北市新店區黎明路3號","121.503646666667","24.9525083333333","6500600","新店區"
"231046","278-BY","2018/03/30 19:49:45","新北市新店區三民路159巷19弄15號","121.532635","24.973875","6500600","新店區"
"231054","AAD-862","2018/03/30 19:49:41","新北市新店區光明街103號","121.539106666667","24.9611816666667","6500600","新店區"
"231027","3712-VJ","2018/03/30 19:49:42","新北市新店區安華路28-1號","121.5192","24.9606583333333","6500600","新店區"
"231055","4716-K9","2018/03/30 19:49:38","新北市新店區新生街1號","121.540395","24.9656333333333","6500600","新店區"
"231067","4772-VM","2018/03/30 19:49:29","新北市新店區精忠路10-1號","121.532655","24.9590733333333","6500600","新店區"
"231065","512-UM","2018/03/30 19:49:39","新北市新店區安祥路109巷151弄12號","121.47812","24.9588866666667","6500600","新店區"
"231064","513-UM","2018/03/30 19:49:35","新北市新店區安和路二段113巷1弄1號","121.51845","24.9701533333333","6500600","新店區"
"231044","618-UM","2018/03/30 19:49:43","新北市新店區復興路51-8號","121.536813333333","24.9870616666667","6500600","新店區"
"231040","619-UM","2018/03/30 19:49:28","新北市新店區北新路一段96巷23號","121.543035","24.9688166666667","6500600","新店區"
"231042","641-BX","2018/03/30 19:49:29","新北市新店區中興路一段280號","121.545558333333","24.9684616666667","6500600","新店區"
"231049","719-UM","2018/03/30 19:49:47","新北市新店區民權路127巷11號","121.535601666667","24.9817983333333","6500600","新店區"
"231062","719-UY","2018/03/30 19:49:43","新北市新店區華潭街26巷3弄1號","121.530016666667","24.9530633333333","6500600","新店區"
"231043","899-TW","2018/03/30 19:49:36","新北市新店區中正路263-3號","121.538353333333","24.9738266666667","6500600","新店區"
"241011","013-R5","2018/03/30 19:49:28","新北市三重區介壽路41號","121.498645","25.0700966666667","6500200","三重區"
"241028","022-UY","2018/03/30 19:49:24","新北市三重區中正南路180號","121.494063333333","25.0566833333333","6500200","三重區"
"241008","059-VK","2018/03/30 19:49:44","新北市三重區永福街96號","121.478801666667","25.0759433333333","6500200","三重區"
"241009","060-VK","2018/03/30 19:49:35","新北市三重區三和路四段390巷52號","121.480018333333","25.07845","6500200","三重區"
"241031","061-VK","2018/03/30 19:49:45","新北市三重區重新路四段250-1號","121.485963333333","25.0533916666667","6500200","三重區"
"241015","062-VK","2018/03/30 19:49:35","新北市三重區三和路一段12-1號","121.503458333333","25.064855","6500200","三重區"
"241017","063-VK","2018/03/30 19:49:44","新北市三重區重陽路三段5巷8弄16號","121.489536666667","25.0665416666667","6500200","三重區"
"241024","065-VK","2018/03/30 19:49:40","新北市三重區大勇街83號","121.47999","25.0714083333333","6500200","三重區"
"241003","091-VK","2018/03/30 19:49:42","新北市三重區五華街93巷4號","121.492055","25.083785","6500200","三重區"
"241016","265-UM","2018/03/30 19:49:41","新北市三重區正義北路48巷41號","121.496201666667","25.0636216666667","6500200","三重區"
"241022","267-UM","2018/03/30 19:49:39","新北市三重區過圳街31巷2號","121.489268333333","25.0605366666667","6500200","三重區"
"241018","268-UM","2018/03/30 19:49:39","新北市三重區雙園街57巷32號","121.494376666667","25.0683333333333","6500200","三重區"
"241032","269-UM","2018/03/30 19:49:37","新北市三重區重陽路一段44巷64號","121.484515","25.0577266666667","6500200","三重區"
"241013","270-UM","2018/03/30 19:49:36","新北市三重區仁愛街118號","121.495228333333","25.0745516666667","6500200","三重區"
"241025","271-UM","2018/03/30 19:49:28","新北市三重區忠孝路三段56-1號","121.480506666667","25.06523","6500200","三重區"
"241007","398-BY","2018/03/30 19:49:44","新北市三重區三和路四段143-1號","121.484503333333","25.0783466666667","6500200","三重區"
"241035","KEA-2210","2018/03/30 19:49:46","新北市三重區文化北路8號","121.499373333333","25.0635783333333","6500200","三重區"
"241004","475-VK","2018/03/30 19:49:29","新北市三重區五華街74號","121.493386666667","25.08203","6500200","三重區"
"241020","478-VK","2018/03/30 19:49:43","新北市三重區後竹圍街1號","121.491483333333","25.07363","6500200","三重區"
"241030","480-VK","2018/03/30 19:49:37","新北市三重區集成路11號","121.48867","25.0519966666667","6500200","三重區"
"241014","543-UM","2018/03/30 19:49:32","新北市三重區長安街75號","121.5016","25.0674033333333","6500200","三重區"
"241023","545-UM","2018/03/30 19:49:40","新北市三重區頂崁街168號","121.477668333333","25.06588","6500200","三重區"
"241001","547-UM","2018/03/30 19:49:30","新北市三重區仁愛街327巷29號","121.49301","25.0799366666667","6500200","三重區"
"241019","KEA-2593","2018/03/30 19:49:44","新北市三重區自強路二段74巷23-1號","121.487776666667","25.0696266666667","6500200","三重區"
"241006","AAD-863","2018/03/30 19:49:43","新北市三重區永福街273號","121.482151666667","25.0742783333333","6500200","三重區"
"241026","887-TS","2018/03/30 19:49:28","新北市三重區光興街1號","121.500298333333","25.0602516666667","6500200","三重區"
"241012","941-UM","2018/03/30 19:49:44","新北市三重區仁福街64巷17號","121.497801666667","25.0753016666667","6500200","三重區"
"241029","942-UM","2018/03/30 19:49:41","新北市三重區重安街16號","121.490601666667","25.0584466666667","6500200","三重區"
"235066","003-UY","2018/03/30 19:49:32","新北市中和區南工路26號","121.50557","25.0008083333333","6500300","中和區"
"235063","006-UY","2018/03/30 19:49:31","新北市中和區連城路263巷27弄4號","121.492865","24.9944883333333","6500300","中和區"
"235056","096-UM","2018/03/30 19:49:43","新北市中和區中山路三段114巷3號","121.475286666667","25.007435","6500300","中和區"
"235065","098-UM","2018/03/30 19:49:33","新北市中和區福祥路90巷5號","121.499553333333","25.0058366666667","6500300","中和區"
"235040","150-BY","2018/03/30 19:49:33","新北市中和區安平路30號","121.509591666667","24.9948316666667","6500300","中和區"
"235058","151-BY","2018/03/30 19:49:26","新北市中和區員山路146巷3號","121.481585","24.9968383333333","6500300","中和區"
"235055","183-VK","2018/03/30 19:49:32","新北市中和區德光路27巷1弄1號","121.470845","25.0039883333333","6500300","中和區"
"235038","185-VK","2018/03/30 19:49:31","新北市中和區自強路52號","121.520201666667","24.994785","6500300","中和區"
"235049","186-VK","2018/03/30 19:49:42","新北市中和區中正路2號","121.503228333333","24.99381","6500300","中和區"
"235067","255-BX","2018/03/30 19:49:30","新北市中和區新生街220巷5號","121.48327","24.9983416666667","6500300","中和區"
"235067","293-VK","2018/03/30 19:49:36","新北市中和區南山路126號","121.503551666667","24.9930233333333","6500300","中和區"
"235043","352-BY","2018/03/30 19:49:38","新北市中和區興南路二段159巷20號","121.505331666667","24.9829766666667","6500300","中和區"
"235068","377-QA","2018/03/30 19:49:33","新北市中和區福美路301巷11號","121.497453333333","25.0043883333333","6500300","中和區"
"235061","378-QA","2018/03/30 19:49:40","新北市中和區新生街166巷20號","121.482576666667","25.0002766666667","6500300","中和區"
"235050","4979-A6","2018/03/30 19:49:37","新北市中和區景平路241巷82弄33號","121.506541666667","24.9924033333333","6500300","中和區"
"235069","4980-A6","2018/03/30 19:49:38","新北市中和區和城路一段271巷1號","121.485548333333","24.9919016666667","6500300","中和區"
"235042","551-UM","2018/03/30 19:49:31","新北市中和區保健路2巷20號","121.507285","24.9977733333333","6500300","中和區"
"235070","558-UM","2018/03/30 19:49:43","新北市中和區景平路507號","121.499588333333","24.99847","6500300","中和區"
"235045","565-BX","2018/03/30 19:49:29","新北市中和區景平路402號","121.509236666667","24.9930833333333","6500300","中和區"
"235054","640-BX","2018/03/30 19:49:45","新北市中和區莒光路131號","121.472576666667","25.0018816666667","6500300","中和區"
"235060","647-TV","2018/03/30 19:49:28","新北市中和區新生街30巷1號","121.483045","25.0037916666667","6500300","中和區"
"235047","732-UM","2018/03/30 19:49:38","新北市中和區和平街25-2號","121.507806666667","24.9909016666667","6500300","中和區"
"235046","733-UM","2018/03/30 19:49:45","新北市中和區仁愛街36號","121.51099","24.9884116666667","6500300","中和區"
"235057","801-TS","2018/03/30 19:49:30","新北市中和區員山路291號","121.481278333333","24.9998616666667","6500300","中和區"
"235041","802-TS","2018/03/30 19:49:28","新北市中和區中安街18號","121.513388333333","25.00316","6500300","中和區"
"235052","805-TS","2018/03/30 19:49:37","新北市中和區華新街30巷15號","121.507188333333","24.9842733333333","6500300","中和區"
"235048","896-TW","2018/03/30 19:49:33","新北市中和區興南路一段61號","121.510356666667","24.9897033333333","6500300","中和區"
"235053","900-TW","2018/03/30 19:49:31","新北市中和區國光街187號","121.467401666667","25.00167","6500300","中和區"
"235051","157-BY","2018/03/30 19:49:36","新北市中和區中興街180巷50弄3號","121.498676666667","24.9889916666667","6500300","中和區"
"235037","AAC-213","2018/03/30 19:49:38","新北市中和區自立路76號","121.524121666667","24.991285","6500300","中和區"
"235059","AAC-215","2018/03/30 19:49:24","新北市中和區圓通路305巷18號","121.49504","24.9890283333333","6500300","中和區"
"220065","072-UY","2018/03/30 19:49:39","新北市板橋區海山路37-1號","121.467321666667","25.0097283333333","6500100","板橋區"
"220086","073-UY","2018/03/30 19:49:28","新北市板橋區南雅西路二段7巷25號","121.451905","25.0094733333333","6500100","板橋區"
"220069","AAD-861","2018/03/30 19:49:43","新北市板橋區貴興路117號","121.455661666667","25.002365","6500100","板橋區"
"247014","546-UM","2018/03/30 19:49:37","新北市蘆洲區中央路155號","121.472615","25.084705","6501400","蘆洲區"
"247004","337-TH","2018/03/30 19:49:47","新北市蘆洲區永安南路二段324號","121.456955","25.0828066666667","6501400","蘆洲區"
"247006","336-TH","2018/03/30 19:49:35","新北市蘆洲區永安南路二段26號","121.467316666667","25.0771","6501400","蘆洲區"
"247008","056-VK","2018/03/30 19:49:36","新北市蘆洲區信義路109號","121.478311666667","25.0801016666667","6501400","蘆洲區"
"247002","053-VK","2018/03/30 19:49:43","新北市蘆洲區永樂街38巷71號","121.45859","25.0906566666667","6501400","蘆洲區"
"226004","205-ST","2018/03/30 19:49:41","新北市平溪區靜安路二段551號","121.749235","25.02398","6502400","平溪區"
"235039","251-BX","2018/03/30 19:49:30","新北市中和區景平路172號","121.517015","24.9926933333333","6500300","中和區"
"228001","670-TC","2018/03/30 19:49:41","新北市貢寮區真理里新港街118號","121.926911666667","25.056525","6502600","貢寮區"
"228003","828-UM","2018/03/30 19:49:40","新北市貢寮區真理里延平街151號","121.925073333333","25.057965","6502600","貢寮區"
"224010","AGQ-8101","2018/03/30 19:49:42","新北市瑞芳區石碑巷57號","121.840445","25.108565","6501200","瑞芳區"
"224002","639-TC","2018/03/30 19:49:33","新北市瑞芳區員山子路員山巷1號","121.816813333333","25.1035633333333","6501200","瑞芳區"
"227011","642-TC","2018/03/30 19:49:29","新北市雙溪區新基里中華路90-1號","121.865956666667","25.0390116666667","6502500","雙溪區"
"227003","400-TW","2018/03/30 19:49:37","新北市雙溪區雙溪里內挖路47號","121.863203333333","25.0368066666667","6502500","雙溪區"
"222001","KEA-2212","2018/03/30 19:49:30","新北市深坑區北深路三段92號","121.60715","25.0015166666667","6501800","深坑區"
"208002","KEA-2872","2018/03/30 19:49:30","新北市金山區中山路323號","121.635393333333","25.223875","6502700","金山區"
"208003","665-BX","2018/03/30 19:49:45","新北市金山區海興路42-1號","121.630736666667","25.2381633333333","6502700","金山區"
"208001","761-BX","2018/03/30 19:49:35","新北市金山區重和里林口32號","121.596378333333","25.2093883333333","6502700","金山區"
"251004","009-UM","2018/03/30 19:48:19","台北市北投區大度路三段301巷28弄18號","121.465345","25.1223833333333","6501000","淡水區"
"251001","011-UM","2018/03/30 19:49:26","新北市淡水區中正東路二段37號","121.459278333333","25.1562","6501000","淡水區"
"251012","441-VK","2018/03/30 19:49:36","新北市淡水區中山北路三段164號","121.445886666667","25.1964016666667","6501000","淡水區"
"251005","443-VK","2018/03/30 19:49:42","新北市淡水區中正東路6號","121.446928333333","25.1671766666667","6501000","淡水區"
"251006","561-UM","2018/03/30 19:49:46","新北市淡水區水碓街15號","121.443488333333","25.1769533333333","6501000","淡水區"
"251009","575-R6","2018/03/30 19:49:39","新北市淡水區中正路38-1號","121.44371","25.1692816666667","6501000","淡水區"
"251007","577-R6","2018/03/30 19:49:42","新北市淡水區竿蓁一街115號","121.455461666667","25.1661466666667","6501000","淡水區"
"251011","650-BX","2018/03/30 19:49:38","新北市淡水區淡金路二段401號","121.446875","25.1865333333333","6501000","淡水區"
"251002","672-BX","2018/03/30 19:49:32","新北市淡水區新市二路三段20號","121.431526666667","25.1934766666667","6501000","淡水區"
"207003","550-UM","2018/03/30 19:49:44","新北市萬里區磺潭里公館崙5號","121.642041666667","25.2143983333333","6502800","萬里區"
"207004","225-TW","2018/03/30 19:49:45","新北市萬里區萬里里瑪鋉路170號","121.689836666667","25.1798166666667","6502800","萬里區"
"252002","178-VK","2018/03/30 19:49:30","新北市三芝區三民街33-1號","121.504665","25.25854","6502100","三芝區"
"252001","292-VK","2018/03/30 19:49:47","新北市三芝區公正街66號","121.499783333333","25.2574633333333","6502100","三芝區"
"237004","KEA-2597","2018/03/30 19:49:26","新北市三峽區添福295-1號","121.377921666667","24.8846416666667","6500900","三峽區"
"237007","153-BY","2018/03/30 19:49:27","新北市三峽區二鬮路21號","121.362555","24.9109933333333","6500900","三峽區"
"237009","210-TH","2018/03/30 19:49:38","新北市三峽區民族街78巷18號","121.368218333333","24.929525","6500900","三峽區"
"237013","252-BX","2018/03/30 19:49:39","新北市三峽區溪北街22號","121.396533333333","24.9362","6500900","三峽區"
"237012","275-BY","2018/03/30 19:49:36","新北市三峽區中華路38號","121.373103333333","24.9318433333333","6500900","三峽區"
"237008","302-VK","2018/03/30 19:49:35","新北市三峽區中正路一段108巷11號","121.373486666667","24.9300983333333","6500900","三峽區"
"237006","5529-G3","2018/03/30 19:49:26","新北市三峽區中正路一段350號","121.371233333333","24.9243433333333","6500900","三峽區"
"237005","AKY-6261","2018/03/30 19:49:44","新北市三峽區長泰街46號","121.378115","24.9323616666667","6500900","三峽區"
"236069","105-UM","2018/03/30 19:49:38","新北市土城區中央路二段190號","121.441958333333","24.9760233333333","6501300","土城區"
"236079","166-UM","2018/03/30 19:49:38","新北市土城區民權街8號","121.415875","24.9627916666667","6501300","土城區"
"236030","253-BX","2018/03/30 19:49:46","新北市土城區中央路一段294號","121.44332","24.9823483333333","6501300","土城區"
"236026","269-VK","2018/03/30 19:49:44","新北市土城區中央路二段61巷28號","121.443448333333","24.9786583333333","6501300","土城區"
"236014","270-VK","2018/03/30 19:49:32","新北市土城區廣明街41巷35號","121.453961666667","24.9924366666667","6501300","土城區"
"236039","271-VK","2018/03/30 19:49:28","新北市土城區國際路158巷2號","121.468505","24.976415","6501300","土城區"
"236020","401-BY","2018/03/30 19:49:37","新北市土城區延吉街137巷2弄2號","121.470715","24.985995","6501300","土城區"
"236059","912-UM","2018/03/30 19:49:30","新北市土城區中央路一段210號","121.444998333333","24.9855183333333","6501300","土城區"
"236048","913-UM","2018/03/30 19:49:45","新北市土城區青雲路162號","121.459183333333","24.982795","6501300","土城區"
"236063","915-UM","2018/03/30 19:49:36","新北市土城區延和路107號","121.467686666667","24.9902533333333","6501300","土城區"
"236055","AAC-216","2018/03/30 19:49:29","新北市土城區延和路148號","121.467761666667","24.9901733333333","6501300","土城區"
"242034","AAC-296","2018/03/30 19:49:40","新北市新莊區公園一路95號","121.444125","25.038135","6500500","新莊區"
"242058","986-R7","2018/03/30 19:49:27","新北市新莊區新樹路52號","121.43734","25.0266933333333","6500500","新莊區"
"242037","442-UM","2018/03/30 19:49:29","新北市新莊區民安路207巷32弄4號","121.42811","25.0241216666667","6500500","新莊區"
"242044","400-BY","2018/03/30 19:49:35","新北市新莊區中山路三段551號","121.41237","25.0269816666667","6500500","新莊區"
"242023","362-BY","2018/03/30 19:49:46","新北市新莊區化成路196號","121.465606666667","25.04616","6500500","新莊區"
"242032","135-UY","2018/03/30 19:49:36","新北市新莊區忠孝街16號","121.443973333333","25.0349383333333","6500500","新莊區"
"242048","172-VK","2018/03/30 19:49:10","新北市新莊區建安街92巷15號","121.425791666667","25.0243683333333","6500500","新莊區"
"242011","173-VK","2018/03/30 19:49:33","新北市新莊區中榮街84號","121.448001666667","25.0528616666667","6500500","新莊區"
"242005","176-VK","2018/03/30 19:49:39","新北市新莊區化成路63巷24弄49號","121.461895","25.0458916666667","6500500","新莊區"
"242021","348-TH","2018/03/30 19:49:48","新北市新莊區建中街24號","121.449216666667","25.03749","6500500","新莊區"
"242002","349-TH","2018/03/30 19:49:29","新北市新莊區新泰路2-11號","121.450131666667","25.0324433333333","6500500","新莊區"
"242019","350-TH","2018/03/30 19:49:36","新北市新莊區中華路一段136巷2號","121.452975","25.0411516666667","6500500","新莊區"
"242013","351-TH","2018/03/30 19:49:44","新北市新莊區中泰街38巷11弄2號","121.450733333333","25.0474083333333","6500500","新莊區"
"238015","755-BX","2018/03/30 19:49:28","新北市樹林區中山路一段103號","121.423226666667","24.9910316666667","6500700","樹林區"
"238023","601-UM","2018/03/30 19:49:34","新北市樹林區三福街4-1號","121.409056666667","25.0168366666667","6500700","樹林區"
"238021","KEA-2217","2018/03/30 19:49:41","新北市樹林區佳園路三段181巷77號","121.390928333333","24.9482983333333","6500700","樹林區"
"238020","268-VK","2018/03/30 19:49:40","新北市樹林區中山路三段210-2號","121.38141","24.965615","6500700","樹林區"
"221008","489-VK","2018/03/30 19:49:39","新北市汐止區康寧街65號","121.61869","25.066735","6501100","汐止區"
"221036","130-UY","2018/03/30 19:49:24","新北市汐止區汐萬路一段37號","121.655656666667","25.0680433333333","6501100","汐止區"
"221015","131-UY","2018/03/30 19:49:45","新北市汐止區忠孝東路428號","121.666055","25.0719733333333","6501100","汐止區"
"221010","269-BY","2018/03/30 19:49:34","新北市汐止區連峰街128號","121.64619","25.0790616666667","6501100","汐止區"
"221012","278-VK","2018/03/30 19:49:36","新北市汐止區大同路三段547號","121.681321666667","25.0715383333333","6501100","汐止區"
"221023","279-VK","2018/03/30 19:49:16","新北市汐止區民族六街4巷2號","121.629391666667","25.0702583333333","6501100","汐止區"
"221032","280-BY","2018/03/30 19:49:47","新北市汐止區大同路一段405-1號","121.642031666667","25.0599433333333","6501100","汐止區"
"221027","281-BY","2018/03/30 19:49:35","新北市汐止區大同路二段577號","121.66345","25.0700966666667","6501100","汐止區"
"221029","298-VK","2018/03/30 19:49:44","新北市汐止區康寧街901號","121.65137","25.0749666666667","6501100","汐止區"
"221021","299-VK","2018/03/30 19:49:38","新北市汐止區新興路78號","121.657696666667","25.0618133333333","6501100","汐止區"
"221031","353-TW","2018/03/30 19:49:26","新北市汐止區福德二路54巷4號","121.633778333333","25.06742","6501100","汐止區"
"221035","622-UM","2018/03/30 19:49:38","新北市汐止區長江街13巷10號","121.654633333333","25.0719366666667","6501100","汐止區"
"221025","623-UM","2018/03/30 19:49:28","新北市汐止區秀峰路81巷25號","121.66118","25.0645933333333","6501100","汐止區"
"221038","646-BX","2018/03/30 19:49:37","新北市汐止區忠孝東路409號","121.66575","25.0712383333333","6501100","汐止區"
"221033","647-BX","2018/03/30 19:49:21","新北市汐止區東勢街76巷45-1號","121.63364","25.03911","6501100","汐止區"
"221018","753-BX","2018/03/30 19:49:41","新北市汐止區大同路二段536號","121.661413333333","25.068665","6501100","汐止區"
"220079","145-BY","2018/03/30 19:49:44","新北市板橋區中正路135巷12弄6號","121.455713333333","25.0159033333333","6500100","板橋區"
"220106","KEA-2550","2018/03/30 19:49:46","新北市板橋區民治街57巷26號","121.480048333333","25.0338883333333","6500100","板橋區"
"220082","610-BX","2018/03/30 19:49:35","新北市板橋區篤行路二段116-3號","121.43132","24.99098","6500100","板橋區"
"220101","245-BX","2018/03/30 19:49:29","新北市板橋區縣民大道三段103巷23號","121.475253333333","25.0226916666667","6500100","板橋區"
"220072","277-BY","2018/03/30 19:49:39","新北市板橋區金門街151巷42弄2號","121.43391","24.9902616666667","6500100","板橋區"
"220071","283-VK","2018/03/30 19:49:37","新北市板橋區五權街30巷24弄17-1號","121.463796666667","24.9935","6500100","板橋區"
"220094","285-UM","2018/03/30 19:49:29","新北市板橋區長江路一段124號","121.460153333333","25.0298566666667","6500100","板橋區"
"220053","285-VK","2018/03/30 19:49:43","新北市板橋區中山路二段90巷10號","121.475335","25.0158933333333","6500100","板橋區"
"220083","286-VK","2018/03/30 19:49:43","新北市板橋區僑中二街10巷28號","121.445908333333","25.0110966666667","6500100","板橋區"
"220081","287-VK","2018/03/30 19:49:29","新北市板橋區大觀路一段28巷107-1號","121.449905","25.0121666666667","6500100","板橋區"
"220090","288-VK","2018/03/30 19:49:29","新北市板橋區龍泉街72巷6號","121.456345","25.02627","6500100","板橋區"
"220061","293-UM","2018/03/30 19:49:46","新北市板橋區觀光街1巷15號","121.471768333333","25.0152733333333","6500100","板橋區"
"220084","296-UM","2018/03/30 19:49:36","新北市板橋區溪崑二街94號","121.42684","24.9891383333333","6500100","板橋區"
"220075","303-R5","2018/03/30 19:49:43","新北市板橋區金華街10巷48弄44-3號","121.45852","25.0200466666667","6500100","板橋區"
"220062","305-R5","2018/03/30 19:49:41","新北市板橋區光復街33巷35號","121.482508333333","25.018975","6500100","板橋區"
"220092","307-R5","2018/03/30 19:49:27","新北市板橋區四維路141號","121.464915","25.02543","6500100","板橋區"
"220098","317-R6","2018/03/30 19:49:26","新北市板橋區四維路269巷92號","121.459568333333","25.02662","6500100","板橋區"
"220080","461-BY","2018/03/30 19:49:42","新北市板橋區大觀路二段163巷26號","121.446356666667","25.00013","6500100","板橋區"
"220064","486-VK","2018/03/30 19:49:26","新北市板橋區館前東路112號","121.463388333333","25.0076266666667","6500100","板橋區"
"220088","491-VK","2018/03/30 19:49:39","新北市板橋區大同街71號","121.479498333333","25.0280383333333","6500100","板橋區"
"220035","560-BX","2018/03/30 19:49:33","新北市板橋區新生街87巷22號","121.457115","25.0220466666667","6500100","板橋區"
"220103","561-BX","2018/03/30 19:49:39","新北市板橋區陽明街29巷13號","121.46482","25.02194","6500100","板橋區"
"220055","568-UM","2018/03/30 19:49:38","新北市板橋區國慶路149巷37弄11號","121.460483333333","24.99791","6500100","板橋區"
"220063","609-BX","2018/03/30 19:49:47","新北市板橋區三民路一段99號","121.480075","25.0217216666667","6500100","板橋區"
"220091","637-BX","2018/03/30 19:49:42","新北市板橋區懷德街181巷22號","121.480321666667","25.0302816666667","6500100","板橋區"
"220057","686-BX","2018/03/30 19:49:44","新北市板橋區信義路146號","121.458796666667","24.9919883333333","6500100","板橋區"
"220077","687-BX","2018/03/30 19:49:33","新北市板橋區僑中一街124巷20弄1號","121.446185","25.014065","6500100","板橋區"
"220093","689-BX","2018/03/30 19:49:34","新北市板橋區長江路二段333號","121.471635","25.0335433333333","6500100","板橋區"
"220054","741-BX","2018/03/30 19:49:32","新北市板橋區實踐路93巷80號","121.466905","25.004745","6500100","板橋區"
"220102","KEA-2699","2018/03/30 19:49:37","新北市板橋區松柏街35號","121.475248333333","25.03027","6500100","板橋區"
"220067","829-TW","2018/03/30 19:49:44","新北市板橋區長安街331巷23號","121.47357","25.0123666666667","6500100","板橋區"
"220068","830-TW","2018/03/30 19:49:32","新北市板橋區中山路二段412巷37號","121.483956666667","25.019545","6500100","板橋區"
"220096","831-TW","2018/03/30 19:49:44","新北市板橋區莒光路16巷5號","121.469701666667","25.0243916666667","6500100","板橋區"
"220089","833-TW","2018/03/30 19:49:40","新北市板橋區綠堤街41-2號","121.455323333333","25.02624","6500100","板橋區"
"220074","895-R6","2018/03/30 19:49:37","新北市板橋區文化路一段46巷16號","121.460276666667","25.0114666666667","6500100","板橋區"
"220073","985-R7","2018/03/30 19:49:42","新北市板橋區大仁街73號","121.453956666667","25.0161916666667","6500100","板橋區"
"220097","AAC-210","2018/03/30 19:49:45","新北市板橋區漢生西路50號","121.463053333333","25.0184766666667","6500100","板橋區"
"220070","AAC-253","2018/03/30 19:49:45","新北市板橋區成都街22號","121.46116","25.0047716666667","6500100","板橋區"
