"lineid","car","time","location","longitude","latitude","cityid","cityname"
"234046","148-BY","2018/03/30 19:59:43","新北市永和區成功路一段4號","121.52695","25.0055583333333","6500400","永和區"
"234070","149-BY","2018/03/30 19:59:18","新北市永和區國光路2號","121.51987","25.0087283333333","6500400","永和區"
"234007","208-UY","2018/03/30 19:59:30","新北市永和區永貞路375號","121.508221666667","25.0082783333333","6500400","永和區"
"234081","298-R6","2018/03/30 19:59:30","新北市永和區國中路4-1號","121.52412","25.0045566666667","6500400","永和區"
"234038","336-UY","2018/03/30 19:59:43","新北市永和區成功路二段120號","121.526488333333","24.9977233333333","6500400","永和區"
"234064","337-UY","2018/03/30 19:59:36","新北市永和區中正路428巷30弄21-1號","121.518886666667","25.0021383333333","6500400","永和區"
"234086","338-UY","2018/03/30 19:59:42","新北市永和區福和路41-1號","121.523546666667","25.0080816666667","6500400","永和區"
"234017","745-BX","2018/03/30 19:59:49","新北市永和區文化路50號","121.514568333333","25.015095","6500400","永和區"
"234030","746-BX","2018/03/30 19:59:38","新北市永和區民生路22巷8號","121.52207","24.99729","6500400","永和區"
"234054","KEA-2590","2018/03/30 19:59:35","新北市永和區環河東路一段122號","121.520728333333","25.0155716666667","6500400","永和區"
"234013","KEA-2591","2018/03/30 19:59:38","新北市永和區保生路55號","121.504665","25.010575","6500400","永和區"
"234061","AAD-866","2018/03/30 19:59:31","新北市永和區得和路76號","121.51646","25.000035","6500400","永和區"
"234042","862-TW","2018/03/30 19:59:27","新北市永和區雙和街17巷12號","121.5091","25.0017416666667","6500400","永和區"
"234050","863-TW","2018/03/30 19:59:27","新北市永和區保安路244號","121.506506666667","25.0127883333333","6500400","永和區"
"234026","9371-KE","2018/03/30 19:59:43","新北市永和區水源街27巷11號","121.511318333333","25.00391","6500400","永和區"
"234011","9373-KE","2018/03/30 19:59:35","新北市永和區仁愛路352巷122弄2號","121.500425","25.0086066666667","6500400","永和區"
"249005","172-UM","2018/03/30 19:59:31","新北市八里區楓林路4號","121.381791666667","25.1293716666667","6502300","八里區"
"249001","173-UM","2018/03/30 19:59:25","新北市八里區中華路二段310號","121.403846666667","25.1483066666667","6502300","八里區"
"249004","303-UY","2018/03/30 19:59:27","新北市八里區中山路一段225號","121.411061666667","25.1577633333333","6502300","八里區"
"249002","305-UY","2018/03/30 19:59:26","新北市八里區龍米路一段87巷1號","121.454273333333","25.1233866666667","6502300","八里區"
"249003","593-UM","2018/03/30 19:59:27","新北市八里區中華路二段560巷7號","121.398446666667","25.1449666666667","6502300","八里區"
"248014","025-BX","2018/03/30 19:59:40","新北市五股區五福路14巷28號","121.435561666667","25.0889516666667","6501500","五股區"
"248008","095-VK","2018/03/30 19:59:27","新北市五股區四維路30巷18號","121.467965","25.071485","6501500","五股區"
"248018","225-UY","2018/03/30 19:59:33","新北市五股區登林路120-1號","121.412406666667","25.07707","6501500","五股區"
"248012","247-BX","2018/03/30 19:59:36","新北市五股區民義路一段138-1號","121.434066666667","25.0865166666667","6501500","五股區"
"248010","272-BY","2018/03/30 19:59:34","新北市五股區登林路76-10號","121.429526666667","25.0693983333333","6501500","五股區"
"248004","677-BX","2018/03/30 19:59:25","新北市五股區成泰路一段8巷2-3號","121.434881666667","25.0669466666667","6501500","五股區"
"248002","678-BX","2018/03/30 19:59:34","新北市五股區成泰路三段487號","121.450771666667","25.0992633333333","6501500","五股區"
"234023","9380-KE","2018/03/30 19:59:45","新北市永和區中正路702巷18號","121.51649","25.01053","6500400","永和區"
"234077","969-R7","2018/03/30 19:59:32","新北市永和區民權路23號","121.519956666667","24.9978366666667","6500400","永和區"
"234074","AAC-211","2018/03/30 19:59:40","新北市永和區豫溪街185號","121.522476666667","25.0104183333333","6500400","永和區"
"234067","AAC-212","2018/03/30 19:59:32","新北市永和區永貞路376號","121.50975","25.00693","6500400","永和區"
"234003","AAC-295","2018/03/30 19:59:39","新北市永和區中正路684號","121.516688333333","25.0094466666667","6500400","永和區"
"243012","AAD-798","2018/03/30 19:59:42","新北市泰山區全興路85號","121.433216666667","25.0577033333333","6501600","泰山區"
"243011","297-R6","2018/03/30 19:59:41","新北市泰山區明志路三段182巷18號","121.423583333333","25.0392483333333","6501600","泰山區"
"243015","380-SR","2018/03/30 19:59:44","新北市泰山區明志路二段214巷16弄9號","121.426861666667","25.04953","6501600","泰山區"
"243014","421-VK","2018/03/30 19:59:33","新北市泰山區泰林路二段165號","121.433646666667","25.0605316666667","6501600","泰山區"
"243016","539-UM","2018/03/30 19:59:32","新北市泰山區明志路三段515號","121.421333333333","25.0320466666667","6501600","泰山區"
"243010","KEA-2215","2018/03/30 19:59:40","新北市泰山區中華街10巷1號","121.427911666667","25.0525066666667","6501600","泰山區"
"243009","KEA-2216","2018/03/30 19:59:41","新北市泰山區泰林路二段164巷30號","121.434483333333","25.061095","6501600","泰山區"
"243013","646-TV","2018/03/30 19:59:40","新北市泰山區應化街13號","121.423846666667","25.04364","6501600","泰山區"
"222003","436-BY","2018/03/30 19:59:37","新北市深坑區埔新街14號","121.620758333333","25.0039016666667","6501800","深坑區"
"222002","659-BX","2018/03/30 19:59:42","新北市深坑區北深路二段81巷8弄1號","121.618316666667","25.0030216666667","6501800","深坑區"
"231041","002-UM","2018/03/30 19:59:42","新北市新店區中正路354號","121.535786666667","24.97566","6500600","新店區"
"231058","0293-UT","2018/03/30 19:59:29","新北市新店區薏仁坑路自強巷1號","121.497828333333","24.9577116666667","6500600","新店區"
"231059","046-UY","2018/03/30 19:59:28","新北市新店區安康路二段147-3號","121.511538333333","24.95958","6500600","新店區"
"231061","047-UY","2018/03/30 19:59:26","新北市新店區安興路32號","121.515781666667","24.970365","6500600","新店區"
"231060","106-UY","2018/03/30 19:59:41","新北市新店區安康路二段391號","121.494483333333","24.954215","6500600","新店區"
"231051","107-UY","2018/03/30 19:59:31","新北市新店區中央一街14-1號","121.528498333333","24.9728816666667","6500600","新店區"
"231048","108-UY","2018/03/30 19:59:37","新北市新店區寶宏路3-3號","121.549183333333","24.976655","6500600","新店區"
"231053","187-VK","2018/03/30 19:59:42","新北市新店區新烏路三段237號","121.546873333333","24.89632","6500600","新店區"
"231050","KEA-2219","2018/03/30 19:59:33","新北市新店區北新路一段72號","121.541398333333","24.9670266666667","6500600","新店區"
"231057","256-BX","2018/03/30 19:59:34","新北市新店區花園二路一段11號","121.555515","24.93246","6500600","新店區"
"231063","268-BY","2018/03/30 19:59:31","新北市新店區黎明路61巷1號","121.502535","24.94698","6500600","新店區"
"231054","AAD-862","2018/03/30 19:59:43","新北市新店區光明街130號","121.539205","24.9611533333333","6500600","新店區"
"231027","3712-VJ","2018/03/30 19:59:42","新北市新店區安華路28-1號","121.519276666667","24.960655","6500600","新店區"
"231056","3713-VJ","2018/03/30 19:59:33","新北市新店區北新路三段171巷7號","121.540498333333","24.983805","6500600","新店區"
"231055","4716-K9","2018/03/30 19:59:38","新北市新店區力行路94號","121.538258333333","24.9665733333333","6500600","新店區"
"231067","4772-VM","2018/03/30 19:59:29","新北市新店區秀山路11巷12弄12號","121.531348333333","24.9595983333333","6500600","新店區"
"231065","512-UM","2018/03/30 19:59:40","新北市新店區安祥路108巷3號","121.475061666667","24.9588983333333","6500600","新店區"
"231064","513-UM","2018/03/30 19:59:35","新北市新店區安和路二段75號","121.518126666667","24.9688416666667","6500600","新店區"
"231044","618-UM","2018/03/30 19:59:43","新北市新店區寶慶街70號","121.541748333333","24.9867666666667","6500600","新店區"
"231040","619-UM","2018/03/30 19:59:48","新北市新店區中正路62號","121.54428","24.9701116666667","6500600","新店區"
"231042","641-BX","2018/03/30 19:59:29","新北市新店區中興路二段59-1號","121.546641666667","24.9705183333333","6500600","新店區"
"231068","718-UY","2018/03/30 19:59:31","新北市新店區安華路28-1號","121.519216666667","24.9613216666667","6500600","新店區"
"231049","719-UM","2018/03/30 19:59:27","新北市新店區明德路20號","121.54217","24.9769666666667","6500600","新店區"
"231062","719-UY","2018/03/30 19:59:43","新北市新店區安康路一段94-1號","121.527666666667","24.96217","6500600","新店區"
"231043","899-TW","2018/03/30 19:59:36","新北市新店區中正路265巷7號","121.538233333333","24.9734666666667","6500600","新店區"
"241011","013-R5","2018/03/30 19:59:48","新北市三重區三和路二段224號","121.497835","25.06963","6500200","三重區"
"241028","022-UY","2018/03/30 19:59:44","新北市三重區重新路三段49號","121.493043333333","25.0612233333333","6500200","三重區"
"241008","059-VK","2018/03/30 19:59:43","新北市三重區永福街179巷26號","121.478101666667","25.074815","6500200","三重區"
"241009","060-VK","2018/03/30 19:59:35","新北市三重區力行路二段202號","121.4836","25.0778116666667","6500200","三重區"
"241031","061-VK","2018/03/30 19:59:31","新北市三重區重新路四段144巷23號","121.487045","25.0552533333333","6500200","三重區"
"241015","062-VK","2018/03/30 19:59:35","新北市三重區三和路二段37-3號","121.500998333333","25.067355","6500200","三重區"
"241017","063-VK","2018/03/30 19:59:44","新北市三重區自強路一段282號","121.49171","25.0680083333333","6500200","三重區"
"241024","065-VK","2018/03/30 19:59:40","新北市三重區力行路一段178巷7號","121.48161","25.07148","6500200","三重區"
"241002","090-VK","2018/03/30 19:59:40","新北市三重區仁愛街281號","121.49265","25.0789133333333","6500200","三重區"
"241003","091-VK","2018/03/30 19:59:45","新北市三重區仁愛街435號","121.490233333333","25.0820333333333","6500200","三重區"
"241005","262-UM","2018/03/30 19:59:37","新北市三重區溪尾街325巷3弄2號","121.488248333333","25.0843366666667","6500200","三重區"
"241016","265-UM","2018/03/30 19:59:41","新北市三重區正德街58號","121.495555","25.0633483333333","6500200","三重區"
"241022","267-UM","2018/03/30 19:59:39","新北市三重區過圳街31巷2號","121.489206666667","25.0605083333333","6500200","三重區"
"241018","268-UM","2018/03/30 19:59:39","新北市三重區雙園街57巷16號","121.49459","25.0677933333333","6500200","三重區"
"241032","269-UM","2018/03/30 19:59:37","新北市三重區捷運路67號","121.483371666667","25.055615","6500200","三重區"
"241013","270-UM","2018/03/30 19:59:36","新北市三重區三和路三段125巷33號","121.494026666667","25.073685","6500200","三重區"
"241025","271-UM","2018/03/30 19:59:28","新北市三重區頂崁街210巷16號","121.4765","25.06776","6500200","三重區"
"241007","398-BY","2018/03/30 19:59:44","新北市三重區溪尾街146號","121.489091666667","25.0799283333333","6500200","三重區"
"241035","KEA-2210","2018/03/30 19:59:46","新北市三重區大榮街9號","121.498236666667","25.06316","6500200","三重區"
"241004","475-VK","2018/03/30 19:59:29","新北市三重區五華街74號","121.493365","25.0820533333333","6500200","三重區"
"241020","478-VK","2018/03/30 19:59:44","新北市三重區忠孝路一段101號","121.489381666667","25.0721333333333","6500200","三重區"
"241030","480-VK","2018/03/30 19:59:37","新北市三重區重新路四段244巷9號","121.486423333333","25.0533283333333","6500200","三重區"
"241014","543-UM","2018/03/30 19:59:32","新北市三重區長春街13號","121.499701666667","25.0690533333333","6500200","三重區"
"241023","545-UM","2018/03/30 19:59:40","新北市三重區頂崁街166號","121.477663333333","25.0658416666667","6500200","三重區"
"241001","547-UM","2018/03/30 19:59:30","新北市三重區仁愛街283巷32號","121.494231666667","25.0798683333333","6500200","三重區"
"241019","KEA-2593","2018/03/30 19:59:44","新北市三重區重陽路四段40號","121.49131","25.070005","6500200","三重區"
"241006","AAD-863","2018/03/30 19:59:43","新北市三重區力行路二段102號","121.481993333333","25.074765","6500200","三重區"
"241026","887-TS","2018/03/30 19:59:28","新北市三重區中央南路4號","121.501385","25.06302","6500200","三重區"
"241012","941-UM","2018/03/30 19:59:44","新北市三重區仁厚街66號","121.50051","25.0766483333333","6500200","三重區"
"241029","942-UM","2018/03/30 19:59:31","新北市三重區重安街1號","121.490051666667","25.0581066666667","6500200","三重區"
"235066","003-UY","2018/03/30 19:59:32","新北市中和區中山路二段69號","121.503951666667","25.0044633333333","6500300","中和區"
"235056","096-UM","2018/03/30 19:59:43","新北市中和區中山路三段170巷6弄24號","121.473186666667","25.0073516666667","6500300","中和區"
"235065","098-UM","2018/03/30 19:59:33","新北市中和區莊敬路2號","121.499443333333","25.0042633333333","6500300","中和區"
"235040","150-BY","2018/03/30 19:59:42","新北市中和區保健路10巷21弄1號","121.507711666667","24.9968733333333","6500300","中和區"
"235058","151-BY","2018/03/30 19:59:26","新北市中和區員山路148巷19號","121.48212","24.9971516666667","6500300","中和區"
"235055","183-VK","2018/03/30 19:59:32","新北市中和區民生街23巷3弄2號","121.471073333333","25.0050116666667","6500300","中和區"
"235049","186-VK","2018/03/30 19:59:36","新北市中和區景平路520號","121.503395","24.9941183333333","6500300","中和區"
"235067","255-BX","2018/03/30 19:59:30","新北市中和區員山路148巷42-4號","121.482435","24.99696","6500300","中和區"
"235044","293-VK","2018/03/30 19:59:36","新北市中和區中正路73號","121.500996666667","24.99342","6500300","中和區"
"235068","377-QA","2018/03/30 19:59:33","新北市中和區永和路39巷10號","121.497566666667","25.0049966666667","6500300","中和區"
"235050","4979-A6","2018/03/30 19:59:17","新北市中和區景平路155巷24號","121.513511666667","24.99166","6500300","中和區"
"235069","4980-A6","2018/03/30 19:59:38","新北市中和區圓通路74號","121.500171666667","24.997195","6500300","中和區"
"235070","558-UM","2018/03/30 19:59:43","新北市中和區圓通路207號","121.49707","24.9944466666667","6500300","中和區"
"235054","640-BX","2018/03/30 19:59:28","新北市中和區莒光路55號","121.472118333333","25.0045016666667","6500300","中和區"
"235046","733-UM","2018/03/30 19:59:45","新北市中和區興南路一段93巷58弄7號","121.51044","24.9858316666667","6500300","中和區"
"235041","802-TS","2018/03/30 19:59:28","新北市中和區安平路161號","121.512455","24.998455","6500300","中和區"
"235052","805-TS","2018/03/30 19:59:37","新北市中和區華新街98號","121.508566666667","24.9830666666667","6500300","中和區"
"235048","896-TW","2018/03/30 19:59:39","新北市中和區景新街568-1號","121.514731666667","24.986625","6500300","中和區"
"235051","157-BY","2018/03/30 19:59:36","新北市中和區景安路247巷22號","121.504476666667","24.9905333333333","6500300","中和區"
"235037","AAC-213","2018/03/30 19:59:29","新北市中和區自立路16-2號","121.522091666667","24.9936183333333","6500300","中和區"
"235059","AAC-215","2018/03/30 19:59:44","新北市中和區圓通路335巷4弄3號","121.492125","24.990275","6500300","中和區"
"220065","072-UY","2018/03/30 19:59:39","新北市板橋區新府路150號","121.464916666667","25.0111566666667","6500100","板橋區"
"220069","AAD-861","2018/03/30 19:59:43","新北市板橋區貴興路73號","121.457023333333","25.00295","6500100","板橋區"
"247024","893-R6","2018/03/30 19:59:37","新北市蘆洲區光明路112巷31號","121.463928333333","25.0872483333333","6501400","蘆洲區"
"247014","546-UM","2018/03/30 19:59:46","新北市蘆洲區成功路129號","121.472321666667","25.0822516666667","6501400","蘆洲區"
"247010","341-TH","2018/03/30 19:59:41","新北市蘆洲區集賢路200號","121.48372","25.0877633333333","6501400","蘆洲區"
"247004","337-TH","2018/03/30 19:59:27","新北市蘆洲區長安街196號","121.458675","25.0839883333333","6501400","蘆洲區"
"247006","336-TH","2018/03/30 19:59:35","新北市蘆洲區九芎街88號","121.465881666667","25.0798016666667","6501400","蘆洲區"
"247018","057-VK","2018/03/30 19:59:32","新北市蘆洲區民族路292號","121.477961666667","25.0897283333333","6501400","蘆洲區"
"247008","056-VK","2018/03/30 19:59:36","新北市蘆洲區信義路109號","121.478405","25.0799666666667","6501400","蘆洲區"
"247002","053-VK","2018/03/30 19:59:39","新北市蘆洲區長安街274巷6弄1號","121.45777","25.0870266666667","6501400","蘆洲區"
"247016","007-UY","2018/03/30 19:59:36","新北市蘆洲區光華路13號","121.469778333333","25.0834033333333","6501400","蘆洲區"
"247020","001-UY","2018/03/30 19:59:34","新北市蘆洲區民義街70號","121.473076666667","25.0899533333333","6501400","蘆洲區"
"226004","205-ST","2018/03/30 19:59:41","新北市平溪區石底里公園街18-3號","121.733216666667","25.0258516666667","6502400","平溪區"
"235039","251-BX","2018/03/30 19:59:29","新北市中和區大勇街25巷36號","121.515983333333","24.99374","6500300","中和區"
"224010","AGQ-8101","2018/03/30 19:58:22","新北市瑞芳區輕便路234號","121.84491","25.108925","6501200","瑞芳區"
"227011","642-TC","2018/03/30 19:59:36","新北市雙溪區新基里朝陽街3號","121.866261666667","25.0384133333333","6502500","雙溪區"
"227003","400-TW","2018/03/30 19:59:37","新北市雙溪區雙溪里長安街16號","121.864961666667","25.0346866666667","6502500","雙溪區"
"222001","KEA-2212","2018/03/30 19:59:39","新北市深坑區北深路三段160號","121.602506666667","25.003425","6501800","深坑區"
"208002","KEA-2872","2018/03/30 19:59:31","新北市金山區環金路91號","121.63653","25.2171483333333","6502700","金山區"
"208003","665-BX","2018/03/30 19:59:25","新北市金山區永興里忠義路29號","121.631456666667","25.2618083333333","6502700","金山區"
"251004","009-UM","2018/03/30 19:59:39","新北市淡水區民族路110巷38弄1號","121.461188333333","25.1354966666667","6501000","淡水區"
"251001","011-UM","2018/03/30 19:59:46","新北市淡水區淡金路二段38號","121.451848333333","25.1815333333333","6501000","淡水區"
"251008","181-VK","2018/03/30 19:59:27","新北市淡水區淡海路72巷13號","121.423661666667","25.1811516666667","6501000","淡水區"
"251010","413-VK","2018/03/30 19:59:29","新北市淡水區崁頂104號","121.434138333333","25.20389","6501000","淡水區"
"251012","441-VK","2018/03/30 19:59:36","新北市淡水區下圭柔山70-10號","121.447061666667","25.206655","6501000","淡水區"
"251005","443-VK","2018/03/30 19:59:42","新北市淡水區學府路136巷42弄1號","121.452123333333","25.17247","6501000","淡水區"
"251006","561-UM","2018/03/30 19:59:26","新北市淡水區水碓街40巷1號","121.444498333333","25.1772766666667","6501000","淡水區"
"251009","575-R6","2018/03/30 19:59:39","新北市淡水區英專路28巷2弄22號","121.445765","25.1693683333333","6501000","淡水區"
"251011","650-BX","2018/03/30 19:59:38","新北市淡水區崁頂57-7號","121.442505","25.1973333333333","6501000","淡水區"
"251002","672-BX","2018/03/30 19:59:32","新北市淡水區沙崙路97號","121.422315","25.1821816666667","6501000","淡水區"
"207003","550-UM","2018/03/30 19:59:32","新北市萬里區磺潭里公館崙5號","121.641885","25.2142316666667","6502800","萬里區"
"207004","225-TW","2018/03/30 19:59:45","新北市萬里區北基里忠二街35號","121.685661666667","25.1757283333333","6502800","萬里區"
"252002","178-VK","2018/03/30 19:59:30","新北市三芝區忠孝街116-3號","121.505531666667","25.2574333333333","6502100","三芝區"
"252001","292-VK","2018/03/30 19:59:27","新北市三芝區公正街66號","121.499766666667","25.25747","6502100","三芝區"
"237004","KEA-2597","2018/03/30 19:59:26","新北市三峽區添福6號","121.37197","24.9058716666667","6500900","三峽區"
"237007","153-BY","2018/03/30 19:59:47","新北市三峽區麻園46號","121.363841666667","24.9212883333333","6500900","三峽區"
"237009","210-TH","2018/03/30 19:59:37","新北市三峽區中山路108號","121.36596","24.9356916666667","6500900","三峽區"
"237012","275-BY","2018/03/30 19:59:36","新北市三峽區中華路3巷8-1號","121.374928333333","24.9311516666667","6500900","三峽區"
"237008","302-VK","2018/03/30 19:59:35","新北市三峽區中華路76-2號","121.371528333333","24.9290683333333","6500900","三峽區"
"237006","5529-G3","2018/03/30 19:59:46","新北市三峽區中正路二段176巷24號","121.365325","24.9148433333333","6500900","三峽區"
"237005","AKY-6261","2018/03/30 19:59:24","新北市三峽區民生街1巷26-1號","121.379361666667","24.9339866666667","6500900","三峽區"
"236069","105-UM","2018/03/30 19:59:38","新北市土城區忠義路77-1號","121.442766666667","24.96529","6501300","土城區"
"236079","166-UM","2018/03/30 19:59:39","新北市土城區中山路45-1號","121.420361666667","24.9627916666667","6501300","土城區"
"236030","253-BX","2018/03/30 19:59:46","新北市土城區中央路一段281號","121.444613333333","24.98462","6501300","土城區"
"236026","269-VK","2018/03/30 19:59:47","新北市土城區中央路二段98號","121.442203333333","24.9783233333333","6501300","土城區"
"236014","270-VK","2018/03/30 19:59:32","新北市土城區廣福街123號","121.456266666667","24.992855","6501300","土城區"
"236039","271-VK","2018/03/30 19:59:36","新北市土城區國際路35號","121.46608","24.9791933333333","6501300","土城區"
"236020","401-BY","2018/03/30 19:59:28","新北市土城區延吉街75巷7號","121.472406666667","24.987015","6501300","土城區"
"236059","912-UM","2018/03/30 19:59:30","新北市土城區中央路一段275號","121.444616666667","24.9847466666667","6501300","土城區"
"236048","913-UM","2018/03/30 19:59:45","新北市土城區金城路三段309號","121.474641666667","24.99104","6501300","土城區"
"236063","915-UM","2018/03/30 19:59:42","新北市土城區金城路三段73巷9弄5號","121.466065","24.98754","6501300","土城區"
"236055","AAC-216","2018/03/30 19:59:29","新北市土城區青雲路33號","121.460928333333","24.98827","6501300","土城區"
"242034","AAC-296","2018/03/30 19:59:40","新北市新莊區建中街80號","121.447303333333","25.0368133333333","6500500","新莊區"
"242058","986-R7","2018/03/30 19:59:27","新北市新莊區八德街80號","121.424528333333","25.0218383333333","6500500","新莊區"
"242054","751-BX","2018/03/30 19:59:35","新北市新莊區西盛街386號","121.427756666667","25.01292","6500500","新莊區"
"242029","705-TV","2018/03/30 19:59:45","新北市新莊區中榮街103號","121.44488","25.052775","6500500","新莊區"
"242025","613-BX","2018/03/30 19:59:38","新北市新莊區五工一路91號","121.460996666667","25.06763","6500500","新莊區"
"242046","497-BY","2018/03/30 19:59:33","新北市新莊區裕民街19巷4號","121.419658333333","25.02524","6500500","新莊區"
"242037","442-UM","2018/03/30 19:59:29","新北市新莊區建安街27號","121.429078333333","25.0259883333333","6500500","新莊區"
"242050","441-UM","2018/03/30 19:59:42","新北市新莊區龍安路517號","121.427068333333","25.0177483333333","6500500","新莊區"
"242044","400-BY","2018/03/30 19:59:35","新北市新莊區萬壽路一段21巷17弄3號","121.410873333333","25.0205716666667","6500500","新莊區"
"242023","362-BY","2018/03/30 19:59:26","新北市新莊區化成路428號","121.466021666667","25.0511383333333","6500500","新莊區"
"242060","353-BY","2018/03/30 19:59:48","新北市新莊區瓊泰路11號","121.444533333333","25.0285683333333","6500500","新莊區"
"242039","133-UY","2018/03/30 19:59:41","新北市新莊區民安路316號","121.428623333333","25.0220533333333","6500500","新莊區"
"242032","135-UY","2018/03/30 19:59:36","新北市新莊區忠孝街29巷20號","121.443636666667","25.036405","6500500","新莊區"
"242048","172-VK","2018/03/30 19:59:38","新北市新莊區後港二路2巷2號","121.423131666667","25.024655","6500500","新莊區"
"242011","173-VK","2018/03/30 19:59:43","新北市新莊區中港路531巷60號","121.450181666667","25.0516366666667","6500500","新莊區"
"242017","175-VK","2018/03/30 19:59:34","新北市新莊區中華路二段45巷5號","121.453083333333","25.0464433333333","6500500","新莊區"
"242005","176-VK","2018/03/30 19:59:39","新北市新莊區化成路205-47號","121.465731666667","25.051105","6500500","新莊區"
"242015","346-TH","2018/03/30 19:59:37","新北市新莊區復興路一段31號","121.446486666667","25.0418833333333","6500500","新莊區"
"242021","348-TH","2018/03/30 19:59:48","新北市新莊區建中街36號","121.448836666667","25.03756","6500500","新莊區"
"242002","349-TH","2018/03/30 19:59:29","新北市新莊區中正路170號","121.451045","25.0358816666667","6500500","新莊區"
"242019","350-TH","2018/03/30 19:59:36","新北市新莊區民生街15巷2弄2號","121.455856666667","25.042245","6500500","新莊區"
"242013","351-TH","2018/03/30 19:59:44","新北市新莊區幸福路670巷2弄1號","121.451048333333","25.0494366666667","6500500","新莊區"
"238021","KEA-2217","2018/03/30 19:59:41","新北市樹林區佳園路三段101巷80弄3號","121.395135","24.9498033333333","6500700","樹林區"
"221008","489-VK","2018/03/30 19:59:33","新北市汐止區忠一街9巷7號","121.620485","25.0732266666667","6501100","汐止區"
"221036","130-UY","2018/03/30 19:59:44","新北市汐止區忠孝東路258巷11弄2號","121.66372","25.0671966666667","6501100","汐止區"
"221015","131-UY","2018/03/30 19:59:25","新北市汐止區大同路二段701號","121.66511","25.0727233333333","6501100","汐止區"
"221010","269-BY","2018/03/30 19:59:14","新北市汐止區八連路一段86巷4號","121.644856666667","25.080705","6501100","汐止區"
"221012","278-VK","2018/03/30 19:59:36","新北市汐止區大同路三段328號","121.679233333333","25.0711116666667","6501100","汐止區"
"221023","279-VK","2018/03/30 19:59:37","新北市汐止區明峰街281號","121.626856666667","25.068605","6501100","汐止區"
"221032","280-BY","2018/03/30 19:59:27","新北市汐止區橫科路4巷1弄10號","121.617898333333","25.0508083333333","6501100","汐止區"
"221027","281-BY","2018/03/30 19:59:35","新北市汐止區中正路100號","121.661143333333","25.06956","6501100","汐止區"
"221029","298-VK","2018/03/30 19:59:44","新北市汐止區樟樹一路137巷26號","121.640868333333","25.0659283333333","6501100","汐止區"
"221021","299-VK","2018/03/30 19:59:39","新北市汐止區水源路一段163號","121.655453333333","25.0620566666667","6501100","汐止區"
"221031","353-TW","2018/03/30 19:59:46","新北市汐止區福德一路260號","121.6331","25.0645066666667","6501100","汐止區"
"221035","622-UM","2018/03/30 19:59:38","新北市汐止區長江街57巷14號","121.656053333333","25.0720383333333","6501100","汐止區"
"221025","623-UM","2018/03/30 19:59:28","新北市汐止區秀峰路119-1號","121.6602","25.0633383333333","6501100","汐止區"
"221038","646-BX","2018/03/30 19:59:37","新北市汐止區忠孝東路512號","121.666825","25.0754466666667","6501100","汐止區"
"221033","647-BX","2018/03/30 19:59:41","新北市汐止區東勢街201巷104號","121.633465","25.0429283333333","6501100","汐止區"
"221018","753-BX","2018/03/30 19:59:41","新北市汐止區茄福街29號","121.672496666667","25.0669416666667","6501100","汐止區"
"220079","145-BY","2018/03/30 19:59:42","新北市板橋區南雅西路二段213號","121.451191666667","25.0135916666667","6500100","板橋區"
"220106","KEA-2550","2018/03/30 19:59:25","新北市板橋區民治街42巷19號","121.47859","25.0333033333333","6500100","板橋區"
"220101","245-BX","2018/03/30 19:59:29","新北市板橋區雙十路一段42號","121.477556666667","25.02483","6500100","板橋區"
"220072","277-BY","2018/03/30 19:59:36","新北市板橋區篤行路二段1巷11號","121.432251666667","24.9926683333333","6500100","板橋區"
"220071","283-VK","2018/03/30 19:59:45","新北市板橋區廣權路135號","121.465718333333","24.9934366666667","6500100","板橋區"
"220094","285-UM","2018/03/30 19:59:47","新北市板橋區文德路13號","121.462463333333","25.0243133333333","6500100","板橋區"
"220053","285-VK","2018/03/30 19:59:43","新北市板橋區永豐街161號","121.475433333333","25.0203383333333","6500100","板橋區"
"220083","286-VK","2018/03/30 19:59:43","新北市板橋區僑中二街88巷13號","121.445668333333","25.0094566666667","6500100","板橋區"
"220081","287-VK","2018/03/30 19:59:29","新北市板橋區僑中一街124巷20弄22號","121.44709","25.0138916666667","6500100","板橋區"
"220090","288-VK","2018/03/30 19:59:27","新北市板橋區幸福路32巷4弄8號","121.461206666667","25.02137","6500100","板橋區"
"220061","293-UM","2018/03/30 19:59:46","新北市板橋區民生路二段36-1號","121.472125","25.0168133333333","6500100","板橋區"
"220075","303-R5","2018/03/30 19:59:43","新北市板橋區金華街10巷60號","121.457326666667","25.020215","6500100","板橋區"
"220062","305-R5","2018/03/30 19:59:32","新北市板橋區中山路二段613號","121.485555","25.0225383333333","6500100","板橋區"
"220092","307-R5","2018/03/30 19:59:27","新北市板橋區英士路49-1號","121.46119","25.0246016666667","6500100","板橋區"
"220098","317-R6","2018/03/30 19:59:46","新北市板橋區新海路72巷50號","121.462133333333","25.0231483333333","6500100","板橋區"
"220080","461-BY","2018/03/30 19:59:42","新北市板橋區大觀路二段187巷1號","121.445045","24.9997216666667","6500100","板橋區"
"220064","486-VK","2018/03/30 19:59:33","新北市板橋區民族路57號","121.465005","25.0090616666667","6500100","板橋區"
"242056","280-VK","2018/03/30 19:59:30","新北市新莊區中正路347巷21號","121.44726","25.0342016666667","6500500","新莊區"
"220088","491-VK","2018/03/30 19:59:47","新北市板橋區民治街44巷2號","121.479188333333","25.0336433333333","6500100","板橋區"
"220103","561-BX","2018/03/30 19:59:39","新北市板橋區自由路13號","121.465473333333","25.0226416666667","6500100","板橋區"
"220055","568-UM","2018/03/30 19:59:38","新北市板橋區重慶路290巷11號","121.461045","24.9986266666667","6500100","板橋區"
"220091","637-BX","2018/03/30 19:59:42","新北市板橋區文聖街89巷27號","121.47851","25.0306233333333","6500100","板橋區"
"220093","689-BX","2018/03/30 19:59:39","新北市板橋區長江路三段68號","121.473833333333","25.0340833333333","6500100","板橋區"
"220054","741-BX","2018/03/30 19:59:39","新北市板橋區忠孝路忠義巷9弄15號","121.465066666667","25.0050016666667","6500100","板橋區"
"220102","KEA-2699","2018/03/30 19:59:37","新北市板橋區仁化街42巷25號","121.475703333333","25.030905","6500100","板橋區"
"220067","829-TW","2018/03/30 19:59:44","新北市板橋區中山路一段206巷2弄14號","121.469556666667","25.012705","6500100","板橋區"
"220068","830-TW","2018/03/30 19:59:30","新北市板橋區光復街222號","121.485246666667","25.020735","6500100","板橋區"
"220096","831-TW","2018/03/30 19:59:24","新北市板橋區莒光路158-2號","121.473923333333","25.0239183333333","6500100","板橋區"
"220089","833-TW","2018/03/30 19:59:40","新北市板橋區龍泉街57號","121.457151666667","25.0258666666667","6500100","板橋區"
"220074","895-R6","2018/03/30 19:59:37","新北市板橋區文化路一段32巷15號","121.459876666667","25.011205","6500100","板橋區"
"220073","985-R7","2018/03/30 19:59:43","新北市板橋區南雅西路二段98-4號","121.45235","25.01151","6500100","板橋區"
"220097","AAC-210","2018/03/30 19:59:45","新北市板橋區漢生西路37號","121.462976666667","25.0183266666667","6500100","板橋區"
"220070","AAC-253","2018/03/30 19:59:45","新北市板橋區德興街31號","121.45346","24.9939783333333","6500100","板橋區"
