"lineid","car","time","location","longitude","latitude","cityid","cityname"
"234046","148-BY","2018/03/30 20:19:43","新北市永和區林森路65號","121.524141666667","25.0040583333333","6500400","永和區"
"234070","149-BY","2018/03/30 20:19:38","新北市永和區永亨路29號","121.519608333333","25.0061766666667","6500400","永和區"
"234007","208-UY","2018/03/30 20:19:30","新北市永和區保順路11號","121.50446","25.0096316666667","6500400","永和區"
"234081","298-R6","2018/03/30 20:19:47","新北市永和區國中路146號","121.5231","25.0069733333333","6500400","永和區"
"234038","336-UY","2018/03/30 20:19:43","新北市永和區成功路一段89號","121.526853333333","25.0028833333333","6500400","永和區"
"234064","337-UY","2018/03/30 20:19:36","新北市永和區中正路340號","121.518008333333","25.0000783333333","6500400","永和區"
"234086","338-UY","2018/03/30 20:19:42","新北市永和區永和路二段133號","121.515003333333","25.0123133333333","6500400","永和區"
"234017","745-BX","2018/03/30 20:19:33","新北市永和區仁愛路23號","121.514366666667","25.0133816666667","6500400","永和區"
"234030","746-BX","2018/03/30 20:19:38","新北市中和區自強路20號","121.52001","24.9954216666667","6500400","永和區"
"234054","KEA-2590","2018/03/30 20:19:40","新北市永和區光復街31-1號","121.516696666667","25.0179483333333","6500400","永和區"
"234013","KEA-2591","2018/03/30 20:19:39","新北市永和區仁愛路282巷6號","121.50358","25.0085433333333","6500400","永和區"
"234061","AAD-866","2018/03/30 20:19:33","新北市永和區得和路30號","121.515568333333","25.0002883333333","6500400","永和區"
"234042","862-TW","2018/03/30 20:19:47","新北市永和區雙和街4號","121.509851666667","25.001785","6500400","永和區"
"234050","863-TW","2018/03/30 20:19:47","新北市永和區文化路187號","121.509528333333","25.0170633333333","6500400","永和區"
"249005","172-UM","2018/03/30 20:19:31","新北市八里區下罟子1-16號","121.389855","25.1419666666667","6502300","八里區"
"249001","173-UM","2018/03/30 20:19:44","新北市八里區中華路二段538-1號","121.399046666667","25.1450433333333","6502300","八里區"
"249004","303-UY","2018/03/30 20:19:47","新北市八里區中山路一段129巷19-1號","121.413881666667","25.1586583333333","6502300","八里區"
"249002","305-UY","2018/03/30 20:19:46","新北市八里區龍米路一段30巷10號","121.457081666667","25.1168916666667","6502300","八里區"
"249003","593-UM","2018/03/30 20:19:47","新北市八里區華峰一街63號","121.39841","25.1461983333333","6502300","八里區"
"248012","247-BX","2018/03/30 20:19:35","新北市五股區民義路一段212號","121.430591666667","25.08936","6501500","五股區"
"248004","677-BX","2018/03/30 20:19:45","新北市五股區中興路四段4號","121.438858333333","25.0828","6501500","五股區"
"248002","678-BX","2018/03/30 20:19:44","新北市五股區成泰路三段75-1號","121.44361","25.08986","6501500","五股區"
"234023","9380-KE","2018/03/30 20:19:45","新北市永和區復興街41巷3號","121.516501666667","25.01336","6500400","永和區"
"234077","969-R7","2018/03/30 20:19:32","新北市永和區民有街21巷2號","121.516776666667","24.9964733333333","6500400","永和區"
"234074","AAC-211","2018/03/30 20:19:40","新北市永和區竹林路201巷24弄2號","121.522158333333","25.0094433333333","6500400","永和區"
"234067","AAC-212","2018/03/30 20:19:46","新北市永和區保平路236巷7弄16號","121.508143333333","25.00575","6500400","永和區"
"234003","AAC-295","2018/03/30 20:19:43","新北市永和區大新街47號","121.515625","25.008405","6500400","永和區"
"243012","AAD-798","2018/03/30 20:19:42","新北市泰山區楓江路127-3號","121.4392","25.0646683333333","6501600","泰山區"
"243011","297-R6","2018/03/30 20:19:37","新北市泰山區貴陽街16巷2號","121.422298333333","25.032165","6501600","泰山區"
"243015","380-SR","2018/03/30 20:19:44","新北市泰山區全興路113號","121.43397","25.0564966666667","6501600","泰山區"
"243014","421-VK","2018/03/30 20:19:33","新北市泰山區泰林路二段455號","121.425678333333","25.0640133333333","6501600","泰山區"
"243016","539-UM","2018/03/30 20:19:32","新北市泰山區明志路三段12號","121.424773333333","25.0432866666667","6501600","泰山區"
"243010","KEA-2215","2018/03/30 20:19:40","新北市泰山區明志路二段273巷12號","121.427365","25.0471583333333","6501600","泰山區"
"243009","KEA-2216","2018/03/30 20:19:38","新北市泰山區泰林路二段306巷10號","121.431163333333","25.0635183333333","6501600","泰山區"
"243013","646-TV","2018/03/30 20:19:31","新北市泰山區中央路5巷14號","121.427026666667","25.0434016666667","6501600","泰山區"
"222003","436-BY","2018/03/30 20:19:41","新北市深坑區文化街43號","121.617711666667","25.0018533333333","6501800","深坑區"
"222002","659-BX","2018/03/30 20:19:42","新北市深坑區萬福路75巷48號","121.598208333333","25.01001","6501800","深坑區"
"231041","002-UM","2018/03/30 20:19:42","新北市新店區民權路44-1號","121.540283333333","24.9830033333333","6500600","新店區"
"231058","0293-UT","2018/03/30 20:19:49","新北市新店區中正路360號","121.535565","24.975845","6500600","新店區"
"231059","046-UY","2018/03/30 20:19:28","新北市新店區安康路二段266號","121.508575","24.958975","6500600","新店區"
"231061","047-UY","2018/03/30 20:19:46","新北市新店區安興路32號","121.51572","24.9704483333333","6500600","新店區"
"231060","106-UY","2018/03/30 20:19:41","新北市新店區錦秀路11巷35號","121.480298333333","24.94462","6500600","新店區"
"231051","107-UY","2018/03/30 20:19:31","新北市新店區中央六街66號","121.527441666667","24.97606","6500600","新店區"
"231048","108-UY","2018/03/30 20:19:35","新北市新店區中興路三段221-1號","121.54331","24.9826316666667","6500600","新店區"
"231053","187-VK","2018/03/30 20:19:42","新北市新店區新烏路二段417號","121.551603333333","24.9092533333333","6500600","新店區"
"231050","KEA-2219","2018/03/30 20:19:33","新北市新店區博愛街1號","121.540458333333","24.9725133333333","6500600","新店區"
"231057","256-BX","2018/03/30 20:19:34","新北市新店區花園五路二段27號","121.5547","24.9347066666667","6500600","新店區"
"231063","268-BY","2018/03/30 20:19:31","新北市新店區薏仁坑路5號","121.49895","24.9591383333333","6500600","新店區"
"231054","AAD-862","2018/03/30 20:19:39","新北市新店區檳榔路109號","121.544448333333","24.9617333333333","6500600","新店區"
"231027","3712-VJ","2018/03/30 20:19:42","新北市新店區安華路28-1號","121.519303333333","24.9606083333333","6500600","新店區"
"231056","3713-VJ","2018/03/30 20:19:34","新北市新店區中正路328巷2號","121.537096666667","24.975135","6500600","新店區"
"231055","4716-K9","2018/03/30 20:19:38","新北市新店區北新路一段303號","121.541175","24.9676233333333","6500600","新店區"
"231067","4772-VM","2018/03/30 20:19:49","新北市新店區安康路一段32號","121.531621666667","24.9612316666667","6500600","新店區"
"231065","512-UM","2018/03/30 20:19:39","新北市新店區安祥路104巷6弄36號","121.48312","24.9629366666667","6500600","新店區"
"231064","513-UM","2018/03/30 20:19:35","新北市新店區安利街26號","121.519221666667","24.9746133333333","6500600","新店區"
"231044","618-UM","2018/03/30 20:19:45","新北市新店區北新路三段132號","121.541586666667","24.98194","6500600","新店區"
"231040","619-UM","2018/03/30 20:19:28","新北市新店區中華路147號","121.538541666667","24.97068","6500600","新店區"
"231042","641-BX","2018/03/30 20:19:29","新北市新店區寶橋路230號","121.551388333333","24.978845","6500600","新店區"
"231068","718-UY","2018/03/30 20:19:31","新北市新店區寶安街30號","121.542086666667","24.9824283333333","6500600","新店區"
"231049","719-UM","2018/03/30 20:19:27","新北市新店區永業路43號","121.53245","24.9550866666667","6500600","新店區"
"231062","719-UY","2018/03/30 20:19:42","新北市新店區安泰路7巷16號","121.485695","24.95097","6500600","新店區"
"231043","899-TW","2018/03/30 20:19:36","新北市新店區建國路131號","121.539468333333","24.9782233333333","6500600","新店區"
"241011","013-R5","2018/03/30 20:19:48","新北市三重區龍門路159號","121.498781666667","25.07299","6500200","三重區"
"241028","022-UY","2018/03/30 20:19:44","新北市三重區大同南路85號","121.496096666667","25.0592316666667","6500200","三重區"
"241008","059-VK","2018/03/30 20:19:43","新北市三重區永福街209號","121.480021666667","25.0744483333333","6500200","三重區"
"241009","060-VK","2018/03/30 20:19:35","新北市三重區永福街1號","121.482848333333","25.0783683333333","6500200","三重區"
"241031","061-VK","2018/03/30 20:19:45","新北市三重區三寧街15號","121.489516666667","25.0597666666667","6500200","三重區"
"241015","062-VK","2018/03/30 20:19:35","新北市三重區重新路一段136號","121.500181666667","25.0627416666667","6500200","三重區"
"241017","063-VK","2018/03/30 20:19:44","新北市三重區自強路一段298號","121.49141","25.0683083333333","6500200","三重區"
"241024","065-VK","2018/03/30 20:19:40","新北市三重區忠孝路三段15巷20號","121.480753333333","25.06772","6500200","三重區"
"241002","090-VK","2018/03/30 20:19:40","新北市三重區仁義街126號","121.497406666667","25.08047","6500200","三重區"
"241003","091-VK","2018/03/30 20:19:42","新北市三重區富華街57號","121.491166666667","25.0835116666667","6500200","三重區"
"241005","262-UM","2018/03/30 20:19:37","新北市三重區仁愛街475號","121.489235","25.0822533333333","6500200","三重區"
"241016","265-UM","2018/03/30 20:19:41","新北市三重區大同北路97號","121.49456","25.0636433333333","6500200","三重區"
"241022","267-UM","2018/03/30 20:19:39","新北市三重區市前街12號","121.489091666667","25.06223","6500200","三重區"
"241018","268-UM","2018/03/30 20:19:39","新北市三重區自強路一段162號","121.495533333333","25.06634","6500200","三重區"
"241032","269-UM","2018/03/30 20:19:37","新北市三重區捷運路19巷8弄9號","121.484493333333","25.0572983333333","6500200","三重區"
"241013","270-UM","2018/03/30 20:19:36","新北市三重區三和路三段167巷21號","121.49269","25.0742983333333","6500200","三重區"
"241025","271-UM","2018/03/30 20:19:48","新北市三重區三民街272巷22號","121.47873","25.0676766666667","6500200","三重區"
"241007","398-BY","2018/03/30 20:19:44","新北市三重區溪尾街108巷38號","121.487913333333","25.0782966666667","6500200","三重區"
"241035","KEA-2210","2018/03/30 20:19:40","新北市三重區正義北路33巷21號","121.498271666667","25.0636616666667","6500200","三重區"
"241004","475-VK","2018/03/30 20:19:49","新北市三重區仁愛街368號","121.49124","25.080665","6500200","三重區"
"241020","478-VK","2018/03/30 20:19:43","新北市三重區三和路三段170巷9號","121.492248333333","25.0730216666667","6500200","三重區"
"241030","480-VK","2018/03/30 20:19:36","新北市三重區環河南路254巷61號","121.487816666667","25.0523666666667","6500200","三重區"
"241014","543-UM","2018/03/30 20:19:32","新北市三重區龍濱路277號","121.50132","25.0731966666667","6500200","三重區"
"241023","545-UM","2018/03/30 20:19:40","新北市三重區忠孝路三段56-1號","121.480523333333","25.0652166666667","6500200","三重區"
"241001","547-UM","2018/03/30 20:19:30","新北市三重區溪尾街36號","121.490641666667","25.0767233333333","6500200","三重區"
"241033","557-UM","2018/03/30 20:15:52","新北市三重區光復路一段61巷31弄1號","121.474516666667","25.0492933333333","6500200","三重區"
"241019","KEA-2593","2018/03/30 20:19:45","新北市三重區大智街141號","121.49066","25.0710433333333","6500200","三重區"
"241026","887-TS","2018/03/30 20:19:44","新北市三重區和平街73號","121.50242","25.06269","6500200","三重區"
"241012","941-UM","2018/03/30 20:19:44","新北市三重區河邊北街375號","121.501828333333","25.0763616666667","6500200","三重區"
"241029","942-UM","2018/03/30 20:19:31","新北市三重區集美街225號","121.492031666667","25.0551583333333","6500200","三重區"
"235066","003-UY","2018/03/30 20:19:32","新北市中和區南工路94巷1號","121.507176666667","25.00303","6500300","中和區"
"235065","098-UM","2018/03/30 20:19:33","新北市中和區福美路312巷2號","121.496733333333","25.004995","6500300","中和區"
"235050","4979-A6","2018/03/30 20:19:37","新北市中和區景平路464巷2弄4號","121.505925","24.99391","6500300","中和區"
"235069","4980-A6","2018/03/30 20:19:38","新北市中和區圓通路190號","121.496435","24.99455","6500300","中和區"
"235026","800-TS","2018/03/30 20:19:35","新北市中和區員山路36巷16-3號","121.484825","24.9919116666667","6500300","中和區"
"235059","AAC-215","2018/03/30 20:19:44","新北市中和區員山路20-3號","121.483931666667","24.9836133333333","6500300","中和區"
"220065","072-UY","2018/03/30 20:19:40","新北市八里區荖阡坑路34號","121.4024","25.1288616666667","6500100","板橋區"
"247024","893-R6","2018/03/30 20:19:37","新北市蘆洲區光明路106巷17號","121.463888333333","25.08746","6501400","蘆洲區"
"247014","546-UM","2018/03/30 20:19:37","新北市蘆洲區中山二路137巷14號","121.472108333333","25.081155","6501400","蘆洲區"
"247022","500-BY","2018/03/30 20:19:34","新北市蘆洲區民族路544號","121.467885","25.0891016666667","6501400","蘆洲區"
"247010","341-TH","2018/03/30 20:19:41","新北市蘆洲區信義路253號","121.479045","25.0845416666667","6501400","蘆洲區"
"247012","339-TH","2018/03/30 20:19:27","新北市蘆洲區中興街38號","121.481376666667","25.0870316666667","6501400","蘆洲區"
"247004","337-TH","2018/03/30 20:19:27","新北市蘆洲區永康街30號","121.458581666667","25.0855233333333","6501400","蘆洲區"
"247006","336-TH","2018/03/30 20:19:40","新北市蘆洲區九芎街167巷6號","121.464993333333","25.0785516666667","6501400","蘆洲區"
"247018","057-VK","2018/03/30 20:19:32","新北市蘆洲區民族路311號","121.474718333333","25.091325","6501400","蘆洲區"
"247008","056-VK","2018/03/30 20:19:36","新北市蘆洲區集賢路238號","121.48203","25.0858333333333","6501400","蘆洲區"
"247002","053-VK","2018/03/30 20:19:39","新北市蘆洲區長安街331巷27號","121.455351666667","25.08649","6501400","蘆洲區"
"247016","007-UY","2018/03/30 20:19:40","新北市蘆洲區光華路132巷28號","121.465743333333","25.0834266666667","6501400","蘆洲區"
"235039","251-BX","2018/03/30 20:19:29","新北市中和區大勇街32號","121.517325","24.99322","6500300","中和區"
"222001","KEA-2212","2018/03/30 20:19:30","新北市深坑區北深路三段262號","121.599461666667","25.0044283333333","6501800","深坑區"
"208002","KEA-2872","2018/03/30 20:19:30","新北市金山區磺清路135號","121.639355","25.2274233333333","6502700","金山區"
"251001","011-UM","2018/03/30 20:19:46","新北市淡水區新市二路四段265號","121.445735","25.1924666666667","6501000","淡水區"
"251008","181-VK","2018/03/30 20:19:27","新北市淡水區淡海路180巷22號","121.421646666667","25.1845666666667","6501000","淡水區"
"251010","413-VK","2018/03/30 20:19:29","新北市淡水區新民街一段134號","121.427491666667","25.1888766666667","6501000","淡水區"
"251012","441-VK","2018/03/30 20:19:36","新北市淡水區淡金路三段426號","121.450486666667","25.21188","6501000","淡水區"
"251006","561-UM","2018/03/30 20:19:26","新北市淡水區淡金路一段571號","121.452735","25.18054","6501000","淡水區"
"251002","672-BX","2018/03/30 20:19:32","新北市淡水區中正路63號","121.4415","25.16951","6501000","淡水區"
"251003","673-BX","2018/03/30 20:19:25","新北市淡水區中山北路一段229號","121.444353333333","25.1795166666667","6501000","淡水區"
"207004","225-TW","2018/03/30 20:19:44","新北市萬里區北基里大仁路8號","121.682366666667","25.1754283333333","6502800","萬里區"
"252002","178-VK","2018/03/30 20:19:30","新北市三芝區中正路一段21號","121.502915","25.258615","6502100","三芝區"
"252001","292-VK","2018/03/30 20:19:27","新北市三芝區中山路一段35號","121.500678333333","25.257955","6502100","三芝區"
"237012","275-BY","2018/03/30 20:19:16","新北市三峽區中華路8號","121.375218333333","24.9329316666667","6500900","三峽區"
"237006","5529-G3","2018/03/30 20:19:26","新北市三峽區中正路二段168號","121.366135","24.915825","6500900","三峽區"
"237005","AKY-6261","2018/03/30 20:19:44","新北市三峽區三樹路98巷93號","121.381973333333","24.9399333333333","6500900","三峽區"
"236069","105-UM","2018/03/30 20:19:38","新北市土城區中山路34號","121.424926666667","24.963895","6501300","土城區"
"236079","166-UM","2018/03/30 20:19:38","新北市樹林區柑園街一段20號","121.40639","24.961475","6501300","土城區"
"236030","253-BX","2018/03/30 20:19:46","新北市土城區學成路128巷8弄1號","121.449495","24.9899383333333","6501300","土城區"
"236026","269-VK","2018/03/30 20:19:35","新北市土城區中央路一段249巷27號","121.446366666667","24.9854133333333","6501300","土城區"
"236014","270-VK","2018/03/30 20:19:32","新北市土城區四川路31號","121.455086666667","24.995585","6501300","土城區"
"236059","912-UM","2018/03/30 20:19:30","新北市土城區大安路126號","121.433956666667","24.96973","6501300","土城區"
"242034","AAC-296","2018/03/30 20:19:40","新北市新莊區建中街90巷3弄10號","121.446396666667","25.03717","6500500","新莊區"
"242058","986-R7","2018/03/30 20:19:27","新北市新莊區四維路210號","121.421513333333","25.019945","6500500","新莊區"
"242054","751-BX","2018/03/30 20:19:35","新北市新莊區西盛街365號","121.428058333333","25.0137533333333","6500500","新莊區"
"242029","705-TV","2018/03/30 20:19:26","新北市新莊區中華路二段188號","121.453038333333","25.05147","6500500","新莊區"
"242027","615-BX","2018/03/30 20:19:45","新北市新莊區幸福路611號","121.45203","25.0492083333333","6500500","新莊區"
"242025","613-BX","2018/03/30 20:19:46","新北市新莊區五工一路72巷17號","121.461886666667","25.0662983333333","6500500","新莊區"
"242041","566-BX","2018/03/30 20:19:32","新北市新莊區中正路694巷116號","121.416801666667","25.0302783333333","6500500","新莊區"
"242046","497-BY","2018/03/30 20:19:33","新北市新莊區中正路新生巷10號","121.41678","25.024035","6500500","新莊區"
"242037","442-UM","2018/03/30 20:19:49","新北市新莊區建安街38號","121.42772","25.02493","6500500","新莊區"
"242050","441-UM","2018/03/30 20:19:42","新北市新莊區民安西路252巷31號","121.425278333333","25.0136016666667","6500500","新莊區"
"242044","400-BY","2018/03/30 20:19:35","新北市新莊區中正路新建巷30號","121.414331666667","25.0217416666667","6500500","新莊區"
"242023","362-BY","2018/03/30 20:19:46","新北市新莊區化成路439號","121.46471","25.0604666666667","6500500","新莊區"
"242060","353-BY","2018/03/30 20:19:44","新北市新莊區新樹路178號","121.434335","25.0212216666667","6500500","新莊區"
"242039","133-UY","2018/03/30 20:19:24","新北市新莊區成功街79巷3號","121.42479","25.0197633333333","6500500","新莊區"
"242032","135-UY","2018/03/30 20:19:36","新北市新莊區三和路66號","121.436675","25.0388516666667","6500500","新莊區"
"242048","172-VK","2018/03/30 20:19:38","新北市樹林區三俊街199巷35-3號","121.420906666667","25.0182533333333","6500500","新莊區"
"242011","173-VK","2018/03/30 20:19:33","新北市新莊區中信街23巷3號","121.451241666667","25.0505533333333","6500500","新莊區"
"242017","175-VK","2018/03/30 20:19:46","新北市新莊區中港一街113號","121.448815","25.045065","6500500","新莊區"
"242005","176-VK","2018/03/30 20:19:39","新北市新莊區頭前路30號","121.467636666667","25.0525","6500500","新莊區"
"242015","346-TH","2018/03/30 20:19:42","新北市新莊區中和街25巷2號","121.447963333333","25.0439333333333","6500500","新莊區"
"242021","348-TH","2018/03/30 20:19:43","新北市新莊區和興街15號","121.447521666667","25.0392966666667","6500500","新莊區"
"242002","349-TH","2018/03/30 20:19:29","新北市新莊區化成路28號","121.464905","25.04289","6500500","新莊區"
"242019","350-TH","2018/03/30 20:19:44","新北市新莊區思源路133-2號","121.459438333333","25.043705","6500500","新莊區"
"242013","351-TH","2018/03/30 20:19:44","新北市新莊區中和街155巷24弄28號","121.44665","25.05096","6500500","新莊區"
"221008","489-VK","2018/03/30 20:19:37","新北市汐止區康寧街453號","121.631453333333","25.0683283333333","6501100","汐止區"
"221036","130-UY","2018/03/30 20:19:44","新北市汐止區福安街57巷2號","121.663921666667","25.063765","6501100","汐止區"
"221015","131-UY","2018/03/30 20:19:45","新北市汐止區建成路142巷21號","121.662308333333","25.0739233333333","6501100","汐止區"
"221010","269-BY","2018/03/30 20:19:34","新北市汐止區八連路二段337巷3號","121.629611666667","25.101395","6501100","汐止區"
"221012","278-VK","2018/03/30 20:19:36","新北市汐止區保新街99號","121.686418333333","25.0716066666667","6501100","汐止區"
"221023","279-VK","2018/03/30 20:19:37","新北市汐止區湖東街5巷12號","121.63408","25.0730033333333","6501100","汐止區"
"221032","280-BY","2018/03/30 20:19:28","新北市汐止區橫科路52巷9弄5號","121.619565","25.0502116666667","6501100","汐止區"
"221027","281-BY","2018/03/30 20:19:35","新北市汐止區水源路一段2號","121.65709","25.0671433333333","6501100","汐止區"
"221029","298-VK","2018/03/30 20:19:44","新北市汐止區工建路98號","121.639418333333","25.0636633333333","6501100","汐止區"
"221021","299-VK","2018/03/30 20:19:38","新北市汐止區水源路一段282巷4號","121.653978333333","25.058425","6501100","汐止區"
"221031","353-TW","2018/03/30 20:19:45","新北市汐止區中興路150巷13號","121.63297","25.0649666666667","6501100","汐止區"
"221035","622-UM","2018/03/30 20:19:38","新北市汐止區長江街101-5號","121.658613333333","25.07323","6501100","汐止區"
"221025","623-UM","2018/03/30 20:19:28","新北市汐止區水源路二段32號","121.654823333333","25.0573116666667","6501100","汐止區"
"221038","646-BX","2018/03/30 20:19:37","新北市汐止區忠孝東路438號","121.666181666667","25.0723583333333","6501100","汐止區"
"221033","647-BX","2018/03/30 20:19:41","新北市汐止區東勢街201巷2號","121.633733333333","25.0420716666667","6501100","汐止區"
"221002","707-TV","2018/03/30 20:19:38","新北市汐止區福德三路67號","121.636788333333","25.06935","6501100","汐止區"
"221018","753-BX","2018/03/30 20:19:44","新北市汐止區茄苳路242號","121.671286666667","25.0684766666667","6501100","汐止區"
"220083","286-VK","2018/03/30 20:19:43","新北市板橋區僑中二街104巷5號","121.445711666667","25.00788","6500100","板橋區"
"220061","293-UM","2018/03/30 20:19:46","新北市板橋區文華街10號","121.457945","25.0003616666667","6500100","板橋區"
"242009","281-VK","2018/03/30 20:19:32","新北市新莊區昌平街1號","121.45498","25.051455","6500500","新莊區"
"242056","280-VK","2018/03/30 20:19:30","新北市新莊區新莊路649巷11-1號","121.445131666667","25.032105","6500500","新莊區"
"220103","561-BX","2018/03/30 20:19:39","新北市板橋區英士路61號","121.460518333333","25.02427","6500100","板橋區"
"220102","KEA-2699","2018/03/30 20:19:37","新北市板橋區漢生東路35號","121.46542","25.0169083333333","6500100","板橋區"
"220089","833-TW","2018/03/30 20:19:40","新北市板橋區四維路159號","121.464838333333","25.0257933333333","6500100","板橋區"
"220073","985-R7","2018/03/30 20:19:42","新北市五股區新城六路237號","121.44811","25.092405","6500100","板橋區"
"220070","AAC-253","2018/03/30 20:19:45","新北市新莊區瓊林路59-83號","121.443888333333","25.02231","6500100","板橋區"
