"lineid","car","time","location","longitude","latitude","cityid","cityname"
"249005","172-UM","2018/03/30 20:59:31","新北市八里區博物館路10-1號","121.415166666667","25.1640666666667","6502300","八里區"
"222002","659-BX","2018/03/30 20:59:42","新北市深坑區北深路三段25巷14號","121.608696666667","25.0003933333333","6501800","深坑區"
"231059","046-UY","2018/03/30 20:59:28","新北市新店區僑信路88號","121.499758333333","24.94799","6500600","新店區"
"231061","047-UY","2018/03/30 20:59:29","新北市新店區永安街10號","121.516913333333","24.9862633333333","6500600","新店區"
"231060","106-UY","2018/03/30 20:59:41","新北市新店區安康路三段410號","121.485756666667","24.9516216666667","6500600","新店區"
"231051","107-UY","2018/03/30 20:59:31","新北市新店區中正路663巷7弄15號","121.532956666667","24.9901083333333","6500600","新店區"
"231048","108-UY","2018/03/30 20:59:35","新北市新店區文化路78巷1弄1號","121.544856666667","24.9819333333333","6500600","新店區"
"231053","187-VK","2018/03/30 20:59:42","新北市新店區光明街9號","121.538128333333","24.95935","6500600","新店區"
"231050","KEA-2219","2018/03/30 20:59:33","新北市新店區三民路29巷2弄2號","121.537858333333","24.9699633333333","6500600","新店區"
"231063","268-BY","2018/03/30 20:59:31","新北市新店區富貴街8巷2號","121.494391666667","24.949925","6500600","新店區"
"231054","AAD-862","2018/03/30 20:59:39","新北市新店區北新路一段96巷23號","121.54289","24.968745","6500600","新店區"
"231027","3712-VJ","2018/03/30 20:59:42","新北市新店區安華路28-1號","121.51921","24.9606233333333","6500600","新店區"
"231067","4772-VM","2018/03/30 20:59:29","新北市新店區安德街148巷34號","121.50742","24.9606083333333","6500600","新店區"
"231065","512-UM","2018/03/30 20:59:49","新北市新店區安祥路67巷50弄15號","121.484296666667","24.9588033333333","6500600","新店區"
"231064","513-UM","2018/03/30 20:59:35","新北市新店區安民街251巷10弄2號","121.516721666667","24.9727216666667","6500600","新店區"
"231040","619-UM","2018/03/30 20:59:48","新北市新店區北新路一段128-3號","121.542246666667","24.9695966666667","6500600","新店區"
"231042","641-BX","2018/03/30 20:59:49","新北市新店區寶興路60巷3號","121.550003333333","24.9718866666667","6500600","新店區"
"231062","719-UY","2018/03/30 20:59:42","新北市新店區雙城路80號","121.492323333333","24.94893","6500600","新店區"
"231043","899-TW","2018/03/30 20:59:36","新北市新店區中央路151號","121.529573333333","24.972365","6500600","新店區"
"231066","AKT-0513","2018/03/30 20:59:44","新北市新店區柴埕路38-8號","121.513206666667","24.964895","6500600","新店區"
"241011","013-R5","2018/03/30 20:59:28","新北市三重區秀江街119號","121.499703333333","25.0721833333333","6500200","三重區"
"241028","022-UY","2018/03/30 20:59:44","新北市三重區重新路三段82號","121.49313","25.06091","6500200","三重區"
"241008","059-VK","2018/03/30 20:59:43","新北市三重區車路頭街135-1號","121.484255","25.0759866666667","6500200","三重區"
"241009","060-VK","2018/03/30 20:59:35","新北市三重區力行路二段151號","121.483595","25.07762","6500200","三重區"
"241031","061-VK","2018/03/30 20:59:45","新北市三重區重陽路一段113巷2弄2號","121.487541666667","25.0600233333333","6500200","三重區"
"241015","062-VK","2018/03/30 20:59:35","新北市三重區福德北路65號","121.502155","25.06559","6500200","三重區"
"241017","063-VK","2018/03/30 20:59:44","新北市三重區國隆路30號","121.492258333333","25.0643916666667","6500200","三重區"
"241024","065-VK","2018/03/30 20:59:40","新北市三重區大勇街82巷15弄30號","121.481203333333","25.071915","6500200","三重區"
"241002","090-VK","2018/03/30 20:59:40","新北市三重區五華街1巷96號","121.497201666667","25.0806816666667","6500200","三重區"
"241003","091-VK","2018/03/30 20:59:42","新北市三重區進安街198號","121.493888333333","25.0860133333333","6500200","三重區"
"241005","262-UM","2018/03/30 20:59:37","新北市三重區三信路5號","121.488626666667","25.0865116666667","6500200","三重區"
"241016","265-UM","2018/03/30 20:59:41","新北市三重區信義西街138號","121.495646666667","25.0643083333333","6500200","三重區"
"241022","267-UM","2018/03/30 20:59:39","新北市三重區中正北路20巷12號","121.488011666667","25.0625416666667","6500200","三重區"
"241018","268-UM","2018/03/30 20:59:39","新北市三重區自強路一段155-1號","121.493751666667","25.0672","6500200","三重區"
"241032","269-UM","2018/03/30 20:59:36","新北市三重區新生街96號","121.483291666667","25.0593233333333","6500200","三重區"
"241013","270-UM","2018/03/30 20:59:36","新北市三重區仁賢街6號","121.49567","25.07478","6500200","三重區"
"241025","271-UM","2018/03/30 20:59:48","新北市三重區貴陽街16號","121.484035","25.061815","6500200","三重區"
"241007","398-BY","2018/03/30 20:59:44","新北市三重區慈愛街43號","121.485271666667","25.0787533333333","6500200","三重區"
"241004","475-VK","2018/03/30 20:59:29","新北市三重區仁愛街423-1號","121.490375","25.081465","6500200","三重區"
"241020","478-VK","2018/03/30 20:59:43","新北市三重區忠孝路二段35號","121.485916666667","25.0710983333333","6500200","三重區"
"241030","480-VK","2018/03/30 20:59:36","新北市三重區中正南路252巷5號","121.49343","25.0527466666667","6500200","三重區"
"241014","543-UM","2018/03/30 20:59:32","新北市三重區長壽街120巷11號","121.502446666667","25.06914","6500200","三重區"
"241023","545-UM","2018/03/30 20:59:40","新北市三重區忠孝路三段50巷41弄64號","121.482343333333","25.0638066666667","6500200","三重區"
"241001","547-UM","2018/03/30 20:59:30","新北市三重區自強路三段87巷25號","121.488483333333","25.07498","6500200","三重區"
"241033","557-UM","2018/03/30 20:45:32","新北市三重區光復路二段47-1號","121.473681666667","25.0559316666667","6500200","三重區"
"241019","KEA-2593","2018/03/30 20:59:44","新北市三重區自強路二段74巷21號","121.488045","25.0698316666667","6500200","三重區"
"241006","AAD-863","2018/03/30 20:59:43","新北市三重區永福街23號","121.481698333333","25.07812","6500200","三重區"
"241026","887-TS","2018/03/30 20:59:48","新北市三重區文化南路45號","121.500198333333","25.0614383333333","6500200","三重區"
"241012","941-UM","2018/03/30 20:59:44","新北市三重區仁信街27號","121.501328333333","25.07556","6500200","三重區"
"241029","942-UM","2018/03/30 20:59:31","新北市三重區正義南路107號","121.498233333333","25.0585533333333","6500200","三重區"
"235069","4980-A6","2018/03/30 20:59:38","新北市中和區中正路637巷17號","121.484895","24.9946","6500300","中和區"
"247024","893-R6","2018/03/30 20:59:37","新北市蘆洲區長興路213號","121.461021666667","25.0863183333333","6501400","蘆洲區"
"247014","546-UM","2018/03/30 20:59:37","新北市蘆洲區中山二路36巷29號","121.474203333333","25.0831233333333","6501400","蘆洲區"
"247022","500-BY","2018/03/30 20:59:29","新北市蘆洲區中正路263巷2號","121.467413333333","25.0875116666667","6501400","蘆洲區"
"247012","339-TH","2018/03/30 20:59:47","新北市蘆洲區民權路26號","121.476741666667","25.085845","6501400","蘆洲區"
"247004","337-TH","2018/03/30 20:59:27","新北市蘆洲區永安南路二段268號","121.458616666667","25.0807266666667","6501400","蘆洲區"
"247006","336-TH","2018/03/30 20:59:35","新北市蘆洲區永安南路二段16巷8-1號","121.467951666667","25.07729","6501400","蘆洲區"
"247018","057-VK","2018/03/30 20:59:32","新北市蘆洲區民權路122號","121.473456666667","25.0886083333333","6501400","蘆洲區"
"247016","007-UY","2018/03/30 20:59:36","新北市蘆洲區正和街76號","121.468605","25.0811233333333","6501400","蘆洲區"
"247020","001-UY","2018/03/30 20:59:34","新北市蘆洲區民族路375號","121.470715","25.09107","6501400","蘆洲區"
"222001","KEA-2212","2018/03/30 20:59:30","新北市深坑區北深路三段25巷15-1號","121.60863","25.0000366666667","6501800","深坑區"
"251001","011-UM","2018/03/30 20:59:46","新北市淡水區淡金路二段145號","121.450108333333","25.1825983333333","6501000","淡水區"
"251010","413-VK","2018/03/30 20:59:29","新北市淡水區中正路一段118-3號","121.42389","25.1787733333333","6501000","淡水區"
"251012","441-VK","2018/03/30 20:59:36","新北市淡水區淡金路五段72號","121.454638333333","25.23358","6501000","淡水區"
"251005","443-VK","2018/03/30 20:59:42","新北市淡水區學府路88號","121.448976666667","25.1707483333333","6501000","淡水區"
"251007","577-R6","2018/03/30 20:59:45","新北市淡水區英專路42-2號","121.445811666667","25.1704033333333","6501000","淡水區"
"251011","650-BX","2018/03/30 20:59:43","新北市淡水區新民街226巷1號","121.436186666667","25.1806483333333","6501000","淡水區"
"251002","672-BX","2018/03/30 20:59:32","新北市淡水區水源街一段145號","121.447338333333","25.1718333333333","6501000","淡水區"
"251003","673-BX","2018/03/30 20:59:45","新北市淡水區新春街172號","121.443171666667","25.1810316666667","6501000","淡水區"
"252002","178-VK","2018/03/30 20:59:30","新北市三芝區埔坪里埔頭坑44號","121.504636666667","25.2620666666667","6502100","三芝區"
"242048","172-VK","2018/03/30 20:59:38","新北市八里區荖阡坑路16-8號","121.39868","25.1392216666667","6500500","新莊區"
"242013","351-TH","2018/03/30 20:59:44","新北市八里區荖阡坑路15-66號","121.398685","25.1405666666667","6500500","新莊區"
"221023","279-VK","2018/03/30 20:59:37","新北市汐止區汐萬路一段256巷1號","121.65171","25.0748766666667","6501100","汐止區"
"221029","298-VK","2018/03/30 20:59:44","新北市汐止區汐萬路一段278巷5號","121.651465","25.074785","6501100","汐止區"
"220070","AAC-253","2018/03/30 20:59:05","新北市八里區中山路三段409號","121.3687","25.1345633333333","6500100","板橋區"
