"lineid","car","time","location","longitude","latitude","cityid","cityname"
"231027","3712-VJ","2018/03/30 21:59:42","新北市新店區安華路1-1號","121.5193","24.9605166666667","6500600","新店區"
"235010","733-UM","2018/03/30 21:40:32","新北市中和區員山路36巷13號","121.484133333333","24.9907866666667","6500300","中和區"
"247010","341-TH","2018/03/30 21:59:41","新北市林口區太平里180號","121.367075","25.1337366666667","6501400","蘆洲區"
"251008","181-VK","2018/03/30 21:59:27","新北市淡水區學府路104號","121.449835","25.1717866666667","6501000","淡水區"
"251010","413-VK","2018/03/30 21:59:29","新北市淡水區中正路二段211號","121.426201666667","25.1890866666667","6501000","淡水區"
"251012","441-VK","2018/03/30 21:59:36","新北市淡水區中山北路三段169號","121.445461666667","25.19693","6501000","淡水區"
"251005","443-VK","2018/03/30 21:59:42","新北市淡水區鄧公路30巷1弄68號","121.4545","25.1694766666667","6501000","淡水區"
"251006","561-UM","2018/03/30 21:59:42","新北市淡水區中正路11巷3號","121.437835","25.1707783333333","6501000","淡水區"
"251007","577-R6","2018/03/30 21:59:44","新北市淡水區北新路184巷48號","121.450518333333","25.177895","6501000","淡水區"
"251011","650-BX","2018/03/30 21:59:37","新北市淡水區水碓街7號","121.443131666667","25.1771166666667","6501000","淡水區"
"251003","673-BX","2018/03/30 21:59:45","新北市淡水區新春街89號","121.439038333333","25.1825533333333","6501000","淡水區"
