"lineid","car","time","location","longitude","latitude","cityid","cityname"
"248005","653-BX","2018/01/04 07:29:47","新北市五股區明德路12巷6號","121.433366666667","25.07188","6501500","五股區"
"232001","290-BY","2018/01/04 07:29:50","新北市坪林區上坑子口3號","121.699456666667","24.9583466666667","6502000","坪林區"
"232014","291-BY","2018/01/04 07:29:40","新北市坪林區金瓜寮24-3號","121.679001666667","24.9087816666667","6502000","坪林區"
"232010","375-UM","2018/01/04 07:29:38","新北市坪林區水聳淒坑31-1號","121.71216","24.9330233333333","6502000","坪林區"
"232018","705-BZ","2018/01/04 07:29:54","新北市坪林區坪雙路二段13號","121.732155","24.9662216666667","6502000","坪林區"
"232007","758-BX","2018/01/04 07:29:42","新北市坪林區魚堀36-2號","121.700275","24.9305666666667","6502000","坪林區"
"244003","248-BX","2018/01/04 07:29:48","新北市林口區頂福里71-100號","121.3452","25.084355","6501700","林口區"
"222006","289-BY","2018/01/04 07:24:06","新北市深坑區文化街39巷13號","121.619048333333","25.001055","6501800","深坑區"
"226005","5620-A6","2018/01/04 07:29:54","新北市平溪區嶺腳里中華街28號","121.73943","25.025515","6502400","平溪區"
"226002","7418-A5","2018/01/04 07:19:46","新北市平溪區望古里灰4-2號","121.76314","25.0296133333333","6502400","平溪區"
"226003","AGD-0702","2018/01/04 07:29:39","新北市平溪區平溪里平溪街22號","121.738798333333","25.025355","6502400","平溪區"
"223006","022-BY","2018/01/04 07:29:39","新北市石碇區靜安路一段292巷10號","121.691876666667","25.0058783333333","6501900","石碇區"
"223002","198-BX","2018/01/04 07:29:42","新北市石碇區北宜路五段大湖巷6-1號","121.632881666667","24.9430116666667","6501900","石碇區"
"223001","437-BY","2018/01/04 07:29:39","新北市石碇區中楒子腳3-3號","121.639513333333","24.97149","6501900","石碇區"
"223004","660-BX","2018/01/04 07:29:53","新北市石碇區八分寮55-5號","121.645136666667","25.0165466666667","6501900","石碇區"
"223007","661-BX","2018/01/04 07:29:43","新北市石碇區蚯蚓坑11-10號","121.691268333333","25.00602","6501900","石碇區"
"223005","677-TV","2018/01/04 07:29:50","新北市石碇區新興坑22-1號","121.649453333333","25.0226433333333","6501900","石碇區"
"227007","282-VK","2018/01/04 07:29:48","新北市雙溪區新基里自強路7號","121.86628","25.0390616666667","6502500","雙溪區"
"252004","249-BX","2018/01/04 07:29:33","新北市三芝區店子里店子48號","121.50354","25.2066433333333","6502100","三芝區"
"252007","AAC-283","2018/01/04 07:29:42","新北市三芝區錫板里海尾14-5號","121.477546666667","25.2590816666667","6502100","三芝區"
"237001","159-UY","2018/01/04 07:29:35","新北市三峽區隆恩街245號","121.357648333333","24.9408133333333","6500900","三峽區"
"236009","165-UM","2018/01/04 07:29:37","新北市土城區永豐路13巷5弄13號","121.461686666667","24.9893283333333","6501300","土城區"
"236003","339-SR","2018/01/04 07:29:50","新北市土城區忠義路123號","121.446396666667","24.96172","6501300","土城區"
"242030","AAC-296","2018/01/04 07:29:35","新北市新莊區新泰路357巷3弄57號","121.442111666667","25.03953","6500500","新莊區"
"242049","751-BX","2018/01/04 07:29:36","新北市新莊區新泰路357巷3弄57號","121.442108333333","25.0391466666667","6500500","新莊區"
"242024","615-BX","2018/01/04 07:29:46","新北市新莊區新泰路255巷83號","121.442151666667","25.0389333333333","6500500","新莊區"
"242022","613-BX","2018/01/04 07:29:46","新北市新莊區新泰路357巷3弄57號","121.442123333333","25.03913","6500500","新莊區"
"242026","612-BX","2018/01/04 07:29:49","新北市新莊區新泰路357巷3弄57號","121.442095","25.039205","6500500","新莊區"
"242038","566-BX","2018/01/04 07:29:52","新北市新莊區新泰路255巷83號","121.442073333333","25.0389366666667","6500500","新莊區"
"242043","442-UM","2018/01/04 07:29:42","新北市新莊區新泰路255巷83號","121.442131666667","25.038825","6500500","新莊區"
"242052","440-UM","2018/01/04 07:29:43","新北市新莊區新泰路357巷3弄57號","121.442116666667","25.0391983333333","6500500","新莊區"
"242033","415-TV","2018/01/04 07:29:52","新北市新莊區新泰路357巷3弄57號","121.442085","25.0392666666667","6500500","新莊區"
"242040","400-BY","2018/01/04 07:29:51","新北市新莊區新泰路357巷3弄57號","121.442088333333","25.0395133333333","6500500","新莊區"
"242059","362-BY","2018/01/04 07:29:43","新北市新莊區三和路12-21號","121.442103333333","25.03867","6500500","新莊區"
"242057","353-BY","2018/01/04 07:29:38","新北市新莊區三和路12-21號","121.442146666667","25.0387066666667","6500500","新莊區"
"242035","133-UY","2018/01/04 07:29:43","新北市新莊區新泰路255巷83號","121.442083333333","25.0388266666667","6500500","新莊區"
"242020","135-UY","2018/01/04 07:29:49","新北市新莊區三和路12-21號","121.441996666667","25.0387116666667","6500500","新莊區"
"242045","172-VK","2018/01/04 07:09:28","新北市新莊區新泰路255巷83號","121.442368333333","25.0388983333333","6500500","新莊區"
"242014","175-VK","2018/01/04 07:29:36","新北市新莊區三和路12-21號","121.442066666667","25.0386666666667","6500500","新莊區"
"242012","346-TH","2018/01/04 07:29:41","新北市新莊區三和路12-12號","121.442331666667","25.0370933333333","6500500","新莊區"
"220064","282-UM","2018/01/04 07:29:42","新北市板橋區國光路51號","121.458078333333","25.01787","6500100","板橋區"
"242003","281-VK","2018/01/04 07:29:34","新北市新莊區三和路12-12號","121.44237","25.03706","6500500","新莊區"
