"lineid","car","time","location","longitude","latitude","cityid","cityname"
"248005","653-BX","2018/01/04 07:37:47","新北市五股區明德路12巷6號","121.433421666667","25.0718966666667","6501500","五股區"
"232001","290-BY","2018/01/04 07:37:30","新北市坪林區上坑子口4號","121.698478333333","24.95843","6502000","坪林區"
"232014","291-BY","2018/01/04 07:37:40","新北市坪林區九芎根1號","121.669543333333","24.8895433333333","6502000","坪林區"
"232010","375-UM","2018/01/04 07:37:38","新北市坪林區苦苓腳3-2號","121.714251666667","24.9384466666667","6502000","坪林區"
"232018","705-BZ","2018/01/04 07:37:34","新北市坪林區坪雙路二段11號","121.733671666667","24.9650883333333","6502000","坪林區"
"232007","758-BX","2018/01/04 07:37:42","新北市坪林區魚堀33-1號","121.698118333333","24.92582","6502000","坪林區"
"244003","248-BX","2018/01/04 07:37:48","新北市林口區頂福里67-2號","121.335841666667","25.0926833333333","6501700","林口區"
"222006","289-BY","2018/01/04 07:24:06","新北市深坑區文化街39巷13號","121.619048333333","25.001055","6501800","深坑區"
"231008","192-VK","2018/01/04 07:37:38","新北市新店區安華路28-1號","121.51943","24.96137","6500600","新店區"
"226005","5620-A6","2018/01/04 07:37:34","新北市平溪區嶺腳里嶺腳寮11號","121.747291666667","25.029825","6502400","平溪區"
"226002","7418-A5","2018/01/04 07:37:36","新北市平溪區平湖里大湖9號","121.781108333333","25.025","6502400","平溪區"
"226003","AGD-0702","2018/01/04 07:37:39","新北市平溪區嶺腳里嶺腳寮13號","121.747953333333","25.0298983333333","6502400","平溪區"
"223006","022-BY","2018/01/04 07:37:39","新北市石碇區靜安路一段197號","121.672713333333","25.0082583333333","6501900","石碇區"
"223002","198-BX","2018/01/04 07:37:42","新北市石碇區北宜路五段潭腰巷15-8號","121.635706666667","24.9326116666667","6501900","石碇區"
"223001","437-BY","2018/01/04 07:37:39","新北市石碇區烏塗窟37號","121.657155","24.9711","6501900","石碇區"
"223004","660-BX","2018/01/04 07:37:33","新北市石碇區八分寮47號","121.642181666667","25.0138666666667","6501900","石碇區"
"223007","661-BX","2018/01/04 07:37:46","新北市石碇區大溪墘6號","121.697701666667","25.0076433333333","6501900","石碇區"
"223005","677-TV","2018/01/04 07:37:50","新北市石碇區靜安路一段15號","121.641961666667","25.0119266666667","6501900","石碇區"
"227007","282-VK","2018/01/04 07:37:48","新北市雙溪區雙溪里太平路54號","121.86474","25.035535","6502500","雙溪區"
"252004","249-BX","2018/01/04 07:37:33","新北市三芝區店子里菜公坑99-1號","121.513701666667","25.206275","6502100","三芝區"
"252007","AAC-283","2018/01/04 07:37:42","新北市三芝區埔頭里埔頭29號","121.494041666667","25.2631566666667","6502100","三芝區"
"237001","159-UY","2018/01/04 07:37:35","新北市三峽區大學路35號","121.377166666667","24.9404166666667","6500900","三峽區"
"236009","165-UM","2018/01/04 07:37:37","新北市土城區延壽路2巷5號","121.471935","24.990425","6501300","土城區"
"236003","339-SR","2018/01/04 07:37:30","新北市土城區南天母路111巷6-2號","121.448408333333","24.9550216666667","6501300","土城區"
"242030","AAC-296","2018/01/04 07:37:35","新北市新莊區新泰路357巷3弄57號","121.442118333333","25.0394866666667","6500500","新莊區"
"242028","986-R7","2018/01/04 07:37:45","新北市新莊區新泰路357巷3弄57號","121.442286666667","25.03962","6500500","新莊區"
"242049","751-BX","2018/01/04 07:37:36","新北市新莊區中正路384-1號","121.442025","25.03516","6500500","新莊區"
"242024","615-BX","2018/01/04 07:37:46","新北市新莊區新泰路255巷83號","121.442156666667","25.0388816666667","6500500","新莊區"
"242022","613-BX","2018/01/04 07:37:46","新北市新莊區新泰路357巷3弄57號","121.442131666667","25.0391516666667","6500500","新莊區"
"242026","612-BX","2018/01/04 07:37:49","新北市新莊區新泰路357巷3弄57號","121.442221666667","25.039305","6500500","新莊區"
"242038","566-BX","2018/01/04 07:37:33","新北市新莊區新泰路357巷3弄57號","121.442245","25.0396766666667","6500500","新莊區"
"242043","442-UM","2018/01/04 07:37:42","新北市新莊區中正路384號","121.441986666667","25.0349366666667","6500500","新莊區"
"242047","441-UM","2018/01/04 07:37:41","新北市新莊區中正路384-1號","121.442001666667","25.0351516666667","6500500","新莊區"
"242052","440-UM","2018/01/04 07:37:43","新北市泰山區磚雅厝3號","121.44226","25.0417866666667","6500500","新莊區"
"242033","415-TV","2018/01/04 07:37:32","新北市新莊區新泰路357巷3弄57號","121.442166666667","25.0393566666667","6500500","新莊區"
"242040","400-BY","2018/01/04 07:37:31","新北市新莊區新泰路357巷3弄57號","121.442096666667","25.0395033333333","6500500","新莊區"
"242059","362-BY","2018/01/04 07:37:43","新北市新莊區新泰路357巷3弄57號","121.442293333333","25.0392733333333","6500500","新莊區"
"242057","353-BY","2018/01/04 07:37:38","新北市新莊區三和路12-21號","121.442161666667","25.038715","6500500","新莊區"
"242006","132-UY","2018/01/04 07:37:35","新北市新莊區三和路12-21號","121.44198","25.0388316666667","6500500","新莊區"
"242035","133-UY","2018/01/04 07:37:43","新北市新莊區三和路12-21號","121.442091666667","25.0387616666667","6500500","新莊區"
"242020","135-UY","2018/01/04 07:37:49","新北市新莊區三和路12-21號","121.442078333333","25.0387566666667","6500500","新莊區"
"242045","172-VK","2018/01/04 07:09:28","新北市新莊區新泰路255巷83號","121.442368333333","25.0388983333333","6500500","新莊區"
"242008","173-VK","2018/01/04 00:41:07","新北市新莊區三和路12-21號","121.442061666667","25.038495","6500500","新莊區"
"242014","175-VK","2018/01/04 07:37:36","新北市新莊區三和路12-21號","121.442061666667","25.0386783333333","6500500","新莊區"
"242001","176-VK","2018/01/04 07:37:30","新北市新莊區三和路12-21號","121.44207","25.0386666666667","6500500","新莊區"
"242012","346-TH","2018/01/04 07:37:41","新北市新莊區三和路12-15號","121.442218333333","25.0372933333333","6500500","新莊區"
"242018","348-TH","2018/01/04 07:37:38","新北市新莊區新泰路357巷3弄57號","121.442061666667","25.0395083333333","6500500","新莊區"
"242016","350-TH","2018/01/04 07:37:44","新北市新莊區新泰路255巷83號","121.442106666667","25.03887","6500500","新莊區"
"242010","351-TH","2018/01/04 07:37:46","新北市新莊區新泰路357巷3弄57號","121.441946666667","25.0394966666667","6500500","新莊區"
"220064","282-UM","2018/01/04 07:37:42","新北市板橋區國光路51號","121.45807","25.0179216666667","6500100","板橋區"
"242003","281-VK","2018/01/04 07:37:34","新北市新莊區三和路12-16號","121.442121666667","25.0374683333333","6500500","新莊區"
"242055","280-VK","2018/01/04 07:37:47","新北市新莊區三和路12-21號","121.44205","25.0382433333333","6500500","新莊區"
