"lineid","car","time","location","longitude","latitude","cityid","cityname"
"234001","149-BY","2018/09/17 08:48:43","新北市永和區永貞路443號","121.507101666667","25.0105933333333","6500400","永和區"
"248005","653-BX","2018/09/17 08:46:38","新北市五股區明德路12巷6號","121.433381666667","25.071835","6501500","五股區"
"232001","290-BY","2018/09/17 08:48:57","新北市坪林區虎寮潭1號","121.74101","24.95011","6502000","坪林區"
"232012","291-BY","2018/09/17 08:48:43","新北市坪林區金瓜寮1-1號","121.682103333333","24.9217766666667","6502000","坪林區"
"232017","705-BZ","2018/09/17 08:48:44","新北市坪林區中心崙2-1號","121.78532","24.9529233333333","6502000","坪林區"
"232005","758-BX","2018/09/17 08:48:55","新北市坪林區魚堀9-5號","121.704876666667","24.9057083333333","6502000","坪林區"
"244022","069-UM","2018/09/17 08:48:44","新北市林口區興林路318巷13號","121.388193333333","25.0704766666667","6501700","林口區"
"244006","080-UY","2018/09/17 08:48:39","新北市林口區林口路88號","121.389021666667","25.0809033333333","6501700","林口區"
"244001","248-BX","2018/09/17 08:48:49","新北市林口區嘉溪雅坑18號","121.340388333333","25.1079333333333","6501700","林口區"
"244018","403-UM","2018/09/17 08:48:53","新北市林口區忠孝路542巷5弄9號","121.373741666667","25.06759","6501700","林口區"
"244012","KEA-2802","2018/09/17 08:48:55","新北市林口區佳林路101巷36號","121.387015","25.0799816666667","6501700","林口區"
"244016","485-VK","2018/09/17 08:48:59","新北市林口區文化二路一段230巷3-1號","121.370393333333","25.07198","6501700","林口區"
"244008","656-BX","2018/09/17 08:48:39","新北市林口區佳林路39號","121.386521666667","25.0819433333333","6501700","林口區"
"244010","657-BX","2018/09/17 08:48:52","新北市林口區粉寮路一段41號","121.396436666667","25.0773683333333","6501700","林口區"
"244024","837-TS","2018/09/17 08:48:44","新北市林口區文化北路一段192-100號","121.357126666667","25.0705716666667","6501700","林口區"
"244020","838-TS","2018/09/17 08:48:42","新北市林口區自強三街1-1號","121.397393333333","25.078215","6501700","林口區"
"222005","289-BY","2018/09/17 08:48:48","新北市深坑區風格街5號","121.625711666667","25.0166666666667","6501800","深坑區"
"231007","189-VK","2018/09/17 08:48:38","新北市新店區新潭路三段236號","121.501686666667","24.90317","6500600","新店區"
"231008","192-VK","2018/09/17 08:48:39","新北市新店區松林路9號","121.54723","24.9109266666667","6500600","新店區"
"231062","720-UM","2018/09/17 08:48:52","新北市新店區雙峰路27號","121.584888333333","24.9434583333333","6500600","新店區"
"235001","611-BX","2018/09/17 08:48:54","新北市中和區民安街53號","121.479408333333","24.9999316666667","6500300","中和區"
"235010","733-UM","2018/09/17 08:48:47","新北市新店區安和路三段35-2號","121.516975","24.9804566666667","6500300","中和區"
"226005","5620-A6","2018/09/17 08:48:55","新北市平溪區十分里十分街124號","121.777133333333","25.0431866666667","6502400","平溪區"
"226001","7418-A5","2018/09/17 08:46:53","新北市平溪區東勢里火燒寮11-1號","121.752545","24.9928833333333","6502400","平溪區"
"226003","AGD-0702","2018/09/17 08:48:43","新北市平溪區十分里十分街252號","121.778121666667","25.0448916666667","6502400","平溪區"
"223006","022-BY","2018/09/17 08:48:26","新北市深坑區昇高坑路51-1號","121.630228333333","24.9941733333333","6501900","石碇區"
"223002","KEA-2673","2018/09/17 08:48:54","新北市石碇區員潭子坑12號","121.642168333333","24.99251","6501900","石碇區"
"223003","205-TH","2018/09/17 08:48:52","新北市石碇區北宜路六段柑腳巷2號","121.65957","24.9380766666667","6501900","石碇區"
"223008","406-TH","2018/09/17 08:48:45","新北市石碇區碇南路二段松柏崎巷37-1號","121.678758333333","25.0233116666667","6501900","石碇區"
"223004","437-BY","2018/09/17 08:48:50","新北市石碇區崩山24-2號","121.678643333333","24.9678133333333","6501900","石碇區"
"223001","592-UM","2018/09/17 08:48:52","新北市石碇區北宜路六段柑腳巷2號","121.659641666667","24.938025","6501900","石碇區"
"223005","677-TV","2018/09/17 08:48:38","新北市石碇區崩山24-2號","121.678665","24.9678133333333","6501900","石碇區"
"227005","282-VK","2018/09/17 08:48:35","新北市雙溪區外柑里四分子4號","121.838933333333","25.0012483333333","6502500","雙溪區"
"252006","073-UM","2018/09/17 08:48:38","新北市三芝區錫板里南勢崗6號","121.479541666667","25.26201","6502100","三芝區"
"252004","249-BX","2018/09/17 08:48:49","新北市三芝區興華里田心子16號","121.493413333333","25.2043","6502100","三芝區"
"237001","159-UY","2018/09/17 08:48:44","新北市三峽區大觀路68號","121.374646666667","24.94538","6500900","三峽區"
"236001","165-UM","2018/09/17 08:48:46","新北市土城區石門路59號","121.457723333333","24.9637066666667","6501300","土城區"
"236001","KEA-2877","2018/09/17 08:48:39","新北市土城區中央路三段281巷11弄3號","121.426596666667","24.96281","6501300","土城區"
"236005","498-BY","2018/09/17 08:48:58","新北市土城區永和街62巷2-1號","121.434978333333","24.959385","6501300","土城區"
"242035","AAC-296","2018/09/17 08:48:52","新北市新莊區建安街105號","121.426573333333","25.0241733333333","6500500","新莊區"
"242057","986-R7","2018/09/17 08:48:59","新北市新莊區中正路901-1號","121.411296666667","25.0214566666667","6500500","新莊區"
"242055","751-BX","2018/09/17 08:48:49","新北市新莊區瓊林路59-13號","121.44222","25.0251116666667","6500500","新莊區"
"242026","615-BX","2018/09/17 08:48:53","新北市新莊區立信三街25號","121.443015","25.0505233333333","6500500","新莊區"
"242024","613-BX","2018/09/17 08:48:55","新北市新莊區五工三路86巷13號","121.458891666667","25.0658016666667","6500500","新莊區"
"242043","566-BX","2018/09/17 08:48:45","新北市新莊區新北大道七段856號","121.414003333333","25.023385","6500500","新莊區"
"242047","497-BY","2018/09/17 08:48:47","新北市新莊區後港一路28巷8號","121.425555","25.02536","6500500","新莊區"
"242052","442-UM","2018/09/17 08:48:57","新北市新莊區民安西路367號","121.428591666667","25.0103766666667","6500500","新莊區"
"242001","440-UM","2018/09/17 08:48:50","新北市新莊區中正路190號","121.449715","25.0355266666667","6500500","新莊區"
"242038","415-TV","2018/09/17 08:48:48","新北市新莊區民安路299巷17號","121.429008333333","25.02304","6500500","新莊區"
"242045","400-BY","2018/09/17 08:48:52","新北市新莊區中正路829巷55號","121.42144","25.027315","6500500","新莊區"
"242022","362-BY","2018/09/17 08:48:47","新北市新莊區化成路319號","121.46596","25.05577","6500500","新莊區"
"242059","353-BY","2018/09/17 08:48:55","新北市新莊區民安路188巷6號","121.425066666667","25.02344","6500500","新莊區"
"242010","132-UY","2018/09/17 08:48:50","新北市新莊區中港路615巷9號","121.450785","25.053315","6500500","新莊區"
"242040","133-UY","2018/09/17 08:48:48","新北市新莊區天祥街119號","121.414521666667","25.0296166666667","6500500","新莊區"
"242033","135-UY","2018/09/17 08:48:50","新北市新莊區公園一路126號","121.445618333333","25.038005","6500500","新莊區"
"242049","172-VK","2018/09/17 08:48:44","新北市新莊區民安西路189巷10弄2號","121.426233333333","25.0152966666667","6500500","新莊區"
"242018","175-VK","2018/09/17 08:48:53","新北市新莊區長青街37巷7號","121.456346666667","25.0418133333333","6500500","新莊區"
"242006","176-VK","2018/09/17 08:48:59","新北市新莊區福壽街136巷37號","121.45921","25.051695","6500500","新莊區"
"242001","233-RS","2018/09/17 08:48:42","新北市樹林區中山路三段210-2號","121.380768333333","24.966025","6500500","新莊區"
"242003","347-TH","2018/09/17 08:48:40","新北市新莊區化成路38號","121.464991666667","25.043315","6500500","新莊區"
"242030","348-TH","2018/09/17 08:48:49","新北市新莊區新泰路277巷36號","121.444081666667","25.04021","6500500","新莊區"
"242020","350-TH","2018/09/17 08:48:40","新北市新莊區中正路267號","121.449523333333","25.03538","6500500","新莊區"
"242014","351-TH","2018/09/17 08:48:40","新北市新莊區中和街84號","121.44767","25.0463666666667","6500500","新莊區"
"242016","281-VK","2018/09/17 08:48:45","新北市新莊區中港一街97號","121.449196666667","25.0451883333333","6500500","新莊區"
"242008","280-VK","2018/09/17 08:48:45","新北市新莊區昌盛街35巷3弄2號","121.45406","25.050595","6500500","新莊區"
