"lineid","car","time","location","longitude","latitude","cityid","cityname"
"234001","149-BY","2018/09/17 09:19:23","新北市永和區中正路42巷13號","121.513881666667","24.9940983333333","6500400","永和區"
"248005","653-BX","2018/09/17 09:19:25","新北市五股區水碓一路7號","121.432303333333","25.072795","6501500","五股區"
"244022","069-UM","2018/09/17 09:19:24","新北市林口區仁愛路二段8號","121.385868333333","25.0763516666667","6501700","林口區"
"244006","080-UY","2018/09/17 09:19:19","新北市林口區後湖32-1號","121.386505","25.0956866666667","6501700","林口區"
"244018","403-UM","2018/09/17 09:19:13","新北市林口區忠孝路616巷11號","121.377225","25.067755","6501700","林口區"
"244012","KEA-2802","2018/09/17 09:19:15","新北市林口區麗園一街6巷5-3號","121.37539","25.0704","6501700","林口區"
"244016","485-VK","2018/09/17 09:19:19","新北市林口區八德路78號","121.365491666667","25.0656883333333","6501700","林口區"
"244008","656-BX","2018/09/17 09:19:25","新北市林口區竹林路278巷1號","121.390338333333","25.0819316666667","6501700","林口區"
"244010","657-BX","2018/09/17 09:19:12","新北市林口區中正路57巷12弄4號","121.395073333333","25.0767333333333","6501700","林口區"
"244001","658-BX","2018/09/17 09:19:17","新北市林口區竹林路432號","121.389188333333","25.0849616666667","6501700","林口區"
"244024","837-TS","2018/09/17 09:19:21","新北市林口區忠孝一路180號","121.358938333333","25.0741233333333","6501700","林口區"
"244020","838-TS","2018/09/17 09:19:18","新北市林口區粉寮32號","121.403246666667","25.0866883333333","6501700","林口區"
"222005","289-BY","2018/09/17 09:19:08","新北市深坑區土庫尖路75-1號","121.631226666667","25.018245","6501800","深坑區"
"231007","189-VK","2018/09/17 09:19:18","新北市新店區新潭路三段215巷25號","121.508205","24.9040816666667","6500600","新店區"
"231008","192-VK","2018/09/17 09:19:19","新北市新店區平廣路一段30-1號","121.53469","24.9030216666667","6500600","新店區"
"231062","720-UM","2018/09/17 09:19:12","新北市新店區翠峰路102號","121.578745","24.93435","6500600","新店區"
"235001","611-BX","2018/09/17 09:19:15","新北市中和區莒光路207號","121.46998","24.9957366666667","6500300","中和區"
"226003","AGD-0702","2018/09/17 09:19:23","新北市平溪區望古里望古坑19號","121.761766666667","25.0339466666667","6502400","平溪區"
"223006","022-BY","2018/09/17 09:19:27","新北市石碇區烏塗窟26-2號","121.657568333333","24.9759166666667","6501900","石碇區"
"223003","205-TH","2018/09/17 09:19:11","新北市石碇區北宜路五段70號","121.639231666667","24.9522166666667","6501900","石碇區"
"223008","406-TH","2018/09/17 09:19:23","新北市石碇區光明路15號","121.680838333333","25.033395","6501900","石碇區"
"223004","437-BY","2018/09/17 09:19:10","新北市石碇區磨石坑39-3號","121.687756666667","24.9658416666667","6501900","石碇區"
"223001","592-UM","2018/09/17 09:19:12","新北市石碇區北宜路五段70-1號","121.639076666667","24.95246","6501900","石碇區"
"223005","677-TV","2018/09/17 09:19:13","新北市石碇區崩山58號","121.687191666667","24.9656683333333","6501900","石碇區"
"227005","282-VK","2018/09/17 09:18:55","新北市雙溪區泰平里料角坑19號","121.81229","24.9724133333333","6502500","雙溪區"
"252004","249-BX","2018/09/17 09:19:09","新北市三芝區店子里店子60-1號","121.50253","25.20524","6502100","三芝區"
"252006","AAC-283","2018/09/17 09:19:12","新北市三芝區埔坪里埔頭坑41號","121.50451","25.2644516666667","6502100","三芝區"
"237001","159-UY","2018/09/17 09:19:24","新北市鶯歌區中正一路473-1號","121.372158333333","24.959115","6500900","三峽區"
"236001","165-UM","2018/09/17 09:19:26","新北市土城區中山路28號","121.422991666667","24.96338","6501300","土城區"
"236001","KEA-2877","2018/09/17 09:19:19","新北市土城區中央路二段278巷1號","121.440571666667","24.9744033333333","6501300","土城區"
"236005","498-BY","2018/09/17 09:19:17","新北市土城區中央路三段126巷36弄3號","121.434471666667","24.96805","6501300","土城區"
"242035","AAC-296","2018/09/17 09:19:19","新北市新莊區後港一路56巷24弄7號","121.426338333333","25.0251","6500500","新莊區"
"242057","986-R7","2018/09/17 09:19:19","新北市新莊區八德街159號","121.42347","25.01938","6500500","新莊區"
"242055","751-BX","2018/09/17 09:19:29","新北市新莊區豐年街24號","121.446198333333","25.0324933333333","6500500","新莊區"
"242026","615-BX","2018/09/17 09:19:21","新北市新莊區思源路113號","121.459845","25.04206","6500500","新莊區"
"242024","613-BX","2018/09/17 09:18:15","新北市新莊區五工二路78巷23號","121.460753333333","25.066895","6500500","新莊區"
"242043","566-BX","2018/09/17 09:19:25","新北市新莊區中正路929巷7弄12號","121.41125","25.0203816666667","6500500","新莊區"
"242047","497-BY","2018/09/17 09:19:27","新北市新莊區龍安路218號","121.420136666667","25.0197816666667","6500500","新莊區"
"242052","442-UM","2018/09/17 09:19:17","新北市新莊區民安西路261巷10號","121.426708333333","25.01303","6500500","新莊區"
"242001","440-UM","2018/09/17 09:19:10","新北市新莊區中正路78-1號","121.458551666667","25.0378533333333","6500500","新莊區"
"242038","415-TV","2018/09/17 09:19:08","新北市新莊區民安路298號","121.428163333333","25.021795","6500500","新莊區"
"242045","400-BY","2018/09/17 09:19:18","新北市新莊區裕民街72巷31號","121.417258333333","25.0241433333333","6500500","新莊區"
"242022","362-BY","2018/09/17 09:19:27","新北市新莊區化成路150號","121.465383333333","25.0449766666667","6500500","新莊區"
"242059","353-BY","2018/09/17 09:19:13","新北市新莊區新莊路763巷10號","121.442463333333","25.0322416666667","6500500","新莊區"
"242010","132-UY","2018/09/17 09:19:10","新北市新莊區中信街37巷1弄11號","121.450926666667","25.0505716666667","6500500","新莊區"
"242040","133-UY","2018/09/17 09:19:27","新北市新莊區天祥街54巷3弄2號","121.416938333333","25.029565","6500500","新莊區"
"242033","135-UY","2018/09/17 09:19:10","新北市新莊區新泰路125號","121.448413333333","25.0361033333333","6500500","新莊區"
"242049","172-VK","2018/09/17 09:19:24","新北市新莊區民安西路50號","121.427448333333","25.0207066666667","6500500","新莊區"
"242012","173-VK","2018/09/17 09:19:25","新北市新莊區中平路302巷12號","121.445326666667","25.0520433333333","6500500","新莊區"
"242001","233-RS","2018/09/17 09:19:22","新北市新莊區環河路636-7號","121.437406666667","25.01162","6500500","新莊區"
"242003","347-TH","2018/09/17 09:19:22","新北市新莊區頭興街10號","121.46521","25.053565","6500500","新莊區"
"242030","348-TH","2018/09/17 09:19:29","新北市新莊區公園一路77號","121.443265","25.0372083333333","6500500","新莊區"
"242020","350-TH","2018/09/17 09:19:20","新北市新莊區和興街19號","121.447323333333","25.0392616666667","6500500","新莊區"
"242014","351-TH","2018/09/17 09:19:20","新北市新莊區中港一街153號","121.447598333333","25.045015","6500500","新莊區"
