"lineid","car","time","location","longitude","latitude","cityid","cityname"
"248005","653-BX","2018/09/17 10:28:29","新北市五股區新五路二段273號","121.44258","25.0858266666667","6501500","五股區"
"244022","069-UM","2018/09/17 10:28:24","新北市林口區仁愛路二段700號","121.369285","25.08076","6501700","林口區"
"231007","189-VK","2018/09/17 10:28:18","新北市新店區新潭路三段210號","121.505315","24.9050983333333","6500600","新店區"
"231008","192-VK","2018/09/17 10:28:19","新北市新店區成功路43號","121.544178333333","24.901605","6500600","新店區"
"227005","282-VK","2018/09/17 10:23:15","新北市雙溪區泰平里烏山路40-1號","121.834173333333","24.9387866666667","6502500","雙溪區"
"252006","AAC-283","2018/09/17 10:28:11","新北市三芝區新庄里番社后8號","121.502171666667","25.2689433333333","6502100","三芝區"
"237001","159-UY","2018/09/17 10:28:24","新北市三峽區國際一街92號","121.370433333333","24.9413533333333","6500900","三峽區"
