"lineid","car","time","location","longitude","latitude","cityid","cityname"
"234044","148-BY","2018/09/17 13:48:46","新北市永和區永利路163號","121.525051666667","25.0035566666667","6500400","永和區"
"234001","149-BY","2018/09/17 13:48:52","新北市永和區得和路229號","121.5198","25.0001616666667","6500400","永和區"
"234005","207-UY","2018/09/17 13:49:00","新北市永和區中和路603號","121.512375","25.0041216666667","6500400","永和區"
"234078","298-R6","2018/09/17 13:48:57","新北市永和區國中路4號","121.524431666667","25.004305","6500400","永和區"
"234036","336-UY","2018/09/17 13:48:49","新北市永和區民樂街59巷5號","121.52795","24.9984416666667","6500400","永和區"
"234062","337-UY","2018/09/17 13:49:00","新北市永和區中正路416號","121.517693333333","25.0021833333333","6500400","永和區"
"234084","338-UY","2018/09/17 13:49:03","新北市永和區永利路40號","121.518608333333","25.0054483333333","6500400","永和區"
"234068","552-UM","2018/09/17 13:48:44","新北市永和區竹林路77號","121.519406666667","25.0128033333333","6500400","永和區"
"234015","745-BX","2018/09/17 13:48:58","新北市永和區永和路二段243號","121.515675","25.014885","6500400","永和區"
"234028","746-BX","2018/09/17 13:49:00","新北市永和區民生路47巷48號","121.525145","24.9977933333333","6500400","永和區"
"234052","KEA-2590","2018/09/17 13:48:51","新北市永和區竹林路39巷28弄29號","121.519581666667","25.0142933333333","6500400","永和區"
"234012","KEA-2591","2018/09/17 13:48:59","新北市永和區仁愛路193號","121.510145","25.0126116666667","6500400","永和區"
"234060","AAD-866","2018/09/17 13:49:02","新北市永和區中正路181號","121.516971666667","24.9989216666667","6500400","永和區"
"234040","862-TW","2018/09/17 13:48:59","新北市永和區中和路305巷10弄1號","121.506955","25.0008133333333","6500400","永和區"
"234048","863-TW","2018/09/17 13:48:48","新北市永和區保安路138號","121.508628333333","25.0151","6500400","永和區"
"234010","9373-KE","2018/09/17 13:48:57","新北市永和區仁愛路264號","121.504518333333","25.0087533333333","6500400","永和區"
"248005","077-UY","2018/09/17 13:49:00","新北市五股區四維路122號","121.467911666667","25.0747766666667","6501500","五股區"
"248007","095-VK","2018/09/17 13:49:02","新北市五股區中興路一段151巷1弄2號","121.465113333333","25.07317","6501500","五股區"
"248017","225-UY","2018/09/17 13:48:05","新北市五股區凌雲路三段田埔巷33號","121.437583333333","25.1232716666667","6501500","五股區"
"248011","247-BX","2018/09/17 13:48:50","新北市五股區成泰路二段195巷1號","121.440331666667","25.0873216666667","6501500","五股區"
"248015","261-SL","2018/09/17 13:48:49","新北市五股區凌雲路一段149巷42號","121.448638333333","25.1009066666667","6501500","五股區"
"248009","272-BY","2018/09/17 13:49:03","新北市五股區水碓九路20號","121.427941666667","25.0717633333333","6501500","五股區"
"248003","677-BX","2018/09/17 13:48:45","新北市五股區民義路二段63號","121.409443333333","25.1052483333333","6501500","五股區"
"248001","678-BX","2018/09/17 13:48:55","新北市五股區成泰路三段436號","121.45105","25.0997083333333","6501500","五股區"
"234076","969-R7","2018/09/17 13:48:56","新北市永和區民族街35-1號","121.518843333333","24.9990883333333","6500400","永和區"
"234072","AAC-211","2018/09/17 13:48:47","新北市永和區豫溪街189巷1號","121.522606666667","25.0103033333333","6500400","永和區"
"234066","AAC-212","2018/09/17 13:48:52","新北市永和區永貞路420號","121.508661666667","25.00814","6500400","永和區"
"234001","AAC-295","2018/09/17 13:48:49","新北市永和區自由街77巷1號","121.513201666667","25.00509","6500400","永和區"
"232012","291-BY","2018/09/17 13:48:56","新北市新店區薏仁坑路自強巷1號","121.497043333333","24.9580816666667","6502000","坪林區"
"243005","AAD-798","2018/09/17 13:26:22","新北市泰山區明志路三段206巷1號","121.423326666667","25.037925","6501600","泰山區"
"243008","KEA-2801","2018/09/17 13:48:59","新北市泰山區明志路二段137號","121.42769","25.0505916666667","6501600","泰山區"
"243007","421-VK","2018/09/17 13:48:55","新北市泰山區美寧街57巷37弄1號","121.429575","25.0650516666667","6501600","泰山區"
"243004","539-UM","2018/09/17 13:49:00","新北市泰山區泰林路二段73巷31號","121.434386666667","25.0578283333333","6501600","泰山區"
"243003","KEA-2215","2018/09/17 13:48:51","新北市泰山區公園路6號","121.429946666667","25.054105","6501600","泰山區"
"243002","KEA-2216","2018/09/17 13:48:57","新北市泰山區辭修路48號","121.428518333333","25.05718","6501600","泰山區"
"231002","002-UM","2018/09/17 13:48:37","新北市新店區溪園路393號","121.52432","24.97908","6500600","新店區"
"231027","0291-UT","2018/09/17 13:48:51","新北市新店區北宜路一段107號","121.539381666667","24.9553533333333","6500600","新店區"
"231028","046-UY","2018/09/17 13:48:50","新北市新店區安和路二段181號","121.518383333333","24.974805","6500600","新店區"
"231001","047-UY","2018/09/17 13:49:00","新北市新店區三民路157號","121.533888333333","24.973575","6500600","新店區"
"231005","106-UY","2018/09/17 13:48:55","新北市新店區寶中路121-1號","121.549693333333","24.9794883333333","6500600","新店區"
"231010","107-UY","2018/09/17 13:48:44","新北市新店區三民路60巷2號","121.535445","24.9724433333333","6500600","新店區"
"231019","108-UY","2018/09/17 13:48:58","新北市新店區永興路95-3號","121.544635","24.9322833333333","6500600","新店區"
"231011","187-VK","2018/09/17 13:49:00","新北市新店區德正街27巷29弄68號","121.545805","24.97311","6500600","新店區"
"231023","KEA-2219","2018/09/17 13:48:50","新北市新店區國校路65巷1號","121.538326666667","24.9540616666667","6500600","新店區"
"231026","256-BX","2018/09/17 13:48:46","新北市新店區中正路329巷5弄1號","121.535386666667","24.9744116666667","6500600","新店區"
"231003","268-BY","2018/09/17 13:48:57","新北市新店區中興路一段203號","121.543568333333","24.9656866666667","6500600","新店區"
"231018","278-BY","2018/09/17 13:49:02","新北市新店區中正路400巷20號","121.535171666667","24.97822","6500600","新店區"
"231014","AAD-862","2018/09/17 13:48:55","新北市新店區竹林路82號","121.554453333333","24.9504566666667","6500600","新店區"
"231038","3712-VJ","2018/09/17 13:48:59","新北市新店區安華路28-1號","121.519378333333","24.9606933333333","6500600","新店區"
"231037","4716-K9","2018/09/17 13:48:56","新北市新店區安康路二段416號","121.496533333333","24.9552916666667","6500600","新店區"
"231025","4715-K9","2018/09/17 13:48:55","新北市新店區中正路406號","121.534448333333","24.977575","6500600","新店區"
"231036","512-UM","2018/09/17 13:48:45","新北市新店區安祥路147巷40號","121.47604","24.9568366666667","6500600","新店區"
"231013","513-UM","2018/09/17 13:48:56","新北市新店區二十張路25巷18弄16號","121.539211666667","24.9815766666667","6500600","新店區"
"231006","617-UM","2018/09/17 13:48:54","新北市新店區北宜路一段190-8號","121.542403333333","24.9528816666667","6500600","新店區"
"231030","619-UM","2018/09/17 13:48:50","新北市新店區安康路一段20號","121.531205","24.96115","6500600","新店區"
"231034","641-BX","2018/09/17 13:48:48","新北市新店區達觀路14巷3號","121.5029","24.9416383333333","6500600","新店區"
"231035","719-UM","2018/09/17 13:48:59","新北市新店區安忠路205巷8號","121.509931666667","24.9554566666667","6500600","新店區"
"231031","720-UM","2018/09/17 13:49:02","新北市新店區莒光路44巷21弄11-6號","121.518786666667","24.9524383333333","6500600","新店區"
"231029","897-TW","2018/09/17 13:48:48","新北市新店區安康路二段156號","121.512358333333","24.9608383333333","6500600","新店區"
"231004","899-TW","2018/09/17 13:48:47","新北市新店區寶橋路132號","121.547355","24.976075","6500600","新店區"
"231024","AKT-0513","2018/09/17 13:49:02","新北市新店區新生街14號","121.54006","24.9662066666667","6500600","新店區"
"235030","003-UY","2018/09/17 13:48:54","新北市中和區光華街12號","121.504176666667","25.0040966666667","6500300","中和區"
"235028","005-UY","2018/09/17 13:48:55","新北市中和區泰和街12號","121.499818333333","25.000975","6500300","中和區"
"235027","006-UY","2018/09/17 13:49:06","新北市中和區連城路315號","121.489338333333","24.996325","6500300","中和區"
"235020","096-UM","2018/09/17 13:48:44","新北市中和區立德街329號","121.48149","25.010515","6500300","中和區"
"235003","097-UM","2018/09/17 13:49:00","新北市中和區立人街65號","121.52004","24.9941866666667","6500300","中和區"
"235029","098-UM","2018/09/17 13:48:47","新北市中和區莊敬路33巷40號","121.500261666667","25.00678","6500300","中和區"
"235004","150-BY","2018/09/17 13:49:02","新北市中和區保健路48巷2號","121.50998","24.9969433333333","6500300","中和區"
"235022","151-BY","2018/09/17 13:49:03","新北市中和區連城路530號","121.475868333333","24.991635","6500300","中和區"
"235019","183-VK","2018/09/17 13:48:48","新北市中和區德光路77巷25號","121.469995","25.00319","6500300","中和區"
"235002","185-VK","2018/09/17 13:49:00","新北市中和區大勇街50號","121.517575","24.99417","6500300","中和區"
"235013","186-VK","2018/09/17 13:49:00","新北市中和區景安路177巷17號","121.506048333333","24.9943433333333","6500300","中和區"
"235008","293-VK","2018/09/17 13:48:44","新北市中和區中興街115巷11號","121.500525","24.992165","6500300","中和區"
"235036","301-VK","2018/09/17 13:48:55","新北市中和區中山路二段173號","121.501205","25.0026083333333","6500300","中和區"
"235007","352-BY","2018/09/17 13:48:57","新北市中和區成功路139號","121.525983333333","24.9902033333333","6500300","中和區"
"235006","KEA-2878","2018/09/17 13:48:55","新北市中和區成功路70號","121.526026666667","24.99194","6500300","中和區"
"235014","4979-A6","2018/09/17 13:49:03","新北市中和區忠孝街62巷9弄8號","121.513196666667","24.9839966666667","6500300","中和區"
"235033","4980-A6","2018/09/17 13:49:04","新北市中和區南山路14號","121.502005","24.99851","6500300","中和區"
"235034","558-UM","2018/09/17 13:48:53","新北市中和區南山路24號","121.502081666667","24.99827","6500300","中和區"
"235009","565-BX","2018/09/17 13:48:45","新北市中和區南山路208巷12號","121.50588","24.9900566666667","6500300","中和區"
"235018","640-BX","2018/09/17 13:48:49","新北市中和區民享街73號","121.474218333333","25.002055","6500300","中和區"
"235011","732-UM","2018/09/17 13:49:04","新北市中和區興南路二段74巷8號","121.505271666667","24.9846483333333","6500300","中和區"
"235010","733-UM","2018/09/17 13:49:01","新北市中和區仁愛街36巷44號","121.511346666667","24.986335","6500300","中和區"
"235035","783-BX","2018/09/17 13:48:57","新北市中和區環河西路三段123號","121.489016666667","25.01067","6500300","中和區"
"235021","801-TS","2018/09/17 13:48:55","新北市中和區民安街38號","121.480068333333","25.0004483333333","6500300","中和區"
"235005","802-TS","2018/09/17 13:49:03","新北市中和區永貞路249巷10號","121.512585","25.0037383333333","6500300","中和區"
"235016","805-TS","2018/09/17 13:49:01","新北市中和區興南路三段12號","121.497758333333","24.9797083333333","6500300","中和區"
"235012","896-TW","2018/09/17 13:48:51","新北市中和區南山路357號","121.505983333333","24.990765","6500300","中和區"
"235017","900-TW","2018/09/17 13:48:48","新北市中和區華福街25號","121.46592","24.9968233333333","6500300","中和區"
"235024","911-UM","2018/09/17 13:48:59","新北市中和區中山路三段148號","121.473613333333","25.00641","6500300","中和區"
"235015","157-BY","2018/09/17 13:48:46","新北市中和區華新街143巷54號","121.50592","24.9798","6500300","中和區"
"235001","AAC-213","2018/09/17 13:48:46","新北市中和區秀朗路三段128巷1弄2號","121.52464","24.99236","6500300","中和區"
"235023","AAC-215","2018/09/17 13:49:03","新北市中和區錦和路408號","121.491165","24.9896466666667","6500300","中和區"
"220013","072-UY","2018/09/17 13:48:51","新北市板橋區縣民大道一段288號","121.461095","25.0103283333333","6500100","板橋區"
"220034","073-UY","2018/09/17 13:48:59","新北市板橋區大智街20號","121.455746666667","25.01494","6500100","板橋區"
"220105","075-UY","2018/09/17 13:48:47","新北市板橋區民生路二段120號","121.47058","25.01958","6500100","板橋區"
"220017","AAD-861","2018/09/17 13:49:04","新北市板橋區大華街11號","121.458991666667","25.006175","6500100","板橋區"
"220039","120-SR","2018/09/17 13:48:53","新北市板橋區民生路二段120號","121.470503333333","25.0198133333333","6500100","板橋區"
"247015","546-UM","2018/09/17 13:48:54","新北市蘆洲區光華路43號","121.468848333333","25.08305","6501400","蘆洲區"
"247005","337-TH","2018/09/17 13:48:57","新北市蘆洲區和平路77號","121.469311666667","25.07904","6501400","蘆洲區"
"247007","336-TH","2018/09/17 13:48:46","新北市蘆洲區重陽街24號","121.480858333333","25.08197","6501400","蘆洲區"
"247019","057-VK","2018/09/17 13:48:43","新北市蘆洲區民族路422巷48弄24號","121.474678333333","25.093145","6501400","蘆洲區"
"247009","056-VK","2018/09/17 13:48:43","新北市蘆洲區中正路520巷30-16號","121.470706666667","25.098225","6501400","蘆洲區"
"247003","002-UY","2018/09/17 13:49:00","新北市蘆洲區長安街108巷9號","121.461336666667","25.0822483333333","6501400","蘆洲區"
"247021","001-UY","2018/09/17 13:48:55","新北市蘆洲區環堤大道365號","121.456183333333","25.0974216666667","6501400","蘆洲區"
"235026","251-BX","2018/09/17 13:48:55","新北市中和區中山路二段312巷12號","121.49539","25.0036416666667","6500300","中和區"
"253003","6232-TK","2018/09/17 13:48:52","新北市石門區尖子鹿8-1號","121.575241666667","25.2799233333333","6502200","石門區"
"253001","6251-TK","2018/09/17 13:48:47","新北市三芝區新庄里新庄子48-11號","121.506553333333","25.2787933333333","6502200","石門區"
"253002","637-UY","2018/09/17 13:48:32","新北市石門區尖山湖3-1號","121.564896666667","25.2419566666667","6502200","石門區"
"253004","8270-PC","2018/09/17 13:48:53","新北市石門區阿里荖47-2號","121.605473333333","25.2788366666667","6502200","石門區"
"207002","749-BX","2018/09/17 13:48:56","新北市萬里區崁腳里崁腳路166號","121.64508","25.1558983333333","6502800","萬里區"
"252005","073-UM","2018/09/17 13:48:43","新北市三芝區圓山里內柑宅27-2號","121.536918333333","25.2215216666667","6502100","三芝區"
"207001","662-BX","2018/09/17 13:48:59","新北市萬里區磺潭里公館崙30號","121.635101666667","25.2110866666667","6502800","萬里區"
"236064","105-UM","2018/09/17 13:48:47","新北市土城區城林路6巷80號","121.438751666667","24.9796933333333","6501300","土城區"
"236040","107-UM","2018/09/17 13:48:59","新北市土城區城林路6巷80號","121.438561666667","24.9797366666667","6501300","土城區"
"236074","166-UM","2018/09/17 13:48:54","新北市土城區城林路6巷80號","121.438551666667","24.9796383333333","6501300","土城區"
"236032","271-VK","2018/09/17 13:48:58","新北市土城區城林路6巷80號","121.438625","24.9797616666667","6501300","土城區"
"236016","401-BY","2018/09/17 13:49:02","新北市土城區城林路6巷80號","121.438526666667","24.9797816666667","6501300","土城區"
"236005","498-BY","2018/09/17 13:48:54","新北市土城區中華路二段123號","121.439053333333","24.9766266666667","6501300","土城區"
"236057","912-UM","2018/09/17 13:49:00","新北市土城區中華路二段92號","121.438273333333","24.9746233333333","6501300","土城區"
"236045","913-UM","2018/09/17 13:48:42","新北市土城區城林路6巷80號","121.438546666667","24.9797866666667","6501300","土城區"
"236060","915-UM","2018/09/17 13:48:47","新北市土城區城林路6巷80號","121.438438333333","24.97977","6501300","土城區"
"221002","269-BY","2018/09/17 13:48:59","新北市汐止區八連路一段317號","121.639593333333","25.086625","6501100","汐止區"
"220027","145-BY","2018/09/17 13:48:57","新北市板橋區大智街71巷9號","121.45301","25.01442","6500100","板橋區"
"220028","200-UY","2018/09/17 13:48:45","新北市板橋區大觀路二段265巷20弄48號","121.44132","24.99804","6500100","板橋區"
"220030","610-BX","2018/09/17 13:48:54","新北市板橋區篤行路三段玉平巷68弄2號","121.427946666667","24.9860866666667","6500100","板橋區"
"220004","276-BY","2018/09/17 13:48:50","新北市板橋區四川路二段23-3號","121.454755","24.9958483333333","6500100","板橋區"
"220020","277-BY","2018/09/17 13:48:42","新北市板橋區金門街19巷2號","121.433878333333","24.9947283333333","6500100","板橋區"
"220019","283-VK","2018/09/17 13:48:53","新北市板橋區忠孝路196巷43號","121.465596666667","25.0017066666667","6500100","板橋區"
"220043","285-UM","2018/09/17 13:49:00","新北市板橋區民生路二段120號","121.470456666667","25.0198183333333","6500100","板橋區"
"220001","285-VK","2018/09/17 13:48:49","新北市板橋區民生路二段89-6號","121.470623333333","25.0190866666667","6500100","板橋區"
"220031","286-VK","2018/09/17 13:48:57","新北市板橋區僑中三街39號","121.4451","25.0046433333333","6500100","板橋區"
"220029","287-VK","2018/09/17 13:48:51","新北市板橋區光華街13巷6號","121.453918333333","25.01151","6500100","板橋區"
"220009","293-UM","2018/09/17 13:48:49","新北市板橋區民生路二段56-6號","121.470803333333","25.018645","6500100","板橋區"
"220046","299-UM","2018/09/17 13:49:02","新北市板橋區民生路二段120號","121.470451666667","25.0196933333333","6500100","板橋區"
"220023","303-R5","2018/09/17 13:48:52","新北市板橋區南雅東路120號","121.453331666667","25.0084066666667","6500100","板橋區"
"220010","305-R5","2018/09/17 13:49:00","新北市板橋區觀光街2-1號","121.472368333333","25.015405","6500100","板橋區"
"220012","486-VK","2018/09/17 13:48:48","新北市板橋區民生路二段36-1號","121.472091666667","25.0167933333333","6500100","板橋區"
"220035","560-BX","2018/09/17 13:45:53","新北市板橋區中正路275巷79弄13號","121.45202","25.0174783333333","6500100","板橋區"
"220052","561-BX","2018/09/17 13:48:59","新北市板橋區民生路二段120號","121.470723333333","25.0197083333333","6500100","板橋區"
"220032","568-UM","2018/09/17 13:49:02","新北市板橋區大觀路二段150巷62號","121.441553333333","25.0006483333333","6500100","板橋區"
"220011","609-BX","2018/09/17 13:48:57","新北市板橋區中山路二段37號","121.473001666667","25.015785","6500100","板橋區"
"220005","686-BX","2018/09/17 13:48:46","新北市板橋區稚暉街1號","121.456015","25.0046566666667","6500100","板橋區"
"220025","687-BX","2018/09/17 13:48:56","新北市板橋區金門街29號","121.433446666667","24.9940166666667","6500100","板橋區"
"220042","689-BX","2018/09/17 13:49:00","新北市板橋區民生路二段161巷1號","121.470011666667","25.0200833333333","6500100","板橋區"
"220002","741-BX","2018/09/17 13:48:45","新北市板橋區館前東路26-4號","121.460433333333","25.0071666666667","6500100","板橋區"
"220051","KEA-2699","2018/09/17 13:48:49","新北市板橋區民生路二段120號","121.470618333333","25.0199616666667","6500100","板橋區"
"220003","827-TW","2018/09/17 13:48:43","新北市板橋區縣民大道一段193號","121.458945","25.0079366666667","6500100","板橋區"
"220014","829-TW","2018/09/17 13:48:55","新北市板橋區民生路二段121號","121.470783333333","25.01848","6500100","板橋區"
"220038","833-TW","2018/09/17 13:48:51","新北市板橋區民生路二段188號","121.47","25.0203566666667","6500100","板橋區"
"220022","895-R6","2018/09/17 13:49:00","新北市板橋區府中路41號","121.45865","25.0090383333333","6500100","板橋區"
"220021","985-R7","2018/09/17 13:49:01","新北市板橋區府中路32號","121.458313333333","25.009615","6500100","板橋區"
"220018","AAC-253","2018/09/17 13:49:02","新北市板橋區四川路一段93號","121.459676666667","25.0054766666667","6500100","板橋區"
"235032","KEA-2873","2018/09/17 13:48:41","新北市中和區圓通路265巷38號","121.496136666667","24.9924733333333","6500300","中和區"
"235025","KEA-2875","2018/09/17 13:48:44","新北市中和區民治街128巷12號","121.474641666667","25.002985","6500300","中和區"
