"lineid","car","time","location","longitude","latitude","cityid","cityname"
"234078","298-R6","2018/09/17 14:39:17","新北市永和區永利路69號","121.519488333333","25.0049383333333","6500400","永和區"
"234062","337-UY","2018/09/17 14:39:20","新北市永和區環河西路二段199號","121.502046666667","25.0111266666667","6500400","永和區"
"234040","862-TW","2018/09/17 14:39:19","新北市永和區永和路一段123巷5號","121.51394","25.0081883333333","6500400","永和區"
"234025","9371-KE","2018/09/17 14:39:24","新北市永和區中和路501巷8號","121.510531666667","25.0026283333333","6500400","永和區"
"248013","025-BX","2018/09/17 14:39:18","新北市五股區五福路42巷7號","121.43416","25.0896333333333","6501500","五股區"
"248007","095-VK","2018/09/17 14:39:30","新北市五股區國道路三段7號","121.46963","25.07514","6501500","五股區"
"248019","225-UY","2018/09/17 14:39:22","新北市五股區凌雲路三段84巷2-10號","121.43027","25.1206716666667","6501500","五股區"
"248011","247-BX","2018/09/17 14:39:30","新北市五股區民義路一段69號","121.435736666667","25.0851183333333","6501500","五股區"
"248015","261-SL","2018/09/17 14:39:29","新北市五股區成泰路四段22巷51號","121.456266666667","25.10961","6501500","五股區"
"248009","272-BY","2018/09/17 14:39:23","新北市五股區登林路74-3號","121.431051666667","25.0694066666667","6501500","五股區"
"248003","677-BX","2018/09/17 14:39:25","新北市五股區成泰路一段239號","121.436888333333","25.0808766666667","6501500","五股區"
"248001","678-BX","2018/09/17 14:39:15","新北市五股區成泰路三段369-2號","121.448878333333","25.0959883333333","6501500","五股區"
"234072","AAC-211","2018/09/17 14:39:29","新北市永和區環河東路二段36號","121.522731666667","25.0124483333333","6500400","永和區"
"234001","AAC-295","2018/09/17 14:39:29","新北市永和區中正路618-1號","121.516996666667","25.00778","6500400","永和區"
"232012","291-BY","2018/09/17 14:39:28","新北市石碇區外按8-1號","121.6521","24.9957916666667","6502000","坪林區"
"244001","248-BX","2018/09/17 14:39:29","新北市林口區竹林路269號","121.389571666667","25.08097","6501700","林口區"
"243005","AAD-798","2018/09/17 14:39:31","新北市泰山區應化街7號","121.423883333333","25.0437516666667","6501600","泰山區"
"243001","297-R6","2018/09/17 14:39:15","新北市泰山區泰林路二段164巷37號","121.434215","25.0613333333333","6501600","泰山區"
"243008","KEA-2801","2018/09/17 14:39:19","新北市泰山區明志路三段518號","121.420841666667","25.0306983333333","6501600","泰山區"
"243007","421-VK","2018/09/17 14:39:35","新北市泰山區明志路二段214巷16弄2號","121.426893333333","25.0490866666667","6501600","泰山區"
"243004","539-UM","2018/09/17 14:39:20","新北市泰山區全興路1-1號","121.432061666667","25.0594583333333","6501600","泰山區"
"243003","KEA-2215","2018/09/17 14:39:30","新北市泰山區明志路三段204巷10弄20號","121.422948333333","25.0388366666667","6501600","泰山區"
"243002","KEA-2216","2018/09/17 14:39:17","新北市泰山區明志路二段136巷48號","121.426121666667","25.0520433333333","6501600","泰山區"
"243006","680-BX","2018/09/17 14:39:28","新北市泰山區泰林路二段33-7號","121.435208333333","25.0564483333333","6501600","泰山區"
"231002","002-UM","2018/09/17 14:39:17","新北市新店區中央路97號","121.53112","24.9750833333333","6500600","新店區"
"231027","0291-UT","2018/09/17 14:39:31","新北市新店區中正路102巷8弄2號","121.543395","24.970975","6500600","新店區"
"231028","046-UY","2018/09/17 14:39:30","新北市新店區安成街27號","121.510006666667","24.96085","6500600","新店區"
"231001","047-UY","2018/09/17 14:39:20","新北市新店區中正路7號","121.54565","24.9693316666667","6500600","新店區"
"231005","106-UY","2018/09/17 14:39:15","新北市新店區順安街69號","121.540796666667","24.9865566666667","6500600","新店區"
"231019","108-UY","2018/09/17 14:39:18","新北市新店區永福路30-1號","121.548608333333","24.92901","6500600","新店區"
"231011","187-VK","2018/09/17 14:39:18","新北市新店區中興路二段236巷5號","121.547915","24.9759716666667","6500600","新店區"
"231023","KEA-2219","2018/09/17 14:39:29","新北市新店區檳榔路21號","121.541571666667","24.9638283333333","6500600","新店區"
"231003","268-BY","2018/09/17 14:39:17","新北市新店區中興路一段281號","121.545345","24.9683333333333","6500600","新店區"
"231018","278-BY","2018/09/17 14:39:02","新北市新店區中央四街29號","121.528651666667","24.9744516666667","6500600","新店區"
"231014","AAD-862","2018/09/17 14:39:35","新北市新店區北宜路三段221號","121.592373333333","24.9533016666667","6500600","新店區"
"231038","3712-VJ","2018/09/17 14:39:19","新北市新店區安康路一段76巷10-1號","121.528728333333","24.9625933333333","6500600","新店區"
"231037","4716-K9","2018/09/17 14:39:15","新北市新店區柴埕路116號","121.505386666667","24.9600733333333","6500600","新店區"
"231036","512-UM","2018/09/17 14:39:24","新北市新店區安祥路109巷104號","121.477655","24.9590766666667","6500600","新店區"
"231013","513-UM","2018/09/17 14:39:16","新北市新店區北新路二段171巷10號","121.542126666667","24.9765216666667","6500600","新店區"
"231006","617-UM","2018/09/17 14:39:33","新北市新店區北宜路二段114號","121.556505","24.95373","6500600","新店區"
"231030","619-UM","2018/09/17 14:39:30","新北市新店區安民街160號","121.516781666667","24.9702966666667","6500600","新店區"
"231034","641-BX","2018/09/17 14:39:28","新北市新店區黎明路51巷4號","121.502125","24.9489283333333","6500600","新店區"
"231039","718-UY","2018/09/17 14:39:21","新北市新店區中興路三段6號","121.546921666667","24.9773266666667","6500600","新店區"
"231035","719-UM","2018/09/17 14:35:39","新北市新店區安康路二段100巷16號","121.513616666667","24.963595","6500600","新店區"
"231029","897-TW","2018/09/17 14:39:30","新北市新店區安康路三段261-1號","121.486773333333","24.9518216666667","6500600","新店區"
"231004","899-TW","2018/09/17 14:39:27","新北市新店區中正路308號","121.537388333333","24.9746233333333","6500600","新店區"
"231024","AKT-0513","2018/09/17 14:39:22","新北市新店區新生街5巷1號","121.540196666667","24.9658866666667","6500600","新店區"
"235030","003-UY","2018/09/17 14:39:24","新北市中和區安和路159號","121.50622","24.9971916666667","6500300","中和區"
"235028","005-UY","2018/09/17 14:39:15","新北市中和區圓通路39號","121.50093","24.99767","6500300","中和區"
"235027","006-UY","2018/09/17 14:39:26","新北市中和區連城路168-2號","121.493641666667","24.9974933333333","6500300","中和區"
"235020","096-UM","2018/09/17 14:39:24","新北市中和區員山路581巷31弄1-13號","121.477876666667","25.0097566666667","6500300","中和區"
"235003","097-UM","2018/09/17 14:39:20","新北市中和區安平路182號","121.512846666667","24.9989516666667","6500300","中和區"
"235029","098-UM","2018/09/17 14:39:27","新北市中和區莊敬路1-6號","121.49947","25.0043533333333","6500300","中和區"
"235004","150-BY","2018/09/17 14:39:21","新北市中和區宜安路11巷2號","121.513071666667","24.9954633333333","6500300","中和區"
"235022","151-BY","2018/09/17 14:39:24","新北市中和區員山路132巷19號","121.482291666667","24.9963283333333","6500300","中和區"
"235019","183-VK","2018/09/17 14:39:28","新北市中和區德光路15巷17號","121.471425","25.0035683333333","6500300","中和區"
"235002","185-VK","2018/09/17 14:39:20","新北市中和區自強路27巷22號","121.521646666667","24.993235","6500300","中和區"
"235013","186-VK","2018/09/17 14:39:20","新北市中和區安平路17號","121.509123333333","24.994185","6500300","中和區"
"235031","255-BX","2018/09/17 14:39:35","新北市中和區新生街220巷37號","121.48235","24.9982333333333","6500300","中和區"
"235008","293-VK","2018/09/17 14:39:24","新北市中和區捷運路1號","121.509743333333","24.9893733333333","6500300","中和區"
"235036","301-VK","2018/09/17 14:39:15","新北市中和區光華街31巷22弄28號","121.50594","25.004445","6500300","中和區"
"235007","352-BY","2018/09/17 14:39:17","新北市中和區南山路167號","121.502775","24.9952716666667","6500300","中和區"
"235006","KEA-2878","2018/09/17 14:39:35","新北市中和區保健路46巷7號","121.509603333333","24.9967566666667","6500300","中和區"
"247011","KEA-2869","2018/09/17 14:39:30","新北市蘆洲區集賢路224巷46弄60-1號","121.480781666667","25.088","6501400","蘆洲區"
"235014","4979-A6","2018/09/17 14:39:23","新北市中和區中正路271號","121.495856666667","24.993745","6500300","中和區"
"235034","558-UM","2018/09/17 14:39:13","新北市中和區景平路666號","121.497401666667","25.0008566666667","6500300","中和區"
"235009","565-BX","2018/09/17 14:39:25","新北市中和區景新街401號","121.51273","24.989805","6500300","中和區"
"235018","640-BX","2018/09/17 14:39:29","新北市中和區莒光路2號","121.471755","25.0046833333333","6500300","中和區"
"235011","732-UM","2018/09/17 14:39:24","新北市中和區南山路283巷10號","121.50463","24.9924166666667","6500300","中和區"
"235010","733-UM","2018/09/17 14:39:19","新北市中和區四維街10號","121.513235","24.9872683333333","6500300","中和區"
"235035","783-BX","2018/09/17 14:39:23","新北市中和區連城路469巷6號","121.483546666667","24.9955","6500300","中和區"
"235021","801-TS","2018/09/17 14:39:30","新北市中和區員山路194號","121.48128","25.0004483333333","6500300","中和區"
"235005","802-TS","2018/09/17 14:39:23","新北市中和區中和路228號","121.506413333333","24.99944","6500300","中和區"
"235016","805-TS","2018/09/17 14:39:21","新北市中和區華新街192巷12號","121.506615","24.9827966666667","6500300","中和區"
"235012","896-TW","2018/09/17 14:39:31","新北市中和區景新街499號","121.514048333333","24.9869983333333","6500300","中和區"
"235017","900-TW","2018/09/17 14:39:28","新北市中和區民德路146巷12號","121.467926666667","25.0004916666667","6500300","中和區"
"235024","911-UM","2018/09/17 14:39:19","新北市中和區中山路二段523巷10弄2號","121.48153","25.0046133333333","6500300","中和區"
"235015","157-BY","2018/09/17 14:39:26","新北市中和區中興街178號","121.49958","24.9908233333333","6500300","中和區"
"235001","AAC-213","2018/09/17 14:39:26","新北市中和區秀朗路三段101號","121.52648","24.9948566666667","6500300","中和區"
"235023","AAC-215","2018/09/17 14:39:25","新北市中和區圓通路266號","121.492738333333","24.99086","6500300","中和區"
"220013","072-UY","2018/09/17 14:39:31","新北市板橋區國泰街104號","121.466706666667","25.0064616666667","6500100","板橋區"
"220034","073-UY","2018/09/17 14:39:33","新北市板橋區林園街1號","121.453871666667","25.00919","6500100","板橋區"
"220105","075-UY","2018/09/17 14:39:29","新北市板橋區民治街24號","121.477788333333","25.0340733333333","6500100","板橋區"
"220017","AAD-861","2018/09/17 14:39:30","新北市板橋區大明街20巷29弄13號","121.458063333333","25.0034733333333","6500100","板橋區"
"220039","120-SR","2018/09/17 14:39:34","新北市板橋區新海路431巷8號","121.457855","25.02723","6500100","板橋區"
"247001","893-R6","2018/09/17 14:39:30","新北市蘆洲區長安街274巷9號","121.457915","25.0870716666667","6501400","蘆洲區"
"247015","546-UM","2018/09/17 14:39:24","新北市蘆洲區正和街26號","121.469771666667","25.0822466666667","6501400","蘆洲區"
"247023","500-BY","2018/09/17 14:39:27","新北市蘆洲區中山二路194號","121.470333333333","25.0803633333333","6501400","蘆洲區"
"247013","339-TH","2018/09/17 14:39:30","新北市蘆洲區中山二路130號","121.471788333333","25.08165","6501400","蘆洲區"
"247005","337-TH","2018/09/17 14:39:16","新北市蘆洲區中華街59號","121.462411666667","25.0808383333333","6501400","蘆洲區"
"247007","336-TH","2018/09/17 14:39:26","新北市蘆洲區成功路46號","121.47322","25.0796366666667","6501400","蘆洲區"
"247019","057-VK","2018/09/17 14:39:23","新北市蘆洲區民權路125號","121.472225","25.0899816666667","6501400","蘆洲區"
"247009","056-VK","2018/09/17 14:39:23","新北市蘆洲區信義路222巷53弄20-1號","121.480925","25.0855233333333","6501400","蘆洲區"
"247017","007-UY","2018/09/17 14:39:27","新北市蘆洲區民族路402號","121.474788333333","25.09148","6501400","蘆洲區"
"247003","002-UY","2018/09/17 14:39:28","新北市蘆洲區長安街285巷16號","121.45762","25.0841916666667","6501400","蘆洲區"
"247021","001-UY","2018/09/17 14:39:34","新北市蘆洲區三民路248號","121.467981666667","25.0899666666667","6501400","蘆洲區"
"235026","251-BX","2018/09/17 14:39:35","新北市中和區中山路二段526巷37號","121.485821666667","25.0060016666667","6500300","中和區"
"253003","6232-TK","2018/09/17 14:39:32","新北市石門區尖子鹿36號","121.581963333333","25.256375","6502200","石門區"
"253001","6251-TK","2018/09/17 14:39:27","新北市石門區八甲12-4號","121.522573333333","25.2817333333333","6502200","石門區"
"253002","637-UY","2018/09/17 14:39:32","新北市石門區七股9-1號","121.547796666667","25.2650966666667","6502200","石門區"
"253004","8270-PC","2018/09/17 14:39:16","新北市石門區草埔尾20-4號","121.603026666667","25.2628183333333","6502200","石門區"
"207002","749-BX","2018/09/17 14:35:36","新北市萬里區溪底里福德坑路2號","121.625406666667","25.1562783333333","6502800","萬里區"
"252005","073-UM","2018/09/17 14:39:23","新北市三芝區埔坪里埔頭坑84號","121.508243333333","25.25429","6502100","三芝區"
"207001","662-BX","2018/09/17 14:39:19","新北市萬里區磺潭里員潭路53-1號","121.644016666667","25.194015","6502800","萬里區"
"236064","105-UM","2018/09/17 14:39:27","新北市土城區永豐路199-1號","121.47216","24.9776483333333","6501300","土城區"
"236040","107-UM","2018/09/17 14:39:19","新北市土城區裕民路57號","121.44892","24.9879716666667","6501300","土城區"
"236074","166-UM","2018/09/17 14:39:34","新北市土城區大暖路10號","121.423448333333","24.9603733333333","6501300","土城區"
"236029","253-BX","2018/09/17 14:39:25","新北市土城區中央路二段233號","121.440275","24.9723916666667","6501300","土城區"
"236024","269-VK","2018/09/17 14:39:32","新北市土城區忠義路47號","121.440533333333","24.9693433333333","6501300","土城區"
"236012","270-VK","2018/09/17 14:39:33","新北市土城區清水路234巷15弄12號","121.462195","24.9817733333333","6501300","土城區"
"236032","271-VK","2018/09/17 14:39:18","新北市土城區明德路一段291巷3號","121.460393333333","24.9770116666667","6501300","土城區"
"236016","401-BY","2018/09/17 14:39:21","新北市土城區明德路一段43號","121.4652","24.98504","6501300","土城區"
"236005","498-BY","2018/09/17 14:39:34","新北市土城區中華路二段2號","121.438825","24.979945","6501300","土城區"
"236057","912-UM","2018/09/17 14:39:20","新北市土城區中央路三段231-1號","121.428721666667","24.964235","6501300","土城區"
"236045","913-UM","2018/09/17 14:39:34","新北市土城區明德路一段71號","121.46559","24.98337","6501300","土城區"
"236060","915-UM","2018/09/17 14:39:27","新北市土城區金城路三段207巷8弄23號","121.470436666667","24.9908316666667","6501300","土城區"
"236054","AAC-216","2018/09/17 14:39:20","新北市土城區中華路一段51號","121.445648333333","24.9883016666667","6501300","土城區"
"239006","891-R6","2018/09/17 14:39:22","新北市鶯歌區中正二路189號","121.340201666667","24.9470216666667","6500800","鶯歌區"
"221002","269-BY","2018/09/17 14:39:19","新北市汐止區長青路188巷1號","121.605615","25.1112966666667","6501100","汐止區"
"220027","145-BY","2018/09/17 14:39:17","新北市板橋區民權路202巷15弄26號","121.45978","25.016245","6500100","板橋區"
"220028","200-UY","2018/09/17 14:39:25","新北市板橋區大觀路二段37巷154號","121.449166666667","25.0012016666667","6500100","板橋區"
"220030","610-BX","2018/09/17 14:39:33","新北市板橋區金門街120-3號","121.432918333333","24.9916716666667","6500100","板橋區"
"220050","245-BX","2018/09/17 14:39:16","新北市板橋區莒光路196巷23號","121.473126666667","25.0224716666667","6500100","板橋區"
"220047","257-TC","2018/09/17 14:39:28","新北市板橋區四維路269巷92號","121.459575","25.0266716666667","6500100","板橋區"
"220040","267-BY","2018/09/17 14:39:31","新北市板橋區懷德街181巷28號","121.480508333333","25.0301533333333","6500100","板橋區"
"220004","276-BY","2018/09/17 14:39:31","新北市板橋區四川路一段485號","121.457356666667","24.9970933333333","6500100","板橋區"
"220020","277-BY","2018/09/17 14:39:30","新北市板橋區金門街215巷85弄5號","121.433883333333","24.9890266666667","6500100","板橋區"
"220019","283-VK","2018/09/17 14:39:34","新北市板橋區信義路279巷11號","121.46219","24.9896033333333","6500100","板橋區"
"220043","285-UM","2018/09/17 14:39:20","新北市板橋區宏國路97-3號","121.469843333333","25.032345","6500100","板橋區"
"220001","285-VK","2018/09/17 14:39:35","新北市板橋區富山街53巷1弄104號","121.477791666667","25.0198966666667","6500100","板橋區"
"220031","286-VK","2018/09/17 14:39:32","新北市板橋區龍興街63巷18號","121.442713333333","25.001505","6500100","板橋區"
"220029","287-VK","2018/09/17 14:39:30","新北市板橋區大觀路一段29巷131弄10號","121.450606666667","25.0051666666667","6500100","板橋區"
"220009","293-UM","2018/09/17 14:39:29","新北市板橋區板新路215號","121.46834","25.015855","6500100","板橋區"
"220046","299-UM","2018/09/17 14:39:28","新北市板橋區漢生西路89巷2弄3號","121.461773333333","25.0194333333333","6500100","板橋區"
"220023","303-R5","2018/09/17 14:39:33","新北市板橋區大勇街20號","121.454325","25.0172166666667","6500100","板橋區"
"220010","305-R5","2018/09/17 14:39:34","新北市板橋區三民路二段81巷19號","121.480243333333","25.0167266666667","6500100","板橋區"
"220041","307-R5","2018/09/17 14:39:30","新北市板橋區自由路51巷24弄2號","121.464635","25.023495","6500100","板橋區"
"220012","486-VK","2018/09/17 14:39:28","新北市板橋區中山路一段90號","121.46202","25.010145","6500100","板橋區"
"220104","560-BX","2018/09/17 14:39:33","新北市板橋區新生街92號","121.458196666667","25.021775","6500100","板橋區"
"220052","561-BX","2018/09/17 14:39:20","新北市板橋區文化路一段280-3號","121.467193333333","25.02155","6500100","板橋區"
"220032","568-UM","2018/09/17 14:39:32","新北市板橋區滿平二街2巷1弄18號","121.425058333333","24.9867583333333","6500100","板橋區"
"220011","609-BX","2018/09/17 14:39:17","新北市板橋區三民路二段228號","121.478761666667","25.011325","6500100","板橋區"
"220005","686-BX","2018/09/17 14:39:26","新北市板橋區國慶路158巷3-3號","121.461971666667","24.995855","6500100","板橋區"
"220025","687-BX","2018/09/17 14:39:32","新北市板橋區僑中二街12巷2號","121.446823333333","25.0107","6500100","板橋區"
"220042","689-BX","2018/09/17 14:39:20","新北市板橋區英士路49號","121.46103","25.0246683333333","6500100","板橋區"
"220002","741-BX","2018/09/17 14:39:25","新北市板橋區忠孝路239巷45號","121.467505","25.003675","6500100","板橋區"
"220051","KEA-2699","2018/09/17 14:39:29","新北市板橋區松柏街50巷26號","121.475938333333","25.0293366666667","6500100","板橋區"
"220003","827-TW","2018/09/17 14:39:30","新北市板橋區國慶路149巷4弄2號","121.461255","24.99675","6500100","板橋區"
"220014","829-TW","2018/09/17 14:39:15","新北市板橋區長安街251巷42號","121.471838333333","25.01145","6500100","板橋區"
"220016","830-TW","2018/09/17 14:39:37","新北市板橋區中山路二段422-4號","121.483253333333","25.0212433333333","6500100","板橋區"
"220045","831-TW","2018/09/17 14:39:31","新北市板橋區莒光路40巷16號","121.470031666667","25.02367","6500100","板橋區"
"220038","833-TW","2018/09/17 14:39:31","新北市板橋區英士路51號","121.460996666667","25.02459","6500100","板橋區"
"220022","895-R6","2018/09/17 14:39:20","新北市板橋區府中路29-2號","121.45858","25.0079516666667","6500100","板橋區"
"220021","985-R7","2018/09/17 14:39:22","新北市板橋區中正路302號","121.454895","25.0207516666667","6500100","板橋區"
"220018","AAC-253","2018/09/17 14:39:33","新北市板橋區民族路173號","121.46851","25.0075166666667","6500100","板橋區"
"235032","KEA-2873","2018/09/17 14:39:11","新北市中和區莊敬路16巷15弄2號","121.50027","25.0036516666667","6500300","中和區"
"235025","KEA-2875","2018/09/17 14:39:26","新北市中和區民樂路17號","121.482275","25.0012383333333","6500300","中和區"
