"lineid","car","time","location","longitude","latitude","cityid","cityname"
"234025","9371-KE","2018/09/17 14:59:24","新北市永和區水源街62號","121.509326666667","25.0040966666667","6500400","永和區"
"248013","025-BX","2018/09/17 14:59:18","新北市五股區成泰路二段226號","121.439788333333","25.0865716666667","6501500","五股區"
"248007","095-VK","2018/09/17 14:59:22","新北市五股區四維路153號","121.467736666667","25.0745716666667","6501500","五股區"
"248019","225-UY","2018/09/17 14:59:22","新北市五股區中直路25號","121.421621666667","25.11384","6501500","五股區"
"248011","247-BX","2018/09/17 14:59:30","新北市五股區五福路103號","121.431818333333","25.09045","6501500","五股區"
"248015","261-SL","2018/09/17 14:59:29","新北市五股區成泰路三段577巷80弄71號","121.44892","25.1048316666667","6501500","五股區"
"248009","272-BY","2018/09/17 14:59:23","新北市五股區成泰路一段7巷4號","121.43336","25.0667","6501500","五股區"
"248003","677-BX","2018/09/17 14:59:25","新北市五股區成泰路一段10-1號","121.43464","25.0672816666667","6501500","五股區"
"248001","678-BX","2018/09/17 14:59:35","新北市五股區成泰路三段39號","121.442083333333","25.088705","6501500","五股區"
"232012","291-BY","2018/09/17 14:59:28","新北市坪林區北宜路八段558號","121.71815","24.9093283333333","6502000","坪林區"
"244001","248-BX","2018/09/17 14:59:29","新北市林口區竹林路267號","121.389573333333","25.08089","6501700","林口區"
"243005","AAD-798","2018/09/17 14:59:31","新北市泰山區明志路二段325號","121.425891666667","25.04505","6501600","泰山區"
"243001","297-R6","2018/09/17 14:59:35","新北市泰山區泰林路二段306巷19號","121.431081666667","25.0636883333333","6501600","泰山區"
"243008","KEA-2801","2018/09/17 14:59:19","新北市泰山區明志路二段341號","121.425541666667","25.0446566666667","6501600","泰山區"
"243007","421-VK","2018/09/17 14:59:14","新北市泰山區仁德路67號","121.434191666667","25.0567583333333","6501600","泰山區"
"243004","539-UM","2018/09/17 14:59:20","新北市泰山區文化街29號","121.434998333333","25.0635933333333","6501600","泰山區"
"243003","KEA-2215","2018/09/17 14:59:30","新北市新莊區壽山路160巷21號","121.417475","25.031945","6501600","泰山區"
"243002","KEA-2216","2018/09/17 14:59:17","新北市泰山區明志路二段237巷26號","121.428013333333","25.0478166666667","6501600","泰山區"
"243006","680-BX","2018/09/17 14:59:28","新北市泰山區泰林路二段395號","121.427178333333","25.064285","6501600","泰山區"
"231002","002-UM","2018/09/17 14:59:17","新北市新店區民權路68號","121.538333333333","24.982975","6500600","新店區"
"231028","046-UY","2018/09/17 14:59:30","新北市新店區安德街173號","121.508746666667","24.9589866666667","6500600","新店區"
"231001","047-UY","2018/09/17 14:59:20","新北市新店區中正路255號","121.538853333333","24.9735383333333","6500600","新店區"
"231005","106-UY","2018/09/17 14:59:15","新北市新店區復興路38號","121.538843333333","24.9867866666667","6500600","新店區"
"231019","108-UY","2018/09/17 14:59:18","新北市新店區永福路54-2號","121.558245","24.9287133333333","6500600","新店區"
"231011","187-VK","2018/09/17 14:59:18","新北市新店區寶橋路85巷5弄3號","121.545978333333","24.97566","6500600","新店區"
"231023","KEA-2219","2018/09/17 14:59:29","新北市新店區檳榔路109號","121.544471666667","24.96176","6500600","新店區"
"231003","268-BY","2018/09/17 14:59:17","新北市新店區中興路一段298號","121.546258333333","24.9694616666667","6500600","新店區"
"231018","278-BY","2018/09/17 14:59:22","新北市新店區中央六街9號","121.530146666667","24.9745933333333","6500600","新店區"
"231014","AAD-862","2018/09/17 14:59:15","新北市新店區銀河路86號","121.580748333333","24.9590366666667","6500600","新店區"
"231038","3712-VJ","2018/09/17 14:59:19","新北市新店區安華路28-1號","121.519778333333","24.9608283333333","6500600","新店區"
"231037","4716-K9","2018/09/17 14:59:15","新北市新店區柴埕路60巷7-2號","121.508775","24.9649366666667","6500600","新店區"
"231025","4715-K9","2018/09/17 14:59:35","新北市新店區大同街24號","121.539185","24.9803283333333","6500600","新店區"
"231036","512-UM","2018/09/17 14:59:24","新北市新店區安祥路106巷171號","121.473853333333","24.9594733333333","6500600","新店區"
"231006","617-UM","2018/09/17 14:59:33","新北市新店區中興路一段136號","121.542098333333","24.9634683333333","6500600","新店區"
"231030","619-UM","2018/09/17 14:59:30","新北市新店區安民街379巷16號","121.515441666667","24.976675","6500600","新店區"
"231034","641-BX","2018/09/17 14:59:28","新北市新店區玫瑰路4-1號","121.493618333333","24.9514216666667","6500600","新店區"
"231039","718-UY","2018/09/17 14:59:22","新北市新店區寶安街30號","121.542061666667","24.9824366666667","6500600","新店區"
"231035","719-UM","2018/09/17 14:59:19","新北市新店區安業街21號","121.51697","24.97767","6500600","新店區"
"231031","720-UM","2018/09/17 14:59:22","新北市新店區安泰路18-1號","121.485548333333","24.9486766666667","6500600","新店區"
"231029","897-TW","2018/09/17 14:59:28","新北市新店區錦秀路36號","121.479171666667","24.94377","6500600","新店區"
"231004","899-TW","2018/09/17 14:59:27","新北市新店區民族路46號","121.540278333333","24.9787233333333","6500600","新店區"
"231024","AKT-0513","2018/09/17 14:59:22","新北市新店區中華路83巷17號","121.538688333333","24.9681683333333","6500600","新店區"
"235030","003-UY","2018/09/17 14:59:24","新北市中和區光華街69號","121.506715","25.0028583333333","6500300","中和區"
"235020","096-UM","2018/09/17 14:59:24","新北市板橋區漢生東路344號","121.471963333333","25.00746","6500300","中和區"
"235003","097-UM","2018/09/17 14:59:20","新北市中和區安樂路143巷38弄1號","121.512831666667","24.9964033333333","6500300","中和區"
"235029","098-UM","2018/09/17 14:59:27","新北市中和區福美路258號","121.498276666667","25.0053466666667","6500300","中和區"
"235004","150-BY","2018/09/17 14:59:21","新北市中和區景安路79巷21號","121.507016666667","24.996765","6500300","中和區"
"235022","151-BY","2018/09/17 14:59:23","新北市中和區員山路127號","121.481026666667","24.995585","6500300","中和區"
"235013","186-VK","2018/09/17 14:59:19","新北市中和區南華路11號","121.502318333333","24.9955366666667","6500300","中和區"
"235031","255-BX","2018/09/17 14:59:15","新北市新店區安康路一段258-2號","121.519938333333","24.965145","6500300","中和區"
"235008","293-VK","2018/09/17 14:59:24","新北市中和區板南路187-1號","121.501003333333","24.9926966666667","6500300","中和區"
"235036","301-VK","2018/09/17 14:59:35","新北市中和區連城路203巷10弄8號","121.494641666667","24.9972583333333","6500300","中和區"
"235007","352-BY","2018/09/17 14:59:28","新北市中和區興南路二段159巷25號","121.505395","24.983","6500300","中和區"
"235014","4979-A6","2018/09/17 14:59:23","新北市中和區景平路239巷1號","121.510003333333","24.9927033333333","6500300","中和區"
"235033","4980-A6","2018/09/17 14:59:25","新北市中和區圓通路82號","121.499911666667","24.9970483333333","6500300","中和區"
"235034","558-UM","2018/09/17 14:59:33","新北市中和區連勝街40號","121.497995","24.9976133333333","6500300","中和區"
"235018","640-BX","2018/09/17 14:59:29","新北市中和區莒光路207-3號","121.470858333333","24.99685","6500300","中和區"
"235010","733-UM","2018/09/17 14:59:19","新北市中和區興南路一段105巷20弄5號","121.510305","24.9855633333333","6500300","中和區"
"235035","783-BX","2018/09/17 14:59:18","新北市中和區建康路39號","121.486626666667","25.0002316666667","6500300","中和區"
"235012","896-TW","2018/09/17 14:59:31","新北市中和區忠孝街1巷2-1號","121.50918","24.98309","6500300","中和區"
"235017","900-TW","2018/09/17 14:59:28","新北市中和區莒光路222-8號","121.468935","24.9948666666667","6500300","中和區"
"235015","157-BY","2018/09/17 14:59:26","新北市中和區景安路220巷20號","121.502761666667","24.991415","6500300","中和區"
"235001","AAC-213","2018/09/17 14:59:26","新北市中和區自立路99巷22弄7號","121.523313333333","24.994245","6500300","中和區"
"235023","AAC-215","2018/09/17 14:59:25","新北市中和區圓通路365號","121.49139","24.98973","6500300","中和區"
"220013","072-UY","2018/09/17 14:59:31","新北市板橋區海山路41號","121.467253333333","25.00974","6500100","板橋區"
"220034","073-UY","2018/09/17 14:59:19","新北市樹林區環河路2號","121.427688333333","24.9786866666667","6500100","板橋區"
"220105","075-UY","2018/09/17 14:59:26","新北市板橋區文聖街11巷25號","121.476031666667","25.0329433333333","6500100","板橋區"
"220017","AAD-861","2018/09/17 14:59:25","新北市板橋區南雅南路二段96號","121.453666666667","25.0012666666667","6500100","板橋區"
"220039","120-SR","2018/09/17 14:59:14","新北市板橋區幸福路32巷4弄5-3號","121.461081666667","25.021425","6500100","板橋區"
"235026","251-BX","2018/09/17 14:59:27","新北市中和區中山路二段321-1號","121.493538333333","25.0020633333333","6500300","中和區"
"253003","6232-TK","2018/09/17 14:59:32","新北市石門區尖子鹿101-2號","121.581298333333","25.2928266666667","6502200","石門區"
"253001","6251-TK","2018/09/17 14:59:27","新北市石門區崁子腳35-2號","121.53994","25.2696683333333","6502200","石門區"
"253002","637-UY","2018/09/17 14:59:32","新北市石門區崁子腳28-2號","121.540151666667","25.288905","6502200","石門區"
"253004","8270-PC","2018/09/17 14:59:28","新北市石門區茂林社區3-1號","121.59207","25.27102","6502200","石門區"
"207002","749-BX","2018/09/17 14:59:27","新北市萬里區崁腳里崁腳路76號","121.64842","25.1596766666667","6502800","萬里區"
"207001","662-BX","2018/09/17 14:59:19","新北市萬里區雙興里太和路30-1號","121.654733333333","25.17839","6502800","萬里區"
"236064","105-UM","2018/09/17 14:59:32","新北市土城區裕生路84巷16號","121.446615","24.98568","6501300","土城區"
"236040","107-UM","2018/09/17 14:59:19","新北市土城區裕民路172號","121.452435","24.98545","6501300","土城區"
"236074","166-UM","2018/09/17 14:59:34","新北市土城區中央路四段69號","121.417573333333","24.9579","6501300","土城區"
"236029","253-BX","2018/09/17 14:59:25","新北市土城區慶利街18號","121.439623333333","24.973695","6501300","土城區"
"236024","269-VK","2018/09/17 14:59:30","新北市土城區中正路56巷2號","121.443918333333","24.97532","6501300","土城區"
"236012","270-VK","2018/09/17 14:59:32","新北市土城區立德路32號","121.463195","24.9874316666667","6501300","土城區"
"236032","271-VK","2018/09/17 14:59:18","新北市土城區清水路145號","121.458376666667","24.9818333333333","6501300","土城區"
"236016","401-BY","2018/09/17 14:59:21","新北市土城區延吉街168巷9號","121.468115","24.985775","6501300","土城區"
"236057","912-UM","2018/09/17 14:59:25","新北市土城區金城路二段246號","121.45695","24.983115","6501300","土城區"
"236045","913-UM","2018/09/17 14:59:23","新北市土城區青雲路316號","121.458976666667","24.97824","6501300","土城區"
"236060","915-UM","2018/09/17 14:59:27","新北市土城區延和路41巷6弄4號","121.466128333333","24.9900516666667","6501300","土城區"
"236054","AAC-216","2018/09/17 14:59:26","新北市土城區裕民路29號","121.448121666667","24.9884433333333","6501300","土城區"
"238010","601-UM","2018/09/17 14:59:37","新北市樹林區育德街78號","121.388416666667","24.968315","6500700","樹林區"
"238018","571-TV","2018/09/17 14:59:33","新北市樹林區育德街78號","121.387825","24.9686533333333","6500700","樹林區"
"238009","KEA-2213","2018/09/17 14:59:33","新北市樹林區育德街78-1號","121.387923333333","24.9680083333333","6500700","樹林區"
"238008","KEA-2539","2018/09/17 14:59:17","新北市樹林區育德街78-1號","121.387978333333","24.9681016666667","6500700","樹林區"
"238001","282-BY","2018/09/17 14:59:32","新北市樹林區育德街78-1號","121.387663333333","24.9681283333333","6500700","樹林區"
"238007","268-VK","2018/09/17 14:59:37","新北市樹林區育德街78-1號","121.387813333333","24.9683016666667","6500700","樹林區"
"221002","269-BY","2018/09/17 14:59:19","新北市汐止區汐萬路一段357號","121.650023333333","25.0776116666667","6501100","汐止區"
"220027","145-BY","2018/09/17 14:59:36","新北市板橋區建國街21號","121.457965","25.0169616666667","6500100","板橋區"
"220028","200-UY","2018/09/17 14:59:25","新北市板橋區大觀路二段163巷23號","121.44667","25.0000583333333","6500100","板橋區"
"220030","610-BX","2018/09/17 14:59:33","新北市板橋區大觀路三段263號","121.429163333333","24.9922383333333","6500100","板橋區"
"220050","245-BX","2018/09/17 14:59:18","新北市板橋區莒光路170號","121.47413","25.0231083333333","6500100","板橋區"
"220040","267-BY","2018/09/17 14:59:30","新北市板橋區文聖街101巷20號","121.478453333333","25.0297183333333","6500100","板橋區"
"220004","276-BY","2018/09/17 14:59:30","新北市板橋區大觀路三段52號","121.432385","24.9959966666667","6500100","板橋區"
"220020","277-BY","2018/09/17 14:59:22","新北市板橋區金門街111-3號","121.433111666667","24.9920516666667","6500100","板橋區"
"220019","283-VK","2018/09/17 14:59:33","新北市板橋區和平路174巷33號","121.465005","24.9943333333333","6500100","板橋區"
"220043","285-UM","2018/09/17 14:59:20","新北市板橋區文德路36號","121.462203333333","25.0242283333333","6500100","板橋區"
"220001","285-VK","2018/09/17 14:59:29","新北市板橋區永豐街40號","121.474311666667","25.0175866666667","6500100","板橋區"
"220031","286-VK","2018/09/17 14:59:17","新北市板橋區僑中二街92巷14號","121.445595","25.0090183333333","6500100","板橋區"
"220029","287-VK","2018/09/17 14:59:30","新北市板橋區僑中一街124巷18弄15號","121.446778333333","25.013715","6500100","板橋區"
"220009","293-UM","2018/09/17 14:59:34","新北市板橋區民生路二段15號","121.472446666667","25.0160233333333","6500100","板橋區"
"220046","299-UM","2018/09/17 14:59:22","新北市板橋區光正街16巷11號","121.463091666667","25.0175466666667","6500100","板橋區"
"220023","303-R5","2018/09/17 14:59:33","新北市板橋區金華街10巷77號","121.458026666667","25.0203933333333","6500100","板橋區"
"220010","305-R5","2018/09/17 14:59:20","新北市板橋區萬安街85巷18號","121.484263333333","25.02542","6500100","板橋區"
"220041","307-R5","2018/09/17 14:59:27","新北市板橋區裕民街130號","121.458868333333","25.02754","6500100","板橋區"
"220012","486-VK","2018/09/17 14:59:28","新北市板橋區區運路11號","121.465386666667","25.0097333333333","6500100","板橋區"
"220104","560-BX","2018/09/17 14:59:33","新北市板橋區新生街39號","121.45688","25.0211","6500100","板橋區"
"220052","561-BX","2018/09/17 14:59:19","新北市板橋區自由路40號","121.46565","25.0232283333333","6500100","板橋區"
"220032","568-UM","2018/09/17 14:59:26","新北市樹林區水源街213號","121.424263333333","24.9871083333333","6500100","板橋區"
"220011","609-BX","2018/09/17 14:59:37","新北市板橋區萬安街92號","121.483903333333","25.023935","6500100","板橋區"
"220005","686-BX","2018/09/17 14:59:26","新北市板橋區信義路19號","121.456945","24.996615","6500100","板橋區"
"220025","687-BX","2018/09/17 14:59:35","新北市板橋區僑中一街108號","121.446441666667","25.0116833333333","6500100","板橋區"
"220042","689-BX","2018/09/17 14:59:33","新北市板橋區長江路二段10號","121.464801666667","25.03111","6500100","板橋區"
"220002","741-BX","2018/09/17 14:59:25","新北市板橋區忠孝路忠義巷17弄10號","121.46621","25.0040333333333","6500100","板橋區"
"220051","KEA-2699","2018/09/17 14:59:29","新北市板橋區仁化街56號","121.475675","25.03154","6500100","板橋區"
"220003","827-TW","2018/09/17 14:59:35","新北市板橋區仁愛路86巷11弄2號","121.461061666667","24.9991916666667","6500100","板橋區"
"220014","829-TW","2018/09/17 14:59:35","新北市板橋區中山路一段206巷2弄14號","121.46964","25.012795","6500100","板橋區"
"220016","830-TW","2018/09/17 14:59:30","新北市板橋區光復街101號","121.483916666667","25.0191266666667","6500100","板橋區"
"220045","831-TW","2018/09/17 14:59:28","新北市板橋區莒光路133巷22號","121.472748333333","25.0245466666667","6500100","板橋區"
"220038","833-TW","2018/09/17 14:59:31","新北市板橋區龍泉街77-4號","121.456626666667","25.0251583333333","6500100","板橋區"
"220022","895-R6","2018/09/17 14:59:19","新北市板橋區府中路53號","121.458508333333","25.00944","6500100","板橋區"
"220021","985-R7","2018/09/17 14:59:35","新北市板橋區南雅西路二段2-1號","121.453288333333","25.0089133333333","6500100","板橋區"
"220018","AAC-253","2018/09/17 14:59:32","新北市板橋區實踐路33-2號","121.463718333333","25.00707","6500100","板橋區"
"235032","KEA-2873","2018/09/17 14:59:11","新北市中和區福祥路85巷2弄2號","121.498835","25.0058683333333","6500300","中和區"
