"lineid","car","time","location","longitude","latitude","cityid","cityname"
"248007","095-VK","2018/09/17 15:08:22","新北市三重區中正北路592號","121.469746666667","25.072005","6501500","五股區"
"248019","225-UY","2018/09/17 15:08:22","新北市五股區凌雲路三段24巷14號","121.434881666667","25.10621","6501500","五股區"
"248015","261-SL","2018/09/17 15:08:29","新北市五股區凌雲路一段158巷20號","121.447981666667","25.1036416666667","6501500","五股區"
"248003","677-BX","2018/09/17 15:08:25","新北市五股區成泰路一段231-11號","121.435416666667","25.0775866666667","6501500","五股區"
"232012","291-BY","2018/09/17 15:08:28","新北市坪林區北宜路八段558號","121.718145","24.909335","6502000","坪林區"
"244001","248-BX","2018/09/17 15:08:29","新北市林口區竹林路265號","121.3896","25.0807816666667","6501700","林口區"
"243001","297-R6","2018/09/17 15:08:26","新北市泰山區泰林路二段542巷3弄4號","121.42335","25.064325","6501600","泰山區"
"243008","KEA-2801","2018/09/17 15:08:19","新北市泰山區明志路二段289號","121.426706666667","25.046835","6501600","泰山區"
"243007","421-VK","2018/09/17 15:08:35","新北市泰山區仁德路69號","121.43416","25.0567366666667","6501600","泰山區"
"243004","539-UM","2018/09/17 15:08:20","新北市泰山區泰林路二段469號","121.425436666667","25.0639916666667","6501600","泰山區"
"243003","KEA-2215","2018/09/17 15:08:31","新北市泰山區貴陽街38號","121.423196666667","25.0324633333333","6501600","泰山區"
"243006","680-BX","2018/09/17 15:08:28","新北市泰山區橫窠雅36號","121.403855","25.0730516666667","6501600","泰山區"
"231002","002-UM","2018/09/17 15:08:17","新北市新店區民權路101號","121.536803333333","24.98292","6500600","新店區"
"231028","046-UY","2018/09/17 15:08:30","新北市新店區僑信路57號","121.499365","24.94925","6500600","新店區"
"231001","047-UY","2018/09/17 15:08:20","新北市新店區中正路257號","121.53885","24.973545","6500600","新店區"
"231005","106-UY","2018/09/17 15:08:15","新北市新店區順安街69號","121.540778333333","24.9865733333333","6500600","新店區"
"231019","108-UY","2018/09/17 15:08:38","新北市新店區永福路54-2號","121.558151666667","24.9286983333333","6500600","新店區"
"231011","187-VK","2018/09/17 15:08:18","新北市新店區中興路三段306號","121.542313333333","24.9854233333333","6500600","新店區"
"231023","KEA-2219","2018/09/17 15:08:29","新北市新店區檳榔路109號","121.54442","24.9616816666667","6500600","新店區"
"231003","268-BY","2018/09/17 15:08:17","新北市新店區中興路二段231-2號","121.547731666667","24.97504","6500600","新店區"
"231018","278-BY","2018/09/17 15:08:22","新北市新店區中央六街84號","121.526755","24.9765383333333","6500600","新店區"
"231014","AAD-862","2018/09/17 15:08:33","新北市新店區明山路28號","121.562711666667","24.9546116666667","6500600","新店區"
"231038","3712-VJ","2018/09/17 15:08:19","新北市新店區安華路28-1號","121.519945","24.9608316666667","6500600","新店區"
"231025","4715-K9","2018/09/17 15:08:35","新北市新店區二十張路46巷37弄21-3號","121.535615","24.9813216666667","6500600","新店區"
"231036","512-UM","2018/09/17 15:08:24","新北市新店區安祥路102巷32號","121.484158333333","24.9639683333333","6500600","新店區"
"231006","617-UM","2018/09/17 15:08:33","新北市新店區新坡一街60號","121.549816666667","24.9632516666667","6500600","新店區"
"231030","619-UM","2018/09/17 15:08:10","新北市新店區安民街341-1號","121.516806666667","24.9749433333333","6500600","新店區"
"231034","641-BX","2018/09/17 15:08:28","新北市新店區玫瑰路4-1號","121.493666666667","24.9514183333333","6500600","新店區"
"231039","718-UY","2018/09/17 15:08:21","新北市新店區中興路三段223號","121.543115","24.9829233333333","6500600","新店區"
"231035","719-UM","2018/09/17 15:08:29","新北市新店區永安街56巷7號","121.518641666667","24.9863116666667","6500600","新店區"
"231031","720-UM","2018/09/17 15:08:22","新北市新店區安泰路60巷134弄46號","121.48413","24.9437666666667","6500600","新店區"
"231029","897-TW","2018/09/17 15:08:28","新北市新店區安康路三段738號","121.473833333333","24.94203","6500600","新店區"
"231004","899-TW","2018/09/17 15:08:27","新北市新店區建國路43號","121.54066","24.97517","6500600","新店區"
"231024","AKT-0513","2018/09/17 15:08:22","新北市新店區中華路42巷20號","121.54072","24.9687466666667","6500600","新店區"
"235030","003-UY","2018/09/17 15:08:24","新北市永和區中山路一段343號","121.505921666667","25.0058766666667","6500300","中和區"
"235029","098-UM","2018/09/17 15:08:27","新北市中和區永和路128巷9號","121.497655","25.0069333333333","6500300","中和區"
"235004","150-BY","2018/09/17 15:08:21","新北市中和區宜安路173號","121.508378333333","24.999325","6500300","中和區"
"235007","352-BY","2018/09/17 15:08:17","新北市中和區興南路二段159巷18號","121.505311666667","24.9830116666667","6500300","中和區"
"235014","4979-A6","2018/09/17 15:08:23","新北市中和區安樂路58號","121.512126666667","24.9932416666667","6500300","中和區"
"235033","4980-A6","2018/09/17 15:08:25","新北市中和區景新街34巷18弄2號","121.50337","24.9986233333333","6500300","中和區"
"235034","558-UM","2018/09/17 15:08:33","新北市中和區圓通路138號","121.498358333333","24.99573","6500300","中和區"
"235018","640-BX","2018/09/17 15:08:29","新北市中和區民享街34號","121.473871666667","25.0031133333333","6500300","中和區"
"235035","783-BX","2018/09/17 15:08:18","新北市中和區建三路7號","121.486273333333","25.0037333333333","6500300","中和區"
"235012","896-TW","2018/09/17 15:08:31","新北市中和區南山路320巷1號","121.507831666667","24.98644","6500300","中和區"
"235001","AAC-213","2018/09/17 15:08:26","新北市中和區自立路14號","121.522166666667","24.996165","6500300","中和區"
"235023","AAC-215","2018/09/17 15:08:25","新北市中和區圓通路335巷37弄2號","121.493843333333","24.9892333333333","6500300","中和區"
"220034","073-UY","2018/09/17 15:08:19","新北市樹林區中山路三段210-2號","121.380813333333","24.96683","6500100","板橋區"
"220017","AAD-861","2018/09/17 15:08:24","新北市板橋區大明街18號","121.458943333333","25.0026116666667","6500100","板橋區"
"253003","6232-TK","2018/09/17 15:08:32","新北市石門區小坑12-1號","121.595456666667","25.2841933333333","6502200","石門區"
"253001","6251-TK","2018/09/17 15:08:13","新北市石門區崁子腳53號","121.536493333333","25.2824766666667","6502200","石門區"
"253002","637-UY","2018/09/17 15:08:32","新北市石門區中央路32號","121.56794","25.2923533333333","6502200","石門區"
"253004","8270-PC","2018/09/17 15:08:28","新北市石門區小坑26-1號","121.595621666667","25.2764483333333","6502200","石門區"
"207002","749-BX","2018/09/17 15:08:16","新北市萬里區崁腳里內中福路66號","121.655328333333","25.1668416666667","6502800","萬里區"
"207001","662-BX","2018/09/17 15:08:19","新北市萬里區雙興里麗水路3-2號","121.652528333333","25.18281","6502800","萬里區"
"236064","105-UM","2018/09/17 15:08:27","新北市土城區中央路一段48號","121.447631666667","24.99017","6501300","土城區"
"236040","107-UM","2018/09/17 15:08:19","新北市土城區裕民路242號","121.453951666667","24.9832683333333","6501300","土城區"
"236074","166-UM","2018/09/17 15:08:34","新北市土城區中州路3巷43號","121.41334","24.9563633333333","6501300","土城區"
"236029","253-BX","2018/09/17 15:08:25","新北市土城區員福街18巷1號","121.441615","24.97921","6501300","土城區"
"236024","269-VK","2018/09/17 15:08:30","新北市土城區中正路1號","121.442311666667","24.9750566666667","6501300","土城區"
"236012","270-VK","2018/09/17 15:08:32","新北市土城區青雲路10號","121.460088333333","24.9890466666667","6501300","土城區"
"236032","271-VK","2018/09/17 15:08:18","新北市土城區仁愛路42號","121.461778333333","24.9793583333333","6501300","土城區"
"236016","401-BY","2018/09/17 15:08:21","新北市土城區延峰街29巷1號","121.469428333333","24.985205","6501300","土城區"
"236057","912-UM","2018/09/17 15:08:20","新北市土城區千歲路3巷6弄30號","121.442098333333","24.9705066666667","6501300","土城區"
"236045","913-UM","2018/09/17 15:08:22","新北市土城區清水路157號","121.458676666667","24.981555","6501300","土城區"
"236060","915-UM","2018/09/17 15:08:27","新北市土城區延平街10號","121.468386666667","24.99083","6501300","土城區"
"236054","AAC-216","2018/09/17 15:08:20","新北市土城區學府路一段197號","121.451936666667","24.9847183333333","6501300","土城區"
"238010","601-UM","2018/09/17 15:08:17","新北市樹林區中山路二段133號","121.406526666667","24.9790483333333","6500700","樹林區"
"238006","599-UM","2018/09/17 15:08:21","新北市樹林區八德街272號","121.411316666667","24.9701733333333","6500700","樹林區"
"238005","571-TV","2018/09/17 15:08:33","新北市樹林區環河路10-1號","121.424526666667","24.9761933333333","6500700","樹林區"
"238009","KEA-2213","2018/09/17 15:08:33","新北市樹林區太平路247巷26號","121.421376666667","24.9742666666667","6500700","樹林區"
"238008","KEA-2539","2018/09/17 15:08:17","新北市樹林區西圳街一段165巷20弄11號","121.395626666667","24.960205","6500700","樹林區"
"238012","303-VK","2018/09/17 15:08:29","新北市樹林區中山路三段111號","121.399431666667","24.974465","6500700","樹林區"
"238004","283-BY","2018/09/17 15:08:23","新北市樹林區中山路三段125-11號","121.398726666667","24.973955","6500700","樹林區"
"238001","282-BY","2018/09/17 15:08:32","新北市樹林區中山路三段107-1號","121.399963333333","24.9747083333333","6500700","樹林區"
"238007","268-VK","2018/09/17 15:08:17","新北市樹林區八德街278號","121.411078333333","24.9701116666667","6500700","樹林區"
"238013","172-UY","2018/09/17 15:08:33","新北市樹林區八德街278號","121.410993333333","24.9701016666667","6500700","樹林區"
"238003","169-UY","2018/09/17 15:08:17","新北市樹林區中山路二段156號","121.412758333333","24.982625","6500700","樹林區"
"220027","145-BY","2018/09/17 15:08:37","新北市板橋區南雅西路二段145巷10號","121.45173","25.011935","6500100","板橋區"
"220028","200-UY","2018/09/17 15:08:25","新北市板橋區大觀路二段179巷25號","121.445943333333","24.9998066666667","6500100","板橋區"
"220030","610-BX","2018/09/17 15:08:34","新北市板橋區篤行路一段37號","121.431975","24.9940033333333","6500100","板橋區"
"220050","245-BX","2018/09/17 15:08:36","新北市板橋區雙十路二段87號","121.4755","25.0268833333333","6500100","板橋區"
"220004","276-BY","2018/09/17 15:08:30","新北市樹林區八德街437-1號","121.405473333333","24.9694266666667","6500100","板橋區"
"220001","285-VK","2018/09/17 15:08:29","新北市板橋區懷仁街97號","121.477633333333","25.0181383333333","6500100","板橋區"
"220031","286-VK","2018/09/17 15:08:37","新北市板橋區僑中二街100巷36號","121.444553333333","25.00873","6500100","板橋區"
"220029","287-VK","2018/09/17 15:08:31","新北市板橋區僑中一街102巷5弄2號","121.44678","25.012675","6500100","板橋區"
"220009","293-UM","2018/09/17 15:08:29","新北市板橋區中山路一段9號","121.460083333333","25.00813","6500100","板橋區"
"220046","299-UM","2018/09/17 15:08:34","新北市板橋區民權路202巷30號","121.460896666667","25.017365","6500100","板橋區"
"220041","307-R5","2018/09/17 15:08:20","新北市板橋區幸福路70巷11號","121.460406666667","25.0203916666667","6500100","板橋區"
"220012","486-VK","2018/09/17 15:08:28","新北市板橋區長安街331巷98號","121.471896666667","25.0127133333333","6500100","板橋區"
"220052","561-BX","2018/09/17 15:08:36","新北市板橋區英士路58巷12號","121.460703333333","25.0253016666667","6500100","板橋區"
"220011","609-BX","2018/09/17 15:08:22","新北市板橋區萬安街27巷22號","121.483825","25.0228083333333","6500100","板橋區"
"220005","686-BX","2018/09/17 15:08:26","新北市板橋區四川路二段243號","121.450586666667","24.9935683333333","6500100","板橋區"
"220025","687-BX","2018/09/17 15:08:35","新北市板橋區僑中一街102巷7弄20號","121.446071666667","25.0131783333333","6500100","板橋區"
"220042","689-BX","2018/09/17 15:08:30","新北市板橋區長江路三段68號","121.473886666667","25.034075","6500100","板橋區"
"220002","741-BX","2018/09/17 15:08:32","新北市板橋區實踐路93巷62號","121.466435","25.00497","6500100","板橋區"
"220051","KEA-2699","2018/09/17 15:08:29","新北市板橋區懷德街76巷11號","121.47762","25.0316916666667","6500100","板橋區"
"220003","827-TW","2018/09/17 15:08:23","新北市板橋區國慶路167巷13號","121.461903333333","24.99707","6500100","板橋區"
"220014","829-TW","2018/09/17 15:08:35","新北市板橋區中山路一段206巷2弄2號","121.470175","25.01329","6500100","板橋區"
"220016","830-TW","2018/09/17 15:08:17","新北市板橋區光復街230號","121.48479","25.0213733333333","6500100","板橋區"
"220038","833-TW","2018/09/17 15:08:31","新北市板橋區新海路385巷32號","121.457475","25.025445","6500100","板橋區"
"220018","AAC-253","2018/09/17 15:08:32","新北市板橋區成都街18號","121.46065","25.004795","6500100","板橋區"
"235032","KEA-2873","2018/09/17 15:08:11","新北市中和區福祥路103號","121.498923333333","25.0063383333333","6500300","中和區"
