"lineid","car","time","location","longitude","latitude","cityid","cityname"
"243012","539-UM","2018/09/17 15:37:44","新北市泰山區犁頭窠3-1號","121.42237","25.0605866666667","6501600","泰山區"
"243014","680-BX","2018/09/17 15:38:47","新北市泰山區犁頭窠3-1號","121.422731666667","25.0603666666667","6501600","泰山區"
"231028","046-UY","2018/09/17 15:38:50","新北市新店區僑義路31號","121.50047","24.9506116666667","6500600","新店區"
"231005","106-UY","2018/09/17 15:38:55","新北市新店區民族路105號","121.538311666667","24.977415","6500600","新店區"
"231046","107-UY","2018/09/17 15:38:52","新北市新店區安一路一段1-1號","121.519643333333","24.9611733333333","6500600","新店區"
"231019","108-UY","2018/09/17 15:38:58","新北市新店區新烏路一段85巷6-6號","121.549731666667","24.9427116666667","6500600","新店區"
"231011","187-VK","2018/09/17 15:38:58","新北市新店區寶元路一段109號","121.545693333333","24.983125","6500600","新店區"
"231023","KEA-2219","2018/09/17 15:38:50","新北市新店區中興路一段283號","121.545308333333","24.9684733333333","6500600","新店區"
"231003","268-BY","2018/09/17 15:38:57","新北市新店區寶橋路97號","121.547435","24.9763183333333","6500600","新店區"
"231018","278-BY","2018/09/17 15:39:02","新北市新店區溪園路87號","121.528858333333","24.9864716666667","6500600","新店區"
"231014","AAD-862","2018/09/17 15:38:55","新北市新店區北宜路二段6號","121.547713333333","24.9518633333333","6500600","新店區"
"231038","3712-VJ","2018/09/17 15:38:59","新北市新店區安和路一段6-6號","121.517266666667","24.9653216666667","6500600","新店區"
"231037","4716-K9","2018/09/17 15:38:55","新北市新店區安興路105號","121.514801666667","24.9779083333333","6500600","新店區"
"231036","512-UM","2018/09/17 15:39:05","新北市新店區安祥路67巷47號","121.484863333333","24.9592883333333","6500600","新店區"
"231013","513-UM","2018/09/17 15:39:07","新北市新店區永業路81巷3弄5號","121.53004","24.9493933333333","6500600","新店區"
"231030","619-UM","2018/09/17 15:38:50","新北市新店區新和街107號","121.521688333333","24.98697","6500600","新店區"
"231034","641-BX","2018/09/17 15:38:48","新北市新店區玫瑰路58巷34號","121.493508333333","24.946855","6500600","新店區"
"231039","718-UY","2018/09/17 15:39:01","新北市新店區寶元路二段11-1號","121.546115","24.9823433333333","6500600","新店區"
"231035","719-UM","2018/09/17 15:38:39","新北市新店區安興路83號","121.515236666667","24.97519","6500600","新店區"
"231031","720-UM","2018/09/17 15:39:02","新北市新店區雙城路137號","121.494445","24.9450016666667","6500600","新店區"
"231029","897-TW","2018/09/17 15:38:48","新北市新店區安康路二段391號","121.494508333333","24.954285","6500600","新店區"
"231004","899-TW","2018/09/17 15:39:07","新北市新店區民族路105號","121.53803","24.9771833333333","6500600","新店區"
"241011","013-R5","2018/09/17 15:38:57","新北市三重區文化北路248號","121.497318333333","25.069965","6500200","三重區"
"241028","022-UY","2018/09/17 15:38:48","新北市三重區重新路四段121號","121.484683333333","25.0518916666667","6500200","三重區"
"241008","059-VK","2018/09/17 15:39:01","新北市三重區重新路四段121號","121.485226666667","25.0523533333333","6500200","三重區"
"241015","062-VK","2018/09/17 15:39:02","新北市三重區重新路四段121號","121.484855","25.052275","6500200","三重區"
"241017","063-VK","2018/09/17 15:39:04","新北市三重區大仁街1號","121.491698333333","25.06339","6500200","三重區"
"241024","065-VK","2018/09/17 15:38:58","新北市三重區成功路110-1號","121.48709","25.0517633333333","6500200","三重區"
"241003","091-VK","2018/09/17 15:39:06","新北市三重區成功路117號","121.487488333333","25.0518","6500200","三重區"
"241005","262-UM","2018/09/17 15:38:31","新北市三重區成功路187號","121.485756666667","25.05308","6500200","三重區"
"241016","266-UM","2018/09/17 15:38:49","新北市三重區重新路四段121號","121.484718333333","25.0524933333333","6500200","三重區"
"241018","268-UM","2018/09/17 15:39:08","新北市三重區重新路四段121號","121.484803333333","25.0527133333333","6500200","三重區"
"241032","269-UM","2018/09/17 15:39:00","新北市三重區重新路四段121號","121.484471666667","25.0521733333333","6500200","三重區"
"241013","270-UM","2018/09/17 15:38:48","新北市三重區正義北路291號","121.49488","25.07048","6500200","三重區"
"241025","271-UM","2018/09/17 15:39:01","新北市三重區重新路四段121號","121.484835","25.0526083333333","6500200","三重區"
"241007","398-BY","2018/09/17 15:39:01","新北市三重區重新路四段121號","121.48511","25.052415","6500200","三重區"
"241004","475-VK","2018/09/17 15:39:00","新北市三重區重新路四段121號","121.485","25.0524966666667","6500200","三重區"
"241014","543-UM","2018/09/17 15:38:51","新北市三重區重新路四段121號","121.48493","25.0526616666667","6500200","三重區"
"241019","KEA-2593","2018/09/17 15:39:01","新北市三重區重新路四段121號","121.484776666667","25.0524516666667","6500200","三重區"
"241006","AAD-863","2018/09/17 15:39:02","新北市三重區重新路四段121號","121.484696666667","25.0524566666667","6500200","三重區"
"241031","743-BX","2018/09/17 15:38:51","新北市三重區重新路四段121號","121.484713333333","25.0523366666667","6500200","三重區"
"241020","887-TS","2018/09/17 15:38:56","新北市三重區忠孝路二段61號","121.484996666667","25.07057","6500200","三重區"
"241012","941-UM","2018/09/17 15:38:53","新北市三重區正義北路137號","121.496965","25.0666383333333","6500200","三重區"
"241029","942-UM","2018/09/17 15:39:00","新北市三重區環河南路220-8號","121.493388333333","25.0527183333333","6500200","三重區"
"241033","AAC-255","2018/09/17 15:39:01","新北市三重區重新路五段326巷25-1號","121.477338333333","25.0457433333333","6500200","三重區"
"235014","4979-A6","2018/09/17 15:39:03","新北市中和區中正路406號","121.492508333333","24.9942183333333","6500300","中和區"
"235033","4980-A6","2018/09/17 15:38:44","新北市中和區新生街195號","121.483863333333","25.0001866666667","6500300","中和區"
"235023","AAC-215","2018/09/17 15:39:05","新北市中和區員山路28-29號","121.48095","24.9868616666667","6500300","中和區"
"227008","642-TC","2018/09/17 15:39:00","新北市雙溪區三貂里政光路3-1號","121.850908333333","25.063105","6502500","雙溪區"
"227001","400-TW","2018/09/17 15:38:46","新北市雙溪區牡丹里中正路72號","121.864208333333","25.0443966666667","6502500","雙溪區"
"253002","637-UY","2018/09/17 15:37:12","新北市石門區小坑9號","121.594535","25.2881816666667","6502200","石門區"
"236064","105-UM","2018/09/17 15:38:46","新北市土城區中央路二段346巷23號","121.439348333333","24.97234","6501300","土城區"
"236074","166-UM","2018/09/17 15:38:34","新北市土城區中央路四段406號","121.41237","24.953775","6501300","土城區"
"236029","253-BX","2018/09/17 15:39:05","新北市土城區中央路一段45巷2弄13號","121.448376666667","24.9899316666667","6501300","土城區"
"236024","269-VK","2018/09/17 15:39:07","新北市土城區明德路二段108號","121.44511","24.9841783333333","6501300","土城區"
"236012","270-VK","2018/09/17 15:38:58","新北市土城區廣明街92號","121.454781666667","24.9942783333333","6501300","土城區"
"236016","401-BY","2018/09/17 15:39:01","新北市土城區延吉街87巷12號","121.472193333333","24.98674","6501300","土城區"
"236057","912-UM","2018/09/17 15:39:00","新北市土城區中央路一段218號","121.444818333333","24.9854283333333","6501300","土城區"
"236045","913-UM","2018/09/17 15:39:02","新北市土城區金城路三段208號","121.471693333333","24.9897933333333","6501300","土城區"
"236054","AAC-216","2018/09/17 15:39:06","新北市土城區學府路一段148號","121.454756666667","24.98702","6501300","土城區"
"242012","173-VK","2018/09/17 15:14:00","新北市新莊區三和路12-21號","121.442233333333","25.0386783333333","6500500","新莊區"
"238002","755-BX","2018/09/17 15:38:49","新北市樹林區日新街102號","121.421301666667","24.9898866666667","6500700","樹林區"
"238010","601-UM","2018/09/17 15:38:56","新北市樹林區福興街10號","121.404133333333","25.016655","6500700","樹林區"
"238006","599-UM","2018/09/17 15:39:01","新北市樹林區八德街11號","121.42009","24.974725","6500700","樹林區"
"238005","571-TV","2018/09/17 15:38:53","新北市樹林區中華路108號","121.418436666667","24.9808516666667","6500700","樹林區"
"238011","5061-A6","2018/09/17 15:38:59","新北市樹林區中山路二段191號","121.404816666667","24.9772266666667","6500700","樹林區"
"238009","KEA-2213","2018/09/17 15:38:53","新北市樹林區中華路185-2號","121.420351666667","24.9817666666667","6500700","樹林區"
"238008","KEA-2539","2018/09/17 15:38:58","新北市樹林區柑園街一段250號","121.391406666667","24.9564483333333","6500700","樹林區"
"238012","303-VK","2018/09/17 15:38:49","新北市樹林區中山路一段249號","121.420436666667","24.9864666666667","6500700","樹林區"
"238004","283-BY","2018/09/17 15:39:03","新北市樹林區保安街二段142號","121.413428333333","25.0042083333333","6500700","樹林區"
"238001","282-BY","2018/09/17 15:38:52","新北市樹林區潭興街89號","121.424593333333","24.9984566666667","6500700","樹林區"
"238007","268-VK","2018/09/17 15:38:57","新北市樹林區俊英街166巷9號","121.427058333333","25.0072366666667","6500700","樹林區"
"238013","172-UY","2018/09/17 15:38:52","新北市樹林區中洲街51巷2號","121.396763333333","24.97111","6500700","樹林區"
"238003","169-UY","2018/09/17 15:38:57","新北市樹林區育英街165巷16號","121.418128333333","24.98901","6500700","樹林區"
"220050","245-BX","2018/09/17 15:38:56","新北市板橋區漢生東路83巷1號","121.466408333333","25.0159666666667","6500100","板橋區"
"220038","833-TW","2018/09/17 15:38:51","新北市板橋區四維路341號","121.462496666667","25.0297216666667","6500100","板橋區"
"220018","AAC-253","2018/09/17 15:38:53","新北市板橋區華東街1-10號","121.448643333333","24.9950233333333","6500100","板橋區"
