"lineid","car","time","location","longitude","latitude","cityid","cityname"
"249005","172-UM","2018/09/17 17:18:41","新北市八里區華富山30-1號","121.418965","25.1298316666667","6502300","八里區"
"249001","173-UM","2018/09/17 17:18:33","新北市八里區中華路二段165巷3號","121.407663333333","25.1508683333333","6502300","八里區"
"249004","303-UY","2018/09/17 17:18:40","新北市八里區賢三街4號","121.418978333333","25.1592","6502300","八里區"
"249002","305-UY","2018/09/17 17:18:33","新北市八里區龍米路二段117巷3號","121.446788333333","25.14296","6502300","八里區"
"249003","593-UM","2018/09/17 17:18:40","新北市八里區中山路二段453-1號","121.396363333333","25.14555","6502300","八里區"
"244023","069-UM","2018/09/17 17:18:28","新北市林口區仁愛路一段667巷12號","121.387165","25.076385","6501700","林口區"
"244007","080-UY","2018/09/17 17:18:31","新北市林口區中華路325號","121.382061666667","25.091945","6501700","林口區"
"244019","403-UM","2018/09/17 17:18:29","新北市林口區文化二路一段350號","121.372965","25.0752966666667","6501700","林口區"
"244013","KEA-2802","2018/09/17 17:18:33","新北市林口區粉寮路二段88巷100-12號","121.409515","25.0902033333333","6501700","林口區"
"244017","485-VK","2018/09/17 17:18:42","新北市林口區粉寮路二段167-1號","121.404506666667","25.08858","6501700","林口區"
"244009","656-BX","2018/09/17 17:18:28","新北市林口區中華路263號","121.384615","25.090325","6501700","林口區"
"244011","657-BX","2018/09/17 17:18:44","新北市林口區粉寮路一段45號","121.396696666667","25.0775333333333","6501700","林口區"
"244025","837-TS","2018/09/17 17:18:30","新北市林口區中山路194號","121.388943333333","25.0789883333333","6501700","林口區"
"244021","838-TS","2018/09/17 17:18:44","新北市林口區粉寮路二段160巷29號","121.405755","25.0914466666667","6501700","林口區"
"231046","107-UY","2018/09/17 17:18:31","新北市新店區直潭路92號","121.530918333333","24.9375733333333","6500600","新店區"
"241011","013-R5","2018/09/17 17:18:37","新北市三重區河邊北街100巷35號","121.502383333333","25.0701866666667","6500200","三重區"
"241028","022-UY","2018/09/17 17:18:28","新北市三重區仁化街42號","121.493686666667","25.05925","6500200","三重區"
"241008","059-VK","2018/09/17 17:18:41","新北市三重區力行路二段136巷27號","121.481088333333","25.075495","6500200","三重區"
"241022","060-VK","2018/09/17 17:18:35","新北市三重區中正北路64巷24號","121.486018333333","25.063675","6500200","三重區"
"241015","062-VK","2018/09/17 17:18:42","新北市三重區福德北路82號","121.50179","25.0662716666667","6500200","三重區"
"241017","063-VK","2018/09/17 17:18:44","新北市三重區大同北路55號","121.495141666667","25.0632083333333","6500200","三重區"
"241024","065-VK","2018/09/17 17:18:38","新北市三重區中正北路193巷11弄7號","121.477601666667","25.07031","6500200","三重區"
"241026","066-VK","2018/09/17 17:18:38","新北市三重區福裕街25號","121.499415","25.0616233333333","6500200","三重區"
"241002","090-VK","2018/09/17 17:18:39","新北市三重區自強路五段66-1號","121.495871666667","25.0826666666667","6500200","三重區"
"241003","091-VK","2018/09/17 17:18:46","新北市三重區五華街123號","121.491506666667","25.08418","6500200","三重區"
"251014","742-BX","2018/09/17 17:18:11","新北市淡水區公埔子43號","121.463688333333","25.22991","6501000","淡水區"
"241005","262-UM","2018/09/17 17:18:31","新北市三重區仁華街22號","121.48334","25.08186","6500200","三重區"
"241016","266-UM","2018/09/17 17:18:29","新北市三重區大同北路54巷1號","121.494161666667","25.0635533333333","6500200","三重區"
"241009","267-UM","2018/09/17 17:18:39","新北市三重區仁愛街618號","121.483556666667","25.0806583333333","6500200","三重區"
"241018","268-UM","2018/09/17 17:18:28","新北市三重區安慶街109號","121.495181666667","25.0690066666667","6500200","三重區"
"241032","269-UM","2018/09/17 17:18:39","新北市三重區中華路24號","121.483211666667","25.0608433333333","6500200","三重區"
"241013","270-UM","2018/09/17 17:18:28","新北市三重區仁福街26號","121.496735","25.074575","6500200","三重區"
"241025","271-UM","2018/09/17 17:18:41","新北市三重區中正北路443號","121.469898333333","25.0722583333333","6500200","三重區"
"241007","398-BY","2018/09/17 17:18:41","新北市三重區三和路四段155巷33號","121.485","25.0786966666667","6500200","三重區"
"241004","475-VK","2018/09/17 17:18:40","新北市三重區仁愛街425巷60號","121.491585","25.0825166666667","6500200","三重區"
"241030","480-VK","2018/09/17 17:18:32","新北市三重區成功路73巷24號","121.489481666667","25.05203","6500200","三重區"
"241014","543-UM","2018/09/17 17:18:31","新北市三重區三和路二段83號","121.500106666667","25.0684316666667","6500200","三重區"
"241023","545-UM","2018/09/17 17:18:46","新北市三重區三民街195號","121.482133333333","25.0657216666667","6500200","三重區"
"241019","KEA-2593","2018/09/17 17:18:41","新北市三重區三張街171號","121.485706666667","25.06934","6500200","三重區"
"241031","743-BX","2018/09/17 17:18:31","新北市三重區新北大道一段6號","121.489005","25.061425","6500200","三重區"
"241020","887-TS","2018/09/17 17:18:36","新北市三重區忠孝路一段157號","121.487865","25.0721183333333","6500200","三重區"
"241012","941-UM","2018/09/17 17:18:34","新北市三重區河邊北街256巷21號","121.50091","25.0759566666667","6500200","三重區"
"241033","AAC-255","2018/09/17 17:18:41","新北市三重區中興北街195號","121.468998333333","25.0573683333333","6500200","三重區"
"247012","KEA-2869","2018/09/17 17:18:37","新北市蘆洲區信義路321號","121.478158333333","25.0863466666667","6501400","蘆洲區"
"247002","893-R6","2018/09/17 17:18:40","新北市蘆洲區永樂街38巷37號","121.458185","25.0895166666667","6501400","蘆洲區"
"247016","546-UM","2018/09/17 17:18:38","新北市蘆洲區正和街102號","121.467958333333","25.0808933333333","6501400","蘆洲區"
"247024","500-BY","2018/09/17 17:18:38","新北市蘆洲區長榮路130號","121.461498333333","25.0844183333333","6501400","蘆洲區"
"247014","339-TH","2018/09/17 17:18:46","新北市蘆洲區中正路54號","121.470768333333","25.0828666666667","6501400","蘆洲區"
"247006","337-TH","2018/09/17 17:18:42","新北市蘆洲區長安街49巷8弄2號","121.462668333333","25.0789083333333","6501400","蘆洲區"
"247008","336-TH","2018/09/17 17:18:40","新北市蘆洲區信義路30巷135號","121.475328333333","25.0766533333333","6501400","蘆洲區"
"247020","057-VK","2018/09/17 17:18:31","新北市蘆洲區民族路426號","121.473696666667","25.09184","6501400","蘆洲區"
"247010","056-VK","2018/09/17 17:18:31","新北市蘆洲區中山一路120巷7弄1號","121.477333333333","25.08187","6501400","蘆洲區"
"247018","007-UY","2018/09/17 17:18:37","新北市蘆洲區民權路96巷3弄2號","121.474643333333","25.0884883333333","6501400","蘆洲區"
"247004","002-UY","2018/09/17 17:18:28","新北市蘆洲區中原路64號","121.458648333333","25.0821333333333","6501400","蘆洲區"
"247022","001-UY","2018/09/17 17:18:41","新北市蘆洲區三民路128巷47號","121.469828333333","25.0898766666667","6501400","蘆洲區"
"228003","097-TW","2018/09/17 17:18:26","新北市貢寮區福隆里東興街66號","121.94804","25.0175966666667","6502600","貢寮區"
"228002","663-BX","2018/09/17 17:18:41","新北市貢寮區雙玉里下雙溪街26號","121.923973333333","25.0101266666667","6502600","貢寮區"
"228001","670-TC","2018/09/17 17:18:42","新北市貢寮區仁理村尖山腳街18-3號","121.92546","25.04835","6502600","貢寮區"
"224006","676-BX","2018/09/17 17:18:40","新北市瑞芳區傑魚坑路263號","121.787186666667","25.1060083333333","6501200","瑞芳區"
"224008","285-BY","2018/09/17 17:18:30","新北市瑞芳區侯硐路48號","121.82579","25.082975","6501200","瑞芳區"
"224009","273-VK","2018/09/17 17:18:36","新北市瑞芳區汽車路149號","121.838511666667","25.1098483333333","6501200","瑞芳區"
"224005","271-BY","2018/09/17 17:18:43","新北市瑞芳區鼻頭路247號","121.912681666667","25.12394","6501200","瑞芳區"
"227008","642-TC","2018/09/17 17:18:39","新北市雙溪區三貂里定福路1-6號","121.84944","25.0634666666667","6502500","雙溪區"
"227001","400-TW","2018/09/17 17:18:46","新北市雙溪區上林里內平林90號","121.827551666667","25.0274783333333","6502500","雙溪區"
"251004","009-UM","2018/09/17 17:18:30","新北市淡水區中正東路二段48巷20號","121.457091666667","25.15855","6501000","淡水區"
"251005","010-UM","2018/09/17 17:18:41","新北市淡水區鄧公路19-1號","121.450321666667","25.169935","6501000","淡水區"
"251013","KEA-2871","2018/09/17 17:18:43","新北市淡水區大竹圍1-1號","121.470411666667","25.1960233333333","6501000","淡水區"
"251016","179-VK","2018/09/17 17:18:32","新北市淡水區鄒厝崙13號","121.462063333333","25.190575","6501000","淡水區"
"251015","180-VK","2018/09/17 17:18:28","新北市淡水區三空泉21-5號","121.468808333333","25.1672466666667","6501000","淡水區"
"251008","181-VK","2018/09/17 17:18:46","新北市淡水區大同路283號","121.46789","25.1424733333333","6501000","淡水區"
"251010","413-VK","2018/09/17 17:18:35","新北市淡水區沙崙路198號","121.424478333333","25.1838016666667","6501000","淡水區"
"251012","441-VK","2018/09/17 17:18:43","新北市淡水區中山北路一段156號","121.44418","25.17794","6501000","淡水區"
"251007","442-VK","2018/09/17 17:18:41","新北市淡水區民生路56號","121.462043333333","25.13793","6501000","淡水區"
"251006","561-UM","2018/09/17 17:18:42","新北市淡水區新生街29號","121.439463333333","25.175035","6501000","淡水區"
"251009","575-R6","2018/09/17 17:18:27","新北市淡水區三民街17號","121.43899","25.1718","6501000","淡水區"
"251011","650-BX","2018/09/17 17:18:14","新北市淡水區坪頂路111號","121.4645","25.1616333333333","6501000","淡水區"
"251002","672-BX","2018/09/17 17:18:40","新北市淡水區中正路二段31號","121.41961","25.18184","6501000","淡水區"
"251003","673-BX","2018/09/17 17:18:26","新北市淡水區中正路二段31號","121.419451666667","25.181475","6501000","淡水區"
"207003","550-UM","2018/09/17 17:18:27","新北市萬里區萬里里獅頭路23號","121.693298333333","25.1782816666667","6502800","萬里區"
"252002","178-VK","2018/09/17 17:18:40","新北市三芝區忠孝街1-14號","121.505608333333","25.2539983333333","6502100","三芝區"
"252001","292-VK","2018/09/17 17:18:35","新北市三芝區長安街119號","121.498061666667","25.2596433333333","6502100","三芝區"
"237012","275-BY","2018/09/17 17:18:31","新北市三峽區中山路459巷137號","121.349978333333","24.9339066666667","6500900","三峽區"
"242036","AAC-296","2018/09/17 17:18:42","新北市新莊區新泰路357巷3弄41號","121.441795","25.0403216666667","6500500","新莊區"
"242058","986-R7","2018/09/17 17:18:28","新北市泰山區磚雅厝3號","121.442256666667","25.04165","6500500","新莊區"
"242056","751-BX","2018/09/17 17:18:41","新北市新莊區新莊路767號","121.44238","25.0325516666667","6500500","新莊區"
"242027","615-BX","2018/09/17 17:18:43","新北市新莊區中港一街26號","121.451203333333","25.0455966666667","6500500","新莊區"
"242029","612-BX","2018/09/17 17:18:27","新北市新莊區幸福路566號","121.454415","25.0493783333333","6500500","新莊區"
"242044","566-BX","2018/09/17 17:18:30","新北市新莊區福營路321號","121.425966666667","25.028855","6500500","新莊區"
"242048","497-BY","2018/09/17 17:18:44","新北市新莊區福營路591-1號","121.419581666667","25.0228933333333","6500500","新莊區"
"242053","442-UM","2018/09/17 17:18:38","新北市新莊區環河路636-7號","121.43669","25.0108333333333","6500500","新莊區"
"242002","440-UM","2018/09/17 17:18:38","新北市新莊區中正路471號","121.441968333333","25.0340466666667","6500500","新莊區"
"242039","415-TV","2018/09/17 17:18:29","新北市新莊區民安路289-1號","121.429171666667","25.02236","6500500","新莊區"
"242009","413-TV","2018/09/17 17:18:34","新北市新莊區中原路662號","121.442513333333","25.0541183333333","6500500","新莊區"
"242046","400-BY","2018/09/17 17:18:39","新北市新莊區中正路400號","121.442011666667","25.0342166666667","6500500","新莊區"
"242023","362-BY","2018/09/17 17:18:27","新北市新莊區中港一街64號","121.45009","25.0454466666667","6500500","新莊區"
"242060","353-BY","2018/09/17 17:18:27","新北市新莊區瓊林南路317-1號","121.43341","25.0052016666667","6500500","新莊區"
"242042","133-UY","2018/09/17 17:18:31","新北市新莊區中正路384號","121.442015","25.034745","6500500","新莊區"
"242034","135-UY","2018/09/17 17:18:30","新北市新莊區中正路384號","121.441988333333","25.0348516666667","6500500","新莊區"
"242050","172-VK","2018/09/17 17:18:35","新北市新莊區新樹路321號","121.433381666667","25.01897","6500500","新莊區"
"242019","175-VK","2018/09/17 17:18:31","新北市新莊區中平路82巷6號","121.445028333333","25.0448316666667","6500500","新莊區"
"242007","176-VK","2018/09/17 17:18:42","新北市新莊區中華路二段20-2號","121.453188333333","25.044555","6500500","新莊區"
"242004","347-TH","2018/09/17 17:18:38","新北市新莊區復興路一段139號","121.450121666667","25.0432083333333","6500500","新莊區"
"242031","348-TH","2018/09/17 17:18:38","新北市新莊區新泰路421-1號","121.44314","25.044795","6500500","新莊區"
"242021","350-TH","2018/09/17 17:18:38","新北市新莊區中港路五守新村1巷15號","121.455256666667","25.0379016666667","6500500","新莊區"
"242015","351-TH","2018/09/17 17:18:37","新北市新莊區新泰路347巷2號","121.444251666667","25.0421","6500500","新莊區"
"238019","599-UM","2018/09/17 17:18:41","新北市樹林區太平路273巷23號","121.42108","24.9761383333333","6500700","樹林區"
"238018","571-TV","2018/09/17 17:18:26","新北市樹林區樹中街13號","121.420773333333","24.98594","6500700","樹林區"
"238024","5061-A6","2018/09/17 17:18:43","新北市樹林區樹新路79巷11號","121.427073333333","24.99564","6500700","樹林區"
"238009","KEA-2213","2018/09/17 17:18:33","新北市樹林區忠孝街15號","121.42341","24.982665","6500700","樹林區"
"238021","KEA-2539","2018/09/17 17:18:41","新北市樹林區西圳街一段159號","121.395736666667","24.96268","6500700","樹林區"
"238025","303-VK","2018/09/17 17:18:41","新北市樹林區保安街一段29號","121.42473","24.994355","6500700","樹林區"
"238017","283-BY","2018/09/17 17:18:43","新北市樹林區中正路246號","121.41776","25.0072416666667","6500700","樹林區"
"238014","282-BY","2018/09/17 17:18:32","新北市樹林區長壽街70巷3號","121.421628333333","24.9944333333333","6500700","樹林區"
"238020","268-VK","2018/09/17 17:18:37","新北市樹林區中山路三段206-1號","121.384248333333","24.96716","6500700","樹林區"
"238026","172-UY","2018/09/17 17:18:32","新北市樹林區東大街174號","121.409158333333","24.976185","6500700","樹林區"
"238016","169-UY","2018/09/17 17:18:37","新北市樹林區中山路一段135-4號","121.422426666667","24.9898366666667","6500700","樹林區"
"239007","AAC-297","2018/09/17 17:18:38","新北市鶯歌區光復街46號","121.351295","24.9558283333333","6500800","鶯歌區"
"239006","891-R6","2018/09/17 17:18:40","新北市鶯歌區福昌街12號","121.333165","24.9608533333333","6500800","鶯歌區"
"239008","527-UM","2018/09/17 17:18:37","新北市鶯歌區西湖街曾厝巷19號","121.339468333333","24.9611566666667","6500800","鶯歌區"
"239005","526-UM","2018/09/17 17:18:42","新北市鶯歌區福德三街12號","121.329703333333","24.9676483333333","6500800","鶯歌區"
"239001","417-VK","2018/09/17 17:18:39","新北市鶯歌區尖山路191巷49號","121.344826666667","24.9464216666667","6500800","鶯歌區"
"239003","360-BY","2018/09/17 17:18:46","新北市鶯歌區德昌二街72號","121.33258","24.958185","6500800","鶯歌區"
"239002","359-BY","2018/09/17 17:18:41","新北市鶯歌區建國路236號","121.348155","24.953505","6500800","鶯歌區"
"239004","193-VK","2018/09/17 17:18:32","新北市鶯歌區文化路254-1號","121.35286","24.9478366666667","6500800","鶯歌區"
"242017","281-VK","2018/09/17 17:18:29","新北市新莊區中平路92巷2號","121.444875","25.045545","6500500","新莊區"
"235061","KEA-2875","2018/09/17 17:13:09","新北市中和區員山路36巷16-2號","121.485335","24.9915733333333","6500300","中和區"
