"lineid","car","time","location","longitude","latitude","cityid","cityname"
"234026","9371-KE","2018/09/17 17:58:46","新北市永和區永和路一段45號","121.512845","25.00632","6500400","永和區"
"249005","172-UM","2018/09/17 17:58:41","新北市八里區荖阡坑路22-6號","121.399095","25.1356333333333","6502300","八里區"
"249001","173-UM","2018/09/17 17:58:33","新北市八里區龍米路二段35號","121.448488333333","25.140045","6502300","八里區"
"249004","303-UY","2018/09/17 17:58:43","新北市八里區忠六街1號","121.422718333333","25.1589666666667","6502300","八里區"
"249002","305-UY","2018/09/17 17:58:33","新北市八里區龍形五街15號","121.44998","25.13354","6502300","八里區"
"249003","593-UM","2018/09/17 17:58:40","新北市八里區中山路一段452號","121.410373333333","25.1571633333333","6502300","八里區"
"248014","025-BX","2018/09/17 17:58:11","新北市五股區更洲路47-1號","121.45669","25.079175","6501500","五股區"
"248006","077-UY","2018/09/17 17:58:40","新北市五股區中興路二段83巷26-6號","121.460018333333","25.075315","6501500","五股區"
"248008","095-VK","2018/09/17 17:58:43","新北市五股區中興路二段83巷26-6號","121.459843333333","25.075265","6501500","五股區"
"248018","225-UY","2018/09/17 17:58:41","新北市五股區中興路二段83巷26-6號","121.460043333333","25.0753016666667","6501500","五股區"
"248015","261-SL","2018/09/17 17:58:42","新北市五股區中興路二段103巷14號","121.458418333333","25.0763483333333","6501500","五股區"
"248004","677-BX","2018/09/17 17:58:45","新北市五股區中興路二段161號","121.457908333333","25.0770583333333","6501500","五股區"
"248002","678-BX","2018/09/17 17:58:33","新北市五股區中興路二段83巷26-6號","121.459935","25.0748866666667","6501500","五股區"
"232011","375-UM","2018/09/17 17:58:29","新北市坪林區水柳腳16號","121.710813333333","24.9345933333333","6502000","坪林區"
"244023","069-UM","2018/09/17 17:58:47","新北市林口區育林街30號","121.385856666667","25.0737533333333","6501700","林口區"
"244007","080-UY","2018/09/17 17:58:31","新北市林口區竹林路276巷1號","121.389988333333","25.0815466666667","6501700","林口區"
"244019","403-UM","2018/09/17 17:58:29","新北市林口區文化一路一段126號","121.37534","25.0725366666667","6501700","林口區"
"244013","KEA-2802","2018/09/17 17:58:34","新北市林口區中山路67號","121.393713333333","25.078465","6501700","林口區"
"244017","485-VK","2018/09/17 17:58:42","新北市林口區忠孝路476號","121.370091666667","25.0705516666667","6501700","林口區"
"244009","656-BX","2018/09/17 17:58:49","新北市林口區竹林路606巷34號","121.385113333333","25.083095","6501700","林口區"
"244011","657-BX","2018/09/17 17:58:44","新北市林口區中正路78號","121.394636666667","25.0773816666667","6501700","林口區"
"244025","837-TS","2018/09/17 17:58:30","新北市林口區文化三路一段41-1號","121.361285","25.0674433333333","6501700","林口區"
"244021","838-TS","2018/09/17 17:58:44","新北市林口區仁愛路一段61巷29號","121.397036666667","25.0696583333333","6501700","林口區"
"243015","421-VK","2018/09/17 17:57:05","新北市泰山區黎明路23-1號","121.421801666667","25.06142","6501600","泰山區"
"243012","539-UM","2018/09/17 17:53:23","新北市泰山區黎明路23-1號","121.421533333333","25.0611233333333","6501600","泰山區"
"222003","436-BY","2018/09/17 17:58:30","新北市深坑區炮子崙9號","121.604331666667","24.986075","6501800","深坑區"
"222002","659-BX","2018/09/17 17:58:29","新北市深坑區深坑街35號","121.61603","25.0018683333333","6501800","深坑區"
"231046","107-UY","2018/09/17 17:58:31","新北市新店區康雅崙路20號","121.534973333333","24.9266883333333","6500600","新店區"
"221015","KEA-2785","2018/09/17 17:58:41","新北市汐止區長江街309號","121.666043333333","25.0814383333333","6501100","汐止區"
"231058","3713-VJ","2018/09/17 17:58:36","新北市新店區安華路28-1號","121.519268333333","24.9607516666667","6500600","新店區"
"231055","AKT-0513","2018/09/17 17:58:33","新北市新店區安華路28-1號","121.519596666667","24.9605316666667","6500600","新店區"
"251014","742-BX","2018/09/17 17:58:30","新北市淡水區公埔子16-6號","121.480991666667","25.2245933333333","6501000","淡水區"
"241005","262-UM","2018/09/17 17:58:31","新北市三重區五華街141巷60號","121.493521666667","25.0868083333333","6500200","三重區"
"241016","266-UM","2018/09/17 17:58:29","新北市三重區新北大道一段148號","121.484373333333","25.0616416666667","6500200","三重區"
"241032","269-UM","2018/09/17 17:58:39","新北市八里區中山路三段385號","121.372068333333","25.1375366666667","6500200","三重區"
"241024","462-BY","2018/09/17 17:58:42","新北市三重區車路頭街70號","121.484278333333","25.0731066666667","6500200","三重區"
"241033","AAC-255","2018/09/17 17:58:41","新北市三重區重新路五段646號","121.468285","25.0439116666667","6500200","三重區"
"235064","005-UY","2018/09/17 17:58:45","新北市中和區員山路36巷16-3號","121.485018333333","24.991415","6500300","中和區"
"235063","006-UY","2018/09/17 17:58:29","新北市中和區員山路36巷16-3號","121.485108333333","24.99145","6500300","中和區"
"235065","098-UM","2018/09/17 17:58:35","新北市中和區中山路二段492號","121.487013333333","25.004905","6500300","中和區"
"235058","151-BY","2018/09/17 17:58:28","新北市中和區錦和路350-1號","121.49051","24.99356","6500300","中和區"
"235038","185-VK","2018/09/17 17:58:44","新北市中和區中正路464號","121.490113333333","24.9939933333333","6500300","中和區"
"247012","KEA-2869","2018/09/17 17:58:37","新北市蘆洲區信義路302巷21號","121.478113333333","25.0884483333333","6501400","蘆洲區"
"235070","558-UM","2018/09/17 17:58:33","新北市中和區中正路637巷60弄61號","121.485415","24.992535","6500300","中和區"
"235054","640-BX","2018/09/17 17:58:33","新北市中和區員山路36巷16-2號","121.48496","24.9919366666667","6500300","中和區"
"235057","801-TS","2018/09/17 17:58:35","新北市中和區員山路36巷16-2號","121.485186666667","24.99152","6500300","中和區"
"235053","900-TW","2018/09/17 17:58:43","新北市中和區員山路36巷16-4號","121.485246666667","24.991985","6500300","中和區"
"235051","157-BY","2018/09/17 17:58:31","新北市中和區員山路36巷13號","121.48425","24.9907433333333","6500300","中和區"
"235037","AAC-213","2018/09/17 17:58:34","新北市中和區中正路271號","121.495811666667","24.99376","6500300","中和區"
"235059","AAC-215","2018/09/17 17:58:28","新北市中和區員山路36巷16-3號","121.48511","24.9914433333333","6500300","中和區"
"247002","893-R6","2018/09/17 17:58:43","新北市蘆洲區永平街32巷57弄27號","121.458801666667","25.093245","6501400","蘆洲區"
"247016","546-UM","2018/09/17 17:58:38","新北市蘆洲區中正路185巷78弄17號","121.465725","25.084805","6501400","蘆洲區"
"247024","500-BY","2018/09/17 17:58:37","新北市蘆洲區光復路39-2號","121.462696666667","25.0849783333333","6501400","蘆洲區"
"247014","339-TH","2018/09/17 17:58:26","新北市蘆洲區忠孝路66號","121.471578333333","25.0852983333333","6501400","蘆洲區"
"247006","337-TH","2018/09/17 17:58:42","新北市蘆洲區長榮路55號","121.462588333333","25.08324","6501400","蘆洲區"
"247010","056-VK","2018/09/17 17:58:35","新北市蘆洲區信義路271巷12號","121.478355","25.0849016666667","6501400","蘆洲區"
"247018","007-UY","2018/09/17 17:58:37","新北市蘆洲區復興路294號","121.480981666667","25.0899633333333","6501400","蘆洲區"
"228003","097-TW","2018/09/17 17:58:26","新北市貢寮區真理里美艷山街3-1號","121.9259","25.0594583333333","6502600","貢寮區"
"228002","663-BX","2018/09/17 17:58:41","新北市貢寮區福連里香蘭街5號","121.973066666667","25.02444","6502600","貢寮區"
"228001","670-TC","2018/09/17 17:58:42","新北市貢寮區真理里新港街26巷31號","121.929175","25.054725","6502600","貢寮區"
"224006","676-BX","2018/09/17 17:58:29","新北市瑞芳區大寮路356-1號","121.785081666667","25.10323","6501200","瑞芳區"
"224002","639-TC","2018/09/17 17:58:32","新北市瑞芳區三爪子坑路34號","121.810431666667","25.1061216666667","6501200","瑞芳區"
"224008","285-BY","2018/09/17 17:58:30","新北市瑞芳區明燈路一段65號","121.820378333333","25.1068033333333","6501200","瑞芳區"
"224009","273-VK","2018/09/17 17:58:36","新北市瑞芳區山尖路2號","121.85477","25.1160816666667","6501200","瑞芳區"
"224005","271-BY","2018/09/17 17:58:43","新北市瑞芳區弘祥新村36號","121.817876666667","25.1285283333333","6501200","瑞芳區"
"227008","642-TC","2018/09/17 17:58:39","新北市雙溪區三貂里定福路1-2號","121.850803333333","25.0634516666667","6502500","雙溪區"
"253006","032-BX","2018/09/17 17:58:41","新北市石門區大丘田45-2號","121.549788333333","25.2748383333333","6502200","石門區"
"253005","295-VK","2018/09/17 17:58:39","新北市石門區中山路60-50號","121.568448333333","25.2876916666667","6502200","石門區"
"222001","KEA-2212","2018/09/17 17:58:48","新北市深坑區北深路三段25巷12-1號","121.609056666667","25.000925","6501800","深坑區"
"208002","KEA-2872","2018/09/17 17:58:41","新北市金山區三界壇路33號","121.627558333333","25.227895","6502700","金山區"
"208003","665-BX","2018/09/17 17:58:35","新北市金山區磺港里磺港路306號","121.643895","25.2272183333333","6502700","金山區"
"208001","761-BX","2018/09/17 17:58:43","新北市金山區磺港里社寮16-1號","121.638308333333","25.226275","6502700","金山區"
"251004","009-UM","2018/09/17 17:56:37","新北市淡水區民權一街33-3號","121.459325","25.1364","6501000","淡水區"
"251005","010-UM","2018/09/17 17:58:41","新北市淡水區水源街一段101-1號","121.446056666667","25.1721816666667","6501000","淡水區"
"251013","KEA-2871","2018/09/17 17:58:43","新北市淡水區泉洲厝31號","121.479466666667","25.191015","6501000","淡水區"
"251016","179-VK","2018/09/17 17:58:32","新北市淡水區埤島31號","121.448496666667","25.197745","6501000","淡水區"
"251015","180-VK","2018/09/17 17:58:28","新北市淡水區興福寮88巷1號","121.485316666667","25.165015","6501000","淡水區"
"251008","181-VK","2018/09/17 17:58:41","新北市淡水區八勢一街43-8號","121.461946666667","25.15588","6501000","淡水區"
"251010","413-VK","2018/09/17 17:58:40","新北市淡水區中正路一段87巷1號","121.421628333333","25.1790883333333","6501000","淡水區"
"251012","441-VK","2018/09/17 17:58:43","新北市淡水區北新路三段38巷7號","121.484513333333","25.187035","6501000","淡水區"
"251007","442-VK","2018/09/17 17:58:41","新北市淡水區中正東路二段161巷8弄13號","121.46157","25.145605","6501000","淡水區"
"251001","559-UM","2018/09/17 17:58:33","新北市淡水區民權路92巷35號","121.46271","25.1259766666667","6501000","淡水區"
"251006","561-UM","2018/09/17 17:58:42","新北市淡水區新生街30巷2號","121.43898","25.1733833333333","6501000","淡水區"
"251009","575-R6","2018/09/17 17:58:47","新北市淡水區大仁街6巷1號","121.44243","25.17463","6501000","淡水區"
"251011","650-BX","2018/09/17 17:58:34","新北市淡水區坪頂路509號","121.47881","25.1607866666667","6501000","淡水區"
"251002","672-BX","2018/09/17 17:58:40","新北市淡水區中正東路6號","121.447036666667","25.1671316666667","6501000","淡水區"
"251003","673-BX","2018/09/17 17:58:46","新北市淡水區大忠街90號","121.444976666667","25.1765033333333","6501000","淡水區"
"207003","550-UM","2018/09/17 17:58:27","新北市萬里區港東路野柳風景區攤販153號","121.690756666667","25.2054566666667","6502800","萬里區"
"207004","225-TW","2018/09/17 17:58:31","新北市萬里區中幅里中福路48號","121.683341666667","25.1741216666667","6502800","萬里區"
"252002","178-VK","2018/09/17 17:58:40","新北市三芝區中山路二段47巷5號","121.502771666667","25.2548816666667","6502100","三芝區"
"252003","249-BX","2018/09/17 17:58:30","新北市三芝區埔坪里埔頭坑41號","121.50471","25.2647066666667","6502100","三芝區"
"252001","292-VK","2018/09/17 17:58:35","新北市三芝區中興街二段2號","121.498451666667","25.2566366666667","6502100","三芝區"
"237004","KEA-2597","2018/09/17 17:58:40","新北市三峽區中園街153號","121.367221666667","24.9224333333333","6500900","三峽區"
"237007","153-BY","2018/09/17 17:58:42","新北市三峽區中園街223號","121.366958333333","24.9200683333333","6500900","三峽區"
"237009","210-TH","2018/09/17 17:58:34","新北市三峽區中山路106巷11號","121.365975","24.9361666666667","6500900","三峽區"
"237013","252-BX","2018/09/17 17:58:31","新北市三峽區長泰街94號","121.376061666667","24.933225","6500900","三峽區"
"237012","275-BY","2018/09/17 17:58:31","新北市三峽區民生街28號","121.375786666667","24.9365533333333","6500900","三峽區"
"237008","302-VK","2018/09/17 17:58:26","新北市三峽區正義街157號","121.36816","24.9150883333333","6500900","三峽區"
"237014","433-BY","2018/09/17 17:58:43","新北市三峽區復興路101巷1弄77號","121.371118333333","24.9375516666667","6500900","三峽區"
"237006","5529-G3","2018/09/17 17:58:37","新北市三峽區介壽路二段136巷120弄2-1號","121.392361666667","24.932255","6500900","三峽區"
"237011","KEA-2596","2018/09/17 17:58:43","新北市三峽區光明路60號","121.374773333333","24.9296116666667","6500900","三峽區"
"237015","649-BX","2018/09/17 17:58:33","新北市三峽區詩朗139號","121.404576666667","24.9103733333333","6500900","三峽區"
"237010","706-TV","2018/09/17 17:58:32","新北市三峽區中山路70號","121.367138333333","24.9350383333333","6500900","三峽區"
"237005","AKY-6261","2018/09/17 17:58:35","新北市三峽區復興路237巷38號","121.369083333333","24.9378766666667","6500900","三峽區"
"236069","105-UM","2018/09/17 17:58:35","新北市土城區城林路6巷80號","121.43845","24.979605","6501300","土城區"
"236042","107-UM","2018/09/17 17:58:40","新北市土城區城林路6巷80號","121.438556666667","24.9798216666667","6501300","土城區"
"236078","166-UM","2018/09/17 17:58:34","新北市土城區永寧路32巷10弄23號","121.428858333333","24.9610666666667","6501300","土城區"
"236026","269-VK","2018/09/17 17:58:45","新北市土城區中央路三段42號","121.437606666667","24.9681616666667","6501300","土城區"
"236014","270-VK","2018/09/17 17:58:38","新北市土城區城林路6巷80號","121.43846","24.9796283333333","6501300","土城區"
"236039","271-VK","2018/09/17 17:58:36","新北市土城區城林路6巷80號","121.438566666667","24.9796266666667","6501300","土城區"
"236020","401-BY","2018/09/17 17:58:41","新北市土城區城林路6巷80號","121.438573333333","24.97976","6501300","土城區"
"236059","912-UM","2018/09/17 17:58:43","新北市土城區中央路三段238-2號","121.428423333333","24.9643733333333","6501300","土城區"
"236048","913-UM","2018/09/17 17:58:43","新北市土城區城林路6巷80號","121.43858","24.9796133333333","6501300","土城區"
"236063","915-UM","2018/09/17 17:58:27","新北市土城區城林路6巷80號","121.438465","24.9796766666667","6501300","土城區"
"236055","AAC-216","2018/09/17 17:58:30","新北市土城區中央路二段215號","121.441185","24.9741583333333","6501300","土城區"
"242036","AAC-296","2018/09/17 17:58:42","新北市新莊區建福路38號","121.426433333333","25.0282533333333","6500500","新莊區"
"242058","986-R7","2018/09/17 17:58:47","新北市新莊區雙鳳路146號","121.412983333333","25.0277483333333","6500500","新莊區"
"242056","751-BX","2018/09/17 17:58:41","新北市新莊區豐年街124巷22號","121.445455","25.0299366666667","6500500","新莊區"
"242027","615-BX","2018/09/17 17:58:45","新北市新莊區思源路473號","121.459718333333","25.054075","6500500","新莊區"
"242029","612-BX","2018/09/17 17:58:27","新北市新莊區中平路108號","121.444905","25.0457833333333","6500500","新莊區"
"242044","566-BX","2018/09/17 17:58:43","新北市新莊區雙鳳路73巷1號","121.414998333333","25.027595","6500500","新莊區"
"242048","497-BY","2018/09/17 17:58:44","新北市新莊區後港二路10號","121.422808333333","25.0240633333333","6500500","新莊區"
"242053","442-UM","2018/09/17 17:58:38","新北市新莊區西盛街395巷29弄13號","121.428626666667","25.0118233333333","6500500","新莊區"
"242002","440-UM","2018/09/17 17:58:38","新北市新莊區中正路92號","121.455423333333","25.036755","6500500","新莊區"
"242039","415-TV","2018/09/17 17:58:29","新北市新莊區民安路214號","121.425918333333","25.0227316666667","6500500","新莊區"
"242009","413-TV","2018/09/17 17:58:37","新北市新莊區中華路二段210巷5號","121.4533","25.0525133333333","6500500","新莊區"
"242046","400-BY","2018/09/17 17:58:39","新北市新莊區福營路193號","121.431165","25.030535","6500500","新莊區"
"242023","362-BY","2018/09/17 17:58:47","新北市新莊區福壽街76號","121.458265","25.049455","6500500","新莊區"
"242060","353-BY","2018/09/17 17:58:39","新北市新莊區新樹路435號","121.432678333333","25.013805","6500500","新莊區"
"242011","132-UY","2018/09/17 17:58:41","新北市新莊區中港路671號","121.450793333333","25.05602","6500500","新莊區"
"242042","133-UY","2018/09/17 17:58:31","新北市新莊區中正路612-1號","121.426073333333","25.03026","6500500","新莊區"
"242034","135-UY","2018/09/17 17:58:30","新北市新莊區福海街22號","121.445236666667","25.03393","6500500","新莊區"
"242050","172-VK","2018/09/17 17:58:35","新北市新莊區西盛街153巷6號","121.428635","25.0179966666667","6500500","新莊區"
"242013","173-VK","2018/09/17 17:55:58","新北市新莊區思源路353號","121.459858333333","25.0505366666667","6500500","新莊區"
"242019","175-VK","2018/09/17 17:58:31","新北市新莊區明中街49巷15號","121.456788333333","25.03897","6500500","新莊區"
"242007","176-VK","2018/09/17 17:58:42","新北市新莊區自信街24號","121.454068333333","25.0481916666667","6500500","新莊區"
"242004","347-TH","2018/09/17 17:58:44","新北市新莊區福樂街71巷25號","121.456885","25.0470616666667","6500500","新莊區"
"242031","348-TH","2018/09/17 17:58:44","新北市新莊區新泰路289巷18號","121.44462","25.0406016666667","6500500","新莊區"
"242021","350-TH","2018/09/17 17:58:38","新北市新莊區中華路一段6號","121.452005","25.036565","6500500","新莊區"
"242015","351-TH","2018/09/17 17:58:37","新北市新莊區中平路117號","121.44471","25.046615","6500500","新莊區"
"238015","755-BX","2018/09/17 17:58:43","新北市樹林區大安路307巷1弄1號","121.418128333333","24.99212","6500700","樹林區"
"238023","601-UM","2018/09/17 17:58:36","新北市樹林區龍興街46巷20號","121.402343333333","25.0152916666667","6500700","樹林區"
"238019","599-UM","2018/09/17 17:58:41","新北市樹林區太平路255-1號","121.418796666667","24.9745466666667","6500700","樹林區"
"238018","571-TV","2018/09/17 17:58:46","新北市樹林區樹新路108號","121.429875","24.997795","6500700","樹林區"
"238009","KEA-2213","2018/09/17 17:58:33","新北市樹林區太平路150巷7號","121.418133333333","24.9776366666667","6500700","樹林區"
"238021","KEA-2539","2018/09/17 17:58:31","新北市樹林區田尾街110-1號","121.406508333333","24.9550733333333","6500700","樹林區"
"238025","303-VK","2018/09/17 17:58:41","新北市樹林區三俊街75號","121.415228333333","25.015545","6500700","樹林區"
"238017","283-BY","2018/09/17 17:58:43","新北市樹林區中正路865號","121.408816666667","25.0181333333333","6500700","樹林區"
"238014","282-BY","2018/09/17 17:58:43","新北市樹林區大安路145巷4號","121.422218333333","24.9967016666667","6500700","樹林區"
"238020","268-VK","2018/09/17 17:58:37","新北市樹林區俊英街252號","121.424476666667","25.0110466666667","6500700","樹林區"
"238026","172-UY","2018/09/17 17:58:32","新北市樹林區中山路三段125-10號","121.397393333333","24.9735016666667","6500700","樹林區"
"238016","169-UY","2018/09/17 17:58:37","新北市樹林區日新街143號","121.42056","24.9886366666667","6500700","樹林區"
"239007","AAC-297","2018/09/17 17:58:38","新北市鶯歌區鶯桃路94巷59弄2-1號","121.341746666667","24.9553333333333","6500800","鶯歌區"
"239006","891-R6","2018/09/17 17:58:40","新北市鶯歌區鶯桃路413巷34弄26號","121.330771666667","24.963975","6500800","鶯歌區"
"239008","527-UM","2018/09/17 17:58:37","新北市鶯歌區國際一路6號","121.335701666667","24.976785","6500800","鶯歌區"
"239005","526-UM","2018/09/17 17:58:42","新北市鶯歌區鶯桃路658巷39號","121.329971666667","24.96975","6500800","鶯歌區"
"239001","417-VK","2018/09/17 17:58:39","新北市鶯歌區中正三路236-1號","121.330196666667","24.9368083333333","6500800","鶯歌區"
"239003","360-BY","2018/09/17 17:58:46","新北市鶯歌區永吉街67號","121.33524","24.9566533333333","6500800","鶯歌區"
"239002","359-BY","2018/09/17 17:58:41","新北市鶯歌區光明街45號","121.347841666667","24.9552466666667","6500800","鶯歌區"
"221008","489-VK","2018/09/17 17:58:47","新北市汐止區明峰街17號","121.634716666667","25.0714116666667","6501100","汐止區"
"221036","130-UY","2018/09/17 17:58:38","新北市汐止區大同路二段423號","121.658756666667","25.0672333333333","6501100","汐止區"
"221010","269-BY","2018/09/17 17:58:41","新北市汐止區汐萬路二段245巷17號","121.645143333333","25.0875383333333","6501100","汐止區"
"221012","278-VK","2018/09/17 17:58:31","新北市汐止區長興街二段28號","121.673146666667","25.0813416666667","6501100","汐止區"
"221023","279-VK","2018/09/17 17:58:44","新北市汐止區明峰街129-4號","121.630188333333","25.07084","6501100","汐止區"
"221032","280-BY","2018/09/17 17:58:29","新北市汐止區橫科路73巷6號","121.619408333333","25.0509583333333","6501100","汐止區"
"221027","281-BY","2018/09/17 17:58:30","新北市汐止區大同路二段364號","121.657441666667","25.06723","6501100","汐止區"
"221029","298-VK","2018/09/17 17:58:30","新北市汐止區樟樹二路338號","121.64152","25.07052","6501100","汐止區"
"221021","299-VK","2018/09/17 17:58:43","新北市汐止區水源路一段88號","121.656825","25.0645566666667","6501100","汐止區"
"221031","353-TW","2018/09/17 17:58:42","新北市汐止區中興路131號","121.631768333333","25.0653633333333","6501100","汐止區"
"221035","622-UM","2018/09/17 17:58:45","新北市汐止區新江北路30巷20號","121.651788333333","25.06956","6501100","汐止區"
"221025","623-UM","2018/09/17 17:58:41","新北市汐止區仁愛路10號","121.659265","25.0636266666667","6501100","汐止區"
"221038","646-BX","2018/09/17 17:58:42","新北市汐止區新台五路一段154號","121.653991666667","25.062265","6501100","汐止區"
"221002","707-TV","2018/09/17 17:58:39","新北市汐止區中興路29號","121.634958333333","25.0616883333333","6501100","汐止區"
"221018","753-BX","2018/09/17 17:58:28","新北市汐止區忠孝東路348號","121.665596666667","25.069755","6501100","汐止區"
"242017","281-VK","2018/09/17 17:58:33","新北市新莊區中和街60巷5號","121.448251666667","25.044835","6500500","新莊區"
"235061","KEA-2875","2018/09/17 17:58:29","新北市中和區員山路36巷16-2號","121.485293333333","24.99168","6500300","中和區"
