"lineid","car","time","location","longitude","latitude","cityid","cityname"
"234046","148-BY","2018/09/17 18:54:33","新北市永和區秀朗路二段148巷5弄15號","121.526015","25.0008533333333","6500400","永和區"
"234007","207-UY","2018/09/17 18:54:30","新北市永和區永和路二段131號","121.515108333333","25.0122383333333","6500400","永和區"
"234081","298-R6","2018/09/17 18:54:42","新北市永和區福和路57巷14弄2號","121.522908333333","25.0070533333333","6500400","永和區"
"234038","336-UY","2018/09/17 18:54:43","新北市永和區成功路二段207號","121.526618333333","24.9958966666667","6500400","永和區"
"234064","337-UY","2018/09/17 18:54:45","新北市永和區福和路1號","121.526578333333","25.0101466666667","6500400","永和區"
"234086","338-UY","2018/09/17 18:54:27","新北市永和區中正路161號","121.516445","24.9984733333333","6500400","永和區"
"234070","552-UM","2018/09/17 18:54:31","新北市永和區竹林路96巷9號","121.519136666667","25.0120283333333","6500400","永和區"
"234017","745-BX","2018/09/17 18:54:35","新北市永和區永和路二段299號","121.516026666667","25.0161366666667","6500400","永和區"
"234030","746-BX","2018/09/17 18:54:46","新北市永和區秀朗路二段258號","121.526158333333","24.9986766666667","6500400","永和區"
"234054","KEA-2590","2018/09/17 18:54:30","新北市永和區竹林路64號","121.518276666667","25.0135633333333","6500400","永和區"
"234013","KEA-2591","2018/09/17 18:54:47","新北市永和區保福路二段56號","121.510941666667","25.0122916666667","6500400","永和區"
"234061","AAD-866","2018/09/17 18:54:39","新北市永和區福和路301號","121.516436666667","25.0071283333333","6500400","永和區"
"234042","862-TW","2018/09/17 18:54:37","新北市永和區永貞路267號","121.5119","25.0047366666667","6500400","永和區"
"234050","863-TW","2018/09/17 18:54:31","新北市永和區保安路2號","121.510788333333","25.0174866666667","6500400","永和區"
"234011","9373-KE","2018/09/17 18:54:42","新北市永和區忠孝街17-1號","121.51453","25.0156583333333","6500400","永和區"
"249005","172-UM","2018/09/17 18:54:41","新北市八里區長道坑15號","121.395478333333","25.1185466666667","6502300","八里區"
"249001","173-UM","2018/09/17 18:54:33","新北市八里區龍米路一段142號","121.452976666667","25.1256683333333","6502300","八里區"
"248006","077-UY","2018/09/17 18:54:40","新北市五股區中興路一段20號","121.469091666667","25.072375","6501500","五股區"
"248008","095-VK","2018/09/17 18:54:43","新北市五股區中興路一段128巷38號","121.465771666667","25.0753683333333","6501500","五股區"
"248018","225-UY","2018/09/17 18:54:41","新北市五股區民義路二段84號","121.405961666667","25.1090016666667","6501500","五股區"
"248012","247-BX","2018/09/17 18:54:49","新北市五股區工商路16號","121.439598333333","25.0832633333333","6501500","五股區"
"248016","261-SL","2018/09/17 18:54:42","新北市五股區凌雲路一段136號","121.449631666667","25.1022166666667","6501500","五股區"
"248010","272-BY","2018/09/17 18:54:32","新北市五股區水碓七路24號","121.42879","25.0715266666667","6501500","五股區"
"248004","677-BX","2018/09/17 18:54:45","新北市五股區民義路二段73號","121.408983333333","25.1056333333333","6501500","五股區"
"248002","678-BX","2018/09/17 18:54:33","新北市五股區成泰路三段475號","121.45052","25.098635","6501500","五股區"
"234023","9380-KE","2018/09/17 18:52:26","新北市永和區竹林路91巷60弄12號","121.522033333333","25.01265","6500400","永和區"
"234077","969-R7","2018/09/17 18:54:42","新北市永和區中正路151巷1-1號","121.51626","24.9981033333333","6500400","永和區"
"234067","AAC-212","2018/09/17 18:54:30","新北市永和區永和路一段22號","121.513071666667","25.004765","6500400","永和區"
"234003","AAC-295","2018/09/17 18:54:39","新北市永和區永和路二段35號","121.514531666667","25.0103216666667","6500400","永和區"
"232011","375-UM","2018/09/17 18:54:29","新北市坪林區坪林街19號","121.712091666667","24.9363916666667","6502000","坪林區"
"244023","069-UM","2018/09/17 18:54:47","新北市林口區民權路12巷5號","121.37168","25.0798816666667","6501700","林口區"
"244007","080-UY","2018/09/17 18:54:31","新北市林口區太平里19號","121.377791666667","25.1159766666667","6501700","林口區"
"244019","403-UM","2018/09/17 18:54:29","新北市林口區麗園二街1巷6-3號","121.377933333333","25.0701333333333","6501700","林口區"
"244013","KEA-2802","2018/09/17 18:54:13","新北市林口區麗園路2巷33號","121.37503","25.07096","6501700","林口區"
"244017","485-VK","2018/09/17 18:54:42","新北市林口區文化二路一段20巷13號","121.365296666667","25.0672616666667","6501700","林口區"
"244009","656-BX","2018/09/17 18:54:49","新北市林口區台電新村126號","121.388648333333","25.0874983333333","6501700","林口區"
"244011","657-BX","2018/09/17 18:54:44","新北市林口區中正路343號","121.388046666667","25.07766","6501700","林口區"
"244025","837-TS","2018/09/17 18:54:30","新北市林口區南勢街163號","121.359456666667","25.07497","6501700","林口區"
"244021","838-TS","2018/09/17 18:54:44","新北市林口區自強一街103號","121.400506666667","25.0766716666667","6501700","林口區"
"243013","AAD-798","2018/09/17 18:30:00","新北市泰山區明志路三段206巷3號","121.423296666667","25.03795","6501600","泰山區"
"243009","297-R6","2018/09/17 18:54:45","新北市泰山區泰林路二段469號","121.425291666667","25.0639583333333","6501600","泰山區"
"243016","KEA-2801","2018/09/17 18:54:41","新北市泰山區明志路二段152-3號","121.427531666667","25.050415","6501600","泰山區"
"243015","421-VK","2018/09/17 18:54:37","新北市泰山區美寧街50號","121.430451666667","25.06448","6501600","泰山區"
"243012","539-UM","2018/09/17 18:54:38","新北市泰山區福興三街11號","121.43451","25.057725","6501600","泰山區"
"243011","KEA-2215","2018/09/17 18:54:29","新北市泰山區明志路二段246巷3號","121.426718333333","25.0481683333333","6501600","泰山區"
"243010","KEA-2216","2018/09/17 18:54:36","新北市泰山區辭修路24號","121.429053333333","25.0581533333333","6501600","泰山區"
"243014","680-BX","2018/09/17 18:54:48","新北市泰山區犁頭窠3-1號","121.422141666667","25.06062","6501600","泰山區"
"222003","436-BY","2018/09/17 18:54:30","新北市深坑區深南路51-1號","121.621406666667","25.0101416666667","6501800","深坑區"
"222002","659-BX","2018/09/17 18:54:29","新北市深坑區文山路一段69號","121.627155","25.0020433333333","6501800","深坑區"
"231041","002-UM","2018/09/17 18:54:42","新北市新店區安康路一段148號","121.52637","24.9629366666667","6500600","新店區"
"231059","046-UY","2018/09/17 18:54:32","新北市新店區安華路28-1號","121.519513333333","24.9607933333333","6500600","新店區"
"231040","047-UY","2018/09/17 18:54:28","新北市新店區中央路97號","121.53148","24.9753583333333","6500600","新店區"
"231044","106-UY","2018/09/17 18:54:48","新北市新店區寶中路85號","121.547881666667","24.9806816666667","6500600","新店區"
"231046","107-UY","2018/09/17 18:54:31","新北市新店區直潭路97號","121.53191","24.9400716666667","6500600","新店區"
"231052","108-UY","2018/09/17 18:54:38","新北市新店區新烏路二段7號","121.543571666667","24.9297366666667","6500600","新店區"
"231065","110-UY","2018/09/17 18:54:39","新北市新店區安康路三段87號","121.491758333333","24.951885","6500600","新店區"
"231047","187-VK","2018/09/17 18:54:34","新北市新店區寶橋路6巷4號","121.543373333333","24.97346","6500600","新店區"
"231054","KEA-2219","2018/09/17 18:54:40","新北市新店區新店路13號","121.540306666667","24.9528833333333","6500600","新店區"
"221015","KEA-2785","2018/09/17 18:54:41","新北市汐止區鄉長路一段55巷22號","121.664785","25.076335","6501100","汐止區"
"231042","268-BY","2018/09/17 18:54:35","新北市新店區北新路一段126巷32號","121.543421666667","24.9690066666667","6500600","新店區"
"231051","278-BY","2018/09/17 18:54:30","新北市新店區中央路45號","121.53285","24.9776833333333","6500600","新店區"
"231050","AAD-862","2018/09/17 18:54:28","新北市新店區北宜路一段123號","121.540591666667","24.9536783333333","6500600","新店區"
"231058","3713-VJ","2018/09/17 18:54:36","新北市新店區中興路一段139號","121.542125","24.9636683333333","6500600","新店區"
"231066","4716-K9","2018/09/17 18:54:46","新北市新店區安華路16號","121.517406666667","24.9581233333333","6500600","新店區"
"231056","4715-K9","2018/09/17 18:54:31","新北市新店區大同街8巷2號","121.539736666667","24.980105","6500600","新店區"
"231067","4772-VM","2018/09/17 18:54:44","新北市新店區安華路1-1號","121.519266666667","24.9605333333333","6500600","新店區"
"231049","513-UM","2018/09/17 18:54:44","新北市新店區中央路81號","121.532303333333","24.9766316666667","6500600","新店區"
"231063","616-UM","2018/09/17 18:54:45","新北市新店區安華路1-1號","121.519433333333","24.960485","6500600","新店區"
"231045","617-UM","2018/09/17 18:54:40","新北市新店區光明街51號","121.538458333333","24.9602283333333","6500600","新店區"
"231061","619-UM","2018/09/17 18:54:38","新北市新店區安華路28-1號","121.51935","24.96064","6500600","新店區"
"231064","719-UM","2018/09/17 18:54:28","新北市新店區安一路一段1-1號","121.519415","24.9613133333333","6500600","新店區"
"231062","720-UM","2018/09/17 18:54:29","新北市新店區安華路16號","121.515735","24.9580016666667","6500600","新店區"
"231060","897-TW","2018/09/17 18:54:31","新北市新店區安一路一段1-1號","121.519381666667","24.9615266666667","6500600","新店區"
"231043","899-TW","2018/09/17 18:54:38","新北市新店區北新路一段91號","121.538826666667","24.9616983333333","6500600","新店區"
"231055","AKT-0513","2018/09/17 18:54:33","新北市新店區北新路一段271巷24號","121.540156666667","24.967225","6500600","新店區"
"251014","742-BX","2018/09/17 18:54:30","新北市淡水區崙頂5號","121.493813333333","25.2240233333333","6501000","淡水區"
"241032","269-UM","2018/09/17 18:48:25","新北市三重區重陽路一段120巷35號","121.485108333333","25.0601916666667","6500200","三重區"
"235066","003-UY","2018/09/17 18:54:32","新北市中和區廣福路54號","121.503745","25.0020883333333","6500300","中和區"
"235064","005-UY","2018/09/17 18:54:45","新北市中和區連城路75巷13號","121.498515","24.9983","6500300","中和區"
"235063","006-UY","2018/09/17 18:54:29","新北市中和區錦和路196巷5號","121.48977","24.9949183333333","6500300","中和區"
"235056","096-UM","2018/09/17 18:54:33","新北市中和區員山路466巷21弄9號","121.480863333333","25.0069983333333","6500300","中和區"
"235039","097-UM","2018/09/17 18:54:45","新北市中和區安樂路217巷29號","121.513646666667","24.9981283333333","6500300","中和區"
"235065","098-UM","2018/09/17 18:54:35","新北市中和區勝利路35巷3弄17號","121.499723333333","25.00736","6500300","中和區"
"235040","150-BY","2018/09/17 18:54:35","新北市中和區保健路106巷6弄1號","121.511926666667","24.9953683333333","6500300","中和區"
"235058","151-BY","2018/09/17 18:54:28","新北市中和區連城路532號","121.475701666667","24.9915883333333","6500300","中和區"
"235055","183-VK","2018/09/17 18:54:27","新北市中和區民生街85巷3弄2號","121.46915","25.00428","6500300","中和區"
"235038","185-VK","2018/09/17 18:54:44","新北市中和區大勇街48號","121.517611666667","24.994035","6500300","中和區"
"235049","186-VK","2018/09/17 18:54:43","新北市中和區景安路177巷32號","121.50679","24.9945066666667","6500300","中和區"
"235067","255-BX","2018/09/17 18:54:29","新北市中和區中正路839巷21號","121.483948333333","25.0022233333333","6500300","中和區"
"235044","293-VK","2018/09/17 18:54:33","新北市中和區中興街159號","121.49989","24.9909116666667","6500300","中和區"
"235072","301-VK","2018/09/17 18:54:33","新北市中和區中山路二段47號","121.5044","25.00498","6500300","中和區"
"235043","352-BY","2018/09/17 18:54:31","新北市中和區秀朗路三段93號","121.526466666667","24.9951966666667","6500300","中和區"
"235042","KEA-2878","2018/09/17 18:54:34","新北市中和區秀朗路三段72號","121.526166666667","24.9944366666667","6500300","中和區"
"247012","KEA-2869","2018/09/17 18:54:37","新北市五股區成泰路三段436號","121.451658333333","25.09922","6501400","蘆洲區"
"235050","4979-A6","2018/09/17 18:54:41","新北市中和區忠孝街58巷22號","121.512471666667","24.9828766666667","6500300","中和區"
"235069","4980-A6","2018/09/17 18:54:44","新北市中和區南山路111巷4號","121.502331666667","24.9975283333333","6500300","中和區"
"235070","558-UM","2018/09/17 18:54:33","新北市中和區中和路159號","121.50278","24.9998383333333","6500300","中和區"
"235045","565-BX","2018/09/17 18:54:39","新北市中和區南山路311號","121.504826666667","24.9914883333333","6500300","中和區"
"235054","640-BX","2018/09/17 18:54:32","新北市中和區民享街35巷10號","121.474618333333","25.0039766666667","6500300","中和區"
"235047","732-UM","2018/09/17 18:54:31","新北市中和區興南路二段34巷57弄1號","121.504825","24.985915","6500300","中和區"
"235046","733-UM","2018/09/17 18:54:41","新北市中和區興南路一段85巷31號","121.510286666667","24.98808","6500300","中和區"
"235057","801-TS","2018/09/17 18:54:35","新北市中和區民利街33號","121.480005","24.9989416666667","6500300","中和區"
"235041","802-TS","2018/09/17 18:54:36","新北市中和區宜安路92巷15號","121.511256666667","24.9980266666667","6500300","中和區"
"235052","805-TS","2018/09/17 18:54:42","新北市中和區興南路二段399巷98弄40號","121.499261666667","24.9769933333333","6500300","中和區"
"235048","896-TW","2018/09/17 18:54:29","新北市中和區華新街47號","121.50781","24.98457","6500300","中和區"
"235053","900-TW","2018/09/17 18:54:43","新北市中和區民德路296號","121.467491666667","24.9954383333333","6500300","中和區"
"235060","911-UM","2018/09/17 18:54:29","新北市中和區中山路三段122號","121.474691666667","25.0062316666667","6500300","中和區"
"235051","157-BY","2018/09/17 18:54:46","新北市中和區忠孝街106巷2號","121.512331666667","24.9845016666667","6500300","中和區"
"235037","AAC-213","2018/09/17 18:54:34","新北市中和區秀朗路三段128巷33弄18號","121.523938333333","24.994475","6500300","中和區"
"235059","AAC-215","2018/09/17 18:54:39","新北市中和區圓通路369巷23號","121.490866666667","24.9885133333333","6500300","中和區"
"220065","072-UY","2018/09/17 18:54:35","新北市板橋區民族路151巷52號","121.47014","25.008445","6500100","板橋區"
"220086","073-UY","2018/09/17 18:54:47","新北市板橋區大智街22號","121.455711666667","25.01491","6500100","板橋區"
"220106","075-UY","2018/09/17 18:54:38","新北市板橋區民生路二段120號","121.470765","25.0194833333333","6500100","板橋區"
"220069","AAD-861","2018/09/17 18:54:36","新北市板橋區大華街104號","121.459293333333","25.00548","6500100","板橋區"
"220090","120-SR","2018/09/17 18:52:17","新北市板橋區民生路二段56-6號","121.471091666667","25.0188416666667","6500100","板橋區"
"226004","312-R5","2018/09/17 18:54:28","新北市平溪區平溪里三坑路2號","121.73774","25.028135","6502400","平溪區"
"235062","251-BX","2018/09/17 18:54:38","新北市中和區景平路703巷2弄2號","121.496236666667","25.0035083333333","6500300","中和區"
"228003","097-TW","2018/09/17 18:54:46","新北市貢寮區和美里龍洞街63-4號","121.916855","25.11803","6502600","貢寮區"
"228002","663-BX","2018/09/17 18:54:41","新北市貢寮區福隆里東興街5號","121.950281666667","25.0195966666667","6502600","貢寮區"
"228001","670-TC","2018/09/17 18:54:42","新北市貢寮區仁理村保健街73號","121.923738333333","25.051715","6502600","貢寮區"
"224010","AGQ-8101","2018/09/17 18:54:39","新北市瑞芳區金光路334號","121.848548333333","25.109935","6501200","瑞芳區"
"224006","676-BX","2018/09/17 18:54:43","新北市瑞芳區中正路41號","121.807186666667","25.1071766666667","6501200","瑞芳區"
"224002","639-TC","2018/09/17 18:54:32","新北市瑞芳區靜安路四段10號","121.795351666667","25.0864933333333","6501200","瑞芳區"
"224008","285-BY","2018/09/17 18:54:30","新北市瑞芳區逢甲路286號","121.80352","25.1115866666667","6501200","瑞芳區"
"224009","273-VK","2018/09/17 18:54:35","新北市瑞芳區洞頂路131號","121.860431666667","25.11752","6501200","瑞芳區"
"224005","271-BY","2018/09/17 18:54:43","新北市瑞芳區海濱路38-1號","121.831081666667","25.1234183333333","6501200","瑞芳區"
"227008","642-TC","2018/09/17 18:54:39","新北市雙溪區牡丹里中正路60號","121.866106666667","25.042445","6502500","雙溪區"
"227001","400-TW","2018/09/17 18:54:36","新北市雙溪區平林里康福家園1號","121.858316666667","25.0378516666667","6502500","雙溪區"
"253006","032-BX","2018/09/17 18:54:41","新北市石門區下員坑30-3號","121.519768333333","25.2824533333333","6502200","石門區"
"253005","295-VK","2018/09/17 18:54:39","新北市石門區中山路63-1號","121.567578333333","25.2914366666667","6502200","石門區"
"222001","KEA-2212","2018/09/17 18:54:48","新北市深坑區北深路一段60-1號","121.637106666667","25.0108066666667","6501800","深坑區"
"208002","KEA-2872","2018/09/17 18:54:41","新北市金山區信義路66號","121.635633333333","25.2189966666667","6502700","金山區"
"208003","665-BX","2018/09/17 18:54:35","新北市金山區中山路281號","121.636211666667","25.22304","6502700","金山區"
"208001","761-BX","2018/09/17 18:54:43","新北市金山區文化三路66巷1號","121.634171666667","25.2256116666667","6502700","金山區"
"251004","009-UM","2018/09/17 18:54:36","新北市淡水區八勢路50巷66號","121.462136666667","25.1496983333333","6501000","淡水區"
"251013","KEA-2871","2018/09/17 18:54:43","新北市淡水區頂田寮路953號","121.48656","25.213655","6501000","淡水區"
"251016","179-VK","2018/09/17 18:54:32","新北市淡水區下圭柔山70-10號","121.446988333333","25.2062833333333","6501000","淡水區"
"251015","180-VK","2018/09/17 18:54:48","新北市淡水區糞箕湖50號","121.48525","25.1713466666667","6501000","淡水區"
"251010","413-VK","2018/09/17 18:54:35","新北市淡水區沙崙路24號","121.421335","25.1812783333333","6501000","淡水區"
"251012","441-VK","2018/09/17 18:54:46","新北市淡水區新興街107號","121.440923333333","25.1808266666667","6501000","淡水區"
"251007","442-VK","2018/09/17 18:54:41","新北市淡水區民生路113巷1弄2號","121.464326666667","25.1388016666667","6501000","淡水區"
"251001","559-UM","2018/09/17 18:54:33","新北市淡水區自強路84號","121.462826666667","25.1282466666667","6501000","淡水區"
"251009","575-R6","2018/09/17 18:54:47","新北市淡水區重建街141號","121.44027","25.1735366666667","6501000","淡水區"
"251011","650-BX","2018/09/17 18:54:34","新北市淡水區中正東路一段123-1號","121.454286666667","25.1596516666667","6501000","淡水區"
"251002","672-BX","2018/09/17 18:54:40","新北市淡水區學府路77號","121.448493333333","25.170035","6501000","淡水區"
"251003","673-BX","2018/09/17 18:54:46","新北市淡水區中山北路一段149巷27號","121.443046666667","25.1778633333333","6501000","淡水區"
"207003","550-UM","2018/09/17 18:54:47","新北市萬里區大鵬里頂社14號","121.656046666667","25.20955","6502800","萬里區"
"207004","225-TW","2018/09/17 18:54:31","新北市萬里區萬里里獅頭路23號","121.693275","25.17831","6502800","萬里區"
"252002","178-VK","2018/09/17 18:54:40","新北市三芝區中正路一段82號","121.50415","25.2572966666667","6502100","三芝區"
"252003","249-BX","2018/09/17 18:54:30","新北市三芝區後厝里土地公坑57-2號","121.461245","25.2475616666667","6502100","三芝區"
"252001","292-VK","2018/09/17 18:54:35","新北市三芝區中正路三段20號","121.502661666667","25.25315","6502100","三芝區"
"237004","KEA-2597","2018/09/17 18:54:40","新北市三峽區有木314號","121.421978333333","24.864055","6500900","三峽區"
"237007","153-BY","2018/09/17 18:54:43","新北市三峽區中正路二段458號","121.364486666667","24.9074","6500900","三峽區"
"237013","252-BX","2018/09/17 18:54:31","新北市三峽區光明路69巷24號","121.376478333333","24.9290666666667","6500900","三峽區"
"237012","275-BY","2018/09/17 18:54:41","新北市三峽區三樹路222巷60號","121.382243333333","24.9423133333333","6500900","三峽區"
"237008","302-VK","2018/09/17 18:54:46","新北市三峽區中正路一段283-1號","121.371636666667","24.9257633333333","6500900","三峽區"
"237014","433-BY","2018/09/17 18:54:43","新北市三峽區隆恩街162號","121.365051666667","24.94309","6500900","三峽區"
"237006","5529-G3","2018/09/17 18:54:37","新北市三峽區溪東路233巷2弄3號","121.406965","24.9335466666667","6500900","三峽區"
"237011","KEA-2596","2018/09/17 18:54:42","新北市三峽區介壽路三段113號","121.396825","24.94127","6500900","三峽區"
"237015","649-BX","2018/09/17 18:54:33","新北市三峽區建安96號","121.455701666667","24.9237733333333","6500900","三峽區"
"237010","706-TV","2018/09/17 18:54:32","新北市三峽區復興路449號","121.362575","24.9385533333333","6500900","三峽區"
"237005","AKY-6261","2018/09/17 18:54:35","新北市三峽區中山路459巷131號","121.351055","24.9350233333333","6500900","三峽區"
"236069","105-UM","2018/09/17 18:54:35","新北市土城區青雲路163號","121.459013333333","24.9835733333333","6501300","土城區"
"236042","107-UM","2018/09/17 18:54:40","新北市土城區裕民路136巷23號","121.450875","24.98535","6501300","土城區"
"236078","166-UM","2018/09/17 18:54:42","新北市土城區中央路四段165巷55號","121.416611666667","24.9559166666667","6501300","土城區"
"236030","253-BX","2018/09/17 18:54:44","新北市土城區慶利街9號","121.43958","24.9736466666667","6501300","土城區"
"236026","269-VK","2018/09/17 18:54:47","新北市土城區慶安街38號","121.441345","24.9733666666667","6501300","土城區"
"236014","270-VK","2018/09/17 18:54:44","新北市土城區永豐路120號","121.463256666667","24.986695","6501300","土城區"
"236039","271-VK","2018/09/17 18:54:36","新北市土城區明德路一段240巷26弄8號","121.460608333333","24.9780933333333","6501300","土城區"
"236020","401-BY","2018/09/17 18:54:41","新北市土城區明峰街43-1號","121.466995","24.9862716666667","6501300","土城區"
"236059","912-UM","2018/09/17 18:54:43","新北市土城區明德路一段385-1號","121.45287","24.980175","6501300","土城區"
"236048","913-UM","2018/09/17 18:54:43","新北市土城區青雲路182號","121.459146666667","24.982275","6501300","土城區"
"236063","915-UM","2018/09/17 18:54:47","新北市土城區延和路89號","121.46706","24.9899216666667","6501300","土城區"
"236055","AAC-216","2018/09/17 18:54:38","新北市土城區裕民路83號","121.450065","24.987265","6501300","土城區"
"238023","601-UM","2018/09/17 18:54:36","新北市樹林區工興街35巷1號","121.401261666667","25.013195","6500700","樹林區"
"238019","599-UM","2018/09/17 18:54:41","新北市樹林區東榮街147巷2弄19號","121.414126666667","24.9810666666667","6500700","樹林區"
"238022","KEA-2213","2018/09/17 18:54:33","新北市樹林區東興街57巷6號","121.411511666667","24.9770566666667","6500700","樹林區"
"238021","KEA-2539","2018/09/17 18:54:39","新北市樹林區西圳街二段181號","121.379346666667","24.9558066666667","6500700","樹林區"
"238025","303-VK","2018/09/17 18:54:41","新北市樹林區中山路三段22號","121.395711666667","24.97295","6500700","樹林區"
"238017","283-BY","2018/09/17 18:54:43","新北市樹林區保安街一段332號","121.418141666667","24.9978316666667","6500700","樹林區"
"238020","268-VK","2018/09/17 18:54:37","新北市樹林區俊英街83巷1-1號","121.425876666667","25.00792","6500700","樹林區"
"238026","172-UY","2018/09/17 18:54:32","新北市樹林區中和街22號","121.390521666667","24.9735","6500700","樹林區"
"238016","169-UY","2018/09/17 18:54:37","新北市樹林區文化街28號","121.41932","24.9877133333333","6500700","樹林區"
"239007","AAC-297","2018/09/17 18:54:38","新北市鶯歌區中正一路建德巷16-1號","121.364815","24.95712","6500800","鶯歌區"
"239008","527-UM","2018/09/17 18:54:37","新北市鶯歌區國際二路70巷4號","121.334978333333","24.9764566666667","6500800","鶯歌區"
"239005","526-UM","2018/09/17 18:54:42","新北市鶯歌區鶯桃路二段60號","121.325046666667","24.9732566666667","6500800","鶯歌區"
"239001","417-VK","2018/09/17 18:54:39","新北市鶯歌區永明街13號","121.338296666667","24.9551683333333","6500800","鶯歌區"
"239003","360-BY","2018/09/17 18:54:46","新北市鶯歌區鶯桃路607號","121.329101666667","24.9691216666667","6500800","鶯歌區"
"239004","193-VK","2018/09/17 18:54:32","新北市鶯歌區中正三路194巷1弄1號","121.332601666667","24.9384466666667","6500800","鶯歌區"
"221008","489-VK","2018/09/17 18:54:27","新北市汐止區康寧街901號","121.651391666667","25.0750316666667","6501100","汐止區"
"221036","130-UY","2018/09/17 18:54:38","新北市汐止區忠孝東路274號","121.663428333333","25.068065","6501100","汐止區"
"221010","269-BY","2018/09/17 18:54:41","新北市汐止區康寧街901號","121.651586666667","25.0749566666667","6501100","汐止區"
"221012","278-VK","2018/09/17 18:54:30","新北市汐止區汐萬路一段256巷3號","121.653353333333","25.074685","6501100","汐止區"
"221023","279-VK","2018/09/17 18:54:44","新北市汐止區汐萬路一段256巷3號","121.652953333333","25.0744166666667","6501100","汐止區"
"221032","280-BY","2018/09/17 18:54:29","新北市汐止區橫科路407巷30弄21號","121.626861666667","25.0481533333333","6501100","汐止區"
"221027","281-BY","2018/09/17 18:54:30","新北市汐止區康寧街901號","121.650846666667","25.0752383333333","6501100","汐止區"
"221029","298-VK","2018/09/17 18:54:30","新北市汐止區樟樹一路101號","121.642076666667","25.0637366666667","6501100","汐止區"
"221021","299-VK","2018/09/17 18:54:43","新北市汐止區汐萬路一段282號","121.650871666667","25.0741533333333","6501100","汐止區"
"221031","353-TW","2018/09/17 18:54:36","新北市汐止區福德一路300巷36號","121.630441666667","25.0644833333333","6501100","汐止區"
"221035","622-UM","2018/09/17 18:54:45","新北市汐止區汐萬路一段144-1號","121.653096666667","25.071075","6501100","汐止區"
"221025","623-UM","2018/09/17 18:54:41","新北市汐止區秀峰路119-1號","121.660083333333","25.0632166666667","6501100","汐止區"
"221038","646-BX","2018/09/17 18:54:41","新北市汐止區汐萬路一段312號","121.650661666667","25.0753116666667","6501100","汐止區"
"221002","707-TV","2018/09/17 18:54:39","新北市汐止區大同路一段2號","121.621025","25.0549883333333","6501100","汐止區"
"221018","753-BX","2018/09/17 18:54:48","新北市汐止區茄苳路70號","121.66663","25.0706316666667","6501100","汐止區"
"220079","145-BY","2018/09/17 18:54:35","新北市板橋區民權路260巷1弄8號","121.458246666667","25.0158283333333","6500100","板橋區"
"220080","200-UY","2018/09/17 18:54:29","新北市板橋區樂群路20-6號","121.444205","24.9978283333333","6500100","板橋區"
"220082","610-BX","2018/09/17 18:54:45","新北市板橋區篤行路二段136號","121.429888333333","24.98846","6500100","板橋區"
"220098","257-TC","2018/09/17 18:54:47","新北市板橋區民生路二段188號","121.4703","25.0203066666667","6500100","板橋區"
"220091","267-BY","2018/09/17 18:53:44","新北市板橋區民生路二段161巷1號","121.470085","25.01985","6500100","板橋區"
"220056","276-BY","2018/09/17 18:54:43","新北市板橋區信義路91-2號","121.457375","24.993735","6500100","板橋區"
"220072","277-BY","2018/09/17 18:54:48","新北市板橋區大觀路三段50巷91號","121.43112","24.9965766666667","6500100","板橋區"
"220071","283-VK","2018/09/17 18:54:35","新北市板橋區忠孝路196巷27號","121.465585","25.0017833333333","6500100","板橋區"
"220094","285-UM","2018/09/17 18:54:29","新北市板橋區民生路二段120號","121.470686666667","25.0194516666667","6500100","板橋區"
"220053","285-VK","2018/09/17 18:54:46","新北市板橋區永豐街75巷4號","121.47331","25.0188766666667","6500100","板橋區"
"220083","286-VK","2018/09/17 18:54:42","新北市板橋區大觀路一段38巷156弄142號","121.443611666667","25.0086","6500100","板橋區"
"220081","287-VK","2018/09/17 18:54:45","新北市板橋區光華街19巷41號","121.452646666667","25.01183","6500100","板橋區"
"220061","293-UM","2018/09/17 18:54:41","新北市板橋區太和街4巷22號","121.474805","25.0202883333333","6500100","板橋區"
"220097","299-UM","2018/09/17 18:54:47","新北市板橋區板新路200巷22號","121.46877","25.01681","6500100","板橋區"
"220075","303-R5","2018/09/17 18:54:47","新北市板橋區茶館街25號","121.456403333333","25.010565","6500100","板橋區"
"220062","305-R5","2018/09/17 18:54:34","新北市板橋區中山路二段82號","121.47463","25.0160983333333","6500100","板橋區"
"220092","307-R5","2018/09/17 18:54:42","新北市板橋區縣民大道二段200巷3號","121.469855","25.017215","6500100","板橋區"
"220064","486-VK","2018/09/17 18:54:38","新北市板橋區中山路一段263號","121.468626666667","25.0133183333333","6500100","板橋區"
"220035","560-BX","2018/09/17 18:54:36","新北市板橋區中正路275巷20號","121.455008333333","25.0187183333333","6500100","板橋區"
"220103","561-BX","2018/09/17 18:54:36","新北市板橋區民生路二段89-4號","121.471401666667","25.0185716666667","6500100","板橋區"
"220084","568-UM","2018/09/17 18:54:39","新北市板橋區大觀路二段156巷34號","121.441295","25.00001","6500100","板橋區"
"220063","609-BX","2018/09/17 18:54:34","新北市板橋區民生路一段74號","121.473746666667","25.01532","6500100","板橋區"
"220057","686-BX","2018/09/17 18:54:41","新北市板橋區館前東路53號","121.461301666667","25.00746","6500100","板橋區"
"220077","687-BX","2018/09/17 18:54:48","新北市板橋區龍興街59號","121.443233333333","25.001215","6500100","板橋區"
"220093","689-BX","2018/09/17 18:54:31","新北市板橋區民生路二段89-6號","121.470728333333","25.0192883333333","6500100","板橋區"
"220054","741-BX","2018/09/17 18:54:34","新北市板橋區成都街22號","121.46087","25.0047866666667","6500100","板橋區"
"220102","KEA-2699","2018/09/17 18:54:37","新北市板橋區民生路二段148號","121.471251666667","25.01963","6500100","板橋區"
"220055","827-TW","2018/09/17 18:54:44","新北市板橋區中山路一段160-6號","121.466393333333","25.0121566666667","6500100","板橋區"
"220067","829-TW","2018/09/17 18:54:46","新北市板橋區三民路二段正隆巷12弄4號","121.478088333333","25.0128783333333","6500100","板橋區"
"220068","830-TW","2018/09/17 18:54:36","新北市板橋區縣民大道三段264號","121.478123333333","25.0232716666667","6500100","板橋區"
"220089","833-TW","2018/09/17 18:54:36","新北市板橋區民生路二段56-6號","121.470986666667","25.0192116666667","6500100","板橋區"
"220074","895-R6","2018/09/17 18:54:36","新北市板橋區林園街52號","121.453611666667","25.0106766666667","6500100","板橋區"
"220073","985-R7","2018/09/17 18:54:45","新北市板橋區中正路148號","121.456881666667","25.0162683333333","6500100","板橋區"
"220070","AAC-253","2018/09/17 18:54:40","新北市板橋區四川路一段231號","121.46002","25.0029933333333","6500100","板橋區"
"235068","KEA-2873","2018/09/17 18:54:36","新北市中和區中正路173號","121.497613333333","24.99348","6500300","中和區"
"235061","KEA-2875","2018/09/17 18:54:29","新北市中和區民治街132巷2號","121.475236666667","25.0024783333333","6500300","中和區"
