"lineid","car","time","location","longitude","latitude","cityid","cityname"
"234046","148-BY","2018/09/17 19:19:39","新北市永和區得和路373巷6弄1號","121.524801666667","24.9997766666667","6500400","永和區"
"234007","207-UY","2018/09/17 19:19:30","新北市永和區中山路一段226號","121.507983333333","25.0082683333333","6500400","永和區"
"234081","298-R6","2018/09/17 19:19:42","新北市永和區福和路50號","121.523481666667","25.0081983333333","6500400","永和區"
"234038","336-UY","2018/09/17 19:19:43","新北市永和區民樂街55巷2號","121.527426666667","24.99843","6500400","永和區"
"234064","337-UY","2018/09/17 19:19:45","新北市永和區永元路17巷6弄1號","121.521463333333","25.000855","6500400","永和區"
"234086","338-UY","2018/09/17 19:19:27","新北市永和區永利路42號","121.518761666667","25.0054716666667","6500400","永和區"
"234070","552-UM","2018/09/17 19:19:51","新北市永和區豫溪街74巷1號","121.517215","25.009875","6500400","永和區"
"234017","745-BX","2018/09/17 19:19:35","新北市永和區文化路144巷31弄8號","121.51244","25.016855","6500400","永和區"
"234030","746-BX","2018/09/17 19:19:45","新北市永和區四維街52號","121.524908333333","24.9982016666667","6500400","永和區"
"234054","KEA-2590","2018/09/17 19:19:48","新北市永和區中興街31號","121.516161666667","25.0120183333333","6500400","永和區"
"234013","KEA-2591","2018/09/17 19:19:47","新北市永和區信義路56號","121.513028333333","25.0125066666667","6500400","永和區"
"234061","AAD-866","2018/09/17 19:19:39","新北市永和區中正路381號","121.517116666667","25.0036833333333","6500400","永和區"
"234042","862-TW","2018/09/17 19:19:38","新北市永和區保平路151巷2弄6號","121.509835","25.0055083333333","6500400","永和區"
"234050","863-TW","2018/09/17 19:19:31","新北市永和區保福路二段78號","121.510536666667","25.01337","6500400","永和區"
"234026","9371-KE","2018/09/17 19:19:46","新北市永和區安樂路144巷19號","121.514676666667","25.0001083333333","6500400","永和區"
"234011","9373-KE","2018/09/17 19:19:41","新北市永和區保福路二段23巷19號","121.510133333333","25.01114","6500400","永和區"
"249005","172-UM","2018/09/17 19:19:41","新北市八里區中華路三段159號","121.392101666667","25.131465","6502300","八里區"
"249001","173-UM","2018/09/17 19:19:33","新北市八里區龍米路二段228-1號","121.432733333333","25.1584683333333","6502300","八里區"
"249003","593-UM","2018/09/17 19:19:39","新北市八里區中山路二段466巷36弄20號","121.398696666667","25.148785","6502300","八里區"
"248014","025-BX","2018/09/17 19:19:45","新北市五股區民義路一段107巷32號","121.432565","25.084635","6501500","五股區"
"248008","095-VK","2018/09/17 19:19:43","新北市蘆洲區中山二路309號","121.469161666667","25.07702","6501500","五股區"
"248018","225-UY","2018/09/17 19:19:41","新北市五股區民義路一段283號","121.42567","25.0927116666667","6501500","五股區"
"248012","247-BX","2018/09/17 19:19:29","新北市五股區中興路四段48巷16號","121.43865","25.08338","6501500","五股區"
"248016","261-SL","2018/09/17 19:19:42","新北市五股區凌雲路一段158巷6號","121.447746666667","25.10286","6501500","五股區"
"248010","272-BY","2018/09/17 19:19:32","新北市五股區水碓二路1號","121.430595","25.0712716666667","6501500","五股區"
"248004","677-BX","2018/09/17 19:19:45","新北市五股區五福路149號","121.43198","25.09138","6501500","五股區"
"248002","678-BX","2018/09/17 19:19:33","新北市五股區凌雲路一段158巷6號","121.448013333333","25.1027883333333","6501500","五股區"
"234023","9380-KE","2018/09/17 19:19:35","新北市永和區竹林路111號","121.520058333333","25.0118816666667","6500400","永和區"
"234077","969-R7","2018/09/17 19:19:42","新北市永和區民族街35-1號","121.51877","24.999065","6500400","永和區"
"234074","AAC-211","2018/09/17 19:19:48","新北市永和區竹林路85號","121.519583333333","25.0123","6500400","永和區"
"234067","AAC-212","2018/09/17 19:19:50","新北市永和區保平路95號","121.511456666667","25.00701","6500400","永和區"
"234003","AAC-295","2018/09/17 19:19:39","新北市永和區中山路一段110號","121.510885","25.0103516666667","6500400","永和區"
"244023","069-UM","2018/09/17 19:19:47","新北市林口區文化三路一段555巷62號","121.369201666667","25.0762233333333","6501700","林口區"
"244013","KEA-2802","2018/09/17 19:19:33","新北市林口區麗園一街1號","121.375663333333","25.072495","6501700","林口區"
"244017","485-VK","2018/09/17 19:19:42","新北市林口區文化北路二段232號","121.372785","25.0854433333333","6501700","林口區"
"244011","657-BX","2018/09/17 19:19:44","新北市林口區嘉寶里45號","121.339306666667","25.1097466666667","6501700","林口區"
"244025","837-TS","2018/09/17 19:19:30","新北市林口區民族路216巷13號","121.369405","25.0773866666667","6501700","林口區"
"244021","838-TS","2018/09/17 19:19:44","新北市八里區下罟子1-11號","121.390063333333","25.14218","6501700","林口區"
"243013","AAD-798","2018/09/17 19:19:38","新北市泰山區明志路三段145巷9號","121.425531666667","25.03989","6501600","泰山區"
"243009","297-R6","2018/09/17 19:19:45","新北市泰山區和平街9-2號","121.434088333333","25.06465","6501600","泰山區"
"243016","KEA-2801","2018/09/17 19:19:41","新北市泰山區明志路三段129號","121.42499","25.0405366666667","6501600","泰山區"
"243015","421-VK","2018/09/17 19:19:43","新北市泰山區公園路67-1號","121.42669","25.05512","6501600","泰山區"
"243012","539-UM","2018/09/17 19:19:38","新北市泰山區仁愛路100巷15號","121.433643333333","25.055405","6501600","泰山區"
"243011","KEA-2215","2018/09/17 19:19:29","新北市泰山區中央路9巷1號","121.426386666667","25.043055","6501600","泰山區"
"243010","KEA-2216","2018/09/17 19:19:36","新北市泰山區明志路一段492巷2號","121.430231666667","25.054745","6501600","泰山區"
"243014","680-BX","2018/09/17 19:19:28","新北市泰山區泰林路二段168號","121.4339","25.0604716666667","6501600","泰山區"
"222003","436-BY","2018/09/17 19:19:30","新北市深坑區深南路204號","121.626618333333","25.016035","6501800","深坑區"
"222002","659-BX","2018/09/17 19:19:29","新北市深坑區北深路一段177號","121.632591666667","25.0109","6501800","深坑區"
"231041","002-UM","2018/09/17 19:19:42","新北市新店區溪園路203號","121.526353333333","24.9840566666667","6500600","新店區"
"231059","046-UY","2018/09/17 19:19:32","新北市新店區安和路二段148號","121.519748333333","24.9729216666667","6500600","新店區"
"231040","047-UY","2018/09/17 19:19:47","新北市新店區三民路65號","121.536416666667","24.9712983333333","6500600","新店區"
"231044","106-UY","2018/09/17 19:19:45","新北市新店區中興路三段313號","121.54191","24.9860883333333","6500600","新店區"
"231046","107-UY","2018/09/17 19:19:31","新北市新店區華城路5-3號","121.52928","24.9579266666667","6500600","新店區"
"231052","108-UY","2018/09/17 19:19:38","新北市新店區櫻花街206號","121.548056666667","24.9198","6500600","新店區"
"231065","110-UY","2018/09/17 19:19:39","新北市新店區安祥路110巷25號","121.473613333333","24.95634","6500600","新店區"
"231047","187-VK","2018/09/17 19:19:33","新北市新店區中興路二段57巷1號","121.546273333333","24.9705133333333","6500600","新店區"
"231054","KEA-2219","2018/09/17 19:19:40","新北市新店區國校路20-1號","121.537875","24.9551066666667","6500600","新店區"
"221015","KEA-2785","2018/09/17 19:19:41","新北市汐止區汐萬路一段256巷3號","121.653348333333","25.074665","6501100","汐止區"
"231042","268-BY","2018/09/17 19:19:35","新北市新店區中興路一段117號","121.541508333333","24.962865","6500600","新店區"
"231051","278-BY","2018/09/17 19:19:30","新北市新店區中央路63號","121.532526666667","24.977155","6500600","新店區"
"231050","AAD-862","2018/09/17 19:19:28","新北市新店區竹林路30巷1號","121.5523","24.95132","6500600","新店區"
"231058","3713-VJ","2018/09/17 19:19:36","新北市新店區北新路一段130號","121.542486666667","24.9703883333333","6500600","新店區"
"231066","4716-K9","2018/09/17 19:19:46","新北市新店區安康路三段363號","121.484033333333","24.9507416666667","6500600","新店區"
"231056","4715-K9","2018/09/17 19:19:31","新北市新店區溪園路401號","121.523766666667","24.978035","6500600","新店區"
"231067","4772-VM","2018/09/17 19:19:44","新北市新店區安和路一段1號","121.51653","24.9638316666667","6500600","新店區"
"231049","513-UM","2018/09/17 19:19:44","新北市新店區明德路119-1號","121.541228333333","24.9798816666667","6500600","新店區"
"231063","616-UM","2018/09/17 19:19:45","新北市新店區達觀路14巷3號","121.503225","24.94178","6500600","新店區"
"231045","617-UM","2018/09/17 19:19:40","新北市新店區北宜路二段8號","121.547775","24.9518616666667","6500600","新店區"
"231061","619-UM","2018/09/17 19:19:38","新北市新店區安康路一段50號","121.530266666667","24.961115","6500600","新店區"
"231064","719-UM","2018/09/17 19:19:40","新北市新店區安忠路57巷1-5號","121.513351666667","24.9594533333333","6500600","新店區"
"231062","720-UM","2018/09/17 19:19:49","新北市新店區安康路一段92-1號","121.527876666667","24.9619983333333","6500600","新店區"
"231060","897-TW","2018/09/17 19:19:31","新北市新店區安康路二段105-1號","121.512701666667","24.96233","6500600","新店區"
"231043","899-TW","2018/09/17 19:19:39","新北市新店區北新路二段107號","121.542978333333","24.974505","6500600","新店區"
"241022","060-VK","2018/09/17 19:19:43","新北市三重區重陽路二段72號","121.487206666667","25.06413","6500200","三重區"
"241017","063-VK","2018/09/17 19:19:44","新北市三重區大同北路182號","121.491665","25.0658833333333","6500200","三重區"
"241026","066-VK","2018/09/17 19:19:38","新北市三重區泉州街84巷20號","121.495961666667","25.054435","6500200","三重區"
"251014","742-BX","2018/09/17 19:19:30","新北市淡水區小中寮19-7號","121.484741666667","25.2295916666667","6501000","淡水區"
"241009","267-UM","2018/09/17 19:19:39","新北市三重區溪尾街230巷69號","121.486095","25.0811966666667","6500200","三重區"
"241025","271-UM","2018/09/17 19:19:37","新北市三重區中正北路406號","121.47533","25.0704516666667","6500200","三重區"
"241007","398-BY","2018/09/17 19:19:41","新北市三重區慈愛街55號","121.486385","25.0792316666667","6500200","三重區"
"241035","KEA-2210","2018/09/17 19:19:43","新北市三重區信義西街138號","121.495428333333","25.0643533333333","6500200","三重區"
"241030","480-VK","2018/09/17 19:19:32","新北市三重區新興路42號","121.491455","25.0533266666667","6500200","三重區"
"241006","AAD-863","2018/09/17 19:19:42","新北市三重區力行路二段145號","121.483596666667","25.077245","6500200","三重區"
"241020","887-TS","2018/09/17 19:19:44","新北市三重區大智街179巷2號","121.489691666667","25.0726816666667","6500200","三重區"
"241029","942-UM","2018/09/17 19:19:43","新北市三重區集美街224號","121.492165","25.0554283333333","6500200","三重區"
"235066","003-UY","2018/09/17 19:19:39","新北市中和區枋寮街2號","121.502451666667","24.99979","6500300","中和區"
"235064","005-UY","2018/09/17 19:19:45","新北市中和區中和路26巷2號","121.49962","25.001655","6500300","中和區"
"235063","006-UY","2018/09/17 19:19:29","新北市中和區連城路249巷5號","121.493698333333","24.9968183333333","6500300","中和區"
"235056","096-UM","2018/09/17 19:19:33","新北市中和區中山路二段581號","121.480325","25.0058166666667","6500300","中和區"
"235039","097-UM","2018/09/17 19:19:45","新北市中和區秀峰街81巷2號","121.521395","24.990195","6500300","中和區"
"235065","098-UM","2018/09/17 19:19:35","新北市中和區中山路二段2巷3弄1號","121.504931666667","25.006115","6500300","中和區"
"235040","150-BY","2018/09/17 19:19:46","新北市中和區安平路59號","121.509398333333","24.9952316666667","6500300","中和區"
"235058","151-BY","2018/09/17 19:19:28","新北市中和區連城路477巷6弄17-3號","121.482375","24.9950166666667","6500300","中和區"
"235055","183-VK","2018/09/17 19:19:47","新北市中和區德光路49號","121.470223333333","25.00397","6500300","中和區"
"235038","185-VK","2018/09/17 19:19:44","新北市中和區大仁街108號","121.520528333333","24.9927266666667","6500300","中和區"
"235049","186-VK","2018/09/17 19:19:43","新北市中和區景新街239號","121.508155","24.9944366666667","6500300","中和區"
"235067","255-BX","2018/09/17 19:19:29","新北市中和區新生街179號","121.483875","25.0006666666667","6500300","中和區"
"235044","293-VK","2018/09/17 19:19:32","新北市中和區復興路310號","121.501158333333","24.9903933333333","6500300","中和區"
"235072","301-VK","2018/09/17 19:19:33","新北市中和區連城路72號","121.497421666667","25.0013166666667","6500300","中和區"
"235043","352-BY","2018/09/17 19:19:31","新北市中和區景平路404號","121.509083333333","24.9932716666667","6500300","中和區"
"235042","KEA-2878","2018/09/17 19:19:34","新北市永和區民有街9號","121.516308333333","24.9968933333333","6500300","中和區"
"235050","4979-A6","2018/09/17 19:19:41","新北市中和區景安路208巷14號","121.503393333333","24.9913583333333","6500300","中和區"
"235069","4980-A6","2018/09/17 19:19:44","新北市中和區中山路二段181巷10號","121.500696666667","25.0024133333333","6500300","中和區"
"235070","558-UM","2018/09/17 19:19:38","新北市中和區連城路66-1號","121.497561666667","25.0014966666667","6500300","中和區"
"235045","565-BX","2018/09/17 19:19:39","新北市中和區景新街437巷23號","121.514395","24.98939","6500300","中和區"
"235054","640-BX","2018/09/17 19:19:47","新北市中和區國光街107巷2弄12號","121.46991","24.999765","6500300","中和區"
"235047","732-UM","2018/09/17 19:19:31","新北市中和區和平街38巷7號","121.509296666667","24.9909283333333","6500300","中和區"
"235046","733-UM","2018/09/17 19:19:41","新北市中和區華新街133號","121.506691666667","24.981795","6500300","中和區"
"235071","783-BX","2018/09/17 19:19:34","新北市中和區連城路280號","121.484375","24.9963466666667","6500300","中和區"
"235057","801-TS","2018/09/17 19:19:40","新北市中和區員山路220號","121.481228333333","25.0011083333333","6500300","中和區"
"235041","802-TS","2018/09/17 19:19:36","新北市中和區中和路260-1號","121.508033333333","24.9992883333333","6500300","中和區"
"235052","805-TS","2018/09/17 19:19:47","新北市中和區華新街232巷10號","121.505813333333","24.9822516666667","6500300","中和區"
"235048","896-TW","2018/09/17 19:19:49","新北市中和區忠孝街80號","121.512085","24.9843116666667","6500300","中和區"
"235053","900-TW","2018/09/17 19:19:43","新北市中和區華安街19巷10號","121.467488333333","24.997915","6500300","中和區"
"235060","911-UM","2018/09/17 19:19:29","新北市中和區員山路469巷1號","121.480311666667","25.0045366666667","6500300","中和區"
"235051","157-BY","2018/09/17 19:19:31","新北市中和區和平街24巷11號","121.509916666667","24.990625","6500300","中和區"
"235037","AAC-213","2018/09/17 19:19:34","新北市中和區秀朗路三段10巷37弄4號","121.524063333333","24.9957766666667","6500300","中和區"
"235059","AAC-215","2018/09/17 19:19:48","新北市中和區圓通路286巷1號","121.491398333333","24.9910433333333","6500300","中和區"
"220090","013-TV","2018/09/17 19:19:36","新北市板橋區長江路一段106巷13弄35號","121.461346666667","25.0298083333333","6500100","板橋區"
"220065","072-UY","2018/09/17 19:19:35","新北市板橋區民族路170巷4號","121.467405","25.0077116666667","6500100","板橋區"
"220086","073-UY","2018/09/17 19:19:38","新北市板橋區中正路216巷60號","121.457588333333","25.0188833333333","6500100","板橋區"
"220106","075-UY","2018/09/17 19:19:37","新北市板橋區雙十路三段70巷1號","121.470253333333","25.0324833333333","6500100","板橋區"
"220069","AAD-861","2018/09/17 19:19:39","新北市板橋區華興街31巷19號","121.458395","25.003735","6500100","板橋區"
"220090","120-SR","2018/09/17 18:52:17","新北市板橋區民生路二段56-6號","121.471091666667","25.0188416666667","6500100","板橋區"
"226004","312-R5","2018/09/17 19:19:48","新北市平溪區南山里南山坪38號","121.775428333333","25.0391583333333","6502400","平溪區"
"235062","251-BX","2018/09/17 19:19:38","新北市中和區中正路899號","121.484108333333","25.0049316666667","6500300","中和區"
"228003","097-TW","2018/09/17 19:19:46","新北市貢寮區和美里和美街22-1號","121.912845","25.08266","6502600","貢寮區"
"228002","663-BX","2018/09/17 19:19:41","新北市貢寮區龍門里復興街46-1號","121.928311666667","25.0295166666667","6502600","貢寮區"
"228001","670-TC","2018/09/17 19:19:42","新北市貢寮區真理里新港街10號","121.925538333333","25.0543583333333","6502600","貢寮區"
"224010","AGQ-8101","2018/09/17 19:19:39","新北市瑞芳區基山街141號","121.843885","25.1082833333333","6501200","瑞芳區"
"224008","285-BY","2018/09/17 19:19:30","新北市瑞芳區明燈路三段173號","121.802668333333","25.1097183333333","6501200","瑞芳區"
"227008","642-TC","2018/09/17 19:19:39","新北市雙溪區新基里新基北街40號","121.868531666667","25.0380983333333","6502500","雙溪區"
"227001","400-TW","2018/09/17 19:19:46","新北市雙溪區平林里梅竹蹊66-1號","121.860348333333","25.03586","6502500","雙溪區"
"253006","032-BX","2018/09/17 19:19:41","新北市石門區崁子腳27號","121.535406666667","25.2909","6502200","石門區"
"253005","295-VK","2018/09/17 19:19:39","新北市石門區阿里荖5-4號","121.60977","25.27984","6502200","石門區"
"222001","KEA-2212","2018/09/17 19:19:48","新北市深坑區北深路二段84號","121.617491666667","25.0035","6501800","深坑區"
"208002","KEA-2872","2018/09/17 19:19:41","新北市金山區中正路112號","121.632751666667","25.22181","6502700","金山區"
"208003","665-BX","2018/09/17 19:19:35","新北市金山區中山路161號","121.63879","25.2205366666667","6502700","金山區"
"208001","761-BX","2018/09/17 19:19:43","新北市金山區慈護街14號","121.639596666667","25.22033","6502700","金山區"
"251005","010-UM","2018/09/17 19:19:41","新北市淡水區水源街一段34巷1號","121.443201666667","25.1722283333333","6501000","淡水區"
"251013","KEA-2871","2018/09/17 19:19:43","新北市淡水區安子內12-1號","121.481535","25.219095","6501000","淡水區"
"251016","179-VK","2018/09/17 19:19:32","新北市淡水區下圭柔山119-51號","121.450706666667","25.20843","6501000","淡水區"
"251015","180-VK","2018/09/17 19:19:48","新北市淡水區山子邊5-2號","121.483481666667","25.1843283333333","6501000","淡水區"
"251010","413-VK","2018/09/17 19:19:35","新北市淡水區沙崙路28號","121.421455","25.1814516666667","6501000","淡水區"
"251007","442-VK","2018/09/17 19:19:41","新北市淡水區民生路145巷34號","121.466786666667","25.1388783333333","6501000","淡水區"
"251001","559-UM","2018/09/17 19:19:33","新北市淡水區自強路201巷39號","121.462103333333","25.1268533333333","6501000","淡水區"
"251009","575-R6","2018/09/17 19:19:47","新北市淡水區中正路52號","121.443336666667","25.16954","6501000","淡水區"
"251003","673-BX","2018/09/17 19:19:46","新北市淡水區中山北路一段188-5號","121.44448","25.1788883333333","6501000","淡水區"
"207003","550-UM","2018/09/17 19:19:27","新北市萬里區大鵬里萬里加投79-3號","121.64734","25.2123816666667","6502800","萬里區"
"207004","225-TW","2018/09/17 19:19:31","新北市萬里區萬里里成功新村65號","121.688316666667","25.174565","6502800","萬里區"
"252002","178-VK","2018/09/17 19:19:40","新北市三芝區淡金路二段18-1號","121.5027","25.25953","6502100","三芝區"
"252001","292-VK","2018/09/17 19:19:35","新北市三芝區長勤街9巷8號","121.501598333333","25.2553616666667","6502100","三芝區"
"237004","KEA-2597","2018/09/17 19:19:40","新北市三峽區有木206號","121.439083333333","24.8515016666667","6500900","三峽區"
"237007","153-BY","2018/09/17 19:19:42","新北市三峽區麻園17-5號","121.362996666667","24.9146183333333","6500900","三峽區"
"237009","210-TH","2018/09/17 19:19:34","新北市三峽區民生街163號","121.372598333333","24.9348416666667","6500900","三峽區"
"237013","252-BX","2018/09/17 19:19:33","新北市三峽區光明路75巷19號","121.377353333333","24.928055","6500900","三峽區"
"237012","275-BY","2018/09/17 19:19:31","新北市三峽區三樹路222巷192-1號","121.38843","24.9426583333333","6500900","三峽區"
"237008","302-VK","2018/09/17 19:19:46","新北市三峽區永安街183號","121.373158333333","24.926775","6500900","三峽區"
"237014","433-BY","2018/09/17 19:19:43","新北市三峽區中山路223號","121.363211666667","24.93705","6500900","三峽區"
"237006","5529-G3","2018/09/17 19:19:37","新北市三峽區介壽路一段383-1號","121.387518333333","24.933785","6500900","三峽區"
"237011","KEA-2596","2018/09/17 19:19:43","新北市三峽區介壽路三段107號","121.395485","24.9393233333333","6500900","三峽區"
"237015","649-BX","2018/09/17 19:19:33","新北市三峽區建安71-1號","121.447878333333","24.9266366666667","6500900","三峽區"
"237010","706-TV","2018/09/17 19:19:32","新北市三峽區國光街52號","121.374576666667","24.9379966666667","6500900","三峽區"
"237005","AKY-6261","2018/09/17 19:19:35","新北市三峽區中山路459巷42號","121.356885","24.9376016666667","6500900","三峽區"
"236069","105-UM","2018/09/17 19:19:35","新北市土城區學成路76巷1號","121.451196666667","24.9883133333333","6501300","土城區"
"236042","107-UM","2018/09/17 19:19:40","新北市土城區學府路一段239號","121.450396666667","24.9834033333333","6501300","土城區"
"236078","166-UM","2018/09/17 19:19:34","新北市土城區龍泉路22號","121.410436666667","24.9482633333333","6501300","土城區"
"236030","253-BX","2018/09/17 19:19:44","新北市土城區城林路6巷80號","121.43845","24.9795733333333","6501300","土城區"
"236026","269-VK","2018/09/17 19:19:47","新北市土城區中央路二段149巷39號","121.443366666667","24.97677","6501300","土城區"
"236014","270-VK","2018/09/17 19:19:38","新北市土城區學府路一段15-1號","121.458438333333","24.9880216666667","6501300","土城區"
"236020","401-BY","2018/09/17 19:19:41","新北市土城區峰廷街3號","121.469048333333","24.98734","6501300","土城區"
"236059","912-UM","2018/09/17 19:19:43","新北市土城區中央路二段252號","121.44173","24.974555","6501300","土城區"
"236048","913-UM","2018/09/17 19:19:43","新北市土城區明德路一段365-1號","121.453686666667","24.9790816666667","6501300","土城區"
"242013","173-VK","2018/09/17 19:19:39","新北市新莊區三和路12-21號","121.4421","25.03869","6500500","新莊區"
"238015","755-BX","2018/09/17 19:19:43","新北市樹林區大安路523號","121.414031666667","24.9861216666667","6500700","樹林區"
"238023","601-UM","2018/09/17 19:19:36","新北市樹林區三興路43號","121.395751666667","25.0144683333333","6500700","樹林區"
"238019","599-UM","2018/09/17 19:19:41","新北市樹林區東榮街36號","121.417476666667","24.9833216666667","6500700","樹林區"
"238018","571-TV","2018/09/17 19:19:46","新北市樹林區太平路56巷43號","121.417843333333","24.9813866666667","6500700","樹林區"
"238024","5061-A6","2018/09/17 19:19:43","新北市樹林區福德街48-3號","121.399241666667","24.9746783333333","6500700","樹林區"
"238022","KEA-2213","2018/09/17 19:19:33","新北市樹林區中山路二段143號","121.406651666667","24.9786616666667","6500700","樹林區"
"238021","KEA-2539","2018/09/17 19:19:39","新北市樹林區柑園街二段339-1號","121.368865","24.9497833333333","6500700","樹林區"
"238025","303-VK","2018/09/17 19:19:41","新北市樹林區中山路三段24號","121.395485","24.9728383333333","6500700","樹林區"
"238017","283-BY","2018/09/17 19:19:49","新北市樹林區光興街28-2號","121.411956666667","25.0030766666667","6500700","樹林區"
"238014","282-BY","2018/09/17 19:19:32","新北市樹林區千歲街66號","121.426135","24.9974183333333","6500700","樹林區"
"238020","268-VK","2018/09/17 19:19:37","新北市樹林區俊英街121巷29號","121.423373333333","25.01004","6500700","樹林區"
"238026","172-UY","2018/09/17 19:19:32","新北市樹林區佳園路二段2巷3號","121.394178333333","24.9644416666667","6500700","樹林區"
"238016","169-UY","2018/09/17 19:19:37","新北市樹林區復興路468號","121.413456666667","24.9836316666667","6500700","樹林區"
"239007","AAC-297","2018/09/17 19:19:38","新北市鶯歌區中山路138巷7號","121.35054","24.95883","6500800","鶯歌區"
"239006","891-R6","2018/09/17 19:19:40","新北市鶯歌區鶯桃路296巷46-1號","121.335736666667","24.9613533333333","6500800","鶯歌區"
"239008","527-UM","2018/09/17 19:19:37","新北市鶯歌區大湖路542號","121.336861666667","24.9729133333333","6500800","鶯歌區"
"239005","526-UM","2018/09/17 19:19:42","新北市鶯歌區中湖街25號","121.347476666667","24.97287","6500800","鶯歌區"
"239001","417-VK","2018/09/17 19:19:39","新北市鶯歌區鶯桃路95巷79號","121.337043333333","24.9527366666667","6500800","鶯歌區"
"239003","360-BY","2018/09/17 19:19:46","新北市鶯歌區文化路321號","121.352236666667","24.952215","6500800","鶯歌區"
"239004","193-VK","2018/09/17 19:19:32","新北市鶯歌區中正三路鄭厝巷12-7號","121.332411666667","24.9337266666667","6500800","鶯歌區"
"221008","489-VK","2018/09/17 19:19:47","新北市汐止區康寧街338號","121.627761666667","25.067455","6501100","汐止區"
"221036","130-UY","2018/09/17 19:19:38","新北市汐止區康寧街901號","121.651638333333","25.0749633333333","6501100","汐止區"
"221010","269-BY","2018/09/17 19:19:41","新北市汐止區康寧街901號","121.651368333333","25.075005","6501100","汐止區"
"221012","278-VK","2018/09/17 19:19:50","新北市汐止區汐萬路一段310號","121.65034","25.0747683333333","6501100","汐止區"
"221023","279-VK","2018/09/17 19:19:44","新北市汐止區康寧街901號","121.650975","25.0751516666667","6501100","汐止區"
"221032","280-BY","2018/09/17 19:19:29","新北市汐止區汐萬路一段217號","121.651991666667","25.0723983333333","6501100","汐止區"
"221027","281-BY","2018/09/17 19:19:30","新北市汐止區康寧街901號","121.65084","25.0752633333333","6501100","汐止區"
"221021","299-VK","2018/09/17 19:19:43","新北市汐止區康寧街901號","121.651405","25.0750233333333","6501100","汐止區"
"221031","353-TW","2018/09/17 19:19:36","新北市汐止區汐萬路一段256巷3號","121.6525","25.074575","6501100","汐止區"
"221025","623-UM","2018/09/17 19:19:41","新北市汐止區康寧街901號","121.651418333333","25.0750533333333","6501100","汐止區"
"221038","646-BX","2018/09/17 19:19:41","新北市汐止區汐萬路一段312號","121.650696666667","25.0752566666667","6501100","汐止區"
"221002","707-TV","2018/09/17 19:19:39","新北市汐止區大同路一段398-1號","121.640046666667","25.0598883333333","6501100","汐止區"
"220079","145-BY","2018/09/17 19:19:35","新北市板橋區公館街110號","121.46092","25.016735","6500100","板橋區"
"220080","200-UY","2018/09/17 19:19:37","新北市板橋區大觀路二段19巷107號","121.450115","25.0027383333333","6500100","板橋區"
"220082","610-BX","2018/09/17 19:19:45","新北市板橋區金門街246號","121.430556666667","24.9871316666667","6500100","板橋區"
"220101","245-BX","2018/09/17 19:19:50","新北市板橋區莒光路229巷2號","121.474233333333","25.02225","6500100","板橋區"
"220098","257-TC","2018/09/17 19:19:29","新北市板橋區民有街89巷4號","121.46445","25.0274766666667","6500100","板橋區"
"220091","267-BY","2018/09/17 19:19:44","新北市板橋區萬板路478號","121.479948333333","25.026105","6500100","板橋區"
"220056","276-BY","2018/09/17 19:19:43","新北市板橋區信義路140號","121.458736666667","24.9921233333333","6500100","板橋區"
"220072","277-BY","2018/09/17 19:19:48","新北市板橋區篤行路二段161巷16-1號","121.429775","24.98755","6500100","板橋區"
"220071","283-VK","2018/09/17 19:19:35","新北市板橋區大豐街120號","121.461118333333","25.0012633333333","6500100","板橋區"
"220094","285-UM","2018/09/17 19:19:29","新北市板橋區吳鳳路82號","121.466953333333","25.03133","6500100","板橋區"
"220053","285-VK","2018/09/17 19:19:46","新北市板橋區永豐街148號","121.478175","25.0212483333333","6500100","板橋區"
"220083","286-VK","2018/09/17 19:19:41","新北市板橋區大觀路二段174巷166弄14號","121.44234","25.0030566666667","6500100","板橋區"
"220081","287-VK","2018/09/17 19:19:45","新北市板橋區南雅西路一段142號","121.452453333333","25.007365","6500100","板橋區"
"220061","293-UM","2018/09/17 19:19:41","新北市板橋區中山路二段318巷18號","121.480401666667","25.0187916666667","6500100","板橋區"
"220097","299-UM","2018/09/17 19:19:47","新北市板橋區幸福路60巷59號","121.460176666667","25.0215616666667","6500100","板橋區"
"220075","303-R5","2018/09/17 19:19:34","新北市板橋區中正路289巷4號","121.455135","25.019195","6500100","板橋區"
"220062","305-R5","2018/09/17 19:19:34","新北市板橋區三民路2段153巷8弄14-1號","121.481301666667","25.01471","6500100","板橋區"
"220092","307-R5","2018/09/17 19:19:46","新北市板橋區松江街53號","121.468611666667","25.0275516666667","6500100","板橋區"
"220064","486-VK","2018/09/17 19:19:37","新北市板橋區板新路238號","121.467988333333","25.0161283333333","6500100","板橋區"
"220035","560-BX","2018/09/17 19:19:36","新北市板橋區中正路360巷29號","121.455463333333","25.023405","6500100","板橋區"
"220103","561-BX","2018/09/17 19:19:36","新北市板橋區文化路一段188巷7弄13號","121.467541666667","25.019765","6500100","板橋區"
"220084","568-UM","2018/09/17 19:19:39","新北市板橋區溪北路81號","121.428336666667","24.9894933333333","6500100","板橋區"
"220063","609-BX","2018/09/17 19:19:34","新北市板橋區三民路二段40-1號","121.479098333333","25.0175716666667","6500100","板橋區"
"220057","686-BX","2018/09/17 19:19:21","新北市中和區壽德街26號","121.466616666667","24.994375","6500100","板橋區"
"220077","687-BX","2018/09/17 19:19:33","新北市板橋區大觀路一段28巷62號","121.449856666667","25.0104283333333","6500100","板橋區"
"220093","689-BX","2018/09/17 19:19:31","新北市板橋區文化路一段134號","121.465171666667","25.018805","6500100","板橋區"
"220054","741-BX","2018/09/17 19:19:37","新北市板橋區重慶路153號","121.462506666667","25.0037916666667","6500100","板橋區"
"220102","KEA-2699","2018/09/17 19:19:37","新北市板橋區文聖街207號","121.479826666667","25.02633","6500100","板橋區"
"220055","827-TW","2018/09/17 19:19:44","新北市板橋區民族路57號","121.464685","25.0088283333333","6500100","板橋區"
"220067","829-TW","2018/09/17 19:19:46","新北市板橋區長安街138巷1弄56號","121.473995","25.0102266666667","6500100","板橋區"
"220068","830-TW","2018/09/17 19:19:37","新北市板橋區三民路一段1巷58號","121.480876666667","25.0247933333333","6500100","板橋區"
"220096","831-TW","2018/09/17 19:19:44","新北市板橋區大同街26巷9號","121.478151666667","25.026975","6500100","板橋區"
"220089","833-TW","2018/09/17 19:19:45","新北市板橋區文化路一段231號","121.46396","25.0174233333333","6500100","板橋區"
"220074","895-R6","2018/09/17 19:19:36","新北市板橋區中正路1巷18-1號","121.455146666667","25.0116633333333","6500100","板橋區"
"220073","985-R7","2018/09/17 19:19:41","新北市板橋區新生街16號","121.455525","25.021115","6500100","板橋區"
"220070","AAC-253","2018/09/17 19:19:40","新北市板橋區忠孝路168號","121.464391666667","25.00251","6500100","板橋區"
"235068","KEA-2873","2018/09/17 19:19:36","新北市中和區圓通路160-1號","121.49753","24.9956333333333","6500300","中和區"
"235061","KEA-2875","2018/09/17 19:19:42","新北市中和區員山路238號","121.481326666667","25.001285","6500300","中和區"
