"lineid","car","time","location","longitude","latitude","cityid","cityname"
"234046","148-BY","2018/09/17 19:49:12","新北市永和區永亨路175號","121.526198333333","25.003465","6500400","永和區"
"234007","207-UY","2018/09/17 19:49:15","新北市中和區中和路228號","121.506538333333","24.9995466666667","6500400","永和區"
"234081","298-R6","2018/09/17 19:49:02","新北市永和區林森路52號","121.524471666667","25.0044466666667","6500400","永和區"
"234038","336-UY","2018/09/17 19:49:03","新北市永和區民樂街57巷6號","121.528026666667","24.998495","6500400","永和區"
"234064","337-UY","2018/09/17 19:49:05","新北市永和區中正路368巷6號","121.51808","25.0008266666667","6500400","永和區"
"234086","338-UY","2018/09/17 19:49:07","新北市永和區永亨路127號","121.524433333333","25.004185","6500400","永和區"
"234070","552-UM","2018/09/17 19:49:11","新北市永和區竹林路77號","121.519515","25.0126733333333","6500400","永和區"
"234017","745-BX","2018/09/17 19:49:15","新北市永和區永和路二段297號","121.516031666667","25.0160766666667","6500400","永和區"
"234030","746-BX","2018/09/17 19:49:06","新北市永和區民生路67巷23號","121.524","24.9973116666667","6500400","永和區"
"234054","KEA-2590","2018/09/17 19:49:10","新北市永和區竹林路75巷25弄8號","121.520178333333","25.0144316666667","6500400","永和區"
"234013","KEA-2591","2018/09/17 19:49:07","新北市永和區仁愛路168號","121.510188333333","25.012695","6500400","永和區"
"234061","AAD-866","2018/09/17 19:49:19","新北市永和區中正路63號","121.514793333333","24.9965266666667","6500400","永和區"
"234042","862-TW","2018/09/17 19:49:17","新北市永和區中和路389巷22號","121.508123333333","25.00131","6500400","永和區"
"234050","863-TW","2018/09/17 19:49:11","新北市永和區文化路206號","121.510396666667","25.0165816666667","6500400","永和區"
"234026","9371-KE","2018/09/17 19:49:06","新北市永和區雙和街25巷4號","121.508881666667","25.001905","6500400","永和區"
"234011","9373-KE","2018/09/17 19:49:21","新北市永和區仁愛路352巷92弄2號","121.501205","25.008025","6500400","永和區"
"249001","173-UM","2018/09/17 19:49:06","新北市八里區中華路二段252號","121.405401666667","25.14968","6502300","八里區"
"249004","303-UY","2018/09/17 19:48:59","新北市八里區仁愛路129號","121.410098333333","25.1588066666667","6502300","八里區"
"249002","305-UY","2018/09/17 19:49:13","新北市八里區頂寮五街22號","121.451233333333","25.1262566666667","6502300","八里區"
"249003","593-UM","2018/09/17 19:49:20","新北市八里區華峰三街68號","121.39872","25.145595","6502300","八里區"
"248014","025-BX","2018/09/17 19:49:06","新北市五股區五福路42巷22號","121.43475","25.0899983333333","6501500","五股區"
"248008","095-VK","2018/09/17 19:49:03","新北市蘆洲區中山一路417號","121.468821666667","25.0768416666667","6501500","五股區"
"248018","225-UY","2018/09/17 19:49:00","新北市五股區外寮路6號","121.423991666667","25.077725","6501500","五股區"
"248012","247-BX","2018/09/17 19:49:09","新北市五股區蓬萊路24號","121.43391","25.0799183333333","6501500","五股區"
"248016","261-SL","2018/09/17 19:49:02","新北市五股區成泰路四段24-14號","121.454181666667","25.1070083333333","6501500","五股區"
"248010","272-BY","2018/09/17 19:49:12","新北市五股區登林路76-8號","121.429948333333","25.0693416666667","6501500","五股區"
"248004","677-BX","2018/09/17 19:49:05","新北市五股區成泰路一段82號","121.435776666667","25.0707666666667","6501500","五股區"
"248002","678-BX","2018/09/17 19:49:13","新北市五股區成泰路三段577巷14號","121.451811666667","25.1027833333333","6501500","五股區"
"234077","969-R7","2018/09/17 19:49:02","新北市永和區民權路29巷19號","121.521125","24.9980516666667","6500400","永和區"
"234074","AAC-211","2018/09/17 19:49:08","新北市永和區竹林路215號","121.520998333333","25.0088566666667","6500400","永和區"
"234067","AAC-212","2018/09/17 19:49:10","新北市永和區永平路173巷14弄2號","121.510228333333","25.0085166666667","6500400","永和區"
"234003","AAC-295","2018/09/17 19:49:19","新北市永和區福和路310-1號","121.516173333333","25.0073316666667","6500400","永和區"
"243013","AAD-798","2018/09/17 19:38:19","新北市泰山區應化街7號","121.42388","25.04373","6501600","泰山區"
"243009","297-R6","2018/09/17 19:49:05","新北市泰山區美寧街64號","121.430998333333","25.0646466666667","6501600","泰山區"
"243016","KEA-2801","2018/09/17 19:49:01","新北市泰山區新北大道七段97號","121.417911666667","25.0319333333333","6501600","泰山區"
"243015","421-VK","2018/09/17 19:48:57","新北市泰山區文程路18巷43號","121.428171666667","25.0481383333333","6501600","泰山區"
"243012","539-UM","2018/09/17 19:49:17","新北市泰山區全興路13號","121.432346666667","25.0589416666667","6501600","泰山區"
"243011","KEA-2215","2018/09/17 19:49:09","新北市泰山區明志路三段204巷10弄11號","121.422956666667","25.0386583333333","6501600","泰山區"
"243010","KEA-2216","2018/09/17 19:49:16","新北市泰山區民生路33號","121.430663333333","25.0520833333333","6501600","泰山區"
"243014","680-BX","2018/09/17 19:49:08","新北市泰山區泰林路二段33-8號","121.43518","25.0564616666667","6501600","泰山區"
"222003","436-BY","2018/09/17 19:49:09","新北市深坑區深南路51-1號","121.621258333333","25.0098116666667","6501800","深坑區"
"222002","659-BX","2018/09/17 19:49:12","新北市深坑區北深路二段2巷1號","121.621215","25.00453","6501800","深坑區"
"231041","002-UM","2018/09/17 19:49:02","新北市新店區中央路151號","121.529368333333","24.9721733333333","6500600","新店區"
"231059","046-UY","2018/09/17 19:49:12","新北市新店區安和路二段177號","121.518431666667","24.974605","6500600","新店區"
"231040","047-UY","2018/09/17 19:49:07","新北市新店區中正路75巷71號","121.543263333333","24.968835","6500600","新店區"
"231044","106-UY","2018/09/17 19:49:08","新北市新店區復興路121號","121.534188333333","24.987995","6500600","新店區"
"231046","107-UY","2018/09/17 19:49:11","新北市新店區福園街10巷1號","121.5327","24.9728133333333","6500600","新店區"
"231052","108-UY","2018/09/17 19:48:58","新北市新店區新烏路三段206號","121.55086","24.9015666666667","6500600","新店區"
"231065","110-UY","2018/09/17 19:48:59","新北市新店區安祥路109巷85弄16號","121.478123333333","24.959805","6500600","新店區"
"231047","187-VK","2018/09/17 19:49:13","新北市新店區五峰路61巷6號","121.548295","24.96978","6500600","新店區"
"231054","KEA-2219","2018/09/17 19:49:00","新北市新店區光明街75號","121.538958333333","24.960605","6500600","新店區"
"221015","KEA-2785","2018/09/17 19:49:01","新北市汐止區大同路二段535號","121.661936666667","25.0691433333333","6501100","汐止區"
"231057","256-BX","2018/09/17 19:49:19","新北市新店區花園二路三段19號","121.556401666667","24.93147","6500600","新店區"
"231042","268-BY","2018/09/17 19:49:15","新北市新店區中興路一段267號","121.544956666667","24.9676083333333","6500600","新店區"
"231051","278-BY","2018/09/17 19:49:10","新北市新店區中央二街66號","121.526516666667","24.9746283333333","6500600","新店區"
"231050","AAD-862","2018/09/17 19:49:08","新北市新店區郵政路101號","121.554191666667","24.9513616666667","6500600","新店區"
"231058","3713-VJ","2018/09/17 19:49:16","新北市新店區吉安街39號","121.515426666667","24.9664","6500600","新店區"
"231066","4716-K9","2018/09/17 19:49:06","新北市新店區安康路二段452-1號","121.495276666667","24.9547333333333","6500600","新店區"
"231056","4715-K9","2018/09/17 19:49:12","新北市新店區中正路485號","121.53386","24.98202","6500600","新店區"
"231067","4772-VM","2018/09/17 19:49:04","新北市新店區精忠路10-1號","121.532585","24.959135","6500600","新店區"
"231049","513-UM","2018/09/17 19:49:04","新北市新店區民權路125號","121.535606666667","24.98282","6500600","新店區"
"231063","616-UM","2018/09/17 19:49:05","新北市新店區車子路11號","121.503026666667","24.9520233333333","6500600","新店區"
"231045","617-UM","2018/09/17 19:49:00","新北市新店區北宜路二段360-1號","121.564618333333","24.9527466666667","6500600","新店區"
"231061","619-UM","2018/09/17 19:48:58","新北市新店區安民街163號","121.516645","24.970005","6500600","新店區"
"231068","718-UY","2018/09/17 19:49:09","新北市新店區安一路一段1-1號","121.519555","24.9613966666667","6500600","新店區"
"231064","719-UM","2018/09/17 19:49:08","新北市新店區安民街156巷37號","121.517898333333","24.9699966666667","6500600","新店區"
"231062","720-UM","2018/09/17 19:49:08","新北市新店區永業路31巷1號","121.53289","24.9554783333333","6500600","新店區"
"231060","897-TW","2018/09/17 19:49:11","新北市新店區安康路二段175號","121.509778333333","24.9591483333333","6500600","新店區"
"231043","899-TW","2018/09/17 19:49:06","新北市新店區中正路225號","121.539485","24.9729766666667","6500600","新店區"
"231055","AKT-0513","2018/09/17 19:49:13","新北市新店區新生街3巷2號","121.540301666667","24.9656816666667","6500600","新店區"
"241011","013-R5","2018/09/17 19:49:05","新北市三重區介壽路41號","121.498625","25.0700616666667","6500200","三重區"
"241028","022-UY","2018/09/17 19:49:08","新北市三重區中正南路133號","121.493958333333","25.056995","6500200","三重區"
"241008","059-VK","2018/09/17 19:49:11","新北市三重區永福街155號","121.478728333333","25.0760133333333","6500200","三重區"
"241022","060-VK","2018/09/17 19:49:03","新北市三重區過圳街31巷2號","121.488968333333","25.0606233333333","6500200","三重區"
"241015","062-VK","2018/09/17 19:49:18","新北市三重區三和路一段12-1號","121.503458333333","25.0647766666667","6500200","三重區"
"241017","063-VK","2018/09/17 19:49:04","新北市三重區重陽路三段5巷8弄29號","121.48958","25.0666016666667","6500200","三重區"
"241026","066-VK","2018/09/17 19:48:58","新北市三重區文化南路42號","121.500348333333","25.0602716666667","6500200","三重區"
"241003","091-VK","2018/09/17 19:49:09","新北市三重區五華街93巷13號","121.492246666667","25.083855","6500200","三重區"
"251014","742-BX","2018/09/17 19:49:10","新北市淡水區番社前1-7號","121.468328333333","25.2364233333333","6501000","淡水區"
"241016","266-UM","2018/09/17 19:49:07","新北市三重區正義北路16巷30號","121.496515","25.0628583333333","6500200","三重區"
"241009","267-UM","2018/09/17 19:49:19","新北市三重區三和路四段396巷7號","121.481105","25.0791516666667","6500200","三重區"
"241018","268-UM","2018/09/17 19:49:02","新北市三重區雙園街57巷36號","121.494531666667","25.0684583333333","6500200","三重區"
"241013","270-UM","2018/09/17 19:49:10","新北市三重區仁愛街112巷14號","121.494728333333","25.0739233333333","6500200","三重區"
"241025","271-UM","2018/09/17 19:48:57","新北市三重區忠孝路三段52號","121.480681666667","25.0656633333333","6500200","三重區"
"241007","398-BY","2018/09/17 19:49:01","新北市三重區三和路四段133-1號","121.484805","25.0778483333333","6500200","三重區"
"241035","KEA-2210","2018/09/17 19:49:03","新北市三重區文化北路18號","121.499381666667","25.06392","6500200","三重區"
"241004","475-VK","2018/09/17 19:49:03","新北市三重區五華街74號","121.493395","25.082025","6500200","三重區"
"241030","480-VK","2018/09/17 19:49:12","新北市三重區環河南路253號","121.491201666667","25.0506183333333","6500200","三重區"
"241014","543-UM","2018/09/17 19:49:10","新北市三重區長元街98巷18弄27號","121.501853333333","25.067425","6500200","三重區"
"241023","545-UM","2018/09/17 19:49:06","新北市三重區大有街1-1號","121.477603333333","25.0655583333333","6500200","三重區"
"241001","547-UM","2018/09/17 19:49:07","新北市三重區仁愛街327巷71號","121.493836666667","25.0804116666667","6500200","三重區"
"241019","KEA-2593","2018/09/17 19:49:16","新北市三重區自強路二段67巷17號","121.489423333333","25.0702716666667","6500200","三重區"
"241006","AAD-863","2018/09/17 19:49:01","新北市三重區永福街194號","121.482303333333","25.07438","6500200","三重區"
"241020","887-TS","2018/09/17 19:49:04","新北市三重區三和路四段2號","121.491746666667","25.0736733333333","6500200","三重區"
"241012","941-UM","2018/09/17 19:49:12","新北市三重區仁興街56巷52號","121.497963333333","25.0753983333333","6500200","三重區"
"241029","942-UM","2018/09/17 19:49:03","新北市三重區光明路27號","121.491248333333","25.0585033333333","6500200","三重區"
"241033","AAC-255","2018/09/17 19:49:18","新北市三重區中興南街64號","121.47061","25.0440066666667","6500200","三重區"
"235066","003-UY","2018/09/17 19:49:12","新北市中和區南工路52號","121.505925","25.0014983333333","6500300","中和區"
"235064","005-UY","2018/09/17 19:49:05","新北市中和區南山路40號","121.501975","24.9976666666667","6500300","中和區"
"235063","006-UY","2018/09/17 19:49:09","新北市中和區連城路263巷7弄1號","121.492236666667","24.9958483333333","6500300","中和區"
"235056","096-UM","2018/09/17 19:49:13","新北市中和區中山路三段114巷26弄1號","121.475825","25.007105","6500300","中和區"
"235039","097-UM","2018/09/17 19:49:05","新北市中和區大勇街27巷1號","121.517258333333","24.9935433333333","6500300","中和區"
"235065","098-UM","2018/09/17 19:48:55","新北市中和區福祥路55號","121.49935","25.0043383333333","6500300","中和區"
"235040","150-BY","2018/09/17 19:49:15","新北市中和區景安路85號","121.506286666667","24.9969583333333","6500300","中和區"
"235058","151-BY","2018/09/17 19:49:08","新北市中和區員山路157號","121.481136666667","24.996505","6500300","中和區"
"235055","183-VK","2018/09/17 19:49:07","新北市中和區中山路三段181巷18弄11號","121.472748333333","25.0048216666667","6500300","中和區"
"235038","185-VK","2018/09/17 19:49:04","新北市永和區民族街81巷62號","121.520388333333","24.99631","6500300","中和區"
"235049","186-VK","2018/09/17 19:49:03","新北市中和區中正路70巷2號","121.500986666667","24.9938366666667","6500300","中和區"
"235067","255-BX","2018/09/17 19:49:09","新北市中和區新生街249號","121.483866666667","24.9987083333333","6500300","中和區"
"235044","293-VK","2018/09/17 19:49:13","新北市中和區南山路130號","121.503705","24.992875","6500300","中和區"
"235072","301-VK","2018/09/17 19:49:12","新北市中和區錦和路93巷4弄2號","121.490411666667","24.99575","6500300","中和區"
"235043","352-BY","2018/09/17 19:49:11","新北市中和區華新街228號","121.506098333333","24.9817466666667","6500300","中和區"
"235042","KEA-2878","2018/09/17 19:49:14","新北市中和區保健路2巷18號","121.50732","24.997835","6500300","中和區"
"235050","4979-A6","2018/09/17 19:49:13","新北市中和區景平路259巷47號","121.50613","24.9927983333333","6500300","中和區"
"235069","4980-A6","2018/09/17 19:49:04","新北市中和區中正路637巷52弄1號","121.48545","24.9934433333333","6500300","中和區"
"235070","558-UM","2018/09/17 19:49:13","新北市中和區連勝街32號","121.498211666667","24.99784","6500300","中和區"
"235045","565-BX","2018/09/17 19:48:59","新北市中和區景新街326號","121.511753333333","24.99103","6500300","中和區"
"235054","640-BX","2018/09/17 19:49:12","新北市中和區德光路36號","121.470401666667","25.0043033333333","6500300","中和區"
"235047","732-UM","2018/09/17 19:49:11","新北市中和區南山路281號","121.504255","24.9922633333333","6500300","中和區"
"235046","733-UM","2018/09/17 19:49:01","新北市中和區仁愛街60號","121.51113","24.9878216666667","6500300","中和區"
"235071","783-BX","2018/09/17 19:49:14","新北市中和區中山路二段437號","121.48483","25.00477","6500300","中和區"
"235057","801-TS","2018/09/17 19:49:15","新北市中和區員山路128號","121.481196666667","24.996105","6500300","中和區"
"235041","802-TS","2018/09/17 19:49:16","新北市中和區永貞路239巷22號","121.512521666667","25.0031366666667","6500300","中和區"
"235052","805-TS","2018/09/17 19:49:17","新北市中和區興南路二段79-2號","121.50668","24.9847383333333","6500300","中和區"
"235048","896-TW","2018/09/17 19:49:09","新北市中和區興南路二段47號","121.507285","24.9854783333333","6500300","中和區"
"235053","900-TW","2018/09/17 19:49:13","新北市中和區國光街189巷26號","121.467703333333","25.0007333333333","6500300","中和區"
"235060","911-UM","2018/09/17 19:49:09","新北市中和區新生街14號","121.483043333333","25.004385","6500300","中和區"
"235051","157-BY","2018/09/17 19:49:11","新北市中和區中興街136號","121.49951","24.9920433333333","6500300","中和區"
"235037","AAC-213","2018/09/17 19:49:14","新北市中和區秀朗路三段173-2號","121.524381666667","24.9914","6500300","中和區"
"235059","AAC-215","2018/09/17 19:49:07","新北市中和區圓通路305巷16號","121.494178333333","24.9894816666667","6500300","中和區"
"220090","013-TV","2018/09/17 19:49:16","新北市板橋區龍泉街54巷6號","121.45691","25.02662","6500100","板橋區"
"220065","072-UY","2018/09/17 19:49:14","新北市板橋區民族路278號","121.470026666667","25.00692","6500100","板橋區"
"220086","073-UY","2018/09/17 19:49:07","新北市板橋區南雅西路二段2-1號","121.453333333333","25.0087716666667","6500100","板橋區"
"220106","075-UY","2018/09/17 19:49:18","新北市板橋區民治街57巷26號","121.480093333333","25.033855","6500100","板橋區"
"220069","AAD-861","2018/09/17 19:49:12","新北市板橋區貴興路106巷16弄2號","121.454841666667","25.0035166666667","6500100","板橋區"
"247002","893-R6","2018/09/17 19:49:16","新北市蘆洲區永樂街38巷65號","121.45853","25.0904266666667","6501400","蘆洲區"
"247014","339-TH","2018/09/17 19:49:06","新北市蘆洲區中央路103號","121.472225","25.08403","6501400","蘆洲區"
"247008","336-TH","2018/09/17 19:49:02","新北市蘆洲區中山一路21號","121.47939","25.08077","6501400","蘆洲區"
"247004","002-UY","2018/09/17 19:49:08","新北市蘆洲區長安街225號","121.459483333333","25.082515","6501400","蘆洲區"
"226004","312-R5","2018/09/17 19:49:07","新北市平溪區靜安路三段392巷3號","121.78442","25.04955","6502400","平溪區"
"228003","097-TW","2018/09/17 19:49:05","新北市貢寮區真理里美艷山街6-2號","121.92899","25.0613416666667","6502600","貢寮區"
"228001","670-TC","2018/09/17 19:49:02","新北市貢寮區真理里新港街95號","121.926781666667","25.0567666666667","6502600","貢寮區"
"224010","AGQ-8101","2018/09/17 19:48:47","新北市瑞芳區基山街127號","121.84413","25.1084383333333","6501200","瑞芳區"
"224002","639-TC","2018/09/17 19:49:12","新北市瑞芳區民享新村26號","121.817078333333","25.105805","6501200","瑞芳區"
"227008","642-TC","2018/09/17 19:48:59","新北市雙溪區新基里中華路79號","121.86581","25.03837","6502500","雙溪區"
"227001","400-TW","2018/09/17 19:49:06","新北市雙溪區雙溪里內挖路47號","121.863215","25.03682","6502500","雙溪區"
"222001","KEA-2212","2018/09/17 19:49:07","新北市深坑區北深路三段47號","121.607955","25.0012983333333","6501800","深坑區"
"208002","KEA-2872","2018/09/17 19:49:21","新北市金山區八德街12號","121.634928333333","25.2236266666667","6502700","金山區"
"208003","665-BX","2018/09/17 19:49:15","新北市金山區清泉里清水路41巷2號","121.629685","25.2333433333333","6502700","金山區"
"208001","761-BX","2018/09/17 19:49:03","新北市金山區重和里六股林口24號","121.603393333333","25.2192916666667","6502700","金山區"
"251005","010-UM","2018/09/17 19:49:01","新北市淡水區中正東路3號","121.445078333333","25.16868","6501000","淡水區"
"251013","KEA-2871","2018/09/17 19:49:03","新北市淡水區頂田寮1-1號","121.458478333333","25.214595","6501000","淡水區"
"251016","179-VK","2018/09/17 19:49:12","新北市淡水區三塊厝3-2號","121.456183333333","25.20923","6501000","淡水區"
"251015","180-VK","2018/09/17 19:49:08","新北市淡水區北新路二段61號","121.479091666667","25.185715","6501000","淡水區"
"251008","181-VK","2018/09/17 19:49:14","新北市淡水區中正路一段24巷6號","121.426965","25.1773666666667","6501000","淡水區"
"251010","413-VK","2018/09/17 19:46:15","新北市淡水區崁頂里77號","121.430706666667","25.2032066666667","6501000","淡水區"
"251012","441-VK","2018/09/17 19:49:11","新北市淡水區淡金路三段70巷1號","121.448295","25.2004066666667","6501000","淡水區"
"251007","442-VK","2018/09/17 19:49:04","新北市淡水區中正東路一段111巷1號","121.453816666667","25.1600016666667","6501000","淡水區"
"251001","559-UM","2018/09/17 19:49:13","新北市淡水區坪頂路27號","121.456271666667","25.162115","6501000","淡水區"
"251006","561-UM","2018/09/17 19:49:01","新北市淡水區水碓街15號","121.443486666667","25.1769733333333","6501000","淡水區"
"251009","575-R6","2018/09/17 19:49:07","新北市淡水區中正路36號","121.4438","25.16923","6501000","淡水區"
"251011","650-BX","2018/09/17 19:49:02","新北市淡水區淡金路二段147號","121.449828333333","25.1827716666667","6501000","淡水區"
"251003","673-BX","2018/09/17 19:49:06","新北市淡水區崁頂61號","121.43991","25.2009766666667","6501000","淡水區"
"207003","550-UM","2018/09/17 19:49:07","新北市萬里區大鵬里萬里加投68號","121.642328333333","25.21476","6502800","萬里區"
"207004","225-TW","2018/09/17 19:49:11","新北市萬里區萬里里瑪鋉路221號","121.689793333333","25.1798183333333","6502800","萬里區"
"252002","178-VK","2018/09/17 19:49:19","新北市三芝區三民街33-1號","121.504655","25.258595","6502100","三芝區"
"252001","292-VK","2018/09/17 19:49:15","新北市三芝區公正街66號","121.499781666667","25.2574533333333","6502100","三芝區"
"237004","KEA-2597","2018/09/17 19:49:00","新北市三峽區金敏5號","121.384776666667","24.875125","6500900","三峽區"
"237007","153-BY","2018/09/17 19:49:02","新北市三峽區二鬮路136巷22弄53號","121.357698333333","24.9103733333333","6500900","三峽區"
"237009","210-TH","2018/09/17 19:49:14","新北市三峽區中園街62-3號","121.368081666667","24.9257033333333","6500900","三峽區"
"237013","252-BX","2018/09/17 19:49:11","新北市三峽區溪北街78號","121.397743333333","24.9356066666667","6500900","三峽區"
"237012","275-BY","2018/09/17 19:49:11","新北市三峽區愛國路34巷1號","121.374486666667","24.932745","6500900","三峽區"
"237008","302-VK","2018/09/17 19:49:06","新北市三峽區中正路一段108巷28號","121.37339","24.9303583333333","6500900","三峽區"
"237014","433-BY","2018/09/17 19:49:03","新北市三峽區中正路二段226號","121.365893333333","24.9135166666667","6500900","三峽區"
"237006","5529-G3","2018/09/17 19:49:17","新北市三峽區中正路一段336巷15弄2號","121.369953333333","24.9249466666667","6500900","三峽區"
"237011","KEA-2596","2018/09/17 19:49:02","新北市三峽區介壽路二段6巷2-1號","121.389271666667","24.9346133333333","6500900","三峽區"
"237015","649-BX","2018/09/17 19:49:13","新北市三峽區溪東路218巷25號","121.407051666667","24.9304966666667","6500900","三峽區"
"237010","706-TV","2018/09/17 19:49:12","新北市三峽區復興路49號","121.373423333333","24.9370333333333","6500900","三峽區"
"237005","AKY-6261","2018/09/17 19:49:15","新北市三峽區民生街111號","121.37392","24.93548","6500900","三峽區"
"236069","105-UM","2018/09/17 19:49:14","新北市土城區水源街33號","121.440848333333","24.9755316666667","6501300","土城區"
"236042","107-UM","2018/09/17 19:49:00","新北市土城區裕民路233巷1號","121.454875","24.98361","6501300","土城區"
"236078","166-UM","2018/09/17 19:49:13","新北市土城區中央路四段254號","121.414945","24.9569316666667","6501300","土城區"
"236030","253-BX","2018/09/17 19:49:06","新北市土城區中央路一段294號","121.443396666667","24.9824016666667","6501300","土城區"
"236026","269-VK","2018/09/17 19:49:05","新北市土城區中央路二段61巷26號","121.443313333333","24.9786916666667","6501300","土城區"
"236014","270-VK","2018/09/17 19:48:58","新北市土城區廣明街41巷35號","121.453968333333","24.992505","6501300","土城區"
"236039","271-VK","2018/09/17 19:49:16","新北市土城區國際路158巷57號","121.468086666667","24.97511","6501300","土城區"
"236020","401-BY","2018/09/17 19:49:15","新北市土城區峰廷街24-1號","121.469278333333","24.9868583333333","6501300","土城區"
"236059","912-UM","2018/09/17 19:49:03","新北市土城區中央路一段146號","121.446191666667","24.9874533333333","6501300","土城區"
"236048","913-UM","2018/09/17 19:49:15","新北市土城區青雲路188號","121.459083333333","24.9822116666667","6501300","土城區"
"236063","915-UM","2018/09/17 19:49:07","新北市土城區延和路103號","121.467513333333","24.990285","6501300","土城區"
"236055","AAC-216","2018/09/17 19:49:10","新北市土城區延和路150號","121.467838333333","24.990275","6501300","土城區"
"242036","AAC-296","2018/09/17 19:49:12","新北市新莊區建安街101巷1弄4號","121.427005","25.0240616666667","6500500","新莊區"
"242058","986-R7","2018/09/17 19:49:07","新北市新莊區中正路400號","121.441953333333","25.034325","6500500","新莊區"
"242029","612-BX","2018/09/17 19:49:07","新北市新莊區中平路283號","121.444738333333","25.0502583333333","6500500","新莊區"
"242048","497-BY","2018/09/17 19:49:04","新北市新莊區建安街92巷15號","121.425813333333","25.0243566666667","6500500","新莊區"
"242002","440-UM","2018/09/17 19:49:10","新北市新莊區武前街29號","121.45019","25.0325266666667","6500500","新莊區"
"242039","415-TV","2018/09/17 19:49:14","新北市新莊區民安路299巷37號","121.429385","25.0232666666667","6500500","新莊區"
"242023","362-BY","2018/09/17 19:49:06","新北市新莊區化成路208號","121.465601666667","25.04641","6500500","新莊區"
"242060","353-BY","2018/09/17 19:49:07","新北市新莊區中環路一段10號","121.442825","25.0258116666667","6500500","新莊區"
"242034","135-UY","2018/09/17 19:48:58","新北市新莊區仁愛街39號","121.444256666667","25.03668","6500500","新莊區"
"242050","172-VK","2018/09/17 19:49:15","新北市新莊區民安路292號","121.42808","25.0217033333333","6500500","新莊區"
"242013","173-VK","2018/09/17 19:49:19","新北市新莊區中誠街71號","121.4506","25.047715","6500500","新莊區"
"242007","176-VK","2018/09/17 19:49:02","新北市新莊區中央路100號","121.457405","25.0596183333333","6500500","新莊區"
"242004","347-TH","2018/09/17 19:49:17","新北市新莊區化成路63巷105號","121.461585","25.0459233333333","6500500","新莊區"
"242031","348-TH","2018/09/17 19:49:20","新北市新莊區忠孝街36號","121.44394","25.035675","6500500","新莊區"
"242015","351-TH","2018/09/17 19:49:07","新北市新莊區中港一街161號","121.447133333333","25.0449516666667","6500500","新莊區"
"238015","755-BX","2018/09/17 19:49:03","新北市樹林區中山路二段72-2號","121.415388333333","24.9839783333333","6500700","樹林區"
"238023","601-UM","2018/09/17 19:49:16","新北市樹林區三福街87號","121.406958333333","25.0163066666667","6500700","樹林區"
"238024","5061-A6","2018/09/17 19:49:02","新北市樹林區育德街78-1號","121.387586666667","24.9682033333333","6500700","樹林區"
"238022","KEA-2213","2018/09/17 19:49:13","新北市樹林區名園街51巷6弄46號","121.421156666667","24.9781533333333","6500700","樹林區"
"238021","KEA-2539","2018/09/17 19:49:19","新北市樹林區佳園路三段101巷62弄19號","121.393083333333","24.9488816666667","6500700","樹林區"
"238025","303-VK","2018/09/17 19:49:01","新北市樹林區中山路二段44號","121.416913333333","24.984845","6500700","樹林區"
"238017","283-BY","2018/09/17 19:49:03","新北市樹林區大安路436號","121.415065","24.9882133333333","6500700","樹林區"
"238014","282-BY","2018/09/17 19:49:12","新北市樹林區千歲街68號","121.426228333333","24.9975016666667","6500700","樹林區"
"238026","172-UY","2018/09/17 19:49:12","新北市樹林區佳園路二段15巷35號","121.394928333333","24.963035","6500700","樹林區"
"239006","891-R6","2018/09/17 19:49:00","新北市鶯歌區尖山埔路144號","121.343646666667","24.9497566666667","6500800","鶯歌區"
"221008","489-VK","2018/09/17 19:49:07","新北市汐止區康寧街83巷22號","121.620335","25.06694","6501100","汐止區"
"221036","130-UY","2018/09/17 19:49:17","新北市汐止區汐萬路一段160號","121.652573333333","25.0715016666667","6501100","汐止區"
"221010","269-BY","2018/09/17 19:49:00","新北市汐止區汐萬路一段418巷1弄26號","121.649738333333","25.0783433333333","6501100","汐止區"
"221012","278-VK","2018/09/17 19:49:10","新北市汐止區保長路271巷2號","121.680923333333","25.0742483333333","6501100","汐止區"
"221023","279-VK","2018/09/17 19:49:04","新北市汐止區民族六街3巷1號","121.62942","25.0703333333333","6501100","汐止區"
"221032","280-BY","2018/09/17 19:49:09","新北市汐止區橫科路119號","121.620053333333","25.0504333333333","6501100","汐止區"
"221027","281-BY","2018/09/17 19:49:09","新北市汐止區秀峰路17巷4號","121.659911666667","25.06672","6501100","汐止區"
"221021","299-VK","2018/09/17 19:49:03","新北市汐止區新興路85巷1號","121.657906666667","25.0615783333333","6501100","汐止區"
"221031","353-TW","2018/09/17 19:49:16","新北市汐止區福德三路127號","121.633706666667","25.0674783333333","6501100","汐止區"
"221035","622-UM","2018/09/17 19:49:05","新北市汐止區長江街13巷6弄1號","121.654728333333","25.0716766666667","6501100","汐止區"
"221025","623-UM","2018/09/17 19:49:01","新北市汐止區秀峰路81巷15弄4-1號","121.660758333333","25.0645883333333","6501100","汐止區"
"221038","646-BX","2018/09/17 19:49:02","新北市汐止區忠孝東路417號","121.665826666667","25.07142","6501100","汐止區"
"221002","707-TV","2018/09/17 19:48:59","新北市汐止區大同路一段219巷26號","121.633225","25.058465","6501100","汐止區"
"221018","753-BX","2018/09/17 19:49:08","新北市汐止區茄苳路3號","121.664696666667","25.0706866666667","6501100","汐止區"
"220079","145-BY","2018/09/17 19:49:16","新北市板橋區中正路183巷18號","121.455875","25.0165","6500100","板橋區"
"220080","200-UY","2018/09/17 19:49:10","新北市板橋區大觀路二段37巷55號","121.449353333333","25.00262","6500100","板橋區"
"220082","610-BX","2018/09/17 19:49:05","新北市板橋區篤行路二段102號","121.43145","24.9913016666667","6500100","板橋區"
"220101","245-BX","2018/09/17 19:49:18","新北市板橋區莊敬路261號","121.473888333333","25.0215766666667","6500100","板橋區"
"220098","257-TC","2018/09/17 19:49:07","新北市板橋區新海路386號","121.458978333333","25.02625","6500100","板橋區"
"220091","267-BY","2018/09/17 19:49:04","新北市板橋區懷德街127巷23弄33號","121.48026","25.0320733333333","6500100","板橋區"
"220056","276-BY","2018/09/17 19:49:03","新北市板橋區四川路二段99巷2弄2號","121.452673333333","24.994485","6500100","板橋區"
"220072","277-BY","2018/09/17 19:49:08","新北市板橋區篤行路二段77巷11-3號","121.432633333333","24.99174","6500100","板橋區"
"220071","283-VK","2018/09/17 19:49:15","新北市板橋區五權街30巷24弄13號","121.463695","24.9933466666667","6500100","板橋區"
"220094","285-UM","2018/09/17 19:49:09","新北市板橋區長江路一段147號","121.460918333333","25.0302833333333","6500100","板橋區"
"220053","285-VK","2018/09/17 19:49:06","新北市板橋區中山路二段60巷11號","121.474226666667","25.0151983333333","6500100","板橋區"
"220083","286-VK","2018/09/17 19:49:21","新北市板橋區僑中二街124巷2號","121.445481666667","25.0053116666667","6500100","板橋區"
"220081","287-VK","2018/09/17 19:49:05","新北市板橋區大觀路一段29巷91號","121.450516666667","25.0063316666667","6500100","板橋區"
"220061","293-UM","2018/09/17 19:49:15","新北市板橋區漢生東路113巷21號","121.468113333333","25.0155383333333","6500100","板橋區"
"220097","299-UM","2018/09/17 19:49:08","新北市板橋區文化路一段285巷1弄1號","121.464465","25.018835","6500100","板橋區"
"220075","303-R5","2018/09/17 19:49:07","新北市板橋區金華街10巷48弄61號","121.45916","25.02023","6500100","板橋區"
"220062","305-R5","2018/09/17 19:49:14","新北市板橋區中山路二段416巷52-1號","121.482961666667","25.019235","6500100","板橋區"
"220092","307-R5","2018/09/17 19:49:02","新北市板橋區四維路259巷19號","121.462333333333","25.0275783333333","6500100","板橋區"
"220064","486-VK","2018/09/17 19:49:17","新北市板橋區館前東路96號","121.462301666667","25.00747","6500100","板橋區"
"220035","560-BX","2018/09/17 19:49:16","新北市板橋區金華街109號","121.459","25.0209166666667","6500100","板橋區"
"220103","561-BX","2018/09/17 19:49:16","新北市板橋區陽明街29巷3號","121.465236666667","25.02163","6500100","板橋區"
"220084","568-UM","2018/09/17 19:48:59","新北市板橋區溪崑二街120號","121.426185","24.9882316666667","6500100","板橋區"
"220063","609-BX","2018/09/17 19:49:14","新北市板橋區三民路一段3巷1號","121.478681666667","25.02357","6500100","板橋區"
"220057","686-BX","2018/09/17 19:49:21","新北市板橋區信義路243號","121.460268333333","24.9909766666667","6500100","板橋區"
"220077","687-BX","2018/09/17 19:49:07","新北市板橋區僑中一街150號","121.444786666667","25.0120833333333","6500100","板橋區"
"220093","689-BX","2018/09/17 19:49:11","新北市板橋區長江路二段225號","121.4683","25.0325316666667","6500100","板橋區"
"220054","741-BX","2018/09/17 19:49:14","新北市板橋區忠孝路忠義巷18弄1號","121.466385","25.0038166666667","6500100","板橋區"
"220102","KEA-2699","2018/09/17 19:49:17","新北市板橋區松柏街57-4號","121.475688333333","25.030325","6500100","板橋區"
"220055","827-TW","2018/09/17 19:49:04","新北市板橋區國慶路149巷29弄15號","121.460276666667","24.9975883333333","6500100","板橋區"
"220067","829-TW","2018/09/17 19:49:06","新北市板橋區長安街259巷2號","121.473218333333","25.010495","6500100","板橋區"
"220068","830-TW","2018/09/17 19:49:17","新北市板橋區中山路二段412巷7號","121.483245","25.0206783333333","6500100","板橋區"
"220096","831-TW","2018/09/17 19:49:21","新北市板橋區民生路二段226巷31弄1號","121.471001666667","25.022055","6500100","板橋區"
"220089","833-TW","2018/09/17 19:49:16","新北市板橋區新海路385巷32號","121.457473333333","25.0254933333333","6500100","板橋區"
"220074","895-R6","2018/09/17 19:49:16","新北市板橋區文化路一段46巷23號","121.460393333333","25.0114266666667","6500100","板橋區"
"220073","985-R7","2018/09/17 19:49:02","新北市板橋區大仁街95號","121.453063333333","25.0158783333333","6500100","板橋區"
"220070","AAC-253","2018/09/17 19:49:20","新北市板橋區民族路133號","121.467638333333","25.007925","6500100","板橋區"
"235068","KEA-2873","2018/09/17 19:49:06","新北市中和區泰和街3號","121.49981","25.0007533333333","6500300","中和區"
"235061","KEA-2875","2018/09/17 19:48:59","新北市中和區員山路174巷11號","121.482056666667","24.999925","6500300","中和區"
