"lineid","car","time","location","longitude","latitude","cityid","cityname"
"234070","552-UM","2018/09/17 21:09:51","新北市八里區中山路三段390號","121.368138333333","25.1349966666667","6500400","永和區"
"231059","046-UY","2018/09/17 21:09:32","新北市新店區僑信路43號","121.499335","24.9501466666667","6500600","新店區"
"231040","047-UY","2018/09/17 21:09:47","新北市新店區北新路一段351號","121.541778333333","24.9693383333333","6500600","新店區"
"231065","110-UY","2018/09/17 21:09:42","新北市新店區安祥路69巷41弄25號","121.482195","24.9612833333333","6500600","新店區"
"231047","187-VK","2018/09/17 21:09:33","新北市新店區文化路39號","121.544023333333","24.98024","6500600","新店區"
"231054","KEA-2219","2018/09/17 21:09:40","新北市新店區大新街18號","121.543251666667","24.9683833333333","6500600","新店區"
"231042","268-BY","2018/09/17 21:09:35","新北市新店區寶興路60巷3號","121.549891666667","24.97184","6500600","新店區"
"231051","278-BY","2018/09/17 21:08:50","新北市新店區中正路700巷40號","121.535663333333","24.9917483333333","6500600","新店區"
"231050","AAD-862","2018/09/17 21:09:48","新北市新店區中華路83巷4弄20號","121.538268333333","24.9688683333333","6500600","新店區"
"231067","4772-VM","2018/09/17 21:09:44","新北市新店區安康路二段316號","121.505373333333","24.9581483333333","6500600","新店區"
"231063","616-UM","2018/09/17 21:09:45","新北市新店區玫瑰路58巷2號","121.495341666667","24.94659","6500600","新店區"
"231045","617-UM","2018/09/17 21:09:40","新北市新店區薏仁坑路自強巷1號","121.497756666667","24.9577383333333","6500600","新店區"
"231061","619-UM","2018/09/17 21:09:46","新北市新店區永安街42號","121.518155","24.9867416666667","6500600","新店區"
"231064","719-UM","2018/09/17 21:09:48","新北市新店區薏仁坑路自強巷6號","121.496668333333","24.958455","6500600","新店區"
"231062","720-UM","2018/09/17 21:09:49","新北市新店區雙城路100號","121.492361666667","24.9482933333333","6500600","新店區"
"231060","897-TW","2018/09/17 21:09:31","新北市新店區安康路二段311號","121.49993","24.9568583333333","6500600","新店區"
"241011","013-R5","2018/09/17 21:09:46","新北市三重區龍濱路120-2號","121.501945","25.0710683333333","6500200","三重區"
"241028","022-UY","2018/09/17 21:09:48","新北市三重區正義南路47號","121.49821","25.060695","6500200","三重區"
"241008","059-VK","2018/09/17 21:09:51","新北市三重區自強路一段62號","121.49724","25.0667533333333","6500200","三重區"
"241022","060-VK","2018/09/17 21:09:43","新北市三重區中正北路64巷20號","121.486115","25.0637816666667","6500200","三重區"
"241015","062-VK","2018/09/17 21:09:41","新北市三重區長元街81號","121.50352","25.0668066666667","6500200","三重區"
"241017","063-VK","2018/09/17 21:09:44","新北市三重區國隆路31號","121.492326666667","25.064565","6500200","三重區"
"241024","065-VK","2018/09/17 21:09:36","新北市三重區大勇街82巷15弄30號","121.481273333333","25.07198","6500200","三重區"
"241026","066-VK","2018/09/17 21:09:38","新北市三重區文化南路42號","121.500406666667","25.0602616666667","6500200","三重區"
"241002","090-VK","2018/09/17 21:09:39","新北市三重區五華街7巷16號","121.495793333333","25.080395","6500200","三重區"
"241003","091-VK","2018/09/17 21:09:49","新北市三重區仁義街337-1號","121.495006666667","25.0847616666667","6500200","三重區"
"251014","742-BX","2018/09/17 21:09:50","新北市淡水區六塊厝3號","121.450978333333","25.2405083333333","6501000","淡水區"
"241005","262-UM","2018/09/17 21:09:51","新北市三重區三信路11號","121.48824","25.0863033333333","6500200","三重區"
"241016","266-UM","2018/09/17 21:09:47","新北市三重區信義西街118號","121.495698333333","25.0642666666667","6500200","三重區"
"241009","267-UM","2018/09/17 21:09:39","新北市三重區忠孝路二段122號","121.482986666667","25.068755","6500200","三重區"
"241018","268-UM","2018/09/17 21:09:42","新北市三重區正義北路332-1號","121.494293333333","25.0705433333333","6500200","三重區"
"241013","270-UM","2018/09/17 21:09:30","新北市三重區仁賢街12-1號","121.4957","25.074855","6500200","三重區"
"241025","271-UM","2018/09/17 21:09:37","新北市三重區中正北路208巷8號","121.48232","25.0669366666667","6500200","三重區"
"241007","398-BY","2018/09/17 21:09:40","新北市三重區三和路四段145巷85號","121.486383333333","25.0787683333333","6500200","三重區"
"241004","475-VK","2018/09/17 21:09:43","新北市三重區仁愛街423-1號","121.490355","25.0814483333333","6500200","三重區"
"241030","480-VK","2018/09/17 21:09:52","新北市三重區五谷王北街20巷15弄1號","121.47504","25.048465","6500200","三重區"
"241014","543-UM","2018/09/17 21:09:31","新北市三重區三和路二段37-9號","121.501301666667","25.067665","6500200","三重區"
"241023","545-UM","2018/09/17 21:09:46","新北市三重區洛陽街45巷15號","121.482363333333","25.0637766666667","6500200","三重區"
"241001","547-UM","2018/09/17 21:09:47","新北市三重區自強路三段87巷4號","121.487738333333","25.0748916666667","6500200","三重區"
"241019","KEA-2593","2018/09/17 21:09:36","新北市三重區自強路二段74巷19號","121.487948333333","25.0699166666667","6500200","三重區"
"241006","AAD-863","2018/09/17 21:09:41","新北市三重區明志街135號","121.489256666667","25.0632716666667","6500200","三重區"
"241031","743-BX","2018/09/17 21:09:48","新北市三重區重新路五段416號","121.475653333333","25.0476016666667","6500200","三重區"
"241020","887-TS","2018/09/17 21:09:44","新北市三重區忠孝路二段34號","121.485726666667","25.071045","6500200","三重區"
"241012","941-UM","2018/09/17 21:09:32","新北市三重區仁信街27號","121.501295","25.07557","6500200","三重區"
"241029","942-UM","2018/09/17 21:09:43","新北市三重區正義南路111號","121.498205","25.0585533333333","6500200","三重區"
"241033","AAC-255","2018/09/17 21:09:38","新北市三重區重光街107-2號","121.46637","25.0649083333333","6500200","三重區"
"247012","KEA-2869","2018/09/17 21:09:50","新北市蘆洲區民權路8-1號","121.476701666667","25.08577","6501400","蘆洲區"
"235010","733-UM","2018/09/17 21:08:59","新北市中和區員山路36巷13號","121.484131666667","24.9908","6500300","中和區"
"247002","893-R6","2018/09/17 21:09:36","新北市蘆洲區永樂街38巷40號","121.458585","25.0900983333333","6501400","蘆洲區"
"247016","546-UM","2018/09/17 21:09:44","新北市蘆洲區中正路185巷84號","121.465761666667","25.0841","6501400","蘆洲區"
"247024","500-BY","2018/09/17 21:09:37","新北市蘆洲區長興路50巷1號","121.463776666667","25.0838633333333","6501400","蘆洲區"
"247014","339-TH","2018/09/17 21:09:46","新北市蘆洲區中央路155號","121.47267","25.0846983333333","6501400","蘆洲區"
"247006","337-TH","2018/09/17 21:09:48","新北市蘆洲區九芎街90巷10號","121.465501666667","25.0804016666667","6501400","蘆洲區"
"247008","336-TH","2018/09/17 21:09:42","新北市蘆洲區民生街47號","121.475048333333","25.0788683333333","6501400","蘆洲區"
"247020","057-VK","2018/09/17 21:09:45","新北市蘆洲區民族路446-5號","121.472653333333","25.0922566666667","6501400","蘆洲區"
"247010","056-VK","2018/09/17 21:09:43","新北市蘆洲區鷺江街38號","121.477341666667","25.08306","6501400","蘆洲區"
"247018","007-UY","2018/09/17 21:09:41","新北市蘆洲區民族路408巷10號","121.474835","25.0918483333333","6501400","蘆洲區"
"247004","002-UY","2018/09/17 21:09:47","新北市蘆洲區永安南路二段282-1號","121.457828333333","25.0811616666667","6501400","蘆洲區"
"247022","001-UY","2018/09/17 21:09:50","新北市蘆洲區中正路180號","121.467028333333","25.08793","6501400","蘆洲區"
"251005","010-UM","2018/09/17 21:09:21","新北市淡水區英專路2巷27號","121.446476666667","25.1693516666667","6501000","淡水區"
"251013","KEA-2871","2018/09/17 21:09:43","新北市淡水區埤島52號","121.46417","25.1992516666667","6501000","淡水區"
"251016","179-VK","2018/09/17 21:09:32","新北市淡水區前洲子3-1號","121.443341666667","25.2161933333333","6501000","淡水區"
"251015","180-VK","2018/09/17 21:09:48","新北市淡水區淡金路四段542巷90號","121.454975","25.22559","6501000","淡水區"
"251010","413-VK","2018/09/17 21:09:35","新北市淡水區中正路一段102號","121.424248333333","25.1777183333333","6501000","淡水區"
"251012","441-VK","2018/09/17 21:09:43","新北市淡水區淡金路五段172號","121.457013333333","25.239845","6501000","淡水區"
"251007","442-VK","2018/09/17 21:09:41","新北市淡水區仁愛街2巷14號","121.446501666667","25.1710583333333","6501000","淡水區"
"251001","559-UM","2018/09/17 21:09:33","新北市淡水區新市一路三段101巷16弄3號","121.446615","25.1838533333333","6501000","淡水區"
"251011","650-BX","2018/09/17 21:09:42","新北市淡水區新民街180巷7弄10號","121.437411666667","25.17973","6501000","淡水區"
"251002","672-BX","2018/09/17 21:09:39","新北市淡水區水源街一段147號","121.447523333333","25.17175","6501000","淡水區"
"251003","673-BX","2018/09/17 21:09:46","新北市淡水區新春街87號","121.438993333333","25.18253","6501000","淡水區"
"242053","442-UM","2018/09/17 21:09:38","新北市樹林區中山路三段214號","121.38003","24.9678716666667","6500500","新莊區"
"220064","486-VK","2018/09/17 21:09:37","新北市五股區新五路二段90號","121.437068333333","25.0750366666667","6500100","板橋區"
"220070","AAC-253","2018/09/17 21:09:40","新北市八里區中華路三段45號","121.3955","25.141895","6500100","板橋區"
