"lineid","car","time","location","longitude","latitude","cityid","cityname"
"232002","290-BY","2018/09/18 06:38:25","新北市坪林區北宜路八段558號","121.717871666667","24.90938","6502000","坪林區"
"232013","291-BY","2018/09/18 06:38:34","新北市坪林區北宜路八段558號","121.717978333333","24.9091483333333","6502000","坪林區"
"232006","758-BX","2018/09/18 06:38:14","新北市坪林區北宜路八段558號","121.717988333333","24.9092883333333","6502000","坪林區"
"235001","611-BX","2018/09/18 06:38:14","新北市中和區圓通路367巷8號","121.491533333333","24.9891816666667","6500300","中和區"
"223006","022-BY","2018/09/18 06:38:29","新北市石碇區碇坪路一段95號","121.662333333333","24.990105","6501900","石碇區"
"223002","KEA-2673","2018/09/18 06:38:15","新北市石碇區石碇東街46號","121.659533333333","24.991115","6501900","石碇區"
"223003","205-TH","2018/09/18 06:38:30","新北市石碇區碇坪路一段111號","121.664236666667","24.98832","6501900","石碇區"
"223008","406-TH","2018/09/18 06:38:24","新北市石碇區小粗坑(潭邊里)2號","121.671023333333","24.9826016666667","6501900","石碇區"
"223007","661-BX","2018/09/18 06:38:20","新北市石碇區石崁2-3號","121.652366666667","24.9997516666667","6501900","石碇區"
"227006","282-VK","2018/09/18 06:38:21","新北市雙溪區牡丹里中正路93巷3號","121.861355","25.04851","6502500","雙溪區"
"242001","233-RS","2018/09/18 06:38:18","新北市新莊區中港路290號","121.45299","25.0445583333333","6500500","新莊區"
