"lineid","car","time","location","longitude","latitude","cityid","cityname"
"232002","290-BY","2018/09/18 06:49:25","新北市坪林區九芎林14-4號","121.707255","24.9324066666667","6502000","坪林區"
"232013","291-BY","2018/09/18 06:49:14","新北市坪林區水柳腳39號","121.709678333333","24.9351516666667","6502000","坪林區"
"232006","758-BX","2018/09/18 06:49:14","新北市坪林區石46號","121.72804","24.8943983333333","6502000","坪林區"
"235001","611-BX","2018/09/18 06:49:14","新北市中和區圓通路367巷4號","121.491366666667","24.989255","6500300","中和區"
"223006","022-BY","2018/09/18 06:49:29","新北市石碇區楓子林54-3號","121.642705","25.0085533333333","6501900","石碇區"
"223002","KEA-2673","2018/09/18 06:48:55","新北市石碇區員山子1-1號","121.652226666667","24.9685683333333","6501900","石碇區"
"223003","205-TH","2018/09/18 06:49:30","新北市石碇區湳窟37-1號","121.661228333333","24.9958033333333","6501900","石碇區"
"223008","406-TH","2018/09/18 06:49:24","新北市石碇區雙溪84-1號","121.66124","25.0090083333333","6501900","石碇區"
"223001","592-UM","2018/09/18 06:49:18","新北市石碇區湳窟40號","121.665423333333","24.9960833333333","6501900","石碇區"
"223004","660-BX","2018/09/18 06:49:28","新北市石碇區碇坪路一段49號","121.65911","24.9913416666667","6501900","石碇區"
"223007","661-BX","2018/09/18 06:49:20","新北市石碇區雙溪84-1號","121.661273333333","25.00894","6501900","石碇區"
"223005","677-TV","2018/09/18 06:49:19","新北市石碇區碇坪路一段49號","121.65917","24.991405","6501900","石碇區"
"227006","282-VK","2018/09/18 06:49:21","新北市雙溪區新基里自強路5號","121.86636","25.0390966666667","6502500","雙溪區"
"242001","233-RS","2018/09/18 06:49:18","新北市新莊區中港路290號","121.452978333333","25.044555","6500500","新莊區"
