"lineid","car","time","location","longitude","latitude","cityid","cityname"
"248005","653-BX","2018/09/18 07:08:23","新北市五股區新五路二段89號","121.436803333333","25.0746066666667","6501500","五股區"
"232002","290-BY","2018/09/18 07:08:25","新北市坪林區大粗坑27號","121.70861","24.9621466666667","6502000","坪林區"
"232013","291-BY","2018/09/18 07:08:14","新北市坪林區灣潭7-6號","121.678071666667","24.9339166666667","6502000","坪林區"
"232006","758-BX","2018/09/18 07:08:14","新北市坪林區北宜路九段86號","121.736233333333","24.894565","6502000","坪林區"
"235001","611-BX","2018/09/18 07:08:14","新北市中和區圓通路367巷4號","121.491371666667","24.989255","6500300","中和區"
"226005","5620-A6","2018/09/18 07:08:32","新北市平溪區石底里石筍尖23號","121.729411666667","25.0254383333333","6502400","平溪區"
"226002","7418-A5","2018/09/18 07:08:23","新北市平溪區石底里石筍尖3號","121.736513333333","25.0256933333333","6502400","平溪區"
"226006","AGD-0702","2018/09/18 07:08:29","新北市平溪區嶺腳里中華街9-2號","121.742396666667","25.0253733333333","6502400","平溪區"
"223006","022-BY","2018/09/18 07:08:23","新北市石碇區碇坪路一段268號","121.675545","24.9773333333333","6501900","石碇區"
"223002","KEA-2673","2018/09/18 07:08:15","新北市石碇區碇格路二段16-3號","121.639576666667","24.9544666666667","6501900","石碇區"
"223003","205-TH","2018/09/18 07:08:30","新北市石碇區摸乳巷5號","121.659596666667","24.9848733333333","6501900","石碇區"
"223008","406-TH","2018/09/18 07:08:24","新北市石碇區藤寮坑6-1號","121.70434","25.0058233333333","6501900","石碇區"
"223001","592-UM","2018/09/18 07:08:18","新北市石碇區摸乳巷5號","121.65983","24.984195","6501900","石碇區"
"223004","660-BX","2018/09/18 07:08:28","新北市石碇區碇坪路一段16號","121.651661666667","25.0059366666667","6501900","石碇區"
"223007","661-BX","2018/09/18 07:08:20","新北市石碇區番子坑9號","121.681283333333","25.0013216666667","6501900","石碇區"
"223005","677-TV","2018/09/18 07:08:19","新北市石碇區碇坪路一段18號","121.651788333333","25.0058383333333","6501900","石碇區"
"227006","282-VK","2018/09/18 07:08:21","新北市雙溪區新基里自強路5號","121.866358333333","25.03906","6502500","雙溪區"
"252004","249-BX","2018/09/18 07:08:27","新北市三芝區錫板里小坑子21號","121.500766666667","25.2336316666667","6502100","三芝區"
"252007","AAC-283","2018/09/18 07:08:17","新北市三芝區福德里埔尾20-4號","121.502985","25.2397783333333","6502100","三芝區"
"236002","165-UM","2018/09/18 07:08:24","新北市土城區永和街2巷16號","121.434145","24.9646183333333","6501300","土城區"
"236002","339-SR","2018/09/18 07:08:14","新北市土城區永平街51號","121.427685","24.959185","6501300","土城區"
"242001","233-RS","2018/09/18 07:08:18","新北市新莊區中華路二段2號","121.452993333333","25.044525","6500500","新莊區"
