"lineid","car","time","location","longitude","latitude","cityid","cityname"
"248005","653-BX","2018/09/18 07:49:02","新北市五股區明德路8號","121.433358333333","25.071715","6501500","五股區"
"232002","290-BY","2018/09/18 07:48:44","新北市坪林區下坑子口6-15號","121.711118333333","24.943345","6502000","坪林區"
"232006","758-BX","2018/09/18 07:30:11","新北市坪林區北宜路九段7號","121.720071666667","24.9023716666667","6502000","坪林區"
"222004","289-BY","2018/09/18 07:48:48","新北市深坑區文化街74號","121.618106666667","25.0019066666667","6501800","深坑區"
"231009","192-VK","2018/09/18 07:48:49","新北市新店區安一路一段1-1號","121.519246666667","24.9612466666667","6500600","新店區"
"235001","611-BX","2018/09/18 07:48:54","新北市中和區圓通路367巷6號","121.491451666667","24.9892366666667","6500300","中和區"
"226005","5620-A6","2018/09/18 07:48:52","新北市平溪區靜安路二段442號","121.740126666667","25.0249566666667","6502400","平溪區"
"226002","7418-A5","2018/09/18 07:48:59","新北市平溪區平湖里坑頭3號","121.783486666667","25.0257483333333","6502400","平溪區"
"226006","AGD-0702","2018/09/18 07:48:49","新北市平溪區十分里十分街286號","121.776955","25.04819","6502400","平溪區"
"223006","022-BY","2018/09/18 07:48:56","新北市坪林區北宜路八段553號","121.716958333333","24.9096266666667","6501900","石碇區"
"223002","KEA-2673","2018/09/18 07:48:55","新北市石碇區北宜路六段十三股巷3號","121.649145","24.943945","6501900","石碇區"
"223003","205-TH","2018/09/18 07:40:50","新北市石碇區烏塗窟30-3號","121.65581","24.973565","6501900","石碇區"
"223001","592-UM","2018/09/18 07:47:58","新北市石碇區蛇舌子7號","121.665245","24.96647","6501900","石碇區"
"223004","660-BX","2018/09/18 07:48:48","新北市石碇區楓子林36-3號","121.642343333333","25.0095583333333","6501900","石碇區"
"223007","661-BX","2018/09/18 07:35:43","新北市石碇區靜安路一段337號","121.698691666667","25.01446","6501900","石碇區"
"223005","677-TV","2018/09/18 07:48:58","新北市石碇區楓子林30號","121.642311666667","25.0096083333333","6501900","石碇區"
"227006","282-VK","2018/09/18 07:49:01","新北市雙溪區雙溪里太平路54號","121.864805","25.03542","6502500","雙溪區"
"252004","249-BX","2018/09/18 07:48:47","新北市三芝區興華里車埕36-21號","121.50584","25.1930766666667","6502100","三芝區"
"252007","AAC-283","2018/09/18 07:48:57","新北市三芝區海景一街47號","121.47537","25.2466633333333","6502100","三芝區"
"237001","159-UY","2018/09/18 07:49:01","新北市三峽區國慶路148-2號","121.375625","24.93986","6500900","三峽區"
"236008","165-UM","2018/09/18 07:48:44","新北市土城區清水路304號","121.462908333333","24.9839533333333","6501300","土城區"
"236002","339-SR","2018/09/18 07:48:54","新北市土城區龍泉路89-1號","121.44632","24.9422533333333","6501300","土城區"
"242001","233-RS","2018/09/18 07:48:58","新北市新莊區中華路二段2號","121.452976666667","25.0445016666667","6500500","新莊區"
