"lineid","car","time","location","longitude","latitude","cityid","cityname"
"248005","653-BX","2018/03/15 08:59:20","新北市五股區明德路10號","121.433376666667","25.0717733333333","6501500","五股區"
"232001","290-BY","2018/03/15 08:53:15","新北市坪林區坪雙路一段31號","121.711521666667","24.94253","6502000","坪林區"
"244012","069-UM","2018/03/15 08:59:19","新北市林口區佳林路101巷26號","121.386791666667","25.0799216666667","6501700","林口區"
"244006","080-UY","2018/03/15 08:59:34","新北市林口區林口路113巷57號","121.387768333333","25.0796616666667","6501700","林口區"
"244018","402-UM","2018/03/15 08:59:35","新北市林口區文化一路一段22巷15號","121.371113333333","25.067855","6501700","林口區"
"244024","742-UY","2018/03/15 08:59:32","新北市林口區忠孝一路182號","121.358935","25.0743516666667","6501700","林口區"
"244023","483-VK","2018/03/15 08:59:18","新北市林口區東湖路105巷54號","121.384263333333","25.071605","6501700","林口區"
"244016","485-VK","2018/03/15 08:59:33","新北市林口區八德路62號","121.365873333333","25.06567","6501700","林口區"
"244008","656-BX","2018/03/15 08:59:29","新北市林口區民生路162號","121.379526666667","25.0879283333333","6501700","林口區"
"244003","657-BX","2018/03/15 08:59:33","新北市林口區下福里123-1號","121.293826666667","25.1188916666667","6501700","林口區"
"244010","701-TV","2018/03/15 08:59:27","新北市林口區興林路17巷5弄2號","121.390593333333","25.0770433333333","6501700","林口區"
"244020","838-TS","2018/03/15 08:59:26","新北市林口區粉寮路一段76號","121.397116666667","25.0790933333333","6501700","林口區"
"243002","KEA-2215","2018/03/15 08:59:35","新北市泰山區泰林路三段28巷8號","121.41876","25.0652566666667","6501600","泰山區"
"222006","289-BY","2018/03/15 08:59:23","新北市深坑區土庫尖路75-1號","121.631238333333","25.0182016666667","6501800","深坑區"
"231069","189-VK","2018/03/15 08:59:29","新北市新店區新潭路三段211號","121.504658333333","24.90459","6500600","新店區"
"231008","192-VK","2018/03/15 08:59:19","新北市新店區松林路75號","121.549771666667","24.9076116666667","6500600","新店區"
"235001","611-BX","2018/03/15 08:59:27","新北市中和區民德路143號","121.468756666667","25.0004083333333","6500300","中和區"
"226005","5620-A6","2018/03/15 08:59:21","新北市平溪區望古里灰3-1號","121.754763333333","25.0288416666667","6502400","平溪區"
"226002","7418-A5","2018/03/15 08:59:30","新北市平溪區東勢里芊蓁坑30號","121.727543333333","24.9791283333333","6502400","平溪區"
"226003","AGD-0702","2018/03/15 08:59:32","新北市平溪區十分里十分街204號","121.779033333333","25.0442866666667","6502400","平溪區"
"223001","205-TH","2018/03/15 08:59:20","新北市石碇區北宜路六段柑腳巷1-1號","121.661625","24.9391133333333","6501900","石碇區"
"223008","406-TH","2018/03/15 08:49:21","新北市石碇區光明路13號","121.68007","25.0336666666667","6501900","石碇區"
"223001","592-UM","2018/03/15 08:59:28","新北市石碇區北宜路六段柑腳巷1-1號","121.660563333333","24.9395316666667","6501900","石碇區"
"223004","660-BX","2018/03/15 08:59:38","新北市石碇區崩山53號","121.682391666667","24.9688833333333","6501900","石碇區"
"223005","677-TV","2018/03/15 08:56:34","新北市石碇區崩山53-1號","121.682425","24.967175","6501900","石碇區"
"252004","249-BX","2018/03/15 08:59:33","新北市三芝區興華里田心子31號","121.488835","25.20043","6502100","三芝區"
"252007","AAC-283","2018/03/15 08:59:20","新北市三芝區古庄里四棧橋35號","121.485911666667","25.262245","6502100","三芝區"
"237001","159-UY","2018/03/15 08:59:22","新北市三峽區學成路468號","121.377806666667","24.94435","6500900","三峽區"
"236009","165-UM","2018/03/15 08:59:20","新北市土城區金城路二段46巷5-15號","121.452953333333","24.973565","6501300","土城區"
"236003","339-SR","2018/03/15 08:59:18","新北市土城區中央路三段159號","121.431948333333","24.96546","6501300","土城區"
"236005","498-BY","2018/03/15 08:59:30","新北市土城區承天路4巷2-2號","121.436206666667","24.9635633333333","6501300","土城區"
"242033","AAC-296","2018/03/15 08:59:27","新北市新莊區建中街81巷10弄11號","121.446815","25.0361016666667","6500500","新莊區"
"242057","986-R7","2018/03/15 08:59:32","新北市新莊區民安路182號","121.425255","25.0238","6500500","新莊區"
"242052","751-BX","2018/03/15 08:59:35","新北市新莊區西盛街395巷25弄2號","121.42851","25.0124016666667","6500500","新莊區"
"242028","705-TV","2018/03/15 08:59:29","新北市新莊區中原路315號","121.4471","25.0543533333333","6500500","新莊區"
"242026","615-BX","2018/03/15 08:59:34","新北市新莊區立信三街75號","121.444051666667","25.0511716666667","6500500","新莊區"
"242024","613-BX","2018/03/15 08:59:37","新北市新莊區五工路66號","121.45863","25.0638816666667","6500500","新莊區"
"242040","566-BX","2018/03/15 08:59:24","新北市新莊區青山路一段50號","121.409936666667","25.0276716666667","6500500","新莊區"
"242045","497-BY","2018/03/15 08:59:36","新北市新莊區富國路80號","121.420098333333","25.0259216666667","6500500","新莊區"
"242001","442-UM","2018/03/15 08:59:24","新北市新莊區中正路24號","121.465171666667","25.04182","6500500","新莊區"
"242049","441-UM","2018/03/15 08:59:21","新北市新莊區民安西路241號","121.426096666667","25.0137983333333","6500500","新莊區"
"242055","440-UM","2018/03/15 08:59:26","新北市新莊區瓊林路50-1號","121.446176666667","25.0288033333333","6500500","新莊區"
"242035","415-TV","2018/03/15 08:59:31","新北市新莊區建安街25巷16號","121.4298","25.02609","6500500","新莊區"
"242006","413-TV","2018/03/15 08:59:25","新北市新莊區福壽街54號","121.458271666667","25.0488116666667","6500500","新莊區"
"242043","400-BY","2018/03/15 08:59:31","新北市新莊區中正路746巷43號","121.411798333333","25.0253216666667","6500500","新莊區"
"242022","362-BY","2018/03/15 08:59:28","新北市新莊區化成路934號","121.46475","25.0623483333333","6500500","新莊區"
"242059","353-BY","2018/03/15 08:59:34","新北市新莊區民安路192號","121.425523333333","25.0235083333333","6500500","新莊區"
"242008","132-UY","2018/03/15 08:59:35","新北市新莊區昌盛街71號","121.455113333333","25.0500316666667","6500500","新莊區"
"242018","133-UY","2018/03/15 08:59:33","新北市新莊區民樂街66號","121.458313333333","25.0422016666667","6500500","新莊區"
"242030","135-UY","2018/03/15 08:59:37","新北市新莊區新泰路213巷38號","121.445658333333","25.0387066666667","6500500","新莊區"
"242047","172-VK","2018/03/15 08:59:35","新北市新莊區四維路152巷33號","121.422016666667","25.0223516666667","6500500","新莊區"
"242016","175-VK","2018/03/15 08:59:26","新北市新莊區中港二街43號","121.450626666667","25.045955","6500500","新莊區"
"242003","176-VK","2018/03/15 08:59:38","新北市新莊區化成路314巷8號","121.466546666667","25.0482816666667","6500500","新莊區"
"242014","346-TH","2018/03/15 08:59:27","新北市新莊區永樂街226號","121.446426666667","25.0443883333333","6500500","新莊區"
"242020","348-TH","2018/03/15 08:59:27","新北市新莊區建中街16巷17號","121.44933","25.0384016666667","6500500","新莊區"
"242012","351-TH","2018/03/15 08:59:37","新北市新莊區中平路270巷7弄8號","121.445511666667","25.05058","6500500","新莊區"
"220064","282-UM","2018/03/15 08:59:29","新北市板橋區板城路271號","121.450183333333","24.99773","6500100","板橋區"
"242010","281-VK","2018/03/15 08:59:36","新北市新莊區中信街44號","121.449631666667","25.0509383333333","6500500","新莊區"
"242038","280-VK","2018/03/15 08:59:33","新北市新莊區民安路292號","121.427985","25.0216983333333","6500500","新莊區"
