"lineid","car","time","location","longitude","latitude","cityid","cityname"
"248005","653-BX","2018/03/15 09:09:20","新北市五股區水碓路10號","121.433903333333","25.0722266666667","6501500","五股區"
"232001","290-BY","2018/03/15 08:53:15","新北市坪林區坪雙路一段31號","121.711521666667","24.94253","6502000","坪林區"
"244012","069-UM","2018/03/15 09:09:39","新北市林口區中山路262-1號","121.384626666667","25.07991","6501700","林口區"
"244006","080-UY","2018/03/15 09:09:34","新北市林口區後湖17-4號","121.38665","25.0963133333333","6501700","林口區"
"244018","402-UM","2018/03/15 09:09:35","新北市林口區麗園路54號","121.373708333333","25.06952","6501700","林口區"
"244023","483-VK","2018/03/15 09:09:38","新北市林口區東湖路153巷135號","121.382233333333","25.07355","6501700","林口區"
"244016","485-VK","2018/03/15 09:09:33","新北市林口區文化二路一段68巷2號","121.36615","25.0687683333333","6501700","林口區"
"244008","656-BX","2018/03/15 09:09:29","新北市林口區民生路139號","121.377918333333","25.088315","6501700","林口區"
"244010","701-TV","2018/03/15 09:09:27","新北市林口區中正路57巷12弄6號","121.39495","25.0767233333333","6501700","林口區"
"243002","KEA-2215","2018/03/15 09:09:35","新北市泰山區黎明路31-1號","121.421641666667","25.0605","6501600","泰山區"
"222006","289-BY","2018/03/15 09:09:23","新北市深坑區土庫尖路45號","121.634913333333","25.0174583333333","6501800","深坑區"
"231069","189-VK","2018/03/15 09:01:49","新北市新店區新潭路三段236號","121.500606666667","24.9027666666667","6500600","新店區"
"231008","192-VK","2018/03/15 09:09:39","新北市新店區廣興路66巷10號","121.538843333333","24.91376","6500600","新店區"
"235001","611-BX","2018/03/15 09:09:27","新北市中和區民享街283號","121.471236666667","24.9960583333333","6500300","中和區"
"226002","7418-A5","2018/03/15 09:09:30","新北市平溪區東勢里芊蓁坑30號","121.727558333333","24.97913","6502400","平溪區"
"226003","AGD-0702","2018/03/15 09:07:52","新北市平溪區望古里望古坑21-5號","121.76005","25.0337916666667","6502400","平溪區"
"223001","205-TH","2018/03/15 09:09:20","新北市石碇區北宜路六段十三股巷1號","121.649205","24.9473566666667","6501900","石碇區"
"223008","406-TH","2018/03/15 09:08:32","新北市石碇區光明路18-1號","121.691773333333","25.03686","6501900","石碇區"
"223001","592-UM","2018/03/15 09:09:28","新北市石碇區北宜路六段十三股巷1號","121.648718333333","24.9480883333333","6501900","石碇區"
"223004","660-BX","2018/03/15 09:09:18","新北市石碇區碇坪路二段49號","121.685663333333","24.971995","6501900","石碇區"
"223005","677-TV","2018/03/15 09:09:28","新北市石碇區崩山53號","121.682421666667","24.96909","6501900","石碇區"
"224010","AGQ-8101","2018/03/15 09:07:05","新北市瑞芳區逢甲路15號","121.809736666667","25.1086716666667","6501200","瑞芳區"
"252004","249-BX","2018/03/15 09:09:33","新北市三芝區興華里車埕72-1號","121.492988333333","25.1959083333333","6502100","三芝區"
"252007","AAC-283","2018/03/15 09:09:31","新北市三芝區古庄里四棧橋20號","121.489086666667","25.261195","6502100","三芝區"
"237001","159-UY","2018/03/15 09:09:22","新北市樹林區中山路三段210-2號","121.381041666667","24.9659916666667","6500900","三峽區"
"236009","165-UM","2018/03/15 09:09:40","新北市土城區金城路一段72號","121.443806666667","24.9725883333333","6501300","土城區"
"236003","339-SR","2018/03/15 09:09:33","新北市土城區慶安街47號","121.441128333333","24.9731533333333","6501300","土城區"
"236005","498-BY","2018/03/15 09:09:30","新北市土城區中央路三段76巷48號","121.435693333333","24.9692183333333","6501300","土城區"
"242033","AAC-296","2018/03/15 09:09:27","新北市新莊區建中街116巷3弄19號","121.445095","25.0371166666667","6500500","新莊區"
"242057","986-R7","2018/03/15 09:09:32","新北市新莊區八德街99號","121.424316666667","25.0213","6500500","新莊區"
"242052","751-BX","2018/03/15 09:09:24","新北市新莊區民安西路261巷22號","121.426943333333","25.01307","6500500","新莊區"
"242028","705-TV","2018/03/15 09:09:30","新北市新莊區中華路二段159號","121.452745","25.051695","6500500","新莊區"
"242026","615-BX","2018/03/15 09:09:35","新北市新莊區幸福路540號","121.455433333333","25.0494933333333","6500500","新莊區"
"242024","613-BX","2018/03/15 09:09:37","新北市新莊區五工二路62巷10號","121.461078333333","25.065955","6500500","新莊區"
"242040","566-BX","2018/03/15 09:09:24","新北市新莊區壽山路49-7號","121.414093333333","25.0312033333333","6500500","新莊區"
"242045","497-BY","2018/03/15 09:09:36","新北市新莊區裕民街126號","121.418096666667","25.0225066666667","6500500","新莊區"
"242001","442-UM","2018/03/15 09:09:29","新北市新莊區中正路60號","121.461765","25.039935","6500500","新莊區"
"242049","441-UM","2018/03/15 09:09:21","新北市新莊區民安西路189巷16號","121.426811666667","25.01534","6500500","新莊區"
"242055","440-UM","2018/03/15 09:09:26","新北市新莊區新豐街20巷2號","121.448278333333","25.0345666666667","6500500","新莊區"
"242035","415-TV","2018/03/15 09:09:31","新北市新莊區建安街76巷3弄2號","121.4262","25.024965","6500500","新莊區"
"242006","413-TV","2018/03/15 09:09:25","新北市新莊區思源路287巷1弄1號","121.459395","25.04833","6500500","新莊區"
"242043","400-BY","2018/03/15 09:09:32","新北市新莊區中正路895-29號","121.412033333333","25.0217966666667","6500500","新莊區"
"242022","362-BY","2018/03/15 09:09:28","新北市新莊區化成路640號","121.466125","25.0554183333333","6500500","新莊區"
"242059","353-BY","2018/03/15 09:09:33","新北市新莊區瓊林路90號","121.444668333333","25.0279333333333","6500500","新莊區"
"242008","132-UY","2018/03/15 09:09:35","新北市新莊區昌隆街104號","121.456726666667","25.0508783333333","6500500","新莊區"
"242018","133-UY","2018/03/15 09:09:23","新北市新莊區復興路二段191號","121.459313333333","25.0446766666667","6500500","新莊區"
"242030","135-UY","2018/03/15 09:09:39","新北市新莊區忠孝街11號","121.443865","25.0348933333333","6500500","新莊區"
"242047","172-VK","2018/03/15 09:09:38","新北市新莊區龍安路254巷9號","121.421133333333","25.0189783333333","6500500","新莊區"
"242016","175-VK","2018/03/15 09:09:26","新北市新莊區中港一街161號","121.447103333333","25.044985","6500500","新莊區"
"242003","176-VK","2018/03/15 09:09:26","新北市新莊區頭興街7巷1號","121.462696666667","25.0535516666667","6500500","新莊區"
"242014","346-TH","2018/03/15 09:09:27","新北市新莊區中港一街142號","121.446736666667","25.0449216666667","6500500","新莊區"
"242020","348-TH","2018/03/15 09:09:27","新北市新莊區建中街28號","121.44903","25.0374633333333","6500500","新莊區"
"242012","351-TH","2018/03/15 09:09:26","新北市新莊區中和街175巷10號","121.447351666667","25.0507566666667","6500500","新莊區"
"242010","281-VK","2018/03/15 09:09:36","新北市新莊區中信街21號","121.451051666667","25.050675","6500500","新莊區"
"242038","280-VK","2018/03/15 09:09:33","新北市新莊區龍安路465號","121.424925","25.0183566666667","6500500","新莊區"
