"lineid","car","time","location","longitude","latitude","cityid","cityname"
"248005","653-BX","2018/03/15 09:19:20","新北市五股區水碓三路63號","121.430351666667","25.071535","6501500","五股區"
"244012","069-UM","2018/03/15 09:19:39","新北市林口區信義路58-5號","121.382423333333","25.078405","6501700","林口區"
"244006","080-UY","2018/03/15 09:19:34","新北市林口區後湖50-1號","121.385276666667","25.100455","6501700","林口區"
"244018","402-UM","2018/03/15 09:19:35","新北市林口區忠孝路594巷1號","121.375918333333","25.0681033333333","6501700","林口區"
"244023","483-VK","2018/03/15 09:19:38","新北市林口區仁愛路二段62巷59號","121.383495","25.0759383333333","6501700","林口區"
"244016","485-VK","2018/03/15 09:19:33","新北市林口區文化二路一段68巷33號","121.367095","25.069035","6501700","林口區"
"244008","656-BX","2018/03/15 09:19:29","新北市林口區竹林路326巷1號","121.391081666667","25.082735","6501700","林口區"
"244010","701-TV","2018/03/15 09:19:27","新北市林口區仁愛路一段647號","121.388481666667","25.0767366666667","6501700","林口區"
"222006","289-BY","2018/03/15 09:19:23","新北市深坑區北深路一段278巷32號","121.628193333333","25.013155","6501800","深坑區"
"231069","189-VK","2018/03/15 09:19:29","新北市新店區新潭路三段215巷26號","121.507551666667","24.9034666666667","6500600","新店區"
"231008","192-VK","2018/03/15 09:19:39","新北市新店區廣興路80號","121.53889","24.9127466666667","6500600","新店區"
"235001","611-BX","2018/03/15 09:19:27","新北市土城區延壽路32-5號","121.470993333333","24.9912716666667","6500300","中和區"
"226003","AGD-0702","2018/03/15 09:19:32","新北市平溪區平溪里三坑路1-2號","121.741256666667","25.0291383333333","6502400","平溪區"
"223001","205-TH","2018/03/15 09:19:20","新北市石碇區北宜路五段坑內巷7號","121.636483333333","24.95311","6501900","石碇區"
"223008","406-TH","2018/03/15 09:19:32","新北市石碇區玉桂嶺3號","121.701926666667","25.01014","6501900","石碇區"
"223001","592-UM","2018/03/15 09:19:28","新北市石碇區北宜路五段坑內巷6號","121.635665","24.9534466666667","6501900","石碇區"
"223004","660-BX","2018/03/15 09:19:18","新北市石碇區磨石坑24-5號","121.69062","24.97128","6501900","石碇區"
"223005","677-TV","2018/03/15 09:19:19","新北市石碇區磨石坑29號","121.690661666667","24.9700883333333","6501900","石碇區"
"224010","AGQ-8101","2018/03/15 09:07:05","新北市瑞芳區逢甲路15號","121.809736666667","25.1086716666667","6501200","瑞芳區"
"252004","249-BX","2018/03/15 09:19:33","新北市三芝區店子里店子54號","121.502796666667","25.20605","6502100","三芝區"
"252007","AAC-283","2018/03/15 09:19:20","新北市三芝區古庄里山豬堀14-2號","121.492228333333","25.2600266666667","6502100","三芝區"
"237001","159-UY","2018/03/15 09:19:22","新北市樹林區中山路三段214號","121.379981666667","24.9677416666667","6500900","三峽區"
"236009","165-UM","2018/03/15 09:19:20","新北市土城區中山路55號","121.422978333333","24.963405","6501300","土城區"
"236003","339-SR","2018/03/15 09:19:36","新北市土城區福仁街48號","121.439673333333","24.9751766666667","6501300","土城區"
"236005","498-BY","2018/03/15 09:19:35","新北市土城區中央路三段126巷12號","121.434635","24.9667366666667","6501300","土城區"
"242033","AAC-296","2018/03/15 09:19:35","新北市新莊區中正路334巷4號","121.445755","25.0350933333333","6500500","新莊區"
"242057","986-R7","2018/03/15 09:19:32","新北市新莊區龍安路278巷1號","121.42223","25.01907","6500500","新莊區"
"242052","751-BX","2018/03/15 09:19:24","新北市新莊區西盛街344巷2號","121.427831666667","25.0142583333333","6500500","新莊區"
"242028","705-TV","2018/03/15 09:19:29","新北市新莊區昌隆街3巷1弄2號","121.454015","25.0513683333333","6500500","新莊區"
"242026","615-BX","2018/03/15 09:19:34","新北市新莊區思源路38號","121.459883333333","25.0428533333333","6500500","新莊區"
"242024","613-BX","2018/03/15 09:19:37","新北市新莊區化成路579巷1號","121.4643","25.066015","6500500","新莊區"
"242040","566-BX","2018/03/15 09:19:30","新北市新莊區中正路694巷71號","121.417316666667","25.0294983333333","6500500","新莊區"
"242045","497-BY","2018/03/15 09:19:36","新北市新莊區裕民街72巷2號","121.418358333333","25.024295","6500500","新莊區"
"242001","442-UM","2018/03/15 09:19:26","新北市新莊區明中街11號","121.458698333333","25.038385","6500500","新莊區"
"242049","441-UM","2018/03/15 09:19:41","新北市新莊區龍安路496號","121.426288333333","25.0171233333333","6500500","新莊區"
"242055","440-UM","2018/03/15 09:19:26","新北市新莊區豐年街50巷5號","121.446073333333","25.0316766666667","6500500","新莊區"
"242035","415-TV","2018/03/15 09:19:31","新北市新莊區後港一路60號","121.426448333333","25.026435","6500500","新莊區"
"242043","400-BY","2018/03/15 09:19:31","新北市新莊區中正路新建巷28弄12號","121.41386","25.021585","6500500","新莊區"
"242022","362-BY","2018/03/15 09:19:28","新北市新莊區思源路157號","121.459925","25.0444983333333","6500500","新莊區"
"242059","353-BY","2018/03/15 09:19:32","新北市新莊區瓊林路瓊英巷4弄2號","121.44364","25.0274466666667","6500500","新莊區"
"242008","132-UY","2018/03/15 09:19:35","新北市新莊區幸福路552號","121.454921666667","25.049435","6500500","新莊區"
"242018","133-UY","2018/03/15 09:19:24","新北市新莊區銘德街49巷4弄2號","121.457293333333","25.0431166666667","6500500","新莊區"
"242030","135-UY","2018/03/15 09:19:39","新北市新莊區忠孝街29巷8號","121.443625","25.0358766666667","6500500","新莊區"
"242047","172-VK","2018/03/15 09:19:35","新北市新莊區中正路700-25號","121.41785","25.0267716666667","6500500","新莊區"
"242003","176-VK","2018/03/15 09:19:38","新北市新莊區頭前路15巷2號","121.467873333333","25.0524283333333","6500500","新莊區"
"242020","348-TH","2018/03/15 09:19:27","新北市新莊區新泰路207號","121.446998333333","25.0383616666667","6500500","新莊區"
"242012","351-TH","2018/03/15 09:19:26","新北市泰山區楓江路119號","121.438878333333","25.0645","6500500","新莊區"
"242010","281-VK","2018/03/15 09:19:36","新北市新莊區中榮街104巷11弄1號","121.447221666667","25.0532783333333","6500500","新莊區"
"242038","280-VK","2018/03/15 09:19:38","新北市新莊區民安路232號","121.426098333333","25.02228","6500500","新莊區"
