"lineid","car","time","location","longitude","latitude","cityid","cityname"
"234044","148-BY","2018/03/15 13:29:35","新北市永和區秀朗路二段131號","121.524445","25.0016966666667","6500400","永和區"
"234005","207-UY","2018/03/15 13:29:35","新北市永和區中山路一段193號","121.50919","25.0089166666667","6500400","永和區"
"234078","298-R6","2018/03/15 13:29:41","新北市永和區福和路5-9號","121.525395","25.0084833333333","6500400","永和區"
"234036","336-UY","2018/03/15 13:29:38","新北市永和區民樂街30巷2號","121.52751","25.0011866666667","6500400","永和區"
"234062","337-UY","2018/03/15 13:29:37","新北市永和區得和路243巷23號","121.520638333333","25.0009816666667","6500400","永和區"
"234084","338-UY","2018/03/15 13:29:28","新北市永和區林森路109號","121.52299","25.00329","6500400","永和區"
"234068","552-UM","2018/03/15 13:29:39","新北市永和區警光街14號","121.519666666667","25.0095633333333","6500400","永和區"
"234015","745-BX","2018/03/15 13:29:42","新北市永和區環河西路一段87號","121.512241666667","25.0179983333333","6500400","永和區"
"234028","746-BX","2018/03/15 13:29:39","新北市永和區民生路69號","121.522625","24.9972416666667","6500400","永和區"
"234052","KEA-2590","2018/03/15 13:29:27","新北市永和區復興街19巷4號","121.516181666667","25.0131766666667","6500400","永和區"
"234012","KEA-2591","2018/03/15 13:29:37","新北市永和區中山路一段76號","121.512298333333","25.010885","6500400","永和區"
"234060","AAD-866","2018/03/15 13:29:42","新北市永和區中正路532號","121.51727","25.0051783333333","6500400","永和區"
"234040","862-TW","2018/03/15 13:29:35","新北市永和區中和路519巷10號","121.510871666667","25.0031666666667","6500400","永和區"
"234048","863-TW","2018/03/15 13:29:38","新北市永和區信義路114號","121.512418333333","25.0143516666667","6500400","永和區"
"234025","9371-KE","2018/03/15 13:29:44","新北市永和區中山路一段17巷4弄16號","121.513095","25.0102283333333","6500400","永和區"
"234010","9373-KE","2018/03/15 13:29:41","新北市永和區仁愛路141巷5弄3號","121.51184","25.01217","6500400","永和區"
"248015","026-BX","2018/03/15 13:29:33","新北市五股區凌雲路一段83巷22弄1號","121.44983","25.1007916666667","6501500","五股區"
"248005","077-UY","2018/03/15 13:29:35","新北市五股區四維路25號","121.467093333333","25.0706166666667","6501500","五股區"
"248007","095-VK","2018/03/15 13:29:36","新北市五股區中興路二段78-5號","121.46161","25.0785516666667","6501500","五股區"
"248017","225-UY","2018/03/15 13:29:27","新北市五股區民義路二段52巷22號","121.41562","25.1102633333333","6501500","五股區"
"248011","247-BX","2018/03/15 13:29:26","新北市五股區御成路8號","121.441855","25.0909966666667","6501500","五股區"
"248013","261-SL","2018/03/15 13:29:41","新北市五股區成泰路一段105號","121.435533333333","25.0712716666667","6501500","五股區"
"248003","677-BX","2018/03/15 13:29:46","新北市五股區六合街3號","121.43191","25.08852","6501500","五股區"
"248001","678-BX","2018/03/15 13:29:26","新北市五股區西雲路167-1號","121.446881666667","25.094865","6501500","五股區"
"248009","682-TV","2018/03/15 13:29:44","新北市五股區明德路8號","121.433298333333","25.071445","6501500","五股區"
"234022","9380-KE","2018/03/15 13:29:45","新北市永和區竹林路91巷45號","121.52136","25.0129116666667","6500400","永和區"
"234076","969-R7","2018/03/15 13:29:32","新北市永和區中正路286巷7號","121.517691666667","24.9987016666667","6500400","永和區"
"234072","AAC-211","2018/03/15 13:29:31","新北市永和區永和路二段105號","121.514998333333","25.0118266666667","6500400","永和區"
"234066","AAC-212","2018/03/15 13:29:26","新北市永和區保平路178號","121.510756666667","25.00659","6500400","永和區"
"234001","AAC-295","2018/03/15 13:29:33","新北市永和區自強街2號","121.514125","25.008035","6500400","永和區"
"244003","657-BX","2018/03/15 13:28:44","新北市林口區瑞平里8鄰53-2號","121.342383333333","25.1227133333333","6501700","林口區"
"243007","539-UM","2018/03/15 13:29:29","新北市泰山區犁頭窠3-1號","121.422293333333","25.0604366666667","6501600","泰山區"
"243005","646-TV","2018/03/15 13:29:29","新北市泰山區明志路三段206巷3號","121.423291666667","25.0379566666667","6501600","泰山區"
"243008","680-BX","2018/03/15 13:29:24","新北市泰山區黎明路31號","121.421751666667","25.0606583333333","6501600","泰山區"
"231002","002-UM","2018/03/15 13:29:44","新北市新店區環河路66號","121.53697","24.96275","6500600","新店區"
"231025","0293-UT","2018/03/15 13:29:30","新北市新店區中央七街61巷1號","121.528226666667","24.9765416666667","6500600","新店區"
"231028","046-UY","2018/03/15 13:29:41","新北市新店區安華路28-1號","121.519676666667","24.9611316666667","6500600","新店區"
"231030","047-UY","2018/03/15 13:29:29","新北市新店區安康路一段355-1號","121.518968333333","24.96399","6500600","新店區"
"231029","106-UY","2018/03/15 13:29:24","新北市新店區安豐路30-1號","121.500718333333","24.95686","6500600","新店區"
"231018","107-UY","2018/03/15 13:29:27","新北市新店區中央路216-1號","121.529803333333","24.973195","6500600","新店區"
"231011","108-UY","2018/03/15 13:29:42","新北市新店區寶橋路6巷4號","121.543405","24.97347","6500600","新店區"
"231021","187-VK","2018/03/15 13:29:27","新北市新店區北宜路一段128號","121.539453333333","24.9550066666667","6500600","新店區"
"231017","KEA-2219","2018/03/15 13:29:30","新北市新店區北宜路一段123號","121.540415","24.9535983333333","6500600","新店區"
"231026","256-BX","2018/03/15 13:29:35","新北市新店區北宜路一段152-2號","121.540311666667","24.9538066666667","6500600","新店區"
"231010","278-BY","2018/03/15 13:29:38","新北市新店區自由街10號","121.535335","24.9749166666667","6500600","新店區"
"231023","AAD-862","2018/03/15 13:29:28","新北市新店區北宜路一段168號","121.540328333333","24.9529266666667","6500600","新店區"
"231027","3712-VJ","2018/03/15 13:29:33","新北市新店區新店後街120號","121.537721666667","24.955625","6500600","新店區"
"231024","4716-K9","2018/03/15 13:29:33","新北市新店區北新路二段29巷3弄1號","121.542181666667","24.973015","6500600","新店區"
"231038","4715-K9","2018/03/15 13:29:38","新北市新店區安華路30巷1號","121.519561666667","24.9593116666667","6500600","新店區"
"231036","512-UM","2018/03/15 13:29:39","新北市新店區建業路96號","121.479906666667","24.95519","6500600","新店區"
"231013","513-UM","2018/03/15 13:29:29","新北市新店區中正路454-5號","121.534428333333","24.9791216666667","6500600","新店區"
"231035","515-UM","2018/03/15 13:29:43","新北市新店區安華路2號","121.519936666667","24.9627183333333","6500600","新店區"
"231001","619-UM","2018/03/15 13:29:22","新北市新店區安康路一段35-5號","121.531885","24.9607183333333","6500600","新店區"
"231003","641-BX","2018/03/15 13:29:43","新北市新店區中正路84號","121.543638333333","24.9703183333333","6500600","新店區"
"231034","645-TV","2018/03/15 13:29:31","新北市新店區安忠路81巷6號","121.511686666667","24.9567616666667","6500600","新店區"
"231031","720-UM","2018/03/15 13:29:40","新北市新店區安康路一段146號","121.526416666667","24.962915","6500600","新店區"
"231005","897-TW","2018/03/15 13:29:34","新北市新店區北新路一段91號","121.538861666667","24.961815","6500600","新店區"
"231006","898-TW","2018/03/15 13:29:28","新北市新店區秀山路72號","121.53143","24.9608766666667","6500600","新店區"
"231004","899-TW","2018/03/15 13:29:43","新北市新店區安康路一段33-1號","121.532266666667","24.9605516666667","6500600","新店區"
"231037","AKT-0513","2018/03/15 13:29:31","新北市新店區安康路二段382號","121.500505","24.9570883333333","6500600","新店區"
"235030","003-UY","2018/03/15 13:29:45","新北市中和區中山路二段120號","121.502673333333","25.003755","6500300","中和區"
"235028","005-UY","2018/03/15 13:29:27","新北市中和區圓通路139號","121.49891","24.9954133333333","6500300","中和區"
"235027","006-UY","2018/03/15 13:29:40","新北市中和區連城路347巷2弄2號","121.487995","24.995875","6500300","中和區"
"235020","096-UM","2018/03/15 13:29:33","新北市中和區中山路二段594號","121.482301666667","25.0054833333333","6500300","中和區"
"235003","097-UM","2018/03/15 13:29:28","新北市中和區大勇街2號","121.517096666667","24.9924833333333","6500300","中和區"
"235029","098-UM","2018/03/15 13:29:45","新北市中和區莊敬路49巷20弄18號","121.502545","25.00563","6500300","中和區"
"235022","151-BY","2018/03/15 13:29:41","新北市中和區圓通路369巷72號","121.490146666667","24.9822366666667","6500300","中和區"
"235019","183-VK","2018/03/15 13:29:41","新北市中和區莒光路207號","121.470006666667","24.995665","6500300","中和區"
"235002","185-VK","2018/03/15 13:29:31","新北市中和區立人街14巷34號","121.51939","24.99552","6500300","中和區"
"235013","186-VK","2018/03/15 13:29:40","新北市中和區景安路179號","121.505106666667","24.9940233333333","6500300","中和區"
"235031","255-BX","2018/03/15 13:26:04","新北市中和區員山路148巷39號","121.48248","24.9973066666667","6500300","中和區"
"235008","293-VK","2018/03/15 13:29:29","新北市中和區復興路301巷2弄1號","121.501486666667","24.98988","6500300","中和區"
"235036","301-VK","2018/03/15 13:29:35","新北市中和區連城路220號","121.491286666667","24.996465","6500300","中和區"
"235007","352-BY","2018/03/15 13:29:30","新北市中和區景平路331號","121.505736666667","24.99313","6500300","中和區"
"235032","377-QA","2018/03/15 13:29:38","新北市中和區中正路275-5號","121.495521666667","24.993335","6500300","中和區"
"235025","378-QA","2018/03/15 13:29:38","新北市中和區民享街88巷18號","121.473721666667","25.0004766666667","6500300","中和區"
"235035","269-TV","2018/03/15 13:29:28","新北市中和區永和路506號","121.48265","25.0121883333333","6500300","中和區"
"235014","4979-A6","2018/03/15 13:29:35","新北市中和區景新街362巷10號","121.511911666667","24.9901333333333","6500300","中和區"
"235033","4980-A6","2018/03/15 13:29:34","新北市中和區連城路127巷19號","121.496801666667","24.9982383333333","6500300","中和區"
"235006","551-UM","2018/03/15 13:29:32","新北市中和區秀朗路三段150巷16號","121.523553333333","24.9910316666667","6500300","中和區"
"235034","558-UM","2018/03/15 13:29:43","新北市中和區景平路429-2號","121.501351666667","24.9955416666667","6500300","中和區"
"235009","565-BX","2018/03/15 13:29:37","新北市中和區南山路236巷20弄5號","121.505618333333","24.9892516666667","6500300","中和區"
"235018","640-BX","2018/03/15 13:29:25","新北市中和區民享街92巷2號","121.474813333333","25.0001483333333","6500300","中和區"
"235024","647-TV","2018/03/15 13:29:27","新北市中和區員山路283號","121.481266666667","24.9996516666667","6500300","中和區"
"235011","732-UM","2018/03/15 13:29:42","新北市中和區南山路300號","121.507871666667","24.98712","6500300","中和區"
"235026","800-TS","2018/03/15 13:29:34","新北市中和區景平路716號","121.496731666667","25.0027983333333","6500300","中和區"
"235021","801-TS","2018/03/15 13:29:36","新北市中和區民享街97巷19號","121.475396666667","24.999545","6500300","中和區"
"235005","802-TS","2018/03/15 13:29:38","新北市中和區中和路324巷3弄2號","121.509988333333","25.00077","6500300","中和區"
"235016","805-TS","2018/03/15 13:29:32","新北市中和區興南路二段96號","121.505065","24.984005","6500300","中和區"
"235012","896-TW","2018/03/15 13:29:44","新北市中和區中正路637巷52弄1號","121.485515","24.9936","6500300","中和區"
"235017","911-UM","2018/03/15 13:29:41","新北市中和區民享街467號","121.469836666667","24.9925333333333","6500300","中和區"
"235015","157-BY","2018/03/15 13:29:34","新北市中和區興南路二段142巷18-9號","121.502703333333","24.9842533333333","6500300","中和區"
"235001","AAC-213","2018/03/15 13:29:34","新北市中和區景德街88號","121.516173333333","24.991525","6500300","中和區"
"235023","AAC-215","2018/03/15 13:29:34","新北市中和區員山路36巷16-3號","121.485076666667","24.9911433333333","6500300","中和區"
"220034","073-UY","2018/03/15 13:29:32","新北市板橋區南雅南路二段120號","121.452313333333","24.9996133333333","6500100","板橋區"
"220017","AAD-861","2018/03/15 13:29:31","新北市板橋區華東街1-10號","121.448345","24.995125","6500100","板橋區"
"247005","336-TH","2018/03/15 13:29:35","新北市五股區中興路三段163號","121.449293333333","25.0807116666667","6501400","蘆洲區"
"247007","056-VK","2018/03/15 13:29:25","新北市五股區工商路8號","121.440508333333","25.0824816666667","6501400","蘆洲區"
"247019","053-VK","2018/03/15 13:29:39","新北市五股區中興路三段163號","121.449301666667","25.08056","6501400","蘆洲區"
"228005","097-TW","2018/03/15 13:29:41","新北市貢寮區美豐里文秀坑8號","121.902455","25.0503483333333","6502600","貢寮區"
"228004","212-TW","2018/03/15 13:29:07","新北市貢寮區龍崗里石壁坑街17號","121.910373333333","24.9894983333333","6502600","貢寮區"
"253003","6232-TK","2018/03/15 13:29:27","新北市石門區內石門18-3號","121.573395","25.2746933333333","6502200","石門區"
"253001","6251-TK","2018/03/15 13:29:29","新北市石門區下員坑30-3號","121.5198","25.2828133333333","6502200","石門區"
"253002","637-UY","2018/03/15 13:29:29","新北市石門區九芎林8號","121.564433333333","25.2651016666667","6502200","石門區"
"253004","8270-PC","2018/03/15 13:29:36","新北市石門區阿里荖69號","121.61101","25.2712566666667","6502200","石門區"
"207002","749-BX","2018/03/15 13:29:33","新北市萬里區崁腳里崁腳路166號","121.645106666667","25.155825","6502800","萬里區"
"252005","073-UM","2018/03/15 13:29:41","新北市三芝區圓山里八連溪頭6-1號","121.526793333333","25.2217166666667","6502100","三芝區"
"207001","662-BX","2018/03/15 13:29:29","新北市萬里區野柳里八斗60-1號","121.676791666667","25.2005283333333","6502800","萬里區"
"237001","159-UY","2018/03/15 13:29:29","新北市三峽區中山路459巷131號","121.35107","24.934895","6500900","三峽區"
"236005","498-BY","2018/03/15 13:29:25","新北市土城區亞洲路11巷1弄5號","121.435128333333","24.9717233333333","6501300","土城區"
"221032","280-BY","2018/03/15 13:29:40","新北市汐止區復興路23號","121.656223333333","25.0651683333333","6501100","汐止區"
"221027","281-BY","2018/03/15 13:29:40","新北市汐止區大安街56巷15號","121.678125","25.07339","6501100","汐止區"
"220027","145-BY","2018/03/15 13:29:41","新北市板橋區大觀路二段153巷46弄11號","121.448958333333","24.998495","6500100","板橋區"
"220028","200-UY","2018/03/15 13:29:34","新北市板橋區華東街1-9號","121.448126666667","24.9948516666667","6500100","板橋區"
"220012","282-UM","2018/03/15 13:29:37","新北市板橋區南雅南路二段120-2號","121.452396666667","24.999995","6500100","板橋區"
"220019","283-VK","2018/03/15 13:29:39","新北市板橋區華東街1-2號","121.448471666667","24.9945033333333","6500100","板橋區"
"220031","286-VK","2018/03/15 13:29:29","新北市板橋區華東街1-10號","121.448236666667","24.995065","6500100","板橋區"
"220029","287-VK","2018/03/15 13:29:26","新北市板橋區華東街1-10號","121.448343333333","24.99499","6500100","板橋區"
"220023","303-R5","2018/03/15 13:29:30","新北市板橋區華東街1-9號","121.448238333333","24.9949416666667","6500100","板橋區"
"220104","560-BX","2018/03/15 13:29:27","新北市板橋區南雅南路二段116號","121.453235","25.0004116666667","6500100","板橋區"
"220011","609-BX","2018/03/15 13:29:29","新北市板橋區民生路二段171號","121.469928333333","25.0202183333333","6500100","板橋區"
"220005","686-BX","2018/03/15 13:29:43","新北市板橋區華東街1-9號","121.448203333333","24.994945","6500100","板橋區"
"220025","687-BX","2018/03/15 13:29:45","新北市板橋區篤行路一段30號","121.431923333333","24.99402","6500100","板橋區"
"220002","741-BX","2018/03/15 13:29:35","新北市板橋區華東街1-9號","121.448076666667","24.9949416666667","6500100","板橋區"
"220014","830-TW","2018/03/15 13:29:29","新北市板橋區民生路二段161巷1號","121.469946666667","25.02001","6500100","板橋區"
"220022","895-R6","2018/03/15 13:29:41","新北市板橋區華東街1-10號","121.448218333333","24.9949883333333","6500100","板橋區"
"220021","985-R7","2018/03/15 13:29:32","新北市板橋區華東街1-10號","121.448301666667","24.9950616666667","6500100","板橋區"
