"lineid","car","time","location","longitude","latitude","cityid","cityname"
"234044","148-BY","2018/03/15 13:39:35","新北市永和區永元路94號","121.522628333333","25.0016983333333","6500400","永和區"
"234005","207-UY","2018/03/15 13:39:35","新北市永和區永和路一段122號","121.513901666667","25.00771","6500400","永和區"
"234078","298-R6","2018/03/15 13:39:41","新北市永和區林森路20巷7號","121.525865","25.0056366666667","6500400","永和區"
"234036","336-UY","2018/03/15 13:39:39","新北市永和區民樂街31巷8弄1號","121.528043333333","25.0011316666667","6500400","永和區"
"234062","337-UY","2018/03/15 13:39:36","新北市永和區秀朗路一段192巷6弄14號","121.519171666667","25.0022466666667","6500400","永和區"
"234084","338-UY","2018/03/15 13:39:27","新北市永和區林森路41巷31號","121.526285","25.00428","6500400","永和區"
"234068","552-UM","2018/03/15 13:39:39","新北市永和區永和路二段233號","121.515498333333","25.01416","6500400","永和區"
"234015","745-BX","2018/03/15 13:39:42","新北市永和區文化路90巷32弄9-1號","121.513523333333","25.016975","6500400","永和區"
"234028","746-BX","2018/03/15 13:39:39","新北市永和區民權路23號","121.520065","24.997815","6500400","永和區"
"234052","KEA-2590","2018/03/15 13:39:47","新北市永和區竹林路39巷24弄3號","121.51916","25.0145","6500400","永和區"
"234012","KEA-2591","2018/03/15 13:39:38","新北市永和區永平路238巷1弄2號","121.509013333333","25.0112966666667","6500400","永和區"
"234060","AAD-866","2018/03/15 13:39:40","新北市永和區中正路456號","121.517416666667","25.002955","6500400","永和區"
"234040","862-TW","2018/03/15 13:39:35","新北市永和區中和路543號","121.511461666667","25.0031466666667","6500400","永和區"
"234048","863-TW","2018/03/15 13:39:38","新北市永和區保安路47號","121.509595","25.0159866666667","6500400","永和區"
"234025","9371-KE","2018/03/15 13:39:44","新北市永和區永平路186-1號","121.510428333333","25.0092366666667","6500400","永和區"
"234010","9373-KE","2018/03/15 13:39:41","新北市永和區保福路二段23巷21號","121.510095","25.0112183333333","6500400","永和區"
"248015","026-BX","2018/03/15 13:39:33","新北市五股區凌雲路一段149巷42號","121.448616666667","25.1009133333333","6501500","五股區"
"248005","077-UY","2018/03/15 13:39:35","新北市五股區中興路一段52號","121.468008333333","25.0726516666667","6501500","五股區"
"248007","095-VK","2018/03/15 13:39:36","新北市五股區中興路一段150巷8號","121.464638333333","25.07423","6501500","五股區"
"248017","225-UY","2018/03/15 13:39:27","新北市五股區民義路二段79-1號","121.408725","25.105815","6501500","五股區"
"248011","247-BX","2018/03/15 13:39:26","新北市五股區成泰路三段2巷1-20號","121.441206666667","25.0867033333333","6501500","五股區"
"248013","261-SL","2018/03/15 13:39:41","新北市五股區中興路四段70號","121.436963333333","25.083385","6501500","五股區"
"248003","677-BX","2018/03/15 13:39:26","新北市五股區民義路一段236-6號","121.427461666667","25.0913183333333","6501500","五股區"
"248001","678-BX","2018/03/15 13:39:26","新北市五股區成泰路三段435巷11號","121.449351666667","25.09787","6501500","五股區"
"248009","682-TV","2018/03/15 13:39:44","新北市五股區水碓一路92號","121.431851666667","25.0736333333333","6501500","五股區"
"234022","9380-KE","2018/03/15 13:39:45","新北市永和區中正路702巷18號","121.51646","25.01056","6500400","永和區"
"234076","969-R7","2018/03/15 13:39:32","新北市永和區民權路28號","121.520238333333","24.9991566666667","6500400","永和區"
"234072","AAC-211","2018/03/15 13:39:31","新北市永和區竹林路213巷44號","121.523286666667","25.0091266666667","6500400","永和區"
"234066","AAC-212","2018/03/15 13:39:46","新北市永和區永平路173巷9號","121.510048333333","25.0083133333333","6500400","永和區"
"234001","AAC-295","2018/03/15 13:39:33","新北市永和區秀朗路一段22號","121.514075","25.00677","6500400","永和區"
"244003","657-BX","2018/03/15 13:39:44","新北市林口區瑞樹坑60-2號","121.346768333333","25.12787","6501700","林口區"
"243004","AAD-798","2018/03/15 13:39:43","新北市泰山區泰林路二段202號","121.433331666667","25.0613333333333","6501600","泰山區"
"243007","539-UM","2018/03/15 13:39:27","新北市泰山區犁頭窠3-1號","121.4222","25.06045","6501600","泰山區"
"243005","646-TV","2018/03/15 13:39:29","新北市泰山區明志路三段206巷10號","121.423195","25.0380833333333","6501600","泰山區"
"243008","680-BX","2018/03/15 13:39:24","新北市泰山區明志路二段135號","121.427678333333","25.0508483333333","6501600","泰山區"
"231002","002-UM","2018/03/15 13:39:44","新北市新店區中央三街127號","121.524053333333","24.9768383333333","6500600","新店區"
"231025","0293-UT","2018/03/15 13:39:30","新北市新店區中央六街58號","121.527875","24.9757666666667","6500600","新店區"
"231028","046-UY","2018/03/15 13:39:41","新北市新店區安和路二段105號","121.518758333333","24.9697683333333","6500600","新店區"
"231030","047-UY","2018/03/15 13:39:29","新北市新店區安康路一段46巷4號","121.53054","24.9610833333333","6500600","新店區"
"231029","106-UY","2018/03/15 13:39:44","新北市新店區安康路二段156號","121.512273333333","24.9608466666667","6500600","新店區"
"231018","107-UY","2018/03/15 13:39:27","新北市新店區百忍街20號","121.534386666667","24.9757366666667","6500600","新店區"
"231011","108-UY","2018/03/15 13:39:42","新北市新店區德正街27巷27號","121.545676666667","24.9716266666667","6500600","新店區"
"231021","187-VK","2018/03/15 13:39:27","新北市新店區新烏路一段100-2號","121.546388333333","24.9371583333333","6500600","新店區"
"231017","KEA-2219","2018/03/15 13:39:30","新北市新店區竹林路2巷23-1號","121.550293333333","24.9510183333333","6500600","新店區"
"231026","256-BX","2018/03/15 13:39:35","新北市新店區中正路331號","121.535981666667","24.97503","6500600","新店區"
"231010","278-BY","2018/03/15 13:39:38","新北市新店區平等街1號","121.537056666667","24.9743133333333","6500600","新店區"
"231023","AAD-862","2018/03/15 13:39:28","新北市新店區新店路162號","121.537113333333","24.9555416666667","6500600","新店區"
"231027","3712-VJ","2018/03/15 13:39:33","新北市新店區北宜路一段105巷4弄7號","121.5402","24.955515","6500600","新店區"
"231024","4716-K9","2018/03/15 13:39:33","新北市新店區華興街40號","121.53699","24.9690933333333","6500600","新店區"
"231038","4715-K9","2018/03/15 13:39:38","新北市新店區安華路30巷1號","121.519575","24.95931","6500600","新店區"
"231036","512-UM","2018/03/15 13:39:30","新北市新店區安祥路142號","121.474383333333","24.954805","6500600","新店區"
"231013","513-UM","2018/03/15 13:39:29","新北市新店區中正路454-5號","121.534426666667","24.97914","6500600","新店區"
"231035","515-UM","2018/03/15 13:39:43","新北市新店區安忠路56巷6號","121.512961666667","24.9594416666667","6500600","新店區"
"231001","619-UM","2018/03/15 13:39:42","新北市新店區中正路366號","121.535168333333","24.976185","6500600","新店區"
"231003","641-BX","2018/03/15 13:39:43","新北市新店區中興路一段284號","121.545753333333","24.96873","6500600","新店區"
"231034","645-TV","2018/03/15 13:39:31","新北市新店區黎明路57巷50號","121.504271666667","24.9481083333333","6500600","新店區"
"231031","720-UM","2018/03/15 13:39:40","新北市新店區莒光路44巷21弄11-6號","121.518585","24.9521716666667","6500600","新店區"
"231005","897-TW","2018/03/15 13:39:34","新北市新店區寶中路72號","121.547945","24.9806333333333","6500600","新店區"
"231006","898-TW","2018/03/15 13:39:28","新北市新店區北宜路一段76號","121.538671666667","24.955905","6500600","新店區"
"231004","899-TW","2018/03/15 13:39:43","新北市新店區北新路二段13號","121.542653333333","24.9714583333333","6500600","新店區"
"231037","AKT-0513","2018/03/15 13:39:31","新北市新店區薏仁坑路37號","121.493305","24.96334","6500600","新店區"
"235030","003-UY","2018/03/15 13:39:25","新北市中和區光華街54號","121.505241666667","25.003545","6500300","中和區"
"235028","005-UY","2018/03/15 13:39:27","新北市中和區連勝街52號","121.497651666667","24.9973283333333","6500300","中和區"
"235027","006-UY","2018/03/15 13:39:40","新北市中和區連城路403號","121.486163333333","24.9961383333333","6500300","中和區"
"235020","096-UM","2018/03/15 13:39:33","新北市中和區員山路466巷21弄1號","121.480641666667","25.0069733333333","6500300","中和區"
"235003","097-UM","2018/03/15 13:39:28","新北市中和區大勇街25巷29弄2號","121.515303333333","24.9940583333333","6500300","中和區"
"235029","098-UM","2018/03/15 13:39:25","新北市中和區莊敬路49巷29弄22號","121.501036666667","25.00658","6500300","中和區"
"235022","151-BY","2018/03/15 13:39:41","新北市中和區圓通路332號","121.484371666667","24.9861766666667","6500300","中和區"
"235019","183-VK","2018/03/15 13:39:41","新北市中和區國光街102巷33號","121.471543333333","25.0007316666667","6500300","中和區"
"235002","185-VK","2018/03/15 13:39:31","新北市中和區立人街28號","121.51856","24.99422","6500300","中和區"
"235013","186-VK","2018/03/15 13:39:40","新北市中和區景安路78號","121.505781666667","24.99649","6500300","中和區"
"235031","255-BX","2018/03/15 13:38:44","新北市中和區新生街220巷15弄1號","121.48295","24.9982866666667","6500300","中和區"
"235008","293-VK","2018/03/15 13:39:29","新北市中和區復興路280巷1弄2號","121.50223","24.990705","6500300","中和區"
"235036","301-VK","2018/03/15 13:39:35","新北市中和區連城路90號","121.496921666667","25.0006366666667","6500300","中和區"
"235007","352-BY","2018/03/15 13:39:30","新北市中和區景平路167號","121.512243333333","24.9924516666667","6500300","中和區"
"235032","377-QA","2018/03/15 13:39:38","新北市中和區中正路211巷13弄50號","121.49813","24.9930133333333","6500300","中和區"
"235025","378-QA","2018/03/15 13:39:38","新北市中和區民享街30巷9號","121.473551666667","25.003435","6500300","中和區"
"235035","269-TV","2018/03/15 13:39:27","新北市中和區光環路二段309號","121.487425","25.0138066666667","6500300","中和區"
"235014","4979-A6","2018/03/15 13:39:41","新北市中和區景新街496巷28弄7號","121.513416666667","24.9856933333333","6500300","中和區"
"235033","4980-A6","2018/03/15 13:39:34","新北市中和區連城路95號","121.496671666667","24.9996866666667","6500300","中和區"
"235006","551-UM","2018/03/15 13:39:32","新北市中和區成功路97巷7號","121.526475","24.9919333333333","6500300","中和區"
"235034","558-UM","2018/03/15 13:39:43","新北市中和區景新街129號","121.505823333333","24.997345","6500300","中和區"
"235009","565-BX","2018/03/15 13:39:37","新北市中和區南山路236巷34-10號","121.504355","24.98807","6500300","中和區"
"235018","640-BX","2018/03/15 13:39:45","新北市中和區莒光路140-1號","121.472538333333","25.00108","6500300","中和區"
"235024","647-TV","2018/03/15 13:39:47","新北市中和區員山路449號","121.48066","25.004135","6500300","中和區"
"235011","732-UM","2018/03/15 13:39:42","新北市中和區南山路541號","121.507971666667","24.9867666666667","6500300","中和區"
"235026","800-TS","2018/03/15 13:39:34","新北市中和區中山路二段312巷33弄21號","121.494811666667","25.0039883333333","6500300","中和區"
"235021","801-TS","2018/03/15 13:39:36","新北市中和區民安街42巷5-2號","121.478505","25.0015216666667","6500300","中和區"
"235005","802-TS","2018/03/15 13:39:41","新北市中和區中和路458巷8號","121.512383333333","25.0036283333333","6500300","中和區"
"235016","805-TS","2018/03/15 13:39:26","新北市中和區興南路三段42-2號","121.495828333333","24.9772883333333","6500300","中和區"
"235012","896-TW","2018/03/15 13:39:24","新北市中和區中正路83號","121.500608333333","24.9935083333333","6500300","中和區"
"235017","911-UM","2018/03/15 13:39:41","新北市中和區民德路260號","121.467965","24.9968066666667","6500300","中和區"
"235015","157-BY","2018/03/15 13:39:34","新北市中和區華新街143巷106弄30號","121.506145","24.978775","6500300","中和區"
"235001","AAC-213","2018/03/15 13:39:34","新北市中和區景德街56號","121.517406666667","24.9915966666667","6500300","中和區"
"235023","AAC-215","2018/03/15 13:39:34","新北市中和區錦和路350-1號","121.490466666667","24.9935516666667","6500300","中和區"
"220016","013-TV","2018/03/15 13:39:32","新北市板橋區民生路二段120號","121.47032","25.01987","6500100","板橋區"
"220013","072-UY","2018/03/15 13:39:31","新北市板橋區南雅南路二段120-16號","121.451923333333","24.999155","6500100","板橋區"
"220034","073-UY","2018/03/15 13:39:32","新北市板橋區南雅西路二段192巷1弄3號","121.45204","25.01451","6500100","板橋區"
"220017","AAD-861","2018/03/15 13:39:31","新北市板橋區華東街1-10號","121.448331666667","24.9951083333333","6500100","板橋區"
"247005","336-TH","2018/03/15 13:39:35","新北市五股區工商路8號","121.440405","25.08242","6501400","蘆洲區"
"247007","056-VK","2018/03/15 13:39:45","新北市蘆洲區國道路二段105號","121.470503333333","25.0750483333333","6501400","蘆洲區"
"247019","053-VK","2018/03/15 13:39:39","新北市五股區成泰路三段318-1號","121.450291666667","25.0964016666667","6501400","蘆洲區"
"228005","097-TW","2018/03/15 13:39:41","新北市貢寮區美豐里文秀坑8號","121.90245","25.0503533333333","6502600","貢寮區"
"228004","212-TW","2018/03/15 13:37:46","新北市貢寮區龍崗里石壁坑街24-1號","121.91154","24.9982033333333","6502600","貢寮區"
"253003","6232-TK","2018/03/15 13:39:47","新北市石門區尖子鹿8-1號","121.575245","25.279975","6502200","石門區"
"253001","6251-TK","2018/03/15 13:39:29","新北市石門區白沙灣別墅5-1號","121.50892","25.2781266666667","6502200","石門區"
"253002","637-UY","2018/03/15 13:39:29","新北市石門區內石門78-1號","121.56922","25.2567966666667","6502200","石門區"
"253004","8270-PC","2018/03/15 13:39:36","新北市石門區竹子湖11號","121.617936666667","25.2583383333333","6502200","石門區"
"207002","749-BX","2018/03/15 13:39:33","新北市萬里區崁腳里崁腳路166號","121.64503","25.1558833333333","6502800","萬里區"
"252005","073-UM","2018/03/15 13:39:41","新北市三芝區圓山里內柑宅22-2號","121.536873333333","25.21841","6502100","三芝區"
"207001","662-BX","2018/03/15 13:39:29","新北市萬里區磺潭里公館崙35號","121.63137","25.2104183333333","6502800","萬里區"
"236066","105-UM","2018/03/15 13:39:37","新北市土城區員福街50號","121.440598333333","24.9790866666667","6501300","土城區"
"236040","107-UM","2018/03/15 13:39:36","新北市土城區城林路6巷80號","121.438241666667","24.979845","6501300","土城區"
"236076","166-UM","2018/03/15 13:39:39","新北市土城區中央路四段200號","121.416088333333","24.9575516666667","6501300","土城區"
"236024","269-VK","2018/03/15 13:39:30","新北市土城區中華路二段2號","121.439588333333","24.9794883333333","6501300","土城區"
"236012","270-VK","2018/03/15 13:39:27","新北市土城區亞洲路12巷7號","121.435691666667","24.9757266666667","6501300","土城區"
"236005","498-BY","2018/03/15 13:39:26","新北市土城區中華路二段90號","121.438281666667","24.9749616666667","6501300","土城區"
"236060","752-BX","2018/03/15 13:39:30","新北市土城區員福街56號","121.440295","24.9792116666667","6501300","土城區"
"236056","912-UM","2018/03/15 13:39:37","新北市土城區亞洲路32巷23號","121.435051666667","24.9751966666667","6501300","土城區"
"221032","280-BY","2018/03/15 13:39:40","新北市汐止區秀峰路57號","121.659646666667","25.0651766666667","6501100","汐止區"
"221027","281-BY","2018/03/15 13:39:40","新北市汐止區大同路三段186號","121.6744","25.0745766666667","6501100","汐止區"
"220027","145-BY","2018/03/15 13:39:41","新北市板橋區國光路25號","121.456996666667","25.0174583333333","6500100","板橋區"
"220028","200-UY","2018/03/15 13:39:34","新北市板橋區大觀路二段265巷76弄34號","121.44112","24.99682","6500100","板橋區"
"220030","610-BX","2018/03/15 13:39:25","新北市板橋區板城路421號","121.448123333333","24.9961416666667","6500100","板橋區"
"220004","276-BY","2018/03/15 13:39:38","新北市板橋區四川路二段140巷4號","121.449701666667","24.9931566666667","6500100","板橋區"
"220020","277-BY","2018/03/15 13:39:25","新北市板橋區大觀路二段443-2號","121.438243333333","24.995325","6500100","板橋區"
"220012","282-UM","2018/03/15 13:39:37","新北市板橋區民生路二段36-1號","121.472105","25.0167516666667","6500100","板橋區"
"220043","283-UM","2018/03/15 13:39:32","新北市板橋區民生路二段161巷1號","121.470158333333","25.01989","6500100","板橋區"
"220019","283-VK","2018/03/15 13:39:39","新北市土城區中央路一段2-1號","121.44907","24.9931433333333","6500100","板橋區"
"220001","285-VK","2018/03/15 13:39:42","新北市板橋區民生路二段161巷1號","121.470263333333","25.0198766666667","6500100","板橋區"
"220031","286-VK","2018/03/15 13:39:29","新北市板橋區板城路271號","121.450175","24.9979533333333","6500100","板橋區"
"220029","287-VK","2018/03/15 13:39:46","新北市板橋區大觀路二段101巷23號","121.447048333333","25.0014033333333","6500100","板橋區"
"220009","293-UM","2018/03/15 13:39:45","新北市板橋區民生路二段161巷3號","121.470235","25.0197983333333","6500100","板橋區"
"220032","296-UM","2018/03/15 13:39:43","新北市板橋區大觀路二段205號","121.445111666667","24.9992833333333","6500100","板橋區"
"220023","303-R5","2018/03/15 13:39:30","新北市板橋區華東街260號","121.452581666667","25.0016783333333","6500100","板橋區"
"220037","491-VK","2018/03/15 13:39:34","新北市板橋區民生路二段161巷1號","121.470221666667","25.02015","6500100","板橋區"
"220104","560-BX","2018/03/15 13:39:27","新北市板橋區南雅西路二段145巷6號","121.4516","25.0118133333333","6500100","板橋區"
"220052","561-BX","2018/03/15 13:39:33","新北市板橋區民生路二段161巷5號","121.470278333333","25.01976","6500100","板橋區"
"220011","609-BX","2018/03/15 13:39:29","新北市板橋區民生路二段171號","121.469878333333","25.0201216666667","6500100","板橋區"
"220005","686-BX","2018/03/15 13:39:43","新北市板橋區華東街1-9號","121.44821","24.9949266666667","6500100","板橋區"
"220025","687-BX","2018/03/15 13:39:45","新北市板橋區沙崙街37號","121.4306","24.9945833333333","6500100","板橋區"
"220002","741-BX","2018/03/15 13:39:35","新北市板橋區華東街1-9號","121.448095","24.9949366666667","6500100","板橋區"
"220014","830-TW","2018/03/15 13:39:29","新北市板橋區民生路二段161巷7號","121.470173333333","25.0196383333333","6500100","板橋區"
"220022","895-R6","2018/03/15 13:39:42","新北市板橋區南雅南路一段109號","121.455425","25.0050033333333","6500100","板橋區"
"220021","985-R7","2018/03/15 13:39:32","新北市板橋區南雅南路二段116號","121.453166666667","25.0002016666667","6500100","板橋區"
"220046","AAC-210","2018/03/15 13:39:26","新北市板橋區民生路二段161巷1號","121.470075","25.019925","6500100","板橋區"
"220018","AAC-253","2018/03/15 13:39:38","新北市板橋區華東街11號","121.451051666667","24.9980966666667","6500100","板橋區"
