"lineid","car","time","location","longitude","latitude","cityid","cityname"
"234044","148-BY","2018/03/15 13:49:35","新北市永和區永亨路166號","121.526165","25.0034283333333","6500400","永和區"
"234005","207-UY","2018/03/15 13:49:35","新北市永和區中和路625號","121.513035","25.0049283333333","6500400","永和區"
"234078","298-R6","2018/03/15 13:49:41","新北市永和區林森路74號","121.523756666667","25.00394","6500400","永和區"
"234036","336-UY","2018/03/15 13:49:38","新北市永和區民樂街55巷10號","121.527855","24.998515","6500400","永和區"
"234062","337-UY","2018/03/15 13:49:32","新北市永和區中正路368巷8號","121.518143333333","25.0007333333333","6500400","永和區"
"234084","338-UY","2018/03/15 13:49:33","新北市永和區永利路29號","121.518415","25.00585","6500400","永和區"
"234068","552-UM","2018/03/15 13:49:39","新北市永和區竹林路88號","121.519438333333","25.01257","6500400","永和區"
"234015","745-BX","2018/03/15 13:49:42","新北市永和區永和路二段290號","121.516068333333","25.0157066666667","6500400","永和區"
"234028","746-BX","2018/03/15 13:49:39","新北市永和區民生路45號","121.522891666667","24.9978566666667","6500400","永和區"
"234052","KEA-2590","2018/03/15 13:49:26","新北市永和區竹林路75巷25弄9號","121.52011","25.0144416666667","6500400","永和區"
"234012","KEA-2591","2018/03/15 13:49:37","新北市永和區仁愛路238號","121.508375","25.011695","6500400","永和區"
"234060","AAD-866","2018/03/15 13:49:40","新北市永和區中正路382號","121.517596666667","25.0012766666667","6500400","永和區"
"234040","862-TW","2018/03/15 13:49:35","新北市永和區中和路335巷18弄32號","121.508241666667","25.0004983333333","6500400","永和區"
"234048","863-TW","2018/03/15 13:49:38","新北市永和區保安路75號","121.50869","25.0149083333333","6500400","永和區"
"234010","9373-KE","2018/03/15 13:49:41","新北市永和區保福路二段163巷12號","121.508833333333","25.0147366666667","6500400","永和區"
"248015","026-BX","2018/03/15 13:49:33","新北市五股區凌雲路一段149巷42號","121.448611666667","25.1008983333333","6501500","五股區"
"248007","095-VK","2018/03/15 13:49:36","新北市五股區中興路一段124號","121.465565","25.0735783333333","6501500","五股區"
"248017","225-UY","2018/03/15 13:49:27","新北市五股區民義路二段22巷35-1號","121.424211666667","25.1007833333333","6501500","五股區"
"248011","247-BX","2018/03/15 13:49:26","新北市五股區成泰路二段195巷1號","121.440295","25.0873816666667","6501500","五股區"
"248003","677-BX","2018/03/15 13:49:46","新北市五股區民義路二段38號","121.418128333333","25.0981933333333","6501500","五股區"
"248001","678-BX","2018/03/15 13:49:46","新北市五股區凌雲路一段82號","121.450786666667","25.1013966666667","6501500","五股區"
"248009","682-TV","2018/03/15 13:49:45","新北市五股區水碓九路41號","121.428926666667","25.0721333333333","6501500","五股區"
"234022","9380-KE","2018/03/15 13:49:45","新北市永和區中正路652號","121.516916666667","25.0085983333333","6500400","永和區"
"234076","969-R7","2018/03/15 13:49:32","新北市永和區民族街35-1號","121.518696666667","24.99915","6500400","永和區"
"234072","AAC-211","2018/03/15 13:49:31","新北市永和區豫溪街189巷1號","121.52257","25.0102733333333","6500400","永和區"
"234066","AAC-212","2018/03/15 13:49:26","新北市永和區保平路236巷30號","121.507886666667","25.006975","6500400","永和區"
"234001","AAC-295","2018/03/15 13:49:33","新北市永和區永和路一段118號","121.513933333333","25.00784","6500400","永和區"
"244003","657-BX","2018/03/15 13:49:43","新北市林口區太平里3鄰16號","121.363368333333","25.1346416666667","6501700","林口區"
"243004","AAD-798","2018/03/15 13:49:43","新北市泰山區泰林路二段73巷27號","121.434401666667","25.0579566666667","6501600","泰山區"
"243007","539-UM","2018/03/15 13:49:27","新北市泰山區美寧街54號","121.430416666667","25.0645016666667","6501600","泰山區"
"243001","KEA-2216","2018/03/15 13:49:27","新北市泰山區黎明路25號","121.42189","25.0607316666667","6501600","泰山區"
"243005","646-TV","2018/03/15 13:49:29","新北市泰山區明志路三段206巷3號","121.423253333333","25.0379883333333","6501600","泰山區"
"243008","680-BX","2018/03/15 13:49:44","新北市泰山區明志路二段135號","121.427726666667","25.0507483333333","6501600","泰山區"
"231002","002-UM","2018/03/15 13:49:43","新北市新店區溪園路393號","121.524231666667","24.9791616666667","6500600","新店區"
"231025","0293-UT","2018/03/15 13:49:30","新北市新店區中央五街1號","121.530086666667","24.974095","6500600","新店區"
"231028","046-UY","2018/03/15 13:49:41","新北市新店區安和路二段240號","121.516681666667","24.97867","6500600","新店區"
"231030","047-UY","2018/03/15 13:49:29","新北市新店區安康路一段266巷4號","121.520031666667","24.9640866666667","6500600","新店區"
"231029","106-UY","2018/03/15 13:49:44","新北市新店區安康路二段138號","121.512453333333","24.9619166666667","6500600","新店區"
"231018","107-UY","2018/03/15 13:49:32","新北市新店區中正路398號","121.534683333333","24.9774866666667","6500600","新店區"
"231011","108-UY","2018/03/15 13:49:42","新北市新店區德正街29號","121.544666666667","24.9713216666667","6500600","新店區"
"231021","187-VK","2018/03/15 13:49:27","新北市新店區新烏路一段171號","121.544736666667","24.93469","6500600","新店區"
"231017","KEA-2219","2018/03/15 13:49:30","新北市新店區竹林路63號","121.552925","24.9513466666667","6500600","新店區"
"231026","256-BX","2018/03/15 13:49:35","新北市新店區三民路159巷19弄46號","121.532206666667","24.973195","6500600","新店區"
"231010","278-BY","2018/03/15 13:49:38","新北市新店區三民路94巷5號","121.534355","24.97335","6500600","新店區"
"231023","AAD-862","2018/03/15 13:49:28","新北市新店區國校路47號","121.537965","24.9548833333333","6500600","新店區"
"231027","3712-VJ","2018/03/15 13:49:33","新北市新店區北宜路一段3號","121.538558333333","24.95843","6500600","新店區"
"231024","4716-K9","2018/03/15 13:49:44","新北市新店區北新路一段271巷41-1號","121.539606666667","24.9670383333333","6500600","新店區"
"231038","4715-K9","2018/03/15 13:49:38","新北市新店區安康路一段321巷5號","121.521758333333","24.96269","6500600","新店區"
"231036","512-UM","2018/03/15 13:49:30","新北市新店區安祥路111號","121.475621666667","24.9569416666667","6500600","新店區"
"231013","513-UM","2018/03/15 13:49:32","新北市新店區二十張路25巷18弄16號","121.539258333333","24.9815483333333","6500600","新店區"
"231035","515-UM","2018/03/15 13:49:43","新北市新店區安忠路56巷1號","121.512481666667","24.9589666666667","6500600","新店區"
"231001","619-UM","2018/03/15 13:49:42","新北市新店區三民路64號","121.535088333333","24.9722566666667","6500600","新店區"
"231003","641-BX","2018/03/15 13:49:43","新北市新店區中興路一段59號","121.539953333333","24.9606683333333","6500600","新店區"
"231034","645-TV","2018/03/15 13:49:31","新北市新店區達觀路16號","121.503218333333","24.9406216666667","6500600","新店區"
"231031","720-UM","2018/03/15 13:49:40","新北市新店區莒光路87巷15號","121.525831666667","24.953485","6500600","新店區"
"231005","897-TW","2018/03/15 13:49:34","新北市新店區寶中路104號","121.549816666667","24.9790066666667","6500600","新店區"
"231006","898-TW","2018/03/15 13:49:28","新北市新店區北宜路一段260號","121.545666666667","24.952805","6500600","新店區"
"231004","899-TW","2018/03/15 13:49:43","新北市新店區寶橋路97號","121.547083333333","24.9761883333333","6500600","新店區"
"231037","AKT-0513","2018/03/15 13:49:31","新北市新店區安康路二段454號","121.494498333333","24.9543766666667","6500600","新店區"
"235030","003-UY","2018/03/15 13:49:25","新北市中和區廣福路56巷2弄2號","121.503658333333","25.002195","6500300","中和區"
"235028","005-UY","2018/03/15 13:49:27","新北市中和區連城路75巷5-2號","121.498201666667","24.9988","6500300","中和區"
"235027","006-UY","2018/03/15 13:49:40","新北市中和區錦和路105號","121.490231666667","24.9953083333333","6500300","中和區"
"235020","096-UM","2018/03/15 13:49:33","新北市中和區立德街329號","121.481498333333","25.010485","6500300","中和區"
"235003","097-UM","2018/03/15 13:49:28","新北市中和區大勇街29巷10號","121.516013333333","24.9944483333333","6500300","中和區"
"235029","098-UM","2018/03/15 13:49:25","新北市中和區中山路二段2巷45弄26-10號","121.501035","25.0070383333333","6500300","中和區"
"235022","151-BY","2018/03/15 13:49:41","新北市中和區連城路508號","121.47691","24.9920566666667","6500300","中和區"
"235019","183-VK","2018/03/15 13:49:22","新北市中和區德光路79號","121.469381666667","25.0037","6500300","中和區"
"235002","185-VK","2018/03/15 13:49:30","新北市中和區立人街24-4號","121.518871666667","24.9942583333333","6500300","中和區"
"235013","186-VK","2018/03/15 13:49:40","新北市中和區景安路117號","121.505795","24.9964816666667","6500300","中和區"
"235031","255-BX","2018/03/15 13:49:44","新北市中和區新生街240號","121.483541666667","24.99789","6500300","中和區"
"235008","293-VK","2018/03/15 13:49:29","新北市中和區中興街141號","121.499941666667","24.991285","6500300","中和區"
"235036","301-VK","2018/03/15 13:49:35","新北市永和區中山路一段341號","121.505843333333","25.0061083333333","6500300","中和區"
"235007","352-BY","2018/03/15 13:49:30","新北市中和區成功路139號","121.525801666667","24.9901666666667","6500300","中和區"
"235032","377-QA","2018/03/15 13:49:38","新北市中和區圓通路162巷2弄1號","121.497186666667","24.995415","6500300","中和區"
"235025","378-QA","2018/03/15 13:49:38","新北市中和區民享街89巷9弄3號","121.47496","25.0018916666667","6500300","中和區"
"235035","269-TV","2018/03/15 13:49:27","新北市中和區中山路二段480號","121.487658333333","25.0050916666667","6500300","中和區"
"235014","4979-A6","2018/03/15 13:49:31","新北市中和區忠孝街62巷40號","121.512948333333","24.9836016666667","6500300","中和區"
"235033","4980-A6","2018/03/15 13:49:34","新北市中和區南山路111巷16號","121.502601666667","24.99769","6500300","中和區"
"235006","551-UM","2018/03/15 13:49:32","新北市中和區秀朗路三段70巷34號","121.52559","24.9944583333333","6500300","中和區"
"235034","558-UM","2018/03/15 13:49:43","新北市中和區南山路14號","121.502058333333","24.9985366666667","6500300","中和區"
"235009","565-BX","2018/03/15 13:49:37","新北市中和區南山路160號","121.50447","24.991795","6500300","中和區"
"235018","640-BX","2018/03/15 13:49:25","新北市中和區民享街68巷4號","121.473806666667","25.0018916666667","6500300","中和區"
"235024","647-TV","2018/03/15 13:49:27","新北市中和區中山路二段604號","121.481738333333","25.0053616666667","6500300","中和區"
"235011","732-UM","2018/03/15 13:49:42","新北市中和區興南路二段34巷55弄1號","121.504823333333","24.9862083333333","6500300","中和區"
"235010","733-UM","2018/03/15 13:49:39","新北市中和區仁愛街36巷46號","121.511411666667","24.9862183333333","6500300","中和區"
"235026","800-TS","2018/03/15 13:49:34","新北市中和區中山路二段340巷34號","121.493456666667","25.0037283333333","6500300","中和區"
"235021","801-TS","2018/03/15 13:49:36","新北市中和區民安街22巷12-4號","121.480028333333","25.0011216666667","6500300","中和區"
"235005","802-TS","2018/03/15 13:49:38","新北市中和區永貞路274-5號","121.513323333333","25.0037766666667","6500300","中和區"
"235016","805-TS","2018/03/15 13:49:26","新北市中和區興南路三段40號","121.496615","24.9779716666667","6500300","中和區"
"235012","896-TW","2018/03/15 13:49:37","新北市中和區南山路407號","121.506971666667","24.98985","6500300","中和區"
"235017","911-UM","2018/03/15 13:49:41","新北市中和區民德路290巷17號","121.466536666667","24.9959633333333","6500300","中和區"
"235015","157-BY","2018/03/15 13:49:34","新北市中和區忠孝街37巷5號","121.51087","24.9835233333333","6500300","中和區"
"235001","AAC-213","2018/03/15 13:49:34","新北市中和區秀朗路三段128巷13號","121.524485","24.9933433333333","6500300","中和區"
"235023","AAC-215","2018/03/15 13:49:34","新北市中和區圓通路290號","121.490701666667","24.989445","6500300","中和區"
"220016","013-TV","2018/03/15 13:49:32","新北市板橋區民生路二段56-6號","121.470788333333","25.0186666666667","6500100","板橋區"
"220013","072-UY","2018/03/15 13:49:31","新北市板橋區漢生東路149號","121.468288333333","25.0136666666667","6500100","板橋區"
"220034","073-UY","2018/03/15 13:49:32","新北市板橋區大智街71巷5弄1號","121.453316666667","25.01499","6500100","板橋區"
"220017","AAD-861","2018/03/15 13:49:31","新北市板橋區大華街9號","121.458981666667","25.00623","6500100","板橋區"
"247009","341-TH","2018/03/15 13:49:26","新北市蘆洲區集賢路224巷2號","121.482258333333","25.086775","6501400","蘆洲區"
"247003","337-TH","2018/03/15 13:49:35","新北市蘆洲區中原路36號","121.459835","25.082795","6501400","蘆洲區"
"247005","336-TH","2018/03/15 13:49:35","新北市蘆洲區和平路77號","121.469325","25.079015","6501400","蘆洲區"
"247007","056-VK","2018/03/15 13:49:45","新北市蘆洲區永安北路二段70-12號","121.483635","25.0843166666667","6501400","蘆洲區"
"247019","053-VK","2018/03/15 13:49:39","新北市蘆洲區民族路408巷46號","121.474808333333","25.0930983333333","6501400","蘆洲區"
"228005","097-TW","2018/03/15 13:49:41","新北市雙溪區三港里雙澳路91號","121.88891","25.05769","6502600","貢寮區"
"228004","212-TW","2018/03/15 13:42:06","新北市貢寮區龍崗里嵩陽街41號","121.905135","25.0130666666667","6502600","貢寮區"
"253003","6232-TK","2018/03/15 13:49:27","新北市石門區尖子鹿8號","121.575215","25.27999","6502200","石門區"
"253001","6251-TK","2018/03/15 13:49:29","新北市三芝區新庄里新庄子96號","121.515493333333","25.27573","6502200","石門區"
"253002","637-UY","2018/03/15 13:49:29","新北市石門區尖山湖3號","121.565236666667","25.242845","6502200","石門區"
"253004","8270-PC","2018/03/15 13:49:36","新北市石門區阿里荖60-1號","121.607335","25.27067","6502200","石門區"
"207002","749-BX","2018/03/15 13:49:33","新北市萬里區崁腳里崁腳路166號","121.645026666667","25.1558816666667","6502800","萬里區"
"252005","073-UM","2018/03/15 13:49:41","新北市三芝區圓山里內柑宅25-1號","121.536046666667","25.225785","6502100","三芝區"
"207001","662-BX","2018/03/15 13:49:28","新北市萬里區磺潭里清水18號","121.63786","25.1977233333333","6502800","萬里區"
"236066","105-UM","2018/03/15 13:49:37","新北市土城區金城路一段131號","121.445031666667","24.9737633333333","6501300","土城區"
"236040","107-UM","2018/03/15 13:49:36","新北市土城區城林路6巷80號","121.438241666667","24.97987","6501300","土城區"
"236076","166-UM","2018/03/15 13:49:39","新北市土城區永寧路35號","121.430088333333","24.9621483333333","6501300","土城區"
"236028","253-BX","2018/03/15 13:49:37","新北市土城區忠義路26巷10號","121.439853333333","24.9699666666667","6501300","土城區"
"236024","269-VK","2018/03/15 13:49:30","新北市土城區承天路18號","121.4395","24.9634833333333","6501300","土城區"
"236012","270-VK","2018/03/15 13:49:27","新北市土城區城林路6巷80號","121.438306666667","24.9795566666667","6501300","土城區"
"236033","271-VK","2018/03/15 13:49:38","新北市土城區城林路6巷80號","121.438166666667","24.9795233333333","6501300","土城區"
"236018","401-BY","2018/03/15 13:49:43","新北市土城區亞洲路32巷23號","121.434983333333","24.9751166666667","6501300","土城區"
"236005","498-BY","2018/03/15 13:49:46","新北市土城區中央路二段81號","121.442315","24.97839","6501300","土城區"
"236060","752-BX","2018/03/15 13:49:30","新北市土城區裕生路61號","121.447701666667","24.9862083333333","6501300","土城區"
"236056","912-UM","2018/03/15 13:49:37","新北市土城區中華路二段184號","121.437478333333","24.9714833333333","6501300","土城區"
"236047","913-UM","2018/03/15 13:49:43","新北市土城區城林路6巷80號","121.43821","24.9797283333333","6501300","土城區"
"236052","AAC-216","2018/03/15 13:49:25","新北市土城區亞洲路32巷23號","121.434848333333","24.9751483333333","6501300","土城區"
"220027","145-BY","2018/03/15 13:49:41","新北市板橋區中正路11號","121.456186666667","25.0121516666667","6500100","板橋區"
"220028","200-UY","2018/03/15 13:49:14","新北市板橋區大觀路二段265巷60弄30號","121.441373333333","24.9978683333333","6500100","板橋區"
"220105","KEA-2550","2018/03/15 13:49:31","新北市板橋區民生路二段161巷1號","121.470085","25.020075","6500100","板橋區"
"220030","610-BX","2018/03/15 13:49:25","新北市板橋區溪北路111號","121.4301","24.9888033333333","6500100","板橋區"
"220004","276-BY","2018/03/15 13:49:38","新北市板橋區四川路二段23-3號","121.454661666667","24.9958383333333","6500100","板橋區"
"220020","277-BY","2018/03/15 13:49:28","新北市板橋區大觀路三段79號","121.43339","24.9950083333333","6500100","板橋區"
"220012","282-UM","2018/03/15 13:49:37","新北市板橋區民生路二段36-1號","121.47213","25.01672","6500100","板橋區"
"220043","283-UM","2018/03/15 13:49:31","新北市板橋區民生路二段161巷3號","121.47022","25.019815","6500100","板橋區"
"220019","283-VK","2018/03/15 13:49:39","新北市板橋區忠孝路176巷48號","121.465448333333","25.0016933333333","6500100","板橋區"
"220001","285-VK","2018/03/15 13:49:42","新北市板橋區民生路二段123號","121.470631666667","25.018685","6500100","板橋區"
"220031","286-VK","2018/03/15 13:49:29","新北市板橋區僑中二街152號","121.444836666667","25.0042966666667","6500100","板橋區"
"220029","287-VK","2018/03/15 13:49:46","新北市板橋區光華街13巷52號","121.452711666667","25.0111933333333","6500100","板橋區"
"220039","288-VK","2018/03/15 13:49:31","新北市板橋區民生路二段120號","121.470396666667","25.0196116666667","6500100","板橋區"
"220009","293-UM","2018/03/15 13:49:25","新北市板橋區太和街4巷3號","121.474003333333","25.0198233333333","6500100","板橋區"
"220010","295-UM","2018/03/15 13:49:43","新北市板橋區中山路二段50號","121.473148333333","25.0152133333333","6500100","板橋區"
"220032","296-UM","2018/03/15 13:49:43","新北市板橋區大觀路二段150巷22號","121.441691666667","24.9995283333333","6500100","板橋區"
"220023","303-R5","2018/03/15 13:49:30","新北市板橋區南雅西路一段174巷3號","121.45294","25.0077516666667","6500100","板橋區"
"220041","307-R5","2018/03/15 13:49:28","新北市板橋區民生路二段120號","121.470621666667","25.0196883333333","6500100","板橋區"
"220037","491-VK","2018/03/15 13:49:34","新北市板橋區民生路二段161巷1號","121.470238333333","25.0199316666667","6500100","板橋區"
"220104","560-BX","2018/03/15 13:49:47","新北市板橋區中正路325巷3弄7號","121.453771666667","25.018935","6500100","板橋區"
"220052","561-BX","2018/03/15 13:49:32","新北市板橋區民生路二段161巷7號","121.470268333333","25.019705","6500100","板橋區"
"220011","609-BX","2018/03/15 13:49:29","新北市板橋區民生路二段121號","121.470753333333","25.0184583333333","6500100","板橋區"
"220040","637-BX","2018/03/15 13:49:35","新北市板橋區民生路二段188號","121.470121666667","25.02033","6500100","板橋區"
"220005","686-BX","2018/03/15 13:49:43","新北市板橋區南雅南路二段120-23號","121.451608333333","24.9987283333333","6500100","板橋區"
"220025","687-BX","2018/03/15 13:49:25","新北市板橋區金門街141號","121.432805","24.9909283333333","6500100","板橋區"
"220042","689-BX","2018/03/15 13:49:25","新北市板橋區民生路二段161巷1號","121.470113333333","25.020025","6500100","板橋區"
"220002","741-BX","2018/03/15 13:49:35","新北市板橋區南雅南路二段116號","121.452475","25.0004183333333","6500100","板橋區"
"220051","KEA-2699","2018/03/15 13:49:32","新北市板橋區民生路二段161巷1號","121.470226666667","25.0199283333333","6500100","板橋區"
"220003","827-TW","2018/03/15 13:49:37","新北市板橋區縣民大道一段288號","121.461076666667","25.010225","6500100","板橋區"
"220014","830-TW","2018/03/15 13:49:29","新北市板橋區三民路二段正隆巷45號","121.47676","25.013395","6500100","板橋區"
"220022","895-R6","2018/03/15 13:49:42","新北市板橋區南門街14號","121.457363333333","25.008905","6500100","板橋區"
"220021","985-R7","2018/03/15 13:49:32","新北市板橋區府中路67號","121.45818","25.0095516666667","6500100","板橋區"
"220046","AAC-210","2018/03/15 13:46:06","新北市板橋區民生路二段161巷1號","121.470076666667","25.0199616666667","6500100","板橋區"
"220018","AAC-253","2018/03/15 13:49:38","新北市板橋區四川路一段107-5號","121.4598","25.00504","6500100","板橋區"
