"lineid","car","time","location","longitude","latitude","cityid","cityname"
"234028","746-BX","2018/03/15 15:08:39","新北市林口區太平里180號","121.36672","25.1339033333333","6500400","永和區"
"234025","9371-KE","2018/03/15 15:09:23","新北市永和區福和路1號","121.525533333333","25.0093816666667","6500400","永和區"
"248007","095-VK","2018/03/15 15:09:16","新北市三重區中正北路592號","121.46973","25.0719883333333","6501500","五股區"
"248017","225-UY","2018/03/15 15:09:18","新北市五股區登林路118-6號","121.413988333333","25.07593","6501500","五股區"
"248003","677-BX","2018/03/15 15:09:06","新北市五股區成泰路一段110-7號","121.435598333333","25.07234","6501500","五股區"
"244003","657-BX","2018/03/15 15:09:20","新北市林口區竹林路265號","121.389588333333","25.0807933333333","6501700","林口區"
"243003","297-R6","2018/03/15 15:09:12","新北市泰山區新北大道六段317號","121.42356","25.0336966666667","6501600","泰山區"
"243006","421-VK","2018/03/15 15:09:21","新北市泰山區泰林路三段778號","121.400718333333","25.07239","6501600","泰山區"
"243007","539-UM","2018/03/15 15:09:07","新北市泰山區仁德路126號","121.432536666667","25.0561533333333","6501600","泰山區"
"243002","KEA-2215","2018/03/15 15:09:24","新北市泰山區橫窠雅36號","121.403781666667","25.0724833333333","6501600","泰山區"
"243001","KEA-2216","2018/03/15 15:09:07","新北市泰山區泰林路二段330號","121.429843333333","25.0632216666667","6501600","泰山區"
"243008","680-BX","2018/03/15 15:09:24","新北市泰山區明志路二段325號","121.425721666667","25.0450616666667","6501600","泰山區"
"231002","002-UM","2018/03/15 15:09:24","新北市新店區中正路674號","121.533948333333","24.9897383333333","6500600","新店區"
"231025","0293-UT","2018/03/15 15:09:10","新北市新店區民權路89號","121.537618333333","24.9827983333333","6500600","新店區"
"231028","046-UY","2018/03/15 15:09:21","新北市新店區僑信路110號","121.500165","24.9469483333333","6500600","新店區"
"231030","047-UY","2018/03/15 15:09:10","新北市新店區安民街339號","121.516936666667","24.9748316666667","6500600","新店區"
"231029","106-UY","2018/03/15 15:09:04","新北市新店區安康路三段740號","121.47382","24.9419666666667","6500600","新店區"
"231018","107-UY","2018/03/15 15:09:27","新北市新店區中央六街93號","121.526195","24.9768916666667","6500600","新店區"
"231011","108-UY","2018/03/15 15:09:22","新北市新店區寶元路一段65號","121.542183333333","24.9858283333333","6500600","新店區"
"231021","187-VK","2018/03/15 15:09:07","新北市新店區湖興路89號","121.559323333333","24.9366383333333","6500600","新店區"
"231017","KEA-2219","2018/03/15 15:04:50","新北市新店區明山路5號","121.563305","24.9556366666667","6500600","新店區"
"231026","256-BX","2018/03/15 15:09:17","新北市新店區建國路43號","121.540581666667","24.975255","6500600","新店區"
"231023","AAD-862","2018/03/15 15:09:12","新北市新店區檳榔路41巷2號","121.542846666667","24.9632233333333","6500600","新店區"
"231024","4716-K9","2018/03/15 15:09:13","新北市新店區中華路42巷23號","121.540875","24.9689633333333","6500600","新店區"
"231036","512-UM","2018/03/15 15:09:10","新北市新店區安祥路102巷135號","121.48678","24.9646133333333","6500600","新店區"
"231035","515-UM","2018/03/15 15:09:23","新北市新店區安和路三段120巷20號","121.517886666667","24.9859166666667","6500600","新店區"
"231001","619-UM","2018/03/15 15:09:22","新北市新店區中正路224號","121.540195","24.9727266666667","6500600","新店區"
"231003","641-BX","2018/03/15 15:09:23","新北市新店區寶橋路210號","121.55091","24.97854","6500600","新店區"
"231034","645-TV","2018/03/15 15:09:11","新北市新店區玫瑰路4-1號","121.493623333333","24.9513783333333","6500600","新店區"
"231039","718-UY","2018/03/15 15:09:09","新北市新店區民權路10號","121.542385","24.98291","6500600","新店區"
"231031","720-UM","2018/03/15 15:09:20","新北市新店區安泰路12巷4號","121.48551","24.9503366666667","6500600","新店區"
"231005","897-TW","2018/03/15 15:09:14","新北市新店區順安街1號","121.54093","24.9847933333333","6500600","新店區"
"231006","898-TW","2018/03/15 15:09:07","新北市新店區新坡一街18巷5弄23號","121.55071","24.9618733333333","6500600","新店區"
"231004","899-TW","2018/03/15 15:09:23","新北市新店區建國路29號","121.540263333333","24.9741033333333","6500600","新店區"
"231037","AKT-0513","2018/03/15 15:09:11","新北市新店區安民街341-1號","121.516531666667","24.9750116666667","6500600","新店區"
"235030","003-UY","2018/03/15 15:09:25","新北市中和區水源路122號","121.50725","25.0033483333333","6500300","中和區"
"235003","097-UM","2018/03/15 15:09:07","新北市中和區宜安路52巷14號","121.51238","24.9972016666667","6500300","中和區"
"235029","098-UM","2018/03/15 15:09:25","新北市中和區福美路310號","121.496783333333","25.004885","6500300","中和區"
"235013","186-VK","2018/03/15 15:09:20","新北市中和區安平路10-1號","121.509231666667","24.9939483333333","6500300","中和區"
"235007","352-BY","2018/03/15 15:09:10","新北市中和區興南路二段159巷12號","121.505106666667","24.98311","6500300","中和區"
"235035","269-TV","2018/03/15 15:09:10","新北市中和區中正路774號","121.48539","25.0001516666667","6500300","中和區"
"235014","4979-A6","2018/03/15 15:09:11","新北市中和區景新街323-1號","121.51131","24.992105","6500300","中和區"
"235033","4980-A6","2018/03/15 15:09:21","新北市中和區景新街64巷6號","121.504033333333","24.9986366666667","6500300","中和區"
"235034","558-UM","2018/03/15 15:09:23","新北市中和區中正路294號","121.494448333333","24.9940266666667","6500300","中和區"
"235018","640-BX","2018/03/15 15:09:25","新北市中和區民享街35巷8弄15號","121.47465","25.00354","6500300","中和區"
"235005","802-TS","2018/03/15 15:09:18","新北市八里區中山路三段132號","121.38563","25.145375","6500300","中和區"
"235016","805-TS","2018/03/15 15:09:06","新北市中和區華新街192巷22弄6號","121.506838333333","24.9834266666667","6500300","中和區"
"235012","896-TW","2018/03/15 15:09:24","新北市中和區興南路二段2號","121.50788","24.9863583333333","6500300","中和區"
"235001","AAC-213","2018/03/15 15:09:14","新北市中和區自強路50號","121.520045","24.9948683333333","6500300","中和區"
"235023","AAC-215","2018/03/15 15:09:14","新北市中和區圓通路335巷13號","121.49333","24.9895383333333","6500300","中和區"
"220016","013-TV","2018/03/15 15:09:12","新北市板橋區中山路二段398號","121.482595","25.020745","6500100","板橋區"
"220013","072-UY","2018/03/15 15:09:11","新北市板橋區民族路69巷16弄2號","121.465718333333","25.0097333333333","6500100","板橋區"
"220017","AAD-861","2018/03/15 15:09:11","新北市板橋區大明街25巷4弄16-3號","121.457518333333","25.0022233333333","6500100","板橋區"
"247009","341-TH","2018/03/15 15:09:26","新北市林口區汕頭32號","121.366711666667","25.135015","6501400","蘆洲區"
"228004","212-TW","2018/03/15 15:09:06","新北市貢寮區雙玉里田寮洋街16-2號","121.922083333333","25.0252516666667","6502600","貢寮區"
"253003","6232-TK","2018/03/15 15:09:27","新北市石門區小坑9號","121.5944","25.2884016666667","6502200","石門區"
"253001","6251-TK","2018/03/15 15:09:09","新北市石門區尖子鹿101-2號","121.583283333333","25.29442","6502200","石門區"
"253002","637-UY","2018/03/15 15:08:49","新北市石門區中央路37-5號","121.570125","25.29665","6502200","石門區"
"253004","8270-PC","2018/03/15 15:09:16","新北市石門區小坑22號","121.592486666667","25.280365","6502200","石門區"
"207002","749-BX","2018/03/15 15:09:13","新北市萬里區崁腳里內中福路64號","121.65504","25.16735","6502800","萬里區"
"207001","662-BX","2018/03/15 15:09:08","新北市萬里區磺潭里員潭路6-2號","121.646525","25.1998183333333","6502800","萬里區"
"236066","105-UM","2018/03/15 15:09:17","新北市土城區學成路182號","121.447646666667","24.9886966666667","6501300","土城區"
"236040","107-UM","2018/03/15 15:09:20","新北市土城區裕民路280號","121.455408333333","24.9821366666667","6501300","土城區"
"236076","166-UM","2018/03/15 15:09:19","新北市土城區中州路29號","121.41363","24.9577066666667","6501300","土城區"
"236028","253-BX","2018/03/15 15:09:17","新北市土城區中央路二段48-3號","121.442615","24.9795966666667","6501300","土城區"
"236024","269-VK","2018/03/15 15:09:10","新北市土城區中正路57號","121.444316666667","24.9756016666667","6501300","土城區"
"236012","270-VK","2018/03/15 15:09:27","新北市土城區學府路一段99巷27號","121.457001666667","24.9867683333333","6501300","土城區"
"236033","271-VK","2018/03/15 15:09:18","新北市土城區仁愛路42號","121.46179","24.9792983333333","6501300","土城區"
"236018","401-BY","2018/03/15 15:09:23","新北市土城區延峰街21號","121.469018333333","24.9860416666667","6501300","土城區"
"236056","912-UM","2018/03/15 15:09:17","新北市土城區金城路二段234號","121.456615","24.9829983333333","6501300","土城區"
"236047","913-UM","2018/03/15 15:09:23","新北市土城區清水路205號","121.460071666667","24.9817066666667","6501300","土城區"
"236052","AAC-216","2018/03/15 15:09:25","新北市土城區學府路一段203號","121.451793333333","24.984645","6501300","土城區"
"238010","601-UM","2018/03/15 15:09:08","新北市樹林區中山路三段89號","121.40001","24.9747783333333","6500700","樹林區"
"238005","571-TV","2018/03/15 15:09:21","新北市板橋區金門街215巷111弄24號","121.434353333333","24.9873033333333","6500700","樹林區"
"238011","5061-A6","2018/03/15 15:09:20","新北市樹林區鎮前街151號","121.423888333333","24.9890833333333","6500700","樹林區"
"238009","KEA-2213","2018/03/15 15:09:17","新北市樹林區太平路269號","121.419395","24.9730583333333","6500700","樹林區"
"238008","KEA-2539","2018/03/15 15:09:22","新北市樹林區西圳街一段165巷20弄11號","121.395623333333","24.96019","6500700","樹林區"
"238012","303-VK","2018/03/15 15:09:20","新北市樹林區中山路二段34號","121.41732","24.984935","6500700","樹林區"
"238001","282-BY","2018/03/15 15:09:22","新北市樹林區中山路三段125-10號","121.39736","24.973555","6500700","樹林區"
"238013","172-UY","2018/03/15 15:09:10","新北市樹林區新興街59號","121.399905","24.971105","6500700","樹林區"
"238003","169-UY","2018/03/15 15:09:16","新北市樹林區中山路三段107-1號","121.399955","24.9747366666667","6500700","樹林區"
"220030","610-BX","2018/03/15 15:09:25","新北市板橋區存德街19號","121.430268333333","24.991725","6500100","板橋區"
"220050","245-BX","2018/03/15 15:09:25","新北市板橋區萬板路118號","121.474868333333","25.0234666666667","6500100","板橋區"
"220020","277-BY","2018/03/15 15:09:25","新北市板橋區金門街107號","121.433191666667","24.9920916666667","6500100","板橋區"
"220012","282-UM","2018/03/15 15:09:17","新北市板橋區漢生東路280號","121.470593333333","25.01008","6500100","板橋區"
"220019","283-VK","2018/03/15 15:09:19","新北市板橋區國慶路49巷1號","121.459456666667","24.9957266666667","6500100","板橋區"
"220001","285-VK","2018/03/15 15:09:22","新北市板橋區懷仁街88號","121.477436666667","25.0181783333333","6500100","板橋區"
"220031","286-VK","2018/03/15 15:09:09","新北市板橋區僑中二街92巷32號","121.444706666667","25.0091383333333","6500100","板橋區"
"220029","287-VK","2018/03/15 15:09:06","新北市板橋區僑中一街124巷18弄37號","121.447601666667","25.0135783333333","6500100","板橋區"
"220039","288-VK","2018/03/15 15:09:12","新北市板橋區幸福路32巷2弄47號","121.460668333333","25.02237","6500100","板橋區"
"220009","293-UM","2018/03/15 15:09:05","新北市板橋區館前東路1號","121.459606666667","25.0072283333333","6500100","板橋區"
"220023","303-R5","2018/03/15 15:09:10","新北市板橋區金華街10巷41號","121.457216666667","25.020295","6500100","板橋區"
"220041","307-R5","2018/03/15 15:09:07","新北市板橋區光正街45巷33號","121.461791666667","25.015915","6500100","板橋區"
"220047","317-R6","2018/03/15 15:09:22","新北市板橋區新海路72巷5弄6號","121.462038333333","25.0222616666667","6500100","板橋區"
"220038","487-VK","2018/03/15 15:09:23","新北市板橋區龍泉街56-1號","121.45709","25.02602","6500100","板橋區"
"220037","491-VK","2018/03/15 15:09:14","新北市板橋區大同街89號","121.479986666667","25.02833","6500100","板橋區"
"220052","561-BX","2018/03/15 15:09:16","新北市板橋區自由路26巷13號","121.46617","25.0226333333333","6500100","板橋區"
"220011","609-BX","2018/03/15 15:09:09","新北市板橋區三民路一段149號","121.479138333333","25.019655","6500100","板橋區"
"220040","637-BX","2018/03/15 15:09:14","新北市板橋區文聖街72-5號","121.477148333333","25.0305283333333","6500100","板橋區"
"220025","687-BX","2018/03/15 15:09:25","新北市板橋區僑中一街124巷77號","121.446758333333","25.018075","6500100","板橋區"
"220042","689-BX","2018/03/15 15:09:25","新北市板橋區文化路二段656號","121.479815","25.0357316666667","6500100","板橋區"
"220051","KEA-2699","2018/03/15 15:09:12","新北市板橋區懷德街78巷22號","121.477741666667","25.0313416666667","6500100","板橋區"
"220003","827-TW","2018/03/15 15:09:17","新北市板橋區國慶路149巷36號","121.46108","24.9980466666667","6500100","板橋區"
"220014","830-TW","2018/03/15 15:09:09","新北市板橋區中山路一段206巷89號","121.472","25.0132933333333","6500100","板橋區"
"220022","895-R6","2018/03/15 15:09:21","新北市板橋區府後街1巷8號","121.459373333333","25.0109366666667","6500100","板橋區"
"220046","AAC-210","2018/03/15 15:09:26","新北市板橋區建國街122號","121.461158333333","25.017485","6500100","板橋區"
"220018","AAC-253","2018/03/15 15:09:18","新北市板橋區成都街51號","121.461448333333","25.0048933333333","6500100","板橋區"
