"lineid","car","time","location","longitude","latitude","cityid","cityname"
"243011","297-R6","2018/03/15 16:11:47","新北市泰山區黎明路25號","121.421871666667","25.0610733333333","6501600","泰山區"
"243016","680-BX","2018/03/15 16:04:21","新北市泰山區犁頭窠3-1號","121.421896666667","25.0605333333333","6501600","泰山區"
"231046","278-BY","2018/03/15 16:29:26","新北市新店區灣潭路5-2號","121.537653333333","24.949905","6500600","新店區"
"241011","013-R5","2018/03/15 16:29:29","新北市三重區秀江街49號","121.501111666667","25.0726416666667","6500200","三重區"
"241028","022-UY","2018/03/15 16:29:30","新北市三重區中正南路196號","121.49387","25.0560366666667","6500200","三重區"
"241008","059-VK","2018/03/15 16:29:31","新北市三重區力行路二段136巷45弄12號","121.47927","25.07541","6500200","三重區"
"241009","060-VK","2018/03/15 16:29:42","新北市三重區三和路四段191巷78號","121.484541666667","25.0797933333333","6500200","三重區"
"241031","061-VK","2018/03/15 16:29:18","新北市三重區三陽路1號","121.48664","25.0587566666667","6500200","三重區"
"241015","062-VK","2018/03/15 16:29:30","新北市三重區福德北路36號","121.501941666667","25.06525","6500200","三重區"
"241017","063-VK","2018/03/15 16:29:30","新北市三重區重新路二段99號","121.495601666667","25.06196","6500200","三重區"
"241024","065-VK","2018/03/15 16:29:30","新北市三重區中正北路315巷16弄2號","121.474936666667","25.0716333333333","6500200","三重區"
"241026","066-VK","2018/03/15 16:29:21","新北市三重區光興街1號","121.500315","25.0603933333333","6500200","三重區"
"241002","090-VK","2018/03/15 16:29:28","新北市三重區五華街9-2號","121.49519","25.080015","6500200","三重區"
"241005","262-UM","2018/03/15 16:29:23","新北市三重區溪尾街275號","121.487611666667","25.082595","6500200","三重區"
"241016","265-UM","2018/03/15 16:29:26","新北市三重區大智街84號","121.494066666667","25.0659966666667","6500200","三重區"
"241022","267-UM","2018/03/15 16:29:24","新北市三重區過圳街100號","121.486118333333","25.062095","6500200","三重區"
"241018","268-UM","2018/03/15 16:29:25","新北市三重區重陽路四段79號","121.492646666667","25.0708633333333","6500200","三重區"
"241032","269-UM","2018/03/15 16:29:34","新北市三重區三陽路100巷3弄15號","121.482903333333","25.058145","6500200","三重區"
"241013","270-UM","2018/03/15 16:29:32","新北市三重區三和路三段83巷32號","121.49576","25.0725533333333","6500200","三重區"
"241007","398-BY","2018/03/15 16:28:51","新北市三重區溪尾街172號","121.488485","25.080455","6500200","三重區"
"241020","413-TH","2018/03/15 16:29:36","新北市三重區車路頭街37巷34號","121.484861666667","25.0718783333333","6500200","三重區"
"241004","475-VK","2018/03/15 16:29:35","新北市三重區仁愛街377巷19號","121.49242","25.080865","6500200","三重區"
"241001","478-VK","2018/03/15 16:29:21","新北市三重區福隆路113號","121.492678333333","25.0784633333333","6500200","三重區"
"241030","480-VK","2018/03/15 16:29:20","新北市三重區成功路106-1號","121.487536666667","25.0517","6500200","三重區"
"241014","543-UM","2018/03/15 16:29:22","新北市三重區河邊北街70-1號","121.504436666667","25.0683533333333","6500200","三重區"
"241023","545-UM","2018/03/15 16:29:24","新北市三重區忠孝路三段50巷78號","121.48292","25.0645583333333","6500200","三重區"
"241019","KEA-2593","2018/03/15 16:29:27","新北市三重區安慶街292號","121.490025","25.0673983333333","6500200","三重區"
"241006","AAD-863","2018/03/15 16:29:38","新北市三重區力行路二段131號","121.483315","25.0769616666667","6500200","三重區"
"241012","941-UM","2018/03/15 16:29:31","新北市三重區河邊北街230號","121.502153333333","25.0753683333333","6500200","三重區"
"241029","942-UM","2018/03/15 16:29:39","新北市三重區集美街126巷17號","121.489621666667","25.0535366666667","6500200","三重區"
"241033","AAC-255","2018/03/15 16:29:35","新北市三重區重新路五段317巷3弄5號","121.477501666667","25.0496416666667","6500200","三重區"
"235046","733-UM","2018/03/15 16:29:40","新北市中和區員山路36巷13號","121.484143333333","24.9908233333333","6500300","中和區"
"235026","800-TS","2018/03/15 16:29:34","新北市中和區建八路123號","121.48962","24.9987033333333","6500300","中和區"
"247006","336-TH","2018/03/15 16:07:52","新北市五股區中興路三段2巷10號","121.44908","25.0810816666667","6501400","蘆洲區"
"224007","275-VK","2018/03/15 16:29:31","新北市瑞芳區大埔路108-4號","121.762435","25.10224","6501200","瑞芳區"
"224005","271-BY","2018/03/15 16:29:31","新北市瑞芳區瑞芳街32-10號","121.82236","25.1208566666667","6501200","瑞芳區"
"227010","642-TC","2018/03/15 16:29:21","新北市雙溪區三港里雙澳路35-1號","121.868275","25.0506383333333","6502500","雙溪區"
"227004","400-TW","2018/03/15 16:29:39","新北市雙溪區上林里內平林129號","121.82262","25.0254933333333","6502500","雙溪區"
"251013","179-VK","2018/03/15 16:29:18","新北市淡水區大溪5號","121.492376666667","25.1914566666667","6501000","淡水區"
"251008","181-VK","2018/03/15 16:29:34","新北市淡水區民權路39號","121.45966","25.140825","6501000","淡水區"
"251015","182-VK","2018/03/15 16:29:37","新北市淡水區中正路二段31號","121.419266666667","25.1818483333333","6501000","淡水區"
"238009","KEA-2213","2018/03/15 16:29:37","新北市樹林區八德街263-1號","121.419271666667","24.9737916666667","6500700","樹林區"
"238001","283-BY","2018/03/15 16:29:36","新北市樹林區中正路439-1號","121.414615","25.008495","6500700","樹林區"
"220014","830-TW","2018/03/15 16:27:56","新北市八里區荖阡坑路34號","121.401568333333","25.12968","6500100","板橋區"
