"lineid","car","time","location","longitude","latitude","cityid","cityname"
"249005","172-UM","2018/03/15 17:09:43","新北市八里區大堀湖25-1號","121.421865","25.14819","6502300","八里區"
"249001","173-UM","2018/03/15 17:09:37","新北市八里區中華路二段331-6號","121.402271666667","25.1469566666667","6502300","八里區"
"249004","303-UY","2018/03/15 17:09:49","新北市八里區忠孝路189號","121.4227","25.16087","6502300","八里區"
"249002","305-UY","2018/03/15 17:09:36","新北市八里區龍米路二段147-1號","121.442828333333","25.1498083333333","6502300","八里區"
"249003","593-UM","2018/03/15 17:09:33","新北市八里區中山路二段411號","121.397336666667","25.14635","6502300","八里區"
"244013","069-UM","2018/03/15 17:09:37","新北市林口區粉寮69號","121.405061666667","25.09085","6501700","林口區"
"244007","080-UY","2018/03/15 17:09:36","新北市林口區菁埔13鄰39號","121.374678333333","25.0974116666667","6501700","林口區"
"244019","402-UM","2018/03/15 17:09:52","新北市林口區文化一路一段190巷7弄2-2號","121.380038333333","25.07476","6501700","林口區"
"244025","742-UY","2018/03/15 17:09:40","新北市林口區粉寮路17巷1號","121.398556666667","25.080835","6501700","林口區"
"244023","483-VK","2018/03/15 17:09:46","新北市林口區仁愛路一段338號","121.390881666667","25.0765066666667","6501700","林口區"
"244009","656-BX","2018/03/15 17:09:39","新北市林口區林口路296號","121.385931666667","25.0854983333333","6501700","林口區"
"244021","838-TS","2018/03/15 17:09:35","新北市林口區宏昌街15號","121.403831666667","25.08515","6501700","林口區"
"231046","278-BY","2018/03/15 17:09:46","新北市新店區直潭十街10號","121.531985","24.938815","6500600","新店區"
"241011","013-R5","2018/03/15 17:09:49","新北市三重區仁愛街57號","121.496468333333","25.0720083333333","6500200","三重區"
"241028","022-UY","2018/03/15 17:09:50","新北市三重區重新路三段110號","121.492268333333","25.060385","6500200","三重區"
"241008","059-VK","2018/03/15 17:09:51","新北市三重區力行路二段126號","121.48224","25.0753233333333","6500200","三重區"
"241009","060-VK","2018/03/15 17:09:40","新北市三重區三和路四段219號","121.481788333333","25.0797983333333","6500200","三重區"
"241031","061-VK","2018/03/15 17:09:39","新北市三重區重陽路一段113巷1號","121.48719","25.0598933333333","6500200","三重區"
"241015","062-VK","2018/03/15 17:09:43","新北市三重區長生街22號","121.499405","25.0664983333333","6500200","三重區"
"241017","063-VK","2018/03/15 17:09:50","新北市三重區中正北路25巷8號","121.493376666667","25.0628916666667","6500200","三重區"
"241024","065-VK","2018/03/15 17:09:50","新北市三重區後竹圍街295號","121.478886666667","25.069945","6500200","三重區"
"241026","066-VK","2018/03/15 17:09:41","新北市三重區重新路二段10號","121.499683333333","25.0627316666667","6500200","三重區"
"241002","090-VK","2018/03/15 17:09:44","新北市三重區仁義街225巷8號","121.496886666667","25.0823983333333","6500200","三重區"
"241005","262-UM","2018/03/15 17:09:43","新北市三重區仁愛街705號","121.482551666667","25.08062","6500200","三重區"
"241016","265-UM","2018/03/15 17:09:44","新北市三重區大同北路132巷2號","121.492653333333","25.064815","6500200","三重區"
"241022","267-UM","2018/03/15 17:09:44","新北市三重區中正北路118巷10-2號","121.485151666667","25.0643016666667","6500200","三重區"
"241018","268-UM","2018/03/15 17:09:46","新北市三重區重陽路四段35號","121.491536666667","25.0695733333333","6500200","三重區"
"241032","269-UM","2018/03/15 17:09:54","新北市三重區三陽路2號","121.486093333333","25.0587633333333","6500200","三重區"
"241013","270-UM","2018/03/15 17:09:53","新北市三重區仁愛街115號","121.495543333333","25.0743283333333","6500200","三重區"
"241007","398-BY","2018/03/15 17:09:53","新北市三重區三和路四段163巷79號","121.486105","25.0792233333333","6500200","三重區"
"241020","413-TH","2018/03/15 17:09:36","新北市三重區自強路三段34巷23號","121.486101666667","25.0723816666667","6500200","三重區"
"241004","475-VK","2018/03/15 17:09:35","新北市三重區五華街98巷10號","121.491715","25.0817933333333","6500200","三重區"
"241001","478-VK","2018/03/15 17:09:41","新北市三重區仁愛街255巷33號","121.494161666667","25.07887","6500200","三重區"
"241030","480-VK","2018/03/15 17:09:40","新北市三重區成功路60號","121.488721666667","25.0509566666667","6500200","三重區"
"241014","543-UM","2018/03/15 17:09:43","新北市三重區龍濱路187號","121.502183333333","25.070995","6500200","三重區"
"241023","545-UM","2018/03/15 17:09:44","新北市三重區忠孝路三段84巷1號","121.480196666667","25.0644933333333","6500200","三重區"
"241019","KEA-2593","2018/03/15 17:09:47","新北市三重區力行路一段123巷13號","121.486403333333","25.068625","6500200","三重區"
"241006","AAD-863","2018/03/15 17:09:46","新北市三重區三和路四段264巷2弄13號","121.485191666667","25.0767866666667","6500200","三重區"
"241012","941-UM","2018/03/15 17:09:31","新北市三重區仁信街4號","121.501506666667","25.075605","6500200","三重區"
"241029","942-UM","2018/03/15 17:09:39","新北市三重區重新路三段150號","121.49081","25.0593133333333","6500200","三重區"
"241033","AAC-255","2018/03/15 17:09:35","新北市三重區中興北街271號","121.469123333333","25.0606166666667","6500200","三重區"
"235062","800-TS","2018/03/15 16:51:58","新北市中和區員山路36巷16-3號","121.484843333333","24.9916016666667","6500300","中和區"
"247024","893-R6","2018/03/15 17:09:51","新北市蘆洲區長興路62號","121.463323333333","25.083845","6501400","蘆洲區"
"247014","546-UM","2018/03/15 17:09:50","新北市蘆洲區中央路26號","121.473541666667","25.082835","6501400","蘆洲區"
"247022","500-BY","2018/03/15 17:09:52","新北市蘆洲區民族路504號","121.469386666667","25.0902216666667","6501400","蘆洲區"
"247010","341-TH","2018/03/15 17:09:31","新北市蘆洲區民族路20號","121.476111666667","25.084015","6501400","蘆洲區"
"247012","339-TH","2018/03/15 17:09:43","新北市蘆洲區信義路345號","121.477706666667","25.08716","6501400","蘆洲區"
"247004","337-TH","2018/03/15 17:09:35","新北市蘆洲區長安街132號","121.460355","25.0819116666667","6501400","蘆洲區"
"247006","336-TH","2018/03/15 17:09:44","新北市蘆洲區長安街108巷37號","121.462198333333","25.0826833333333","6501400","蘆洲區"
"247018","057-VK","2018/03/15 17:09:41","新北市蘆洲區復興路154號","121.477316666667","25.0880583333333","6501400","蘆洲區"
"247008","056-VK","2018/03/15 17:09:31","新北市蘆洲區信義路30巷40號","121.47448","25.0783166666667","6501400","蘆洲區"
"247020","053-VK","2018/03/15 17:09:42","新北市蘆洲區仁愛街42-8號","121.472671666667","25.0938283333333","6501400","蘆洲區"
"247016","007-UY","2018/03/15 17:09:49","新北市蘆洲區光華路72號","121.467923333333","25.0828283333333","6501400","蘆洲區"
"247002","002-UY","2018/03/15 17:09:44","新北市蘆洲區永樂街83號","121.455823333333","25.0887733333333","6501400","蘆洲區"
"228003","097-TW","2018/03/15 17:09:41","新北市貢寮區福隆里東興街6-1號","121.951366666667","25.0199183333333","6502600","貢寮區"
"228001","212-TW","2018/03/15 17:09:50","新北市貢寮區仁理村尖山腳街20號","121.924533333333","25.04785","6502600","貢寮區"
"228002","585-TW","2018/03/15 17:09:37","新北市貢寮區龍崗里泮宮路51-1號","121.907988333333","25.0168866666667","6502600","貢寮區"
"224006","676-BX","2018/03/15 17:09:42","新北市瑞芳區大寮路116-1號","121.779705","25.0982866666667","6501200","瑞芳區"
"224008","285-BY","2018/03/15 17:09:42","新北市瑞芳區柴寮路58號","121.827546666667","25.0871983333333","6501200","瑞芳區"
"224007","275-VK","2018/03/15 17:09:51","新北市瑞芳區楓子瀨路66號","121.767425","25.0993733333333","6501200","瑞芳區"
"224009","273-VK","2018/03/15 17:09:42","新北市瑞芳區輕便路128號","121.844471666667","25.1121166666667","6501200","瑞芳區"
"224005","271-BY","2018/03/15 17:09:50","新北市瑞芳區鼻頭路101號","121.915861666667","25.1237566666667","6501200","瑞芳區"
"227010","642-TC","2018/03/15 17:09:41","新北市雙溪區三貂里子崙坑1-6號","121.849893333333","25.0574816666667","6502500","雙溪區"
"227004","400-TW","2018/03/15 17:09:35","新北市雙溪區外柑里外柑腳35號","121.810711666667","25.0187616666667","6502500","雙溪區"
"251009","008-UM","2018/03/15 17:09:38","新北市淡水區三民街17號","121.438998333333","25.17179","6501000","淡水區"
"251004","009-UM","2018/03/15 17:09:38","新北市淡水區中山路8號","121.445028333333","25.1687866666667","6501000","淡水區"
"251005","010-UM","2018/03/15 17:09:51","新北市淡水區水源街一段34巷1號","121.443196666667","25.1722366666667","6501000","淡水區"
"251013","179-VK","2018/03/15 17:09:39","新北市淡水區大埤頭5-2號","121.483983333333","25.1958266666667","6501000","淡水區"
"251014","180-VK","2018/03/15 17:09:33","新北市淡水區八里堆6-6號","121.459568333333","25.2251633333333","6501000","淡水區"
"251008","181-VK","2018/03/15 17:09:41","新北市淡水區樹梅坑15號","121.471086666667","25.1435983333333","6501000","淡水區"
"251015","182-VK","2018/03/15 17:09:37","新北市淡水區樹林口43號","121.47107","25.1684366666667","6501000","淡水區"
"251010","413-VK","2018/03/15 17:09:48","新北市淡水區新市五路二段75號","121.43124","25.1983266666667","6501000","淡水區"
"251012","441-VK","2018/03/15 17:09:38","新北市淡水區中山北路一段156號","121.444131666667","25.1779766666667","6501000","淡水區"
"251016","442-VK","2018/03/15 17:09:37","新北市淡水區社厝坑3-11號","121.47502","25.18873","6501000","淡水區"
"251006","561-UM","2018/03/15 17:09:50","新北市淡水區新民街21號","121.439281666667","25.1753","6501000","淡水區"
"251007","577-R6","2018/03/15 17:09:51","新北市淡水區中正東路二段141號","121.459638333333","25.148","6501000","淡水區"
"251011","650-BX","2018/03/15 17:09:40","新北市淡水區坪頂路49號","121.457928333333","25.162625","6501000","淡水區"
"252002","178-VK","2018/03/15 17:09:52","新北市三芝區忠孝街1-19號","121.505895","25.2532416666667","6502100","三芝區"
"252001","292-VK","2018/03/15 17:09:50","新北市三芝區埔頭里埔頭37號","121.49838","25.260295","6502100","三芝區"
"242053","751-BX","2018/03/15 17:09:36","新北市新莊區新泰路357巷3弄57號","121.442085","25.0391366666667","6500500","新莊區"
"242029","705-TV","2018/03/15 17:09:43","新北市新莊區新泰路357巷3弄53號","121.442393333333","25.0398783333333","6500500","新莊區"
"242027","615-BX","2018/03/15 17:09:50","新北市新莊區新泰路255巷83號","121.442223333333","25.0388083333333","6500500","新莊區"
"242046","497-BY","2018/03/15 17:09:36","新北市新莊區新泰路357巷3弄25號","121.441988333333","25.04065","6500500","新莊區"
"242051","441-UM","2018/03/15 17:09:51","新北市新莊區新泰路357巷3弄49號","121.441988333333","25.0401016666667","6500500","新莊區"
"242056","440-UM","2018/03/15 17:08:55","新北市新莊區三和路12-21號","121.442395","25.0382033333333","6500500","新莊區"
"242036","415-TV","2018/03/15 17:09:44","新北市新莊區新泰路357巷3弄57號","121.441825","25.0393333333333","6500500","新莊區"
"242007","413-TV","2018/03/15 17:09:33","新北市新莊區三和路18-25號","121.441603333333","25.0395916666667","6500500","新莊區"
"242044","400-BY","2018/03/15 17:09:53","新北市新莊區中正路494號","121.43614","25.03292","6500500","新莊區"
"242023","362-BY","2018/03/15 17:09:43","新北市新莊區三和路12-21號","121.442193333333","25.0386733333333","6500500","新莊區"
"242061","353-BY","2018/03/15 17:09:42","新北市新莊區三和路12-21號","121.442171666667","25.0386966666667","6500500","新莊區"
"242019","133-UY","2018/03/15 17:09:48","新北市新莊區三和路12-21號","121.442066666667","25.0388133333333","6500500","新莊區"
"242031","135-UY","2018/03/15 17:09:41","新北市新莊區三和路12-21號","121.442005","25.0387516666667","6500500","新莊區"
"242048","172-VK","2018/03/15 17:09:45","新北市新莊區中正路535-4號","121.437828333333","25.03325","6500500","新莊區"
"242017","175-VK","2018/03/15 17:09:38","新北市新莊區三和路12-21號","121.442041666667","25.0383933333333","6500500","新莊區"
"242004","176-VK","2018/03/15 17:09:46","新北市新莊區三和路12-21號","121.44205","25.0384083333333","6500500","新莊區"
"242015","346-TH","2018/03/15 17:09:51","新北市新莊區三和路12-16號","121.44165","25.037425","6500500","新莊區"
"242013","351-TH","2018/03/15 17:09:50","新北市新莊區新泰路357巷3弄57號","121.442023333333","25.0395066666667","6500500","新莊區"
"238019","599-UM","2018/03/15 17:09:40","新北市樹林區八德街502號","121.3995","24.9702266666667","6500700","樹林區"
"238018","571-TV","2018/03/15 17:09:38","新北市樹林區水源街12號","121.425425","24.9823183333333","6500700","樹林區"
"238024","5061-A6","2018/03/15 17:09:39","新北市樹林區鎮前街156號","121.424586666667","24.9901966666667","6500700","樹林區"
"238022","KEA-2213","2018/03/15 17:09:37","新北市樹林區八德街225號","121.421586666667","24.9794983333333","6500700","樹林區"
"238017","283-BY","2018/03/15 17:09:36","新北市樹林區光武街28號","121.415828333333","25.005595","6500700","樹林區"
"238026","172-UY","2018/03/15 17:09:47","新北市樹林區新興街29號","121.399976666667","24.9723433333333","6500700","樹林區"
"238016","169-UY","2018/03/15 17:09:36","新北市樹林區中山路二段10號","121.41755","24.9850066666667","6500700","樹林區"
"239007","AAC-297","2018/03/15 17:09:07","新北市鶯歌區信義街105號","121.353636666667","24.9548233333333","6500800","鶯歌區"
"239006","891-R6","2018/03/15 17:09:47","新北市鶯歌區八德路2巷18弄1號","121.336531666667","24.946835","6500800","鶯歌區"
"239008","527-UM","2018/03/15 17:09:39","新北市鶯歌區尖山路57-2號","121.350121666667","24.9496716666667","6500800","鶯歌區"
"239005","526-UM","2018/03/15 17:09:49","新北市鶯歌區鶯桃路567號","121.330033333333","24.9684533333333","6500800","鶯歌區"
"239001","417-VK","2018/03/15 17:09:41","新北市鶯歌區尖山路140巷12弄1號","121.34631","24.9493216666667","6500800","鶯歌區"
"239003","360-BY","2018/03/15 17:09:38","新北市鶯歌區德昌二街70巷32弄77-1號","121.329996666667","24.9580166666667","6500800","鶯歌區"
"239002","359-BY","2018/03/15 17:09:43","新北市鶯歌區建國路253號","121.348113333333","24.9534283333333","6500800","鶯歌區"
"239004","193-VK","2018/03/15 17:09:51","新北市鶯歌區文化路324巷1-10號","121.35127","24.94516","6500800","鶯歌區"
"242011","281-VK","2018/03/15 17:09:42","新北市新莊區三和路12-15號","121.44213","25.0373083333333","6500500","新莊區"
"242039","280-VK","2018/03/15 17:09:49","新北市新莊區新泰路357巷3弄57號","121.442441666667","25.03977","6500500","新莊區"
"220042","689-BX","2018/03/15 16:50:02","新北市板橋區民生路二段161巷1號","121.47009","25.0202116666667","6500100","板橋區"
