"lineid","car","time","location","longitude","latitude","cityid","cityname"
"249005","172-UM","2018/03/15 17:19:43","新北市八里區華富山15-1號","121.418078333333","25.134375","6502300","八里區"
"249001","173-UM","2018/03/15 17:19:37","新北市八里區中華路二段165巷3號","121.407655","25.1508816666667","6502300","八里區"
"249004","303-UY","2018/03/15 17:19:29","新北市八里區賢三街18號","121.41873","25.1589566666667","6502300","八里區"
"249002","305-UY","2018/03/15 17:19:36","新北市八里區龍米路二段117巷39-1號","121.443261666667","25.1419416666667","6502300","八里區"
"249003","593-UM","2018/03/15 17:19:32","新北市八里區中山路二段460號","121.399108333333","25.1472","6502300","八里區"
"244013","069-UM","2018/03/15 17:19:37","新北市林口區粉寮69號","121.405043333333","25.09085","6501700","林口區"
"244007","080-UY","2018/03/15 17:19:36","新北市林口區中華路283號","121.383831666667","25.0908416666667","6501700","林口區"
"244019","402-UM","2018/03/15 17:19:32","新北市林口區文化二路一段372號","121.373746666667","25.0760733333333","6501700","林口區"
"244025","742-UY","2018/03/15 17:19:40","新北市林口區中山路566號","121.377876666667","25.0837566666667","6501700","林口區"
"244023","483-VK","2018/03/15 17:19:46","新北市林口區隆林街63號","121.387173333333","25.0754433333333","6501700","林口區"
"244009","656-BX","2018/03/15 17:19:39","新北市林口區文化北路二段550巷20弄37號","121.377915","25.0911883333333","6501700","林口區"
"244021","838-TS","2018/03/15 17:19:35","新北市林口區粉寮路二段160巷18號","121.40557","25.0928016666667","6501700","林口區"
"231046","278-BY","2018/03/15 17:19:46","新北市新店區直潭路92號","121.530936666667","24.93766","6500600","新店區"
"241011","013-R5","2018/03/15 17:19:28","新北市三重區河邊北街100巷9號","121.503451666667","25.07041","6500200","三重區"
"241028","022-UY","2018/03/15 17:19:30","新北市三重區中正南路71號","121.493991666667","25.058935","6500200","三重區"
"241008","059-VK","2018/03/15 17:19:31","新北市三重區永福街72巷37號","121.48033","25.076345","6500200","三重區"
"241009","060-VK","2018/03/15 17:19:40","新北市三重區碧華街71號","121.48501","25.0814733333333","6500200","三重區"
"241015","062-VK","2018/03/15 17:19:43","新北市三重區長元街82-1號","121.501895","25.0663466666667","6500200","三重區"
"241017","063-VK","2018/03/15 17:19:30","新北市三重區大同北路52號","121.495033333333","25.06303","6500200","三重區"
"241024","065-VK","2018/03/15 17:19:30","新北市三重區中正北路193巷21弄42號","121.478628333333","25.0710133333333","6500200","三重區"
"241026","066-VK","2018/03/15 17:19:41","新北市三重區福裕街13號","121.499633333333","25.0616633333333","6500200","三重區"
"241002","090-VK","2018/03/15 17:19:44","新北市三重區自強路五段5-1號","121.49239","25.080315","6500200","三重區"
"241005","262-UM","2018/03/15 17:19:43","新北市三重區永安北路二段25巷2號","121.482351666667","25.0817766666667","6500200","三重區"
"241016","265-UM","2018/03/15 17:19:44","新北市三重區大同北路54巷1號","121.494218333333","25.0635766666667","6500200","三重區"
"241022","267-UM","2018/03/15 17:19:44","新北市三重區重陽路二段34巷1號","121.486661666667","25.0632083333333","6500200","三重區"
"241018","268-UM","2018/03/15 17:19:45","新北市三重區安慶街133號","121.494703333333","25.0689283333333","6500200","三重區"
"241032","269-UM","2018/03/15 17:19:34","新北市三重區興華街121號","121.483441666667","25.0599183333333","6500200","三重區"
"241013","270-UM","2018/03/15 17:19:32","新北市三重區仁愛街80號","121.495533333333","25.0735466666667","6500200","三重區"
"241007","398-BY","2018/03/15 17:19:41","新北市三重區三和路四段155巷12號","121.483963333333","25.07859","6500200","三重區"
"241020","413-TH","2018/03/15 17:19:36","新北市三重區自強路三段72號","121.486713333333","25.0734733333333","6500200","三重區"
"241004","475-VK","2018/03/15 17:19:35","新北市三重區五華街110巷17弄3號","121.491015","25.0823666666667","6500200","三重區"
"241001","478-VK","2018/03/15 17:19:41","新北市三重區仁愛街284號","121.492473333333","25.0790266666667","6500200","三重區"
"241030","480-VK","2018/03/15 17:19:40","新北市三重區成功路73巷9號","121.489458333333","25.05187","6500200","三重區"
"241014","543-UM","2018/03/15 17:19:43","新北市三重區長榮路6號","121.50007","25.06849","6500200","三重區"
"241023","545-UM","2018/03/15 17:19:44","新北市三重區三民街195號","121.482098333333","25.0656383333333","6500200","三重區"
"241019","KEA-2593","2018/03/15 17:19:47","新北市三重區三張街131號","121.487415","25.0699783333333","6500200","三重區"
"241012","941-UM","2018/03/15 17:19:31","新北市三重區仁昌街112號","121.500183333333","25.0752416666667","6500200","三重區"
"241033","AAC-255","2018/03/15 17:19:35","新北市三重區中興北街207號","121.469108333333","25.05772","6500200","三重區"
"235061","378-QA","2018/03/15 17:10:07","新北市中和區員山路36巷16-2號","121.485378333333","24.9916366666667","6500300","中和區"
"235062","800-TS","2018/03/15 16:51:58","新北市中和區員山路36巷16-3號","121.484843333333","24.9916016666667","6500300","中和區"
"247024","893-R6","2018/03/15 17:19:31","新北市蘆洲區光榮路2號","121.460226666667","25.0861766666667","6501400","蘆洲區"
"247014","546-UM","2018/03/15 17:19:30","新北市蘆洲區中正路81號","121.470101666667","25.083475","6501400","蘆洲區"
"247022","500-BY","2018/03/15 17:19:32","新北市蘆洲區三民路128巷37號","121.469861666667","25.0896883333333","6501400","蘆洲區"
"247010","341-TH","2018/03/15 17:19:32","新北市蘆洲區中山一路120巷7弄32號","121.477238333333","25.0821433333333","6501400","蘆洲區"
"247012","339-TH","2018/03/15 17:19:43","新北市蘆洲區信義路319巷10弄10號","121.477611666667","25.0865033333333","6501400","蘆洲區"
"247004","337-TH","2018/03/15 17:19:35","新北市蘆洲區中原路69號","121.458596666667","25.08197","6501400","蘆洲區"
"247006","336-TH","2018/03/15 17:19:44","新北市蘆洲區長安街49巷13號","121.462841666667","25.078925","6501400","蘆洲區"
"247018","057-VK","2018/03/15 17:19:41","新北市蘆洲區民權路66號","121.475061666667","25.0873216666667","6501400","蘆洲區"
"247008","056-VK","2018/03/15 17:19:31","新北市蘆洲區永安北路一段72巷27號","121.476281666667","25.0769533333333","6501400","蘆洲區"
"247020","053-VK","2018/03/15 17:19:42","新北市蘆洲區仁愛街35巷14弄1號","121.471361666667","25.0926916666667","6501400","蘆洲區"
"247016","007-UY","2018/03/15 17:19:28","新北市蘆洲區正和街96巷9號","121.46762","25.08118","6501400","蘆洲區"
"247002","002-UY","2018/03/15 17:19:44","新北市蘆洲區永樂街38巷33弄6-1號","121.45777","25.0896","6501400","蘆洲區"
"228003","097-TW","2018/03/15 17:19:41","新北市貢寮區福隆里興隆街36號","121.941036666667","25.017505","6502600","貢寮區"
"228001","212-TW","2018/03/15 17:19:30","新北市貢寮區仁理村尖山腳街18-3號","121.92551","25.0483683333333","6502600","貢寮區"
"228002","585-TW","2018/03/15 17:19:35","新北市貢寮區雙玉里下雙溪街24號","121.921543333333","25.00989","6502600","貢寮區"
"224010","AGQ-8101","2018/03/15 17:19:18","新北市瑞芳區明燈路二段2巷14號","121.81469","25.1087983333333","6501200","瑞芳區"
"224006","676-BX","2018/03/15 17:19:42","新北市瑞芳區傑魚坑路309號","121.786318333333","25.1045883333333","6501200","瑞芳區"
"224008","285-BY","2018/03/15 17:19:45","新北市瑞芳區侯硐路55號","121.830635","25.08915","6501200","瑞芳區"
"224009","273-VK","2018/03/15 17:19:42","新北市瑞芳區汽車路95號","121.842711666667","25.10942","6501200","瑞芳區"
"224005","271-BY","2018/03/15 17:19:30","新北市瑞芳區南雅路1號","121.890056666667","25.119575","6501200","瑞芳區"
"227010","642-TC","2018/03/15 17:19:41","新北市雙溪區三貂里十三層2號","121.852268333333","25.0763983333333","6502500","雙溪區"
"227004","400-TW","2018/03/15 17:19:35","新北市雙溪區上林里大瀨75-1號","121.83024","25.0286933333333","6502500","雙溪區"
"251009","008-UM","2018/03/15 17:19:38","新北市淡水區三民街17號","121.438998333333","25.17179","6501000","淡水區"
"251004","009-UM","2018/03/15 17:19:38","新北市淡水區中正東路二段88巷15號","121.459065","25.150475","6501000","淡水區"
"251005","010-UM","2018/03/15 17:19:30","新北市淡水區鄧公路19-1號","121.450263333333","25.16996","6501000","淡水區"
"251002","012-UM","2018/03/15 17:19:44","新北市淡水區中正路二段31號","121.419358333333","25.181585","6501000","淡水區"
"251013","179-VK","2018/03/15 17:19:38","新北市淡水區演戲埔腳8號","121.47381","25.1952133333333","6501000","淡水區"
"251014","180-VK","2018/03/15 17:19:33","新北市淡水區公埔子45號","121.463986666667","25.23019","6501000","淡水區"
"251008","181-VK","2018/03/15 17:19:34","新北市淡水區大同路263號","121.466845","25.14211","6501000","淡水區"
"251015","182-VK","2018/03/15 17:15:17","新北市淡水區樹林口20-6號","121.478783333333","25.168925","6501000","淡水區"
"251010","413-VK","2018/03/15 17:19:48","新北市淡水區中正路二段211號","121.42617","25.1891466666667","6501000","淡水區"
"251012","441-VK","2018/03/15 17:19:38","新北市淡水區中山北路一段156號","121.444093333333","25.1779716666667","6501000","淡水區"
"251016","442-VK","2018/03/15 17:19:37","新北市淡水區鄒厝崙14號","121.461723333333","25.1904916666667","6501000","淡水區"
"251006","561-UM","2018/03/15 17:19:30","新北市淡水區大智街45號","121.442755","25.1742933333333","6501000","淡水區"
"251007","577-R6","2018/03/15 17:19:31","新北市淡水區民生路47-4號","121.46202","25.1380333333333","6501000","淡水區"
"251011","650-BX","2018/03/15 17:19:40","新北市淡水區坪頂路149號","121.467243333333","25.161815","6501000","淡水區"
"251003","766-UM","2018/03/15 17:19:40","新北市淡水區中正路二段31號","121.419436666667","25.1815233333333","6501000","淡水區"
"207003","550-UM","2018/03/15 17:19:39","新北市萬里區龜吼里美崙路53-1號","121.687485","25.1836283333333","6502800","萬里區"
"252002","178-VK","2018/03/15 17:19:32","新北市三芝區忠孝街1-14號","121.505515","25.2539416666667","6502100","三芝區"
"252001","292-VK","2018/03/15 17:19:30","新北市三芝區長安街119號","121.498021666667","25.259695","6502100","三芝區"
"237011","KEA-2596","2018/03/15 17:19:27","新北市三峽區中山路459巷163-3號","121.348615","24.9329416666667","6500900","三峽區"
"237016","649-BX","2018/03/15 17:11:50","新北市三峽區中山路459巷137號","121.350296666667","24.933745","6500900","三峽區"
"242058","986-R7","2018/03/15 17:19:33","新北市新莊區新泰路357巷3弄15號","121.441995","25.0409233333333","6500500","新莊區"
"242053","751-BX","2018/03/15 17:19:36","新北市新莊區中環路一段287號","121.442093333333","25.0321016666667","6500500","新莊區"
"242029","705-TV","2018/03/15 17:19:43","新北市新莊區幸福路6號","121.459356666667","25.0495483333333","6500500","新莊區"
"242027","615-BX","2018/03/15 17:19:30","新北市新莊區中平路82巷36-2號","121.446383333333","25.044805","6500500","新莊區"
"242042","566-BX","2018/03/15 17:19:45","新北市新莊區中正路487號","121.441076666667","25.0336566666667","6500500","新莊區"
"242046","497-BY","2018/03/15 17:19:36","新北市新莊區新樹路65-5號","121.439433333333","25.0308066666667","6500500","新莊區"
"242002","442-UM","2018/03/15 17:19:34","新北市新莊區新莊路771巷10號","121.442155","25.0319283333333","6500500","新莊區"
"242051","441-UM","2018/03/15 17:19:31","新北市新莊區瓊林南路33-9號","121.435978333333","25.01786","6500500","新莊區"
"242056","440-UM","2018/03/15 17:19:34","新北市新莊區中正路473-1號","121.441743333333","25.03303","6500500","新莊區"
"242036","415-TV","2018/03/15 17:19:44","新北市新莊區新樹路2號","121.440895","25.0333366666667","6500500","新莊區"
"242007","413-TV","2018/03/15 17:19:33","新北市新莊區新泰路486號","121.442595","25.0457283333333","6500500","新莊區"
"242044","400-BY","2018/03/15 17:19:33","新北市新莊區富國路101-1號","121.421301666667","25.0255433333333","6500500","新莊區"
"242023","362-BY","2018/03/15 17:19:43","新北市新莊區新泰路502巷1號","121.443216666667","25.04656","6500500","新莊區"
"242061","353-BY","2018/03/15 17:19:42","新北市泰山區磚雅厝6號","121.44201","25.0427433333333","6500500","新莊區"
"242009","132-UY","2018/03/15 17:19:32","新北市新莊區中環路二段392-1號","121.442496666667","25.045525","6500500","新莊區"
"242019","133-UY","2018/03/15 17:19:48","新北市新莊區中港路274巷3號","121.453423333333","25.0441916666667","6500500","新莊區"
"242031","135-UY","2018/03/15 17:19:41","新北市新莊區三和路12-12號","121.442266666667","25.037055","6500500","新莊區"
"242048","172-VK","2018/03/15 17:19:45","新北市新莊區龍安路253號","121.419663333333","25.020105","6500500","新莊區"
"242017","175-VK","2018/03/15 17:19:38","新北市新莊區新泰路500號","121.44243","25.045905","6500500","新莊區"
"242004","176-VK","2018/03/15 17:19:26","新北市新莊區新泰路357巷3弄1號","121.442435","25.0412816666667","6500500","新莊區"
"242015","346-TH","2018/03/15 17:19:30","新北市新莊區公園一路121號","121.445318333333","25.0381266666667","6500500","新莊區"
"242021","348-TH","2018/03/15 17:19:46","新北市新莊區中平路82巷36-2號","121.446508333333","25.04489","6500500","新莊區"
"242013","351-TH","2018/03/15 17:19:30","新北市新莊區新泰路488號","121.442525","25.0458083333333","6500500","新莊區"
"238019","599-UM","2018/03/15 17:19:47","新北市樹林區八德街117號","121.420615","24.9806183333333","6500700","樹林區"
"238018","571-TV","2018/03/15 17:19:44","新北市樹林區樹中街63-1號","121.421141666667","24.9853283333333","6500700","樹林區"
"238024","5061-A6","2018/03/15 17:19:39","新北市樹林區保安街一段48巷25號","121.426488333333","24.9951633333333","6500700","樹林區"
"238022","KEA-2213","2018/03/15 17:19:37","新北市樹林區仁愛街73巷1號","121.423588333333","24.982745","6500700","樹林區"
"238021","KEA-2539","2018/03/15 17:19:41","新北市樹林區西圳街一段165巷16號","121.395763333333","24.96138","6500700","樹林區"
"238025","303-VK","2018/03/15 17:19:44","新北市樹林區保安二街40號","121.424521666667","24.9950783333333","6500700","樹林區"
"238017","283-BY","2018/03/15 17:19:35","新北市樹林區光武街28號","121.415835","25.00555","6500700","樹林區"
"238014","282-BY","2018/03/15 17:19:42","新北市樹林區長壽街12-2號","121.42347","24.993515","6500700","樹林區"
"238026","172-UY","2018/03/15 17:19:47","新北市樹林區味王街46巷11號","121.403688333333","24.9737316666667","6500700","樹林區"
"238016","169-UY","2018/03/15 17:19:36","新北市樹林區中山路二段10號","121.417543333333","24.984995","6500700","樹林區"
"239007","AAC-297","2018/03/15 17:19:27","新北市鶯歌區光復街23號","121.351426666667","24.95543","6500800","鶯歌區"
"239006","891-R6","2018/03/15 17:19:27","新北市鶯歌區德昌二街3巷1-1號","121.333118333333","24.9594566666667","6500800","鶯歌區"
"239008","527-UM","2018/03/15 17:19:39","新北市鶯歌區西湖街279巷23號","121.340963333333","24.9678266666667","6500800","鶯歌區"
"239005","526-UM","2018/03/15 17:19:29","新北市鶯歌區福德二街2號","121.330225","24.9676616666667","6500800","鶯歌區"
"239001","417-VK","2018/03/15 17:19:41","新北市鶯歌區尖山路242號","121.34277","24.9466366666667","6500800","鶯歌區"
"239003","360-BY","2018/03/15 17:19:38","新北市鶯歌區德昌街98號","121.332396666667","24.9602466666667","6500800","鶯歌區"
"239002","359-BY","2018/03/15 17:19:43","新北市鶯歌區國慶街98號","121.35006","24.9544483333333","6500800","鶯歌區"
"239004","193-VK","2018/03/15 17:19:31","新北市鶯歌區文化路324巷1-35號","121.352333333333","24.9456816666667","6500800","鶯歌區"
"242011","281-VK","2018/03/15 17:19:42","新北市新莊區新泰路357巷3弄53號","121.442463333333","25.0399016666667","6500500","新莊區"
"242039","280-VK","2018/03/15 17:19:29","新北市新莊區新樹路225號","121.435226666667","25.0229516666667","6500500","新莊區"
"220042","689-BX","2018/03/15 16:50:02","新北市板橋區民生路二段161巷1號","121.47009","25.0202116666667","6500100","板橋區"
