"lineid","car","time","location","longitude","latitude","cityid","cityname"
"234046","148-BY","2018/03/15 18:49:41","新北市永和區秀朗路二段151號","121.524856666667","25.0016266666667","6500400","永和區"
"234007","207-UY","2018/03/15 18:49:22","新北市永和區文化路160號","121.512313333333","25.0153816666667","6500400","永和區"
"234081","298-R6","2018/03/15 18:49:34","新北市永和區永利路100號","121.521068333333","25.0034866666667","6500400","永和區"
"234038","336-UY","2018/03/15 18:49:29","新北市永和區成功路一段116號","121.526838333333","25.0024083333333","6500400","永和區"
"234064","337-UY","2018/03/15 18:49:40","新北市永和區豫溪街217巷19號","121.524828333333","25.0101716666667","6500400","永和區"
"234086","338-UY","2018/03/15 18:49:39","新北市永和區中正路39-1號","121.514308333333","24.9959916666667","6500400","永和區"
"234070","552-UM","2018/03/15 18:49:30","新北市永和區竹林路96巷9號","121.519116666667","25.0120616666667","6500400","永和區"
"234017","745-BX","2018/03/15 18:49:33","新北市永和區忠孝街26巷27弄1號","121.51523","25.0169633333333","6500400","永和區"
"234030","746-BX","2018/03/15 18:49:38","新北市永和區得和路321號","121.523316666667","24.99964","6500400","永和區"
"234054","KEA-2590","2018/03/15 18:49:37","新北市永和區環河東路二段92號","121.524505","25.0105433333333","6500400","永和區"
"234013","KEA-2591","2018/03/15 18:49:38","新北市永和區保福路二段133巷17號","121.509431666667","25.0137083333333","6500400","永和區"
"234061","AAD-866","2018/03/15 18:49:34","新北市永和區中正路612號","121.517073333333","25.0074033333333","6500400","永和區"
"234042","862-TW","2018/03/15 18:49:39","新北市永和區永貞路271號","121.511716666667","25.0047883333333","6500400","永和區"
"234050","863-TW","2018/03/15 18:49:22","新北市永和區保安路2號","121.510765","25.0174983333333","6500400","永和區"
"234026","9371-KE","2018/03/15 18:49:26","新北市永和區自由街47號","121.513975","25.0059666666667","6500400","永和區"
"234011","9373-KE","2018/03/15 18:49:29","新北市永和區仁愛路70號","121.513116666667","25.0133466666667","6500400","永和區"
"249005","172-UM","2018/03/15 18:49:23","新北市八里區長道坑17號","121.396228333333","25.1155766666667","6502300","八里區"
"249001","173-UM","2018/03/15 18:49:37","新北市八里區龍米路二段26號","121.44873","25.13953","6502300","八里區"
"249004","303-UY","2018/03/15 18:49:29","新北市八里區挖子尾街16號","121.415321666667","25.1644016666667","6502300","八里區"
"249002","305-UY","2018/03/15 18:49:36","新北市八里區龍形一街33巷1-6號","121.449455","25.12943","6502300","八里區"
"248016","026-BX","2018/03/15 18:49:33","新北市五股區凌雲路一段133巷13號","121.449335","25.101565","6501500","五股區"
"248006","077-UY","2018/03/15 18:49:20","新北市五股區四維路1巷3-1號","121.46569","25.070505","6501500","五股區"
"248008","095-VK","2018/03/15 18:49:21","新北市五股區中興路一段151巷39號","121.465211666667","25.0720866666667","6501500","五股區"
"248020","225-UY","2018/03/15 18:49:32","新北市五股區凌雲路三段39-1號","121.430673333333","25.11722","6501500","五股區"
"248012","247-BX","2018/03/15 18:49:34","新北市五股區成泰路二段147巷14號","121.438946666667","25.0863133333333","6501500","五股區"
"248014","261-SL","2018/03/15 18:49:26","新北市五股區民義路一段107巷23號","121.431893333333","25.0846266666667","6501500","五股區"
"248004","677-BX","2018/03/15 18:49:27","新北市五股區民義路二段73號","121.409003333333","25.1056266666667","6501500","五股區"
"248002","678-BX","2018/03/15 18:49:25","新北市五股區凌雲路一段91號","121.450613333333","25.1014583333333","6501500","五股區"
"248010","682-TV","2018/03/15 18:49:33","新北市五股區水碓七路81號","121.429646666667","25.0721966666667","6501500","五股區"
"234023","9380-KE","2018/03/15 18:49:38","新北市永和區竹林路119巷35號","121.521825","25.01191","6500400","永和區"
"234077","969-R7","2018/03/15 18:49:37","新北市永和區中正路2巷29弄2-2號","121.513826666667","24.9938866666667","6500400","永和區"
"234074","AAC-211","2018/03/15 18:49:34","新北市永和區福和路1號","121.52626","25.0098133333333","6500400","永和區"
"234067","AAC-212","2018/03/15 18:49:29","新北市永和區中和路625號","121.513","25.00499","6500400","永和區"
"234003","AAC-295","2018/03/15 18:49:28","新北市永和區中正路720號","121.51586","25.010065","6500400","永和區"
"232011","375-UM","2018/03/15 18:33:02","新北市坪林區坪雙路一段43號","121.71167","24.942455","6502000","坪林區"
"244013","069-UM","2018/03/15 18:49:37","新北市林口區仁愛路二段201-1號","121.378138333333","25.0749683333333","6501700","林口區"
"244007","080-UY","2018/03/15 18:49:36","新北市林口區太平嶺10-1號","121.379556666667","25.1143316666667","6501700","林口區"
"244019","402-UM","2018/03/15 18:49:32","新北市林口區忠孝路621號","121.379208333333","25.0685766666667","6501700","林口區"
"244025","742-UY","2018/03/15 18:49:20","新北市林口區南勢二街372-2號","121.359583333333","25.0759883333333","6501700","林口區"
"244023","483-VK","2018/03/15 18:49:26","新北市林口區文化三路二段77巷39號","121.37302","25.08023","6501700","林口區"
"244017","485-VK","2018/03/15 18:49:25","新北市林口區文化二路一段68巷18-2號","121.366176666667","25.0677216666667","6501700","林口區"
"244009","656-BX","2018/03/15 18:49:38","新北市林口區竹林路330巷10號","121.391778333333","25.0830566666667","6501700","林口區"
"244011","701-TV","2018/03/15 18:49:28","新北市林口區中正路57巷10號","121.39526","25.07673","6501700","林口區"
"243012","AAD-798","2018/03/15 18:49:26","新北市泰山區泰林路二段73巷29號","121.434395","25.0578466666667","6501600","泰山區"
"243015","539-UM","2018/03/15 18:49:25","新北市泰山區美寧街57巷37弄2號","121.429145","25.065205","6501600","泰山區"
"243010","KEA-2215","2018/03/15 18:49:40","新北市泰山區明志路一段440號","121.430763333333","25.0560733333333","6501600","泰山區"
"243009","KEA-2216","2018/03/15 18:49:37","新北市泰山區泰林路二段370號","121.428465","25.06384","6501600","泰山區"
"243013","646-TV","2018/03/15 18:49:38","新北市泰山區明志路三段206巷5號","121.4232","25.0379283333333","6501600","泰山區"
"243016","680-BX","2018/03/15 18:49:06","新北市泰山區明志路二段135號","121.427691666667","25.050835","6501600","泰山區"
"222003","436-BY","2018/03/15 18:49:30","新北市深坑區深南路1號","121.622295","25.0054683333333","6501800","深坑區"
"222002","659-BX","2018/03/15 18:49:32","新北市深坑區文山路一段64號","121.623545","25.000785","6501800","深坑區"
"231041","002-UM","2018/03/15 18:49:38","新北市新店區安華路28-1號","121.519618333333","24.9609033333333","6500600","新店區"
"231059","046-UY","2018/03/15 18:49:22","新北市新店區安華路28-1號","121.519558333333","24.9608766666667","6500600","新店區"
"231061","047-UY","2018/03/15 18:49:21","新北市新店區安華路28-1號","121.519243333333","24.9610716666667","6500600","新店區"
"231060","106-UY","2018/03/15 18:49:33","新北市新店區安華路28-1號","121.519605","24.9608433333333","6500600","新店區"
"231051","107-UY","2018/03/15 18:49:26","新北市新店區中央路68號","121.532516666667","24.9772166666667","6500600","新店區"
"231047","108-UY","2018/03/15 18:49:31","新北市新店區德正街17巷1號","121.543688333333","24.9728566666667","6500600","新店區"
"231052","187-VK","2018/03/15 18:49:32","新北市新店區新烏路一段231號","121.54939","24.9308816666667","6500600","新店區"
"231050","KEA-2219","2018/03/15 18:49:39","新北市新店區安康路一段241號","121.525081666667","24.9632916666667","6500600","新店區"
"221015","KEA-2785","2018/03/15 18:49:42","新北市汐止區鄉長路一段55巷22號","121.6648","25.0764","6501100","汐止區"
"231046","278-BY","2018/03/15 18:49:26","新北市新店區直潭三街88號","121.531648333333","24.941995","6500600","新店區"
"231054","AAD-862","2018/03/15 18:49:21","新北市新店區安康路一段140號","121.526561666667","24.9628666666667","6500600","新店區"
"231058","3712-VJ","2018/03/15 18:49:38","新北市新店區北宜路一段80號","121.538666666667","24.95582","6500600","新店區"
"231056","3713-VJ","2018/03/15 18:49:20","新北市新店區建國路194號","121.537866666667","24.9804866666667","6500600","新店區"
"231055","4716-K9","2018/03/15 18:49:26","新北市新店區北新路一段271巷37號","121.539715","24.967175","6500600","新店區"
"231067","4772-VM","2018/03/15 18:49:28","新北市新店區安康路一段110巷2號","121.527266666667","24.9625716666667","6500600","新店區"
"231065","512-UM","2018/03/15 18:49:40","新北市新店區車子路20號","121.505328333333","24.9546166666667","6500600","新店區"
"231049","513-UM","2018/03/15 18:49:34","新北市新店區中正路454-5號","121.534415","24.9790683333333","6500600","新店區"
"231064","515-UM","2018/03/15 18:49:38","新北市新店區安華路28-1號","121.519735","24.961205","6500600","新店區"
"231040","619-UM","2018/03/15 18:49:26","新北市新店區環河路116號","121.536946666667","24.967355","6500600","新店區"
"231042","641-BX","2018/03/15 18:49:38","新北市新店區中正路84號","121.543635","24.9703733333333","6500600","新店區"
"231063","645-TV","2018/03/15 18:49:32","新北市新店區安華路28-1號","121.519343333333","24.9607783333333","6500600","新店區"
"231062","720-UM","2018/03/15 18:49:42","新北市新店區車子路10-4號","121.504865","24.95459","6500600","新店區"
"231044","897-TW","2018/03/15 18:49:42","新北市新店區寶中路72號","121.547898333333","24.9806216666667","6500600","新店區"
"231045","898-TW","2018/03/15 18:49:41","新北市新店區秀山路72號","121.531196666667","24.9609666666667","6500600","新店區"
"231043","899-TW","2018/03/15 18:49:36","新北市新店區安康路一段76號","121.528221666667","24.9618416666667","6500600","新店區"
"231066","AKT-0513","2018/03/15 18:49:26","新北市新店區安豐路22巷3-1號","121.502591666667","24.95552","6500600","新店區"
"235066","003-UY","2018/03/15 18:49:29","新北市中和區廣福路56巷6號","121.50355","25.00236","6500300","中和區"
"235064","005-UY","2018/03/15 18:49:24","新北市中和區景平路517號","121.499306666667","24.9988366666667","6500300","中和區"
"235063","006-UY","2018/03/15 18:49:22","新北市中和區錦和路113號","121.490261666667","24.9949816666667","6500300","中和區"
"235056","096-UM","2018/03/15 18:49:33","新北市中和區員山路611巷5弄1號","121.47797","25.0112766666667","6500300","中和區"
"235039","097-UM","2018/03/15 18:49:35","新北市永和區中正路5號","121.513835","24.9956033333333","6500300","中和區"
"235065","098-UM","2018/03/15 18:49:29","新北市中和區中山路二段2巷43號","121.502521666667","25.0070033333333","6500300","中和區"
"235040","150-BY","2018/03/15 18:42:26","新北市中和區安和路39號","121.509818333333","24.9946466666667","6500300","中和區"
"235058","151-BY","2018/03/15 18:49:39","新北市中和區連城路426號","121.480161666667","24.9949383333333","6500300","中和區"
"235055","183-VK","2018/03/15 18:49:20","新北市中和區民生街46號","121.46951","25.00515","6500300","中和區"
"235038","185-VK","2018/03/15 18:49:26","新北市中和區大勇街31巷6弄3號","121.517165","24.9944","6500300","中和區"
"235049","186-VK","2018/03/15 18:49:34","新北市中和區景安路169號","121.505276666667","24.9945","6500300","中和區"
"235067","255-BX","2018/03/15 18:49:06","新北市中和區新生街9-1號","121.483178333333","25.00447","6500300","中和區"
"235044","293-VK","2018/03/15 18:49:36","新北市中和區中興街145號","121.500026666667","24.9911983333333","6500300","中和區"
"235072","301-VK","2018/03/15 18:49:36","新北市中和區中山路二段119號","121.502881666667","25.0037416666667","6500300","中和區"
"235043","352-BY","2018/03/15 18:49:24","新北市中和區成功路9號","121.526261666667","24.9939716666667","6500300","中和區"
"235068","377-QA","2018/03/15 18:49:27","新北市中和區中正路211巷13弄3號","121.497188333333","24.9929566666667","6500300","中和區"
"235061","378-QA","2018/03/15 18:49:31","新北市中和區民治街128巷11號","121.474665","25.0028566666667","6500300","中和區"
"235071","269-TV","2018/03/15 18:49:24","新北市中和區員山路36巷16-3號","121.484715","24.991455","6500300","中和區"
"235050","4979-A6","2018/03/15 18:49:33","新北市中和區忠孝街62巷9弄12號","121.513075","24.9839883333333","6500300","中和區"
"235069","4980-A6","2018/03/15 18:49:30","新北市中和區泰和街36號","121.499258333333","25.00025","6500300","中和區"
"235042","551-UM","2018/03/15 18:49:42","新北市中和區秀朗路三段100巷4號","121.525473333333","24.9933833333333","6500300","中和區"
"235070","558-UM","2018/03/15 18:49:42","新北市中和區南山路6號","121.501951666667","24.9987516666667","6500300","中和區"
"235045","565-BX","2018/03/15 18:49:37","新北市中和區景安路229號","121.50419","24.991165","6500300","中和區"
"235054","640-BX","2018/03/15 18:49:27","新北市中和區民享街58-1號","121.474098333333","25.0022466666667","6500300","中和區"
"235060","647-TV","2018/03/15 18:49:26","新北市中和區中山路三段38號","121.478831666667","25.0058933333333","6500300","中和區"
"235047","732-UM","2018/03/15 18:49:21","新北市中和區興南路二段34巷57弄1號","121.504891666667","24.9859016666667","6500300","中和區"
"235046","733-UM","2018/03/15 18:49:27","新北市中和區仁愛街36巷38號","121.511303333333","24.9865583333333","6500300","中和區"
"235062","800-TS","2018/03/15 18:49:32","新北市中和區中山路二段356號","121.492773333333","25.0028783333333","6500300","中和區"
"235057","801-TS","2018/03/15 18:49:36","新北市中和區民安街38號","121.479983333333","25.0005483333333","6500300","中和區"
"235041","802-TS","2018/03/15 18:49:37","新北市中和區中安街192號","121.51138","24.9992533333333","6500300","中和區"
"235052","805-TS","2018/03/15 18:49:27","新北市中和區興南路二段399巷98弄48號","121.498766666667","24.9767233333333","6500300","中和區"
"235048","896-TW","2018/03/15 18:49:28","新北市中和區華新街47號","121.50784","24.9845666666667","6500300","中和區"
"235053","911-UM","2018/03/15 18:49:27","新北市中和區華福街46-1號","121.466475","24.99662","6500300","中和區"
"235051","157-BY","2018/03/15 18:49:21","新北市中和區華新街109巷4號","121.508865","24.9817833333333","6500300","中和區"
"235037","AAC-213","2018/03/15 18:49:37","新北市中和區秀朗路三段128巷2號","121.524695","24.99241","6500300","中和區"
"235059","AAC-215","2018/03/15 18:49:29","新北市中和區圓通路393巷2號","121.48965","24.9889566666667","6500300","中和區"
"220068","013-TV","2018/03/15 18:49:38","新北市板橋區民生路二段56-6號","121.47074","25.0188383333333","6500100","板橋區"
"220065","072-UY","2018/03/15 18:49:23","新北市板橋區館前西路44號","121.45864","25.0069883333333","6500100","板橋區"
"220086","073-UY","2018/03/15 18:49:40","新北市板橋區大智街71巷3弄1號","121.4535","25.01531","6500100","板橋區"
"226004","205-ST","2018/03/15 18:49:23","新北市平溪區平溪里平溪街24號","121.738828333333","25.02541","6502400","平溪區"
"228003","097-TW","2018/03/15 18:49:21","新北市貢寮區和美里龍洞街63-7號","121.91755","25.1186666666667","6502600","貢寮區"
"228001","212-TW","2018/03/15 18:49:30","新北市貢寮區仁理村保健街73號","121.923705","25.0516833333333","6502600","貢寮區"
"228002","585-TW","2018/03/15 18:49:35","新北市貢寮區福隆里東興街6-11號","121.950718333333","25.021115","6502600","貢寮區"
"224010","AGQ-8101","2018/03/15 18:49:37","新北市瑞芳區基山街6號","121.845191666667","25.1093033333333","6501200","瑞芳區"
"224006","676-BX","2018/03/15 18:49:22","新北市瑞芳區中正路100號","121.80507","25.1077233333333","6501200","瑞芳區"
"224008","285-BY","2018/03/15 18:49:39","新北市瑞芳區逢甲路344號","121.802828333333","25.1118566666667","6501200","瑞芳區"
"224007","275-VK","2018/03/15 18:49:30","新北市瑞芳區大埔路東泰新村4號","121.76128","25.1012016666667","6501200","瑞芳區"
"224009","273-VK","2018/03/15 18:49:22","新北市瑞芳區祈堂路2號","121.859706666667","25.11144","6501200","瑞芳區"
"224005","271-BY","2018/03/15 18:49:35","新北市瑞芳區海濱路136-1號","121.830341666667","25.1224216666667","6501200","瑞芳區"
"227010","642-TC","2018/03/15 18:49:30","新北市雙溪區牡丹里聖南26號","121.856336666667","25.05352","6502500","雙溪區"
"227004","400-TW","2018/03/15 18:49:39","新北市雙溪區平林里梅竹蹊30號","121.861593333333","25.0360183333333","6502500","雙溪區"
"253005","032-BX","2018/03/15 18:49:34","新北市石門區石門街2巷20號","121.565708333333","25.2904433333333","6502200","石門區"
"253006","295-VK","2018/03/15 18:49:31","新北市石門區下員坑15號","121.511626666667","25.28461","6502200","石門區"
"253001","4710-YM","2018/03/15 18:49:34","新北市石門區大溪墘2-4號","121.54998","25.2898433333333","6502200","石門區"
"222001","KEA-2212","2018/03/15 18:49:34","新北市深坑區松柏街34號","121.638671666667","25.0113516666667","6501800","深坑區"
"208002","KEA-2872","2018/03/15 18:49:34","新北市金山區信義路60號","121.635783333333","25.219045","6502700","金山區"
"208003","665-BX","2018/03/15 18:49:29","新北市金山區中山路393號","121.633358333333","25.22525","6502700","金山區"
"208001","761-BX","2018/03/15 18:49:25","新北市金山區文化三路66巷1號","121.634176666667","25.22567","6502700","金山區"
"251009","008-UM","2018/03/15 18:49:38","新北市淡水區重建街172號","121.440721666667","25.17402","6501000","淡水區"
"251001","011-UM","2018/03/15 18:49:42","新北市淡水區自強路277號","121.462373333333","25.128505","6501000","淡水區"
"251002","012-UM","2018/03/15 18:49:24","新北市淡水區學府路71號","121.448421666667","25.1698483333333","6501000","淡水區"
"251013","179-VK","2018/03/15 18:49:38","新北市淡水區小坑子頭2-2號","121.48288","25.2127916666667","6501000","淡水區"
"251014","180-VK","2018/03/15 18:49:33","新北市淡水區崙頂15-1號","121.489366666667","25.2234083333333","6501000","淡水區"
"251015","182-VK","2018/03/15 18:49:37","新北市淡水區興福寮66巷64號","121.487533333333","25.1629066666667","6501000","淡水區"
"251010","413-VK","2018/03/15 18:49:27","新北市淡水區沙崙路11號","121.421098333333","25.1812783333333","6501000","淡水區"
"251012","441-VK","2018/03/15 18:49:38","新北市淡水區新興街1號","121.443915","25.180195","6501000","淡水區"
"251016","442-VK","2018/03/15 18:49:37","新北市淡水區下圭柔山71-3號","121.447005","25.2062066666667","6501000","淡水區"
"251006","561-UM","2018/03/15 18:49:29","新北市淡水區崁頂64號","121.438816666667","25.2008016666667","6501000","淡水區"
"251011","650-BX","2018/03/15 18:49:39","新北市淡水區學府路1號","121.447406666667","25.1678233333333","6501000","淡水區"
"251003","766-UM","2018/03/15 18:49:40","新北市淡水區中山北路一段212巷36號","121.446363333333","25.1791183333333","6501000","淡水區"
"207003","550-UM","2018/03/15 18:49:39","新北市萬里區大鵬里頂社2-1號","121.660286666667","25.2071983333333","6502800","萬里區"
"207004","225-TW","2018/03/15 18:49:25","新北市萬里區萬里里獅頭路23號","121.693223333333","25.1783183333333","6502800","萬里區"
"252002","178-VK","2018/03/15 18:49:36","新北市三芝區中正路一段101號","121.504721666667","25.2564466666667","6502100","三芝區"
"252003","249-BX","2018/03/15 18:49:33","新北市三芝區後厝里大片頭81-1號","121.459153333333","25.24458","6502100","三芝區"
"252001","292-VK","2018/03/15 18:49:30","新北市三芝區中正路三段9號","121.503003333333","25.253975","6502100","三芝區"
"237004","KEA-2597","2018/03/15 18:49:31","新北市三峽區插角230號","121.414598333333","24.8688483333333","6500900","三峽區"
"237007","153-BY","2018/03/15 18:49:41","新北市三峽區中正路二段395號","121.365106666667","24.9076366666667","6500900","三峽區"
"237009","210-TH","2018/03/15 18:49:26","新北市三峽區大同路240巷43號","121.365378333333","24.9257133333333","6500900","三峽區"
"237013","252-BX","2018/03/15 18:49:35","新北市三峽區光明路69巷27號","121.376776666667","24.92931","6500900","三峽區"
"237012","275-BY","2018/03/15 18:49:28","新北市三峽區三樹路358號","121.38396","24.9433933333333","6500900","三峽區"
"237008","302-VK","2018/03/15 18:49:34","新北市三峽區白雞33-61號","121.370921666667","24.9131366666667","6500900","三峽區"
"237014","433-BY","2018/03/15 18:49:30","新北市三峽區復興路480巷50-7號","121.360425","24.9404216666667","6500900","三峽區"
"237006","5529-G3","2018/03/15 18:49:38","新北市三峽區溪東路233巷4弄29號","121.40767","24.933965","6500900","三峽區"
"237011","KEA-2596","2018/03/15 18:49:27","新北市三峽區介壽路三段231-3號","121.404721666667","24.946035","6500900","三峽區"
"237010","706-TV","2018/03/15 18:49:30","新北市三峽區國光街350巷14號","121.3717","24.94012","6500900","三峽區"
"237005","AKY-6261","2018/03/15 18:49:24","新北市三峽區中山路169巷12-19號","121.363495","24.9356283333333","6500900","三峽區"
"236071","105-UM","2018/03/15 18:49:36","新北市土城區延和路19號","121.464301666667","24.9883366666667","6501300","土城區"
"236042","107-UM","2018/03/15 18:49:37","新北市土城區裕民路114巷27號","121.450425","24.9856983333333","6501300","土城區"
"236053","137-TH","2018/03/15 18:49:36","新北市土城區裕民路190號","121.452963333333","24.9849633333333","6501300","土城區"
"236078","166-UM","2018/03/15 18:49:35","新北市土城區中央路四段67巷58-11號","121.41704","24.9560683333333","6501300","土城區"
"236030","253-BX","2018/03/15 18:49:23","新北市土城區忠義路26巷25號","121.439576666667","24.96955","6501300","土城區"
"236026","269-VK","2018/03/15 18:49:29","新北市土城區中央路二段237號","121.440273333333","24.9721616666667","6501300","土城區"
"236014","270-VK","2018/03/15 18:49:40","新北市土城區金城路二段356號","121.46151","24.9850916666667","6501300","土城區"
"236037","271-VK","2018/03/15 18:49:21","新北市土城區明德路一段221巷9號","121.46373","24.9780666666667","6501300","土城區"
"236021","401-BY","2018/03/15 18:49:35","新北市土城區德峰街39號","121.46742","24.98567","6501300","土城區"
"236062","752-BX","2018/03/15 18:49:35","新北市土城區金城路三段197號","121.470116666667","24.9890666666667","6501300","土城區"
"236058","912-UM","2018/03/15 18:49:33","新北市土城區中央路三段119-1號","121.434226666667","24.96558","6501300","土城區"
"236051","913-UM","2018/03/15 18:49:41","新北市土城區青雲路10-1號","121.460191666667","24.988945","6501300","土城區"
"242058","986-R7","2018/03/15 18:49:32","新北市新莊區壽山路31號","121.419966666667","25.028735","6500500","新莊區"
"238023","601-UM","2018/03/15 18:49:28","桃園市龜山區萬壽路一段263號","121.404225","25.017355","6500700","樹林區"
"238019","599-UM","2018/03/15 18:49:20","新北市樹林區東榮街180號","121.41432","24.9819416666667","6500700","樹林區"
"238018","571-TV","2018/03/15 18:49:38","新北市樹林區太元街2巷7號","121.417131666667","24.9809283333333","6500700","樹林區"
"238024","5061-A6","2018/03/15 18:49:39","新北市樹林區八德街584號","121.39878","24.97006","6500700","樹林區"
"238021","KEA-2539","2018/03/15 18:49:21","新北市樹林區西圳街二段30號","121.388588333333","24.9617833333333","6500700","樹林區"
"238014","282-BY","2018/03/15 18:49:21","新北市樹林區中正路105號","121.425091666667","25.00072","6500700","樹林區"
"238007","268-VK","2018/03/15 18:40:04","新北市樹林區俊英街223巷2號","121.423658333333","25.01345","6500700","樹林區"
"238026","172-UY","2018/03/15 18:49:27","新北市樹林區德和街36號","121.390075","24.9781316666667","6500700","樹林區"
"238016","169-UY","2018/03/15 18:49:36","新北市樹林區文化街28號","121.419275","24.9877533333333","6500700","樹林區"
"239007","AAC-297","2018/03/15 18:45:47","新北市鶯歌區中正一路478號","121.365366666667","24.9565966666667","6500800","鶯歌區"
"239008","527-UM","2018/03/15 18:49:39","新北市鶯歌區國際二路48號","121.335755","24.9758083333333","6500800","鶯歌區"
"239005","526-UM","2018/03/15 18:49:29","新北市鶯歌區鳳吉一街46號","121.326173333333","24.9738616666667","6500800","鶯歌區"
"239001","417-VK","2018/03/15 18:49:41","新北市鶯歌區鶯桃路97-3號","121.339138333333","24.954025","6500800","鶯歌區"
"239003","360-BY","2018/03/15 18:49:37","新北市鶯歌區鶯桃路588號","121.330398333333","24.9681033333333","6500800","鶯歌區"
"239004","193-VK","2018/03/15 18:49:31","新北市鶯歌區中正三路156巷31號","121.333473333333","24.939785","6500800","鶯歌區"
"221008","489-VK","2018/03/15 18:49:39","新北市汐止區康寧街901號","121.651321666667","25.0749933333333","6501100","汐止區"
"221036","130-UY","2018/03/15 18:49:39","新北市汐止區南昌街13號","121.663331666667","25.0694616666667","6501100","汐止區"
"221010","269-BY","2018/03/15 18:49:27","新北市汐止區汐萬路一段420號","121.649853333333","25.0781283333333","6501100","汐止區"
"221012","278-VK","2018/03/15 18:49:28","新北市汐止區汐萬路一段256巷3號","121.653425","25.0747033333333","6501100","汐止區"
"221023","279-VK","2018/03/15 18:49:39","新北市汐止區康寧街901號","121.650951666667","25.07521","6501100","汐止區"
"221032","280-BY","2018/03/15 18:49:26","新北市汐止區民權街二段79號","121.619168333333","25.0480633333333","6501100","汐止區"
"221027","281-BY","2018/03/15 18:49:21","新北市汐止區汐萬路一段256巷3號","121.653443333333","25.0746316666667","6501100","汐止區"
"221033","297-VK","2018/03/15 18:49:32","新北市汐止區南勢街1巷1號","121.627048333333","25.0374916666667","6501100","汐止區"
"221029","298-VK","2018/03/15 18:49:23","新北市汐止區工建路64號","121.64055","25.062885","6501100","汐止區"
"221031","353-TW","2018/03/15 18:49:40","新北市汐止區福德一路300巷15號","121.630788333333","25.0638733333333","6501100","汐止區"
"221035","622-UM","2018/03/15 18:49:34","新北市汐止區汐萬路一段81號","121.654791666667","25.06984","6501100","汐止區"
"221025","623-UM","2018/03/15 18:49:25","新北市汐止區仁愛路32號","121.660383333333","25.0628466666667","6501100","汐止區"
"221038","646-BX","2018/03/15 18:49:36","新北市汐止區汐萬路一段312號","121.650638333333","25.07528","6501100","汐止區"
"221002","707-TV","2018/03/15 18:49:41","新北市汐止區大同路一段149號","121.632021666667","25.0560716666667","6501100","汐止區"
"220079","145-BY","2018/03/15 18:49:37","新北市板橋區民權路202巷7弄30號","121.45883","25.0150183333333","6500100","板橋區"
"220080","200-UY","2018/03/15 18:49:38","新北市板橋區大觀路二段265巷60弄20號","121.4418","24.997895","6500100","板橋區"
"220106","KEA-2550","2018/03/15 18:49:24","新北市板橋區民生路二段161巷1號","121.470081666667","25.0200666666667","6500100","板橋區"
"220082","610-BX","2018/03/15 18:49:42","新北市板橋區篤行路二段153號","121.429551666667","24.98799","6500100","板橋區"
"220101","245-BX","2018/03/15 18:49:24","新北市板橋區民生路二段120號","121.470446666667","25.019785","6500100","板橋區"
"220056","276-BY","2018/03/15 18:49:38","新北市板橋區信義路16-7號","121.457006666667","24.9955416666667","6500100","板橋區"
"220072","277-BY","2018/03/15 18:49:36","新北市板橋區大觀路三段36巷30弄3號","121.4342","24.9966233333333","6500100","板橋區"
"220064","282-UM","2018/03/15 18:49:26","新北市板橋區民生路二段36-1號","121.472173333333","25.0167733333333","6500100","板橋區"
"220094","283-UM","2018/03/15 18:49:24","新北市板橋區民生路二段120號","121.470998333333","25.019945","6500100","板橋區"
"220071","283-VK","2018/03/15 18:49:23","新北市板橋區忠孝路176巷5弄1號","121.464753333333","25.0021333333333","6500100","板橋區"
"220053","285-VK","2018/03/15 18:49:36","新北市板橋區民生路二段121號","121.470771666667","25.0184883333333","6500100","板橋區"
"220083","286-VK","2018/03/15 18:49:23","新北市板橋區僑中二街156號","121.444856666667","25.0042133333333","6500100","板橋區"
"220081","287-VK","2018/03/15 18:49:35","新北市板橋區南雅西路二段131號","121.452365","25.0112883333333","6500100","板橋區"
"220090","288-VK","2018/03/15 18:49:38","新北市板橋區民生路二段120號","121.4707","25.019495","6500100","板橋區"
"220061","293-UM","2018/03/15 18:49:29","新北市板橋區太和街4巷9號","121.474168333333","25.0199466666667","6500100","板橋區"
"220062","295-UM","2018/03/15 18:49:37","新北市板橋區中山路二段31號","121.472765","25.0153783333333","6500100","板橋區"
"220084","296-UM","2018/03/15 18:49:28","新北市板橋區大觀路二段150巷24號","121.441703333333","24.9996283333333","6500100","板橋區"
"220075","303-R5","2018/03/15 18:49:39","新北市板橋區南雅東路100巷2號","121.454046666667","25.00753","6500100","板橋區"
"220092","307-R5","2018/03/15 18:49:35","新北市板橋區民生路二段120號","121.47099","25.0197433333333","6500100","板橋區"
"220098","317-R6","2018/03/15 18:49:34","新北市板橋區民生路二段161巷3號","121.470036666667","25.0196966666667","6500100","板橋區"
"220035","560-BX","2018/03/15 18:49:31","新北市板橋區中正路325巷5弄9號","121.453733333333","25.0189183333333","6500100","板橋區"
"220103","561-BX","2018/03/15 18:49:27","新北市板橋區民生路二段161巷1號","121.470273333333","25.0200016666667","6500100","板橋區"
"220063","609-BX","2018/03/15 18:49:31","新北市板橋區介壽街115號","121.47038","25.01857","6500100","板橋區"
"220091","637-BX","2018/03/15 18:49:25","新北市板橋區民生路二段120號","121.470445","25.0201133333333","6500100","板橋區"
"220057","686-BX","2018/03/15 18:49:41","新北市板橋區南雅南路二段144巷60號","121.450278333333","24.9974166666667","6500100","板橋區"
"220077","687-BX","2018/03/15 18:49:20","新北市板橋區龍興街103巷1號","121.444506666667","25.0032883333333","6500100","板橋區"
"220054","741-BX","2018/03/15 18:49:31","新北市板橋區館前西路44號","121.458531666667","25.00701","6500100","板橋區"
"220102","KEA-2699","2018/03/15 18:49:22","新北市板橋區民生路二段180號","121.470765","25.020155","6500100","板橋區"
"220055","827-TW","2018/03/15 18:49:31","新北市板橋區縣民大道一段322號","121.461701666667","25.011075","6500100","板橋區"
"220067","830-TW","2018/03/15 18:49:24","新北市板橋區三民路二段正隆巷42號","121.477041666667","25.0138783333333","6500100","板橋區"
"220074","895-R6","2018/03/15 18:49:30","新北市板橋區南門街14號","121.45725","25.00887","6500100","板橋區"
"220073","985-R7","2018/03/15 18:49:25","新北市板橋區林園街54號","121.453923333333","25.0105883333333","6500100","板橋區"
"220070","AAC-253","2018/03/15 18:49:32","新北市板橋區四川路一段131號","121.459908333333","25.0046166666667","6500100","板橋區"
