"lineid","car","time","location","longitude","latitude","cityid","cityname"
"234046","148-BY","2018/03/15 19:19:02","新北市永和區得和路375號","121.524716666667","24.9996133333333","6500400","永和區"
"234007","207-UY","2018/03/15 19:19:04","新北市永和區中山路一段322-1號","121.506566666667","25.006785","6500400","永和區"
"234081","298-R6","2018/03/15 19:18:54","新北市永和區福和路7巷7-2號","121.525421666667","25.0075533333333","6500400","永和區"
"234038","336-UY","2018/03/15 19:19:09","新北市永和區民樂街70號","121.527355","24.99841","6500400","永和區"
"234064","337-UY","2018/03/15 19:19:00","新北市永和區永元路17巷6弄2號","121.521391666667","25.000705","6500400","永和區"
"234086","338-UY","2018/03/15 19:18:55","新北市永和區永利路88號","121.520703333333","25.0039333333333","6500400","永和區"
"234070","552-UM","2018/03/15 19:19:10","新北市永和區豫溪街72-1號","121.517168333333","25.0098383333333","6500400","永和區"
"234017","745-BX","2018/03/15 19:18:53","新北市永和區文化路144巷31弄10號","121.512363333333","25.0168016666667","6500400","永和區"
"234030","746-BX","2018/03/15 19:18:58","新北市永和區厚德街91號","121.523901666667","24.9988083333333","6500400","永和區"
"234054","KEA-2590","2018/03/15 19:18:58","新北市永和區中興街50號","121.516666666667","25.011645","6500400","永和區"
"234013","KEA-2591","2018/03/15 19:17:18","新北市永和區仁愛路104巷2號","121.512111666667","25.01329","6500400","永和區"
"234061","AAD-866","2018/03/15 19:18:53","新北市永和區秀朗路一段175號","121.517036666667","25.0036833333333","6500400","永和區"
"234042","862-TW","2018/03/15 19:19:00","新北市永和區保平路151巷17號","121.510573333333","25.0051216666667","6500400","永和區"
"234050","863-TW","2018/03/15 19:19:02","新北市永和區保福路二段88巷25號","121.511703333333","25.0137633333333","6500400","永和區"
"234026","9371-KE","2018/03/15 19:19:06","新北市永和區安樂路144巷6號","121.514601666667","25.00005","6500400","永和區"
"234011","9373-KE","2018/03/15 19:19:09","新北市永和區保福路二段23巷15號","121.510341666667","25.01122","6500400","永和區"
"249005","172-UM","2018/03/15 19:19:03","新北市八里區中華路三段90號","121.393265","25.13916","6502300","八里區"
"249001","173-UM","2018/03/15 19:18:57","新北市八里區中山路一段217巷38號","121.411311666667","25.1560116666667","6502300","八里區"
"249003","593-UM","2018/03/15 19:19:09","新北市八里區中山路二段448號","121.39944","25.1474083333333","6502300","八里區"
"248020","225-UY","2018/03/15 18:58:42","新北市五股區凌雲路三段57號","121.425318333333","25.1250366666667","6501500","五股區"
"248012","247-BX","2018/03/15 19:18:54","新北市五股區中興路四段48巷16號","121.438626666667","25.0834866666667","6501500","五股區"
"248004","677-BX","2018/03/15 19:19:07","新北市五股區五福路119號","121.432063333333","25.0912483333333","6501500","五股區"
"248002","678-BX","2018/03/15 19:19:05","新北市五股區凌雲路一段158巷14-1號","121.447795","25.1034883333333","6501500","五股區"
"234023","9380-KE","2018/03/15 19:18:58","新北市永和區竹林路101號","121.519815","25.01195","6500400","永和區"
"234077","969-R7","2018/03/15 19:18:56","新北市永和區民治街72巷12號","121.518086666667","24.9985633333333","6500400","永和區"
"234074","AAC-211","2018/03/15 19:18:54","新北市永和區竹林路83號","121.519543333333","25.01234","6500400","永和區"
"234067","AAC-212","2018/03/15 19:19:09","新北市永和區保平路30巷3號","121.511725","25.007545","6500400","永和區"
"234003","AAC-295","2018/03/15 19:19:08","新北市永和區永平路186-1號","121.510476666667","25.009225","6500400","永和區"
"244013","069-UM","2018/03/15 19:19:10","新北市林口區麗園一街2巷1號","121.375565","25.07183","6501700","林口區"
"244019","402-UM","2018/03/15 19:18:52","新北市林口區麗園二街1巷9-1號","121.378891666667","25.0700966666667","6501700","林口區"
"244023","483-VK","2018/03/15 19:19:06","新北市林口區仁愛路二段522-1號","121.373173333333","25.0779766666667","6501700","林口區"
"244011","701-TV","2018/03/15 19:19:08","新北市林口區中正路266號","121.389471666667","25.0778166666667","6501700","林口區"
"243012","AAD-798","2018/03/15 19:19:06","新北市泰山區仁愛路100巷31號","121.433601666667","25.054945","6501600","泰山區"
"243011","297-R6","2018/03/15 19:19:07","新北市泰山區中央路11巷10號","121.426526666667","25.0425466666667","6501600","泰山區"
"243014","421-VK","2018/03/15 19:19:11","新北市泰山區泰林路二段93巷1號","121.434801666667","25.0587716666667","6501600","泰山區"
"243015","539-UM","2018/03/15 19:18:45","新北市泰山區公園路54號","121.428228333333","25.0547666666667","6501600","泰山區"
"243010","KEA-2215","2018/03/15 19:19:00","新北市泰山區明志路一段519號","121.430421666667","25.0540916666667","6501600","泰山區"
"243009","KEA-2216","2018/03/15 19:18:57","新北市泰山區和平街13巷18號","121.434463333333","25.0650783333333","6501600","泰山區"
"243013","646-TV","2018/03/15 19:19:03","新北市泰山區明志路三段145巷11弄2號","121.425823333333","25.039745","6501600","泰山區"
"243016","680-BX","2018/03/15 19:19:04","新北市泰山區工專路18號","121.423763333333","25.0396466666667","6501600","泰山區"
"222003","436-BY","2018/03/15 19:19:10","新北市深坑區深南路204號","121.626581666667","25.0160216666667","6501800","深坑區"
"222002","659-BX","2018/03/15 19:18:52","新北市深坑區北深路一段210號","121.63312","25.0110933333333","6501800","深坑區"
"231041","002-UM","2018/03/15 19:18:58","新北市新店區溪園路245-6號","121.525456666667","24.983335","6500600","新店區"
"231059","046-UY","2018/03/15 19:19:02","新北市新店區安和路二段251號","121.516663333333","24.97768","6500600","新店區"
"231061","047-UY","2018/03/15 19:19:01","新北市新店區安康路一段228號","121.523195","24.96372","6500600","新店區"
"231060","106-UY","2018/03/15 19:18:53","新北市新店區安康路二段130-1號","121.512603333333","24.9622383333333","6500600","新店區"
"231051","107-UY","2018/03/15 19:19:06","新北市新店區中央路116號","121.531083333333","24.9751","6500600","新店區"
"231047","108-UY","2018/03/15 19:19:07","新北市新店區中興路二段81號","121.546853333333","24.9711366666667","6500600","新店區"
"231052","187-VK","2018/03/15 19:18:51","新北市新店區自強路251號","121.548145","24.9196083333333","6500600","新店區"
"231050","KEA-2219","2018/03/15 19:18:59","新北市新店區竹林路30巷1號","121.552275","24.9512883333333","6500600","新店區"
"221015","KEA-2785","2018/03/15 19:19:09","新北市汐止區康寧街901號","121.651646666667","25.0749083333333","6501100","汐止區"
"231046","278-BY","2018/03/15 19:19:06","新北市新店區華城路36巷1-1號","121.528481666667","24.95527","6500600","新店區"
"231054","AAD-862","2018/03/15 19:19:02","新北市新店區國校路59號","121.538215","24.954285","6500600","新店區"
"231058","3712-VJ","2018/03/15 19:18:38","新北市新店區檳榔路22巷12號","121.54062","24.9639883333333","6500600","新店區"
"231065","512-UM","2018/03/15 19:19:00","新北市新店區安祥路108巷53號","121.474351666667","24.95706","6500600","新店區"
"231049","513-UM","2018/03/15 19:18:54","新北市新店區明德路111號","121.54154","24.9794683333333","6500600","新店區"
"231064","515-UM","2018/03/15 19:19:04","新北市新店區安忠路57巷1-5號","121.513461666667","24.9594716666667","6500600","新店區"
"231040","619-UM","2018/03/15 19:19:06","新北市新店區中華路125號","121.53866","24.9696433333333","6500600","新店區"
"231042","641-BX","2018/03/15 19:18:58","新北市新店區北宜路一段9號","121.538361666667","24.958025","6500600","新店區"
"231063","645-TV","2018/03/15 19:18:52","新北市新店區達觀路14巷5號","121.503641666667","24.9427016666667","6500600","新店區"
"231062","720-UM","2018/03/15 19:19:01","新北市新店區莒光路97-1號","121.52251","24.9538216666667","6500600","新店區"
"231044","897-TW","2018/03/15 19:19:02","新北市新店區中興路三段293號","121.542298333333","24.984985","6500600","新店區"
"231045","898-TW","2018/03/15 19:19:09","新北市新店區北宜路一段316號","121.547453333333","24.9520483333333","6500600","新店區"
"231043","899-TW","2018/03/15 19:18:56","新北市新店區北新路二段131號","121.54294","24.9753083333333","6500600","新店區"
"231066","AKT-0513","2018/03/15 19:19:06","新北市新店區安康路三段207巷19號","121.488493333333","24.9508283333333","6500600","新店區"
"241011","013-R5","2018/03/15 19:19:08","新北市三重區龍濱路285號","121.501008333333","25.0734133333333","6500200","三重區"
"241009","060-VK","2018/03/15 19:18:59","新北市三重區仁美街115號","121.485733333333","25.0810666666667","6500200","三重區"
"241031","061-VK","2018/03/15 19:18:58","新北市三重區重新路四段254號","121.485678333333","25.0533433333333","6500200","三重區"
"241017","063-VK","2018/03/15 19:19:10","新北市三重區大同北路193號","121.492345","25.0656466666667","6500200","三重區"
"241026","066-VK","2018/03/15 19:18:56","新北市三重區同安街12號","121.496448333333","25.0568883333333","6500200","三重區"
"241022","267-UM","2018/03/15 19:19:02","新北市三重區中正北路60號","121.486861666667","25.0643783333333","6500200","三重區"
"241032","269-UM","2018/03/15 19:19:03","新北市三重區新生街96號","121.483375","25.0593433333333","6500200","三重區"
"241025","271-UM","2018/03/15 19:18:57","新北市三重區中正北路406號","121.475335","25.0704116666667","6500200","三重區"
"241007","398-BY","2018/03/15 19:19:01","新北市三重區慈愛街46號","121.485701666667","25.07906","6500200","三重區"
"241035","KEA-2210","2018/03/15 19:18:59","新北市三重區新北大道一段6號","121.488978333333","25.061485","6500200","三重區"
"241020","413-TH","2018/03/15 19:18:56","新北市三重區大智街181號","121.48966","25.072785","6500200","三重區"
"241030","480-VK","2018/03/15 19:19:00","新北市三重區新興路40號","121.49155","25.0534483333333","6500200","三重區"
"241006","AAD-863","2018/03/15 19:19:06","新北市三重區車路頭街149-2號","121.483755","25.0769033333333","6500200","三重區"
"241029","942-UM","2018/03/15 19:19:04","新北市三重區重安街23號","121.490808333333","25.0572116666667","6500200","三重區"
"235066","003-UY","2018/03/15 19:19:09","新北市中和區景新街2號","121.502625","24.9996933333333","6500300","中和區"
"235064","005-UY","2018/03/15 19:19:04","新北市中和區連城路2號","121.499206666667","25.002455","6500300","中和區"
"235063","006-UY","2018/03/15 19:19:11","新北市中和區連城路249巷10弄1號","121.493818333333","24.9964316666667","6500300","中和區"
"235056","096-UM","2018/03/15 19:18:53","新北市中和區中山路二段636號","121.481041666667","25.0055966666667","6500300","中和區"
"235039","097-UM","2018/03/15 19:18:55","新北市中和區景平路64巷12號","121.522285","24.9912916666667","6500300","中和區"
"235065","098-UM","2018/03/15 19:19:09","新北市中和區中山路二段2巷3弄17號","121.504235","25.0056166666667","6500300","中和區"
"235040","150-BY","2018/03/15 19:19:06","新北市中和區宜安路54號","121.51188","24.9967566666667","6500300","中和區"
"235058","151-BY","2018/03/15 19:19:07","新北市中和區連城路525號","121.481683333333","24.9949733333333","6500300","中和區"
"235055","183-VK","2018/03/15 19:19:00","新北市中和區德光路19號","121.471068333333","25.0042533333333","6500300","中和區"
"235038","185-VK","2018/03/15 19:19:06","新北市中和區大智街23巷2弄3號","121.520026666667","24.9924016666667","6500300","中和區"
"235049","186-VK","2018/03/15 19:18:53","新北市中和區景新街239號","121.508158333333","24.99447","6500300","中和區"
"235067","255-BX","2018/03/15 19:18:06","新北市中和區新生街148巷11號","121.482861666667","25.0006883333333","6500300","中和區"
"235044","293-VK","2018/03/15 19:18:56","新北市中和區復興路310號","121.501116666667","24.9903016666667","6500300","中和區"
"235072","301-VK","2018/03/15 19:18:56","新北市中和區連城路263巷4弄4號","121.491588333333","24.995815","6500300","中和區"
"235043","352-BY","2018/03/15 19:19:04","新北市中和區景平路404號","121.509108333333","24.993165","6500300","中和區"
"235068","377-QA","2018/03/15 19:19:07","新北市中和區連城路89巷66號","121.497723333333","24.9982116666667","6500300","中和區"
"235061","378-QA","2018/03/15 19:18:51","新北市中和區員山路238號","121.481405","25.00128","6500300","中和區"
"235071","269-TV","2018/03/15 19:19:04","新北市中和區中正路637巷8-4號","121.484791666667","24.9954716666667","6500300","中和區"
"235050","4979-A6","2018/03/15 19:18:53","新北市中和區復興路280巷36弄10號","121.501666666667","24.9922483333333","6500300","中和區"
"235069","4980-A6","2018/03/15 19:19:10","新北市中和區中山路二段181巷5號","121.501218333333","25.0021366666667","6500300","中和區"
"235042","551-UM","2018/03/15 19:19:02","新北市永和區民有街20號","121.516638333333","24.9966","6500300","中和區"
"235070","558-UM","2018/03/15 19:19:03","新北市中和區連城路59號","121.497816666667","25.001435","6500300","中和區"
"235045","565-BX","2018/03/15 19:18:57","新北市中和區景新街437巷8號","121.51386","24.9892083333333","6500300","中和區"
"235054","640-BX","2018/03/15 19:19:07","新北市中和區國光街107巷2弄28號","121.469516666667","24.9993566666667","6500300","中和區"
"235060","647-TV","2018/03/15 19:19:05","新北市中和區民有街11號","121.475673333333","25.00551","6500300","中和區"
"235047","732-UM","2018/03/15 19:18:41","新北市中和區和平街54巷1弄2號","121.508693333333","24.99112","6500300","中和區"
"235046","733-UM","2018/03/15 19:19:07","新北市中和區忠孝街2巷12-2號","121.510686666667","24.9816183333333","6500300","中和區"
"235057","801-TS","2018/03/15 19:18:55","新北市中和區員山路325-3號","121.481241666667","25.00084","6500300","中和區"
"235041","802-TS","2018/03/15 19:18:57","新北市中和區景安路9號","121.50805","24.9990416666667","6500300","中和區"
"235052","805-TS","2018/03/15 19:18:47","新北市中和區興南路二段159巷1號","121.505215","24.9833166666667","6500300","中和區"
"235048","896-TW","2018/03/15 19:19:08","新北市中和區忠孝街108-1號","121.512166666667","24.9847333333333","6500300","中和區"
"235053","911-UM","2018/03/15 19:19:07","新北市中和區華安街19巷19號","121.467478333333","24.9979766666667","6500300","中和區"
"235051","157-BY","2018/03/15 19:19:01","新北市中和區和平街26號","121.509816666667","24.990225","6500300","中和區"
"235037","AAC-213","2018/03/15 19:18:57","新北市中和區秀朗路三段10巷37弄4號","121.524026666667","24.99585","6500300","中和區"
"235059","AAC-215","2018/03/15 19:19:09","新北市中和區錦和路195巷1弄2號","121.491041666667","24.9908933333333","6500300","中和區"
"220068","013-TV","2018/03/15 19:18:58","新北市板橋區翠華街6巷53號","121.48139","25.0246283333333","6500100","板橋區"
"220065","072-UY","2018/03/15 19:19:03","新北市板橋區民族路129巷10號","121.467605","25.0084566666667","6500100","板橋區"
"220086","073-UY","2018/03/15 19:18:59","新北市板橋區中正路216巷58號","121.457556666667","25.018865","6500100","板橋區"
"220069","AAD-861","2018/03/15 19:18:56","新北市板橋區華興街52號","121.458136666667","25.0047366666667","6500100","板橋區"
"226004","205-ST","2018/03/15 19:19:03","新北市平溪區十分里十分街114號","121.77684","25.0430516666667","6502400","平溪區"
"228003","097-TW","2018/03/15 19:19:00","新北市貢寮區和美里和美街22-1號","121.912763333333","25.082635","6502600","貢寮區"
"228001","212-TW","2018/03/15 19:18:50","新北市貢寮區真理里新港街10號","121.925486666667","25.05438","6502600","貢寮區"
"228002","585-TW","2018/03/15 19:18:55","新北市貢寮區雙玉里田寮洋街22號","121.928698333333","25.0219666666667","6502600","貢寮區"
"224010","AGQ-8101","2018/03/15 19:17:18","新北市瑞芳區基山街147號","121.844041666667","25.10811","6501200","瑞芳區"
"224006","676-BX","2018/03/15 19:19:02","新北市瑞芳區中山路238號","121.80006","25.1071083333333","6501200","瑞芳區"
"224008","285-BY","2018/03/15 19:18:59","新北市瑞芳區一坑路71號","121.802808333333","25.108255","6501200","瑞芳區"
"224007","275-VK","2018/03/15 19:19:10","新北市瑞芳區中山路251號","121.797578333333","25.1096933333333","6501200","瑞芳區"
"224009","273-VK","2018/03/15 19:19:14","新北市瑞芳區洞頂路180號","121.861558333333","25.1194266666667","6501200","瑞芳區"
"227010","642-TC","2018/03/15 19:19:01","新北市雙溪區新基里新基北街40號","121.86854","25.0380283333333","6502500","雙溪區"
"227004","400-TW","2018/03/15 19:18:59","新北市雙溪區平林里梅竹蹊66-1號","121.860156666667","25.0358383333333","6502500","雙溪區"
"253005","032-BX","2018/03/15 19:18:54","新北市石門區阿里荖6-1號","121.60977","25.27996","6502200","石門區"
"253006","295-VK","2018/03/15 19:19:11","新北市石門區楓林23-19號","121.537508333333","25.2906016666667","6502200","石門區"
"222001","KEA-2212","2018/03/15 19:19:11","新北市深坑區北深路二段87號","121.618013333333","25.0035283333333","6501800","深坑區"
"208002","KEA-2872","2018/03/15 19:18:54","新北市金山區中正路73號","121.633851666667","25.2217483333333","6502700","金山區"
"208003","665-BX","2018/03/15 19:19:10","新北市金山區中山路110號","121.6396","25.2194783333333","6502700","金山區"
"208001","761-BX","2018/03/15 19:19:05","新北市金山區慈護街14號","121.639648333333","25.2203166666667","6502700","金山區"
"251009","008-UM","2018/03/15 19:18:58","新北市淡水區中山路185號","121.441303333333","25.1741716666667","6501000","淡水區"
"251005","010-UM","2018/03/15 19:18:50","新北市淡水區水源街一段31號","121.443251666667","25.1725616666667","6501000","淡水區"
"251001","011-UM","2018/03/15 19:19:02","新北市淡水區自強路201巷43號","121.462065","25.1268783333333","6501000","淡水區"
"251013","179-VK","2018/03/15 19:18:58","新北市淡水區安子內12號","121.48155","25.2191166666667","6501000","淡水區"
"251014","180-VK","2018/03/15 19:18:52","新北市淡水區小中寮19-7號","121.484778333333","25.229655","6501000","淡水區"
"251015","182-VK","2018/03/15 19:18:56","新北市淡水區南勢埔32巷2號","121.484401666667","25.1803416666667","6501000","淡水區"
"251010","413-VK","2018/03/15 19:19:07","新北市淡水區沙崙路27號","121.421463333333","25.18154","6501000","淡水區"
"251016","442-VK","2018/03/15 19:18:56","新北市淡水區下圭柔山119-51號","121.450695","25.2084066666667","6501000","淡水區"
"251006","561-UM","2018/03/15 19:19:09","新北市淡水區中山北路二段167號","121.44432","25.1844333333333","6501000","淡水區"
"251007","577-R6","2018/03/15 19:19:11","新北市淡水區民生路117巷13號","121.464871666667","25.1392","6501000","淡水區"
"251003","766-UM","2018/03/15 19:19:00","新北市淡水區中山路159-1號","121.440766666667","25.1729066666667","6501000","淡水區"
"207003","550-UM","2018/03/15 19:18:59","新北市萬里區大鵬里萬里加投79號","121.6472","25.2122633333333","6502800","萬里區"
"207004","225-TW","2018/03/15 19:19:05","新北市萬里區萬里里成功新村44號","121.687681666667","25.1746433333333","6502800","萬里區"
"252002","178-VK","2018/03/15 19:18:56","新北市三芝區埔坪里埔頭坑88-7號","121.506785","25.2549233333333","6502100","三芝區"
"252001","292-VK","2018/03/15 19:19:10","新北市三芝區長勤街9巷11弄1號","121.501775","25.25472","6502100","三芝區"
"237004","KEA-2597","2018/03/15 19:19:11","新北市三峽區有木206號","121.439106666667","24.8515516666667","6500900","三峽區"
"237007","153-BY","2018/03/15 19:19:01","新北市三峽區二鬮路71號","121.359726666667","24.907215","6500900","三峽區"
"237009","210-TH","2018/03/15 19:19:06","新北市三峽區和平街31號","121.3704","24.935315","6500900","三峽區"
"237013","252-BX","2018/03/15 19:19:06","新北市三峽區光明路75巷21號","121.377365","24.9281266666667","6500900","三峽區"
"237012","275-BY","2018/03/15 19:19:08","新北市三峽區三樹路222巷236弄23號","121.39139","24.9430733333333","6500900","三峽區"
"237008","302-VK","2018/03/15 19:18:54","新北市三峽區大同路88巷5弄7號","121.374865","24.92732","6500900","三峽區"
"237014","433-BY","2018/03/15 19:19:10","新北市三峽區中山路277巷2號","121.361781666667","24.9372283333333","6500900","三峽區"
"237006","5529-G3","2018/03/15 19:18:58","新北市三峽區安溪路353號","121.370055","24.9260033333333","6500900","三峽區"
"237011","KEA-2596","2018/03/15 19:19:07","新北市三峽區中正路一段392號","121.370951666667","24.923405","6500900","三峽區"
"237016","649-BX","2018/03/15 19:14:10","新北市三峽區安坑34-10號","121.450943333333","24.9297","6500900","三峽區"
"237010","706-TV","2018/03/15 19:19:11","新北市三峽區復興路59號","121.373138333333","24.9371816666667","6500900","三峽區"
"237005","AKY-6261","2018/03/15 19:19:04","新北市三峽區中山路459巷24號","121.357515","24.9389616666667","6500900","三峽區"
"236071","105-UM","2018/03/15 19:18:56","新北市土城區中央路一段67-3號","121.447713333333","24.98968","6501300","土城區"
"236078","166-UM","2018/03/15 19:18:57","新北市土城區龍泉路23-3號","121.411938333333","24.9461533333333","6501300","土城區"
"236026","269-VK","2018/03/15 19:19:09","新北市土城區員林街55號","121.443506666667","24.9777133333333","6501300","土城區"
"236014","270-VK","2018/03/15 19:19:00","新北市土城區學府路一段31號","121.458071666667","24.9884466666667","6501300","土城區"
"236021","401-BY","2018/03/15 19:18:55","新北市土城區峰廷街3號","121.469063333333","24.987395","6501300","土城區"
"236058","912-UM","2018/03/15 19:18:53","新北市土城區中央路三段38號","121.438523333333","24.96868","6501300","土城區"
"236051","913-UM","2018/03/15 19:19:03","新北市土城區明德路一段398-1號","121.453636666667","24.97911","6501300","土城區"
"238015","755-BX","2018/03/15 19:18:48","新北市樹林區備內街19號","121.412678333333","24.9870266666667","6500700","樹林區"
"238023","601-UM","2018/03/15 19:19:07","新北市樹林區三興路66號","121.393703333333","25.0146366666667","6500700","樹林區"
"238019","599-UM","2018/03/15 19:19:00","新北市樹林區鎮前街367巷3號","121.41632","24.98354","6500700","樹林區"
"238018","571-TV","2018/03/15 19:18:58","新北市樹林區中華路211號","121.419691666667","24.98141","6500700","樹林區"
"238021","KEA-2539","2018/03/15 19:19:01","新北市樹林區柑園街二段441號","121.36368","24.9464166666667","6500700","樹林區"
"238025","303-VK","2018/03/15 19:19:04","新北市樹林區中山路二段121-1號","121.408266666667","24.9798733333333","6500700","樹林區"
"238017","283-BY","2018/03/15 19:18:55","新北市樹林區保安街二段163號","121.415266666667","25.0028466666667","6500700","樹林區"
"238014","282-BY","2018/03/15 19:19:01","新北市樹林區中正路22-1號","121.4278","24.99947","6500700","樹林區"
"238020","268-VK","2018/03/15 19:03:23","新北市樹林區俊英街155巷9弄2號","121.423913333333","25.012025","6500700","樹林區"
"238026","172-UY","2018/03/15 19:19:07","新北市樹林區佳園路三段95號","121.38759","24.9523483333333","6500700","樹林區"
"238016","169-UY","2018/03/15 19:18:56","新北市樹林區復興路497巷26號","121.414438333333","24.984115","6500700","樹林區"
"239006","891-R6","2018/03/15 19:19:07","新北市鶯歌區鶯桃路159號","121.337373333333","24.9551366666667","6500800","鶯歌區"
"239008","527-UM","2018/03/15 19:18:59","新北市鶯歌區大湖路468巷7弄19號","121.338201666667","24.9721616666667","6500800","鶯歌區"
"239005","526-UM","2018/03/15 19:19:09","新北市鶯歌區東湖路19-1號","121.357718333333","24.9733666666667","6500800","鶯歌區"
"239001","417-VK","2018/03/15 19:19:01","新北市鶯歌區鶯桃路97-3號","121.339023333333","24.9540083333333","6500800","鶯歌區"
"239003","360-BY","2018/03/15 19:18:57","新北市鶯歌區尖山路174巷42-1號","121.344143333333","24.9492316666667","6500800","鶯歌區"
"239004","193-VK","2018/03/15 19:19:10","新北市鶯歌區二橋新村32號","121.329231666667","24.9344866666667","6500800","鶯歌區"
"221008","489-VK","2018/03/15 19:18:58","新北市汐止區康寧街302-1號","121.626223333333","25.06708","6501100","汐止區"
"221036","130-UY","2018/03/15 19:18:59","新北市汐止區汐萬路一段256巷1號","121.651771666667","25.0748566666667","6501100","汐止區"
"221010","269-BY","2018/03/15 19:19:07","新北市汐止區康寧街901號","121.651426666667","25.0750733333333","6501100","汐止區"
"221012","278-VK","2018/03/15 19:18:52","新北市汐止區汐萬路一段312號","121.650393333333","25.07513","6501100","汐止區"
"221023","279-VK","2018/03/15 19:18:59","新北市汐止區康寧街901號","121.651011666667","25.0751983333333","6501100","汐止區"
"221027","281-BY","2018/03/15 19:19:02","新北市汐止區康寧街901號","121.651333333333","25.0750216666667","6501100","汐止區"
"221033","297-VK","2018/03/15 19:18:52","新北市汐止區南勢街1巷1號","121.627055","25.0374716666667","6501100","汐止區"
"221029","298-VK","2018/03/15 19:19:03","新北市汐止區康寧街901號","121.651515","25.0749533333333","6501100","汐止區"
"221031","353-TW","2018/03/15 19:19:01","新北市汐止區汐萬路一段256巷3號","121.653395","25.0745816666667","6501100","汐止區"
"221025","623-UM","2018/03/15 19:19:06","新北市汐止區汐萬路一段312號","121.65055","25.0753766666667","6501100","汐止區"
"221038","646-BX","2018/03/15 19:18:56","新北市汐止區汐萬路一段312號","121.650671666667","25.0753183333333","6501100","汐止區"
"221002","707-TV","2018/03/15 19:19:06","新北市汐止區大同路一段335號","121.638563333333","25.0593416666667","6501100","汐止區"
"220079","145-BY","2018/03/15 19:19:04","新北市板橋區民權路202巷15弄2號","121.460675","25.016255","6500100","板橋區"
"220080","200-UY","2018/03/15 19:19:05","新北市板橋區大觀路二段19巷2號","121.447091666667","25.0032216666667","6500100","板橋區"
"220106","KEA-2550","2018/03/15 19:19:04","新北市板橋區雙十路三段19號","121.470923333333","25.03137","6500100","板橋區"
"220082","610-BX","2018/03/15 19:19:01","新北市板橋區溪崑二街134號","121.425978333333","24.9877583333333","6500100","板橋區"
"220101","245-BX","2018/03/15 19:19:04","新北市板橋區莊敬路36-2號","121.473148333333","25.0271883333333","6500100","板橋區"
"220056","276-BY","2018/03/15 19:18:58","新北市板橋區信義路115號","121.457755","24.9934733333333","6500100","板橋區"
"220072","277-BY","2018/03/15 19:18:56","新北市板橋區金門街337巷9弄1號","121.43042","24.9847","6500100","板橋區"
"220064","282-UM","2018/03/15 19:19:06","新北市板橋區縣民大道二段82號","121.465865","25.0148833333333","6500100","板橋區"
"220094","283-UM","2018/03/15 19:19:04","新北市板橋區吳鳳路21巷2號","121.466961666667","25.03121","6500100","板橋區"
"220071","283-VK","2018/03/15 19:18:45","新北市板橋區重慶路232號","121.462798333333","25.0015183333333","6500100","板橋區"
"220053","285-VK","2018/03/15 19:18:57","新北市板橋區富山街7巷2號","121.47842","25.0217916666667","6500100","板橋區"
"220083","286-VK","2018/03/15 19:19:04","新北市板橋區大觀路二段174巷186弄8號","121.442631666667","25.0035216666667","6500100","板橋區"
"220081","287-VK","2018/03/15 19:18:55","新北市板橋區南雅西路二段2-1號","121.453193333333","25.00876","6500100","板橋區"
"220090","288-VK","2018/03/15 19:18:58","新北市板橋區長江路一段106巷13弄28號","121.461126666667","25.0295883333333","6500100","板橋區"
"220061","293-UM","2018/03/15 19:19:09","新北市板橋區中山路二段318巷20弄37號","121.481108333333","25.01891","6500100","板橋區"
"220062","295-UM","2018/03/15 19:18:57","新北市板橋區三民路二段153巷36弄2號","121.481145","25.014165","6500100","板橋區"
"220084","296-UM","2018/03/15 19:19:08","新北市板橋區滿平街110巷20號","121.427783333333","24.98806","6500100","板橋區"
"220075","303-R5","2018/03/15 19:18:59","新北市板橋區中正路275巷93號","121.451583333333","25.0183766666667","6500100","板橋區"
"220092","307-R5","2018/03/15 19:19:00","新北市板橋區松江街53號","121.468585","25.027555","6500100","板橋區"
"220098","317-R6","2018/03/15 19:18:53","新北市板橋區民有街92號","121.464876666667","25.0275816666667","6500100","板橋區"
"220089","487-VK","2018/03/15 19:19:00","新北市板橋區文化路一段479巷42號","121.467968333333","25.0231116666667","6500100","板橋區"
"220088","491-VK","2018/03/15 19:18:57","新北市板橋區雙十路一段9號","121.478011666667","25.024075","6500100","板橋區"
"220035","560-BX","2018/03/15 19:18:51","新北市板橋區中正路332-11號","121.454326666667","25.0230733333333","6500100","板橋區"
"220103","561-BX","2018/03/15 19:19:08","新北市板橋區介壽街20號","121.467665","25.0201166666667","6500100","板橋區"
"220063","609-BX","2018/03/15 19:18:51","新北市板橋區三民路二段76號","121.479288333333","25.0169966666667","6500100","板橋區"
"220091","637-BX","2018/03/15 19:19:04","新北市板橋區萬板路478號","121.479963333333","25.0260316666667","6500100","板橋區"
"220057","686-BX","2018/03/15 19:19:01","新北市板橋區和平路161巷26-3號","121.463488333333","24.9968066666667","6500100","板橋區"
"220077","687-BX","2018/03/15 19:19:03","新北市板橋區僑中二街10巷1號","121.446878333333","25.010925","6500100","板橋區"
"220093","689-BX","2018/03/15 19:19:11","新北市板橋區文化路一段351號","121.466756666667","25.0209766666667","6500100","板橋區"
"220054","741-BX","2018/03/15 19:18:51","新北市板橋區後埔街46號","121.460448333333","25.00604","6500100","板橋區"
"220102","KEA-2699","2018/03/15 19:19:02","新北市板橋區文聖街207-1號","121.479945","25.0263566666667","6500100","板橋區"
"220055","827-TW","2018/03/15 19:19:10","新北市板橋區館前東路156巷48號","121.464606666667","25.0067","6500100","板橋區"
"220067","830-TW","2018/03/15 19:19:04","新北市板橋區長安街138巷1弄39號","121.473925","25.0102766666667","6500100","板橋區"
"220096","831-TW","2018/03/15 19:19:07","新北市板橋區大同街26巷4號","121.478005","25.0271566666667","6500100","板橋區"
"220074","895-R6","2018/03/15 19:19:03","新北市板橋區中正路自強新村91-1號","121.454931666667","25.0131933333333","6500100","板橋區"
"220073","985-R7","2018/03/15 19:19:05","新北市板橋區新生街60號","121.457111666667","25.02098","6500100","板橋區"
"220097","AAC-210","2018/03/15 19:19:05","新北市板橋區漢生西路89巷5弄6號","121.461178333333","25.0192566666667","6500100","板橋區"
"220070","AAC-253","2018/03/15 19:19:07","新北市板橋區忠孝路28號","121.4603","25.0018266666667","6500100","板橋區"
