"lineid","car","time","location","longitude","latitude","cityid","cityname"
"234046","148-BY","2018/03/15 19:49:01","新北市永和區永利路141號","121.524143333333","25.0035033333333","6500400","永和區"
"234007","207-UY","2018/03/15 19:49:01","新北市中和區中和路234號","121.506808333333","24.9995316666667","6500400","永和區"
"234081","298-R6","2018/03/15 19:48:53","新北市永和區永亨路106號","121.523533333333","25.0045916666667","6500400","永和區"
"234038","336-UY","2018/03/15 19:49:09","新北市永和區民樂街55巷10號","121.527911666667","24.9985616666667","6500400","永和區"
"234064","337-UY","2018/03/15 19:49:00","新北市永和區中正路368巷8號","121.518078333333","25.00076","6500400","永和區"
"234086","338-UY","2018/03/15 19:48:55","新北市永和區永利路6-1號","121.517656666667","25.005975","6500400","永和區"
"234070","552-UM","2018/03/15 19:48:54","新北市永和區竹林路78號","121.519291666667","25.012805","6500400","永和區"
"234017","745-BX","2018/03/15 19:48:53","新北市永和區永和路二段303號","121.515876666667","25.0163266666667","6500400","永和區"
"234030","746-BX","2018/03/15 19:48:58","新北市永和區民生路67巷52號","121.525386666667","24.99751","6500400","永和區"
"234054","KEA-2590","2018/03/15 19:48:58","新北市永和區竹林路39巷28弄11號","121.519591666667","25.0143883333333","6500400","永和區"
"234013","KEA-2591","2018/03/15 19:49:08","新北市永和區永平路282號","121.507771666667","25.0118916666667","6500400","永和區"
"234061","AAD-866","2018/03/15 19:48:53","新北市永和區民有街1號","121.515906666667","24.997395","6500400","永和區"
"234042","862-TW","2018/03/15 19:48:59","新北市永和區中和路389巷11弄1號","121.508076666667","25.000965","6500400","永和區"
"234050","863-TW","2018/03/15 19:49:02","新北市永和區保安路77號","121.50864","25.0148883333333","6500400","永和區"
"234026","9371-KE","2018/03/15 19:48:46","新北市永和區雙和街23號","121.509163333333","25.0021216666667","6500400","永和區"
"234011","9373-KE","2018/03/15 19:48:49","新北市永和區仁愛路352巷92弄5號","121.501221666667","25.0081266666667","6500400","永和區"
"249001","173-UM","2018/03/15 19:48:54","新北市八里區中華路二段252號","121.40538","25.1496783333333","6502300","八里區"
"249004","303-UY","2018/03/15 19:49:00","新北市八里區仁愛路25號","121.413081666667","25.1606966666667","6502300","八里區"
"249002","305-UY","2018/03/15 19:48:56","新北市八里區頂寮五街17號","121.451536666667","25.1259666666667","6502300","八里區"
"249003","593-UM","2018/03/15 19:48:48","新北市八里區中華路二段558號","121.39868","25.1452833333333","6502300","八里區"
"248016","026-BX","2018/03/15 19:48:59","新北市五股區成泰路三段601巷17-1號","121.451748333333","25.10335","6501500","五股區"
"248008","095-VK","2018/03/15 19:49:01","新北市五股區四維路142巷8號","121.469001666667","25.0751983333333","6501500","五股區"
"248012","247-BX","2018/03/15 19:48:54","新北市五股區蓬萊路24號","121.433888333333","25.079885","6501500","五股區"
"248014","261-SL","2018/03/15 19:48:55","新北市五股區五福路32巷7號","121.434396666667","25.0893533333333","6501500","五股區"
"248004","677-BX","2018/03/15 19:49:07","新北市五股區成泰路一段132號","121.435063333333","25.07541","6501500","五股區"
"248002","678-BX","2018/03/15 19:49:02","新北市五股區成泰路三段635號","121.452655","25.1045516666667","6501500","五股區"
"248010","682-TV","2018/03/15 19:49:02","新北市五股區登林路74-3號","121.431006666667","25.06937","6501500","五股區"
"234077","969-R7","2018/03/15 19:48:56","新北市永和區中正路242巷2弄1號","121.51685","24.9980283333333","6500400","永和區"
"234074","AAC-211","2018/03/15 19:49:04","新北市永和區豫溪街136巷5號","121.521345","25.009985","6500400","永和區"
"234067","AAC-212","2018/03/15 19:48:49","新北市永和區永貞路404號","121.509108333333","25.0076316666667","6500400","永和區"
"234003","AAC-295","2018/03/15 19:48:48","新北市永和區福和路316-2號","121.515951666667","25.00735","6500400","永和區"
"243012","AAD-798","2018/03/15 19:49:05","新北市泰山區全興路18巷1號","121.432185","25.0588933333333","6501600","泰山區"
"243011","297-R6","2018/03/15 19:49:03","新北市泰山區明志路三段182巷11號","121.423548333333","25.039095","6501600","泰山區"
"243014","421-VK","2018/03/15 19:48:54","新北市泰山區泰林路二段33-7號","121.435193333333","25.0564466666667","6501600","泰山區"
"243015","539-UM","2018/03/15 19:49:05","新北市泰山區明志路二段239號","121.42725","25.04817","6501600","泰山區"
"243010","KEA-2215","2018/03/15 19:49:00","新北市泰山區民生路33號","121.430531666667","25.052185","6501600","泰山區"
"243009","KEA-2216","2018/03/15 19:48:57","新北市泰山區美寧街60號","121.430938333333","25.06468","6501600","泰山區"
"243013","646-TV","2018/03/15 19:48:49","新北市泰山區應化街13號","121.423875","25.04368","6501600","泰山區"
"243016","680-BX","2018/03/15 19:49:04","新北市泰山區中山路三段79號","121.418285","25.0320883333333","6501600","泰山區"
"222003","436-BY","2018/03/15 19:48:50","新北市深坑區深南路51-1號","121.621116666667","25.0099366666667","6501800","深坑區"
"222002","659-BX","2018/03/15 19:48:52","新北市深坑區北深路一段185號","121.631568333333","25.010325","6501800","深坑區"
"231041","002-UM","2018/03/15 19:48:59","新北市新店區中央路153號","121.529893333333","24.973065","6500600","新店區"
"231059","046-UY","2018/03/15 19:49:02","新北市新店區安和路二段3-5號","121.517981666667","24.9673683333333","6500600","新店區"
"231061","047-UY","2018/03/15 19:49:01","新北市新店區安民街325號","121.51739","24.9745483333333","6500600","新店區"
"231060","106-UY","2018/03/15 19:48:53","新北市新店區安康路二段163號","121.510063333333","24.9593083333333","6500600","新店區"
"231051","107-UY","2018/03/15 19:49:06","新北市新店區中央三街67號","121.526743333333","24.9750816666667","6500600","新店區"
"231047","108-UY","2018/03/15 19:48:47","新北市新店區寶興路61巷1號","121.550818333333","24.9720516666667","6500600","新店區"
"231052","187-VK","2018/03/15 19:48:51","新北市新店區新烏路三段140號","121.552176666667","24.9029516666667","6500600","新店區"
"231050","KEA-2219","2018/03/15 19:48:59","新北市新店區郵政路1巷6號","121.55739","24.9520633333333","6500600","新店區"
"221015","KEA-2785","2018/03/15 19:48:50","新北市汐止區忠孝東路499號","121.666448333333","25.0747666666667","6501100","汐止區"
"231057","256-BX","2018/03/15 19:48:55","新北市新店區梅崗三路1號","121.55836","24.9312416666667","6500600","新店區"
"231046","278-BY","2018/03/15 19:48:46","新北市新店區三民路159巷19弄40號","121.532288333333","24.9732433333333","6500600","新店區"
"231054","AAD-862","2018/03/15 19:49:02","新北市新店區光明街83號","121.539021666667","24.96077","6500600","新店區"
"231056","3713-VJ","2018/03/15 19:49:00","新北市新店區民權路99號","121.536831666667","24.9829316666667","6500600","新店區"
"231055","4716-K9","2018/03/15 19:48:46","新北市新店區北新路一段235號","121.540448333333","24.96579","6500600","新店區"
"231067","4772-VM","2018/03/15 19:49:08","新北市新店區精忠路10-1號","121.532653333333","24.9590733333333","6500600","新店區"
"231065","512-UM","2018/03/15 19:49:00","新北市新店區安祥路109巷90弄2號","121.477931666667","24.95975","6500600","新店區"
"231049","513-UM","2018/03/15 19:48:54","新北市新店區民權路127巷15號","121.535681666667","24.9816816666667","6500600","新店區"
"231064","515-UM","2018/03/15 19:48:58","新北市新店區安和路二段3-5號","121.517961666667","24.9672766666667","6500600","新店區"
"231040","619-UM","2018/03/15 19:48:46","新北市新店區北新路一段96巷23號","121.543035","24.9687583333333","6500600","新店區"
"231042","641-BX","2018/03/15 19:48:58","新北市新店區中興路一段285號","121.545478333333","24.9685216666667","6500600","新店區"
"231063","645-TV","2018/03/15 19:48:52","新北市新店區黎明路3號","121.50353","24.9524366666667","6500600","新店區"
"231068","718-UY","2018/03/15 19:48:57","新北市新店區安華路28-1號","121.519386666667","24.9610333333333","6500600","新店區"
"231062","720-UM","2018/03/15 19:49:01","新北市新店區永業路91號","121.528998333333","24.9489383333333","6500600","新店區"
"231044","897-TW","2018/03/15 19:49:02","新北市新店區復興路67-1號","121.53526","24.98773","6500600","新店區"
"231045","898-TW","2018/03/15 19:49:01","新北市新店區中生路66號","121.56464","24.9525483333333","6500600","新店區"
"231043","899-TW","2018/03/15 19:48:56","新北市新店區中正路211號","121.539873333333","24.9728116666667","6500600","新店區"
"231066","AKT-0513","2018/03/15 19:48:46","新北市新店區安興路20號","121.515051666667","24.9659366666667","6500600","新店區"
"241011","013-R5","2018/03/15 19:49:08","新北市三重區三和路三段5號","121.497075","25.0705883333333","6500200","三重區"
"241028","022-UY","2018/03/15 19:48:54","新北市三重區中正南路163號","121.493701666667","25.0560266666667","6500200","三重區"
"241008","059-VK","2018/03/15 19:48:57","新北市三重區永福街96號","121.478821666667","25.0759166666667","6500200","三重區"
"241009","060-VK","2018/03/15 19:48:59","新北市三重區三和路四段396巷13號","121.480915","25.0791616666667","6500200","三重區"
"241031","061-VK","2018/03/15 19:48:58","新北市三重區重新路四段248號","121.48605","25.0534416666667","6500200","三重區"
"241015","062-VK","2018/03/15 19:49:03","新北市三重區三和路一段2號","121.503851666667","25.0642766666667","6500200","三重區"
"241017","063-VK","2018/03/15 19:48:50","新北市三重區重陽路三段5巷8弄29號","121.489615","25.0665833333333","6500200","三重區"
"241024","065-VK","2018/03/15 19:49:03","新北市三重區國道路一段58巷20號","121.481275","25.0720783333333","6500200","三重區"
"241026","066-VK","2018/03/15 19:48:56","新北市三重區文化南路42號","121.500373333333","25.0603","6500200","三重區"
"241003","091-VK","2018/03/15 19:49:03","新北市三重區五華街93巷12號","121.492425","25.0840166666667","6500200","三重區"
"241016","265-UM","2018/03/15 19:48:46","新北市三重區正義北路48巷74號","121.4956","25.0633566666667","6500200","三重區"
"241022","267-UM","2018/03/15 19:49:02","新北市三重區新北大道一段7號","121.489618333333","25.0615","6500200","三重區"
"241018","268-UM","2018/03/15 19:49:04","新北市三重區雙園街57巷34弄29號","121.493783333333","25.0682283333333","6500200","三重區"
"241032","269-UM","2018/03/15 19:49:03","新北市三重區重陽路一段44巷10號","121.486005","25.0577666666667","6500200","三重區"
"241013","270-UM","2018/03/15 19:48:56","新北市三重區仁愛街102巷8號","121.494765","25.0739066666667","6500200","三重區"
"241025","271-UM","2018/03/15 19:48:57","新北市三重區忠孝路三段52號","121.480675","25.0656033333333","6500200","三重區"
"241007","398-BY","2018/03/15 19:49:01","新北市三重區三和路四段135巷8-1號","121.48502","25.0781716666667","6500200","三重區"
"241035","KEA-2210","2018/03/15 19:48:59","新北市三重區文化北路25號","121.499578333333","25.0638166666667","6500200","三重區"
"241020","413-TH","2018/03/15 19:48:56","新北市三重區三和路四段2號","121.491661666667","25.0736516666667","6500200","三重區"
"241004","475-VK","2018/03/15 19:48:35","新北市三重區五華街74號","121.493461666667","25.08198","6500200","三重區"
"241001","478-VK","2018/03/15 19:49:00","新北市三重區仁愛街327巷73號","121.493845","25.080455","6500200","三重區"
"241030","480-VK","2018/03/15 19:49:00","新北市三重區環河南路254巷22-1號","121.49038","25.0509666666667","6500200","三重區"
"241014","543-UM","2018/03/15 19:49:02","新北市三重區長安街77號","121.501621666667","25.06739","6500200","三重區"
"241023","545-UM","2018/03/15 19:49:03","新北市三重區大有街1-1號","121.477606666667","25.065575","6500200","三重區"
"241019","KEA-2593","2018/03/15 19:48:54","新北市三重區自強路二段74巷25號","121.487723333333","25.06965","6500200","三重區"
"241006","AAD-863","2018/03/15 19:49:06","新北市三重區力行路二段51號","121.48218","25.0743566666667","6500200","三重區"
"241012","941-UM","2018/03/15 19:48:51","新北市三重區仁興街56巷36號","121.498246666667","25.0755016666667","6500200","三重區"
"241029","942-UM","2018/03/15 19:49:04","新北市三重區光明路66號","121.491961666667","25.0572616666667","6500200","三重區"
"241033","AAC-255","2018/03/15 19:48:55","新北市三重區中興南街66號","121.470628333333","25.0440166666667","6500200","三重區"
"235066","003-UY","2018/03/15 19:48:49","新北市中和區光華街59-1號","121.506386666667","25.0031366666667","6500300","中和區"
"235063","006-UY","2018/03/15 19:49:02","新北市中和區連城路263巷7弄1號","121.492238333333","24.995885","6500300","中和區"
"235056","096-UM","2018/03/15 19:48:53","新北市中和區中山路三段114巷26弄1號","121.475826666667","25.0070683333333","6500300","中和區"
"235039","097-UM","2018/03/15 19:48:55","新北市中和區景德街1號","121.519208333333","24.9913416666667","6500300","中和區"
"235065","098-UM","2018/03/15 19:49:09","新北市中和區莊敬路5號","121.499726666667","25.0044933333333","6500300","中和區"
"235040","150-BY","2018/03/15 19:49:06","新北市中和區宜安路96號","121.510676666667","24.9977016666667","6500300","中和區"
"235058","151-BY","2018/03/15 19:48:59","新北市中和區員山路124巷14號","121.482013333333","24.9959166666667","6500300","中和區"
"235055","183-VK","2018/03/15 19:49:00","新北市中和區莒光路2號","121.471596666667","25.0046483333333","6500300","中和區"
"235038","185-VK","2018/03/15 19:49:06","新北市中和區自立路5號","121.522598333333","24.9965483333333","6500300","中和區"
"235049","186-VK","2018/03/15 19:48:53","新北市中和區中正路87號","121.500546666667","24.9935833333333","6500300","中和區"
"235067","255-BX","2018/03/15 19:48:06","新北市中和區連城路340巷14弄3號","121.483283333333","24.9971733333333","6500300","中和區"
"235044","293-VK","2018/03/15 19:48:56","新北市中和區南山路176-20號","121.505496666667","24.9908833333333","6500300","中和區"
"235043","352-BY","2018/03/15 19:49:04","新北市中和區華新街232巷20號","121.505643333333","24.9824266666667","6500300","中和區"
"235068","377-QA","2018/03/15 19:48:47","新北市中和區永和路8巷21號","121.500998333333","25.003535","6500300","中和區"
"235061","378-QA","2018/03/15 19:48:51","新北市中和區員山路208號","121.481421666667","25.00075","6500300","中和區"
"235071","269-TV","2018/03/15 19:49:04","新北市中和區新生街132號","121.483586666667","25.0012616666667","6500300","中和區"
"235050","4979-A6","2018/03/15 19:49:03","新北市中和區和平街164巷4號","121.505943333333","24.99243","6500300","中和區"
"235069","4980-A6","2018/03/15 19:48:50","新北市中和區員山路36巷16-2號","121.485231666667","24.9917533333333","6500300","中和區"
"235042","551-UM","2018/03/15 19:49:02","新北市中和區保健路29巷7號","121.508916666667","24.9981433333333","6500300","中和區"
"235070","558-UM","2018/03/15 19:49:02","新北市中和區連勝街48號","121.497881666667","24.9974066666667","6500300","中和區"
"235045","565-BX","2018/03/15 19:48:57","新北市中和區安樂路8-1號","121.511681666667","24.9917833333333","6500300","中和區"
"235054","640-BX","2018/03/15 19:48:47","新北市中和區莒光路93-4號","121.472471666667","25.0032066666667","6500300","中和區"
"235060","647-TV","2018/03/15 19:49:05","新北市中和區中山路二段479號","121.483101666667","25.0048766666667","6500300","中和區"
"235047","732-UM","2018/03/15 19:49:01","新北市中和區南山路279號","121.504096666667","24.9923033333333","6500300","中和區"
"235046","733-UM","2018/03/15 19:48:47","新北市中和區仁愛街41號","121.511028333333","24.98848","6500300","中和區"
"235057","801-TS","2018/03/15 19:48:55","新北市中和區員山路146-4號","121.481228333333","24.997005","6500300","中和區"
"235041","802-TS","2018/03/15 19:48:57","新北市中和區新興街17巷28號","121.51273","25.0028633333333","6500300","中和區"
"235052","805-TS","2018/03/15 19:49:06","新北市中和區興南路二段117巷15號","121.505893333333","24.9839833333333","6500300","中和區"
"235048","896-TW","2018/03/15 19:48:54","新北市中和區興南路一段129號","121.509055","24.9878716666667","6500300","中和區"
"235053","911-UM","2018/03/15 19:48:47","新北市中和區國光街215巷22號","121.467053333333","25.0005033333333","6500300","中和區"
"235051","157-BY","2018/03/15 19:49:01","新北市中和區中興街160號","121.499858333333","24.99174","6500300","中和區"
"235037","AAC-213","2018/03/15 19:48:57","新北市中和區自立路66號","121.523843333333","24.9913533333333","6500300","中和區"
"235059","AAC-215","2018/03/15 19:48:48","新北市中和區圓通路305巷15弄2號","121.494343333333","24.9894416666667","6500300","中和區"
"220068","013-TV","2018/03/15 19:48:58","新北市板橋區中山路二段416巷1弄4號","121.483296666667","25.0208116666667","6500100","板橋區"
"220065","072-UY","2018/03/15 19:49:04","新北市板橋區國泰街39巷5弄14號","121.46881","25.0060266666667","6500100","板橋區"
"220086","073-UY","2018/03/15 19:49:02","新北市板橋區林園街1號","121.4538","25.0091533333333","6500100","板橋區"
"220069","AAD-861","2018/03/15 19:48:56","新北市板橋區南雅南路二段32號","121.454313333333","25.0030366666667","6500100","板橋區"
"247014","546-UM","2018/03/15 19:48:59","新北市蘆洲區中央路93號","121.472643333333","25.0842016666667","6501400","蘆洲區"
"247004","337-TH","2018/03/15 19:48:55","新北市蘆洲區中原路34號","121.45993","25.0827283333333","6501400","蘆洲區"
"247006","336-TH","2018/03/15 19:48:49","新北市蘆洲區永安南路二段86-1號","121.463843333333","25.0780383333333","6501400","蘆洲區"
"247008","056-VK","2018/03/15 19:49:04","新北市蘆洲區信義路123號","121.47868","25.080265","6501400","蘆洲區"
"247002","002-UY","2018/03/15 19:48:57","新北市蘆洲區永樂街38巷57弄2號","121.458436666667","25.09021","6501400","蘆洲區"
"226004","205-ST","2018/03/15 19:49:03","新北市平溪區十分里十分街310號","121.775318333333","25.0438166666667","6502400","平溪區"
"228003","097-TW","2018/03/15 19:49:00","新北市貢寮區真理里美艷山街3-1號","121.925695","25.0596083333333","6502600","貢寮區"
"228001","212-TW","2018/03/15 19:48:50","新北市貢寮區真理里大澳街10巷54號","121.925883333333","25.0564716666667","6502600","貢寮區"
"224010","AGQ-8101","2018/03/15 19:48:37","新北市瑞芳區石碑巷47號","121.84069","25.1080016666667","6501200","瑞芳區"
"224002","640-TC","2018/03/15 19:49:06","新北市瑞芳區民享新村3號","121.81735","25.1055066666667","6501200","瑞芳區"
"227010","642-TC","2018/03/15 19:49:01","新北市雙溪區新基里自強路7號","121.866246666667","25.0390266666667","6502500","雙溪區"
"227004","400-TW","2018/03/15 19:48:59","新北市雙溪區雙溪里內挖路47號","121.863213333333","25.0367516666667","6502500","雙溪區"
"222001","KEA-2212","2018/03/15 19:48:54","新北市深坑區北深路三段71號","121.60673","25.0013266666667","6501800","深坑區"
"208002","KEA-2872","2018/03/15 19:48:54","新北市金山區八德街14號","121.634886666667","25.22365","6502700","金山區"
"208003","665-BX","2018/03/15 19:48:49","新北市金山區清泉里清水路32號","121.629956666667","25.2305833333333","6502700","金山區"
"208001","761-BX","2018/03/15 19:49:05","新北市金山區重和里茅埔頭3號","121.604271666667","25.2171166666667","6502700","金山區"
"251009","008-UM","2018/03/15 19:48:58","新北市淡水區中正路32號","121.443943333333","25.169155","6501000","淡水區"
"251004","009-UM","2018/03/15 19:48:48","新北市淡水區民權路177巷53號","121.4605","25.133945","6501000","淡水區"
"251005","010-UM","2018/03/15 19:48:50","新北市淡水區中山路126號","121.442001666667","25.17099","6501000","淡水區"
"251001","011-UM","2018/03/15 19:49:02","新北市淡水區中正東路二段55號","121.459463333333","25.1552966666667","6501000","淡水區"
"251002","012-UM","2018/03/15 19:49:04","新北市淡水區沙崙路二段112號","121.432895","25.1973083333333","6501000","淡水區"
"251013","179-VK","2018/03/15 19:48:58","新北市淡水區頂田寮2-1號","121.46077","25.2130566666667","6501000","淡水區"
"251014","180-VK","2018/03/15 19:48:52","新北市淡水區番社前4號","121.474466666667","25.2362783333333","6501000","淡水區"
"251008","181-VK","2018/03/15 19:48:53","新北市淡水區中正路二段24巷2-1號","121.426805","25.1769816666667","6501000","淡水區"
"251015","182-VK","2018/03/15 19:48:57","新北市淡水區泉洲厝25-8號","121.48393","25.189925","6501000","淡水區"
"251012","441-VK","2018/03/15 19:49:07","新北市淡水區淡金路三段66號","121.44825","25.1999466666667","6501000","淡水區"
"251016","442-VK","2018/03/15 19:48:56","新北市淡水區三塊厝5-2號","121.45758","25.2100633333333","6501000","淡水區"
"251006","561-UM","2018/03/15 19:48:49","新北市淡水區中山北路一段168號","121.444301666667","25.1787","6501000","淡水區"
"251007","577-R6","2018/03/15 19:48:51","新北市淡水區中正東路一段3巷33號","121.451981666667","25.1661166666667","6501000","淡水區"
"251011","650-BX","2018/03/15 19:49:02","新北市淡水區淡金路二段147號","121.449891666667","25.1828183333333","6501000","淡水區"
"251003","766-UM","2018/03/15 19:49:00","新北市淡水區下圭柔山90-8號","121.431998333333","25.2111183333333","6501000","淡水區"
"207003","550-UM","2018/03/15 19:48:59","新北市萬里區大鵬里萬里加投68-8號","121.642463333333","25.2150333333333","6502800","萬里區"
"207004","225-TW","2018/03/15 19:49:05","新北市萬里區萬里里瑪鋉路207號","121.690386666667","25.1793633333333","6502800","萬里區"
"252002","178-VK","2018/03/15 19:48:56","新北市三芝區三民街20號","121.504521666667","25.2586016666667","6502100","三芝區"
"252001","292-VK","2018/03/15 19:48:50","新北市三芝區公正街66號","121.499793333333","25.2574516666667","6502100","三芝區"
"237004","KEA-2597","2018/03/15 19:48:51","新北市三峽區圳頭35號","121.376896666667","24.8874466666667","6500900","三峽區"
"237007","153-BY","2018/03/15 19:49:01","新北市三峽區二鬮路110巷52號","121.357806666667","24.91004","6500900","三峽區"
"237009","210-TH","2018/03/15 19:49:06","新北市三峽區中園街55號","121.368215","24.9259416666667","6500900","三峽區"
"237013","252-BX","2018/03/15 19:48:55","新北市三峽區溪北街78號","121.397788333333","24.9355983333333","6500900","三峽區"
"237012","275-BY","2018/03/15 19:48:48","新北市三峽區中華路26號","121.373778333333","24.9323316666667","6500900","三峽區"
"237008","302-VK","2018/03/15 19:48:54","新北市三峽區大同路132巷12號","121.373856666667","24.92737","6500900","三峽區"
"237014","433-BY","2018/03/15 19:48:50","新北市三峽區添福14-32號","121.372408333333","24.9003183333333","6500900","三峽區"
"237006","5529-G3","2018/03/15 19:48:58","新北市三峽區中正路一段336巷15弄2號","121.36996","24.9249283333333","6500900","三峽區"
"237016","649-BX","2018/03/15 19:44:10","新北市三峽區成福路118號","121.422375","24.9291366666667","6500900","三峽區"
"237005","AKY-6261","2018/03/15 19:49:04","新北市三峽區長泰街18巷6號","121.379105","24.9316533333333","6500900","三峽區"
"236071","105-UM","2018/03/15 19:48:56","新北市土城區水源街32巷14號","121.441213333333","24.9758683333333","6501300","土城區"
"236042","107-UM","2018/03/15 19:48:57","新北市土城區裕民路285號","121.45599","24.9816366666667","6501300","土城區"
"236053","137-TH","2018/03/15 19:48:56","新北市土城區延和路63號","121.466805","24.9897983333333","6501300","土城區"
"236078","166-UM","2018/03/15 19:48:54","新北市土城區溪頭路28-1號","121.412311666667","24.9552433333333","6501300","土城區"
"236030","253-BX","2018/03/15 19:49:03","新北市土城區中央路一段290號","121.443246666667","24.9824333333333","6501300","土城區"
"236026","269-VK","2018/03/15 19:48:49","新北市土城區中央路二段61巷32號","121.443598333333","24.9788283333333","6501300","土城區"
"236037","271-VK","2018/03/15 19:46:21","新北市土城區國際路52號","121.46644","24.9783016666667","6501300","土城區"
"236021","401-BY","2018/03/15 19:48:35","新北市土城區峰廷街3號","121.469033333333","24.98732","6501300","土城區"
"236058","912-UM","2018/03/15 19:48:53","新北市土城區中央路一段315號","121.443883333333","24.98334","6501300","土城區"
"236051","913-UM","2018/03/15 19:49:03","新北市土城區青雲路165號","121.459101666667","24.9833066666667","6501300","土城區"
"242034","AAC-296","2018/03/15 19:49:08","新北市新莊區新泰路199巷19號","121.445658333333","25.0377183333333","6500500","新莊區"
"242058","986-R7","2018/03/15 19:48:54","新北市新莊區八德街17號","121.425225","25.0226433333333","6500500","新莊區"
"242029","705-TV","2018/03/15 19:49:04","新北市新莊區中平路256號","121.444866666667","25.04942","6500500","新莊區"
"242002","442-UM","2018/03/15 19:48:53","新北市新莊區新泰路2-10號","121.450108333333","25.03257","6500500","新莊區"
"242056","440-UM","2018/03/15 19:48:55","新北市新莊區新泰路87號","121.448795","25.0345033333333","6500500","新莊區"
"242036","415-TV","2018/03/15 19:49:03","新北市新莊區建安街89號","121.427088333333","25.02451","6500500","新莊區"
"242023","362-BY","2018/03/15 19:48:59","新北市新莊區化成路118號","121.465428333333","25.04457","6500500","新莊區"
"242061","353-BY","2018/03/15 19:48:49","新北市新莊區中正路400號","121.44193","25.0341916666667","6500500","新莊區"
"242019","133-UY","2018/03/15 19:49:04","新北市新莊區復興路一段161號","121.450905","25.0433783333333","6500500","新莊區"
"242031","135-UY","2018/03/15 19:49:03","新北市新莊區忠孝街65號","121.443911666667","25.03639","6500500","新莊區"
"242048","172-VK","2018/03/15 19:49:04","新北市新莊區建安街76巷1弄15號","121.425941666667","25.0242616666667","6500500","新莊區"
"242004","176-VK","2018/03/15 19:49:06","新北市新莊區化成路63巷24弄15號","121.462688333333","25.0459366666667","6500500","新莊區"
"242021","348-TH","2018/03/15 19:49:02","新北市新莊區新泰路111號","121.448921666667","25.0351316666667","6500500","新莊區"
"242013","351-TH","2018/03/15 19:48:47","新北市新莊區中誠街71號","121.450651666667","25.04787","6500500","新莊區"
"238015","755-BX","2018/03/15 19:48:48","新北市樹林區中山路一段90號","121.423296666667","24.9913316666667","6500700","樹林區"
"238023","601-UM","2018/03/15 19:49:07","新北市樹林區三寶街12號","121.406526666667","25.0156466666667","6500700","樹林區"
"238024","5061-A6","2018/03/15 19:47:59","新北市樹林區中山路三段210-2號","121.380556666667","24.967925","6500700","樹林區"
"238021","KEA-2539","2018/03/15 19:49:01","新北市樹林區佳園路三段145巷36-28號","121.389101666667","24.9491116666667","6500700","樹林區"
"238017","283-BY","2018/03/15 19:48:55","新北市樹林區保安街二段169號","121.41489","25.0029083333333","6500700","樹林區"
"238014","282-BY","2018/03/15 19:49:01","新北市樹林區千歲街70巷3弄2號","121.426858333333","24.9971033333333","6500700","樹林區"
"239007","AAC-297","2018/03/15 19:40:06","新北市鶯歌區大湖路187-6號","121.345248333333","24.9704283333333","6500800","鶯歌區"
"239006","891-R6","2018/03/15 19:49:07","新北市鶯歌區鶯桃路15號","121.343823333333","24.9504066666667","6500800","鶯歌區"
"221008","489-VK","2018/03/15 19:48:58","新北市汐止區康寧街81號","121.619643333333","25.0664566666667","6501100","汐止區"
"221036","130-UY","2018/03/15 19:48:59","新北市汐止區汐萬路一段119號","121.654166666667","25.0710466666667","6501100","汐止區"
"221010","269-BY","2018/03/15 19:48:49","新北市汐止區連峰街128號","121.646056666667","25.07916","6501100","汐止區"
"221012","278-VK","2018/03/15 19:48:52","新北市汐止區大同路三段579號","121.682396666667","25.0735316666667","6501100","汐止區"
"221023","279-VK","2018/03/15 19:48:59","新北市汐止區民族六街5巷1號","121.629826666667","25.0698766666667","6501100","汐止區"
"221032","280-BY","2018/03/15 19:49:06","新北市汐止區橫科路119號","121.620056666667","25.0503366666667","6501100","汐止區"
"221027","281-BY","2018/03/15 19:49:02","新北市汐止區南昌街35號","121.662908333333","25.0690683333333","6501100","汐止區"
"221033","297-VK","2018/03/15 19:48:52","新北市汐止區東勢街76巷100-1號","121.636403333333","25.03894","6501100","汐止區"
"221029","298-VK","2018/03/15 19:49:03","新北市汐止區康寧街901號","121.650915","25.075185","6501100","汐止區"
"221021","299-VK","2018/03/15 19:48:53","新北市汐止區新興路83-6號","121.657913333333","25.0617233333333","6501100","汐止區"
"221031","353-TW","2018/03/15 19:48:59","新北市汐止區福德三路99號","121.635748333333","25.0688033333333","6501100","汐止區"
"221035","622-UM","2018/03/15 19:49:05","新北市汐止區長江街13巷6弄1號","121.65469","25.0716583333333","6501100","汐止區"
"221025","623-UM","2018/03/15 19:49:05","新北市汐止區秀峰路81巷14號","121.660771666667","25.0643616666667","6501100","汐止區"
"221038","646-BX","2018/03/15 19:48:56","新北市汐止區忠孝東路403號","121.66581","25.0711366666667","6501100","汐止區"
"221002","707-TV","2018/03/15 19:49:01","新北市汐止區大同路一段219巷27號","121.63326","25.05836","6501100","汐止區"
"221018","753-BX","2018/03/15 19:49:02","新北市汐止區汐萬路一段22號","121.655776666667","25.06787","6501100","汐止區"
"220079","145-BY","2018/03/15 19:48:37","新北市板橋區中正路183巷15號","121.455563333333","25.0161366666667","6500100","板橋區"
"220080","200-UY","2018/03/15 19:49:01","新北市板橋區大觀路二段79巷31號","121.44758","25.0017533333333","6500100","板橋區"
"220106","KEA-2550","2018/03/15 19:49:04","新北市板橋區文化路二段608巷50號","121.479683333333","25.03445","6500100","板橋區"
"220082","610-BX","2018/03/15 19:49:01","新北市板橋區溪崑一街23號","121.430688333333","24.9919366666667","6500100","板橋區"
"220101","245-BX","2018/03/15 19:49:04","新北市板橋區莊敬路262-1號","121.474196666667","25.0218033333333","6500100","板橋區"
"220056","276-BY","2018/03/15 19:48:58","新北市板橋區四川路二段99巷1號","121.452675","24.9945516666667","6500100","板橋區"
"220072","277-BY","2018/03/15 19:48:56","新北市板橋區金門街215巷6號","121.43294","24.9897366666667","6500100","板橋區"
"220064","282-UM","2018/03/15 19:49:02","新北市板橋區實踐路111號","121.464123333333","25.0050933333333","6500100","板橋區"
"220094","283-UM","2018/03/15 19:49:04","新北市板橋區長江路一段148號","121.460845","25.0302316666667","6500100","板橋區"
"220071","283-VK","2018/03/15 19:49:03","新北市板橋區五權街34-1號","121.464273333333","24.9922366666667","6500100","板橋區"
"220053","285-VK","2018/03/15 19:48:56","新北市板橋區中山路二段60巷1弄16號","121.474833333333","25.0155716666667","6500100","板橋區"
"220083","286-VK","2018/03/15 19:49:03","新北市板橋區僑中二街124巷2號","121.445441666667","25.005265","6500100","板橋區"
"220081","287-VK","2018/03/15 19:48:55","新北市板橋區大觀路一段29巷131弄29號","121.450583333333","25.004635","6500100","板橋區"
"220090","288-VK","2018/03/15 19:48:58","新北市板橋區龍泉街54巷7弄7號","121.456568333333","25.0264616666667","6500100","板橋區"
"220061","293-UM","2018/03/15 19:49:09","新北市板橋區板新路200巷6號","121.469126666667","25.0161566666667","6500100","板橋區"
"220062","295-UM","2018/03/15 19:48:57","新北市板橋區中山路二段416巷38弄27號","121.481825","25.0194633333333","6500100","板橋區"
"220084","296-UM","2018/03/15 19:48:48","新北市板橋區滿平街25號","121.426846666667","24.9897916666667","6500100","板橋區"
"242011","281-VK","2018/03/15 19:49:02","新北市新莊區中信街118號","121.447801666667","25.0540616666667","6500500","新莊區"
"220075","303-R5","2018/03/15 19:48:59","新北市板橋區金華街10巷17號","121.45644","25.0201216666667","6500100","板橋區"
"220092","307-R5","2018/03/15 19:48:57","新北市板橋區四維路259巷17號","121.462485","25.027715","6500100","板橋區"
"220098","317-R6","2018/03/15 19:49:05","新北市板橋區四維路269巷89號","121.459763333333","25.026585","6500100","板橋區"
"220089","487-VK","2018/03/15 19:49:00","新北市板橋區綠堤街39-4號","121.455311666667","25.0263283333333","6500100","板橋區"
"242039","280-VK","2018/03/15 19:49:08","新北市新莊區民安路299巷33號","121.429283333333","25.0232333333333","6500500","新莊區"
"220088","491-VK","2018/03/15 19:48:47","新北市板橋區仁化街182號","121.478483333333","25.0339516666667","6500100","板橋區"
"220035","560-BX","2018/03/15 19:48:56","新北市板橋區新生街29巷15弄2號","121.456531666667","25.0221233333333","6500100","板橋區"
"220103","561-BX","2018/03/15 19:49:08","新北市板橋區陽明街27巷2號","121.465585","25.0218916666667","6500100","板橋區"
"220063","609-BX","2018/03/15 19:49:01","新北市板橋區三民路一段89號","121.479598333333","25.0219616666667","6500100","板橋區"
"220091","637-BX","2018/03/15 19:49:04","新北市板橋區民治街97號","121.47921","25.0316316666667","6500100","板橋區"
"220057","686-BX","2018/03/15 19:49:01","新北市板橋區廣權路9號","121.460676666667","24.9913233333333","6500100","板橋區"
"220077","687-BX","2018/03/15 19:49:00","新北市板橋區僑中一街124巷11弄1號","121.445998333333","25.0128633333333","6500100","板橋區"
"220093","689-BX","2018/03/15 19:48:58","新北市板橋區長江路二段219號","121.468045","25.0325166666667","6500100","板橋區"
"220054","741-BX","2018/03/15 19:48:51","新北市板橋區實踐路93巷33號","121.465451666667","25.0052316666667","6500100","板橋區"
"220102","KEA-2699","2018/03/15 19:49:02","新北市板橋區松柏街50巷3號","121.475728333333","25.0302933333333","6500100","板橋區"
"220055","827-TW","2018/03/15 19:48:51","新北市板橋區國慶路211號","121.4635","24.997335","6500100","板橋區"
"220067","830-TW","2018/03/15 19:49:04","新北市板橋區長安街138巷1弄108號","121.474078333333","25.0102766666667","6500100","板橋區"
"220096","831-TW","2018/03/15 19:49:07","新北市板橋區民生路二段234巷24弄1號","121.47044","25.0224","6500100","板橋區"
"220074","895-R6","2018/03/15 19:49:03","新北市板橋區東門街10號","121.45792","25.0089933333333","6500100","板橋區"
"220073","985-R7","2018/03/15 19:49:05","新北市板橋區大仁街51號","121.454555","25.01645","6500100","板橋區"
"220097","AAC-210","2018/03/15 19:49:05","新北市板橋區漢生西路87號","121.462378333333","25.0194983333333","6500100","板橋區"
"220070","AAC-253","2018/03/15 19:49:03","新北市板橋區成都街101號","121.463456666667","25.0052983333333","6500100","板橋區"
