"lineid","car","time","location","longitude","latitude","cityid","cityname"
"234046","148-BY","2018/03/15 19:59:22","新北市永和區成功路一段112號","121.526863333333","25.0025466666667","6500400","永和區"
"234007","207-UY","2018/03/15 19:59:21","新北市永和區保生路22巷21號","121.507228333333","25.0081366666667","6500400","永和區"
"234081","298-R6","2018/03/15 19:59:16","新北市永和區林森路112巷12弄8號","121.522548333333","25.00441","6500400","永和區"
"234038","336-UY","2018/03/15 19:59:09","新北市永和區成功路二段179-1號","121.526575","24.99659","6500400","永和區"
"234064","337-UY","2018/03/15 19:59:20","新北市永和區中正路412巷20弄13號","121.518806666667","25.00171","6500400","永和區"
"234086","338-UY","2018/03/15 19:59:16","新北市永和區福和路158號","121.521566666667","25.0079166666667","6500400","永和區"
"234070","552-UM","2018/03/15 19:59:10","新北市永和區國光路14號","121.519136666667","25.0083766666667","6500400","永和區"
"234017","745-BX","2018/03/15 19:59:13","新北市永和區文化路69號","121.513975","25.015085","6500400","永和區"
"234030","746-BX","2018/03/15 19:59:18","新北市永和區民生路22巷21號","121.521445","24.9970883333333","6500400","永和區"
"234054","KEA-2590","2018/03/15 19:59:18","新北市永和區竹林路39巷21號","121.518941666667","25.014805","6500400","永和區"
"234013","KEA-2591","2018/03/15 19:59:26","新北市永和區仁愛路295號","121.505065","25.0091816666667","6500400","永和區"
"234061","AAD-866","2018/03/15 19:59:13","新北市永和區得和路76號","121.516525","25.0000633333333","6500400","永和區"
"234042","862-TW","2018/03/15 19:59:20","新北市永和區雙和街17巷2號","121.509346666667","25.0019016666667","6500400","永和區"
"234050","863-TW","2018/03/15 19:59:06","新北市永和區永平路247號","121.506585","25.0128066666667","6500400","永和區"
"234026","9371-KE","2018/03/15 19:59:26","新北市永和區水源街33巷5號","121.510811666667","25.0042166666667","6500400","永和區"
"234011","9373-KE","2018/03/15 19:59:29","新北市永和區環河西路二段243號","121.500475","25.00934","6500400","永和區"
"249005","172-UM","2018/03/15 19:59:23","新北市八里區楓林路3-2號","121.382536666667","25.1298483333333","6502300","八里區"
"249001","173-UM","2018/03/15 19:59:14","新北市八里區中華路二段312號","121.403773333333","25.1483783333333","6502300","八里區"
"249004","303-UY","2018/03/15 19:59:20","新北市八里區中華路一段333-1號","121.413325","25.1538083333333","6502300","八里區"
"249002","305-UY","2018/03/15 19:59:16","新北市八里區頂寮一街28巷2號","121.451491666667","25.1240716666667","6502300","八里區"
"249003","593-UM","2018/03/15 19:59:29","新北市八里區中華路二段560巷3號","121.398603333333","25.145065","6502300","八里區"
"248016","026-BX","2018/03/15 19:59:19","新北市五股區成泰路三段577巷80弄54號","121.449778333333","25.1050716666667","6501500","五股區"
"248008","095-VK","2018/03/15 19:59:21","新北市五股區四維路30巷10號","121.467753333333","25.07149","6501500","五股區"
"248012","247-BX","2018/03/15 19:59:14","新北市五股區民義路一段84號","121.435965","25.0850266666667","6501500","五股區"
"248014","261-SL","2018/03/15 19:59:29","新北市五股區五福路14巷27號","121.435375","25.0889266666667","6501500","五股區"
"248004","677-BX","2018/03/15 19:59:27","新北市五股區成泰路一段32巷62號","121.435038333333","25.0669383333333","6501500","五股區"
"248002","678-BX","2018/03/15 19:59:25","新北市五股區成泰路三段469號","121.450458333333","25.0985066666667","6501500","五股區"
"248010","682-TV","2018/03/15 19:59:13","新北市五股區登林路100-4號","121.427943333333","25.07042","6501500","五股區"
"234023","9380-KE","2018/03/15 19:59:18","新北市永和區中正路702巷18號","121.516493333333","25.0105433333333","6500400","永和區"
"234077","969-R7","2018/03/15 19:59:17","新北市永和區民有街7號","121.516163333333","24.9969866666667","6500400","永和區"
"234074","AAC-211","2018/03/15 19:59:14","新北市永和區豫溪街191巷5號","121.523605","25.01045","6500400","永和區"
"234067","AAC-212","2018/03/15 19:59:29","新北市永和區中山路一段236號","121.50729","25.0074483333333","6500400","永和區"
"234003","AAC-295","2018/03/15 19:59:08","新北市永和區中正路706號","121.51616","25.0098933333333","6500400","永和區"
"243012","AAD-798","2018/03/15 19:59:25","新北市泰山區全興路184號","121.433341666667","25.0574383333333","6501600","泰山區"
"243011","297-R6","2018/03/15 19:59:23","新北市泰山區明志路三段182巷34號","121.423276666667","25.0394616666667","6501600","泰山區"
"243014","421-VK","2018/03/15 19:59:26","新北市泰山區泰林路二段115號","121.434425","25.059505","6501600","泰山區"
"243015","539-UM","2018/03/15 19:59:25","新北市泰山區明志路二段194號","121.427225","25.0496633333333","6501600","泰山區"
"243010","KEA-2215","2018/03/15 19:59:20","新北市泰山區中華街7號","121.427926666667","25.0524516666667","6501600","泰山區"
"243009","KEA-2216","2018/03/15 19:59:17","新北市泰山區泰林路二段164巷40號","121.434353333333","25.0613133333333","6501600","泰山區"
"243013","646-TV","2018/03/15 19:59:05","新北市泰山區應化街13號","121.42387","25.043675","6501600","泰山區"
"243016","680-BX","2018/03/15 19:58:04","新北市泰山區貴陽街16巷5弄4號","121.422176666667","25.0317016666667","6501600","泰山區"
"222003","436-BY","2018/03/15 19:59:10","新北市深坑區埔新街14號","121.620723333333","25.003925","6501800","深坑區"
"222002","659-BX","2018/03/15 19:59:12","新北市深坑區北深路二段55巷12弄12號","121.618646666667","25.00335","6501800","深坑區"
"231041","002-UM","2018/03/15 19:59:18","新北市新店區自由街2-1號","121.535741666667","24.9754983333333","6500600","新店區"
"231059","046-UY","2018/03/15 19:59:22","新北市新店區安康路二段147號","121.511335","24.960015","6500600","新店區"
"231061","047-UY","2018/03/15 19:59:21","新北市新店區安民街133巷26號","121.515566666667","24.9693733333333","6500600","新店區"
"231060","106-UY","2018/03/15 19:59:13","新北市新店區安康路二段438號","121.495738333333","24.95494","6500600","新店區"
"231051","107-UY","2018/03/15 19:59:06","新北市新店區中央二街20號","121.528696666667","24.9734133333333","6500600","新店區"
"231047","108-UY","2018/03/15 19:59:27","新北市新店區寶橋路162號","121.549111666667","24.9771366666667","6500600","新店區"
"231052","187-VK","2018/03/15 19:59:12","新北市新店區新烏路三段寶島巷4號","121.551548333333","24.8992816666667","6500600","新店區"
"231050","KEA-2219","2018/03/15 19:59:19","新北市新店區北宜路二段82-1號","121.553595","24.9533466666667","6500600","新店區"
"221015","KEA-2785","2018/03/15 19:59:29","新北市汐止區橋東街13號","121.66656","25.075835","6501100","汐止區"
"231057","256-BX","2018/03/15 19:59:15","新北市新店區花園二路一段11號","121.555505","24.932515","6500600","新店區"
"231054","AAD-862","2018/03/15 19:59:21","新北市新店區光明街135號","121.539466666667","24.96197","6500600","新店區"
"231056","3713-VJ","2018/03/15 19:59:20","新北市新店區民權路25號","121.5411","24.9828583333333","6500600","新店區"
"231055","4716-K9","2018/03/15 19:59:26","新北市新店區力行路92號","121.538368333333","24.96654","6500600","新店區"
"231067","4772-VM","2018/03/15 19:59:08","新北市新店區秀山路11巷12弄12號","121.53126","24.959645","6500600","新店區"
"231065","512-UM","2018/03/15 19:59:20","新北市新店區安祥路109巷8號","121.475381666667","24.9588483333333","6500600","新店區"
"231049","513-UM","2018/03/15 19:59:14","新北市新店區明德路31號","121.541646666667","24.9773666666667","6500600","新店區"
"231064","515-UM","2018/03/15 19:59:18","新北市新店區安民街136號","121.51665","24.9694616666667","6500600","新店區"
"231040","619-UM","2018/03/15 19:59:06","新北市新店區中正路62號","121.544225","24.9700733333333","6500600","新店區"
"231042","641-BX","2018/03/15 19:59:18","新北市新店區中興路二段89號","121.547076666667","24.971415","6500600","新店區"
"231063","645-TV","2018/03/15 19:58:52","新北市新店區黎明路11號","121.501986666667","24.9499183333333","6500600","新店區"
"231068","718-UY","2018/03/15 19:59:17","新北市新店區安康路一段266巷4號","121.520066666667","24.9645633333333","6500600","新店區"
"231062","720-UM","2018/03/15 19:59:22","新北市新店區華城路11號","121.529496666667","24.9594783333333","6500600","新店區"
"231044","897-TW","2018/03/15 19:59:22","新北市新店區寶慶街58巷8號","121.542121666667","24.9870833333333","6500600","新店區"
"231045","898-TW","2018/03/15 19:59:22","新北市新店區北宜路二段82-10號","121.554426666667","24.95349","6500600","新店區"
"231043","899-TW","2018/03/15 19:59:16","新北市新店區中正路263-2號","121.538493333333","24.9737916666667","6500600","新店區"
"231066","AKT-0513","2018/03/15 19:59:26","新北市新店區柴埕路59號","121.513683333333","24.9651166666667","6500600","新店區"
"241011","013-R5","2018/03/15 19:59:28","新北市三重區三和路二段119號","121.498936666667","25.0691216666667","6500200","三重區"
"241028","022-UY","2018/03/15 19:59:15","新北市三重區中正南路1號","121.493383333333","25.06054","6500200","三重區"
"241008","059-VK","2018/03/15 19:59:17","新北市三重區永福街179巷28號","121.478028333333","25.07479","6500200","三重區"
"241009","060-VK","2018/03/15 19:59:19","新北市三重區三和路四段390巷24號","121.481056666667","25.0787333333333","6500200","三重區"
"241031","061-VK","2018/03/15 19:58:58","新北市三重區重新路四段144巷36號","121.487166666667","25.0549133333333","6500200","三重區"
"241015","062-VK","2018/03/15 19:59:23","新北市三重區三和路二段19號","121.501178333333","25.06695","6500200","三重區"
"241017","063-VK","2018/03/15 19:59:10","新北市三重區重陽路四段4號","121.490718333333","25.0688133333333","6500200","三重區"
"241024","065-VK","2018/03/15 19:59:22","新北市三重區力行路一段176號","121.482088333333","25.0715016666667","6500200","三重區"
"241026","066-VK","2018/03/15 19:59:16","新北市三重區仁慈街7號","121.501711666667","25.063045","6500200","三重區"
"241002","090-VK","2018/03/15 19:59:24","新北市三重區仁義街168號","121.497011666667","25.0811233333333","6500200","三重區"
"241003","091-VK","2018/03/15 19:59:23","新北市三重區仁愛街445巷8號","121.49029","25.0826016666667","6500200","三重區"
"241005","262-UM","2018/03/15 19:59:23","新北市三重區五華街178號","121.488756666667","25.0861616666667","6500200","三重區"
"241016","265-UM","2018/03/15 19:59:26","新北市三重區正義北路29號","121.497505","25.06357","6500200","三重區"
"241022","267-UM","2018/03/15 19:59:22","新北市三重區新北大道一段7號","121.48987","25.06146","6500200","三重區"
"241018","268-UM","2018/03/15 19:59:24","新北市三重區正義北路244巷79號","121.493833333333","25.0676433333333","6500200","三重區"
"241032","269-UM","2018/03/15 19:59:23","新北市三重區朝陽街23號","121.48361","25.056525","6500200","三重區"
"241013","270-UM","2018/03/15 19:59:16","新北市三重區三和路三段125巷31號","121.49376","25.0736716666667","6500200","三重區"
"241025","271-UM","2018/03/15 19:59:17","新北市三重區頂崁街210巷16號","121.476533333333","25.0677583333333","6500200","三重區"
"241007","398-BY","2018/03/15 19:59:21","新北市三重區溪尾街160號","121.48874","25.08002","6500200","三重區"
"241035","KEA-2210","2018/03/15 19:59:19","新北市三重區大榮街9號","121.498248333333","25.063155","6500200","三重區"
"241020","413-TH","2018/03/15 19:59:16","新北市三重區忠孝路一段101號","121.489646666667","25.0721366666667","6500200","三重區"
"241004","475-VK","2018/03/15 19:59:17","新北市三重區五華街69號","121.492583333333","25.0827716666667","6500200","三重區"
"241001","478-VK","2018/03/15 19:59:20","新北市三重區仁愛街283巷38號","121.494353333333","25.080035","6500200","三重區"
"241030","480-VK","2018/03/15 19:59:20","新北市三重區成功路187號","121.485853333333","25.05289","6500200","三重區"
"241014","543-UM","2018/03/15 19:59:22","新北市三重區三和路二段103號","121.499405","25.06856","6500200","三重區"
"241023","545-UM","2018/03/15 19:59:24","新北市三重區大有街1-1號","121.47754","25.06555","6500200","三重區"
"241019","KEA-2593","2018/03/15 19:59:14","新北市三重區重陽路四段18號","121.490956666667","25.0691383333333","6500200","三重區"
"241006","AAD-863","2018/03/15 19:59:26","新北市三重區力行路二段84號","121.481875","25.07392","6500200","三重區"
"241012","941-UM","2018/03/15 19:59:11","新北市三重區仁義街18號","121.499675","25.0763133333333","6500200","三重區"
"241029","942-UM","2018/03/15 19:59:24","新北市三重區重安街12號","121.49029","25.0583266666667","6500200","三重區"
"241033","AAC-255","2018/03/15 19:59:15","新北市三重區中興北街49號","121.469511666667","25.0472466666667","6500200","三重區"
"235066","003-UY","2018/03/15 19:59:29","新北市中和區中山路二段3巷22弄1號","121.506421666667","25.005335","6500300","中和區"
"235056","096-UM","2018/03/15 19:59:13","新北市中和區中山路三段170巷8弄22號","121.472995","25.00766","6500300","中和區"
"235039","097-UM","2018/03/15 19:59:15","新北市中和區大勇街27巷31號","121.516083333333","24.99391","6500300","中和區"
"235065","098-UM","2018/03/15 19:59:09","新北市中和區福美路269號","121.498191666667","25.0050316666667","6500300","中和區"
"235040","150-BY","2018/03/15 19:59:26","新北市中和區景安路85號","121.506181666667","24.9969733333333","6500300","中和區"
"235058","151-BY","2018/03/15 19:59:19","新北市中和區員山路146巷6號","121.481668333333","24.99675","6500300","中和區"
"235055","183-VK","2018/03/15 19:59:20","新北市中和區民生街21-6號","121.470781666667","25.0055616666667","6500300","中和區"
"235049","186-VK","2018/03/15 19:59:13","新北市中和區南華路2號","121.502143333333","24.995445","6500300","中和區"
"235067","255-BX","2018/03/15 19:59:26","新北市中和區新生街206號","121.483701666667","24.9990083333333","6500300","中和區"
"235044","293-VK","2018/03/15 19:59:16","新北市中和區中興街108號","121.500206666667","24.9932783333333","6500300","中和區"
"235043","352-BY","2018/03/15 19:59:24","新北市中和區興南路二段159巷1號","121.505171666667","24.9833266666667","6500300","中和區"
"235068","377-QA","2018/03/15 19:59:07","新北市中和區福美路301巷17號","121.497565","25.0041766666667","6500300","中和區"
"235071","269-TV","2018/03/15 19:59:24","新北市中和區環中路120號","121.481966666667","25.0123966666667","6500300","中和區"
"235050","4979-A6","2018/03/15 19:59:13","新北市中和區景平路241巷9號","121.509361666667","24.9924333333333","6500300","中和區"
"235069","4980-A6","2018/03/15 19:59:10","新北市中和區圓通路78號","121.500051666667","24.9970833333333","6500300","中和區"
"235042","551-UM","2018/03/15 19:59:21","新北市中和區保健路2巷4號","121.507686666667","24.9982266666667","6500300","中和區"
"235070","558-UM","2018/03/15 19:59:22","新北市中和區圓通路156號","121.497871666667","24.995595","6500300","中和區"
"235054","640-BX","2018/03/15 19:59:27","新北市中和區莒光路92號","121.472363333333","25.0025266666667","6500300","中和區"
"235060","647-TV","2018/03/15 19:59:26","新北市中和區新生街41號","121.483313333333","25.0033166666667","6500300","中和區"
"235047","732-UM","2018/03/15 19:58:21","新北市中和區和平街74號","121.507735","24.99108","6500300","中和區"
"235046","733-UM","2018/03/15 19:59:23","新北市中和區興南路一段105巷20弄5號","121.510276666667","24.9855616666667","6500300","中和區"
"235041","802-TS","2018/03/15 19:59:17","新北市中和區安平路161號","121.512401666667","24.9985616666667","6500300","中和區"
"235052","805-TS","2018/03/15 19:59:27","新北市中和區華新街144巷9號","121.50752","24.9831","6500300","中和區"
"235048","896-TW","2018/03/15 19:59:08","新北市中和區景新街420號","121.512955","24.9889366666667","6500300","中和區"
"235053","911-UM","2018/03/15 19:59:27","新北市中和區民德路208號","121.46828","24.9982833333333","6500300","中和區"
"235051","157-BY","2018/03/15 19:59:21","新北市中和區中興街233巷10號","121.501525","24.989465","6500300","中和區"
"235037","AAC-213","2018/03/15 19:59:17","新北市中和區自立路99巷22弄5號","121.523305","24.9943466666667","6500300","中和區"
"235059","AAC-215","2018/03/15 19:59:11","新北市中和區圓通路367巷7號","121.492426666667","24.9881533333333","6500300","中和區"
"220068","013-TV","2018/03/15 19:59:24","新北市板橋區光復街170號","121.485156666667","25.0197066666667","6500100","板橋區"
"220065","072-UY","2018/03/15 19:59:23","新北市板橋區民族路69巷18弄22號","121.46653","25.00987","6500100","板橋區"
"220069","AAD-861","2018/03/15 19:59:15","新北市板橋區大明街11號","121.459041666667","25.00252","6500100","板橋區"
"247024","893-R6","2018/03/15 19:59:10","新北市蘆洲區光榮路120巷12號","121.46524","25.08837","6501400","蘆洲區"
"247014","546-UM","2018/03/15 19:59:19","新北市蘆洲區成功路104號","121.472531666667","25.082235","6501400","蘆洲區"
"247010","341-TH","2018/03/15 19:59:10","新北市三重區集賢路188號","121.483931666667","25.0880883333333","6501400","蘆洲區"
"247004","337-TH","2018/03/15 19:59:15","新北市蘆洲區永安南路二段352號","121.45624","25.082875","6501400","蘆洲區"
"247006","336-TH","2018/03/15 19:59:09","新北市蘆洲區九芎街107號","121.465788333333","25.07966","6501400","蘆洲區"
"247018","057-VK","2018/03/15 19:59:24","新北市蘆洲區民族路282號","121.478093333333","25.089565","6501400","蘆洲區"
"247008","056-VK","2018/03/15 19:59:24","新北市蘆洲區中山一路61巷41號","121.477496666667","25.0805616666667","6501400","蘆洲區"
"247020","053-VK","2018/03/15 19:59:27","新北市蘆洲區民義街66號","121.472905","25.089775","6501400","蘆洲區"
"247016","007-UY","2018/03/15 19:59:16","新北市蘆洲區中正路100號","121.469878333333","25.0841133333333","6501400","蘆洲區"
"247002","002-UY","2018/03/15 19:59:26","新北市蘆洲區長安街270號","121.457501666667","25.0868783333333","6501400","蘆洲區"
"226004","205-ST","2018/03/15 19:59:23","新北市平溪區靜安路二段530巷7號","121.745096666667","25.0274016666667","6502400","平溪區"
"228003","097-TW","2018/03/15 19:59:21","新北市貢寮區仁理村仁和路148號","121.92315","25.0517183333333","6502600","貢寮區"
"224010","AGQ-8101","2018/03/15 19:59:17","新北市瑞芳區輕便路53號","121.84522","25.110255","6501200","瑞芳區"
"224002","640-TC","2018/03/15 19:59:25","新北市瑞芳區員山子路員山巷1號","121.816881666667","25.10361","6501200","瑞芳區"
"227010","642-TC","2018/03/15 19:59:21","新北市雙溪區新基里新基南街25號","121.866236666667","25.038175","6502500","雙溪區"
"227004","400-TW","2018/03/15 19:59:19","新北市雙溪區雙溪里長安街16號","121.86497","25.0347033333333","6502500","雙溪區"
"222001","KEA-2212","2018/03/15 19:59:14","新北市深坑區北深路三段143號","121.603633333333","25.0027533333333","6501800","深坑區"
"208002","KEA-2872","2018/03/15 19:59:14","新北市金山區環金路91號","121.636741666667","25.2172266666667","6502700","金山區"
"208003","665-BX","2018/03/15 19:59:09","新北市金山區永興里跳石4號","121.63388","25.2543516666667","6502700","金山區"
"208001","761-BX","2018/03/15 19:59:28","新北市金山區南勢52號","121.627755","25.2205316666667","6502700","金山區"
"251009","008-UM","2018/03/15 19:59:18","新北市淡水區英專路28巷5號","121.445938333333","25.1699433333333","6501000","淡水區"
"251004","009-UM","2018/03/15 19:59:28","新北市淡水區民權路177巷9號","121.460705","25.1353383333333","6501000","淡水區"
"251005","010-UM","2018/03/15 19:59:11","新北市淡水區學府路136巷19號","121.451398333333","25.172775","6501000","淡水區"
"251002","012-UM","2018/03/15 19:59:24","新北市淡水區沙崙路129號","121.422685","25.1824366666667","6501000","淡水區"
"251013","179-VK","2018/03/15 19:59:18","新北市淡水區奎柔山路63號","121.45171","25.2061983333333","6501000","淡水區"
"251014","180-VK","2018/03/15 19:59:12","新北市淡水區石頭厝12-3號","121.461686666667","25.2364433333333","6501000","淡水區"
"251008","181-VK","2018/03/15 19:59:21","新北市淡水區淡海路57號","121.422833333333","25.1808216666667","6501000","淡水區"
"251015","182-VK","2018/03/15 19:59:16","新北市淡水區商工路309號","121.456393333333","25.1865116666667","6501000","淡水區"
"251012","441-VK","2018/03/15 19:57:17","新北市淡水區下圭柔山100-2號","121.441003333333","25.21148","6501000","淡水區"
"251016","442-VK","2018/03/15 19:59:16","新北市淡水區興仁路159號","121.450343333333","25.219485","6501000","淡水區"
"251006","561-UM","2018/03/15 19:59:29","新北市淡水區水碓街28號","121.444101666667","25.17736","6501000","淡水區"
"251007","577-R6","2018/03/15 19:59:11","新北市淡水區水源街一段145號","121.447436666667","25.1718316666667","6501000","淡水區"
"251011","650-BX","2018/03/15 19:59:22","新北市淡水區崁頂57-7號","121.442626666667","25.19733","6501000","淡水區"
"251003","766-UM","2018/03/15 19:59:20","新北市淡水區崁頂75-2號","121.435236666667","25.20379","6501000","淡水區"
"207003","550-UM","2018/03/15 19:59:19","新北市萬里區磺潭里公館崙5號","121.641906666667","25.2142433333333","6502800","萬里區"
"207004","225-TW","2018/03/15 19:59:25","新北市萬里區北基里忠二街35號","121.685623333333","25.1757416666667","6502800","萬里區"
"252002","178-VK","2018/03/15 19:59:16","新北市三芝區三民街39巷5號","121.505408333333","25.257755","6502100","三芝區"
"252001","292-VK","2018/03/15 19:59:10","新北市三芝區公正街9號","121.499746666667","25.2574633333333","6502100","三芝區"
"237004","KEA-2597","2018/03/15 19:59:11","新北市三峽區添福15-5號","121.372023333333","24.9059233333333","6500900","三峽區"
"237007","153-BY","2018/03/15 19:59:21","新北市三峽區麻園46號","121.363831666667","24.9212733333333","6500900","三峽區"
"237009","210-TH","2018/03/15 19:59:26","新北市三峽區清水街425號","121.368713333333","24.92617","6500900","三峽區"
"237013","252-BX","2018/03/15 19:59:15","新北市三峽區介壽路二段53號","121.389531666667","24.9362833333333","6500900","三峽區"
"237012","275-BY","2018/03/15 19:59:28","新北市三峽區中華路3巷2-7號","121.374958333333","24.931665","6500900","三峽區"
"237008","302-VK","2018/03/15 19:59:14","新北市三峽區安溪路351號","121.37005","24.9260633333333","6500900","三峽區"
"237014","433-BY","2018/03/15 19:59:10","新北市三峽區添福13-34號","121.374581666667","24.9082666666667","6500900","三峽區"
"237006","5529-G3","2018/03/15 19:59:18","新北市三峽區中正路二段168號","121.366048333333","24.9157766666667","6500900","三峽區"
"237016","649-BX","2018/03/15 19:59:10","新北市三峽區橫溪路99巷71-1號","121.400903333333","24.9376466666667","6500900","三峽區"
"237005","AKY-6261","2018/03/15 19:59:24","新北市三峽區三樹路44巷19號","121.378535","24.9375433333333","6500900","三峽區"
"236071","105-UM","2018/03/15 19:59:16","新北市土城區忠義路77號","121.443026666667","24.9650616666667","6501300","土城區"
"236042","107-UM","2018/03/15 19:59:17","新北市土城區學府路一段143巷3號","121.453843333333","24.9859633333333","6501300","土城區"
"236053","137-TH","2018/03/15 19:59:16","新北市土城區延和路19號","121.464398333333","24.9883433333333","6501300","土城區"
"236078","166-UM","2018/03/15 19:59:19","新北市土城區福安街73號","121.416881666667","24.9637016666667","6501300","土城區"
"236030","253-BX","2018/03/15 19:59:23","新北市土城區中央路一段252-1號","121.444338333333","24.9845883333333","6501300","土城區"
"236026","269-VK","2018/03/15 19:59:09","新北市土城區中央路二段89號","121.44235","24.9780933333333","6501300","土城區"
"236014","270-VK","2018/03/15 19:59:20","新北市土城區廣福街123號","121.456203333333","24.992935","6501300","土城區"
"236037","271-VK","2018/03/15 19:59:21","新北市土城區國際路52號","121.466561666667","24.978295","6501300","土城區"
"236021","401-BY","2018/03/15 19:59:15","新北市土城區延吉街137巷2弄2號","121.470746666667","24.986105","6501300","土城區"
"236062","752-BX","2018/03/15 19:59:15","新北市土城區延和路121號","121.468523333333","24.9904766666667","6501300","土城區"
"236058","912-UM","2018/03/15 19:59:13","新北市土城區中央路一段223號","121.445675","24.9864866666667","6501300","土城區"
"236051","913-UM","2018/03/15 19:59:23","新北市中和區連城路631-2號","121.475575","24.9913433333333","6501300","土城區"
"242034","AAC-296","2018/03/15 19:59:27","新北市新莊區建中街70號","121.447558333333","25.0370266666667","6500500","新莊區"
"242058","986-R7","2018/03/15 19:59:14","新北市新莊區八德街109號","121.424128333333","25.0210133333333","6500500","新莊區"
"242053","751-BX","2018/03/15 19:59:20","新北市新莊區西盛街418號","121.427213333333","25.012155","6500500","新莊區"
"242029","705-TV","2018/03/15 19:59:24","新北市新莊區中榮街83號","121.445348333333","25.0528733333333","6500500","新莊區"
"242025","613-BX","2018/03/15 19:59:18","新北市新莊區五工一路91號","121.461121666667","25.0677816666667","6500500","新莊區"
"242002","442-UM","2018/03/15 19:59:13","新北市新莊區中正路219號","121.450873333333","25.0357833333333","6500500","新莊區"
"242051","441-UM","2018/03/15 19:59:11","新北市新莊區西盛街137號","121.428255","25.01857","6500500","新莊區"
"242056","440-UM","2018/03/15 19:59:15","新北市新莊區中正路347巷18號","121.447116666667","25.03434","6500500","新莊區"
"242036","415-TV","2018/03/15 19:59:23","新北市新莊區建安街37號","121.428933333333","25.025625","6500500","新莊區"
"242044","400-BY","2018/03/15 19:59:24","新北市新莊區中正路746巷43-3號","121.411856666667","25.0243533333333","6500500","新莊區"
"242023","362-BY","2018/03/15 19:59:20","新北市新莊區化成路354號","121.465803333333","25.049265","6500500","新莊區"
"242061","353-BY","2018/03/15 19:59:09","新北市新莊區瓊林路72號","121.445135","25.0286533333333","6500500","新莊區"
"242019","133-UY","2018/03/15 19:59:24","新北市新莊區民生街15巷3號","121.45559","25.0424516666667","6500500","新莊區"
"242031","135-UY","2018/03/15 19:59:23","新北市新莊區公園一路63號","121.443075","25.036555","6500500","新莊區"
"242048","172-VK","2018/03/15 19:59:24","新北市新莊區富國路160號","121.423441666667","25.0247983333333","6500500","新莊區"
"242017","175-VK","2018/03/15 19:59:17","新北市新莊區中華路二段45巷2號","121.452861666667","25.04654","6500500","新莊區"
"242004","176-VK","2018/03/15 19:59:26","新北市新莊區化成路205-47號","121.465773333333","25.051115","6500500","新莊區"
"242015","346-TH","2018/03/15 19:59:30","新北市新莊區復興路一段33巷7號","121.4462","25.04233","6500500","新莊區"
"242021","348-TH","2018/03/15 19:59:25","新北市新莊區建中街16巷34號","121.448915","25.03868","6500500","新莊區"
"242013","351-TH","2018/03/15 19:59:27","新北市新莊區幸福路670巷2弄1號","121.45095","25.049505","6500500","新莊區"
"238015","755-BX","2018/03/15 19:59:08","新北市樹林區中山路三段210-2號","121.381921666667","24.9657883333333","6500700","樹林區"
"238023","601-UM","2018/03/15 19:59:28","新北市樹林區中正路161號","121.424126666667","25.0021666666667","6500700","樹林區"
"238021","KEA-2539","2018/03/15 19:59:21","新北市樹林區佳園路三段101巷120號","121.396283333333","24.9504716666667","6500700","樹林區"
"238017","283-BY","2018/03/15 19:59:15","新北市樹林區保安街二段45巷19號","121.414808333333","24.9999083333333","6500700","樹林區"
"239006","891-R6","2018/03/15 19:59:27","新北市鶯歌區文化路124號","121.351848333333","24.95188","6500800","鶯歌區"
"221008","489-VK","2018/03/15 19:59:19","新北市汐止區忠一街9巷7號","121.62052","25.0732016666667","6501100","汐止區"
"221036","130-UY","2018/03/15 19:59:19","新北市汐止區忠孝東路258巷11弄2號","121.663723333333","25.0671983333333","6501100","汐止區"
"221010","269-BY","2018/03/15 19:59:07","新北市汐止區八連路一段86巷12號","121.644555","25.0806733333333","6501100","汐止區"
"221012","278-VK","2018/03/15 19:59:12","新北市汐止區大同路三段457號","121.67872","25.07123","6501100","汐止區"
"221023","279-VK","2018/03/15 19:59:19","新北市汐止區明峰街185號","121.628245","25.06964","6501100","汐止區"
"221032","280-BY","2018/03/15 19:59:26","新北市汐止區橫科路18巷6號","121.617813333333","25.0506366666667","6501100","汐止區"
"221027","281-BY","2018/03/15 19:59:21","新北市汐止區中正路87號","121.66126","25.06944","6501100","汐止區"
"221033","297-VK","2018/03/15 19:59:12","新北市汐止區東勢街201巷104號","121.633425","25.0429666666667","6501100","汐止區"
"221029","298-VK","2018/03/15 19:59:23","新北市汐止區樟樹一路137巷26號","121.640886666667","25.0659666666667","6501100","汐止區"
"221021","299-VK","2018/03/15 19:59:13","新北市汐止區水源路一段132號","121.656136666667","25.0627083333333","6501100","汐止區"
"221031","353-TW","2018/03/15 19:59:19","新北市汐止區福德一路176巷1弄1號","121.635623333333","25.066285","6501100","汐止區"
"221035","622-UM","2018/03/15 19:59:25","新北市汐止區長江街43號","121.655695","25.0713966666667","6501100","汐止區"
"221025","623-UM","2018/03/15 19:59:25","新北市汐止區秀峰路109巷12號","121.66051","25.0634266666667","6501100","汐止區"
"221038","646-BX","2018/03/15 19:59:16","新北市汐止區忠孝東路512號","121.666828333333","25.0754683333333","6501100","汐止區"
"221002","707-TV","2018/03/15 19:59:21","新北市汐止區大同路一段219巷27號","121.63329","25.0583683333333","6501100","汐止區"
"221018","753-BX","2018/03/15 19:59:22","新北市汐止區忠孝東路397號","121.665705","25.0708516666667","6501100","汐止區"
"220079","145-BY","2018/03/15 19:59:17","新北市新莊區中正路457巷25號","121.442245","25.0331383333333","6500100","板橋區"
"220080","200-UY","2018/03/15 19:59:28","新北市板橋區大觀路二段179巷33號","121.446425","24.999495","6500100","板橋區"
"220106","KEA-2550","2018/03/15 19:59:24","新北市板橋區民治街52巷20號","121.478821666667","25.0328683333333","6500100","板橋區"
"220082","610-BX","2018/03/15 19:59:21","新北市板橋區金門街184-1號","121.432611666667","24.990875","6500100","板橋區"
"220101","245-BX","2018/03/15 19:59:25","新北市板橋區莒光路180巷23號","121.473036666667","25.0227883333333","6500100","板橋區"
"220072","277-BY","2018/03/15 19:59:16","新北市板橋區篤行路二段1巷5-3號","121.432273333333","24.9929383333333","6500100","板橋區"
"220064","282-UM","2018/03/15 19:59:26","新北市板橋區區運路45號","121.466451666667","25.01049","6500100","板橋區"
"220094","283-UM","2018/03/15 19:59:25","新北市板橋區文德路13號","121.462455","25.0243","6500100","板橋區"
"220071","283-VK","2018/03/15 19:59:03","新北市板橋區五權街30巷24弄27號","121.463596666667","24.9937133333333","6500100","板橋區"
"220053","285-VK","2018/03/15 19:59:16","新北市板橋區永豐街53號","121.474023333333","25.0181366666667","6500100","板橋區"
"220083","286-VK","2018/03/15 19:59:26","新北市板橋區僑中二街16號","121.446193333333","25.0106583333333","6500100","板橋區"
"220081","287-VK","2018/03/15 19:59:15","新北市板橋區大觀路一段28巷88號","121.449936666667","25.01106","6500100","板橋區"
"220090","288-VK","2018/03/15 19:59:17","新北市板橋區新海路109巷1弄2號","121.46073","25.02242","6500100","板橋區"
"220061","293-UM","2018/03/15 19:59:09","新北市板橋區觀光街3巷16-4號","121.47136","25.01554","6500100","板橋區"
"220062","295-UM","2018/03/15 19:59:17","新北市板橋區光復街172巷31弄5-2號","121.486246666667","25.0189866666667","6500100","板橋區"
"220084","296-UM","2018/03/15 19:59:17","新北市樹林區博愛街179號","121.424925","24.9891116666667","6500100","板橋區"
"242011","281-VK","2018/03/15 19:59:22","新北市新莊區中港路531巷54號","121.450083333333","25.0515466666667","6500500","新莊區"
"220075","303-R5","2018/03/15 19:59:19","新北市板橋區金華街10巷105號","121.459225","25.02051","6500100","板橋區"
"220092","307-R5","2018/03/15 19:59:15","新北市板橋區幸福路60巷51號","121.460151666667","25.0212416666667","6500100","板橋區"
"220098","317-R6","2018/03/15 19:59:16","新北市板橋區文德路47號","121.461726666667","25.0237483333333","6500100","板橋區"
"220089","487-VK","2018/03/15 19:59:20","新北市板橋區新海路385巷34弄2號","121.457431666667","25.025515","6500100","板橋區"
"242039","280-VK","2018/03/15 19:59:28","新北市新莊區民安路299巷19號","121.428861666667","25.0230833333333","6500500","新莊區"
"220088","491-VK","2018/03/15 19:59:06","新北市板橋區文聖街147號","121.478488333333","25.0281033333333","6500100","板橋區"
"220103","561-BX","2018/03/15 19:59:08","新北市板橋區陽明街29巷1弄13號","121.46456","25.0217183333333","6500100","板橋區"
"220063","609-BX","2018/03/15 19:59:21","新北市板橋區中山路二段111號","121.474543333333","25.0161083333333","6500100","板橋區"
"220091","637-BX","2018/03/15 19:59:25","新北市板橋區民治街119巷7號","121.478526666667","25.030655","6500100","板橋區"
"220057","686-BX","2018/03/15 19:59:21","新北市板橋區四川路二段132號","121.45001","24.99372","6500100","板橋區"
"220093","689-BX","2018/03/15 19:59:11","新北市板橋區長江路三段120號","121.475155","25.0344216666667","6500100","板橋區"
"220054","741-BX","2018/03/15 19:59:11","新北市板橋區實踐路93巷14號","121.46458","25.0053666666667","6500100","板橋區"
"220102","KEA-2699","2018/03/15 19:59:23","新北市板橋區仁化街67號","121.475686666667","25.0318133333333","6500100","板橋區"
"220055","827-TW","2018/03/15 19:59:10","新北市板橋區仁愛路64號","121.459858333333","24.99945","6500100","板橋區"
"220067","830-TW","2018/03/15 19:59:24","新北市板橋區漢生東路193巷75號","121.472538333333","25.01182","6500100","板橋區"
"220096","831-TW","2018/03/15 19:59:27","新北市板橋區莒光路16巷19號","121.469483333333","25.02396","6500100","板橋區"
"220074","895-R6","2018/03/15 19:59:23","新北市板橋區縣民大道二段1號","121.461748333333","25.0116183333333","6500100","板橋區"
"220073","985-R7","2018/03/15 19:59:25","新北市板橋區南雅西路二段130號","121.451993333333","25.012665","6500100","板橋區"
"220097","AAC-210","2018/03/15 19:59:25","新北市板橋區漢生西路58巷1弄1號","121.463348333333","25.0189266666667","6500100","板橋區"
"220070","AAC-253","2018/03/15 19:59:23","新北市板橋區四川路二段2號","121.456646666667","24.9965416666667","6500100","板橋區"
