"lineid","car","time","location","longitude","latitude","cityid","cityname"
"234064","337-UY","2018/03/15 20:39:20","新北市永和區林森路81號","121.52388","25.0039466666667","6500400","永和區"
"234050","863-TW","2018/03/15 20:39:22","新北市永和區光復街4號","121.516288333333","25.016765","6500400","永和區"
"249001","173-UM","2018/03/15 20:39:14","新北市八里區下罟子23號","121.376986666667","25.1387483333333","6502300","八里區"
"249004","303-UY","2018/03/15 20:37:20","新北市八里區中山路一段157巷19號","121.41307","25.1582216666667","6502300","八里區"
"249002","305-UY","2018/03/15 20:39:36","新北市八里區龍米路三段58號","121.424516666667","25.1591633333333","6502300","八里區"
"249003","593-UM","2018/03/15 20:39:29","新北市八里區中山路三段378號","121.368636666667","25.1362633333333","6502300","八里區"
"234023","9380-KE","2018/03/15 20:39:18","新北市永和區竹林路25巷21號","121.518171666667","25.0149583333333","6500400","永和區"
"234074","AAC-211","2018/03/15 20:39:14","新北市永和區竹林路119巷9號","121.52065","25.0114583333333","6500400","永和區"
"243011","297-R6","2018/03/15 20:39:23","新北市泰山區公園路2號","121.430121666667","25.054005","6501600","泰山區"
"243010","KEA-2215","2018/03/15 20:39:20","新北市泰山區泰林路二段608號","121.42123","25.0637933333333","6501600","泰山區"
"243013","646-TV","2018/03/15 20:39:19","新北市泰山區橫窠雅36號","121.403591666667","25.0722883333333","6501600","泰山區"
"243016","680-BX","2018/03/15 20:39:24","新北市泰山區文程路1號","121.427673333333","25.0496283333333","6501600","泰山區"
"222003","436-BY","2018/03/15 20:39:30","新北市深坑區阿柔洋25-1號","121.613236666667","24.9989316666667","6501800","深坑區"
"222002","659-BX","2018/03/15 20:39:32","新北市深坑區萬福路45號","121.599471666667","25.0068116666667","6501800","深坑區"
"231041","002-UM","2018/03/15 20:39:18","新北市新店區中正路543-4號","121.533746666667","24.9874366666667","6500600","新店區"
"231059","046-UY","2018/03/15 20:39:25","新北市新店區僑信路132巷25號","121.500015","24.94542","6500600","新店區"
"231061","047-UY","2018/03/15 20:39:21","新北市新店區新和街59巷2號","121.52007","24.9856516666667","6500600","新店區"
"231060","106-UY","2018/03/15 20:39:33","新北市新店區安康路三段740號","121.47381","24.9419833333333","6500600","新店區"
"231051","107-UY","2018/03/15 20:39:26","新北市新店區中央八街86號","121.52701","24.9773816666667","6500600","新店區"
"231047","108-UY","2018/03/15 20:39:27","新北市新店區寶慶街12-2號","121.543278333333","24.9868283333333","6500600","新店區"
"231052","187-VK","2018/03/15 20:39:32","新北市新店區松林路1號","121.546815","24.911895","6500600","新店區"
"231050","KEA-2219","2018/03/15 20:39:19","新北市新店區中正路263巷3號","121.538341666667","24.9735016666667","6500600","新店區"
"221015","KEA-2785","2018/03/15 20:39:29","新北市汐止區建成路37巷1號","121.663708333333","25.0728216666667","6501100","汐止區"
"231057","256-BX","2018/03/15 20:39:35","新北市新店區花園六路二段7號","121.55534","24.9331966666667","6500600","新店區"
"231054","AAD-862","2018/03/15 20:39:21","新北市新店區北新路一段64巷39弄4號","121.542556666667","24.9657933333333","6500600","新店區"
"231058","3712-VJ","2018/03/15 20:39:18","新北市新店區平等街35號","121.53655","24.9734733333333","6500600","新店區"
"231056","3713-VJ","2018/03/15 20:39:20","新北市新店區中央路2號","121.533951666667","24.9792916666667","6500600","新店區"
"231065","512-UM","2018/03/15 20:39:25","新北市新店區安祥路104巷47號","121.482675","24.9635133333333","6500600","新店區"
"231049","513-UM","2018/03/15 20:39:14","新北市新店區永業路81巷3弄33號","121.530808333333","24.9501933333333","6500600","新店區"
"231064","515-UM","2018/03/15 20:39:18","新北市中和區景新街561號","121.515623333333","24.9864016666667","6500600","新店區"
"231040","619-UM","2018/03/15 20:39:26","新北市新店區中正路272號","121.538913333333","24.97357","6500600","新店區"
"231042","641-BX","2018/03/15 20:39:18","新北市新店區寶高路118號","121.554458333333","24.975995","6500600","新店區"
"231063","645-TV","2018/03/15 20:39:32","新北市新店區玫瑰路4-1號","121.493601666667","24.9513566666667","6500600","新店區"
"231068","718-UY","2018/03/15 20:39:17","新北市新店區寶元路一段85巷8號","121.54312","24.9858733333333","6500600","新店區"
"231062","720-UM","2018/03/15 20:39:22","新北市新店區裕合街24號","121.489311666667","24.94997","6500600","新店區"
"231044","897-TW","2018/03/15 20:39:22","新北市新店區建國路257號","121.537365","24.98346","6500600","新店區"
"231045","898-TW","2018/03/15 20:39:21","新北市新店區長春路39號","121.549855","24.9574716666667","6500600","新店區"
"231043","899-TW","2018/03/15 20:39:16","新北市新店區建國路29號","121.540243333333","24.97408","6500600","新店區"
"231066","AKT-0513","2018/03/15 20:39:26","新北市新店區安民街341-1號","121.516811666667","24.974865","6500600","新店區"
"241011","013-R5","2018/03/15 20:39:28","新北市三重區龍濱路285號","121.501136666667","25.0733716666667","6500200","三重區"
"241028","022-UY","2018/03/15 20:39:15","新北市三重區光興街89號","121.497451666667","25.0599633333333","6500200","三重區"
"241008","059-VK","2018/03/15 20:39:17","新北市三重區下竹圍街42-1號","121.48103","25.0748233333333","6500200","三重區"
"241009","060-VK","2018/03/15 20:39:19","新北市三重區碧華街57號","121.484726666667","25.0812483333333","6500200","三重區"
"241031","061-VK","2018/03/15 20:39:18","新北市三重區重陽路一段113巷1弄51號","121.488143333333","25.05852","6500200","三重區"
"241015","062-VK","2018/03/15 20:39:23","新北市三重區文化北路103號","121.497835","25.0684116666667","6500200","三重區"
"241017","063-VK","2018/03/15 20:39:30","新北市三重區大同北路265號","121.490891666667","25.067265","6500200","三重區"
"241024","065-VK","2018/03/15 20:39:30","新北市三重區三民街225號","121.480465","25.067065","6500200","三重區"
"241026","066-VK","2018/03/15 20:39:16","新北市三重區文化南路7號","121.499965","25.06237","6500200","三重區"
"241002","090-VK","2018/03/15 20:39:24","新北市三重區仁義街167巷38弄2號","121.498731666667","25.0827566666667","6500200","三重區"
"241003","091-VK","2018/03/15 20:39:23","新北市三重區五華街141巷58號","121.493515","25.0867316666667","6500200","三重區"
"241005","262-UM","2018/03/15 20:39:23","新北市三重區碧華街438號","121.492811666667","25.0857416666667","6500200","三重區"
"241016","265-UM","2018/03/15 20:39:26","新北市三重區長壽西街143-2號","121.494541666667","25.06674","6500200","三重區"
"241022","267-UM","2018/03/15 20:39:22","新北市三重區新北大道一段10號","121.488523333333","25.06198","6500200","三重區"
"241018","268-UM","2018/03/15 20:39:24","新北市三重區自強路一段207號","121.491555","25.0684033333333","6500200","三重區"
"241032","269-UM","2018/03/15 20:39:23","新北市三重區重陽路一段120巷46號","121.485086666667","25.060135","6500200","三重區"
"241013","270-UM","2018/03/15 20:39:16","新北市三重區三和路四段83號","121.489335","25.0754083333333","6500200","三重區"
"241025","271-UM","2018/03/15 20:39:17","新北市三重區大有街1-32號","121.47668","25.0653266666667","6500200","三重區"
"241007","398-BY","2018/03/15 20:39:01","新北市三重區三和路四段97-15號","121.488045","25.0767783333333","6500200","三重區"
"241035","KEA-2210","2018/03/15 20:39:19","新北市三重區正義北路258號","121.49595","25.068585","6500200","三重區"
"241020","413-TH","2018/03/15 20:39:16","新北市三重區重陽路四段121號","121.493335","25.07208","6500200","三重區"
"241004","475-VK","2018/03/15 20:39:15","新北市三重區仁愛街442號","121.489296666667","25.08196","6500200","三重區"
"241001","478-VK","2018/03/15 20:39:20","新北市三重區自強路三段110巷2號","121.486896666667","25.0746866666667","6500200","三重區"
"241030","480-VK","2018/03/15 20:39:20","新北市三重區成功路73巷12號","121.4894","25.0518966666667","6500200","三重區"
"241014","543-UM","2018/03/15 20:39:22","新北市三重區萬壽街7號","121.4994","25.0693266666667","6500200","三重區"
"241023","545-UM","2018/03/15 20:39:23","新北市三重區自由街35巷2號","121.47895","25.0669566666667","6500200","三重區"
"241019","KEA-2593","2018/03/15 20:39:34","新北市三重區重陽路四段126巷24號","121.491841666667","25.07096","6500200","三重區"
"241012","941-UM","2018/03/15 20:39:31","新北市三重區秀江街26號","121.50254","25.073025","6500200","三重區"
"241029","942-UM","2018/03/15 20:39:24","新北市三重區集美街126巷27號","121.490026666667","25.0538383333333","6500200","三重區"
"241033","AAC-255","2018/03/15 20:39:20","新北市三重區光復路二段87巷45號","121.474891666667","25.0579866666667","6500200","三重區"
"235069","4980-A6","2018/03/15 20:39:30","新北市中和區連城路347巷18弄32號","121.487331666667","24.9947566666667","6500300","中和區"
"235070","558-UM","2018/03/15 20:39:22","新北市八里區下罟子8-10號","121.383801666667","25.1446383333333","6500300","中和區"
"235026","800-TS","2018/03/15 20:19:48","新北市中和區員山路36巷16-3號","121.484776666667","24.991645","6500300","中和區"
"247024","893-R6","2018/03/15 20:39:30","新北市蘆洲區長樂路41號","121.463163333333","25.085945","6501400","蘆洲區"
"247014","546-UM","2018/03/15 20:39:26","新北市蘆洲區中山一路238號","121.472531666667","25.0802416666667","6501400","蘆洲區"
"247022","500-BY","2018/03/15 20:39:26","新北市蘆洲區中正路243巷7弄1號","121.467213333333","25.0863516666667","6501400","蘆洲區"
"247010","341-TH","2018/03/15 20:39:31","新北市蘆洲區集賢路400號","121.48016","25.082035","6501400","蘆洲區"
"247012","339-TH","2018/03/15 20:39:27","新北市蘆洲區集賢路224巷62號","121.480883333333","25.0881416666667","6501400","蘆洲區"
"247004","337-TH","2018/03/15 20:39:35","新北市蘆洲區長安街297號","121.458038333333","25.0848416666667","6501400","蘆洲區"
"247006","336-TH","2018/03/15 20:39:29","新北市蘆洲區和平路130號","121.467203333333","25.0804","6501400","蘆洲區"
"247008","056-VK","2018/03/15 20:39:24","新北市蘆洲區重陽一街38號","121.480936666667","25.0818333333333","6501400","蘆洲區"
"247020","053-VK","2018/03/15 20:39:27","新北市蘆洲區民族路424號","121.473906666667","25.0918066666667","6501400","蘆洲區"
"247016","007-UY","2018/03/15 20:39:29","新北市蘆洲區中山二路143號","121.471638333333","25.0814866666667","6501400","蘆洲區"
"247002","002-UY","2018/03/15 20:39:17","新北市蘆洲區長安街375巷2號","121.457078333333","25.0878633333333","6501400","蘆洲區"
"222001","KEA-2212","2018/03/15 20:39:34","新北市深坑區北深路三段228號","121.600775","25.0039233333333","6501800","深坑區"
"251001","011-UM","2018/03/15 20:39:22","新北市淡水區竿蓁二街85號","121.456343333333","25.163325","6501000","淡水區"
"251002","012-UM","2018/03/15 20:39:24","新北市淡水區中正路36號","121.443763333333","25.169225","6501000","淡水區"
"251013","179-VK","2018/03/15 20:39:18","新北市淡水區下圭柔山28巷9號","121.457545","25.2039683333333","6501000","淡水區"
"251014","180-VK","2018/03/15 20:39:32","新北市淡水區桂竹圍10-1號","121.470895","25.2317216666667","6501000","淡水區"
"251015","182-VK","2018/03/15 20:39:16","新北市淡水區興仁路162號","121.451596666667","25.22077","6501000","淡水區"
"251010","413-VK","2018/03/15 20:39:27","新北市淡水區沙崙路181巷15號","121.42399","25.1843333333333","6501000","淡水區"
"251012","441-VK","2018/03/15 20:39:17","新北市淡水區興仁路108號","121.451648333333","25.2181383333333","6501000","淡水區"
"251016","442-VK","2018/03/15 20:39:17","新北市淡水區後洲子8-2號","121.44954","25.2240316666667","6501000","淡水區"
"251006","561-UM","2018/03/15 20:39:29","新北市淡水區商工路186巷21號","121.450713333333","25.1870583333333","6501000","淡水區"
"251011","650-BX","2018/03/15 20:39:22","新北市淡水區新市一路一段361號","121.436255","25.18622","6501000","淡水區"
"251003","766-UM","2018/03/15 20:39:20","新北市淡水區新民街108號","121.43794","25.1772183333333","6501000","淡水區"
"252002","178-VK","2018/03/15 20:39:16","新北市三芝區淡金路二段47-2號","121.503668333333","25.2605033333333","6502100","三芝區"
"252001","292-VK","2018/03/15 20:39:30","新北市三芝區中山路一段77號","121.501251666667","25.2569666666667","6502100","三芝區"
"236030","253-BX","2018/03/15 20:39:23","新北市樹林區中山路三段214號","121.380183333333","24.9679733333333","6501300","土城區"
"242034","AAC-296","2018/03/15 20:39:28","新北市新莊區中正路399號","121.445375","25.034505","6500500","新莊區"
"242058","986-R7","2018/03/15 20:39:14","新北市新莊區民安路144巷9號","121.42413","25.0252483333333","6500500","新莊區"
"242053","751-BX","2018/03/15 20:39:20","新北市新莊區西盛街324巷6號","121.427646666667","25.014775","6500500","新莊區"
"242029","705-TV","2018/03/15 20:39:24","新北市新莊區昌隆街3巷1弄2號","121.454113333333","25.0513266666667","6500500","新莊區"
"242027","615-BX","2018/03/15 20:39:30","新北市新莊區思源路56號","121.459968333333","25.04433","6500500","新莊區"
"242025","613-BX","2018/03/15 20:39:18","新北市新莊區化成路579巷1號","121.464336666667","25.066015","6500500","新莊區"
"242042","566-BX","2018/03/15 20:39:25","新北市新莊區中正路694巷3弄11號","121.417955","25.028005","6500500","新莊區"
"242046","497-BY","2018/03/15 20:39:16","新北市新莊區龍安路249巷1號","121.419076666667","25.0206683333333","6500500","新莊區"
"242002","442-UM","2018/03/15 20:39:33","新北市新莊區明中街12-25號","121.457936666667","25.0390433333333","6500500","新莊區"
"242051","441-UM","2018/03/15 20:39:35","新北市新莊區西盛街265號","121.428165","25.0156733333333","6500500","新莊區"
"242056","440-UM","2018/03/15 20:39:35","新北市新莊區瓊泰路68號","121.44326","25.0288783333333","6500500","新莊區"
"242036","415-TV","2018/03/15 20:39:23","新北市新莊區建安街10號","121.428633333333","25.0266216666667","6500500","新莊區"
"242044","400-BY","2018/03/15 20:39:24","新北市新莊區龍安路90號","121.417633333333","25.0207566666667","6500500","新莊區"
"242023","362-BY","2018/03/15 20:39:19","新北市新莊區化成路37號","121.465178333333","25.0445016666667","6500500","新莊區"
"242061","353-BY","2018/03/15 20:39:29","新北市新莊區新樹路258巷3號","121.432155","25.015525","6500500","新莊區"
"242009","132-UY","2018/03/15 20:39:19","新北市新莊區昌盛街103巷12號","121.456106666667","25.05059","6500500","新莊區"
"242019","133-UY","2018/03/15 20:39:24","新北市新莊區銘德街104號","121.455645","25.0433916666667","6500500","新莊區"
"242031","135-UY","2018/03/15 20:39:33","新北市新莊區三泰路58號","121.433795","25.03768","6500500","新莊區"
"242048","172-VK","2018/03/15 20:39:24","新北市新莊區中正路657-10號","121.428526666667","25.0307216666667","6500500","新莊區"
"242017","175-VK","2018/03/15 20:39:17","新北市新莊區中港三街145號","121.448033333333","25.0459483333333","6500500","新莊區"
"242015","346-TH","2018/03/15 20:39:28","新北市新莊區中和街1號","121.448398333333","25.04294","6500500","新莊區"
"242021","348-TH","2018/03/15 20:39:22","新北市新莊區中華路一段73號","121.452228333333","25.0400416666667","6500500","新莊區"
"242013","351-TH","2018/03/15 20:39:27","新北市新莊區中和街171號","121.44749","25.0504416666667","6500500","新莊區"
"221008","489-VK","2018/03/15 20:39:19","新北市汐止區康寧街861巷3號","121.645306666667","25.076095","6501100","汐止區"
"221036","130-UY","2018/03/15 20:39:19","新北市汐止區新昌路35號","121.662371666667","25.0679883333333","6501100","汐止區"
"221012","278-VK","2018/03/15 20:39:32","新北市汐止區大同路三段211號","121.67262","25.076715","6501100","汐止區"
"221023","279-VK","2018/03/15 20:39:19","新北市汐止區民族二街30巷7號","121.63465","25.0717466666667","6501100","汐止區"
"221032","280-BY","2018/03/15 20:39:26","新北市汐止區民權街二段28號","121.619393333333","25.0499966666667","6501100","汐止區"
"221027","281-BY","2018/03/15 20:39:21","新北市汐止區大同路二段565號","121.662773333333","25.0698866666667","6501100","汐止區"
"221033","297-VK","2018/03/15 20:39:12","台北市南港區合順街8巷7弄38號","121.620265","25.0419166666667","6501100","汐止區"
"221029","298-VK","2018/03/15 20:39:29","新北市汐止區新台五路一段79-11號","121.645533333333","25.0621566666667","6501100","汐止區"
"221021","299-VK","2018/03/15 20:39:33","新北市汐止區水源路一段284號","121.654286666667","25.05833","6501100","汐止區"
"221031","353-TW","2018/03/15 20:39:19","新北市汐止區中興路27巷21號","121.634078333333","25.0608383333333","6501100","汐止區"
"221035","622-UM","2018/03/15 20:39:25","新北市汐止區長江街101-5號","121.658701666667","25.0731983333333","6501100","汐止區"
"221025","623-UM","2018/03/15 20:39:25","新北市汐止區水源路二段221號","121.65832","25.0518416666667","6501100","汐止區"
"221038","646-BX","2018/03/15 20:39:36","新北市汐止區汐萬路一段150號","121.652776666667","25.0712783333333","6501100","汐止區"
"221002","707-TV","2018/03/15 20:39:21","新北市汐止區福德二路132巷2號","121.631113333333","25.0653016666667","6501100","汐止區"
"221018","753-BX","2018/03/15 20:39:30","新北市汐止區中華街15號","121.666808333333","25.071025","6501100","汐止區"
"220083","286-VK","2018/03/15 20:39:23","新北市板橋區僑中二街116巷21號","121.44472","25.0065416666667","6500100","板橋區"
"242011","281-VK","2018/03/15 20:39:22","新北市新莊區中榮街122巷20號","121.44665","25.0536133333333","6500500","新莊區"
"242039","280-VK","2018/03/15 20:39:32","新北市新莊區民安路426-2號","121.432588333333","25.022905","6500500","新莊區"
"220103","561-BX","2018/03/15 20:39:27","新北市板橋區漢生東路63巷26號","121.46701","25.0171416666667","6500100","板橋區"
"220070","AAC-253","2018/03/15 20:38:03","新北市五股區中直路15號","121.423846666667","25.1109033333333","6500100","板橋區"
