"lineid","car","time","location","longitude","latitude","cityid","cityname"
"234064","337-UY","2018/03/15 21:09:40","新北市新店區安和路三段74巷26號","121.520013333333","24.9832266666667","6500400","永和區"
"234050","863-TW","2018/03/15 21:09:22","新北市新店區安和路三段44號","121.518973333333","24.98182","6500400","永和區"
"231059","046-UY","2018/03/15 21:09:22","新北市新店區僑義路17巷1號","121.500366666667","24.9513433333333","6500600","新店區"
"231061","047-UY","2018/03/15 21:09:40","新北市新店區永平街4號","121.517478333333","24.9834516666667","6500600","新店區"
"231060","106-UY","2018/03/15 21:09:33","新北市新店區薏仁坑路自強巷6號","121.49673","24.9585316666667","6500600","新店區"
"231051","107-UY","2018/03/15 21:09:26","新北市新店區中正路618巷7弄14號","121.534595","24.9894966666667","6500600","新店區"
"231047","108-UY","2018/03/15 21:09:27","新北市新店區寶強路5號","121.542915","24.9792033333333","6500600","新店區"
"231052","187-VK","2018/03/15 21:09:32","新北市新店區安康路一段258號","121.520258333333","24.9639933333333","6500600","新店區"
"231050","KEA-2219","2018/03/15 21:09:39","新北市新店區華興街13巷1號","121.537951666667","24.9694816666667","6500600","新店區"
"231054","AAD-862","2018/03/15 21:09:41","新北市新店區大新街7巷10號","121.54359","24.9682","6500600","新店區"
"231067","4772-VM","2018/03/15 21:09:28","新北市新店區薏仁坑路自強巷6號","121.496985","24.9587083333333","6500600","新店區"
"231065","512-UM","2018/03/15 21:09:40","新北市新店區安祥路67巷28弄42號","121.483755","24.95931","6500600","新店區"
"231040","619-UM","2018/03/15 21:09:26","新北市新店區北新路一段353號","121.541935","24.9694966666667","6500600","新店區"
"231063","645-TV","2018/03/15 21:09:32","新北市新店區玫瑰路58巷2號","121.495478333333","24.9466983333333","6500600","新店區"
"231045","898-TW","2018/03/15 21:09:41","新北市新店區薏仁坑路自強巷6號","121.49637","24.9584016666667","6500600","新店區"
"241011","013-R5","2018/03/15 21:09:36","新北市三重區龍濱路191號","121.502041666667","25.0711283333333","6500200","三重區"
"241028","022-UY","2018/03/15 21:09:34","新北市三重區正義南路60-1號","121.498276666667","25.0606116666667","6500200","三重區"
"241008","059-VK","2018/03/15 21:09:37","新北市三重區自強路一段64號","121.497231666667","25.0666583333333","6500200","三重區"
"241009","060-VK","2018/03/15 21:09:39","新北市三重區忠孝路二段122號","121.483011666667","25.06882","6500200","三重區"
"241031","061-VK","2018/03/15 21:09:38","新北市三重區重新路五段328號","121.476798333333","25.0479033333333","6500200","三重區"
"241015","062-VK","2018/03/15 21:09:40","新北市三重區長元街100-6號","121.503111666667","25.0667133333333","6500200","三重區"
"241017","063-VK","2018/03/15 21:09:30","新北市三重區大同北路132巷6號","121.492491666667","25.0647866666667","6500200","三重區"
"241024","065-VK","2018/03/15 21:09:43","新北市三重區國道路一段58巷20號","121.481313333333","25.072035","6500200","三重區"
"241026","066-VK","2018/03/15 21:09:36","新北市三重區文化南路42號","121.500365","25.0602416666667","6500200","三重區"
"241002","090-VK","2018/03/15 21:09:24","新北市三重區五華街14號","121.494883333333","25.0802616666667","6500200","三重區"
"241003","091-VK","2018/03/15 21:09:43","新北市三重區仁義街339號","121.494951666667","25.08488","6500200","三重區"
"241005","262-UM","2018/03/15 21:09:23","新北市三重區三信路182號","121.487983333333","25.086185","6500200","三重區"
"241016","265-UM","2018/03/15 21:09:26","新北市三重區信義西街138號","121.495671666667","25.0642566666667","6500200","三重區"
"241022","267-UM","2018/03/15 21:09:42","新北市三重區中正北路64巷20號","121.486113333333","25.0637983333333","6500200","三重區"
"241018","268-UM","2018/03/15 21:09:24","新北市三重區正義北路332-1號","121.494453333333","25.070405","6500200","三重區"
"241032","269-UM","2018/03/15 21:09:43","新北市三重區光復路二段175號","121.472803333333","25.061545","6500200","三重區"
"241013","270-UM","2018/03/15 21:09:41","新北市三重區仁愛街141巷5號","121.495566666667","25.0753833333333","6500200","三重區"
"241025","271-UM","2018/03/15 21:09:37","新北市三重區中正北路208巷8號","121.482295","25.0670316666667","6500200","三重區"
"241007","398-BY","2018/03/15 21:09:41","新北市三重區三和路四段145巷85號","121.486416666667","25.07876","6500200","三重區"
"241020","413-TH","2018/03/15 21:09:36","新北市三重區忠孝路二段35號","121.485933333333","25.0710933333333","6500200","三重區"
"241004","475-VK","2018/03/15 21:09:35","新北市三重區仁愛街423-1號","121.49033","25.0814816666667","6500200","三重區"
"241001","478-VK","2018/03/15 21:09:40","新北市三重區福隆路93號","121.492186666667","25.078225","6500200","三重區"
"241030","480-VK","2018/03/15 21:09:40","新北市三重區五谷王北街20巷15弄1號","121.47506","25.0484833333333","6500200","三重區"
"241014","543-UM","2018/03/15 21:09:42","新北市三重區三和路二段37-9號","121.501336666667","25.067635","6500200","三重區"
"241023","545-UM","2018/03/15 21:09:43","新北市三重區忠孝路三段50巷41弄64號","121.48242","25.0638366666667","6500200","三重區"
"241019","KEA-2593","2018/03/15 21:09:34","新北市三重區自強路二段74巷23-1號","121.487953333333","25.06981","6500200","三重區"
"241006","AAD-863","2018/03/15 21:09:26","新北市三重區明志街135號","121.48926","25.0632983333333","6500200","三重區"
"241012","941-UM","2018/03/15 21:09:31","新北市三重區仁信街27號","121.501291666667","25.075535","6500200","三重區"
"241029","942-UM","2018/03/15 21:09:44","新北市三重區正義南路107號","121.498221666667","25.05856","6500200","三重區"
"241033","AAC-255","2018/03/15 21:09:35","新北市三重區重光街122-1號","121.466276666667","25.0648966666667","6500200","三重區"
"247024","893-R6","2018/03/15 21:09:30","新北市蘆洲區長興路50巷1號","121.463755","25.0837966666667","6501400","蘆洲區"
"247014","546-UM","2018/03/15 21:09:39","新北市蘆洲區中央路155號","121.47266","25.0847016666667","6501400","蘆洲區"
"247022","500-BY","2018/03/15 21:09:36","新北市蘆洲區民族路578號","121.46702","25.0885933333333","6501400","蘆洲區"
"247010","341-TH","2018/03/15 21:09:31","新北市蘆洲區鷺江街38號","121.477266666667","25.0830316666667","6501400","蘆洲區"
"247012","339-TH","2018/03/15 21:09:27","新北市蘆洲區民族路31-14號","121.47722","25.08506","6501400","蘆洲區"
"247004","337-TH","2018/03/15 21:09:35","新北市蘆洲區永安南路二段276號","121.458086666667","25.0809133333333","6501400","蘆洲區"
"247006","336-TH","2018/03/15 21:09:29","新北市蘆洲區永安南路二段16巷18號","121.468016666667","25.0777883333333","6501400","蘆洲區"
"247018","057-VK","2018/03/15 21:09:24","新北市蘆洲區民族路408巷3號","121.47459","25.0918783333333","6501400","蘆洲區"
"247008","056-VK","2018/03/15 21:09:44","新北市蘆洲區民生街103號","121.473553333333","25.0786683333333","6501400","蘆洲區"
"247020","053-VK","2018/03/15 21:09:35","新北市蘆洲區民族路422巷15弄23號","121.472951666667","25.09289","6501400","蘆洲區"
"247016","007-UY","2018/03/15 21:09:35","新北市蘆洲區光華路186巷38號","121.464925","25.0833716666667","6501400","蘆洲區"
"247002","002-UY","2018/03/15 21:09:42","新北市蘆洲區永樂街38巷42弄6號","121.458915","25.0899333333333","6501400","蘆洲區"
"251009","008-UM","2018/03/15 21:09:38","新北市淡水區民族路112巷40號","121.462025","25.1344033333333","6501000","淡水區"
"251004","009-UM","2018/03/15 21:09:23","新北市淡水區大同路113巷6號","121.463566666667","25.1415966666667","6501000","淡水區"
"251005","010-UM","2018/03/15 21:09:30","新北市淡水區中正東路35巷28號","121.446878333333","25.168875","6501000","淡水區"
"251001","011-UM","2018/03/15 21:09:41","新北市淡水區新市一路三段101巷16弄14號","121.446875","25.1839183333333","6501000","淡水區"
"251002","012-UM","2018/03/15 21:09:24","新北市淡水區英專路151號","121.448368333333","25.1749483333333","6501000","淡水區"
"251013","179-VK","2018/03/15 21:09:38","新北市淡水區行忠路328號","121.460503333333","25.1995966666667","6501000","淡水區"
"251014","180-VK","2018/03/15 21:09:32","新北市淡水區六塊厝1-3號","121.451171666667","25.242605","6501000","淡水區"
"251015","182-VK","2018/03/15 21:09:36","新北市淡水區淡金路四段542巷62號","121.455095","25.2264183333333","6501000","淡水區"
"251010","413-VK","2018/03/15 21:09:27","新北市淡水區中正路一段63巷7弄2號","121.422913333333","25.177285","6501000","淡水區"
"251012","441-VK","2018/03/15 21:09:37","新北市淡水區淡金路五段151號","121.4561","25.2400716666667","6501000","淡水區"
"251016","442-VK","2018/03/15 21:09:36","新北市淡水區牛埔子7-7號","121.448268333333","25.21835","6501000","淡水區"
"251011","650-BX","2018/03/15 21:09:21","新北市淡水區新民街180巷25號","121.437753333333","25.1795916666667","6501000","淡水區"
"251003","766-UM","2018/03/15 21:09:40","新北市淡水區新春街125巷2號","121.441736666667","25.18193","6501000","淡水區"
"242009","132-UY","2018/03/15 21:09:37","新北市三重區五谷王南街46巷35號","121.475528333333","25.0450283333333","6500500","新莊區"
"220070","AAC-253","2018/03/15 21:09:23","新北市林口區太平里180號","121.368311666667","25.1343733333333","6500100","板橋區"
