"lineid","car","time","location","longitude","latitude","cityid","cityname"
"235010","733-UM","2018/03/15 21:38:14","新北市中和區員山路36巷13號","121.484133333333","24.990835","6500300","中和區"
"247010","341-TH","2018/03/15 21:59:30","新北市八里區中山路三段409號","121.368825","25.13402","6501400","蘆洲區"
"251005","010-UM","2018/03/15 21:59:30","新北市淡水區鄧公路30巷2弄63號","121.45433","25.16924","6501000","淡水區"
"251008","181-VK","2018/03/15 21:59:33","新北市淡水區學府路104號","121.449871666667","25.1718066666667","6501000","淡水區"
"251010","413-VK","2018/03/15 21:59:27","新北市淡水區中正路二段206號","121.426215","25.18907","6501000","淡水區"
"251012","441-VK","2018/03/15 21:59:37","新北市淡水區中山北路三段169號","121.445463333333","25.19693","6501000","淡水區"
"251007","577-R6","2018/03/15 21:59:35","新北市淡水區北新路184巷142弄2號","121.451085","25.1774666666667","6501000","淡水區"
"251011","650-BX","2018/03/15 21:59:41","新北市淡水區水碓街7號","121.44314","25.1771383333333","6501000","淡水區"
"251003","766-UM","2018/03/15 21:59:40","新北市淡水區新春街94號","121.439023333333","25.1823666666667","6501000","淡水區"
"220064","282-UM","2018/03/15 21:31:33","新北市板橋區華東街1-10號","121.448376666667","24.9949616666667","6500100","板橋區"
"220070","AAC-253","2018/03/15 21:59:42","新北市板橋區華東街1-9號","121.448271666667","24.9948683333333","6500100","板橋區"
