"lineid","car","time","location","longitude","latitude","cityid","cityname"
"247010","341-TH","2018/03/15 22:29:51","新北市五股區中興路三段3-6號","121.449283333333","25.0782916666667","6501400","蘆洲區"
"247005","336-TH","2018/03/15 22:27:38","新北市五股區中興路三段163號","121.44917","25.0809833333333","6501400","蘆洲區"
"251008","181-VK","2018/03/15 22:29:33","新北市淡水區學府路104號","121.449895","25.1719","6501000","淡水區"
"251010","413-VK","2018/03/15 22:29:47","新北市淡水區沙崙路200號","121.424693333333","25.1839933333333","6501000","淡水區"
"251007","577-R6","2018/03/15 22:29:55","新北市淡水區北新路135號","121.449395","25.17882","6501000","淡水區"
"251011","650-BX","2018/03/15 22:29:41","新北市淡水區大義街3號","121.443816666667","25.17799","6501000","淡水區"
