"lineid","car","time","location","longitude","latitude","cityid","cityname"
"248005","653-BX","2018/03/16 07:29:22","新北市五股區明德路12巷16號","121.433336666667","25.0718916666667","6501500","五股區"
"232003","290-BY","2018/03/16 07:29:29","新北市坪林區大粗坑17-4號","121.71281","24.95289","6502000","坪林區"
"232015","291-BY","2018/03/16 07:29:16","新北市坪林區黃舉皮寮5-1號","121.69023","24.93775","6502000","坪林區"
"232019","705-BZ","2018/03/16 07:29:23","新北市坪林區樟空子9-1號","121.724745","24.972805","6502000","坪林區"
"232008","758-BX","2018/03/16 07:29:30","新北市坪林區魚堀10號","121.706141666667","24.9050383333333","6502000","坪林區"
"244004","248-BX","2018/03/16 07:29:24","新北市林口區頂福里73-6號","121.340568333333","25.0911233333333","6501700","林口區"
"222005","289-BY","2018/03/16 07:27:40","新北市深坑區文化街39巷13號","121.618906666667","25.0009566666667","6501800","深坑區"
"235001","611-BX","2018/03/16 07:29:33","新北市中和區圓通路367巷6號","121.491618333333","24.9892433333333","6500300","中和區"
"226005","5620-A6","2018/03/16 07:29:27","新北市平溪區靜安路二段176號","121.722918333333","25.0218266666667","6502400","平溪區"
"226001","7418-A5","2018/03/16 07:22:44","新北市平溪區望古里灰4-2號","121.763591666667","25.0291433333333","6502400","平溪區"
"226003","AGD-0702","2018/03/16 07:27:58","新北市平溪區嶺腳里嶺腳寮83-2號","121.750793333333","25.0352216666667","6502400","平溪區"
"223006","022-BY","2018/03/16 07:29:29","新北市坪林區坪碇路335號","121.68399","24.9527983333333","6501900","石碇區"
"223001","205-TH","2018/03/16 07:29:18","新北市石碇區蓬菜寮17號","121.648975","24.9722566666667","6501900","石碇區"
"223008","406-TH","2018/03/16 07:13:30","新北市石碇區靜安路一段337號","121.699063333333","25.014435","6501900","石碇區"
"223001","592-UM","2018/03/16 07:29:27","新北市石碇區烏塗窟14-1號","121.655986666667","24.9751266666667","6501900","石碇區"
"223004","660-BX","2018/03/16 07:29:31","新北市石碇區八分寮55-3號","121.644451666667","25.0123866666667","6501900","石碇區"
"223007","661-BX","2018/03/16 07:29:12","新北市石碇區大溪墘2-4號","121.69892","25.0103833333333","6501900","石碇區"
"223005","677-TV","2018/03/16 07:29:28","新北市石碇區八分寮55-3號","121.644633333333","25.013755","6501900","石碇區"
"227005","282-VK","2018/03/16 07:29:21","新北市雙溪區新基里自強路5號","121.866345","25.0390316666667","6502500","雙溪區"
"237001","159-UY","2018/03/16 07:29:33","新北市三峽區隆恩街245號","121.357738333333","24.9408283333333","6500900","三峽區"
"236010","165-UM","2018/03/16 07:29:21","新北市土城區延壽路2巷3號","121.47179","24.9904616666667","6501300","土城區"
"236004","339-SR","2018/03/16 07:29:25","新北市土城區承天路114號","121.45189","24.950005","6501300","土城區"
"220027","461-BY","2018/03/16 07:27:34","新北市板橋區國光路49巷2號","121.458095","25.0181283333333","6500100","板橋區"
