"lineid","car","time","location","longitude","latitude","cityid","cityname"
"248005","653-BX","2018/02/05 08:19:33","新北市五股區明德路12巷6號","121.433443333333","25.0718616666667","6501500","五股區"
"232001","290-BY","2018/02/05 08:19:51","新北市坪林區大粗坑6-1號","121.732266666667","24.94827","6502000","坪林區"
"232012","291-BY","2018/02/05 08:19:33","新北市坪林區九芎根5號","121.664416666667","24.88095","6502000","坪林區"
"232017","705-BZ","2018/02/05 08:16:33","新北市坪林區柑腳坑18-1號","121.766631666667","24.9525883333333","6502000","坪林區"
"232005","758-BX","2018/02/05 08:19:54","新北市坪林區鶯子瀨2-10號","121.707636666667","24.9132466666667","6502000","坪林區"
"244012","069-UM","2018/02/05 08:19:48","新北市林口區粉寮路一段105號","121.398068333333","25.0804083333333","6501700","林口區"
"244006","080-UY","2018/02/05 08:19:39","新北市林口區菁埔路10鄰1號","121.382438333333","25.0965133333333","6501700","林口區"
"244001","248-BX","2018/02/05 08:19:45","新北市林口區下福里18鄰26號","121.310508333333","25.1118183333333","6501700","林口區"
"244018","402-UM","2018/02/05 08:19:41","新北市林口區公園路223巷2號","121.374036666667","25.0749116666667","6501700","林口區"
"244016","742-UY","2018/02/05 08:19:36","新北市林口區中山路73號","121.393075","25.0785883333333","6501700","林口區"
"244022","483-VK","2018/02/05 08:19:34","新北市林口區仁愛路一段647號","121.388373333333","25.0767066666667","6501700","林口區"
"244008","656-BX","2018/02/05 08:19:49","新北市林口區中北三街292號","121.38235","25.08285","6501700","林口區"
"244010","701-TV","2018/02/05 08:19:43","新北市林口區佳林路154號","121.384201666667","25.0770966666667","6501700","林口區"
"244024","837-TS","2018/02/05 08:19:36","新北市林口區文化三路一段435號","121.367488333333","25.0741483333333","6501700","林口區"
"244021","838-TS","2018/02/05 08:19:41","新北市林口區粉寮路1號","121.397745","25.0802333333333","6501700","林口區"
"222005","289-BY","2018/02/05 08:19:36","台北市南港區南深路76號","121.622231666667","25.0196083333333","6501800","深坑區"
"231007","189-VK","2018/02/05 08:19:43","新北市新店區新潭路一段200號","121.529685","24.9313683333333","6500600","新店區"
"231008","192-VK","2018/02/05 08:19:51","新北市新店區新烏路一段171號","121.544998333333","24.934415","6500600","新店區"
"235001","611-BX","2018/02/05 08:19:32","新北市中和區錦和路400號","121.49098","24.98997","6500300","中和區"
"226005","5620-A6","2018/02/05 08:19:47","新北市平溪區靜安路三段52巷16號","121.763345","25.033405","6502400","平溪區"
"226001","7418-A5","2018/02/05 08:19:40","新北市平溪區十分里姜仔坑2號","121.766478333333","25.03525","6502400","平溪區"
"226003","AGD-0702","2018/02/05 08:15:00","新北市平溪區嶺腳里嶺腳寮83-2號","121.750131666667","25.0350433333333","6502400","平溪區"
"223006","022-BY","2018/02/05 08:19:45","新北市深坑區昇高坑路30號","121.62716","25.0002033333333","6501900","石碇區"
"223008","406-TH","2018/02/05 08:19:38","新北市石碇區石碇子埔97-4號","121.668383333333","25.0049633333333","6501900","石碇區"
"223001","437-BY","2018/02/05 08:19:33","新北市石碇區北宜路六段塗潭巷53號","121.652416666667","24.93504","6501900","石碇區"
"223007","592-UM","2018/02/05 08:19:37","新北市石碇區石碇子埔98-1號","121.667425","25.0063516666667","6501900","石碇區"
"223004","660-BX","2018/02/05 08:19:46","新北市石碇區外按16-1號","121.650651666667","24.9975533333333","6501900","石碇區"
"223005","677-TV","2018/02/05 08:19:52","新北市石碇區外按8號","121.651291666667","24.996165","6501900","石碇區"
"227005","282-VK","2018/02/05 08:19:23","新北市雙溪區外柑里三叉坑8號","121.826523333333","25.0111666666667","6502500","雙溪區"
"252006","073-UM","2018/02/05 08:19:39","新北市三芝區後厝里大片頭81-1號","121.459118333333","25.24476","6502100","三芝區"
"252004","249-BX","2018/02/05 08:19:43","新北市三芝區興華里車埕59號","121.498693333333","25.1969233333333","6502100","三芝區"
"237001","159-UY","2018/02/05 08:19:49","新北市三峽區學成路269號","121.375675","24.9430216666667","6500900","三峽區"
"236007","165-UM","2018/02/05 08:19:37","新北市土城區石門路60-1號","121.456976666667","24.9581966666667","6501300","土城區"
"236001","339-SR","2018/02/05 08:19:47","新北市土城區龍泉路44號","121.412128333333","24.945565","6501300","土城區"
"236005","498-BY","2018/02/05 08:19:48","新北市土城區大暖路10號","121.423533333333","24.960545","6501300","土城區"
"242030","AAC-296","2018/02/05 08:19:35","新北市新莊區新泰路357巷3弄1號","121.442443333333","25.0412","6500500","新莊區"
"242028","986-R7","2018/02/05 08:19:42","新北市新莊區中平路47號","121.444705","25.0442133333333","6500500","新莊區"
"242024","615-BX","2018/02/05 08:19:39","新北市三重區光復路二段168-2號","121.471641666667","25.06124","6500500","新莊區"
"242022","613-BX","2018/02/05 08:19:50","新北市新莊區福壽街12號","121.458001666667","25.0478","6500500","新莊區"
"242026","612-BX","2018/02/05 08:19:51","新北市新莊區福壽街150號","121.457948333333","25.0523083333333","6500500","新莊區"
"242038","566-BX","2018/02/05 08:19:46","新北市新莊區民安路166號","121.424903333333","25.024125","6500500","新莊區"
"242043","442-UM","2018/02/05 08:19:49","新北市新莊區雙鳳路105號","121.414141666667","25.0280483333333","6500500","新莊區"
"242052","440-UM","2018/02/05 08:19:51","新北市新莊區新樹路699巷29號","121.43289","25.001425","6500500","新莊區"
"242033","415-TV","2018/02/05 08:19:40","新北市新莊區新莊路672號","121.441445","25.0329066666667","6500500","新莊區"
"242003","413-TV","2018/02/05 08:19:33","新北市新莊區自立街236號","121.458241666667","25.0454883333333","6500500","新莊區"
"242040","400-BY","2018/02/05 08:19:41","新北市泰山區貴陽街38號","121.423206666667","25.0324466666667","6500500","新莊區"
"242059","362-BY","2018/02/05 08:19:38","新北市新莊區新樹路465號","121.432678333333","25.0130583333333","6500500","新莊區"
"242057","353-BY","2018/02/05 08:19:49","新北市新莊區雙鳳路134巷5號","121.412693333333","25.0281083333333","6500500","新莊區"
"242006","132-UY","2018/02/05 08:19:39","新北市新莊區自信街67號","121.455463333333","25.048235","6500500","新莊區"
"242020","135-UY","2018/02/05 08:19:41","新北市新莊區中華路一段10號","121.451986666667","25.0369116666667","6500500","新莊區"
"242045","172-VK","2018/02/05 08:19:43","新北市新莊區福營路125巷2號","121.433065","25.0316116666667","6500500","新莊區"
"242014","175-VK","2018/02/05 08:19:42","新北市新莊區中平路87巷4號","121.444446666667","25.045845","6500500","新莊區"
"242001","176-VK","2018/02/05 08:19:47","新北市新莊區景德路83號","121.452423333333","25.0348433333333","6500500","新莊區"
"242012","346-TH","2018/02/05 08:19:42","新北市新莊區中和街82巷7號","121.448303333333","25.046505","6500500","新莊區"
"242049","347-TH","2018/02/05 08:19:48","新北市新莊區民安西路155巷7弄4號","121.426913333333","25.0166033333333","6500500","新莊區"
"242018","348-TH","2018/02/05 08:19:37","新北市新莊區民樂街46號","121.457996666667","25.0414383333333","6500500","新莊區"
"242055","349-TH","2018/02/05 08:19:39","新北市新莊區瓊林路46-5號","121.447215","25.0294183333333","6500500","新莊區"
"242016","350-TH","2018/02/05 08:19:42","新北市新莊區中港路339巷12號","121.451615","25.0452816666667","6500500","新莊區"
"242010","351-TH","2018/02/05 08:19:43","新北市新莊區中港路672號","121.450761666667","25.056555","6500500","新莊區"
"239006","661-UM","2018/02/05 08:19:39","新北市鶯歌區永和街238號","121.337951666667","24.97199","6500800","鶯歌區"
"220064","282-UM","2018/02/05 08:19:40","新北市樹林區環河路110號","121.426066666667","24.97732","6500100","板橋區"
"242047","281-VK","2018/02/05 08:19:43","新北市新莊區萬安街146巷6號","121.419873333333","25.02143","6500500","新莊區"
"242035","280-VK","2018/02/05 08:19:46","新北市新莊區後港一路169號","121.432308333333","25.0281766666667","6500500","新莊區"
