"lineid","car","time","location","longitude","latitude","cityid","cityname"
"248005","653-BX","2018/02/05 08:29:52","新北市五股區明德路12巷6號","121.433445","25.0718866666667","6501500","五股區"
"232001","290-BY","2018/02/05 08:29:51","新北市坪林區坪雙路一段115號","121.729771666667","24.9479966666667","6502000","坪林區"
"232012","291-BY","2018/02/05 08:29:33","新北市坪林區金瓜寮35號","121.674313333333","24.9024316666667","6502000","坪林區"
"232017","705-BZ","2018/02/05 08:27:13","新北市坪林區柑腳坑15號","121.77264","24.9468216666667","6502000","坪林區"
"232005","758-BX","2018/02/05 08:29:34","新北市坪林區鶯子瀨3-1號","121.705868333333","24.914075","6502000","坪林區"
"244012","069-UM","2018/02/05 08:29:48","新北市林口區中正路555號","121.381136666667","25.0768683333333","6501700","林口區"
"244006","080-UY","2018/02/05 08:29:39","新北市林口區中華路261號","121.384808333333","25.09021","6501700","林口區"
"244001","248-BX","2018/02/05 08:29:45","新北市林口區下福里137-1號","121.297106666667","25.1190966666667","6501700","林口區"
"244018","402-UM","2018/02/05 08:29:41","新北市林口區公園路173號","121.37142","25.0718316666667","6501700","林口區"
"244016","742-UY","2018/02/05 08:29:36","新北市林口區文化一路一段57號","121.371456666667","25.0700183333333","6501700","林口區"
"244022","483-VK","2018/02/05 08:29:54","新北市林口區東明一街55巷2號","121.391668333333","25.071645","6501700","林口區"
"244008","656-BX","2018/02/05 08:29:49","新北市林口區寶林路42號","121.385101666667","25.0843183333333","6501700","林口區"
"244010","701-TV","2018/02/05 08:29:43","新北市林口區中正路313號","121.38886","25.0774133333333","6501700","林口區"
"244024","837-TS","2018/02/05 08:29:36","新北市林口區忠孝三路11號","121.36127","25.0692416666667","6501700","林口區"
"244021","838-TS","2018/02/05 08:29:41","新北市林口區自強七街28號","121.399756666667","25.0759833333333","6501700","林口區"
"222005","289-BY","2018/02/05 08:29:36","新北市深坑區風格街31巷46號","121.627006666667","25.017975","6501800","深坑區"
"231007","189-VK","2018/02/05 08:29:43","新北市新店區新潭路二段122號","121.51357","24.92378","6500600","新店區"
"231008","192-VK","2018/02/05 08:29:51","新北市新店區桂山路37號","121.559851666667","24.90197","6500600","新店區"
"235001","611-BX","2018/02/05 08:29:52","新北市中和區連城路467-6號","121.483645","24.9959366666667","6500300","中和區"
"226005","5620-A6","2018/02/05 08:29:47","新北市平溪區南山里乾坑10號","121.788775","25.0472316666667","6502400","平溪區"
"226001","7418-A5","2018/02/05 08:29:40","新北市平溪區東勢里芊蓁林32-1號","121.751118333333","25.018495","6502400","平溪區"
"226003","AGD-0702","2018/02/05 08:15:00","新北市平溪區嶺腳里嶺腳寮83-2號","121.750131666667","25.0350433333333","6502400","平溪區"
"223006","022-BY","2018/02/05 08:29:45","新北市深坑區昇高坑路51-1號","121.63032","24.9938266666667","6501900","石碇區"
"223008","406-TH","2018/02/05 08:29:38","新北市石碇區十八重溪13號","121.677985","25.0112366666667","6501900","石碇區"
"223001","437-BY","2018/02/05 08:29:33","新北市石碇區北宜路六段直潭巷1號","121.658836666667","24.9367416666667","6501900","石碇區"
"223007","592-UM","2018/02/05 08:29:37","新北市石碇區靜安路一段211號","121.672928333333","25.0086983333333","6501900","石碇區"
"223004","660-BX","2018/02/05 08:29:47","新北市石碇區石碇東街12號","121.661775","24.9907533333333","6501900","石碇區"
"223005","677-TV","2018/02/05 08:29:52","新北市石碇區石碇東街12號","121.661585","24.9907833333333","6501900","石碇區"
"227005","282-VK","2018/02/05 08:29:43","新北市雙溪區外柑里四分子3-1號","121.83735","25.0020733333333","6502500","雙溪區"
"252006","073-UM","2018/02/05 08:29:39","新北市三芝區蘭陽街13-1號","121.47352","25.2424483333333","6502100","三芝區"
"252004","249-BX","2018/02/05 08:29:43","新北市三芝區興華里楓子林45-11號","121.501093333333","25.204705","6502100","三芝區"
"237001","159-UY","2018/02/05 08:29:49","新北市三峽區大義路15號","121.378731666667","24.9440133333333","6500900","三峽區"
"236007","165-UM","2018/02/05 08:29:37","新北市土城區石門路95號","121.469086666667","24.9596533333333","6501300","土城區"
"236001","339-SR","2018/02/05 08:29:47","新北市土城區中州路76號","121.411995","24.95835","6501300","土城區"
"236005","498-BY","2018/02/05 08:29:36","新北市土城區大暖路3號","121.422508333333","24.961365","6501300","土城區"
"242030","AAC-296","2018/02/05 08:29:35","新北市新莊區新泰路305巷9號","121.444886666667","25.0409566666667","6500500","新莊區"
"242028","986-R7","2018/02/05 08:29:42","新北市新莊區中平路110巷12號","121.445173333333","25.0455366666667","6500500","新莊區"
"242024","615-BX","2018/02/05 08:29:39","新北市新莊區化成路531巷50號","121.462035","25.0627966666667","6500500","新莊區"
"242022","613-BX","2018/02/05 08:29:36","新北市新莊區思源路57號","121.459838333333","25.0402566666667","6500500","新莊區"
"242026","612-BX","2018/02/05 08:29:40","新北市新莊區中原路1號","121.459558333333","25.0543183333333","6500500","新莊區"
"242038","566-BX","2018/02/05 08:29:46","新北市新莊區民安西路26號","121.426683333333","25.0212616666667","6500500","新莊區"
"242043","442-UM","2018/02/05 08:29:44","新北市新莊區天泉二街11號","121.415046666667","25.0248916666667","6500500","新莊區"
"242052","440-UM","2018/02/05 08:29:51","新北市新莊區民安西路470-1號","121.43168","25.0078166666667","6500500","新莊區"
"242033","415-TV","2018/02/05 08:29:48","新北市新莊區景德路399號","121.445515","25.033225","6500500","新莊區"
"242003","413-TV","2018/02/05 08:29:33","新北市新莊區福樂街126號","121.456905","25.0479083333333","6500500","新莊區"
"242040","400-BY","2018/02/05 08:29:41","新北市泰山區壽山路42號","121.420416666667","25.0290616666667","6500500","新莊區"
"242059","362-BY","2018/02/05 08:29:37","新北市新莊區新樹路255號","121.434871666667","25.0219516666667","6500500","新莊區"
"242057","353-BY","2018/02/05 08:29:49","新北市新莊區壽山路160巷21號","121.417456666667","25.0318983333333","6500500","新莊區"
"242006","132-UY","2018/02/05 08:29:41","新北市新莊區自強街37巷14弄5號","121.453803333333","25.046785","6500500","新莊區"
"242020","135-UY","2018/02/05 08:29:33","新北市新莊區建興街60巷1號","121.449925","25.038975","6500500","新莊區"
"242045","172-VK","2018/02/05 08:29:50","新北市新莊區中正路649-8號","121.430501666667","25.0303483333333","6500500","新莊區"
"242008","173-VK","2018/02/05 08:29:47","新北市新莊區中華路二段245號","121.451916666667","25.0539183333333","6500500","新莊區"
"242014","175-VK","2018/02/05 08:29:42","新北市新莊區中和街59巷10弄14號","121.446926666667","25.0471716666667","6500500","新莊區"
"242001","176-VK","2018/02/05 08:29:47","新北市新莊區新莊路2號","121.459396666667","25.0379316666667","6500500","新莊區"
"242012","346-TH","2018/02/05 08:29:41","新北市新莊區中泰街103號","121.448861666667","25.046485","6500500","新莊區"
"242049","347-TH","2018/02/05 08:29:48","新北市新莊區民本街53巷18號","121.428851666667","25.018065","6500500","新莊區"
"242018","348-TH","2018/02/05 08:29:37","新北市新莊區明中街20號","121.457398333333","25.0393716666667","6500500","新莊區"
"242055","349-TH","2018/02/05 08:29:39","新北市新莊區豐年街96號","121.446446666667","25.0308416666667","6500500","新莊區"
"242016","350-TH","2018/02/05 08:29:46","新北市新莊區永樂街63號","121.451088333333","25.0449483333333","6500500","新莊區"
"242010","351-TH","2018/02/05 08:29:43","新北市新莊區中信街94巷12號","121.448505","25.0536416666667","6500500","新莊區"
"239006","661-UM","2018/02/05 08:29:39","新北市鶯歌區大湖路722號","121.332578333333","24.9766466666667","6500800","鶯歌區"
"220064","282-UM","2018/02/05 08:28:20","新北市樹林區中山路三段214號","121.380298333333","24.9679916666667","6500100","板橋區"
"242047","281-VK","2018/02/05 08:29:38","新北市新莊區萬安街67巷11號","121.421905","25.0238233333333","6500500","新莊區"
"242035","280-VK","2018/02/05 08:29:46","新北市新莊區後港一路103號","121.428271666667","25.027","6500500","新莊區"
