"lineid","car","time","location","longitude","latitude","cityid","cityname"
"248005","653-BX","2018/02/05 09:09:52","新北市五股區水碓路19號","121.433296666667","25.0726366666667","6501500","五股區"
"244012","069-UM","2018/02/05 09:09:48","新北市林口區佳林路101巷34號","121.386913333333","25.079975","6501700","林口區"
"244006","080-UY","2018/02/05 09:09:39","新北市林口區林口路113巷6弄1號","121.388745","25.08062","6501700","林口區"
"244001","248-BX","2018/02/05 09:09:25","新北市林口區粉寮路二段30號","121.403165","25.0865066666667","6501700","林口區"
"244018","402-UM","2018/02/05 09:09:41","新北市林口區文化一路一段124號","121.374863333333","25.0725","6501700","林口區"
"244016","742-UY","2018/02/05 09:09:36","新北市林口區文化二路一段156號","121.368476666667","25.07147","6501700","林口區"
"244022","483-VK","2018/02/05 09:09:54","新北市林口區東湖路153巷135號","121.382196666667","25.0735733333333","6501700","林口區"
"244008","656-BX","2018/02/05 09:09:29","新北市林口區民生路139號","121.377925","25.0882916666667","6501700","林口區"
"244010","701-TV","2018/02/05 09:09:43","新北市林口區仁愛路一段252號","121.39454","25.0758733333333","6501700","林口區"
"244024","837-TS","2018/02/05 09:09:36","新北市林口區文化三路一段447巷29號","121.367671666667","25.075095","6501700","林口區"
"222005","289-BY","2018/02/05 09:09:40","新北市深坑區土庫尖路75-1號","121.631248333333","25.018225","6501800","深坑區"
"231007","189-VK","2018/02/05 09:09:43","新北市新店區新潭路三段215巷25號","121.508116666667","24.904085","6500600","新店區"
"231008","192-VK","2018/02/05 09:09:51","新北市新店區廣興路60巷6-2號","121.539663333333","24.9142483333333","6500600","新店區"
"235001","611-BX","2018/02/05 09:09:52","新北市中和區民德路179號","121.468518333333","24.99946","6500300","中和區"
"226005","5620-A6","2018/02/05 09:09:47","新北市平溪區十分里十分街246號","121.777628333333","25.044455","6502400","平溪區"
"226001","7418-A5","2018/02/05 09:00:00","新北市平溪區東勢里番仔坑16號","121.75458","24.9911333333333","6502400","平溪區"
"226003","AGD-0702","2018/02/05 09:09:40","新北市平溪區十分里十分街247號","121.77756","25.044725","6502400","平溪區"
"223008","406-TH","2018/02/05 09:09:38","新北市石碇區光明路13號","121.680103333333","25.0336633333333","6501900","石碇區"
"223001","437-BY","2018/02/05 09:09:33","新北市石碇區北宜路四段26號","121.623031666667","24.9580116666667","6501900","石碇區"
"223007","592-UM","2018/02/05 09:09:37","新北市石碇區光明路15號","121.680171666667","25.0337133333333","6501900","石碇區"
"223004","660-BX","2018/02/05 09:09:46","新北市石碇區磨石坑39-3號","121.68895","24.9653033333333","6501900","石碇區"
"223005","677-TV","2018/02/05 09:09:52","新北市石碇區碇坪路二段83號","121.685518333333","24.964655","6501900","石碇區"
"227005","282-VK","2018/02/05 09:04:43","新北市雙溪區泰平里料角坑9號","121.812146666667","24.9731316666667","6502500","雙溪區"
"252006","073-UM","2018/02/05 09:09:39","新北市三芝區古庄里山豬堀7號","121.494116666667","25.2558816666667","6502100","三芝區"
"252004","249-BX","2018/02/05 09:09:43","新北市三芝區興華里車埕72-5號","121.49307","25.19642","6502100","三芝區"
"237001","159-UY","2018/02/05 09:09:48","新北市樹林區柑園街二段203巷22號","121.375626666667","24.950865","6500900","三峽區"
"236007","165-UM","2018/02/05 09:09:37","新北市土城區大安路2號","121.432831666667","24.9654883333333","6501300","土城區"
"236001","339-SR","2018/02/05 09:09:47","新北市土城區金城路一段42號","121.442143333333","24.9696066666667","6501300","土城區"
"236005","498-BY","2018/02/05 09:09:38","新北市土城區中央路三段76巷50弄1號","121.435568333333","24.969465","6501300","土城區"
"242030","AAC-296","2018/02/05 09:09:34","新北市新莊區公園一路138號","121.446276666667","25.0381566666667","6500500","新莊區"
"242028","986-R7","2018/02/05 09:09:42","新北市新莊區中原路486號","121.447241666667","25.0545666666667","6500500","新莊區"
"242024","615-BX","2018/02/05 09:09:39","新北市新莊區五權一路12巷25弄14號","121.4583","25.0643616666667","6500500","新莊區"
"242022","613-BX","2018/02/05 09:09:37","新北市新莊區化成路990號","121.465253333333","25.0639716666667","6500500","新莊區"
"242026","612-BX","2018/02/05 09:09:40","新北市新莊區立信五街2號","121.44471","25.0515316666667","6500500","新莊區"
"242038","566-BX","2018/02/05 09:09:46","新北市新莊區龍安路457號","121.424521666667","25.01863","6500500","新莊區"
"242043","442-UM","2018/02/05 09:09:40","新北市新莊區中正路929巷37號","121.411545","25.0196633333333","6500500","新莊區"
"242052","440-UM","2018/02/05 09:09:50","新北市新莊區民安西路269-2號","121.426171666667","25.0127033333333","6500500","新莊區"
"242033","415-TV","2018/02/05 09:09:40","新北市新莊區中正路320號","121.446236666667","25.03493","6500500","新莊區"
"242003","413-TV","2018/02/05 09:09:45","新北市新莊區化成路63巷11號","121.464545","25.04584","6500500","新莊區"
"242040","400-BY","2018/02/05 09:09:42","新北市新莊區壽山路55-1號","121.412113333333","25.0318216666667","6500500","新莊區"
"242059","362-BY","2018/02/05 09:09:51","新北市新莊區瓊泰路1號","121.44499","25.0284566666667","6500500","新莊區"
"242057","353-BY","2018/02/05 09:09:48","新北市新莊區八德街115號","121.42404","25.0208216666667","6500500","新莊區"
"242006","132-UY","2018/02/05 09:09:51","新北市新莊區福壽街94巷9號","121.458721666667","25.0501383333333","6500500","新莊區"
"242020","135-UY","2018/02/05 09:09:53","新北市新莊區和興街61號","121.446415","25.0409616666667","6500500","新莊區"
"242045","172-VK","2018/02/05 09:09:43","新北市新莊區中正路新生巷55號","121.41744","25.0228616666667","6500500","新莊區"
"242008","173-VK","2018/02/05 09:09:47","新北市新莊區幸福路64巷4弄5號","121.457343333333","25.050055","6500500","新莊區"
"242014","175-VK","2018/02/05 09:09:42","新北市新莊區永樂街257號","121.445555","25.0443683333333","6500500","新莊區"
"242001","176-VK","2018/02/05 09:09:47","新北市新莊區中正路1號","121.465213333333","25.0416583333333","6500500","新莊區"
"242012","346-TH","2018/02/05 09:09:42","新北市新莊區中平路302巷3號","121.445108333333","25.0517233333333","6500500","新莊區"
"242049","347-TH","2018/02/05 09:09:48","新北市新莊區民安西路263號","121.426178333333","25.0131033333333","6500500","新莊區"
"242018","348-TH","2018/02/05 09:09:49","新北市新莊區博愛路4巷2號","121.456446666667","25.043005","6500500","新莊區"
"242055","349-TH","2018/02/05 09:09:39","新北市新莊區中正路347巷19號","121.447153333333","25.0342966666667","6500500","新莊區"
"242016","350-TH","2018/02/05 09:09:42","新北市新莊區新泰路357巷3弄1號","121.442323333333","25.0413916666667","6500500","新莊區"
"242010","351-TH","2018/02/05 09:09:43","新北市新莊區中信街30號","121.450325","25.0507966666667","6500500","新莊區"
"239006","661-UM","2018/02/05 09:09:38","桃園市龜山區明興街275-1號","121.33283","24.981365","6500800","鶯歌區"
"242047","281-VK","2018/02/05 09:09:50","新北市新莊區後港二路25號","121.422415","25.0233733333333","6500500","新莊區"
"242035","280-VK","2018/02/05 09:09:46","新北市新莊區建安街60號","121.427163333333","25.0246283333333","6500500","新莊區"
"220063","609-BX","2018/02/05 09:09:48","新北市板橋區民生路一段80號","121.473448333333","25.015545","6500100","板橋區"
