"lineid","car","time","location","longitude","latitude","cityid","cityname"
"231007","189-VK","2018/02/05 10:39:44","新北市新店區新潭路三段76-1號","121.505015","24.910915","6500600","新店區"
"231008","192-VK","2018/02/05 10:39:31","新北市新店區小坑一路22號","121.53297","24.9139533333333","6500600","新店區"
"227005","282-VK","2018/02/05 10:39:43","新北市雙溪區泰平里溪尾寮46號","121.821385","24.9675616666667","6502500","雙溪區"
"236001","339-SR","2018/02/05 10:39:47","新北市土城區明德路二段197號","121.446943333333","24.98338","6501300","土城區"
"220063","609-BX","2018/02/05 10:39:47","新北市板橋區大觀路三段59巷17弄6-1號","121.436081666667","24.9955183333333","6500100","板橋區"
