"lineid","car","time","location","longitude","latitude","cityid","cityname"
"234044","148-BY","2018/02/05 12:49:44","新北市永和區秀朗路二段149號","121.52483","25.0016183333333","6500400","永和區"
"234066","149-BY","2018/02/05 12:49:49","新北市永和區永和路一段22號","121.513058333333","25.0048333333333","6500400","永和區"
"234005","207-UY","2018/02/05 12:49:38","新北市永和區文化路21號","121.514973333333","25.014935","6500400","永和區"
"234078","298-R6","2018/02/05 12:49:52","新北市永和區永利路136號","121.521853333333","25.0029533333333","6500400","永和區"
"234036","336-UY","2018/02/05 12:49:53","新北市永和區成功路一段77號","121.526906666667","25.0031833333333","6500400","永和區"
"234062","337-UY","2018/02/05 12:49:38","新北市永和區福和路1號","121.525865","25.0094666666667","6500400","永和區"
"234084","338-UY","2018/02/05 12:49:37","新北市永和區中正路164號","121.51491","24.9965683333333","6500400","永和區"
"234068","552-UM","2018/02/05 12:49:32","新北市永和區中興街100號","121.519098333333","25.012145","6500400","永和區"
"234015","745-BX","2018/02/05 12:49:38","新北市永和區永和路二段305號","121.515658333333","25.016535","6500400","永和區"
"234028","746-BX","2018/02/05 12:49:49","新北市永和區得和路331號","121.52361","24.9995316666667","6500400","永和區"
"234052","KEA-2590","2018/02/05 12:49:38","新北市永和區竹林路54號","121.517906666667","25.01412","6500400","永和區"
"234012","KEA-2591","2018/02/05 12:49:50","新北市永和區保福路二段106號","121.509936666667","25.0137616666667","6500400","永和區"
"234060","AAD-866","2018/02/05 12:49:47","新北市永和區福和路309巷3號","121.51643","25.0070083333333","6500400","永和區"
"234040","862-TW","2018/02/05 12:49:33","新北市永和區永貞路306號","121.511853333333","25.004845","6500400","永和區"
"234048","863-TW","2018/02/05 12:49:34","新北市永和區保安路2號","121.510788333333","25.0175083333333","6500400","永和區"
"234025","9371-KE","2018/02/05 12:49:45","新北市永和區永和路一段151巷2號","121.513916666667","25.0094233333333","6500400","永和區"
"248005","077-UY","2018/02/05 12:49:39","新北市五股區中興路二段37巷28號","121.46017","25.0749216666667","6501500","五股區"
"248007","095-VK","2018/02/05 12:49:45","新北市五股區中興路二段37巷28號","121.460113333333","25.0749","6501500","五股區"
"248019","225-UY","2018/02/05 12:49:44","新北市五股區中興路二段83巷26-6號","121.459981666667","25.0750683333333","6501500","五股區"
"234022","9380-KE","2018/02/05 12:49:51","新北市永和區竹林路119巷28-3號","121.521871666667","25.0118","6500400","永和區"
"234076","969-R7","2018/02/05 12:49:51","新北市永和區中正路10號","121.512591666667","24.9937516666667","6500400","永和區"
"234072","AAC-211","2018/02/05 12:49:44","新北市永和區福和路1號","121.52636","25.00997","6500400","永和區"
"234001","AAC-295","2018/02/05 12:49:44","新北市永和區福和路14號","121.524263333333","25.0084816666667","6500400","永和區"
"244001","248-BX","2018/02/05 12:49:37","新北市林口區粉寮路二段160巷28號","121.40515","25.0907416666667","6501700","林口區"
"243004","AAD-798","2018/02/05 12:45:54","新北市泰山區黎明路25號","121.422003333333","25.0608033333333","6501600","泰山區"
"243003","297-R6","2018/02/05 12:40:19","新北市泰山區黎明路37-3號","121.421945","25.059855","6501600","泰山區"
"231002","002-UM","2018/02/05 12:49:41","新北市新店區安華路28-1號","121.51983","24.9608116666667","6500600","新店區"
"231027","0291-UT","2018/02/05 12:49:50","新北市新店區安華路3號","121.518753333333","24.9608466666667","6500600","新店區"
"231030","047-UY","2018/02/05 12:49:49","新北市新店區安華路28-1號","121.519168333333","24.9609016666667","6500600","新店區"
"231029","106-UY","2018/02/05 12:49:35","新北市新店區安華路28-1號","121.519691666667","24.9607216666667","6500600","新店區"
"231018","107-UY","2018/02/05 12:49:49","新北市新店區安華路28-1號","121.519288333333","24.96141","6500600","新店區"
"231019","187-VK","2018/02/05 12:49:34","新北市新店區安華路28-1號","121.519535","24.961185","6500600","新店區"
"231023","AAD-862","2018/02/05 12:49:49","新北市中和區景新街423巷33弄15號","121.513493333333","24.9897166666667","6500600","新店區"
"231038","4715-K9","2018/02/05 12:49:54","新北市新店區安華路3號","121.519046666667","24.9600933333333","6500600","新店區"
"231003","616-UM","2018/02/05 12:49:35","新北市新店區安華路1-1號","121.519646666667","24.9603833333333","6500600","新店區"
"231034","645-TV","2018/02/05 12:49:55","新北市新店區安華路28-1號","121.519218333333","24.9605766666667","6500600","新店區"
"231013","719-UY","2018/02/05 12:49:40","新北市新店區安華路28-1號","121.519505","24.9612233333333","6500600","新店區"
"235029","098-UM","2018/02/05 12:49:40","新北市中和區員山路36巷16-3號","121.485121666667","24.9912133333333","6500300","中和區"
"235002","185-VK","2018/02/05 12:49:37","新北市中和區錦和路216號","121.490331666667","24.99382","6500300","中和區"
"235031","255-BX","2018/02/05 12:49:54","新北市中和區新民街90號","121.48211","25.0076283333333","6500300","中和區"
"235001","611-BX","2018/02/05 12:49:48","新北市中和區中山路三段118號","121.47577","25.0059716666667","6500300","中和區"
"235027","911-UM","2018/02/05 12:49:52","新北市中和區員山路36巷16-3號","121.485015","24.991215","6500300","中和區"
"207002","749-BX","2018/02/05 12:49:42","新北市萬里區雙興里二坪路32號","121.644663333333","25.168725","6502800","萬里區"
"207001","662-BX","2018/02/05 12:49:46","新北市萬里區萬里里獅頭路23號","121.69338","25.1782266666667","6502800","萬里區"
"236005","498-BY","2018/02/05 12:49:46","新北市土城區永寧路7-2號","121.430481666667","24.9643533333333","6501300","土城區"
"221032","280-BY","2018/02/05 12:49:54","新北市汐止區汐萬路一段81號","121.654788333333","25.0699166666667","6501100","汐止區"
