"lineid","car","time","location","longitude","latitude","cityid","cityname"
"234044","148-BY","2018/02/05 13:29:44","新北市永和區秀朗路二段232號","121.526255","24.999415","6500400","永和區"
"234066","149-BY","2018/02/05 13:29:49","新北市永和區保平路188號","121.510523333333","25.0065","6500400","永和區"
"234005","207-UY","2018/02/05 13:29:38","新北市永和區永貞路375號","121.50834","25.0082466666667","6500400","永和區"
"234078","298-R6","2018/02/05 13:29:52","新北市永和區國中路104巷12弄13號","121.525571666667","25.0067","6500400","永和區"
"234036","336-UY","2018/02/05 13:29:53","新北市永和區民樂街36號","121.527526666667","25.000805","6500400","永和區"
"234062","337-UY","2018/02/05 13:29:38","新北市永和區中正路368巷1弄86號","121.520453333333","25.0007666666667","6500400","永和區"
"234084","338-UY","2018/02/05 13:29:36","新北市永和區林森路65號","121.524056666667","25.0040816666667","6500400","永和區"
"234068","552-UM","2018/02/05 13:29:52","新北市永和區警光街14號","121.519683333333","25.0095316666667","6500400","永和區"
"234015","745-BX","2018/02/05 13:29:38","新北市永和區環河西路一段51巷2號","121.513903333333","25.0182566666667","6500400","永和區"
"234028","746-BX","2018/02/05 13:29:49","新北市永和區民生路69號","121.522615","24.997235","6500400","永和區"
"234052","KEA-2590","2018/02/05 13:29:38","新北市永和區復興街19巷6號","121.51621","25.013175","6500400","永和區"
"234012","KEA-2591","2018/02/05 13:29:42","新北市永和區中山路一段98-2號","121.511438333333","25.0107683333333","6500400","永和區"
"234060","AAD-866","2018/02/05 13:29:48","新北市永和區中正路570號","121.5171","25.0063366666667","6500400","永和區"
"234040","862-TW","2018/02/05 13:29:53","新北市永和區中和路525號","121.511211666667","25.0029166666667","6500400","永和區"
"234048","863-TW","2018/02/05 13:29:54","新北市永和區信義路122號","121.512458333333","25.014765","6500400","永和區"
"234025","9371-KE","2018/02/05 13:29:45","新北市永和區中山路一段17巷4弄16號","121.513046666667","25.0102083333333","6500400","永和區"
"234010","9373-KE","2018/02/05 13:29:43","新北市永和區文化路126巷15弄2號","121.513043333333","25.01588","6500400","永和區"
"248015","026-BX","2018/02/05 13:29:38","新北市五股區凌雲路一段83巷10弄7號","121.450293333333","25.1011233333333","6501500","五股區"
"248005","077-UY","2018/02/05 13:29:39","新北市五股區四維路77號","121.467305","25.07225","6501500","五股區"
"248007","095-VK","2018/02/05 13:29:45","新北市五股區四維路185巷42弄1號","121.463405","25.076915","6501500","五股區"
"248019","225-UY","2018/02/05 13:29:44","新北市五股區天乙路112號","121.446965","25.1123333333333","6501500","五股區"
"248011","247-BX","2018/02/05 13:29:40","新北市五股區御成路8號","121.441983333333","25.0910316666667","6501500","五股區"
"248013","261-SL","2018/02/05 13:29:51","新北市五股區成泰路一段137號","121.435498333333","25.0728983333333","6501500","五股區"
"248003","677-BX","2018/02/05 13:29:49","新北市五股區民義路一段152號","121.433111666667","25.087415","6501500","五股區"
"248001","678-BX","2018/02/05 13:29:46","新北市五股區西雲路167-1號","121.4469","25.0948383333333","6501500","五股區"
"248009","682-TV","2018/02/05 13:29:51","新北市五股區自強路79號","121.432643333333","25.07207","6501500","五股區"
"234022","9380-KE","2018/02/05 13:29:51","新北市永和區竹林路91巷37號","121.520913333333","25.012585","6500400","永和區"
"234076","969-R7","2018/02/05 13:29:51","新北市永和區中正路286巷12號","121.517561666667","24.9984616666667","6500400","永和區"
"234072","AAC-211","2018/02/05 13:29:44","新北市永和區永和路二段105號","121.515","25.0118316666667","6500400","永和區"
"234001","AAC-295","2018/02/05 13:29:46","新北市永和區永和路一段93號","121.513381666667","25.0075916666667","6500400","永和區"
"244001","248-BX","2018/02/05 13:29:37","新北市林口區寶斗厝坑39號","121.336281666667","25.1193583333333","6501700","林口區"
"243004","AAD-798","2018/02/05 13:29:53","新北市泰山區黎明路25號","121.421978333333","25.0608183333333","6501600","泰山區"
"243003","297-R6","2018/02/05 13:29:51","新北市泰山區黎明路31號","121.421748333333","25.0607566666667","6501600","泰山區"
"243002","KEA-2215","2018/02/05 13:29:23","新北市泰山區黎明路22號","121.42002","25.0600616666667","6501600","泰山區"
"243005","646-TV","2018/02/05 13:29:41","新北市泰山區明志路三段206巷3號","121.423271666667","25.03789","6501600","泰山區"
"231002","002-UM","2018/02/05 13:29:41","新北市新店區環河路62號","121.53703","24.9626816666667","6500600","新店區"
"231027","0291-UT","2018/02/05 13:29:50","新北市新店區新店路262-12號","121.53799","24.9583583333333","6500600","新店區"
"231025","0293-UT","2018/02/05 13:29:49","新北市新店區中央七街61巷8號","121.52857","24.9764033333333","6500600","新店區"
"231028","046-UY","2018/02/05 13:29:41","新北市新店區安康路一段266巷4號","121.519953333333","24.96395","6500600","新店區"
"231030","047-UY","2018/02/05 13:29:51","新北市新店區安康路一段355-10號","121.520838333333","24.963785","6500600","新店區"
"231029","106-UY","2018/02/05 13:29:35","新北市新店區安豐路30-1號","121.500788333333","24.9571116666667","6500600","新店區"
"231018","107-UY","2018/02/05 13:29:49","新北市新店區環河路121-2號","121.530306666667","24.9715033333333","6500600","新店區"
"231011","108-UY","2018/02/05 13:29:37","新北市新店區德正街11號","121.543556666667","24.9731216666667","6500600","新店區"
"231013","110-UY","2018/02/05 13:29:39","新北市新店區中央路22-1號","121.53331","24.978405","6500600","新店區"
"231019","187-VK","2018/02/05 13:29:54","新北市新店區永興路88-1號","121.543981666667","24.9337583333333","6500600","新店區"
"231031","188-VK","2018/02/05 13:29:36","新北市新店區安康路一段355號","121.519915","24.96354","6500600","新店區"
"231014","KEA-2219","2018/02/05 13:29:47","新北市新店區北宜路二段30巷5弄10號","121.548366666667","24.9507433333333","6500600","新店區"
"231026","256-BX","2018/02/05 13:29:43","新北市新店區環河路1-1號","121.537853333333","24.961565","6500600","新店區"
"231010","278-BY","2018/02/05 13:29:43","新北市新店區自由街8號","121.535325","24.974995","6500600","新店區"
"231023","AAD-862","2018/02/05 13:29:50","新北市新店區新店路13號","121.54024","24.9529216666667","6500600","新店區"
"231024","4716-K9","2018/02/05 13:29:40","新北市新店區北新路二段59巷5號","121.542228333333","24.9730933333333","6500600","新店區"
"231038","4715-K9","2018/02/05 13:29:54","新北市新店區安華路30巷1號","121.519563333333","24.9592883333333","6500600","新店區"
"231036","512-UM","2018/02/05 13:29:36","新北市新店區安康路二段458號","121.494216666667","24.95398","6500600","新店區"
"231035","515-UM","2018/02/05 13:29:48","新北市新店區安忠路8號","121.514726666667","24.9631966666667","6500600","新店區"
"231003","616-UM","2018/02/05 13:29:35","新北市新店區中正路75巷61號","121.543166666667","24.9692983333333","6500600","新店區"
"231001","619-UM","2018/02/05 13:29:47","新北市新店區中央路181-1號","121.535796666667","24.9690816666667","6500600","新店區"
"231034","645-TV","2018/02/05 13:29:55","新北市新店區車子路109號","121.505208333333","24.9521","6500600","新店區"
"231013","719-UY","2018/02/05 13:29:39","新北市新店區北宜路一段9號","121.538061666667","24.9581866666667","6500600","新店區"
"231005","897-TW","2018/02/05 13:29:45","新北市新店區北新路一段86號","121.541648333333","24.967705","6500600","新店區"
"231006","898-TW","2018/02/05 13:29:47","新北市新店區安康路一段17號","121.533071666667","24.960375","6500600","新店區"
"231004","899-TW","2018/02/05 13:29:46","新北市新店區安康路一段35號","121.531818333333","24.9607166666667","6500600","新店區"
"231037","AKT-0513","2018/02/05 13:29:38","新北市新店區薏仁坑路28-3號","121.495493333333","24.963525","6500600","新店區"
"235030","003-UY","2018/02/05 13:29:43","新北市中和區中山路二段110號","121.502828333333","25.0039083333333","6500300","中和區"
"235028","005-UY","2018/02/05 13:29:51","新北市中和區圓通路169號","121.497683333333","24.99544","6500300","中和區"
"235020","096-UM","2018/02/05 13:29:46","新北市中和區建八路1號","121.485545","24.9987016666667","6500300","中和區"
"235003","097-UM","2018/02/05 13:29:42","新北市中和區景平路172號","121.516938333333","24.992635","6500300","中和區"
"235029","098-UM","2018/02/05 13:29:48","新北市中和區莊敬路49巷10弄10號","121.50187","25.00533","6500300","中和區"
"235004","150-BY","2018/02/05 13:29:54","新北市中和區保健路50巷66號","121.509353333333","24.9951966666667","6500300","中和區"
"235022","151-BY","2018/02/05 13:29:39","新北市中和區圓通路369巷152號","121.487926666667","24.9816166666667","6500300","中和區"
"235019","183-VK","2018/02/05 13:29:38","新北市中和區民享街245號","121.472046666667","24.9962516666667","6500300","中和區"
"235002","185-VK","2018/02/05 13:29:37","新北市中和區自立路24號","121.522458333333","24.9931333333333","6500300","中和區"
"235031","255-BX","2018/02/05 13:29:34","新北市中和區員山路146巷24號","121.482506666667","24.9967033333333","6500300","中和區"
"235036","301-VK","2018/02/05 13:29:38","新北市中和區連城路287號","121.490233333333","24.9964033333333","6500300","中和區"
"235007","352-BY","2018/02/05 13:29:43","新北市中和區景平路335-1號","121.505613333333","24.99328","6500300","中和區"
"235032","377-QA","2018/02/05 13:29:39","新北市中和區圓通路278號","121.491713333333","24.9906133333333","6500300","中和區"
"235035","269-TV","2018/02/05 13:29:56","新北市中和區永和路514號","121.482351666667","25.0122733333333","6500300","中和區"
"235014","4979-A6","2018/02/05 13:29:35","新北市中和區景新街362巷10號","121.511948333333","24.9901516666667","6500300","中和區"
"235033","4980-A6","2018/02/05 13:29:51","新北市中和區連城路127巷13號","121.496581666667","24.99844","6500300","中和區"
"235006","551-UM","2018/02/05 13:29:50","新北市中和區自立路56巷24號","121.522373333333","24.9916583333333","6500300","中和區"
"235034","558-UM","2018/02/05 13:29:35","新北市中和區圓通路61號","121.500498333333","24.9973033333333","6500300","中和區"
"235009","565-BX","2018/02/05 13:29:53","新北市中和區景安路239號","121.50414","24.990915","6500300","中和區"
"235018","640-BX","2018/02/05 13:29:49","新北市中和區民享街111號","121.474763333333","24.9994983333333","6500300","中和區"
"235024","647-TV","2018/02/05 13:29:47","新北市中和區員山路145號","121.481051666667","24.9961633333333","6500300","中和區"
"235011","732-UM","2018/02/05 13:29:39","新北市中和區南山路300號","121.507773333333","24.98712","6500300","中和區"
"235026","800-TS","2018/02/05 13:29:46","新北市中和區景平路739號","121.496368333333","25.00442","6500300","中和區"
"235021","801-TS","2018/02/05 13:29:46","新北市中和區民安街111巷4弄3號","121.476293333333","24.99904","6500300","中和區"
"235005","802-TS","2018/02/05 13:29:40","新北市中和區中和路318號","121.509501666667","25.0006433333333","6500300","中和區"
"235016","805-TS","2018/02/05 13:29:54","新北市中和區興南路二段96號","121.505196666667","24.9841866666667","6500300","中和區"
"235012","896-TW","2018/02/05 13:29:36","新北市中和區錦和路350-1號","121.490253333333","24.9935616666667","6500300","中和區"
"235027","911-UM","2018/02/05 13:29:52","新北市中和區連城路347巷2弄3-3號","121.487996666667","24.9957833333333","6500300","中和區"
"235015","157-BY","2018/02/05 13:29:45","新北市中和區興南路二段142巷24弄2號","121.502218333333","24.9847366666667","6500300","中和區"
"235001","AAC-213","2018/02/05 13:29:37","新北市中和區景新街383巷60號","121.514566666667","24.9904683333333","6500300","中和區"
"220016","013-TV","2018/02/05 13:29:46","新北市板橋區民生路二段120號","121.470378333333","25.01965","6500100","板橋區"
"220104","015-TV","2018/02/05 13:29:38","新北市板橋區華東街300號","121.452903333333","25.00262","6500100","板橋區"
"220034","073-UY","2018/02/05 13:29:47","新北市板橋區華東街1-10號","121.448203333333","24.9950833333333","6500100","板橋區"
"247005","056-VK","2018/02/05 13:29:39","新北市五股區新五路二段258號","121.440668333333","25.0821683333333","6501400","蘆洲區"
"227008","400-TW","2018/02/05 13:29:14","新北市雙溪區三貂里政光路3-1號","121.850898333333","25.06309","6502500","雙溪區"
"253003","6232-TK","2018/02/05 13:29:35","新北市石門區內石門50-4號","121.571423333333","25.2626833333333","6502200","石門區"
"253001","6251-TK","2018/02/05 13:29:43","新北市石門區下員坑30-6號","121.52","25.282745","6502200","石門區"
"253002","637-UY","2018/02/05 13:29:49","新北市石門區九芎林5-3號","121.559576666667","25.2687583333333","6502200","石門區"
"253004","8270-PC","2018/02/05 13:29:50","新北市石門區竹子湖1號","121.615006666667","25.2651466666667","6502200","石門區"
"208004","AAC-292","2018/02/05 13:29:45","新北市金山區南勢湖75號","121.610613333333","25.2107133333333","6502700","金山區"
"207002","749-BX","2018/02/05 13:29:42","新北市萬里區崁腳里崁腳路166號","121.645033333333","25.155905","6502800","萬里區"
"252005","073-UM","2018/02/05 13:29:39","新北市三芝區圓山里八連溪頭6號","121.52617","25.2219783333333","6502100","三芝區"
"207001","662-BX","2018/02/05 13:29:46","新北市萬里區野柳里八斗60-1號","121.67694","25.2004633333333","6502800","萬里區"
"236005","498-BY","2018/02/05 13:29:45","新北市土城區大安路138巷40號","121.4348","24.9718116666667","6501300","土城區"
"221012","278-VK","2018/02/05 13:29:43","新北市汐止區大同路一段203號","121.633468333333","25.0572666666667","6501100","汐止區"
"221032","280-BY","2018/02/05 13:29:33","新北市汐止區龍安路28巷8號","121.654995","25.0643233333333","6501100","汐止區"
"220030","610-BX","2018/02/05 13:29:47","新北市板橋區華東街1-10號","121.44825","24.99496","6500100","板橋區"
"220032","296-UM","2018/02/05 13:29:42","新北市板橋區華東街1-9號","121.448086666667","24.9949833333333","6500100","板橋區"
"220012","486-VK","2018/02/05 13:29:49","新北市板橋區南雅南路二段4巷14號","121.453703333333","25.00372","6500100","板橋區"
"220025","687-BX","2018/02/05 13:29:44","新北市板橋區大觀路三段5-4號","121.432723333333","24.9959383333333","6500100","板橋區"
"220002","741-BX","2018/02/05 13:29:44","新北市板橋區華東街1-9號","121.448056666667","24.99493","6500100","板橋區"
"220014","829-TW","2018/02/05 13:29:40","新北市板橋區民生路二段161巷3號","121.470216666667","25.019815","6500100","板橋區"
"220022","895-R6","2018/02/05 13:29:41","新北市板橋區華東街1-9號","121.448171666667","24.9950233333333","6500100","板橋區"
