"lineid","car","time","location","longitude","latitude","cityid","cityname"
"234044","148-BY","2018/02/05 13:59:44","新北市永和區成功路一段89號","121.526896666667","25.0028383333333","6500400","永和區"
"234066","149-BY","2018/02/05 13:59:49","新北市永和區永貞路376號","121.509825","25.0069533333333","6500400","永和區"
"234005","207-UY","2018/02/05 13:59:38","新北市中和區中和路376號","121.51066","25.0020566666667","6500400","永和區"
"234078","298-R6","2018/02/05 13:59:32","新北市永和區永亨路98號","121.522986666667","25.0047483333333","6500400","永和區"
"234036","336-UY","2018/02/05 13:59:44","新北市永和區成功路二段155號","121.526641666667","24.9974966666667","6500400","永和區"
"234062","337-UY","2018/02/05 13:59:38","新北市永和區中正路368巷1弄47號","121.519158333333","25.0012683333333","6500400","永和區"
"234084","338-UY","2018/02/05 13:59:36","新北市永和區中正路511號","121.51689","25.00707","6500400","永和區"
"234068","552-UM","2018/02/05 13:59:32","新北市永和區國光路51號","121.518963333333","25.0082283333333","6500400","永和區"
"234015","745-BX","2018/02/05 13:59:45","新北市永和區文化路92號","121.51379","25.01525","6500400","永和區"
"234028","746-BX","2018/02/05 13:59:28","新北市永和區四維街67號","121.52568","24.9978866666667","6500400","永和區"
"234052","KEA-2590","2018/02/05 13:59:38","新北市永和區竹林路54號","121.517856666667","25.0139833333333","6500400","永和區"
"234012","KEA-2591","2018/02/05 13:59:42","新北市永和區保生路55號","121.504681666667","25.0106083333333","6500400","永和區"
"234060","AAD-866","2018/02/05 13:59:47","新北市永和區得和路47號","121.516671666667","25.000325","6500400","永和區"
"234040","862-TW","2018/02/05 13:59:33","新北市永和區雙和街17巷23號","121.50897","25.0012283333333","6500400","永和區"
"234048","863-TW","2018/02/05 13:59:34","新北市永和區保安路218號","121.507278333333","25.01369","6500400","永和區"
"234025","9371-KE","2018/02/05 13:59:45","新北市永和區安樂路467號","121.514321666667","25.00549","6500400","永和區"
"234010","9373-KE","2018/02/05 13:59:43","新北市永和區保福路二段163巷14號","121.508771666667","25.0146916666667","6500400","永和區"
"248015","026-BX","2018/02/05 13:59:38","新北市五股區成泰路三段543巷18號","121.45093","25.102295","6501500","五股區"
"248007","095-VK","2018/02/05 13:59:45","新北市五股區中興路一段128巷32號","121.465758333333","25.0751633333333","6501500","五股區"
"248019","225-UY","2018/02/05 13:59:32","新北市五股區凌雲路三段57號","121.425326666667","25.1250266666667","6501500","五股區"
"248011","247-BX","2018/02/05 13:59:40","新北市五股區成泰路二段195巷1號","121.440413333333","25.0873783333333","6501500","五股區"
"248003","677-BX","2018/02/05 13:59:49","新北市五股區民義路二段116號","121.403601666667","25.1115866666667","6501500","五股區"
"248001","678-BX","2018/02/05 13:59:46","新北市五股區天乙路3號","121.448843333333","25.10267","6501500","五股區"
"248009","682-TV","2018/02/05 13:59:37","新北市五股區水碓一路23號","121.430606666667","25.071365","6501500","五股區"
"234022","9380-KE","2018/02/05 13:59:31","新北市永和區永和路二段103號","121.51494","25.01176","6500400","永和區"
"234076","969-R7","2018/02/05 13:59:31","新北市永和區民治街29號","121.51966","24.9977133333333","6500400","永和區"
"234072","AAC-211","2018/02/05 13:59:44","新北市永和區豫溪街185號","121.522473333333","25.0103783333333","6500400","永和區"
"234001","AAC-295","2018/02/05 13:59:44","新北市永和區福和路326號","121.515531666667","25.0072483333333","6500400","永和區"
"243004","AAD-798","2018/02/05 13:59:33","新北市泰山區仁德路114號","121.432783333333","25.057045","6501600","泰山區"
"243003","297-R6","2018/02/05 13:59:31","新北市泰山區明志路二段246-1號","121.427035","25.0481916666667","6501600","泰山區"
"243007","380-SR","2018/02/05 13:59:40","新北市泰山區泰林路二段240號","121.43221","25.0621433333333","6501600","泰山區"
"243006","421-VK","2018/02/05 13:59:40","新北市泰山區黎明路2-5號","121.420868333333","25.0626866666667","6501600","泰山區"
"243002","KEA-2215","2018/02/05 13:59:44","新北市泰山區辭修路24號","121.428993333333","25.0581416666667","6501600","泰山區"
"243001","KEA-2216","2018/02/05 13:59:30","新北市泰山區泰林路二段262號","121.431673333333","25.0623316666667","6501600","泰山區"
"243005","646-TV","2018/02/05 13:59:41","新北市泰山區明志路三段351巷19號","121.422718333333","25.0348683333333","6501600","泰山區"
"243008","680-BX","2018/02/05 13:59:40","新北市泰山區明志路二段134號","121.427503333333","25.0512316666667","6501600","泰山區"
"231002","002-UM","2018/02/05 13:59:42","新北市新店區溪園路249號","121.524148333333","24.982355","6500600","新店區"
"231027","0291-UT","2018/02/05 13:59:50","新北市新店區北宜路一段7號","121.538413333333","24.9583383333333","6500600","新店區"
"231025","0293-UT","2018/02/05 13:59:49","新北市新店區中正路275巷40號","121.536618333333","24.9726566666667","6500600","新店區"
"231028","046-UY","2018/02/05 13:59:40","新北市新店區安和路三段99號","121.517865","24.9843333333333","6500600","新店區"
"231030","047-UY","2018/02/05 13:59:48","新北市新店區安民街115巷28號","121.515121666667","24.967575","6500600","新店區"
"231029","106-UY","2018/02/05 13:59:35","新北市新店區安康路二段3-1號","121.51601","24.9637116666667","6500600","新店區"
"231018","107-UY","2018/02/05 13:59:49","新北市新店區中央路97號","121.53111","24.9750833333333","6500600","新店區"
"231011","108-UY","2018/02/05 13:59:47","新北市新店區中興路一段282-3號","121.546075","24.9683566666667","6500600","新店區"
"231013","110-UY","2018/02/05 13:59:39","新北市新店區明德路111號","121.54144","24.979455","6500600","新店區"
"231019","187-VK","2018/02/05 13:59:41","新北市新店區屈尺路83號","121.545285","24.9227016666667","6500600","新店區"
"231031","188-VK","2018/02/05 13:59:36","新北市新店區太平路30號","121.533333333333","24.9588883333333","6500600","新店區"
"231014","KEA-2219","2018/02/05 13:59:47","新北市新店區郵政路3巷5號","121.557391666667","24.95202","6500600","新店區"
"231026","256-BX","2018/02/05 13:59:43","新北市新店區安康路一段9-2號","121.533783333333","24.9606533333333","6500600","新店區"
"231023","AAD-862","2018/02/05 13:59:30","新北市新店區文中路51號","121.539795","24.9565933333333","6500600","新店區"
"231024","4716-K9","2018/02/05 13:59:47","新北市新店區北新路一段271巷3號","121.540653333333","24.9666166666667","6500600","新店區"
"231038","4715-K9","2018/02/05 13:59:34","新北市新店區溪洲路121號","121.531126666667","24.9628233333333","6500600","新店區"
"231036","512-UM","2018/02/05 13:59:36","新北市新店區安祥路145巷2號","121.47483","24.9556633333333","6500600","新店區"
"231035","515-UM","2018/02/05 13:59:28","新北市新店區安康路二段1-5號","121.51712","24.9638933333333","6500600","新店區"
"231003","616-UM","2018/02/05 13:59:35","新北市新店區中興路一段34號","121.538673333333","24.95868","6500600","新店區"
"231001","619-UM","2018/02/05 13:59:47","新北市新店區三民路24號","121.53706","24.971135","6500600","新店區"
"231034","645-TV","2018/02/05 13:59:35","新北市新店區達觀路16-7號","121.501951666667","24.9409916666667","6500600","新店區"
"231013","719-UY","2018/02/05 13:59:39","新北市新店區北新路三段82號","121.542208333333","24.9807683333333","6500600","新店區"
"231005","897-TW","2018/02/05 13:59:45","新北市新店區中興路三段133號","121.544686666667","24.979345","6500600","新店區"
"231006","898-TW","2018/02/05 13:59:47","新北市新店區北宜路二段209號","121.553123333333","24.9535233333333","6500600","新店區"
"231004","899-TW","2018/02/05 13:59:46","新北市新店區北新路二段109號","121.542816666667","24.9747016666667","6500600","新店區"
"231037","AKT-0513","2018/02/05 13:59:38","新北市新店區安康路三段355巷32號","121.484841666667","24.9494316666667","6500600","新店區"
"235030","003-UY","2018/02/05 13:59:43","新北市中和區中山路二段131巷5弄2號","121.502848333333","25.0028083333333","6500300","中和區"
"235028","005-UY","2018/02/05 13:59:31","新北市中和區連城路75巷13號","121.498521666667","24.9983933333333","6500300","中和區"
"235020","096-UM","2018/02/05 13:59:46","新北市中和區中正路1224號","121.47957","25.0108433333333","6500300","中和區"
"235003","097-UM","2018/02/05 13:59:42","新北市中和區大仁街38號","121.517965","24.993855","6500300","中和區"
"235029","098-UM","2018/02/05 13:59:40","新北市中和區勝利路35巷16號","121.499043333333","25.0071966666667","6500300","中和區"
"235004","150-BY","2018/02/05 13:59:34","新北市中和區保健路46巷14號","121.509115","24.9965033333333","6500300","中和區"
"235022","151-BY","2018/02/05 13:59:39","新北市中和區連城路565號","121.479538333333","24.9943683333333","6500300","中和區"
"235019","183-VK","2018/02/05 13:59:38","新北市中和區中山路三段229巷41號","121.469538333333","25.0055683333333","6500300","中和區"
"235002","185-VK","2018/02/05 13:59:37","新北市中和區自強路56號","121.52009","24.9946833333333","6500300","中和區"
"235013","186-VK","2018/02/05 13:59:38","新北市中和區景安路157號","121.505418333333","24.9949033333333","6500300","中和區"
"235031","255-BX","2018/02/05 13:59:34","新北市中和區新生街266號","121.483501666667","24.9972183333333","6500300","中和區"
"235008","293-VK","2018/02/05 13:59:42","新北市中和區中興街163號","121.500016666667","24.9908383333333","6500300","中和區"
"235036","301-VK","2018/02/05 13:59:38","新北市中和區中山路二段41號","121.504598333333","25.0051833333333","6500300","中和區"
"235007","352-BY","2018/02/05 13:59:43","新北市永和區成功路二段217巷3號","121.526521666667","24.995665","6500300","中和區"
"235032","377-QA","2018/02/05 13:59:39","新北市中和區圓通路162巷39號","121.496313333333","24.9955083333333","6500300","中和區"
"235035","269-TV","2018/02/05 13:59:36","新北市中和區立德街26巷15號","121.490305","25.00754","6500300","中和區"
"235014","4979-A6","2018/02/05 13:59:35","新北市中和區華新街50巷6號","121.507688333333","24.9839683333333","6500300","中和區"
"235033","4980-A6","2018/02/05 13:59:31","新北市中和區景平路620號","121.500673333333","24.9971083333333","6500300","中和區"
"235006","551-UM","2018/02/05 13:59:30","新北市中和區秀朗路三段50巷2弄8號","121.526106666667","24.9958766666667","6500300","中和區"
"235034","558-UM","2018/02/05 13:51:46","新北市中和區圓通路14號","121.501481666667","24.9980316666667","6500300","中和區"
"235009","565-BX","2018/02/05 13:59:33","新北市中和區景新街467巷22號","121.514235","24.988295","6500300","中和區"
"235018","640-BX","2018/02/05 13:59:29","新北市中和區民享街6-1號","121.47395","25.0048033333333","6500300","中和區"
"235024","647-TV","2018/02/05 13:59:47","新北市中和區中山路三段144號","121.473781666667","25.00637","6500300","中和區"
"235011","732-UM","2018/02/05 13:55:59","新北市中和區興南路二段34巷24弄4號","121.505675","24.9865233333333","6500300","中和區"
"235010","733-UM","2018/02/05 13:59:40","新北市中和區興南路二段11號","121.5082","24.98616","6500300","中和區"
"235026","800-TS","2018/02/05 13:59:46","新北市中和區中山路二段340巷64號","121.493061666667","25.0049583333333","6500300","中和區"
"235021","801-TS","2018/02/05 13:59:46","新北市中和區民利街12號","121.480661666667","24.9992566666667","6500300","中和區"
"235005","802-TS","2018/02/05 13:59:40","新北市中和區中安街42號","121.512843333333","25.002765","6500300","中和區"
"235016","805-TS","2018/02/05 13:59:34","新北市中和區興南路二段399巷134-1號","121.501358333333","24.9740133333333","6500300","中和區"
"235012","896-TW","2018/02/05 13:59:36","新北市中和區華新街40號","121.507875","24.9843","6500300","中和區"
"235017","900-TW","2018/02/05 13:59:44","新北市板橋區和平路174巷33號","121.465073333333","24.9942333333333","6500300","中和區"
"235027","911-UM","2018/02/05 13:59:32","新北市中和區中正路548號","121.487123333333","24.9945533333333","6500300","中和區"
"235015","157-BY","2018/02/05 13:59:52","新北市中和區忠孝街9號","121.509956666667","24.9829916666667","6500300","中和區"
"235001","AAC-213","2018/02/05 13:59:37","新北市中和區自立路99巷28號","121.52358","24.9945733333333","6500300","中和區"
"220016","013-TV","2018/02/05 13:59:46","新北市板橋區中山路二段465巷40弄2號","121.481183333333","25.0214866666667","6500100","板橋區"
"220104","015-TV","2018/02/05 13:59:38","新北市板橋區中正路275巷10號","121.455235","25.01882","6500100","板橋區"
"220013","072-UY","2018/02/05 13:59:33","新北市板橋區漢生東路342號","121.471891666667","25.0075083333333","6500100","板橋區"
"220034","073-UY","2018/02/05 13:59:47","新北市板橋區中正路101號","121.456333333333","25.0147983333333","6500100","板橋區"
"220105","075-UY","2018/02/05 13:59:43","新北市板橋區文化路二段16-2號","121.468835","25.0243233333333","6500100","板橋區"
"220017","AAD-861","2018/02/05 13:59:47","新北市板橋區華興街68號","121.457455","25.0049483333333","6500100","板橋區"
"247019","500-BY","2018/02/05 13:59:50","新北市蘆洲區民族路426巷40弄11號","121.473406666667","25.0932066666667","6501400","蘆洲區"
"247007","341-TH","2018/02/05 13:59:46","新北市三重區仁愛街747號","121.481251666667","25.0806033333333","6501400","蘆洲區"
"247001","337-TH","2018/02/05 13:59:35","新北市蘆洲區永平街32巷74號","121.460525","25.0936666666667","6501400","蘆洲區"
"247003","336-TH","2018/02/05 13:59:32","新北市蘆洲區長榮路20號","121.463773333333","25.0822116666667","6501400","蘆洲區"
"247009","335-TH","2018/02/05 13:59:30","新北市蘆洲區集賢路224巷27號","121.481686666667","25.08716","6501400","蘆洲區"
"247005","056-VK","2018/02/05 13:59:48","新北市蘆洲區永安南路二段50號","121.466015","25.0776916666667","6501400","蘆洲區"
"247015","053-VK","2018/02/05 13:59:46","新北市蘆洲區光華路44號","121.46875","25.0831366666667","6501400","蘆洲區"
"247013","007-UY","2018/02/05 13:59:36","新北市蘆洲區中正路100號","121.46975","25.0843283333333","6501400","蘆洲區"
"247017","001-UY","2018/02/05 13:59:37","新北市蘆洲區民族路227巷22弄15號","121.476128333333","25.0893733333333","6501400","蘆洲區"
"253003","6232-TK","2018/02/05 13:59:35","新北市石門區尖子鹿7-2號","121.574868333333","25.2800033333333","6502200","石門區"
"253001","6251-TK","2018/02/05 13:59:43","新北市石門區下員坑26-2號","121.51607","25.275905","6502200","石門區"
"253002","637-UY","2018/02/05 13:59:49","新北市石門區尖山湖21-1號","121.55655","25.2489883333333","6502200","石門區"
"253004","8270-PC","2018/02/05 13:59:30","新北市石門區草埔尾34-5號","121.603003333333","25.2650533333333","6502200","石門區"
"208004","AAC-292","2018/02/05 13:59:45","新北市金山區山城路80巷20號","121.598615","25.2010566666667","6502700","金山區"
"207002","749-BX","2018/02/05 13:58:02","新北市萬里區溪底里烏塗炭9號","121.637221666667","25.1515866666667","6502800","萬里區"
"252005","073-UM","2018/02/05 13:59:39","新北市三芝區橫山里橫山56-6號","121.535058333333","25.2498233333333","6502100","三芝區"
"207001","662-BX","2018/02/05 13:59:46","新北市萬里區磺潭里清水18號","121.638011666667","25.1975716666667","6502800","萬里區"
"236064","105-UM","2018/02/05 13:59:41","新北市土城區城林路6巷80號","121.438323333333","24.9797333333333","6501300","土城區"
"236040","107-UM","2018/02/05 13:59:44","新北市土城區城林路6巷80號","121.438471666667","24.9797266666667","6501300","土城區"
"236074","166-UM","2018/02/05 13:59:37","新北市土城區永寧路32巷10弄21號","121.428958333333","24.9610266666667","6501300","土城區"
"236028","253-BX","2018/02/05 13:59:40","新北市土城區中央路二段223號","121.440743333333","24.97374","6501300","土城區"
"236024","269-VK","2018/02/05 13:59:40","新北市土城區承天路30巷12號","121.439181666667","24.9625483333333","6501300","土城區"
"236012","270-VK","2018/02/05 13:59:32","新北市土城區中央路二段219-6號","121.440885","24.973915","6501300","土城區"
"236032","271-VK","2018/02/05 13:59:41","新北市土城區城林路6巷80號","121.438431666667","24.9797683333333","6501300","土城區"
"236016","401-BY","2018/02/05 13:59:44","新北市土城區城林路6巷80號","121.438511666667","24.9797616666667","6501300","土城區"
"236005","498-BY","2018/02/05 13:59:45","新北市土城區中央路一段334號","121.44313","24.981305","6501300","土城區"
"236056","912-UM","2018/02/05 13:59:46","新北市土城區大安路2號","121.432863333333","24.9655333333333","6501300","土城區"
"236044","913-UM","2018/02/05 13:59:44","新北市土城區城林路6巷80號","121.438326666667","24.9797616666667","6501300","土城區"
"236060","915-UM","2018/02/05 13:59:43","新北市土城區城林路6巷80號","121.43837","24.9796083333333","6501300","土城區"
"236052","AAC-216","2018/02/05 13:59:50","新北市土城區城林路6巷80號","121.438311666667","24.9797566666667","6501300","土城區"
"242045","172-VK","2018/02/05 13:59:47","新北市新莊區新樹路609-6號","121.433836666667","25.0043766666667","6500500","新莊區"
"221012","278-VK","2018/02/05 13:59:43","新北市新店區薏仁坑路自強巷1號","121.497218333333","24.9578483333333","6501100","汐止區"
"220027","145-BY","2018/02/05 13:59:47","新北市板橋區民權路202巷7弄3號","121.459911666667","25.0147683333333","6500100","板橋區"
"220028","200-UY","2018/02/05 13:59:34","新北市板橋區大觀路二段文和巷76-1號","121.444016666667","24.998395","6500100","板橋區"
"220030","610-BX","2018/02/05 13:59:47","新北市板橋區篤行路三段玉平巷12號","121.42894","24.98735","6500100","板橋區"
"220052","257-TC","2018/02/05 13:59:34","新北市板橋區介壽街120號","121.469778333333","25.0177416666667","6500100","板橋區"
"220004","276-BY","2018/02/05 13:59:49","新北市板橋區信義路107-1號","121.4576","24.9934933333333","6500100","板橋區"
"220020","277-BY","2018/02/05 13:59:37","新北市板橋區大觀路三段36巷5號","121.433778333333","24.9959733333333","6500100","板橋區"
"220050","280-UM","2018/02/05 13:59:46","新北市板橋區文化路二段16-2號","121.468763333333","25.0242683333333","6500100","板橋區"
"220019","283-VK","2018/02/05 13:59:43","新北市板橋區忠孝路154巷22號","121.464068333333","25.0019733333333","6500100","板橋區"
"220043","285-UM","2018/02/05 13:59:44","新北市板橋區莒光路16巷13號","121.469501666667","25.0240716666667","6500100","板橋區"
"220001","285-VK","2018/02/05 13:59:33","新北市板橋區中山路二段157號","121.475653333333","25.0167633333333","6500100","板橋區"
"220031","286-VK","2018/02/05 13:59:51","新北市板橋區大觀路一段38巷156弄36-1號","121.442623333333","25.0058183333333","6500100","板橋區"
"220029","287-VK","2018/02/05 13:59:41","新北市板橋區光華街19巷13號","121.453266666667","25.011955","6500100","板橋區"
"220039","288-VK","2018/02/05 13:59:38","新北市板橋區民生路三段52號","121.467075","25.0251183333333","6500100","板橋區"
"220009","293-UM","2018/02/05 13:59:33","新北市板橋區富山街85巷2弄2號","121.476645","25.021625","6500100","板橋區"
"220032","296-UM","2018/02/05 13:59:42","新北市板橋區大觀路二段174巷116弄49號","121.442421666667","25.0013016666667","6500100","板橋區"
"220023","303-R5","2018/02/05 13:59:48","新北市板橋區館前西路213巷17號","121.454335","25.00803","6500100","板橋區"
"220010","305-R5","2018/02/05 13:59:43","新北市板橋區三民路二段204-4號","121.478946666667","25.0124","6500100","板橋區"
"220041","307-R5","2018/02/05 13:59:42","新北市板橋區縣民大道二段200巷1號","121.469608333333","25.0173083333333","6500100","板橋區"
"220047","317-R6","2018/02/05 13:59:47","新北市板橋區民生路三段54號","121.46718","25.0252633333333","6500100","板橋區"
"220012","486-VK","2018/02/05 13:59:49","新北市板橋區板新路237號","121.467618333333","25.016055","6500100","板橋區"
"220038","487-VK","2018/02/05 13:59:32","新北市板橋區民生路二段250號","121.46839","25.0234466666667","6500100","板橋區"
"220037","491-VK","2018/02/05 13:59:50","新北市板橋區民生路二段208號","121.469531666667","25.0211583333333","6500100","板橋區"
"220011","609-BX","2018/02/05 13:59:45","新北市板橋區中山路二段135號","121.475055","25.0166016666667","6500100","板橋區"
"220040","637-BX","2018/02/05 13:59:47","新北市板橋區莊敬路208巷2弄6號","121.471585","25.0216116666667","6500100","板橋區"
"220005","686-BX","2018/02/05 13:59:42","新北市板橋區館前東路60號","121.461041666667","25.00733","6500100","板橋區"
"220025","687-BX","2018/02/05 13:59:44","新北市板橋區大觀路三段59巷17弄6-1號","121.437275","24.99527","6500100","板橋區"
"220042","689-BX","2018/02/05 13:59:40","新北市板橋區民生路三段12號","121.467695","25.0242166666667","6500100","板橋區"
"220002","741-BX","2018/02/05 13:59:44","新北市板橋區後埔街79號","121.460708333333","25.0054","6500100","板橋區"
"220003","827-TW","2018/02/05 13:59:30","新北市板橋區中山路一段158巷10號","121.466073333333","25.01149","6500100","板橋區"
"220014","829-TW","2018/02/05 13:59:40","新北市板橋區三民路二段正隆巷12弄1號","121.478081666667","25.0129116666667","6500100","板橋區"
"220045","830-TW","2018/02/05 13:59:40","新北市板橋區莊敬路229號","121.4717","25.0217233333333","6500100","板橋區"
"220022","895-R6","2018/02/05 13:59:42","新北市板橋區南雅南路一段108號","121.454816666667","25.004325","6500100","板橋區"
"220021","985-R7","2018/02/05 13:59:31","新北市板橋區館前西路195號","121.45535","25.0083733333333","6500100","板橋區"
"220046","AAC-210","2018/02/05 13:59:35","新北市板橋區民生路三段20號","121.467553333333","25.0244266666667","6500100","板橋區"
"220018","AAC-253","2018/02/05 13:59:43","新北市板橋區四川路一段290號","121.458675","25.0006783333333","6500100","板橋區"
