"lineid","car","time","location","longitude","latitude","cityid","cityname"
"234084","338-UY","2018/02/05 14:58:56","新北市五股區中直路13-7號","121.424558333333","25.11056","6500400","永和區"
"234028","746-BX","2018/02/05 14:58:08","新北市五股區中直路17-4號","121.42274","25.11135","6500400","永和區"
"234060","AAD-866","2018/02/05 14:59:27","新北市五股區五工一路107號","121.457191666667","25.0704216666667","6500400","永和區"
"234025","9371-KE","2018/02/05 14:59:25","新北市永和區水源街21巷14弄4號","121.511393333333","25.0038416666667","6500400","永和區"
"248015","026-BX","2018/02/05 14:59:38","新北市五股區凌雲路一段158巷50弄21號","121.447871666667","25.104395","6501500","五股區"
"248007","095-VK","2018/02/05 14:59:25","新北市五股區四維路171巷16號","121.467176666667","25.075265","6501500","五股區"
"248019","225-UY","2018/02/05 14:59:29","新北市五股區凌雲路三段19-1號","121.430635","25.109175","6501500","五股區"
"248011","247-BX","2018/02/05 14:59:40","新北市五股區六合街42號","121.43282","25.08937","6501500","五股區"
"248013","261-SL","2018/02/05 14:59:30","新北市五股區成泰路二段222-4號","121.43926","25.0856133333333","6501500","五股區"
"248003","677-BX","2018/02/05 14:59:29","新北市五股區成泰路一段8巷2-3號","121.434975","25.066865","6501500","五股區"
"248001","678-BX","2018/02/05 14:59:26","新北市五股區成泰路二段197巷1號","121.440731666667","25.0875033333333","6501500","五股區"
"248009","682-TV","2018/02/05 14:59:37","新北市五股區成泰路一段9號","121.433545","25.06664","6501500","五股區"
"243004","AAD-798","2018/02/05 14:59:33","新北市泰山區楓江路113號","121.438758333333","25.0643383333333","6501600","泰山區"
"243003","297-R6","2018/02/05 14:59:31","新北市新莊區壽山路33-19號","121.418698333333","25.030015","6501600","泰山區"
"243007","380-SR","2018/02/05 14:59:40","新北市泰山區泰林路二段115號","121.43438","25.05947","6501600","泰山區"
"243006","421-VK","2018/02/05 14:59:40","新北市泰山區明志路一段191號","121.432968333333","25.0618783333333","6501600","泰山區"
"243002","KEA-2215","2018/02/05 14:59:24","新北市泰山區明志路二段273巷16弄15號","121.427806666667","25.0467283333333","6501600","泰山區"
"243001","KEA-2216","2018/02/05 14:59:30","新北市泰山區泰林路二段306巷6號","121.431006666667","25.0632583333333","6501600","泰山區"
"243005","646-TV","2018/02/05 14:59:21","新北市泰山區新民路14巷1號","121.426705","25.0446533333333","6501600","泰山區"
"243008","680-BX","2018/02/05 14:59:40","新北市泰山區明志路三段313號","121.422411666667","25.036035","6501600","泰山區"
"231002","002-UM","2018/02/05 14:59:22","新北市新店區民權路66號","121.538406666667","24.98295","6500600","新店區"
"231027","0291-UT","2018/02/05 14:59:30","新北市新店區薏仁坑路8-3號","121.499503333333","24.9588616666667","6500600","新店區"
"231025","0293-UT","2018/02/05 14:59:29","新北市新店區建國路150號","121.538711666667","24.9791766666667","6500600","新店區"
"231028","046-UY","2018/02/05 14:59:40","新北市新店區安豐路46號","121.500053333333","24.9549","6500600","新店區"
"231030","047-UY","2018/02/05 14:59:28","新北市新店區安民街335號","121.517273333333","24.9748916666667","6500600","新店區"
"231029","106-UY","2018/02/05 14:59:35","新北市新店區錦秀路48號","121.479021666667","24.9434316666667","6500600","新店區"
"231018","107-UY","2018/02/05 14:59:29","新北市新店區中央六街5號","121.530293333333","24.97453","6500600","新店區"
"231011","108-UY","2018/02/05 14:59:37","新北市新店區寶橋路97號","121.547066666667","24.9765283333333","6500600","新店區"
"231019","187-VK","2018/02/05 14:59:34","新北市新店區永福路54號","121.558603333333","24.927825","6500600","新店區"
"231031","188-VK","2018/02/05 14:59:23","新北市新店區安泰路20號","121.485491666667","24.9486533333333","6500600","新店區"
"231014","KEA-2219","2018/02/05 14:59:27","新北市新店區銀河路86-1號","121.580966666667","24.9588666666667","6500600","新店區"
"231026","256-BX","2018/02/05 14:59:31","新北市新店區中正路118號","121.54237","24.971145","6500600","新店區"
"231023","AAD-862","2018/02/05 14:59:30","新北市新店區檳榔路117號","121.544568333333","24.9613883333333","6500600","新店區"
"231024","4716-K9","2018/02/05 14:59:20","新北市新店區力行路14巷2號","121.539406666667","24.9647816666667","6500600","新店區"
"231036","512-UM","2018/02/05 14:59:36","新北市新店區安祥路106巷288號","121.472626666667","24.95822","6500600","新店區"
"231035","515-UM","2018/02/05 14:59:28","新北市新店區永安街74巷17號","121.519176666667","24.9859383333333","6500600","新店區"
"231003","616-UM","2018/02/05 14:59:35","新北市新店區中興路二段224號","121.547976666667","24.9751166666667","6500600","新店區"
"231001","619-UM","2018/02/05 14:59:27","新北市新店區中正路274號","121.538865","24.9736016666667","6500600","新店區"
"231034","645-TV","2018/02/05 14:59:35","新北市新店區玫瑰路4-1號","121.493591666667","24.95137","6500600","新店區"
"231039","719-UY","2018/02/05 14:59:39","新北市新店區寶安街22號","121.542151666667","24.9819633333333","6500600","新店區"
"231005","897-TW","2018/02/05 14:59:25","新北市新店區復興路45號","121.53682","24.9870283333333","6500600","新店區"
"231006","898-TW","2018/02/05 14:59:27","新北市新店區新坡一街85號","121.54911","24.9644616666667","6500600","新店區"
"231004","899-TW","2018/02/05 14:59:26","新北市新店區民族路11號","121.541563333333","24.97879","6500600","新店區"
"231037","AKT-0513","2018/02/05 14:59:33","新北市新店區柴埕路52巷19號","121.510953333333","24.9651916666667","6500600","新店區"
"235030","003-UY","2018/02/05 14:59:35","新北市中和區中山路二段58號","121.504071666667","25.00475","6500300","中和區"
"235020","096-UM","2018/02/05 14:59:26","新北市中和區中山路三段134號","121.47396","25.0063766666667","6500300","中和區"
"235003","097-UM","2018/02/05 14:59:22","新北市永和區中正路5號","121.513785","24.99566","6500300","中和區"
"235029","098-UM","2018/02/05 14:59:40","新北市中和區永和路90巷1弄1號","121.497298333333","25.0057816666667","6500300","中和區"
"235004","150-BY","2018/02/05 14:59:34","新北市中和區保健路10巷21弄1號","121.507665","24.9969216666667","6500300","中和區"
"235013","186-VK","2018/02/05 14:59:38","新北市中和區景平路385巷71號","121.501321666667","24.9943316666667","6500300","中和區"
"235031","255-BX","2018/02/05 14:59:34","新北市中和區新生街188號","121.483786666667","24.9996366666667","6500300","中和區"
"235036","301-VK","2018/02/05 14:59:38","新北市中和區連城路231號","121.493966666667","24.9974083333333","6500300","中和區"
"235007","352-BY","2018/02/05 14:59:23","新北市中和區興南路一段164號","121.50803","24.9866233333333","6500300","中和區"
"235032","377-QA","2018/02/05 14:59:39","新北市中和區中山路二段276號","121.49671","25.0024683333333","6500300","中和區"
"235035","269-TV","2018/02/05 14:59:36","新北市中和區建一路103號","121.488123333333","25.0015483333333","6500300","中和區"
"235014","4979-A6","2018/02/05 14:59:35","新北市中和區景平路155巷4號","121.51351","24.991705","6500300","中和區"
"235033","4980-A6","2018/02/05 14:59:31","新北市中和區圓通路217號","121.496698333333","24.99435","6500300","中和區"
"235018","640-BX","2018/02/05 14:59:29","新北市中和區莒光路258號","121.468136666667","24.9940833333333","6500300","中和區"
"235010","733-UM","2018/02/05 14:59:40","新北市中和區興南路一段105巷20弄5號","121.51031","24.9855116666667","6500300","中和區"
"235016","805-TS","2018/02/05 14:59:34","新北市中和區華新街192巷22弄9號","121.50655","24.9832416666667","6500300","中和區"
"235012","896-TW","2018/02/05 14:59:35","新北市中和區忠孝街1巷2-1號","121.50917","24.983035","6500300","中和區"
"235017","900-TW","2018/02/05 14:59:30","新北市中和區民德路216號","121.468195","24.99806","6500300","中和區"
"235015","157-BY","2018/02/05 14:59:25","新北市中和區復興路303號","121.501495","24.9902483333333","6500300","中和區"
"235001","AAC-213","2018/02/05 14:59:37","新北市中和區自立路141巷2號","121.52239","24.9933383333333","6500300","中和區"
"235023","AAC-215","2018/02/05 14:59:36","新北市中和區圓通路335巷4弄4號","121.491863333333","24.9897416666667","6500300","中和區"
"220016","013-TV","2018/02/05 14:59:26","新北市板橋區光復街172巷2弄1號","121.485286666667","25.0193516666667","6500100","板橋區"
"220104","015-TV","2018/02/05 14:59:38","新北市板橋區金華街72-3號","121.457566666667","25.0206216666667","6500100","板橋區"
"220013","072-UY","2018/02/05 14:59:33","新北市板橋區海山路39號","121.467233333333","25.00968","6500100","板橋區"
"220105","075-UY","2018/02/05 14:59:23","新北市板橋區仁化街221號","121.478781666667","25.0346833333333","6500100","板橋區"
"220017","AAD-861","2018/02/05 14:59:27","新北市板橋區貴興路79號","121.456831666667","25.0030283333333","6500100","板橋區"
"253003","6232-TK","2018/02/05 14:59:35","新北市石門區小坑12-1號","121.595475","25.284145","6502200","石門區"
"253001","6251-TK","2018/02/05 14:58:43","新北市石門區崁子腳87號","121.535406666667","25.271815","6502200","石門區"
"253002","637-UY","2018/02/05 14:59:29","新北市石門區楓林62-1號","121.542171666667","25.2730466666667","6502200","石門區"
"253004","8270-PC","2018/02/05 14:59:36","新北市石門區茂林社區57號","121.592546666667","25.2700683333333","6502200","石門區"
"208004","AAC-292","2018/02/05 14:59:25","新北市金山區兩湖里倒照湖21-1號","121.59425","25.23899","6502700","金山區"
"207002","749-BX","2018/02/05 14:59:33","新北市萬里區崁腳里崁腳路70號","121.648438333333","25.1596816666667","6502800","萬里區"
"207001","662-BX","2018/02/05 14:59:26","新北市萬里區雙興里豐稟路6-3號","121.650186666667","25.1847533333333","6502800","萬里區"
"236064","105-UM","2018/02/05 14:59:41","新北市土城區裕生路84巷1號","121.447261666667","24.9852416666667","6501300","土城區"
"236040","107-UM","2018/02/05 14:59:24","新北市土城區學府路一段229巷10號","121.451593333333","24.983735","6501300","土城區"
"236074","166-UM","2018/02/05 14:59:31","新北市土城區中央路四段208號","121.415985","24.9574916666667","6501300","土城區"
"236028","253-BX","2018/02/05 14:59:31","新北市土城區慶利街18號","121.439606666667","24.9736666666667","6501300","土城區"
"236024","269-VK","2018/02/05 14:59:40","新北市土城區中正路74巷3弄6號","121.444923333333","24.97472","6501300","土城區"
"236012","270-VK","2018/02/05 14:59:32","新北市土城區永豐路29巷2號","121.463156666667","24.9883083333333","6501300","土城區"
"236032","271-VK","2018/02/05 14:59:22","新北市土城區清水路183號","121.459585","24.9815166666667","6501300","土城區"
"236016","401-BY","2018/02/05 14:59:24","新北市土城區明峰街50號","121.4678","24.98642","6501300","土城區"
"236056","912-UM","2018/02/05 14:59:28","新北市土城區金城路一段105號","121.444278333333","24.97294","6501300","土城區"
"236044","913-UM","2018/02/05 14:59:24","新北市土城區青雲路273號","121.459116666667","24.9803066666667","6501300","土城區"
"236060","915-UM","2018/02/05 14:59:43","新北市土城區延和路89號","121.467025","24.9898383333333","6501300","土城區"
"236052","AAC-216","2018/02/05 14:59:30","新北市土城區學成路179號","121.44781","24.9886016666667","6501300","土城區"
"238006","599-UM","2018/02/05 14:59:36","新北市樹林區育德街78-1號","121.388356666667","24.9682516666667","6500700","樹林區"
"238018","571-TV","2018/02/05 14:59:36","新北市樹林區八德街1172號","121.39023","24.9681833333333","6500700","樹林區"
"238008","KEA-2217","2018/02/05 14:59:30","新北市樹林區育德街78-1號","121.38818","24.96804","6500700","樹林區"
"238009","KEA-2213","2018/02/05 14:59:36","新北市樹林區育德街78-1號","121.387735","24.968045","6500700","樹林區"
"238012","303-VK","2018/02/05 14:59:37","新北市樹林區育德街78-1號","121.388208333333","24.9682483333333","6500700","樹林區"
"238004","283-BY","2018/02/05 14:59:35","新北市樹林區育德街78號","121.387553333333","24.9684616666667","6500700","樹林區"
"238001","282-BY","2018/02/05 14:59:26","新北市樹林區育德街78-1號","121.387755","24.968145","6500700","樹林區"
"238007","268-VK","2018/02/05 14:59:22","新北市樹林區育德街78-1號","121.387546666667","24.96816","6500700","樹林區"
"238013","172-UY","2018/02/05 14:59:33","新北市樹林區育德街78-1號","121.388415","24.9681316666667","6500700","樹林區"
"238003","169-UY","2018/02/05 14:59:32","新北市樹林區育德街78-1號","121.387736666667","24.9680133333333","6500700","樹林區"
"221012","278-VK","2018/02/05 14:59:23","新北市汐止區汐萬路一段256巷1號","121.651795","25.0748416666667","6501100","汐止區"
"220027","145-BY","2018/02/05 14:59:23","新北市板橋區中正路183巷31號","121.454858333333","25.0159233333333","6500100","板橋區"
"220028","200-UY","2018/02/05 14:59:37","新北市板橋區大觀路二段153巷33號","121.446816666667","25.0002766666667","6500100","板橋區"
"220030","610-BX","2018/02/05 14:59:27","新北市板橋區溪崑一街54號","121.429636666667","24.9902683333333","6500100","板橋區"
"220052","257-TC","2018/02/05 14:59:34","新北市板橋區自由路41號","121.465545","25.023265","6500100","板橋區"
"220004","276-BY","2018/02/05 14:59:29","新北市板橋區四川路二段99巷4弄2號","121.452785","24.994215","6500100","板橋區"
"220020","277-BY","2018/02/05 14:59:36","新北市板橋區金門街215巷6號","121.432908333333","24.9897733333333","6500100","板橋區"
"220050","280-UM","2018/02/05 14:59:38","新北市板橋區莊敬路263巷22號","121.473135","25.021875","6500100","板橋區"
"220019","283-VK","2018/02/05 14:59:23","新北市板橋區五權街30巷24弄19-3號","121.4638","24.993515","6500100","板橋區"
"220043","285-UM","2018/02/05 14:59:24","新北市板橋區文德路18號","121.462685","25.0244566666667","6500100","板橋區"
"220001","285-VK","2018/02/05 14:59:33","新北市板橋區永豐街14號","121.474801666667","25.01692","6500100","板橋區"
"220031","286-VK","2018/02/05 14:59:35","新北市板橋區僑中二街10巷11號","121.4464","25.0109583333333","6500100","板橋區"
"220029","287-VK","2018/02/05 14:59:40","新北市板橋區僑中一街80巷6弄1號","121.447686666667","25.0121316666667","6500100","板橋區"
"220009","293-UM","2018/02/05 14:59:37","新北市板橋區觀光街24號","121.47147","25.0162366666667","6500100","板橋區"
"220032","296-UM","2018/02/05 14:59:22","新北市板橋區溪崑二街134號","121.425905","24.9878066666667","6500100","板橋區"
"220023","297-UM","2018/02/05 14:59:38","新北市板橋區實踐路3號","121.463496666667","25.0082966666667","6500100","板橋區"
"220039","299-UM","2018/02/05 14:59:38","新北市板橋區長江路一段48巷4弄2號","121.459055","25.0286716666667","6500100","板橋區"
"220023","303-R5","2018/02/05 14:59:28","新北市板橋區金華街10巷7號","121.456058333333","25.0201033333333","6500100","板橋區"
"220010","305-R5","2018/02/05 14:59:23","新北市板橋區三民路二段29巷16號","121.482056666667","25.017935","6500100","板橋區"
"220041","307-R5","2018/02/05 14:59:22","新北市板橋區四維路234號","121.46362","25.0280566666667","6500100","板橋區"
"220047","317-R6","2018/02/05 14:59:27","新北市板橋區英士路192號","121.458175","25.0236166666667","6500100","板橋區"
"220012","486-VK","2018/02/05 14:59:29","新北市板橋區實踐路68號","121.46388","25.0057633333333","6500100","板橋區"
"220038","487-VK","2018/02/05 14:59:32","新北市板橋區龍泉街99-3號","121.457011666667","25.024475","6500100","板橋區"
"220037","491-VK","2018/02/05 14:59:43","新北市板橋區民治街1號","121.47717","25.0345116666667","6500100","板橋區"
"220011","609-BX","2018/02/05 14:59:34","新北市板橋區三民路一段31巷19號","121.480196666667","25.023265","6500100","板橋區"
"220040","637-BX","2018/02/05 14:59:35","新北市板橋區懷德街162號","121.47904","25.0305533333333","6500100","板橋區"
"220005","686-BX","2018/02/05 14:59:34","新北市板橋區廣和街65號","121.462588333333","24.9928716666667","6500100","板橋區"
"220025","687-BX","2018/02/05 14:59:24","新北市板橋區僑中三街1-2號","121.446985","25.0044783333333","6500100","板橋區"
"220042","689-BX","2018/02/05 14:59:40","新北市板橋區長江路二段299號","121.470635","25.0331666666667","6500100","板橋區"
"220002","741-BX","2018/02/05 14:59:24","新北市板橋區忠孝路忠義巷15弄92-2號","121.465411666667","25.005555","6500100","板橋區"
"220003","827-TW","2018/02/05 14:59:34","新北市板橋區仁愛路94號","121.461316666667","24.9997116666667","6500100","板橋區"
"220014","829-TW","2018/02/05 14:59:40","新北市板橋區漢生東路193巷69弄1號","121.47236","25.012185","6500100","板橋區"
"220045","830-TW","2018/02/05 14:59:39","新北市板橋區民生路二段226巷31弄2號","121.471198333333","25.0221633333333","6500100","板橋區"
"220022","895-R6","2018/02/05 14:59:22","新北市板橋區縣民大道一段295號","121.461078333333","25.010455","6500100","板橋區"
"220021","985-R7","2018/02/05 14:59:41","新北市板橋區南雅西路二段188號","121.451588333333","25.01431","6500100","板橋區"
"220046","AAC-210","2018/02/05 14:59:34","新北市板橋區國光路226號","121.462618333333","25.0185533333333","6500100","板橋區"
"220018","AAC-253","2018/02/05 14:59:35","新北市板橋區民族路83號","121.4657","25.0086483333333","6500100","板橋區"
