"lineid","car","time","location","longitude","latitude","cityid","cityname"
"248019","225-UY","2018/02/05 15:32:01","新北市五股區中興路二段83巷26-6號","121.460048333333","25.075225","6501500","五股區"
"231030","047-UY","2018/02/05 15:59:28","新北市新店區安和路三段77號","121.517766666667","24.9835533333333","6500600","新店區"
"231018","107-UY","2018/02/05 15:59:29","新北市新店區中正路663巷7弄15號","121.532915","24.9901166666667","6500600","新店區"
"231011","108-UY","2018/02/05 15:59:37","新北市新店區中央路78巷70號","121.530528333333","24.980145","6500600","新店區"
"231013","110-UY","2018/02/05 15:59:39","新北市新店區安康路一段61號","121.530575","24.9607733333333","6500600","新店區"
"231019","187-VK","2018/02/05 15:59:34","新北市新店區安康路一段126號","121.526843333333","24.9627666666667","6500600","新店區"
"231014","KEA-2219","2018/02/05 15:59:27","新北市新店區中正路278號","121.53873","24.9737183333333","6500600","新店區"
"231036","260-TV","2018/02/05 15:59:27","新北市新店區安祥路102巷32號","121.484145","24.9639933333333","6500600","新店區"
"231046","278-BY","2018/02/05 15:59:28","新北市新店區安康路一段255號","121.524538333333","24.9633516666667","6500600","新店區"
"231038","4715-K9","2018/02/05 15:59:34","新北市新店區安康路二段228巷35弄7號","121.509473333333","24.9600516666667","6500600","新店區"
"231035","515-UM","2018/02/05 15:59:31","新北市新店區安民街251巷10弄1號","121.51675","24.9728083333333","6500600","新店區"
"231003","616-UM","2018/02/05 15:59:35","新北市新店區中正路2號","121.546006666667","24.9694166666667","6500600","新店區"
"231034","645-TV","2018/02/05 15:59:14","新北市新店區吉祥街9巷1號","121.497428333333","24.9470583333333","6500600","新店區"
"231039","719-UY","2018/02/05 15:58:59","新北市新店區安忠路57巷11弄2號","121.513791666667","24.9575966666667","6500600","新店區"
"231037","AKT-0513","2018/02/05 15:59:32","新北市新店區柴埕路59號","121.513571666667","24.9649883333333","6500600","新店區"
"241011","013-R5","2018/02/05 15:59:24","新北市三重區文化北路224巷28號","121.497113333333","25.068755","6500200","三重區"
"241028","022-UY","2018/02/05 15:59:27","新北市三重區電信街98號","121.49555","25.058225","6500200","三重區"
"241008","059-VK","2018/02/05 15:59:36","新北市三重區成功路110-10號","121.485408333333","25.05041","6500200","三重區"
"241015","062-VK","2018/02/05 15:59:21","新北市三重區重新路四段121號","121.485133333333","25.0520483333333","6500200","三重區"
"241017","063-VK","2018/02/05 15:59:31","新北市三重區大仁街48巷67號","121.490366666667","25.06439","6500200","三重區"
"241024","065-VK","2018/02/05 15:59:27","新北市三重區中正北路145巷5弄9號","121.484853333333","25.067405","6500200","三重區"
"241005","262-UM","2018/02/05 15:59:36","新北市三重區五華街166號","121.489155","25.086095","6500200","三重區"
"241018","265-UM","2018/02/05 15:59:29","新北市三重區中正北路71巷26號","121.491086666667","25.0634633333333","6500200","三重區"
"241016","266-UM","2018/02/05 15:59:23","新北市三重區捷運路69號","121.48326","25.05558","6500200","三重區"
"241022","267-UM","2018/02/05 15:59:34","新北市三重區忠孝路三段40巷40號","121.482786666667","25.065815","6500200","三重區"
"241013","270-UM","2018/02/05 15:59:29","新北市三重區三和路三段18號","121.496768333333","25.070215","6500200","三重區"
"241025","271-UM","2018/02/05 15:59:24","新北市三重區忠孝路三段38號","121.48111","25.0663166666667","6500200","三重區"
"241007","398-BY","2018/02/05 15:59:20","新北市三重區力行路二段138-1號","121.482443333333","25.0757183333333","6500200","三重區"
"241020","413-TH","2018/02/05 15:59:24","新北市三重區車路頭街4巷14號","121.483456666667","25.069975","6500200","三重區"
"241014","543-UM","2018/02/05 15:59:30","新北市三重區重新路四段121號","121.48505","25.0520033333333","6500200","三重區"
"241023","545-UM","2018/02/05 15:59:36","新北市三重區中正北路174-6號","121.483581666667","25.0668166666667","6500200","三重區"
"241001","547-UM","2018/02/05 15:59:26","新北市三重區名源街47巷12號","121.480471666667","25.05986","6500200","三重區"
"241006","AAD-863","2018/02/05 15:59:27","新北市三重區重陽路三段7號","121.489121666667","25.0662383333333","6500200","三重區"
"241003","887-TS","2018/02/05 15:59:33","新北市三重區自強路五段112號","121.496945","25.08362","6500200","三重區"
"241012","941-UM","2018/02/05 15:59:27","新北市三重區正義北路113號","121.496988333333","25.06565","6500200","三重區"
"241029","942-UM","2018/02/05 15:59:31","新北市三重區大同南路212巷20號","121.497356666667","25.05667","6500200","三重區"
"241033","AAC-255","2018/02/05 15:59:23","新北市三重區重新路五段450號","121.474563333333","25.047395","6500200","三重區"
"235033","4980-A6","2018/02/05 15:59:31","新北市中和區連城路523巷13弄28號","121.482543333333","24.9935766666667","6500300","中和區"
"235026","800-TS","2018/02/05 15:59:26","新北市中和區橋和路128號","121.493348333333","25.0062383333333","6500300","中和區"
"224007","273-VK","2018/02/05 15:59:25","新北市瑞芳區大埔路吉慶公園城39號","121.76489","25.0984133333333","6501200","瑞芳區"
"224005","271-BY","2018/02/05 15:59:02","新北市瑞芳區傑魚坑路200-1號","121.80132","25.1068266666667","6501200","瑞芳區"
"227001","642-TC","2018/02/05 15:59:33","新北市雙溪區平林里外平林70號","121.842856666667","25.0350316666667","6502500","雙溪區"
"227008","400-TW","2018/02/05 15:59:37","新北市雙溪區三港里雙澳路41號","121.873853333333","25.0517166666667","6502500","雙溪區"
"208004","AAC-292","2018/02/05 15:59:25","新北市金山區環金路147號","121.634511666667","25.2169083333333","6502700","金山區"
"251013","179-VK","2018/02/05 15:59:27","新北市淡水區濱海路一段221號","121.43792","25.1893383333333","6501000","淡水區"
"236064","105-UM","2018/02/05 15:59:41","新北市土城區福安街34號","121.419296666667","24.9648066666667","6501300","土城區"
"236056","912-UM","2018/02/05 15:59:25","新北市土城區中央路一段346號","121.443028333333","24.98102","6501300","土城區"
"242047","441-UM","2018/02/05 15:53:12","新北市新莊區瓊林路13-3號","121.448878333333","25.0307733333333","6500500","新莊區"
"238002","755-BX","2018/02/05 15:59:20","新北市樹林區樹德街136巷33號","121.419955","24.9942166666667","6500700","樹林區"
"238010","601-UM","2018/02/05 15:59:37","新北市樹林區龍興街35號","121.403196666667","25.015835","6500700","樹林區"
"238006","599-UM","2018/02/05 15:59:16","新北市樹林區國凱街65號","121.422066666667","24.97979","6500700","樹林區"
"238005","571-TV","2018/02/05 15:59:36","新北市樹林區鎮前街8號","121.426301666667","24.993475","6500700","樹林區"
"238011","5061-A6","2018/02/05 15:59:29","新北市樹林區佳園路一段11號","121.39282","24.9715283333333","6500700","樹林區"
"238008","KEA-2217","2018/02/05 15:59:30","新北市樹林區柑園街二段149巷27號","121.382956666667","24.9532583333333","6500700","樹林區"
"238009","KEA-2213","2018/02/05 15:59:36","新北市樹林區太元街75號","121.419206666667","24.97836","6500700","樹林區"
"238012","303-VK","2018/02/05 15:59:17","新北市樹林區保安二街74號","121.423648333333","24.9954216666667","6500700","樹林區"
"238004","283-BY","2018/02/05 15:59:36","新北市樹林區中正路433-2號","121.41496","25.0081616666667","6500700","樹林區"
"238001","282-BY","2018/02/05 15:59:26","新北市樹林區保安二街64巷1弄1號","121.424031666667","24.9954333333333","6500700","樹林區"
"238007","268-VK","2018/02/05 15:59:30","新北市樹林區三俊街189號","121.419683333333","25.015655","6500700","樹林區"
"238013","172-UY","2018/02/05 15:59:33","新北市樹林區佳園路一段82-1號","121.393423333333","24.9695233333333","6500700","樹林區"
"238003","169-UY","2018/02/05 15:59:32","新北市樹林區日新街172巷6號","121.419893333333","24.988275","6500700","樹林區"
"220037","491-VK","2018/02/05 15:59:30","新北市林口區汕頭32號","121.36631","25.1347066666667","6500100","板橋區"
"220011","609-BX","2018/02/05 15:59:25","新北市八里區下罟子23號","121.375658333333","25.1392716666667","6500100","板橋區"
