"lineid","car","time","location","longitude","latitude","cityid","cityname"
"249005","172-UM","2018/02/05 16:59:46","新北市八里區渡船頭3-7號","121.434366666667","25.1530666666667","6502300","八里區"
"249001","173-UM","2018/02/05 16:59:46","新北市八里區中山路三段106號","121.39102","25.1422433333333","6502300","八里區"
"249004","303-UY","2018/02/05 16:59:47","新北市八里區挖子尾街40號","121.415681666667","25.16598","6502300","八里區"
"249002","305-UY","2018/02/05 16:54:50","新北市八里區牛寮埔29號","121.431848333333","25.1453683333333","6502300","八里區"
"249003","593-UM","2018/02/05 16:59:48","新北市八里區中山路二段370號","121.400886666667","25.1479616666667","6502300","八里區"
"244007","080-UY","2018/02/05 16:59:46","新北市林口區湖子17-2號","121.384265","25.0908","6501700","林口區"
"244019","402-UM","2018/02/05 16:59:33","新北市林口區中山路164號","121.390373333333","25.0788716666667","6501700","林口區"
"244023","483-VK","2018/02/05 16:59:32","新北市林口區粉寮69號","121.405086666667","25.0907916666667","6501700","林口區"
"244009","656-BX","2018/02/05 16:59:37","新北市林口區粉寮69號","121.40499","25.0908716666667","6501700","林口區"
"244011","701-TV","2018/02/05 16:59:42","新北市林口區粉寮路二段160巷28號","121.405188333333","25.0908016666667","6501700","林口區"
"244025","837-TS","2018/02/05 16:59:33","新北市林口區粉寮路二段160巷28號","121.405168333333","25.09079","6501700","林口區"
"231046","278-BY","2018/02/05 16:59:48","新北市新店區永業路81巷12號","121.531731666667","24.9479633333333","6500600","新店區"
"241011","013-R5","2018/02/05 16:59:44","新北市三重區龍濱路269號","121.501296666667","25.07313","6500200","三重區"
"241028","022-UY","2018/02/05 16:59:46","新北市三重區光興街223號","121.494265","25.0594683333333","6500200","三重區"
"241008","059-VK","2018/02/05 16:59:36","新北市三重區永福街179巷42號","121.477363333333","25.074735","6500200","三重區"
"241009","060-VK","2018/02/05 16:59:38","新北市三重區溪尾街218巷37-5號","121.486553333333","25.0810666666667","6500200","三重區"
"241031","061-VK","2018/02/05 16:59:49","新北市三重區三寧街22號","121.489635","25.0599716666667","6500200","三重區"
"241015","062-VK","2018/02/05 16:59:42","新北市三重區三和路二段9號","121.501561666667","25.0666966666667","6500200","三重區"
"241017","063-VK","2018/02/05 16:59:51","新北市三重區國隆路12巷9號","121.492478333333","25.0637016666667","6500200","三重區"
"241024","065-VK","2018/02/05 16:59:47","新北市三重區力行路二段7號","121.48195","25.0721283333333","6500200","三重區"
"241026","066-VK","2018/02/05 16:59:34","新北市三重區文化南路38-1號","121.50029","25.0610333333333","6500200","三重區"
"241002","090-VK","2018/02/05 16:59:49","新北市三重區仁義街143巷116號","121.49937","25.08167","6500200","三重區"
"241005","262-UM","2018/02/05 16:59:36","新北市三重區仁華街69號","121.484753333333","25.082865","6500200","三重區"
"241018","265-UM","2018/02/05 16:59:49","新北市三重區六張街126巷25弄1號","121.492348333333","25.0688983333333","6500200","三重區"
"241016","266-UM","2018/02/05 16:59:43","新北市三重區信義西街138號","121.495453333333","25.0643716666667","6500200","三重區"
"241022","267-UM","2018/02/05 16:59:53","新北市三重區貴陽街42號","121.484216666667","25.062625","6500200","三重區"
"241032","269-UM","2018/02/05 16:59:48","新北市三重區重陽路一段130巷26號","121.485748333333","25.0603366666667","6500200","三重區"
"241013","270-UM","2018/02/05 16:59:49","新北市三重區仁壽街20號","121.496733333333","25.0734","6500200","三重區"
"241025","271-UM","2018/02/05 16:59:44","新北市三重區中正北路508巷5號","121.472656666667","25.0713983333333","6500200","三重區"
"241007","398-BY","2018/02/05 16:59:40","新北市三重區三和路四段181巷226號","121.487435","25.0804783333333","6500200","三重區"
"241020","413-TH","2018/02/05 16:59:44","新北市三重區後竹圍街175巷20號","121.485636666667","25.07272","6500200","三重區"
"241004","475-VK","2018/02/05 16:59:39","新北市三重區五華街98巷4號","121.49239","25.0822133333333","6500200","三重區"
"241019","478-VK","2018/02/05 16:59:54","新北市三重區自強路二段74巷21號","121.487941666667","25.0698966666667","6500200","三重區"
"241030","480-VK","2018/02/05 16:59:41","新北市三重區昌隆街58號","121.491253333333","25.0512933333333","6500200","三重區"
"241014","543-UM","2018/02/05 16:59:49","新北市三重區三和路二段173巷149號","121.501185","25.0706916666667","6500200","三重區"
"241023","545-UM","2018/02/05 16:59:43","新北市三重區中華路50巷1弄27號","121.483198333333","25.0626266666667","6500200","三重區"
"241001","547-UM","2018/02/05 16:59:46","新北市三重區仁愛街192巷15號","121.493575","25.076965","6500200","三重區"
"241006","AAD-863","2018/02/05 16:59:48","新北市三重區車路頭街131巷27號","121.485323333333","25.076015","6500200","三重區"
"241003","887-TS","2018/02/05 16:59:33","新北市三重區五華街71巷18號","121.492793333333","25.083215","6500200","三重區"
"241012","941-UM","2018/02/05 16:59:46","新北市三重區仁和街205號","121.50056","25.0750266666667","6500200","三重區"
"241029","942-UM","2018/02/05 16:59:51","新北市三重區新興路32號","121.49191","25.0535266666667","6500200","三重區"
"241033","AAC-255","2018/02/05 16:59:42","新北市三重區中興北街271號","121.469135","25.06059","6500200","三重區"
"235046","733-UM","2018/02/05 16:58:22","新北市中和區員山路36巷13號","121.484151666667","24.990845","6500300","中和區"
"247020","500-BY","2018/02/05 16:59:36","新北市蘆洲區復興路323巷368號","121.474053333333","25.0940066666667","6501400","蘆洲區"
"247010","339-TH","2018/02/05 16:59:36","新北市蘆洲區三民路26巷75號","121.478938333333","25.0833683333333","6501400","蘆洲區"
"247002","337-TH","2018/02/05 16:59:36","新北市蘆洲區永平街16號","121.459183333333","25.090595","6501400","蘆洲區"
"247004","336-TH","2018/02/05 16:59:43","新北市蘆洲區長安街131巷4弄2號","121.460371666667","25.0810683333333","6501400","蘆洲區"
"247008","335-TH","2018/02/05 16:59:46","新北市蘆洲區信義路59巷5弄8號","121.474886666667","25.0802483333333","6501400","蘆洲區"
"247006","056-VK","2018/02/05 16:59:44","新北市蘆洲區永安南路二段232號","121.460601666667","25.0796116666667","6501400","蘆洲區"
"247016","053-VK","2018/02/05 16:59:45","新北市蘆洲區中正路57號","121.47055","25.0828166666667","6501400","蘆洲區"
"247014","007-UY","2018/02/05 16:59:33","新北市蘆洲區中山二路36巷15號","121.474133333333","25.0828183333333","6501400","蘆洲區"
"247024","002-UY","2018/02/05 16:59:51","新北市蘆洲區長興路202號","121.46062","25.0874283333333","6501400","蘆洲區"
"247018","001-UY","2018/02/05 16:59:33","新北市蘆洲區民族路304號","121.477571666667","25.0900733333333","6501400","蘆洲區"
"228003","097-TW","2018/02/05 16:59:53","新北市貢寮區福隆里興隆街36號","121.942545","25.0165816666667","6502600","貢寮區"
"228002","663-BX","2018/02/05 16:59:39","新北市貢寮區貢寮里長泰路24-1號","121.902533333333","25.0240216666667","6502600","貢寮區"
"228001","670-TC","2018/02/05 16:59:40","新北市貢寮區貢寮里朝陽街1-2號","121.91228","25.0212766666667","6502600","貢寮區"
"224006","676-BX","2018/02/05 16:59:51","新北市瑞芳區大寮路356-1號","121.785046666667","25.103175","6501200","瑞芳區"
"224009","285-BY","2018/02/05 16:59:46","新北市瑞芳區明燈路一段1號","121.829883333333","25.111305","6501200","瑞芳區"
"224008","275-VK","2018/02/05 16:59:50","新北市瑞芳區明燈路一段45巷2號","121.82094","25.1068816666667","6501200","瑞芳區"
"224007","273-VK","2018/02/05 16:59:45","新北市瑞芳區瑞竹路122號","121.762023333333","25.1039816666667","6501200","瑞芳區"
"224005","271-BY","2018/02/05 16:59:32","新北市瑞芳區明里路54號","121.86897","25.122205","6501200","瑞芳區"
"227001","642-TC","2018/02/05 16:59:33","新北市雙溪區長源里柑腳32號","121.804133333333","25.0138266666667","6502500","雙溪區"
"227008","400-TW","2018/02/05 16:59:37","新北市雙溪區牡丹里聖南35號","121.8531","25.0561","6502500","雙溪區"
"251009","008-UM","2018/02/05 16:59:34","新北市淡水區中正路306-1號","121.43732","25.172275","6501000","淡水區"
"251004","009-UM","2018/02/05 16:59:48","新北市淡水區中正路二段31號","121.41956","25.18161","6501000","淡水區"
"251005","010-UM","2018/02/05 16:59:50","新北市淡水區中正路二段31號","121.419445","25.1816316666667","6501000","淡水區"
"251013","179-VK","2018/02/05 16:59:47","新北市淡水區泉洲厝24-2號","121.486006666667","25.1931966666667","6501000","淡水區"
"251014","180-VK","2018/02/05 16:59:46","新北市淡水區淡金路四段472巷24號","121.452953333333","25.22406","6501000","淡水區"
"251008","181-VK","2018/02/05 16:59:43","新北市淡水區樹梅坑9號","121.472668333333","25.14266","6501000","淡水區"
"251015","182-VK","2018/02/05 16:59:42","新北市淡水區忠愛街16號","121.458165","25.1747483333333","6501000","淡水區"
"251010","413-VK","2018/02/05 16:59:49","新北市淡水區沙崙路170號","121.42418","25.1835283333333","6501000","淡水區"
"251012","441-VK","2018/02/05 16:59:48","新北市淡水區沙崙路232號","121.425446666667","25.1846066666667","6501000","淡水區"
"251016","442-VK","2018/02/05 16:59:37","新北市淡水區瓦坑3號","121.477535","25.1806883333333","6501000","淡水區"
"251007","577-R6","2018/02/05 16:59:33","新北市淡水區真理街4號","121.438426666667","25.1728983333333","6501000","淡水區"
"251011","650-BX","2018/02/05 16:59:40","新北市淡水區中正東路一段13號","121.451303333333","25.1636616666667","6501000","淡水區"
"252001","292-VK","2018/02/05 16:59:51","新北市三芝區淡金路二段47-2號","121.50367","25.260625","6502100","三芝區"
"252002","AAC-283","2018/02/05 16:59:43","新北市三芝區忠孝街173號","121.505405","25.2613866666667","6502100","三芝區"
"242029","986-R7","2018/02/05 16:59:44","新北市新莊區新泰路357巷3弄57號","121.442195","25.0396133333333","6500500","新莊區"
"242027","612-BX","2018/02/05 16:59:35","新北市新莊區新泰路357巷3弄57號","121.442221666667","25.0393883333333","6500500","新莊區"
"242039","566-BX","2018/02/05 16:59:47","新北市新莊區新泰路357巷3弄57號","121.442126666667","25.0392116666667","6500500","新莊區"
"242047","441-UM","2018/02/05 16:43:51","新北市新莊區瓊林路13-4號","121.44875","25.0307616666667","6500500","新莊區"
"242034","415-TV","2018/02/05 16:59:46","新北市新莊區新泰路357巷3弄57號","121.442111666667","25.0391216666667","6500500","新莊區"
"242004","413-TV","2018/02/05 16:59:45","新北市新莊區新泰路357巷3弄57號","121.442151666667","25.0395683333333","6500500","新莊區"
"242042","400-BY","2018/02/05 16:59:42","新北市新莊區新泰路357巷3弄57號","121.442181666667","25.0395816666667","6500500","新莊區"
"242060","362-BY","2018/02/05 16:59:35","新北市新莊區新泰路255巷83號","121.442183333333","25.038825","6500500","新莊區"
"242058","353-BY","2018/02/05 16:59:46","新北市新莊區新泰路255巷83號","121.442156666667","25.038855","6500500","新莊區"
"242036","133-UY","2018/02/05 16:59:45","新北市新莊區新泰路255巷83號","121.442083333333","25.0389333333333","6500500","新莊區"
"242019","348-TH","2018/02/05 16:59:51","新北市新莊區新泰路357巷3弄55號","121.442186666667","25.039795","6500500","新莊區"
"242017","350-TH","2018/02/05 16:59:42","新北市新莊區三和路18-25號","121.441786666667","25.038985","6500500","新莊區"
"238019","599-UM","2018/02/05 16:59:35","新北市樹林區育德街78-1號","121.387501666667","24.9681683333333","6500700","樹林區"
"238005","571-TV","2018/02/05 16:59:34","新北市樹林區八德街272號","121.41188","24.9702866666667","6500700","樹林區"
"238017","283-BY","2018/02/05 16:59:35","新北市樹林區光武街3-1號","121.415133333333","25.0043133333333","6500700","樹林區"
"238001","282-BY","2018/02/05 16:59:46","新北市樹林區大慶街99號","121.427578333333","24.9996966666667","6500700","樹林區"
"239006","891-R6","2018/02/05 16:59:52","新北市鶯歌區二甲路13號","121.34344","24.935665","6500800","鶯歌區"
"239008","527-UM","2018/02/05 16:59:50","新北市鶯歌區環河路159號","121.346606666667","24.937835","6500800","鶯歌區"
"239005","526-UM","2018/02/05 16:59:45","新北市鶯歌區環河路85-1號","121.347945","24.939975","6500800","鶯歌區"
"239003","360-BY","2018/02/05 16:59:42","新北市鶯歌區環河路155-1號","121.346705","24.9387433333333","6500800","鶯歌區"
"242048","281-VK","2018/02/05 16:59:43","新北市新莊區三和路12-18號","121.442131666667","25.037625","6500500","新莊區"
