"lineid","car","time","location","longitude","latitude","cityid","cityname"
"234046","148-BY","2018/02/05 19:59:38","新北市永和區林森路62號","121.523985","25.004085","6500400","永和區"
"234067","149-BY","2018/02/05 19:59:28","新北市永和區中山路一段281巷1號","121.507218333333","25.00677","6500400","永和區"
"234007","207-UY","2018/02/05 19:59:26","新北市永和區永貞路393號","121.507895","25.008905","6500400","永和區"
"234081","298-R6","2018/02/05 19:59:43","新北市永和區林森路112巷12弄8號","121.5226","25.004545","6500400","永和區"
"234036","336-UY","2018/02/05 19:59:28","新北市永和區成功路二段161巷1弄11號","121.526851666667","24.9976783333333","6500400","永和區"
"234064","337-UY","2018/02/05 19:59:35","新北市永和區中正路412巷2弄11號","121.518451666667","25.0019566666667","6500400","永和區"
"234086","338-UY","2018/02/05 19:59:44","新北市永和區永利路3號","121.517366666667","25.0062183333333","6500400","永和區"
"234070","552-UM","2018/02/05 19:59:42","新北市永和區國光路14號","121.5191","25.00834","6500400","永和區"
"234017","745-BX","2018/02/05 19:59:37","新北市永和區文化路57號","121.514165","25.0150733333333","6500400","永和區"
"234030","746-BX","2018/02/05 19:59:42","新北市永和區民生路22巷21號","121.52141","24.997","6500400","永和區"
"234054","KEA-2590","2018/02/05 19:59:25","新北市永和區環河東路一段124號","121.520635","25.0154","6500400","永和區"
"234013","KEA-2591","2018/02/05 19:59:45","新北市永和區保生路55號","121.504681666667","25.0106033333333","6500400","永和區"
"234061","AAD-866","2018/02/05 19:59:43","新北市永和區得和路47號","121.51666","25.0002216666667","6500400","永和區"
"234042","862-TW","2018/02/05 19:59:32","新北市永和區中和路421巷5弄1號","121.508718333333","25.0009883333333","6500400","永和區"
"234050","863-TW","2018/02/05 19:59:33","新北市永和區保安路97號","121.508211666667","25.014325","6500400","永和區"
"234026","9371-KE","2018/02/05 19:59:30","新北市永和區水源街27巷9號","121.511305","25.00398","6500400","永和區"
"234011","9373-KE","2018/02/05 19:59:36","新北市永和區仁愛路352巷112弄12號","121.501181666667","25.0085683333333","6500400","永和區"
"249005","172-UM","2018/02/05 19:59:46","新北市八里區楓林路1-11號","121.385445","25.1312366666667","6502300","八里區"
"249001","173-UM","2018/02/05 19:59:39","新北市八里區中華路二段288號","121.40438","25.1489066666667","6502300","八里區"
"249004","303-UY","2018/02/05 19:59:34","新北市八里區中華路一段333-1號","121.413388333333","25.1537533333333","6502300","八里區"
"249002","305-UY","2018/02/05 19:59:30","新北市八里區頂寮一街40號","121.450615","25.12387","6502300","八里區"
"249003","593-UM","2018/02/05 19:59:43","新北市八里區中華路二段562號","121.3988","25.14489","6502300","八里區"
"248016","026-BX","2018/02/05 19:59:29","新北市五股區成泰路三段577巷80弄50號","121.449716666667","25.10489","6501500","五股區"
"248008","095-VK","2018/02/05 19:59:31","新北市五股區四維路30巷24號","121.468111666667","25.0715383333333","6501500","五股區"
"248018","225-UY","2018/02/05 19:59:40","新北市五股區登林路114-16號","121.4228","25.071245","6501500","五股區"
"248012","247-BX","2018/02/05 19:59:36","新北市五股區民義路一段112-10號","121.435335","25.0852566666667","6501500","五股區"
"248014","261-SL","2018/02/05 19:59:41","新北市五股區五福路22巷8號","121.434691666667","25.089055","6501500","五股區"
"248004","677-BX","2018/02/05 19:59:39","新北市五股區成泰路一段32巷62號","121.435046666667","25.0670383333333","6501500","五股區"
"248002","678-BX","2018/02/05 19:59:45","新北市五股區成泰路三段476號","121.451768333333","25.101345","6501500","五股區"
"248010","682-TV","2018/02/05 19:59:44","新北市五股區登林路102號","121.427475","25.0707033333333","6501500","五股區"
"234077","969-R7","2018/02/05 19:59:31","新北市永和區民權路23號","121.52023","24.9977866666667","6500400","永和區"
"234074","AAC-211","2018/02/05 19:59:47","新北市永和區豫溪街189巷1號","121.52263","25.0102683333333","6500400","永和區"
"234003","AAC-295","2018/02/05 19:59:44","新北市永和區永和路二段28號","121.514593333333","25.0103733333333","6500400","永和區"
"243012","AAD-798","2018/02/05 19:59:40","新北市泰山區全興路184號","121.433353333333","25.057365","6501600","泰山區"
"243011","297-R6","2018/02/05 19:59:33","新北市泰山區工專路47號","121.422921666667","25.0401666666667","6501600","泰山區"
"243015","380-SR","2018/02/05 19:49:28","新北市泰山區民權街41巷6-2號","121.429273333333","25.0499083333333","6501600","泰山區"
"243014","421-VK","2018/02/05 19:59:40","新北市泰山區泰林路二段139號","121.434028333333","25.0600183333333","6501600","泰山區"
"243010","KEA-2215","2018/02/05 19:59:41","新北市泰山區中華街14巷2號","121.42781","25.0525416666667","6501600","泰山區"
"243009","KEA-2216","2018/02/05 19:59:44","新北市泰山區楓江路16巷27號","121.434153333333","25.06137","6501600","泰山區"
"243013","646-TV","2018/02/05 19:59:45","新北市泰山區應化街13號","121.423806666667","25.0437216666667","6501600","泰山區"
"243016","680-BX","2018/02/05 19:59:39","新北市泰山區明志路三段492號","121.42106","25.031285","6501600","泰山區"
"222003","436-BY","2018/02/05 19:59:40","新北市深坑區北深路二段20號","121.620758333333","25.0044466666667","6501800","深坑區"
"222002","659-BX","2018/02/05 19:59:25","新北市深坑區北深路二段55巷12弄18號","121.618398333333","25.0032733333333","6501800","深坑區"
"231041","002-UM","2018/02/05 19:59:38","新北市新店區中正路331-1號","121.536175","24.9752883333333","6500600","新店區"
"231058","0291-UT","2018/02/05 19:59:34","新北市新店區薏仁坑路23號","121.497845","24.95893","6500600","新店區"
"231059","046-UY","2018/02/05 19:59:40","新北市新店區安康路二段147號","121.51122","24.9598316666667","6500600","新店區"
"231061","047-UY","2018/02/05 19:59:34","新北市新店區安民街339號","121.516986666667","24.9748983333333","6500600","新店區"
"231060","106-UY","2018/02/05 19:59:35","新北市新店區安康路二段418號","121.496321666667","24.95512","6500600","新店區"
"231051","107-UY","2018/02/05 19:59:40","新北市新店區中央二街7-3號","121.529166666667","24.9731366666667","6500600","新店區"
"231047","108-UY","2018/02/05 19:59:44","新北市新店區寶宏路18號","121.549285","24.9762","6500600","新店區"
"231049","110-UY","2018/02/05 19:59:36","新北市新店區明德路42號","121.541483333333","24.9781716666667","6500600","新店區"
"231052","187-VK","2018/02/05 19:59:42","新北市新店區新烏路三段290巷1號","121.54914","24.89786","6500600","新店區"
"231065","188-VK","2018/02/05 19:59:35","新北市新店區安祥路109巷151弄12號","121.478118333333","24.958935","6500600","新店區"
"231050","KEA-2219","2018/02/05 19:59:45","新北市新店區北宜路一段152號","121.540231666667","24.95383","6500600","新店區"
"221015","KEA-2785","2018/02/05 19:59:42","新北市汐止區橋東街11號","121.666626666667","25.0758933333333","6501100","汐止區"
"231057","256-BX","2018/02/05 19:59:32","新北市新店區花園二路一段11號","121.555523333333","24.93248","6500600","新店區"
"231054","AAD-862","2018/02/05 19:59:46","新北市新店區光明街198號","121.539743333333","24.9624316666667","6500600","新店區"
"231056","3713-VJ","2018/02/05 19:59:39","新北市新店區民權路42巷16-1號","121.540135","24.9838183333333","6500600","新店區"
"231055","4716-K9","2018/02/05 19:59:39","新北市新店區力行路5號","121.539388333333","24.9646016666667","6500600","新店區"
"231067","4772-VM","2018/02/05 19:59:37","新北市新店區秀山路11巷16號","121.531708333333","24.95912","6500600","新店區"
"231064","515-UM","2018/02/05 19:59:31","新北市新店區碧安街15巷2號","121.517368333333","24.9690866666667","6500600","新店區"
"231042","616-UM","2018/02/05 19:59:45","新北市新店區中興路二段89號","121.547083333333","24.9715066666667","6500600","新店區"
"231040","619-UM","2018/02/05 19:59:40","新北市新店區中正路60號","121.544341666667","24.970125","6500600","新店區"
"231063","645-TV","2018/02/05 19:59:43","新北市新店區黎明路57巷1號","121.502386666667","24.9479516666667","6500600","新店區"
"231068","719-UY","2018/02/05 19:59:33","新北市新店區安康路一段355號","121.519765","24.9629933333333","6500600","新店區"
"231062","720-UM","2018/02/05 19:59:26","新北市新店區華城路10巷1-3號","121.528801666667","24.9577466666667","6500600","新店區"
"231044","897-TW","2018/02/05 19:59:24","新北市新店區復興路27號","121.539075","24.9866383333333","6500600","新店區"
"231045","898-TW","2018/02/05 19:59:42","新北市新店區北宜路二段263號","121.554623333333","24.9535533333333","6500600","新店區"
"231043","899-TW","2018/02/05 19:59:34","新北市新店區中正路263-3號","121.53836","24.9738083333333","6500600","新店區"
"231066","AKT-0513","2018/02/05 19:59:45","新北市新店區柴埕路52巷12號","121.512125","24.9645283333333","6500600","新店區"
"241011","013-R5","2018/02/05 19:59:37","新北市三重區文化北路246號","121.497486666667","25.0699033333333","6500200","三重區"
"241028","022-UY","2018/02/05 19:59:25","新北市三重區中正南路18號","121.493506666667","25.0604533333333","6500200","三重區"
"241008","059-VK","2018/02/05 19:59:24","新北市三重區永福街183號","121.47911","25.0750316666667","6500200","三重區"
"241009","060-VK","2018/02/05 19:59:38","新北市三重區三和路四段390巷17號","121.481088333333","25.078905","6500200","三重區"
"241031","061-VK","2018/02/05 19:59:29","新北市三重區重新路四段184巷16號","121.487073333333","25.054885","6500200","三重區"
"241015","062-VK","2018/02/05 19:59:32","新北市三重區三和路二段13號","121.501411666667","25.0666766666667","6500200","三重區"
"241017","063-VK","2018/02/05 19:59:31","新北市三重區自強路一段217號","121.491265","25.0685416666667","6500200","三重區"
"241024","065-VK","2018/02/05 19:59:34","新北市三重區力行路二段2號","121.481881666667","25.071865","6500200","三重區"
"241026","066-VK","2018/02/05 19:59:34","新北市三重區中央南路9號","121.501208333333","25.0627483333333","6500200","三重區"
"241002","090-VK","2018/02/05 19:59:38","新北市三重區仁愛街274號","121.492738333333","25.0787833333333","6500200","三重區"
"241020","156-TC","2018/02/05 19:59:43","新北市三重區三和路四段71號","121.489926666667","25.07486","6500200","三重區"
"241005","262-UM","2018/02/05 19:59:36","新北市三重區溪尾街325巷23號","121.488596666667","25.08339","6500200","三重區"
"241018","265-UM","2018/02/05 19:59:38","新北市三重區正義北路244巷106號","121.493338333333","25.06751","6500200","三重區"
"241016","266-UM","2018/02/05 19:59:38","新北市三重區正義北路48巷1號","121.497036666667","25.063725","6500200","三重區"
"241022","267-UM","2018/02/05 19:59:34","新北市三重區過圳街31巷2號","121.488918333333","25.060585","6500200","三重區"
"241032","269-UM","2018/02/05 19:59:44","新北市三重區朝陽街26巷1弄7號","121.483143333333","25.0567233333333","6500200","三重區"
"241025","271-UM","2018/02/05 19:59:30","新北市三重區頂崁街210巷15-1號","121.476375","25.0678833333333","6500200","三重區"
"241007","398-BY","2018/02/05 19:59:40","新北市三重區溪尾街169號","121.488995","25.0801466666667","6500200","三重區"
"241035","462-BY","2018/02/05 19:59:26","新北市三重區大榮街9號","121.498245","25.0631566666667","6500200","三重區"
"241004","475-VK","2018/02/05 19:59:38","新北市三重區五華街74號","121.493466666667","25.08199","6500200","三重區"
"241019","478-VK","2018/02/05 19:59:34","新北市三重區重陽路四段18號","121.490901666667","25.0691266666667","6500200","三重區"
"241030","480-VK","2018/02/05 19:59:41","新北市三重區成功路187號","121.485788333333","25.0528283333333","6500200","三重區"
"241014","543-UM","2018/02/05 19:59:29","新北市三重區三和路二段49號","121.500513333333","25.0675583333333","6500200","三重區"
"241023","545-UM","2018/02/05 19:59:43","新北市三重區頂崁街172號","121.477571666667","25.0659883333333","6500200","三重區"
"241006","AAD-863","2018/02/05 19:59:32","新北市三重區力行路二段33巷8號","121.482456666667","25.073695","6500200","三重區"
"241003","887-TS","2018/02/05 19:59:29","新北市三重區仁愛街445巷55號","121.491298333333","25.0831666666667","6500200","三重區"
"241012","941-UM","2018/02/05 19:59:26","新北市三重區仁厚街78號","121.500788333333","25.076775","6500200","三重區"
"241029","942-UM","2018/02/05 19:59:36","新北市三重區重新路三段204號","121.490058333333","25.058315","6500200","三重區"
"241033","AAC-255","2018/02/05 19:59:42","新北市三重區中興北街26號","121.469718333333","25.0486233333333","6500200","三重區"
"235066","003-UY","2018/02/05 19:59:42","新北市中和區中山路二段46號","121.504281666667","25.00494","6500300","中和區"
"235064","005-UY","2018/02/05 19:59:41","新北市中和區南山路28號","121.50193","24.9979933333333","6500300","中和區"
"235056","096-UM","2018/02/05 19:59:42","新北市中和區中山路三段175號","121.472976666667","25.006255","6500300","中和區"
"235039","097-UM","2018/02/05 19:59:34","新北市中和區大勇街27巷1號","121.517233333333","24.9935233333333","6500300","中和區"
"235065","098-UM","2018/02/05 19:59:32","新北市中和區福祥路122號","121.49891","25.006495","6500300","中和區"
"235040","150-BY","2018/02/05 19:59:30","新北市中和區保健路10巷6號","121.507571666667","24.997115","6500300","中和區"
"235058","151-BY","2018/02/05 19:59:39","新北市中和區員山路237號","121.481245","24.9983166666667","6500300","中和區"
"235055","183-VK","2018/02/05 19:59:35","新北市中和區德光路26-1號","121.470665","25.004495","6500300","中和區"
"235038","185-VK","2018/02/05 19:59:35","新北市中和區立人街2號","121.520448333333","24.9957633333333","6500300","中和區"
"235049","186-VK","2018/02/05 19:59:27","新北市中和區景平路572號","121.501735","24.99531","6500300","中和區"
"235067","255-BX","2018/02/05 19:59:43","新北市中和區新生街287號","121.483861666667","24.9974466666667","6500300","中和區"
"235044","293-VK","2018/02/05 19:59:44","新北市中和區中正路65巷1弄1號","121.501401666667","24.99311","6500300","中和區"
"235043","352-BY","2018/02/05 19:59:36","新北市中和區興南路二段159巷7號","121.505345","24.9831816666667","6500300","中和區"
"235068","377-QA","2018/02/05 19:59:30","新北市中和區永和路8巷21號","121.500991666667","25.0035116666667","6500300","中和區"
"235061","378-QA","2018/02/05 19:59:45","新北市中和區新生街176巷34號","121.482478333333","24.9994616666667","6500300","中和區"
"235050","4979-A6","2018/02/05 19:59:39","新北市中和區景平路241巷64弄2號","121.50784","24.99244","6500300","中和區"
"235069","4980-A6","2018/02/05 19:59:34","新北市中和區圓通路189號","121.497438333333","24.9946383333333","6500300","中和區"
"235042","551-UM","2018/02/05 19:59:39","新北市中和區宜安路54號","121.512058333333","24.9966466666667","6500300","中和區"
"235054","640-BX","2018/02/05 19:59:25","新北市中和區莒光路175-4號","121.47278","24.9993283333333","6500300","中和區"
"235046","733-UM","2018/02/05 19:59:28","新北市中和區興南路一段93巷85號","121.510568333333","24.9862733333333","6500300","中和區"
"235041","802-TS","2018/02/05 19:59:35","新北市中和區安平路38號","121.509715","24.9949416666667","6500300","中和區"
"235052","805-TS","2018/02/05 19:59:26","新北市中和區華新街192巷22弄9號","121.506628333333","24.983255","6500300","中和區"
"235048","896-TW","2018/02/05 19:59:43","新北市中和區景新街467巷20弄110號","121.514748333333","24.986675","6500300","中和區"
"235053","900-TW","2018/02/05 19:59:29","新北市中和區華安街99號","121.468165","24.996355","6500300","中和區"
"235051","157-BY","2018/02/05 19:59:31","新北市中和區中興街204號","121.500015","24.990215","6500300","中和區"
"235037","AAC-213","2018/02/05 19:59:34","新北市中和區大智街55巷30弄58-1號","121.522261666667","24.993375","6500300","中和區"
"235059","AAC-215","2018/02/05 19:59:41","新北市中和區圓通路335巷33弄11號","121.493196666667","24.98919","6500300","中和區"
"220068","013-TV","2018/02/05 19:59:45","新北市板橋區中山路二段412巷29弄22-1號","121.48453","25.0202833333333","6500100","板橋區"
"220065","072-UY","2018/02/05 19:59:41","新北市板橋區民族路87號","121.466211666667","25.008615","6500100","板橋區"
"220086","073-UY","2018/02/05 19:59:46","新北市板橋區南雅西路二段65號","121.452848333333","25.0098","6500100","板橋區"
"220069","AAD-861","2018/02/05 19:59:41","新北市板橋區大明街18-9號","121.458765","25.0026","6500100","板橋區"
"220090","120-SR","2018/02/05 19:59:41","新北市板橋區英士路199號","121.45899","25.0236583333333","6500100","板橋區"
"247020","500-BY","2018/02/05 19:59:25","新北市蘆洲區民義街66號","121.472935","25.08975","6501400","蘆洲區"
"247008","341-TH","2018/02/05 19:59:38","新北市蘆洲區中山一路95巷20弄2號","121.477113333333","25.0807383333333","6501400","蘆洲區"
"247010","339-TH","2018/02/05 19:59:42","新北市三重區集賢路188號","121.484036666667","25.0880116666667","6501400","蘆洲區"
"247002","337-TH","2018/02/05 19:59:31","新北市蘆洲區長安街274巷11號","121.458043333333","25.0871516666667","6501400","蘆洲區"
"247004","336-TH","2018/02/05 19:59:33","新北市蘆洲區環堤大道8號","121.455918333333","25.0832283333333","6501400","蘆洲區"
"247006","056-VK","2018/02/05 19:59:26","新北市蘆洲區九芎街101號","121.465958333333","25.07966","6501400","蘆洲區"
"247016","053-VK","2018/02/05 19:59:41","新北市蘆洲區光華路13號","121.469813333333","25.08338","6501400","蘆洲區"
"247024","002-UY","2018/02/05 19:59:44","新北市蘆洲區光榮路120巷17號","121.465601666667","25.08851","6501400","蘆洲區"
"226004","312-R5","2018/02/05 19:59:10","新北市平溪區望古里灰3-1號","121.756295","25.0293533333333","6502400","平溪區"
"228003","097-TW","2018/02/05 19:59:33","新北市貢寮區仁理村仁和路146號","121.923128333333","25.0516266666667","6502600","貢寮區"
"227001","642-TC","2018/02/05 19:59:33","新北市雙溪區雙溪里長安街16號","121.865018333333","25.034705","6502500","雙溪區"
"227008","400-TW","2018/02/05 19:59:37","新北市雙溪區新基里新基南街25號","121.866243333333","25.0381816666667","6502500","雙溪區"
"222001","KEA-2212","2018/02/05 19:59:43","新北市深坑區北深路三段165-1號","121.602188333333","25.00329","6501800","深坑區"
"208003","665-BX","2018/02/05 19:59:31","新北市金山區海興路107號","121.633675","25.2423866666667","6502700","金山區"
"208001","761-BX","2018/02/05 19:59:37","新北市金山區南勢湖3號","121.62221","25.2194183333333","6502700","金山區"
"251009","008-UM","2018/02/05 19:59:34","新北市淡水區英專路28巷18號","121.445881666667","25.16988","6501000","淡水區"
"251004","009-UM","2018/02/05 19:59:43","新北市淡水區民族路110巷38弄9號","121.461015","25.1356366666667","6501000","淡水區"
"251005","010-UM","2018/02/05 19:59:30","新北市淡水區學府路136巷19號","121.451373333333","25.172805","6501000","淡水區"
"251001","011-UM","2018/02/05 19:59:30","新北市淡水區淡金路二段38號","121.451655","25.18166","6501000","淡水區"
"251013","179-VK","2018/02/05 19:59:27","新北市淡水區奎柔山路63號","121.451688333333","25.2061933333333","6501000","淡水區"
"251014","180-VK","2018/02/05 19:59:26","新北市淡水區石頭厝12-3號","121.461321666667","25.2362066666667","6501000","淡水區"
"251008","181-VK","2018/02/05 19:59:42","新北市淡水區淡海路61號","121.422941666667","25.1808466666667","6501000","淡水區"
"251015","182-VK","2018/02/05 19:59:42","新北市淡水區淡金路二段270-1號","121.44718","25.18849","6501000","淡水區"
"251010","413-VK","2018/02/05 19:59:28","新北市淡水區崁頂里77號","121.43005","25.2032416666667","6501000","淡水區"
"251012","441-VK","2018/02/05 19:59:28","新北市淡水區下圭柔山71-3號","121.447366666667","25.2060966666667","6501000","淡水區"
"251016","442-VK","2018/02/05 19:59:37","新北市淡水區淡金路四段514號","121.451998333333","25.2258316666667","6501000","淡水區"
"251006","561-UM","2018/02/05 19:59:42","新北市淡水區水碓街10號","121.443578333333","25.1769433333333","6501000","淡水區"
"251011","650-BX","2018/02/05 19:59:27","新北市淡水區崁頂55-1號","121.442356666667","25.1970066666667","6501000","淡水區"
"251002","672-BX","2018/02/05 19:59:33","新北市淡水區中正路二段12號","121.420505","25.1807166666667","6501000","淡水區"
"207003","550-UM","2018/02/05 19:59:28","新北市萬里區大鵬里萬里加投43-2號","121.64007","25.2089716666667","6502800","萬里區"
"207004","225-TW","2018/02/05 19:59:45","新北市萬里區北基里忠二街31號","121.685566666667","25.1757","6502800","萬里區"
"252001","292-VK","2018/02/05 19:59:31","新北市三芝區公正街66號","121.4998","25.2574716666667","6502100","三芝區"
"252002","AAC-283","2018/02/05 19:59:43","新北市三芝區三民街39巷14號","121.505318333333","25.257615","6502100","三芝區"
"208002","170-UY","2018/02/05 19:59:37","新北市金山區中華路182-2號","121.63285","25.2236183333333","6502700","金山區"
"237007","153-BY","2018/02/05 19:59:34","新北市三峽區二鬮路136巷18弄21號","121.358656666667","24.90838","6500900","三峽區"
"237009","210-TH","2018/02/05 19:59:33","新北市三峽區中園街53號","121.368226666667","24.9260166666667","6500900","三峽區"
"237012","275-BY","2018/02/05 19:59:33","新北市三峽區中華路3巷2-7號","121.374958333333","24.9317283333333","6500900","三峽區"
"237008","302-VK","2018/02/05 19:59:28","新北市三峽區中華路45號","121.37255","24.9308716666667","6500900","三峽區"
"237014","433-BY","2018/02/05 19:59:38","新北市三峽區添福13-19號","121.373051666667","24.9070816666667","6500900","三峽區"
"237006","5529-G3","2018/02/05 19:59:26","新北市三峽區中正路二段168號","121.365903333333","24.9157533333333","6500900","三峽區"
"237005","AKY-6261","2018/02/05 19:59:28","新北市三峽區民生街1巷29號","121.382863333333","24.9335483333333","6500900","三峽區"
"236069","105-UM","2018/02/05 19:59:32","新北市土城區中央路二段263號","121.439725","24.97093","6501300","土城區"
"236042","107-UM","2018/02/05 19:59:32","新北市土城區學府路一段147號","121.453628333333","24.9859683333333","6501300","土城區"
"236078","166-UM","2018/02/05 19:59:27","新北市土城區中州路30巷39號","121.412998333333","24.9593833333333","6501300","土城區"
"236030","253-BX","2018/02/05 19:59:34","新北市土城區中央路一段248-2號","121.444413333333","24.9847083333333","6501300","土城區"
"236026","269-VK","2018/02/05 19:59:40","新北市土城區學府路二段222號","121.445058333333","24.9771633333333","6501300","土城區"
"236014","270-VK","2018/02/05 19:59:35","新北市土城區廣福街123號","121.456238333333","24.9928883333333","6501300","土城區"
"236036","271-VK","2018/02/05 19:59:47","新北市土城區國際路86號","121.466996666667","24.9760816666667","6501300","土城區"
"236020","401-BY","2018/02/05 19:59:25","新北市土城區延吉街126號","121.469701666667","24.98602","6501300","土城區"
"236058","912-UM","2018/02/05 19:59:24","新北市土城區中央路一段215號","121.445743333333","24.9865633333333","6501300","土城區"
"236048","913-UM","2018/02/05 19:59:40","新北市土城區金城路二段394號","121.463791666667","24.9856783333333","6501300","土城區"
"236062","915-UM","2018/02/05 19:59:42","新北市土城區延和路248-1號","121.469823333333","24.9897033333333","6501300","土城區"
"236053","AAC-216","2018/02/05 19:59:30","新北市土城區延和路15號","121.464051666667","24.9880783333333","6501300","土城區"
"242031","AAC-296","2018/02/05 19:59:36","新北市新莊區公園一路37號","121.443258333333","25.03553","6500500","新莊區"
"242029","986-R7","2018/02/05 19:59:36","新北市新莊區中平路298號","121.44485","25.051705","6500500","新莊區"
"242025","615-BX","2018/02/05 19:59:43","新北市新莊區五工一路86號","121.461346666667","25.06746","6500500","新莊區"
"242023","613-BX","2018/02/05 19:59:34","新北市新莊區化成路159號","121.465781666667","25.0492566666667","6500500","新莊區"
"242027","612-BX","2018/02/05 19:59:42","新北市新莊區立信一街56號","121.443208333333","25.0495716666667","6500500","新莊區"
"242039","566-BX","2018/02/05 19:59:27","新北市新莊區民安路342號","121.429293333333","25.0222883333333","6500500","新莊區"
"242044","442-UM","2018/02/05 19:59:36","新北市新莊區中正路742巷3弄16號","121.412933333333","25.0231683333333","6500500","新莊區"
"242053","440-UM","2018/02/05 19:59:42","新北市新莊區西盛街423號","121.427285","25.0121666666667","6500500","新莊區"
"242034","415-TV","2018/02/05 19:59:46","新北市新莊區建中街84號","121.447205","25.0367","6500500","新莊區"
"242004","413-TV","2018/02/05 19:59:44","新北市新莊區化成路424號","121.466025","25.0510933333333","6500500","新莊區"
"242042","400-BY","2018/02/05 19:59:38","新北市新莊區青山路一段181-1號","121.39972","25.03067","6500500","新莊區"
"242058","353-BY","2018/02/05 19:59:28","新北市新莊區八德街107號","121.424223333333","25.021015","6500500","新莊區"
"242007","132-UY","2018/02/05 19:59:41","新北市新莊區思源路585號","121.459858333333","25.05924","6500500","新莊區"
"242036","133-UY","2018/02/05 19:59:45","新北市新莊區民安路207巷34弄1號","121.428491666667","25.0246283333333","6500500","新莊區"
"242021","135-UY","2018/02/05 19:59:26","新北市新莊區建中街48巷10弄12號","121.448603333333","25.0385033333333","6500500","新莊區"
"242009","173-VK","2018/02/05 19:59:42","新北市新莊區幸福路802號","121.4462","25.049085","6500500","新莊區"
"242015","175-VK","2018/02/05 19:59:42","新北市新莊區泰順街33巷2號","121.44619","25.0424783333333","6500500","新莊區"
"242002","176-VK","2018/02/05 19:59:35","新北市新莊區新泰路105號","121.448918333333","25.0350116666667","6500500","新莊區"
"242013","346-TH","2018/02/05 19:59:41","新北市新莊區幸福路672號","121.45097","25.0494683333333","6500500","新莊區"
"242050","347-TH","2018/02/05 19:59:33","新北市新莊區西盛街137號","121.428371666667","25.0184883333333","6500500","新莊區"
"242019","348-TH","2018/02/05 19:59:46","新北市新莊區民樂街65巷22號","121.456968333333","25.0418116666667","6500500","新莊區"
"242056","349-TH","2018/02/05 19:59:44","新北市新莊區中正路347巷15號","121.447196666667","25.0344583333333","6500500","新莊區"
"242017","350-TH","2018/02/05 19:59:41","新北市新莊區中安街18號","121.453276666667","25.0457183333333","6500500","新莊區"
"242011","351-TH","2018/02/05 19:59:39","新北市新莊區中港路531巷122號","121.449945","25.05157","6500500","新莊區"
"238015","755-BX","2018/02/05 19:59:41","新北市樹林區中山路三段124號","121.392195","24.9721883333333","6500700","樹林區"
"238023","601-UM","2018/02/05 19:59:36","新北市樹林區三俊街2號","121.410676666667","25.0151083333333","6500700","樹林區"
"238019","599-UM","2018/02/05 19:59:35","新北市樹林區東榮街91巷2弄2號","121.416","24.9824416666667","6500700","樹林區"
"238021","KEA-2217","2018/02/05 19:59:30","新北市樹林區佳園路三段181巷110弄1-8號","121.392298333333","24.9485133333333","6500700","樹林區"
"238022","KEA-2213","2018/02/05 19:59:32","新北市樹林區中山路三段34號","121.395181666667","24.9726833333333","6500700","樹林區"
"238017","283-BY","2018/02/05 19:59:35","新北市樹林區光興街78-1號","121.4077","25.00258","6500700","樹林區"
"239006","891-R6","2018/02/05 19:59:31","新北市鶯歌區文化路271號","121.353148333333","24.9528716666667","6500800","鶯歌區"
"239003","360-BY","2018/02/05 19:59:42","新北市鶯歌區中正一路阿四巷7-1號","121.368023333333","24.95734","6500800","鶯歌區"
"239004","193-VK","2018/02/05 19:59:30","新北市鶯歌區二甲路43-21號","121.336928333333","24.9344966666667","6500800","鶯歌區"
"221036","130-UY","2018/02/05 19:59:31","新北市汐止區新台五路二段85巷17號","121.664105","25.06742","6501100","汐止區"
"221010","269-BY","2018/02/05 19:59:43","新北市汐止區連峰街260號","121.64486","25.0813383333333","6501100","汐止區"
"221012","278-VK","2018/02/05 19:59:46","新北市汐止區大同路三段292號","121.678188333333","25.07127","6501100","汐止區"
"221023","279-VK","2018/02/05 19:59:36","新北市汐止區明峰街192號","121.628035","25.0696133333333","6501100","汐止區"
"221032","280-BY","2018/02/05 19:59:35","新北市汐止區橫科路18巷4號","121.617928333333","25.0508566666667","6501100","汐止區"
"221027","281-BY","2018/02/05 19:59:38","新北市汐止區中正路59號","121.66179","25.0699066666667","6501100","汐止區"
"221029","298-VK","2018/02/05 19:53:11","新北市汐止區樟樹二路341號","121.641985","25.072875","6501100","汐止區"
"221021","299-VK","2018/02/05 19:59:39","新北市汐止區新台五路一段222號","121.65616","25.0630366666667","6501100","汐止區"
"221031","353-TW","2018/02/05 19:59:39","新北市汐止區福德一路176巷14號","121.635311666667","25.0665433333333","6501100","汐止區"
"221008","567-BX","2018/02/05 19:59:33","新北市汐止區康寧街39號","121.618596666667","25.066785","6501100","汐止區"
"221035","622-UM","2018/02/05 19:59:30","新北市汐止區長江街39巷2號","121.655693333333","25.0714766666667","6501100","汐止區"
"221025","623-UM","2018/02/05 19:59:28","新北市汐止區秀峰路118號","121.659981666667","25.0634033333333","6501100","汐止區"
"221038","646-BX","2018/02/05 19:59:45","新北市汐止區忠孝東路436號","121.666111666667","25.0723083333333","6501100","汐止區"
"221033","647-BX","2018/02/05 19:59:28","新北市汐止區東勢街201巷104號","121.633613333333","25.0429533333333","6501100","汐止區"
"221018","753-BX","2018/02/05 19:59:37","新北市汐止區茄苳路59號","121.666645","25.0708333333333","6501100","汐止區"
"220079","145-BY","2018/02/05 19:59:41","新北市板橋區中正路135巷16號","121.455446666667","25.0154583333333","6500100","板橋區"
"220080","200-UY","2018/02/05 19:59:42","新北市板橋區大觀路二段79巷2弄16號","121.447388333333","25.0016433333333","6500100","板橋區"
"220082","610-BX","2018/02/05 19:59:31","新北市板橋區篤行路二段131巷3-2號","121.431528333333","24.990365","6500100","板橋區"
"220106","255-TC","2018/02/05 19:59:43","新北市板橋區文化路二段652號","121.478556666667","25.0356466666667","6500100","板橋區"
"220103","257-TC","2018/02/05 19:59:38","新北市板橋區陽明街29巷1弄11號","121.464733333333","25.0215616666667","6500100","板橋區"
"220072","277-BY","2018/02/05 19:59:41","新北市板橋區金門街127巷8號","121.433231666667","24.9911233333333","6500100","板橋區"
"220101","280-UM","2018/02/05 19:59:39","新北市板橋區縣民大道三段103巷11號","121.475786666667","25.0228266666667","6500100","板橋區"
"220071","283-VK","2018/02/05 19:59:39","新北市板橋區廣權路77號","121.46391","24.9922833333333","6500100","板橋區"
"220094","285-UM","2018/02/05 19:59:35","新北市板橋區雨農路27巷2號","121.461328333333","25.0241366666667","6500100","板橋區"
"220053","285-VK","2018/02/05 19:59:35","新北市板橋區中山路二段92號","121.475321666667","25.01626","6500100","板橋區"
"220083","286-VK","2018/02/05 19:59:34","新北市板橋區僑中二街8巷16號","121.446496666667","25.011295","6500100","板橋區"
"220081","287-VK","2018/02/05 19:59:32","新北市板橋區大觀路一段28巷8號","121.449985","25.0088283333333","6500100","板橋區"
"220061","293-UM","2018/02/05 19:59:40","新北市板橋區板新路185號","121.469135","25.0159166666667","6500100","板橋區"
"220084","296-UM","2018/02/05 19:59:41","新北市板橋區溪崑二街112巷6號","121.42623","24.9889883333333","6500100","板橋區"
"242048","281-VK","2018/02/05 19:59:43","新北市新莊區民安路207巷17號","121.426796666667","25.023085","6500500","新莊區"
"220075","303-R5","2018/02/05 19:59:42","新北市板橋區金華街1號","121.455541666667","25.0200533333333","6500100","板橋區"
"220062","305-R5","2018/02/05 19:59:41","新北市板橋區三民路二段81巷27弄31號","121.481398333333","25.0176866666667","6500100","板橋區"
"220092","307-R5","2018/02/05 19:59:32","新北市板橋區陽明街164巷29號","121.464663333333","25.0246183333333","6500100","板橋區"
"220098","317-R6","2018/02/05 19:59:24","新北市板橋區英士路199號","121.458646666667","25.023535","6500100","板橋區"
"220064","486-VK","2018/02/05 19:59:36","新北市板橋區區運路5號","121.465198333333","25.0096","6500100","板橋區"
"220089","487-VK","2018/02/05 19:59:31","新北市板橋區龍泉街95-3號","121.456988333333","25.024575","6500100","板橋區"
"220088","491-VK","2018/02/05 19:59:41","新北市板橋區懷德街181巷3號","121.479358333333","25.0300883333333","6500100","板橋區"
"220035","560-BX","2018/02/05 19:59:27","新北市板橋區新生街87巷18號","121.457248333333","25.0220116666667","6500100","板橋區"
"220063","609-BX","2018/02/05 19:59:44","新北市板橋區三民路一段133號","121.479298333333","25.0202066666667","6500100","板橋區"
"220091","637-BX","2018/02/05 19:59:33","新北市板橋區文聖街89巷26號","121.478228333333","25.030265","6500100","板橋區"
"220057","686-BX","2018/02/05 19:59:41","新北市板橋區四川路二段2號","121.456601666667","24.9966433333333","6500100","板橋區"
"220093","689-BX","2018/02/05 19:59:29","新北市板橋區長江路三段120號","121.475123333333","25.0344533333333","6500100","板橋區"
"220054","741-BX","2018/02/05 19:59:39","新北市板橋區忠孝路忠義巷16弄1號","121.465973333333","25.0037083333333","6500100","板橋區"
"220055","827-TW","2018/02/05 19:59:30","新北市板橋區仁愛路62巷14弄1-3號","121.459925","24.9984766666667","6500100","板橋區"
"220067","829-TW","2018/02/05 19:59:35","新北市板橋區漢生東路193巷58號","121.472946666667","25.0118866666667","6500100","板橋區"
"220096","830-TW","2018/02/05 19:59:43","新北市板橋區文化路二段124巷34弄18號","121.470711666667","25.025595","6500100","板橋區"
"220074","895-R6","2018/02/05 19:59:41","新北市板橋區府中路29-2號","121.458585","25.0080483333333","6500100","板橋區"
"220073","985-R7","2018/02/05 19:59:35","新北市板橋區南雅西路二段188號","121.451685","25.0143083333333","6500100","板橋區"
"220097","AAC-210","2018/02/05 19:59:42","新北市板橋區光正街45巷11號","121.46179","25.016775","6500100","板橋區"
"220070","AAC-253","2018/02/05 19:59:32","新北市板橋區成都街10號","121.460343333333","25.0047083333333","6500100","板橋區"
