"lineid","car","time","location","longitude","latitude","cityid","cityname"
"234046","148-BY","2018/02/05 20:19:38","新北市永和區得和路326號","121.523221666667","24.9995266666667","6500400","永和區"
"234067","149-BY","2018/02/05 20:19:28","新北市永和區保平路266號","121.508701666667","25.00511","6500400","永和區"
"234007","207-UY","2018/02/05 20:19:26","新北市永和區保順路11號","121.50432","25.00977","6500400","永和區"
"234081","298-R6","2018/02/05 20:19:42","新北市永和區福和路19巷1弄3號","121.52425","25.007865","6500400","永和區"
"234036","336-UY","2018/02/05 20:19:28","新北市永和區成功路一段47巷19號","121.527711666667","25.0038633333333","6500400","永和區"
"234064","337-UY","2018/02/05 20:19:35","新北市永和區得和路124號","121.518733333333","25.0001633333333","6500400","永和區"
"234086","338-UY","2018/02/05 20:19:36","新北市永和區福和路261號","121.517891666667","25.0073683333333","6500400","永和區"
"234070","552-UM","2018/02/05 20:19:42","新北市永和區永安街10號","121.51894","25.0061216666667","6500400","永和區"
"234017","745-BX","2018/02/05 20:19:37","新北市永和區仁愛路8號","121.514991666667","25.01351","6500400","永和區"
"234030","746-BX","2018/02/05 20:19:42","新北市中和區立人街14巷71號","121.51844","24.9956283333333","6500400","永和區"
"234054","KEA-2590","2018/02/05 20:19:26","新北市永和區光復街2巷16弄7號","121.517411666667","25.0163483333333","6500400","永和區"
"234013","KEA-2591","2018/02/05 20:19:37","新北市永和區仁愛路282巷2號","121.503586666667","25.00849","6500400","永和區"
"234061","AAD-866","2018/02/05 20:19:42","新北市永和區安樂路146-1號","121.514231666667","25.000465","6500400","永和區"
"234042","862-TW","2018/02/05 20:19:32","新北市中和區中安街192號","121.511396666667","24.9993133333333","6500400","永和區"
"234050","863-TW","2018/02/05 20:19:34","新北市永和區新生路118巷3弄4號","121.50666","25.0147516666667","6500400","永和區"
"234026","9371-KE","2018/02/05 20:19:30","新北市永和區保生路55號","121.504551666667","25.0107816666667","6500400","永和區"
"234011","9373-KE","2018/02/05 20:19:36","新北市永和區保生路55-1號","121.504486666667","25.0109233333333","6500400","永和區"
"249005","172-UM","2018/02/05 20:19:26","新北市八里區下罟子6-4號","121.386226666667","25.1412733333333","6502300","八里區"
"249001","173-UM","2018/02/05 20:19:39","新北市八里區中華路二段538-1號","121.399041666667","25.1450366666667","6502300","八里區"
"249004","303-UY","2018/02/05 20:19:34","新北市八里區中山路一段326號","121.412815","25.1591533333333","6502300","八里區"
"249002","305-UY","2018/02/05 20:19:30","新北市八里區龍米路一段268-1號","121.451741666667","25.1291783333333","6502300","八里區"
"249003","593-UM","2018/02/05 20:19:43","新北市八里區訊塘路42號","121.397865","25.1454466666667","6502300","八里區"
"248016","026-BX","2018/02/05 20:19:29","新北市五股區凌雲路一段158巷18號","121.44835","25.10345","6501500","五股區"
"248012","247-BX","2018/02/05 20:19:36","新北市五股區民義路一段212號","121.430571666667","25.0893816666667","6501500","五股區"
"248004","677-BX","2018/02/05 20:19:39","新北市五股區成泰路二段100號","121.437631666667","25.0827883333333","6501500","五股區"
"248002","678-BX","2018/02/05 20:19:41","新北市五股區成泰路三段185號","121.445448333333","25.0920816666667","6501500","五股區"
"248010","682-TV","2018/02/05 20:19:42","新北市五股區成泰路一段49號","121.43414","25.0672766666667","6501500","五股區"
"234023","9380-KE","2018/02/05 20:19:43","新北市永和區復興街48號","121.51651","25.0130733333333","6500400","永和區"
"234077","969-R7","2018/02/05 20:19:31","新北市永和區民光街3號","121.515276666667","24.99638","6500400","永和區"
"234074","AAC-211","2018/02/05 20:19:27","新北市永和區竹林路201巷22弄1號","121.52199","25.00937","6500400","永和區"
"234003","AAC-295","2018/02/05 20:19:44","新北市永和區自強街4號","121.514295","25.00802","6500400","永和區"
"243012","AAD-798","2018/02/05 20:19:40","新北市泰山區文化街42號","121.435213333333","25.0634516666667","6501600","泰山區"
"243011","297-R6","2018/02/05 20:19:33","新北市泰山區德安街7號","121.419471666667","25.031935","6501600","泰山區"
"243015","380-SR","2018/02/05 20:19:28","新北市泰山區泰林路二段202號","121.433338333333","25.0613133333333","6501600","泰山區"
"243014","421-VK","2018/02/05 20:19:40","新北市泰山區泰林路二段385巷1號","121.42761","25.06411","6501600","泰山區"
"243010","KEA-2215","2018/02/05 20:19:41","新北市泰山區明志路二段214巷9號","121.42678","25.0487066666667","6501600","泰山區"
"243009","KEA-2216","2018/02/05 20:19:44","新北市泰山區泰林路二段292巷26號","121.43162","25.06347","6501600","泰山區"
"243013","646-TV","2018/02/05 20:19:45","新北市泰山區中央路5巷10號","121.4269","25.0434616666667","6501600","泰山區"
"243016","680-BX","2018/02/05 20:19:36","新北市泰山區明志路三段221號","121.42385","25.0381166666667","6501600","泰山區"
"222003","436-BY","2018/02/05 20:19:37","新北市深坑區文化街43號","121.617593333333","25.0018966666667","6501800","深坑區"
"222002","659-BX","2018/02/05 20:19:45","新北市深坑區萬福路69-1號","121.600778333333","25.0080416666667","6501800","深坑區"
"231041","002-UM","2018/02/05 20:19:38","新北市新店區二十張路3號","121.540248333333","24.9827983333333","6500600","新店區"
"231058","0291-UT","2018/02/05 20:19:34","新北市新店區中央路13號","121.533421666667","24.9784083333333","6500600","新店區"
"231059","046-UY","2018/02/05 20:19:40","新北市新店區安德街134號","121.508556666667","24.9602266666667","6500600","新店區"
"231061","047-UY","2018/02/05 20:19:34","新北市新店區安民街133巷26號","121.515271666667","24.9695016666667","6500600","新店區"
"231060","106-UY","2018/02/05 20:19:35","新北市新店區錦秀路1-3號","121.479065","24.945455","6500600","新店區"
"231051","107-UY","2018/02/05 20:19:40","新北市新店區中央六街58號","121.52786","24.9759","6500600","新店區"
"231047","108-UY","2018/02/05 20:19:44","新北市新店區寶橋路132號","121.547571666667","24.9761016666667","6500600","新店區"
"231049","110-UY","2018/02/05 20:19:36","新北市新店區北新路一段337號","121.541871666667","24.9686666666667","6500600","新店區"
"231052","187-VK","2018/02/05 20:19:42","新北市新店區新烏路二段329號","121.550158333333","24.9106833333333","6500600","新店區"
"231065","188-VK","2018/02/05 20:19:35","新北市新店區安祥路106巷208號","121.47412","24.96051","6500600","新店區"
"231050","KEA-2219","2018/02/05 20:19:25","新北市新店區中正路186號","121.540896666667","24.9722216666667","6500600","新店區"
"221015","KEA-2785","2018/02/05 20:19:42","新北市汐止區建成路142巷19弄1號","121.662268333333","25.0737866666667","6501100","汐止區"
"231057","256-BX","2018/02/05 20:19:32","新北市新店區花園十二路1號","121.554783333333","24.9347683333333","6500600","新店區"
"231054","AAD-862","2018/02/05 20:19:46","新北市新店區檳榔路107號","121.544645","24.9615666666667","6500600","新店區"
"231056","3713-VJ","2018/02/05 20:19:44","新北市新店區中正路326號","121.536941666667","24.9748166666667","6500600","新店區"
"231055","4716-K9","2018/02/05 20:19:39","新北市新店區北新路一段297巷37號","121.54032","24.96843","6500600","新店區"
"231067","4772-VM","2018/02/05 20:19:37","新北市新店區溪洲路8巷66號","121.533305","24.9624466666667","6500600","新店區"
"231064","515-UM","2018/02/05 20:19:31","新北市新店區安利街26號","121.519181666667","24.97461","6500600","新店區"
"231042","616-UM","2018/02/05 20:19:25","新北市新店區寶橋路230號","121.551418333333","24.9787616666667","6500600","新店區"
"231040","619-UM","2018/02/05 20:19:40","新北市新店區三民路18號","121.539266666667","24.9717866666667","6500600","新店區"
"231063","645-TV","2018/02/05 20:19:43","新北市新店區車子路1-1號","121.504775","24.9578666666667","6500600","新店區"
"231068","719-UY","2018/02/05 20:19:33","新北市新店區寶安街30-1號","121.54217","24.9823316666667","6500600","新店區"
"231062","720-UM","2018/02/05 20:19:25","新北市新店區安泰路7巷16號","121.48569","24.9509733333333","6500600","新店區"
"231044","897-TW","2018/02/05 20:19:44","新北市新店區北新路三段196號","121.541561666667","24.98332","6500600","新店區"
"231045","898-TW","2018/02/05 20:19:42","新北市新店區新坡一街72號","121.548921666667","24.964545","6500600","新店區"
"231043","899-TW","2018/02/05 20:19:34","新北市新店區建國路131號","121.539431666667","24.9782216666667","6500600","新店區"
"231066","AKT-0513","2018/02/05 20:19:45","新北市新店區安興路112號","121.51471","24.97758","6500600","新店區"
"241011","013-R5","2018/02/05 20:19:37","新北市三重區龍門路197號","121.499718333333","25.0733583333333","6500200","三重區"
"241028","022-UY","2018/02/05 20:19:45","新北市三重區大同南路119號","121.49628","25.05829","6500200","三重區"
"241008","059-VK","2018/02/05 20:19:43","新北市三重區永福街156號","121.480418333333","25.074475","6500200","三重區"
"241009","060-VK","2018/02/05 20:19:38","新北市三重區三和路四段382巷71號","121.480771666667","25.0783616666667","6500200","三重區"
"241031","061-VK","2018/02/05 20:19:29","新北市三重區過圳街9-1號","121.48886","25.06013","6500200","三重區"
"241015","062-VK","2018/02/05 20:19:32","新北市三重區重新路一段128號","121.500223333333","25.0628616666667","6500200","三重區"
"241017","063-VK","2018/02/05 20:19:31","新北市三重區自強路一段157號","121.493313333333","25.0671716666667","6500200","三重區"
"241024","065-VK","2018/02/05 20:19:34","新北市三重區中正北路238號","121.48185","25.0679566666667","6500200","三重區"
"241026","066-VK","2018/02/05 20:19:34","新北市三重區中央南路103號","121.501545","25.0603966666667","6500200","三重區"
"241002","090-VK","2018/02/05 20:19:38","新北市三重區仁義街101巷42號","121.49916","25.08078","6500200","三重區"
"241020","156-TC","2018/02/05 20:19:43","新北市三重區後竹圍街2巷1弄2號","121.491646666667","25.0733316666667","6500200","三重區"
"241005","262-UM","2018/02/05 20:19:35","新北市三重區碧華街233號","121.489046666667","25.082825","6500200","三重區"
"241018","265-UM","2018/02/05 20:19:38","新北市三重區正義北路256巷62號","121.494536666667","25.0681066666667","6500200","三重區"
"241016","266-UM","2018/02/05 20:19:38","新北市三重區新北大道一段7號","121.489655","25.061575","6500200","三重區"
"241022","267-UM","2018/02/05 20:19:34","新北市三重區市前街2號","121.488996666667","25.0618316666667","6500200","三重區"
"241032","269-UM","2018/02/05 20:19:44","新北市三重區捷運路19巷6弄6號","121.484803333333","25.0569333333333","6500200","三重區"
"241025","271-UM","2018/02/05 20:19:30","新北市三重區三民街270號","121.478941666667","25.068005","6500200","三重區"
"241007","398-BY","2018/02/05 20:19:40","新北市三重區仁美街55號","121.487021666667","25.0780166666667","6500200","三重區"
"241035","462-BY","2018/02/05 20:19:45","新北市三重區正義北路33巷44號","121.498845","25.0638633333333","6500200","三重區"
"241004","475-VK","2018/02/05 20:19:38","新北市三重區自強路四段98號","121.491061666667","25.0797416666667","6500200","三重區"
"241019","478-VK","2018/02/05 20:19:36","新北市三重區忠孝路一段68號","121.490135","25.0718033333333","6500200","三重區"
"241030","480-VK","2018/02/05 20:19:41","新北市三重區集美街89巷21號","121.488288333333","25.0527866666667","6500200","三重區"
"241014","543-UM","2018/02/05 20:19:29","新北市三重區龍濱路163號","121.502706666667","25.069715","6500200","三重區"
"241023","545-UM","2018/02/05 20:19:43","新北市三重區頂崁街141號","121.477758333333","25.06504","6500200","三重區"
"241003","887-TS","2018/02/05 20:19:29","新北市三重區富華街27號","121.49051","25.0829983333333","6500200","三重區"
"241012","941-UM","2018/02/05 20:19:46","新北市三重區河邊北街385號","121.50154","25.0767883333333","6500200","三重區"
"241029","942-UM","2018/02/05 20:19:36","新北市三重區重安街98號","121.492665","25.0561666666667","6500200","三重區"
"241033","AAC-255","2018/02/05 20:19:42","新北市三重區五谷王北街50巷36號","121.475218333333","25.051415","6500200","三重區"
"235066","003-UY","2018/02/05 20:19:42","新北市中和區光華街59-1號","121.50645","25.0033633333333","6500300","中和區"
"235039","097-UM","2018/02/05 20:19:34","新北市中和區大勇街27巷31號","121.516101666667","24.9937683333333","6500300","中和區"
"235065","098-UM","2018/02/05 20:19:32","新北市中和區永和路55號","121.497141666667","25.00534","6500300","中和區"
"235040","150-BY","2018/02/05 20:19:30","新北市中和區安平路82號","121.511116666667","24.9966966666667","6500300","中和區"
"235068","377-QA","2018/02/05 20:18:10","新北市中和區中山路二段260號","121.497348333333","25.0025316666667","6500300","中和區"
"235050","4979-A6","2018/02/05 20:19:39","新北市中和區景新街274巷8號","121.510543333333","24.992245","6500300","中和區"
"235069","4980-A6","2018/02/05 20:19:34","新北市中和區圓通路97號","121.499665","24.9966966666667","6500300","中和區"
"235059","AAC-215","2018/02/05 20:19:41","新北市中和區圓通路419號","121.488418333333","24.9889266666667","6500300","中和區"
"220069","AAD-861","2018/02/05 20:19:41","新北市板橋區南雅南路二段1-1號","121.454676666667","25.003685","6500100","板橋區"
"247022","893-R6","2018/02/05 20:19:41","新北市蘆洲區民族路443號","121.467741666667","25.08888","6501400","蘆洲區"
"247012","546-UM","2018/02/05 20:19:45","新北市蘆洲區中興街15巷8號","121.480575","25.0872883333333","6501400","蘆洲區"
"247020","500-BY","2018/02/05 20:19:45","新北市蘆洲區仁愛街25號","121.47222","25.09274","6501400","蘆洲區"
"247008","341-TH","2018/02/05 20:19:36","新北市蘆洲區集賢路229-1號","121.482215","25.0858383333333","6501400","蘆洲區"
"247010","339-TH","2018/02/05 20:19:42","新北市蘆洲區信義路188巷18弄1號","121.480476666667","25.0845833333333","6501400","蘆洲區"
"247002","337-TH","2018/02/05 20:19:31","新北市蘆洲區長安街331巷34號","121.455966666667","25.0866216666667","6501400","蘆洲區"
"247006","056-VK","2018/02/05 20:19:26","新北市蘆洲區九芎街153巷6號","121.4653","25.0787216666667","6501400","蘆洲區"
"247016","053-VK","2018/02/05 20:19:41","新北市蘆洲區光華路132巷39號","121.465825","25.0838216666667","6501400","蘆洲區"
"247014","007-UY","2018/02/05 20:19:42","新北市蘆洲區成功路60號","121.472435","25.0804683333333","6501400","蘆洲區"
"247024","002-UY","2018/02/05 20:19:44","新北市蘆洲區光明路112巷29弄13號","121.46418","25.0876366666667","6501400","蘆洲區"
"247018","001-UY","2018/02/05 20:19:27","新北市蘆洲區民族路408巷18-1號","121.475086666667","25.0921683333333","6501400","蘆洲區"
"222001","KEA-2212","2018/02/05 20:19:43","新北市深坑區北深路三段213號","121.600476666667","25.0038333333333","6501800","深坑區"
"251013","179-VK","2018/02/05 20:19:46","新北市淡水區奎柔山路752巷53號","121.474623333333","25.2049416666667","6501000","淡水區"
"251014","180-VK","2018/02/05 20:19:26","新北市淡水區石頭厝3號","121.458701666667","25.2355516666667","6501000","淡水區"
"251008","181-VK","2018/02/05 20:19:42","新北市淡水區淡海路150巷19號","121.422336666667","25.1843883333333","6501000","淡水區"
"251015","182-VK","2018/02/05 20:19:42","新北市淡水區淡金路三段446號","121.451033333333","25.2146116666667","6501000","淡水區"
"251010","413-VK","2018/02/05 20:19:48","新北市淡水區新民街一段134號","121.427506666667","25.1889166666667","6501000","淡水區"
"251012","441-VK","2018/02/05 20:19:28","新北市淡水區下圭柔山431-1號","121.449835","25.2102733333333","6501000","淡水區"
"251016","442-VK","2018/02/05 20:19:37","新北市淡水區淡金路四段507號","121.451236666667","25.2283366666667","6501000","淡水區"
"251006","561-UM","2018/02/05 20:19:42","新北市淡水區北新路169巷38號","121.449455","25.18042","6501000","淡水區"
"251002","672-BX","2018/02/05 20:19:33","新北市淡水區中正路63號","121.4415","25.1695283333333","6501000","淡水區"
"251003","766-UM","2018/02/05 20:19:39","新北市淡水區中山北路一段194號","121.444535","25.179325","6501000","淡水區"
"207004","225-TW","2018/02/05 20:19:25","新北市萬里區北基里仁三街2號","121.68234","25.175485","6502800","萬里區"
"252001","292-VK","2018/02/05 20:19:31","新北市三芝區中山路一段14號","121.500686666667","25.2580933333333","6502100","三芝區"
"252002","AAC-283","2018/02/05 20:19:43","新北市三芝區中正路一段16-1號","121.502941666667","25.2586816666667","6502100","三芝區"
"208002","170-UY","2018/02/05 20:19:37","新北市金山區環金路19號","121.640811666667","25.2176783333333","6502700","金山區"
"237009","210-TH","2018/02/05 20:19:33","新北市三峽區民族街8號","121.369033333333","24.931375","6500900","三峽區"
"237008","302-VK","2018/02/05 20:19:28","新北市樹林區大義路198號","121.377821666667","24.9460333333333","6500900","三峽區"
"237006","5529-G3","2018/02/05 20:19:26","新北市三峽區嘉添1-3號","121.367796666667","24.911765","6500900","三峽區"
"237005","AKY-6261","2018/02/05 20:19:48","新北市三峽區三樹路98巷175號","121.383828333333","24.939835","6500900","三峽區"
"236069","105-UM","2018/02/05 20:19:32","新北市土城區中山路68號","121.432336666667","24.970195","6501300","土城區"
"236042","107-UM","2018/02/05 20:19:32","新北市土城區裕民路97號","121.450818333333","24.9871333333333","6501300","土城區"
"236078","166-UM","2018/02/05 20:19:29","新北市土城區金安街40號","121.420551666667","24.965105","6501300","土城區"
"236030","253-BX","2018/02/05 20:19:34","新北市土城區學成路128巷8弄1號","121.449496666667","24.9899516666667","6501300","土城區"
"236026","269-VK","2018/02/05 20:19:43","新北市土城區裕生路83巷29弄8號","121.448493333333","24.9838883333333","6501300","土城區"
"236014","270-VK","2018/02/05 20:19:35","新北市土城區廣明街90巷18號","121.4554","24.9944883333333","6501300","土城區"
"236036","271-VK","2018/02/05 20:19:47","新北市土城區明德路一段179號","121.464243333333","24.9792783333333","6501300","土城區"
"236020","401-BY","2018/02/05 20:19:46","新北市土城區延吉街111巷15號","121.471813333333","24.9860783333333","6501300","土城區"
"236058","912-UM","2018/02/05 20:19:44","新北市土城區中央路三段67號","121.438715","24.969305","6501300","土城區"
"242031","AAC-296","2018/02/05 20:19:35","新北市新莊區中正路386號","121.44111","25.0348233333333","6500500","新莊區"
"242029","986-R7","2018/02/05 20:19:36","新北市新莊區中原路319-2號","121.446668333333","25.05444","6500500","新莊區"
"242025","615-BX","2018/02/05 20:19:43","新北市新莊區五工二路70巷6號","121.460651666667","25.066065","6500500","新莊區"
"242023","613-BX","2018/02/05 20:19:34","新北市新莊區化成路744號","121.465551666667","25.0575033333333","6500500","新莊區"
"242027","612-BX","2018/02/05 20:19:42","新北市新莊區幸福路674號","121.450821666667","25.0492383333333","6500500","新莊區"
"242039","566-BX","2018/02/05 20:19:38","新北市新莊區龍安路479號","121.425346666667","25.0181716666667","6500500","新莊區"
"242044","442-UM","2018/02/05 20:19:36","新北市新莊區中正路新建巷28弄71號","121.41372","25.0210866666667","6500500","新莊區"
"242053","440-UM","2018/02/05 20:19:42","新北市新莊區民安西路261巷6號","121.42651","25.0131116666667","6500500","新莊區"
"242034","415-TV","2018/02/05 20:19:46","新北市新莊區建中街90巷3弄3號","121.446605","25.0371583333333","6500500","新莊區"
"242004","413-TV","2018/02/05 20:19:44","新北市新莊區頭前路15巷8號","121.467891666667","25.0519933333333","6500500","新莊區"
"242042","400-BY","2018/02/05 20:19:48","新北市新莊區天祥街54巷2弄1號","121.416743333333","25.0291666666667","6500500","新莊區"
"242058","353-BY","2018/02/05 20:19:28","新北市新莊區龍安路266巷16號","121.421358333333","25.0186266666667","6500500","新莊區"
"242007","132-UY","2018/02/05 20:19:46","新北市新莊區福壽街124巷34弄5號","121.459395","25.05111","6500500","新莊區"
"242036","133-UY","2018/02/05 20:19:45","新北市新莊區建安街53號","121.428561666667","25.0253116666667","6500500","新莊區"
"242021","135-UY","2018/02/05 20:19:46","新北市新莊區和興街69號","121.446191666667","25.0412333333333","6500500","新莊區"
"242046","172-VK","2018/02/05 20:19:41","新北市新莊區中正路新生巷47號","121.417525","25.0231133333333","6500500","新莊區"
"242009","173-VK","2018/02/05 20:18:25","新北市新莊區昌平街11號","121.455078333333","25.051775","6500500","新莊區"
"242015","175-VK","2018/02/05 20:19:42","新北市新莊區中和街31巷22號","121.447156666667","25.04389","6500500","新莊區"
"242002","176-VK","2018/02/05 20:19:35","新北市三重區重新路五段659號","121.46654","25.0429683333333","6500500","新莊區"
"242013","346-TH","2018/02/05 20:19:41","新北市新莊區中和街186巷13號","121.448065","25.0498833333333","6500500","新莊區"
"242050","347-TH","2018/02/05 20:19:33","新北市新莊區民安西路212巷1弄2號","121.425505","25.0148283333333","6500500","新莊區"
"242019","348-TH","2018/02/05 20:19:30","新北市新莊區復興路二段200號","121.459476666667","25.0443433333333","6500500","新莊區"
"242056","349-TH","2018/02/05 20:19:40","新北市新莊區豐年街20巷3號","121.446038333333","25.0324166666667","6500500","新莊區"
"242017","350-TH","2018/02/05 20:19:37","新北市新莊區中港一街51號","121.450493333333","25.04543","6500500","新莊區"
"242011","351-TH","2018/02/05 20:19:39","新北市新莊區中信街37巷2弄2號","121.450305","25.0505283333333","6500500","新莊區"
"238017","283-BY","2018/02/05 20:19:35","新北市樹林區保安街二段45巷13弄1號","121.415446666667","24.999825","6500700","樹林區"
"221036","130-UY","2018/02/05 20:19:45","新北市汐止區仁愛路152巷27號","121.664843333333","25.0638283333333","6501100","汐止區"
"221010","269-BY","2018/02/05 20:19:43","新北市汐止區八連路二段228巷1-1號","121.632683333333","25.09722","6501100","汐止區"
"221012","278-VK","2018/02/05 20:19:26","新北市汐止區保新街267號","121.6909","25.068165","6501100","汐止區"
"221023","279-VK","2018/02/05 20:19:36","新北市汐止區明峰街312號","121.62495","25.06746","6501100","汐止區"
"221032","280-BY","2018/02/05 20:19:34","新北市汐止區弘道街53巷2號","121.618616666667","25.048435","6501100","汐止區"
"221027","281-BY","2018/02/05 20:19:41","新北市汐止區大同路二段509號","121.661401666667","25.0687116666667","6501100","汐止區"
"221002","297-VK","2018/02/05 20:19:43","新北市汐止區福德二路16巷14-1號","121.635526666667","25.06867","6501100","汐止區"
"221029","298-VK","2018/02/05 19:53:11","新北市汐止區樟樹二路341號","121.641985","25.072875","6501100","汐止區"
"221021","299-VK","2018/02/05 20:19:39","新北市汐止區水源路一段281號","121.654295","25.0585983333333","6501100","汐止區"
"221031","353-TW","2018/02/05 20:19:39","新北市汐止區福德二路77-2號","121.633233333333","25.0659716666667","6501100","汐止區"
"221008","567-BX","2018/02/05 20:19:33","新北市汐止區忠三街9巷28-1號","121.624586666667","25.080225","6501100","汐止區"
"221035","622-UM","2018/02/05 20:19:30","新北市汐止區長江街101-5號","121.658635","25.0732316666667","6501100","汐止區"
"221025","623-UM","2018/02/05 20:19:28","新北市汐止區水源路二段72巷9弄15號","121.655723333333","25.0553783333333","6501100","汐止區"
"221038","646-BX","2018/02/05 20:19:45","新北市汐止區忠孝東路478號","121.666348333333","25.0736716666667","6501100","汐止區"
"221033","647-BX","2018/02/05 20:19:48","新北市汐止區東勢街201巷25號","121.634541666667","25.0434433333333","6501100","汐止區"
"221018","753-BX","2018/02/05 20:19:37","新北市汐止區茄安路25號","121.673191666667","25.067995","6501100","汐止區"
"220079","145-BY","2018/02/05 20:19:40","新北市五股區孝義路9-10號","121.45008","25.1068766666667","6500100","板橋區"
"220106","255-TC","2018/02/05 20:19:43","新北市板橋區文聖街11巷24號","121.47609","25.0329616666667","6500100","板橋區"
"220103","257-TC","2018/02/05 20:19:25","新北市板橋區陽明街279巷14-3號","121.461553333333","25.0259333333333","6500100","板橋區"
"220101","280-UM","2018/02/05 20:19:39","新北市板橋區雙十路二段47巷2弄18號","121.4757","25.0265933333333","6500100","板橋區"
"220071","283-VK","2018/02/05 20:19:39","新北市板橋區廣權路123號","121.465361666667","24.993175","6500100","板橋區"
"220083","286-VK","2018/02/05 20:19:34","新北市板橋區僑中二街90巷23號","121.445143333333","25.0092716666667","6500100","板橋區"
"220081","287-VK","2018/02/05 20:19:32","新北市板橋區僑中一街124巷18弄24號","121.44708","25.0135983333333","6500100","板橋區"
"220061","293-UM","2018/02/05 20:19:40","新北市板橋區觀光街2-5號","121.472218333333","25.0156716666667","6500100","板橋區"
"242048","281-VK","2018/02/05 20:19:44","新北市新莊區四維路167號","121.422366666667","25.0216583333333","6500500","新莊區"
"220062","305-R5","2018/02/05 20:19:41","新北市板橋區萬安街20巷2弄13號","121.48532","25.0227016666667","6500100","板橋區"
"220092","307-R5","2018/02/05 20:19:32","新北市板橋區文化路一段145號","121.462365","25.0155433333333","6500100","板橋區"
"220089","487-VK","2018/02/05 20:19:49","新北市板橋區互助街33號","121.461446666667","25.02676","6500100","板橋區"
"220055","827-TW","2018/02/05 20:19:30","新北市板橋區仁愛路25號","121.458961666667","24.9994333333333","6500100","板橋區"
"220074","895-R6","2018/02/05 20:19:40","新北市板橋區館前西路92號","121.457333333333","25.0073066666667","6500100","板橋區"
"220097","AAC-210","2018/02/05 20:19:42","新北市板橋區公館街29號","121.461295","25.0153833333333","6500100","板橋區"
"220070","AAC-253","2018/02/05 20:19:31","新北市板橋區四川路二段245巷12-1號","121.450935","24.9931466666667","6500100","板橋區"
