"lineid","car","time","location","longitude","latitude","cityid","cityname"
"234036","336-UY","2018/02/05 20:39:28","新北市永和區環河東路四段40號","121.528615","24.9989","6500400","永和區"
"234064","337-UY","2018/02/05 20:39:35","新北市永和區保順路8號","121.503233333333","25.0120966666667","6500400","永和區"
"234086","338-UY","2018/02/05 20:39:25","新北市永和區光復街27號","121.516558333333","25.0174783333333","6500400","永和區"
"234030","746-BX","2018/02/05 20:39:22","新北市中和區中正路701號","121.485255","24.998385","6500400","永和區"
"234061","AAD-866","2018/02/05 20:39:22","新北市永和區中正路460號","121.51748","25.0030483333333","6500400","永和區"
"234042","862-TW","2018/02/05 20:39:32","新北市永和區永和路二段28號","121.514653333333","25.0105016666667","6500400","永和區"
"234050","863-TW","2018/02/05 20:39:33","新北市永和區新生路118巷1弄7號","121.506813333333","25.0145216666667","6500400","永和區"
"234011","9373-KE","2018/02/05 20:39:36","新北市永和區保福路三段12號","121.508438333333","25.0157666666667","6500400","永和區"
"249001","173-UM","2018/02/05 20:39:19","新北市八里區下罟子23號","121.37715","25.1387783333333","6502300","八里區"
"249004","303-UY","2018/02/05 20:39:34","新北市八里區中山路一段336號","121.412608333333","25.1589266666667","6502300","八里區"
"249002","305-UY","2018/02/05 20:39:30","新北市八里區大崁腳48-53號","121.424908333333","25.159255","6502300","八里區"
"234023","9380-KE","2018/02/05 20:39:32","新北市永和區竹林路41號","121.517973333333","25.0142233333333","6500400","永和區"
"234074","AAC-211","2018/02/05 20:39:27","新北市永和區竹林路119巷30弄2號","121.522036666667","25.0115916666667","6500400","永和區"
"243011","297-R6","2018/02/05 20:39:33","新北市泰山區明志路二段189號","121.427565","25.0494216666667","6501600","泰山區"
"243010","KEA-2215","2018/02/05 20:39:21","新北市泰山區明志路二段205號","121.427495","25.0488866666667","6501600","泰山區"
"243016","680-BX","2018/02/05 20:39:10","新北市泰山區文程路9號","121.427905","25.0496466666667","6501600","泰山區"
"222003","436-BY","2018/02/05 20:39:37","新北市深坑區深坑街165號","121.61268","25.0008783333333","6501800","深坑區"
"222002","659-BX","2018/02/05 20:39:25","新北市深坑區萬福路45號","121.599496666667","25.0068533333333","6501800","深坑區"
"231041","002-UM","2018/02/05 20:39:38","新北市新店區中正路543-4號","121.533701666667","24.98754","6500600","新店區"
"231058","0291-UT","2018/02/05 20:39:34","新北市新店區中正路307巷22號","121.536143333333","24.97407","6500600","新店區"
"231059","046-UY","2018/02/05 20:39:20","新北市新店區僑愛三路2號","121.499838333333","24.9446583333333","6500600","新店區"
"231061","047-UY","2018/02/05 20:39:34","新北市新店區新和街54號","121.519731666667","24.985225","6500600","新店區"
"231060","106-UY","2018/02/05 20:39:35","新北市新店區安康路三段571巷5-1號","121.475376666667","24.943095","6500600","新店區"
"231051","107-UY","2018/02/05 20:39:20","新北市新店區中央七街58號","121.528046666667","24.9762733333333","6500600","新店區"
"231047","108-UY","2018/02/05 20:39:24","新北市新店區寶慶街2-1號","121.54379","24.98686","6500600","新店區"
"231049","110-UY","2018/02/05 20:39:36","新北市新店區永業路81巷5弄12號","121.530583333333","24.9492233333333","6500600","新店區"
"231052","187-VK","2018/02/05 20:39:22","新北市新店區松林路36號","121.5459","24.910575","6500600","新店區"
"231065","188-VK","2018/02/05 20:39:35","新北市新店區安祥路102巷46弄8號","121.485296666667","24.9638666666667","6500600","新店區"
"231050","KEA-2219","2018/02/05 20:39:25","新北市新店區建國路45號","121.54033","24.9753033333333","6500600","新店區"
"221015","KEA-2785","2018/02/05 20:39:22","新北市汐止區建成路52號","121.663745","25.0728366666667","6501100","汐止區"
"231057","256-BX","2018/02/05 20:39:33","新北市新店區花園六路二段1-12號","121.553553333333","24.9333066666667","6500600","新店區"
"231054","AAD-862","2018/02/05 20:39:26","新北市新店區北新路一段64巷12弄2號","121.541968333333","24.9656833333333","6500600","新店區"
"231056","3713-VJ","2018/02/05 20:39:20","新北市新店區民生路75巷225號","121.531978333333","24.9818816666667","6500600","新店區"
"231064","515-UM","2018/02/05 20:39:32","新北市新店區安和路三段169號","121.515975","24.98602","6500600","新店區"
"231042","616-UM","2018/02/05 20:39:25","新北市新店區寶高路120巷1-1號","121.55458","24.9759733333333","6500600","新店區"
"231040","619-UM","2018/02/05 20:39:19","新北市新店區中正路276號","121.53884","24.97361","6500600","新店區"
"231063","645-TV","2018/02/05 20:39:23","新北市新店區玫瑰路4-1號","121.493571666667","24.9513866666667","6500600","新店區"
"231068","719-UY","2018/02/05 20:39:33","新北市新店區寶慶街35巷3弄2號","121.543208333333","24.9859966666667","6500600","新店區"
"231062","720-UM","2018/02/05 20:39:25","新北市新店區雙城路4巷1號","121.491325","24.9509233333333","6500600","新店區"
"231044","897-TW","2018/02/05 20:39:33","新北市新店區建國路297號","121.537098333333","24.9861333333333","6500600","新店區"
"231045","898-TW","2018/02/05 20:39:22","新北市新店區長春路58號","121.550921666667","24.9579433333333","6500600","新店區"
"231043","899-TW","2018/02/05 20:39:34","新北市新店區建國路12-1號","121.540098333333","24.9737416666667","6500600","新店區"
"231066","AKT-0513","2018/02/05 20:39:25","新北市新店區安興路112號","121.514686666667","24.9776266666667","6500600","新店區"
"241011","013-R5","2018/02/05 20:39:37","新北市三重區龍濱路217號","121.501821666667","25.0719966666667","6500200","三重區"
"241028","022-UY","2018/02/05 20:39:25","新北市三重區光興街89號","121.497451666667","25.0599066666667","6500200","三重區"
"241008","059-VK","2018/02/05 20:39:24","新北市三重區下竹圍街91號","121.481096666667","25.0748916666667","6500200","三重區"
"241009","060-VK","2018/02/05 20:39:38","新北市三重區碧華街45號","121.484628333333","25.08125","6500200","三重區"
"241031","061-VK","2018/02/05 20:39:29","新北市三重區重陽路一段113巷1弄49號","121.488023333333","25.0586083333333","6500200","三重區"
"241015","062-VK","2018/02/05 20:39:32","新北市三重區文化北路97號","121.497985","25.0681483333333","6500200","三重區"
"241017","063-VK","2018/02/05 20:39:31","新北市三重區大同北路271巷1號","121.49093","25.0673233333333","6500200","三重區"
"241024","065-VK","2018/02/05 20:39:34","新北市三重區忠孝路三段32號","121.481293333333","25.0668466666667","6500200","三重區"
"241026","066-VK","2018/02/05 20:39:34","新北市三重區和平街2號","121.500365","25.0624633333333","6500200","三重區"
"241002","090-VK","2018/02/05 20:39:38","新北市三重區仁義街167巷26號","121.497993333333","25.0820716666667","6500200","三重區"
"241020","156-TC","2018/02/05 20:39:23","新北市三重區忠孝路一段21號","121.492016666667","25.071925","6500200","三重區"
"241005","262-UM","2018/02/05 20:39:35","新北市三重區碧華街392號","121.491558333333","25.084725","6500200","三重區"
"241018","265-UM","2018/02/05 20:39:18","新北市三重區正義北路220號","121.496121666667","25.067545","6500200","三重區"
"241016","266-UM","2018/02/05 20:39:38","新北市三重區自強路一段143號","121.49468","25.066835","6500200","三重區"
"241022","267-UM","2018/02/05 20:39:34","新北市三重區新北大道一段46巷18弄10號","121.488383333333","25.0619816666667","6500200","三重區"
"241032","269-UM","2018/02/05 20:39:24","新北市三重區重陽路一段120巷35號","121.485061666667","25.060225","6500200","三重區"
"241013","270-UM","2018/02/05 20:39:29","新北市三重區三和路三段123號","121.492913333333","25.073405","6500200","三重區"
"241025","271-UM","2018/02/05 20:39:30","新北市三重區頂崁街210巷28弄5號","121.4758","25.0675316666667","6500200","三重區"
"241007","398-BY","2018/02/05 20:39:20","新北市三重區三和路四段95號","121.488056666667","25.076005","6500200","三重區"
"241035","462-BY","2018/02/05 20:39:26","新北市三重區正義北路275-1號","121.495198333333","25.0700683333333","6500200","三重區"
"241004","475-VK","2018/02/05 20:39:18","新北市三重區仁愛街506號","121.4884","25.0821666666667","6500200","三重區"
"241019","478-VK","2018/02/05 20:39:34","新北市三重區大智街125-2號","121.491383333333","25.0703916666667","6500200","三重區"
"241030","480-VK","2018/02/05 20:39:21","新北市三重區成功路73巷12號","121.489431666667","25.0519116666667","6500200","三重區"
"241014","543-UM","2018/02/05 20:39:29","新北市三重區長興街45號","121.50067","25.06883","6500200","三重區"
"241023","545-UM","2018/02/05 20:39:23","新北市三重區自由街33號","121.4792","25.0668316666667","6500200","三重區"
"241001","547-UM","2018/02/05 20:39:26","新北市三重區自強路三段76巷27弄6號","121.485085","25.0741166666667","6500200","三重區"
"241003","887-TS","2018/02/05 20:39:29","新北市三重區五華街141巷58號","121.493586666667","25.0868116666667","6500200","三重區"
"241012","941-UM","2018/02/05 20:39:26","新北市三重區秀江街1號","121.502878333333","25.07318","6500200","三重區"
"241029","942-UM","2018/02/05 20:39:36","新北市三重區集美街126巷25號","121.490048333333","25.0537683333333","6500200","三重區"
"241033","AAC-255","2018/02/05 20:39:22","新北市三重區光復路二段1號","121.472266666667","25.0532716666667","6500200","三重區"
"235068","377-QA","2018/02/05 20:39:30","新北市中和區橋和路288號","121.496641666667","25.0069983333333","6500300","中和區"
"235069","4980-A6","2018/02/05 20:39:34","新北市中和區連城路347巷18弄1-1號","121.487873333333","24.9948416666667","6500300","中和區"
"235026","800-TS","2018/02/05 20:30:39","新北市中和區員山路36巷16-3號","121.484758333333","24.9917466666667","6500300","中和區"
"247022","893-R6","2018/02/05 20:39:20","新北市蘆洲區中正路243巷7弄48號","121.467525","25.0856183333333","6501400","蘆洲區"
"247012","546-UM","2018/02/05 20:39:25","新北市蘆洲區中興街130號","121.482198333333","25.089305","6501400","蘆洲區"
"247020","500-BY","2018/02/05 20:39:25","新北市蘆洲區民族路424號","121.473905","25.09175","6501400","蘆洲區"
"247008","341-TH","2018/02/05 20:39:36","新北市蘆洲區重陽街11號","121.480843333333","25.0820516666667","6501400","蘆洲區"
"247010","339-TH","2018/02/05 20:39:21","新北市蘆洲區集賢路400號","121.480198333333","25.0819783333333","6501400","蘆洲區"
"247002","337-TH","2018/02/05 20:39:31","新北市蘆洲區長安街373號","121.45713","25.0877333333333","6501400","蘆洲區"
"247006","056-VK","2018/02/05 20:39:26","新北市蘆洲區和平路165號","121.466715","25.0808483333333","6501400","蘆洲區"
"247016","053-VK","2018/02/05 20:39:21","新北市蘆洲區和平路62號","121.470123333333","25.079105","6501400","蘆洲區"
"247014","007-UY","2018/02/05 20:39:22","新北市蘆洲區成功路85號","121.47298","25.081185","6501400","蘆洲區"
"247024","002-UY","2018/02/05 20:39:24","新北市蘆洲區長樂路11號","121.463893333333","25.0846483333333","6501400","蘆洲區"
"222001","KEA-2212","2018/02/05 20:39:23","新北市深坑區北深路三段227號","121.600063333333","25.0042233333333","6501800","深坑區"
"251001","011-UM","2018/02/05 20:39:30","新北市淡水區竿蓁二街85號","121.456356666667","25.1633816666667","6501000","淡水區"
"251013","179-VK","2018/02/05 20:39:26","新北市淡水區下圭柔山28巷11號","121.457591666667","25.20394","6501000","淡水區"
"251014","180-VK","2018/02/05 20:39:26","新北市淡水區桂竹圍12-1號","121.471995","25.2322266666667","6501000","淡水區"
"251015","182-VK","2018/02/05 20:39:22","新北市淡水區興仁路162號","121.45158","25.220735","6501000","淡水區"
"251010","413-VK","2018/02/05 20:39:28","新北市淡水區沙崙路181巷15號","121.42393","25.184365","6501000","淡水區"
"251012","441-VK","2018/02/05 20:39:28","新北市淡水區興仁路108號","121.45165","25.218135","6501000","淡水區"
"251016","442-VK","2018/02/05 20:39:37","新北市淡水區後洲子8-2號","121.449573333333","25.2240333333333","6501000","淡水區"
"251006","561-UM","2018/02/05 20:39:22","新北市淡水區商工路196巷9號","121.451633333333","25.1864916666667","6501000","淡水區"
"251011","650-BX","2018/02/05 20:39:27","新北市淡水區新市一路一段361號","121.436326666667","25.1861833333333","6501000","淡水區"
"251002","672-BX","2018/02/05 20:39:33","新北市淡水區公明街37巷8號","121.443743333333","25.1691633333333","6501000","淡水區"
"251003","766-UM","2018/02/05 20:39:19","新北市淡水區新民街120巷52號","121.438683333333","25.1783316666667","6501000","淡水區"
"252001","292-VK","2018/02/05 20:39:11","新北市三芝區育英街29-1號","121.50125","25.2573","6502100","三芝區"
"252002","AAC-283","2018/02/05 20:39:23","新北市三芝區淡金路二段47-2號","121.503661666667","25.2605","6502100","三芝區"
"237008","302-VK","2018/02/05 20:39:28","新北市鶯歌區三鶯路5號","121.35662","24.9409666666667","6500900","三峽區"
"242031","AAC-296","2018/02/05 20:39:35","新北市新莊區三和路13-20號","121.44076","25.0366983333333","6500500","新莊區"
"242029","986-R7","2018/02/05 20:39:18","新北市新莊區中華路二段151號","121.45291","25.0515066666667","6500500","新莊區"
"242025","615-BX","2018/02/05 20:39:23","新北市新莊區化成路579巷1號","121.464366666667","25.0661183333333","6500500","新莊區"
"242023","613-BX","2018/02/05 20:39:34","新北市新莊區化成路620號","121.466143333333","25.0548616666667","6500500","新莊區"
"242027","612-BX","2018/02/05 20:39:23","新北市新莊區思源路96號","121.459965","25.045825","6500500","新莊區"
"242039","566-BX","2018/02/05 20:39:27","新北市新莊區民安路312號","121.428453333333","25.021995","6500500","新莊區"
"242044","442-UM","2018/02/05 20:39:16","新北市新莊區中正路新生巷85弄1號","121.417093333333","25.0217733333333","6500500","新莊區"
"242053","440-UM","2018/02/05 20:39:34","新北市新莊區西盛街323巷18號","121.428783333333","25.0144616666667","6500500","新莊區"
"242034","415-TV","2018/02/05 20:39:31","新北市新莊區中正路334巷25弄10號","121.445403333333","25.0362166666667","6500500","新莊區"
"242004","413-TV","2018/02/05 20:39:24","新北市新莊區化成路371巷27號","121.463521666667","25.0569983333333","6500500","新莊區"
"242042","400-BY","2018/02/05 20:39:27","新北市新莊區天祥街45號","121.416676666667","25.028765","6500500","新莊區"
"242058","353-BY","2018/02/05 20:39:28","新北市新莊區四維路117號","121.423186666667","25.0232233333333","6500500","新莊區"
"242007","132-UY","2018/02/05 20:39:26","新北市新莊區思源路287巷2弄10號","121.459518333333","25.04856","6500500","新莊區"
"242036","133-UY","2018/02/05 20:39:25","新北市新莊區後港一路76巷10弄1號","121.427081666667","25.0259883333333","6500500","新莊區"
"242021","135-UY","2018/02/05 20:39:26","新北市新莊區中華路一段73號","121.452223333333","25.0400216666667","6500500","新莊區"
"242046","172-VK","2018/02/05 20:39:21","新北市新莊區裕民街21號","121.419235","25.025565","6500500","新莊區"
"242009","173-VK","2018/02/05 20:39:23","新北市新莊區幸福路64巷3弄8號","121.456776666667","25.0500583333333","6500500","新莊區"
"242015","175-VK","2018/02/05 20:39:22","新北市新莊區中和街44號","121.448118333333","25.044225","6500500","新莊區"
"242002","176-VK","2018/02/05 20:39:35","新北市新莊區明中街43巷29號","121.457006666667","25.0384766666667","6500500","新莊區"
"242013","346-TH","2018/02/05 20:39:34","新北市新莊區中和街175巷1號","121.44753","25.0505416666667","6500500","新莊區"
"242050","347-TH","2018/02/05 20:39:33","新北市新莊區西盛街280巷1號","121.427781666667","25.0151983333333","6500500","新莊區"
"242019","348-TH","2018/02/05 20:39:30","新北市新莊區銘德街140號","121.454671666667","25.042805","6500500","新莊區"
"242056","349-TH","2018/02/05 20:39:29","新北市新莊區新莊路751巷63號","121.442795","25.031205","6500500","新莊區"
"242017","350-TH","2018/02/05 20:39:17","新北市新莊區中港三街21號","121.450531666667","25.0463983333333","6500500","新莊區"
"242011","351-TH","2018/02/05 20:39:38","新北市新莊區中信街99巷8號","121.44724","25.0534683333333","6500500","新莊區"
"221036","130-UY","2018/02/05 20:39:31","新北市汐止區新昌路9號","121.662005","25.0671866666667","6501100","汐止區"
"221023","279-VK","2018/02/05 20:39:36","新北市汐止區民族二街30巷15號","121.634223333333","25.0717216666667","6501100","汐止區"
"221032","280-BY","2018/02/05 20:39:34","新北市汐止區弘道街53巷30弄1號","121.618963333333","25.0500733333333","6501100","汐止區"
"221027","281-BY","2018/02/05 20:39:18","新北市汐止區大同路二段567號","121.662893333333","25.0699633333333","6501100","汐止區"
"221002","297-VK","2018/02/05 20:39:22","新北市汐止區福德二路167號","121.630868333333","25.0651933333333","6501100","汐止區"
"221021","299-VK","2018/02/05 20:39:19","新北市汐止區水源路一段284號","121.654221666667","25.058295","6501100","汐止區"
"221031","353-TW","2018/02/05 20:39:39","新北市汐止區中興路76號","121.635095","25.0616983333333","6501100","汐止區"
"221008","567-BX","2018/02/05 20:39:33","新北市汐止區康寧街91號","121.620188333333","25.0665483333333","6501100","汐止區"
"221035","622-UM","2018/02/05 20:39:30","新北市汐止區長江街101-5號","121.658651666667","25.073195","6501100","汐止區"
"221025","623-UM","2018/02/05 20:39:37","新北市汐止區水源路二段216號","121.657978333333","25.05248","6501100","汐止區"
"221038","646-BX","2018/02/05 20:39:25","新北市汐止區龍安路28巷22號","121.654306666667","25.06445","6501100","汐止區"
"221033","647-BX","2018/02/05 20:39:28","新北市汐止區合順街18巷8弄5號","121.620335","25.0419283333333","6501100","汐止區"
"221018","753-BX","2018/02/05 20:39:37","新北市汐止區中華街131巷5號","121.669788333333","25.0703483333333","6501100","汐止區"
"220079","145-BY","2018/02/05 20:39:20","新北市八里區中山路三段390號","121.368273333333","25.1351266666667","6500100","板橋區"
"220103","257-TC","2018/02/05 20:39:29","新北市板橋區漢生東路73巷28號","121.467346666667","25.0170016666667","6500100","板橋區"
"220083","286-VK","2018/02/05 20:39:34","新北市板橋區僑中二街106巷1號","121.44582","25.00758","6500100","板橋區"
"220081","287-VK","2018/02/05 20:39:32","新北市板橋區僑中一街80巷1弄17號","121.446768333333","25.0119883333333","6500100","板橋區"
"220061","293-UM","2018/02/05 20:39:20","新北市板橋區文華街16號","121.457735","25.0005366666667","6500100","板橋區"
"242048","281-VK","2018/02/05 20:39:23","新北市新莊區富國路84號","121.420286666667","25.0257","6500500","新莊區"
"220089","487-VK","2018/02/05 20:39:31","新北市板橋區四維路321號","121.462815","25.0290283333333","6500100","板橋區"
"220070","AAC-253","2018/02/05 20:39:31","新北市五股區新城六路237號","121.448088333333","25.0923833333333","6500100","板橋區"
