"lineid","car","time","location","longitude","latitude","cityid","cityname"
"234086","338-UY","2018/02/05 20:49:44","新北市板橋區萬安街20巷4弄16號","121.485388333333","25.0229966666667","6500400","永和區"
"234030","746-BX","2018/02/05 20:49:42","新北市五股區中興路三段2巷10號","121.448213333333","25.08289","6500400","永和區"
"234074","AAC-211","2018/02/05 20:49:47","新北市永和區竹林路121號","121.520213333333","25.011455","6500400","永和區"
"243011","297-R6","2018/02/05 20:49:33","新北市泰山區泰林路三段272號","121.41394","25.0679666666667","6501600","泰山區"
"222003","436-BY","2018/02/05 20:49:37","新北市深坑區阿柔洋40號","121.610288333333","24.99848","6501800","深坑區"
"222002","659-BX","2018/02/05 20:49:45","新北市深坑區北深路三段93巷73號","121.603371666667","25.0011966666667","6501800","深坑區"
"231058","0291-UT","2018/02/05 20:49:34","新北市新店區平等街89號","121.535386666667","24.9724216666667","6500600","新店區"
"231059","046-UY","2018/02/05 20:49:40","新北市新店區僑信路108巷41號","121.499003333333","24.94638","6500600","新店區"
"231061","047-UY","2018/02/05 20:49:34","新北市新店區新和街93巷8號","121.520776666667","24.9866716666667","6500600","新店區"
"231060","106-UY","2018/02/05 20:49:35","新北市新店區安康路三段738號","121.473845","24.9419683333333","6500600","新店區"
"231051","107-UY","2018/02/05 20:49:40","新北市新店區中央五街5號","121.530118333333","24.9741383333333","6500600","新店區"
"231047","108-UY","2018/02/05 20:49:44","新北市新店區寶元路二段1巷2號","121.550731666667","24.9840516666667","6500600","新店區"
"231049","110-UY","2018/02/05 20:49:36","新北市新店區華潭街1巷2號","121.529483333333","24.9502933333333","6500600","新店區"
"231052","187-VK","2018/02/05 20:49:42","新北市新店區新烏路二段50巷5號","121.54859","24.927475","6500600","新店區"
"231065","188-VK","2018/02/05 20:49:35","新北市新店區安祥路102巷110號","121.48707","24.964025","6500600","新店區"
"231050","KEA-2219","2018/02/05 20:49:44","新北市新店區中正路247巷25弄2號","121.53853","24.9723716666667","6500600","新店區"
"221015","KEA-2785","2018/02/05 20:49:42","新北市汐止區大同路二段607號","121.664093333333","25.0707166666667","6501100","汐止區"
"231057","256-BX","2018/02/05 20:49:32","新北市新店區花園六路二段1-2號","121.553821666667","24.9328916666667","6500600","新店區"
"231054","AAD-862","2018/02/05 20:49:46","新北市新店區行政街17巷14號","121.543011666667","24.9669916666667","6500600","新店區"
"231056","3713-VJ","2018/02/05 20:49:50","新北市新店區中央七街61巷30號","121.529566666667","24.9757066666667","6500600","新店區"
"231064","515-UM","2018/02/05 20:49:31","新北市新店區安民街377號","121.516235","24.97624","6500600","新店區"
"231042","616-UM","2018/02/05 20:49:45","新北市新店區寶興路55號","121.549623333333","24.9726133333333","6500600","新店區"
"231040","619-UM","2018/02/05 20:49:40","新北市新店區中正路272號","121.538916666667","24.9735716666667","6500600","新店區"
"231063","645-TV","2018/02/05 20:49:43","新北市新店區如意街7-1號","121.495223333333","24.9486783333333","6500600","新店區"
"231068","719-UY","2018/02/05 20:49:33","新北市新店區中興路三段228巷28號","121.54477","24.9835283333333","6500600","新店區"
"231062","720-UM","2018/02/05 20:49:45","新北市新店區裕合街143號","121.489171666667","24.9490566666667","6500600","新店區"
"231044","897-TW","2018/02/05 20:49:44","新北市新店區建國路118號","121.539345","24.9787166666667","6500600","新店區"
"231043","899-TW","2018/02/05 20:49:41","新北市新店區建國路43號","121.540556666667","24.97507","6500600","新店區"
"231066","AKT-0513","2018/02/05 20:49:45","新北市新店區安興路108號","121.515236666667","24.977095","6500600","新店區"
"241011","013-R5","2018/02/05 20:49:37","新北市三重區龍濱路235號","121.501646666667","25.0722683333333","6500200","三重區"
"241028","022-UY","2018/02/05 20:49:45","新北市三重區中正南路40號","121.493821666667","25.06013","6500200","三重區"
"241008","059-VK","2018/02/05 20:49:43","新北市三重區永福街72巷11號","121.479465","25.0767766666667","6500200","三重區"
"241009","060-VK","2018/02/05 20:49:38","新北市三重區三和路四段388-2號","121.482055","25.079145","6500200","三重區"
"241031","061-VK","2018/02/05 20:49:49","新北市三重區重陽路一段113巷3號","121.487546666667","25.0598066666667","6500200","三重區"
"241015","062-VK","2018/02/05 20:49:32","新北市三重區自強路一段8號","121.498851666667","25.068245","6500200","三重區"
"241017","063-VK","2018/02/05 20:49:31","新北市三重區民生街28號","121.491785","25.0672083333333","6500200","三重區"
"241024","065-VK","2018/02/05 20:49:34","新北市三重區大勇街82巷15弄30號","121.481235","25.0719766666667","6500200","三重區"
"241026","066-VK","2018/02/05 20:49:34","新北市三重區文化南路7號","121.500038333333","25.062325","6500200","三重區"
"241002","090-VK","2018/02/05 20:49:38","新北市三重區仁義街211巷56號","121.498186666667","25.0827966666667","6500200","三重區"
"241020","156-TC","2018/02/05 20:49:43","新北市三重區忠孝路一段101號","121.489698333333","25.0721466666667","6500200","三重區"
"241005","262-UM","2018/02/05 20:49:36","新北市三重區集賢路87-1號","121.493923333333","25.0869033333333","6500200","三重區"
"241018","265-UM","2018/02/05 20:49:38","新北市三重區重陽路四段35號","121.491503333333","25.0696933333333","6500200","三重區"
"241016","266-UM","2018/02/05 20:49:38","新北市三重區自強路一段101號","121.49568","25.06637","6500200","三重區"
"241022","267-UM","2018/02/05 20:49:34","新北市三重區過圳街27-5號","121.487988333333","25.0624066666667","6500200","三重區"
"241032","269-UM","2018/02/05 20:49:44","新北市三重區重陽路一段120巷35號","121.485071666667","25.0601916666667","6500200","三重區"
"241013","270-UM","2018/02/05 20:49:29","新北市三重區三和路三段139巷33號","121.493893333333","25.07405","6500200","三重區"
"241025","271-UM","2018/02/05 20:49:30","新北市三重區貴陽街14號","121.484211666667","25.0618733333333","6500200","三重區"
"241007","398-BY","2018/02/05 20:49:40","新北市三重區三和路四段141號","121.484373333333","25.0779883333333","6500200","三重區"
"241035","462-BY","2018/02/05 20:49:45","新北市三重區文化北路246號","121.497448333333","25.0699066666667","6500200","三重區"
"241004","475-VK","2018/02/05 20:49:38","新北市三重區分子尾街3號","121.489651666667","25.0804533333333","6500200","三重區"
"241019","478-VK","2018/02/05 20:49:34","新北市三重區三張街64號","121.49108","25.0709833333333","6500200","三重區"
"241030","480-VK","2018/02/05 20:49:41","新北市三重區昌隆街26號","121.491933333333","25.05233","6500200","三重區"
"241014","543-UM","2018/02/05 20:49:29","新北市三重區萬壽街56號","121.500551666667","25.06967","6500200","三重區"
"241023","545-UM","2018/02/05 20:49:43","新北市三重區忠孝路三段99巷4號","121.48019","25.0642216666667","6500200","三重區"
"241001","547-UM","2018/02/05 20:49:46","新北市三重區三和路四段118巷4號","121.488845","25.074785","6500200","三重區"
"241006","AAD-863","2018/02/05 20:49:32","新北市三重區車路頭街139巷12號","121.484243333333","25.0762533333333","6500200","三重區"
"241003","887-TS","2018/02/05 20:49:48","新北市三重區五華街141巷58號","121.493595","25.086795","6500200","三重區"
"241012","941-UM","2018/02/05 20:49:46","新北市三重區龍門路274巷45號","121.501188333333","25.07556","6500200","三重區"
"241029","942-UM","2018/02/05 20:49:36","新北市三重區重安街14號","121.490313333333","25.05822","6500200","三重區"
"241033","AAC-255","2018/02/05 20:49:42","新北市三重區光復路二段2號","121.472066666667","25.0533633333333","6500200","三重區"
"235069","4980-A6","2018/02/05 20:49:34","新北市中和區員山路359巷1弄8號","121.48101","25.00162","6500300","中和區"
"235026","800-TS","2018/02/05 20:30:39","新北市中和區員山路36巷16-3號","121.484758333333","24.9917466666667","6500300","中和區"
"247022","893-R6","2018/02/05 20:49:40","新北市蘆洲區中正路187號","121.468563333333","25.08579","6501400","蘆洲區"
"247012","546-UM","2018/02/05 20:49:45","新北市蘆洲區復興路340巷10號","121.482458333333","25.0900233333333","6501400","蘆洲區"
"247020","500-BY","2018/02/05 20:49:45","新北市蘆洲區仁愛街66號","121.471515","25.093855","6501400","蘆洲區"
"247008","341-TH","2018/02/05 20:49:36","新北市蘆洲區集賢路269巷15弄1號","121.48207","25.0835966666667","6501400","蘆洲區"
"247010","339-TH","2018/02/05 20:49:42","新北市蘆洲區鷺江街76號","121.477003333333","25.0838","6501400","蘆洲區"
"247002","337-TH","2018/02/05 20:49:31","新北市蘆洲區永康街30號","121.458688333333","25.0855516666667","6501400","蘆洲區"
"247016","053-VK","2018/02/05 20:49:41","新北市蘆洲區中山二路211號","121.470426666667","25.0803583333333","6501400","蘆洲區"
"247014","007-UY","2018/02/05 20:49:42","新北市蘆洲區三民路33號","121.475428333333","25.083015","6501400","蘆洲區"
"247024","002-UY","2018/02/05 20:49:44","新北市蘆洲區長樂路239號","121.46266","25.091235","6501400","蘆洲區"
"222001","KEA-2212","2018/02/05 20:49:43","新北市深坑區北深路三段129號","121.604121666667","25.0025266666667","6501800","深坑區"
"251001","011-UM","2018/02/05 20:49:49","新北市淡水區淡金路218號","121.46042","25.167135","6501000","淡水區"
"251013","179-VK","2018/02/05 20:49:46","新北市淡水區行忠路146號","121.454406666667","25.1992766666667","6501000","淡水區"
"251014","180-VK","2018/02/05 20:49:46","新北市淡水區公埔子32-8號","121.461666666667","25.2323783333333","6501000","淡水區"
"251015","182-VK","2018/02/05 20:49:42","新北市淡水區興仁路162號","121.45157","25.2207033333333","6501000","淡水區"
"251010","413-VK","2018/02/05 20:49:28","新北市淡水區沙崙路126號","121.423466666667","25.1829733333333","6501000","淡水區"
"251012","441-VK","2018/02/05 20:49:48","新北市淡水區興仁路162號","121.4516","25.220635","6501000","淡水區"
"251016","442-VK","2018/02/05 20:49:37","新北市淡水區興仁路165號","121.451496666667","25.22026","6501000","淡水區"
"251011","650-BX","2018/02/05 20:49:47","新北市淡水區新民街一段13-1號","121.433111666667","25.1846116666667","6501000","淡水區"
"251002","672-BX","2018/02/05 20:49:50","新北市淡水區英專路38號","121.44562","25.1701866666667","6501000","淡水區"
"251003","766-UM","2018/02/05 20:49:39","新北市淡水區中山北路一段247巷106號","121.441953333333","25.17947","6501000","淡水區"
"252002","AAC-283","2018/02/05 20:49:43","新北市三芝區淡金路二段89-1號","121.504073333333","25.2608533333333","6502100","三芝區"
"242031","AAC-296","2018/02/05 20:49:35","新北市新莊區中正路508巷12號","121.437623333333","25.0343383333333","6500500","新莊區"
"242029","986-R7","2018/02/05 20:49:36","新北市新莊區昌平街31巷9號","121.454281666667","25.05139","6500500","新莊區"
"242027","612-BX","2018/02/05 20:49:42","新北市新莊區碧江街27號","121.453793333333","25.0337616666667","6500500","新莊區"
"242039","566-BX","2018/02/05 20:49:47","新北市新莊區瓊林路59-38號","121.441235","25.0235683333333","6500500","新莊區"
"242053","440-UM","2018/02/05 20:49:42","新北市新莊區民安西路189巷10弄24號","121.426498333333","25.01501","6500500","新莊區"
"242034","415-TV","2018/02/05 20:49:48","新北市新莊區中正路242號","121.448146666667","25.0353333333333","6500500","新莊區"
"242007","132-UY","2018/02/05 20:49:46","新北市新莊區思源路123號","121.459833333333","25.0425916666667","6500500","新莊區"
"242036","133-UY","2018/02/05 20:49:45","新北市新莊區後港一路76巷3弄15號","121.427885","25.026245","6500500","新莊區"
"242009","173-VK","2018/02/05 20:49:42","新北市新莊區幸福路64巷10號","121.457155","25.0499533333333","6500500","新莊區"
"242002","176-VK","2018/02/05 20:49:35","新北市新莊區中港路五守新村16巷2號","121.45472","25.0388266666667","6500500","新莊區"
"242050","347-TH","2018/02/05 20:49:41","新北市新莊區民安西路136號","121.426486666667","25.017905","6500500","新莊區"
"242056","349-TH","2018/02/05 20:49:34","新北市新莊區瓊泰路94巷4號","121.443495","25.0294183333333","6500500","新莊區"
"221036","130-UY","2018/02/05 20:49:51","新北市汐止區南昌街22-1號","121.663206666667","25.0682966666667","6501100","汐止區"
"221027","281-BY","2018/02/05 20:49:38","新北市汐止區大同路二段370號","121.657596666667","25.06719","6501100","汐止區"
"221002","297-VK","2018/02/05 20:49:43","新北市汐止區福德二路138號","121.630793333333","25.065215","6501100","汐止區"
"221029","298-VK","2018/02/05 20:48:10","新北市汐止區樟樹二路101號","121.64039","25.0667216666667","6501100","汐止區"
"221021","299-VK","2018/02/05 20:49:39","新北市汐止區新台五路一段169號","121.654735","25.0629633333333","6501100","汐止區"
"221008","567-BX","2018/02/05 20:49:33","新北市汐止區康寧街397號","121.629436666667","25.0678883333333","6501100","汐止區"
"221035","622-UM","2018/02/05 20:49:50","新北市汐止區汐萬路一段298號","121.65058","25.0745083333333","6501100","汐止區"
"221038","646-BX","2018/02/05 20:49:45","新北市汐止區汐萬路一段256巷3號","121.653416666667","25.07472","6501100","汐止區"
"221033","647-BX","2018/02/05 20:49:48","新北市汐止區合順街18巷8弄5號","121.620356666667","25.0419133333333","6501100","汐止區"
"221018","753-BX","2018/02/05 20:49:37","新北市汐止區中華街71號","121.668055","25.0710266666667","6501100","汐止區"
"220079","145-BY","2018/02/05 20:49:40","新北市五股區凌雲路二段18巷62-5號","121.440668333333","25.1061933333333","6500100","板橋區"
"220083","286-VK","2018/02/05 20:49:34","新北市板橋區僑中二街108巷19號","121.444936666667","25.00725","6500100","板橋區"
"220081","287-VK","2018/02/05 20:49:32","新北市板橋區大觀路二段142號","121.442726666667","24.9990516666667","6500100","板橋區"
"242048","281-VK","2018/02/05 20:49:43","新北市新莊區中正路697號","121.425705","25.0298366666667","6500500","新莊區"
"220070","AAC-253","2018/02/05 20:49:31","新北市八里區商港路126號","121.389473333333","25.1489866666667","6500100","板橋區"
