"lineid","car","time","location","longitude","latitude","cityid","cityname"
"241005","262-UM","2018/02/05 21:59:35","新北市三重區集賢路87-1號","121.49375","25.0868266666667","6500200","三重區"
"235010","733-UM","2018/02/05 21:46:41","新北市中和區員山路36巷13號","121.484171666667","24.9908016666667","6500300","中和區"
"247008","341-TH","2018/02/05 21:58:16","新北市八里區中山路三段409號","121.368455","25.1346633333333","6501400","蘆洲區"
"251004","009-UM","2018/02/05 21:59:37","新北市淡水區自強路51號","121.458968333333","25.1303166666667","6501000","淡水區"
"251005","010-UM","2018/02/05 21:59:50","新北市淡水區鄧公路30巷1弄67號","121.454398333333","25.1695633333333","6501000","淡水區"
"251008","181-VK","2018/02/05 21:59:42","新北市淡水區學府路104號","121.449861666667","25.171735","6501000","淡水區"
"251010","413-VK","2018/02/05 21:59:48","新北市淡水區中正路二段211號","121.426198333333","25.1891116666667","6501000","淡水區"
"251012","441-VK","2018/02/05 21:59:48","新北市淡水區中山北路三段169號","121.445451666667","25.1968883333333","6501000","淡水區"
"251007","577-R6","2018/02/05 21:59:34","新北市淡水區北新路184巷60號","121.451141666667","25.17757","6501000","淡水區"
"251011","650-BX","2018/02/05 21:59:47","新北市淡水區水碓街7號","121.44321","25.177115","6501000","淡水區"
"251003","766-UM","2018/02/05 21:59:39","新北市淡水區中山北路二段375號","121.444235","25.1871716666667","6501000","淡水區"
