"lineid","car","time","location","longitude","latitude","cityid","cityname"
"244005","248-BX","2018/01/13 08:29:34","新北市林口區嘉溪雅坑39號","121.317055","25.12112","6501700","林口區"
"244010","656-BX","2018/01/13 08:28:23","新北市林口區粉寮路二段160巷28號","121.405126666667","25.0907533333333","6501700","林口區"
"244001","657-BX","2018/01/13 08:29:40","新北市林口區粉寮路一段77-2號","121.397091666667","25.0794316666667","6501700","林口區"
"222004","289-BY","2018/01/13 08:29:22","新北市深坑區王軍寮7號","121.616418333333","24.984635","6501800","深坑區"
"231007","189-VK","2018/01/13 08:29:26","新北市新店區新潭路二段122號","121.513605","24.9237183333333","6500600","新店區"
"231008","192-VK","2018/01/13 08:29:28","新北市新店區新烏路二段42-1號","121.546086666667","24.9293766666667","6500600","新店區"
"235001","611-BX","2018/01/13 08:29:41","新北市中和區錦和路350號","121.490858333333","24.992595","6500300","中和區"
"247003","335-TH","2018/01/13 08:29:30","新北市五股區中興路二段182巷3號","121.455635","25.0780483333333","6501400","蘆洲區"
"226005","5620-A6","2018/01/13 08:29:27","新北市平溪區十分里十分街271號","121.778868333333","25.04497","6502400","平溪區"
"226002","8452-VL","2018/01/13 08:29:33","新北市平溪區東勢里芊蓁林52號","121.755016666667","25.0091083333333","6502400","平溪區"
"226003","AGD-0702","2018/01/13 08:29:39","新北市平溪區十分里十分街236號","121.778138333333","25.0440883333333","6502400","平溪區"
"223006","022-BY","2018/01/13 08:29:28","新北市深坑區昇高坑路15號","121.624258333333","25.0009316666667","6501900","石碇區"
"223002","198-BX","2018/01/13 08:11:53","新北市石碇區楓子林61-1號","121.644465","25.00981","6501900","石碇區"
"223008","406-TH","2018/01/13 08:29:40","新北市石碇區碇南路二段松柏崎巷7號","121.674","25.019045","6501900","石碇區"
"223001","437-BY","2018/01/13 08:29:34","新北市石碇區北宜路六段柑腳巷2號","121.659605","24.9380866666667","6501900","石碇區"
"223004","660-BX","2018/01/13 08:29:40","新北市石碇區崩山3號","121.675916666667","24.9753816666667","6501900","石碇區"
"223005","677-TV","2018/01/13 08:29:42","新北市石碇區碇坪路一段280號","121.676151666667","24.9768866666667","6501900","石碇區"
"224010","AGQ-8101","2018/01/13 08:28:52","新北市瑞芳區魚寮路154號","121.819691666667","25.05794","6501200","瑞芳區"
"227006","282-VK","2018/01/13 08:29:32","新北市雙溪區上林里新寮子13-5號","121.83861","25.0333016666667","6502500","雙溪區"
"252004","249-BX","2018/01/13 08:29:23","新北市三芝區興華里楓子林45-7號","121.50126","25.204615","6502100","三芝區"
"252007","AAC-283","2018/01/13 08:29:23","新北市三芝區蘭陽街13-1號","121.473548333333","25.24247","6502100","三芝區"
"237001","159-UY","2018/01/13 08:29:42","新北市三峽區大德路16號","121.377826666667","24.942385","6500900","三峽區"
"236011","165-UM","2018/01/13 08:29:38","新北市土城區金城路二段46巷5-13號","121.453476666667","24.973795","6501300","土城區"
"236002","339-SR","2018/01/13 08:29:40","新北市土城區中央路三段185號","121.431091666667","24.965085","6501300","土城區"
"236006","498-BY","2018/01/13 08:29:38","新北市土城區中央路四段35-3號","121.422871666667","24.9618666666667","6501300","土城區"
"220080","461-BY","2018/01/13 08:23:33","新北市板橋區溪城路90-2號","121.429383333333","24.9801416666667","6500100","板橋區"
