"lineid","car","time","location","longitude","latitude","cityid","cityname"
"244010","656-BX","2018/01/13 09:49:23","新北市林口區文化一路一段15巷8-1號","121.368805","25.069325","6501700","林口區"
"244001","657-BX","2018/01/13 09:49:40","新北市林口區麗園路77號","121.37372","25.06914","6501700","林口區"
"231007","189-VK","2018/01/13 09:49:26","新北市新店區新潭路三段215巷25號","121.508135","24.9040583333333","6500600","新店區"
"231008","192-VK","2018/01/13 09:46:48","新北市新店區平廣路一段185號","121.517716666667","24.88934","6500600","新店區"
"235001","611-BX","2018/01/13 09:49:41","新北市中和區員山路471號","121.480036666667","25.0046433333333","6500300","中和區"
"247003","335-TH","2018/01/13 09:49:34","新北市蘆洲區永安南路二段132-1號","121.462686666667","25.0784866666667","6501400","蘆洲區"
"223005","677-TV","2018/01/13 09:49:42","新北市石碇區小粗坑(潭邊里)9-2號","121.678843333333","24.98619","6501900","石碇區"
"227006","282-VK","2018/01/13 09:49:12","新北市雙溪區長源里柑腳44號","121.80132","25.012215","6502500","雙溪區"
"252004","249-BX","2018/01/13 09:49:22","新北市三芝區圓山里石曹子坑66號","121.522653333333","25.2138983333333","6502100","三芝區"
"252007","AAC-283","2018/01/13 09:49:42","新北市三芝區新庄里新庄子95號","121.513336666667","25.2739133333333","6502100","三芝區"
