"lineid","car","time","location","longitude","latitude","cityid","cityname"
"244010","656-BX","2018/01/13 10:19:23","新北市林口區文化一路一段15巷8-1號","121.368825","25.0693533333333","6501700","林口區"
"244001","657-BX","2018/01/13 10:19:40","新北市林口區麗園路77號","121.373728333333","25.06918","6501700","林口區"
"231007","189-VK","2018/01/13 10:19:46","新北市新店區新烏路三段215巷19號","121.507241666667","24.9033366666667","6500600","新店區"
"231008","192-VK","2018/01/13 10:19:28","新北市新店區廣興路150號","121.535705","24.9102866666667","6500600","新店區"
"247003","335-TH","2018/01/13 10:19:34","新北市蘆洲區永安南路二段132-1號","121.462736666667","25.0785283333333","6501400","蘆洲區"
"227006","282-VK","2018/01/13 10:19:32","新北市雙溪區外柑里外柑腳17號","121.812981666667","25.020075","6502500","雙溪區"
"252007","AAC-283","2018/01/13 10:19:23","新北市三芝區古庄里茂興店75-1號","121.491886666667","25.2668916666667","6502100","三芝區"
"238025","303-VK","2018/01/13 10:13:30","新北市樹林區育德街78號","121.387536666667","24.96846","6500700","樹林區"
