"lineid","car","time","location","longitude","latitude","cityid","cityname"
"244010","656-BX","2018/01/13 10:49:43","新北市林口區公園路52號","121.368736666667","25.06945","6501700","林口區"
"244001","657-BX","2018/01/13 10:49:40","新北市林口區麗園路77號","121.373703333333","25.06921","6501700","林口區"
"231007","189-VK","2018/01/13 10:49:36","新北市新店區新潭路二段136-1號","121.512703333333","24.9219116666667","6500600","新店區"
"231008","192-VK","2018/01/13 10:49:28","新北市新店區廣興路60巷36弄6號","121.544103333333","24.9155233333333","6500600","新店區"
"247003","335-TH","2018/01/13 10:49:34","新北市蘆洲區永安南路二段132-1號","121.46268","25.0784816666667","6501400","蘆洲區"
"227006","282-VK","2018/01/13 10:49:31","新北市雙溪區新基里新基北街78號","121.870088333333","25.0389416666667","6502500","雙溪區"
