"lineid","car","time","location","longitude","latitude","cityid","cityname"
"244001","657-BX","2018/01/13 11:27:04","新北市林口區粉寮路二段160巷29號","121.405685","25.0911733333333","6501700","林口區"
"231008","192-VK","2018/01/13 11:49:28","新北市新店區松林路16巷41號","121.545353333333","24.9066016666667","6500600","新店區"
"235031","255-BX","2018/01/13 11:45:39","新北市中和區和城路一段271巷1號","121.485725","24.9918066666667","6500300","中和區"
"247003","335-TH","2018/01/13 11:22:42","新北市五股區中興路三段163號","121.449176666667","25.0809766666667","6501400","蘆洲區"
"227006","282-VK","2018/01/13 11:49:31","新北市雙溪區魚行里魚杭1號","121.883808333333","25.026595","6502500","雙溪區"
