"lineid","car","time","location","longitude","latitude","cityid","cityname"
"234044","148-BY","2018/01/13 12:09:31","新北市永和區福和路1號","121.526461666667","25.0099066666667","6500400","永和區"
"231008","192-VK","2018/01/13 12:09:28","新北市新店區自強路106巷5號","121.545631666667","24.9229466666667","6500600","新店區"
"235031","255-BX","2018/01/13 11:45:39","新北市中和區和城路一段271巷1號","121.485725","24.9918066666667","6500300","中和區"
"228005","097-TW","2018/01/13 12:09:39","新北市貢寮區福隆里興隆街24-1號","121.944185","25.0165966666667","6502600","貢寮區"
"228004","212-TW","2018/01/13 12:09:38","新北市貢寮區貢寮里長泰路5號","121.905608333333","25.0209016666667","6502600","貢寮區"
"221012","276-VK","2018/01/13 12:09:43","新北市汐止區康寧街901號","121.651126666667","25.0751266666667","6501100","汐止區"
