"lineid","car","time","location","longitude","latitude","cityid","cityname"
"234044","148-BY","2018/01/13 12:59:31","新北市永和區永元路52巷52號","121.524556666667","25.00073","6500400","永和區"
"234012","149-BY","2018/01/13 12:59:48","新北市永和區中山路一段66號","121.512636666667","25.01073","6500400","永和區"
"234005","207-UY","2018/01/13 12:59:28","新北市永和區永和路二段84號","121.514945","25.011465","6500400","永和區"
"234078","298-R6","2018/01/13 12:59:40","新北市永和區永亨路61號","121.521066666667","25.0060916666667","6500400","永和區"
"234036","336-UY","2018/01/13 12:59:49","新北市永和區成功路二段207號","121.526566666667","24.9959383333333","6500400","永和區"
"234062","337-UY","2018/01/13 12:59:45","新北市永和區秀朗路一段205號","121.519146666667","25.0033316666667","6500400","永和區"
"234084","338-UY","2018/01/13 12:59:41","新北市永和區中正路562號","121.517355","25.0060766666667","6500400","永和區"
"234052","553-UM","2018/01/13 12:59:36","新北市永和區竹林路66巷4號","121.518176666667","25.0133616666667","6500400","永和區"
"234015","745-BX","2018/01/13 12:59:35","新北市永和區永和路二段299號","121.516006666667","25.0161083333333","6500400","永和區"
"234028","746-BX","2018/01/13 12:59:44","新北市永和區四維街38號","121.525475","24.99811","6500400","永和區"
"234040","838-RS","2018/01/13 12:59:29","新北市永和區永貞路271號","121.511771666667","25.0048316666667","6500400","永和區"
"234060","AAD-866","2018/01/13 12:59:34","新北市永和區福和路311-1號","121.516146666667","25.006985","6500400","永和區"
"234068","847-RS","2018/01/13 12:59:40","新北市永和區中興街84巷8號","121.518563333333","25.0116483333333","6500400","永和區"
"234048","863-TW","2018/01/13 12:59:39","新北市永和區文化路194號","121.51069","25.0163283333333","6500400","永和區"
"234025","9371-KE","2018/01/13 12:59:40","新北市永和區永和路一段45-1號","121.51273","25.006305","6500400","永和區"
"234010","9373-KE","2018/01/13 12:59:41","新北市永和區文化路113巷21弄24號","121.513668333333","25.0140516666667","6500400","永和區"
"248017","225-UY","2018/01/13 12:59:29","新北市五股區中興路二段83巷26-6號","121.460068333333","25.0752516666667","6501500","五股區"
"234022","9380-KE","2018/01/13 12:59:43","新北市永和區竹林路39巷28弄39號","121.520073333333","25.0140666666667","6500400","永和區"
"234076","969-R7","2018/01/13 12:59:42","新北市永和區民享街10號","121.515243333333","24.995315","6500400","永和區"
"234072","AAC-211","2018/01/13 12:59:47","新北市永和區環河東路二段98號","121.524111666667","25.0103633333333","6500400","永和區"
"234066","AAC-212","2018/01/13 12:59:46","新北市永和區永和路一段1號","121.512996666667","25.0052116666667","6500400","永和區"
"234001","AAC-295","2018/01/13 12:59:40","新北市永和區保福路一段27號","121.512863333333","25.0087583333333","6500400","永和區"
"244005","248-BX","2018/01/13 12:59:32","新北市林口區粉寮路二段14號","121.40174","25.0855483333333","6501700","林口區"
"231037","0293-UT","2018/01/13 12:59:38","新北市新店區安華路28-1號","121.51966","24.960505","6500600","新店區"
"231028","046-UY","2018/01/13 12:59:29","新北市新店區安華路28-1號","121.519536666667","24.9608","6500600","新店區"
"231030","047-UY","2018/01/13 12:59:46","新北市新店區安華路28-1號","121.519111666667","24.96093","6500600","新店區"
"231029","106-UY","2018/01/13 12:59:33","新北市新店區安華路28-1號","121.519576666667","24.960775","6500600","新店區"
"231018","107-UY","2018/01/13 12:59:35","新北市新店區安華路28-1號","121.519456666667","24.96144","6500600","新店區"
"231012","108-UY","2018/01/13 12:59:30","新北市新店區安華路28-1號","121.51964","24.9610333333333","6500600","新店區"
"231020","187-VK","2018/01/13 12:59:45","新北市新店區安華路28-1號","121.51957","24.96126","6500600","新店區"
"231017","KEA-2219","2018/01/13 12:59:30","新北市新店區安華路28-1號","121.519865","24.9611366666667","6500600","新店區"
"231010","278-BY","2018/01/13 12:59:06","新北市新店區安華路28-1號","121.5195","24.9611016666667","6500600","新店區"
"231023","AAD-862","2018/01/13 12:59:41","新北市新店區安華路28-1號","121.519973333333","24.9611033333333","6500600","新店區"
"231027","3712-VJ","2018/01/13 12:59:41","新北市新店區安華路28-1號","121.519316666667","24.9606666666667","6500600","新店區"
"231024","4716-K9","2018/01/13 12:59:26","新北市新店區安華路28-1號","121.519341666667","24.96124","6500600","新店區"
"231038","4715-K9","2018/01/13 12:59:43","新北市新店區安華路28-1號","121.519373333333","24.96077","6500600","新店區"
"231036","512-UM","2018/01/13 12:59:34","新北市新店區安華路28-1號","121.519435","24.96132","6500600","新店區"
"231035","515-UM","2018/01/13 12:59:37","新北市新店區安華路28-1號","121.519626666667","24.9612316666667","6500600","新店區"
"231006","617-UM","2018/01/13 12:59:42","新北市新店區安華路28-1號","121.519486666667","24.9610833333333","6500600","新店區"
"231001","619-UM","2018/01/13 12:59:36","新北市新店區安華路28-1號","121.519543333333","24.9610616666667","6500600","新店區"
"231003","641-BX","2018/01/13 12:59:41","新北市新店區安華路28-1號","121.519645","24.960595","6500600","新店區"
"231034","645-TV","2018/01/13 12:59:33","新北市新店區安華路28-1號","121.519455","24.9606983333333","6500600","新店區"
"231013","719-UM","2018/01/13 12:59:26","新北市新店區安華路28-1號","121.519538333333","24.9609166666667","6500600","新店區"
"231033","720-UM","2018/01/13 12:59:32","新北市新店區安康路一段355-3號","121.519328333333","24.9614583333333","6500600","新店區"
"231005","897-TW","2018/01/13 12:59:33","新北市新店區安華路28-1號","121.519725","24.9606916666667","6500600","新店區"
"235028","005-UY","2018/01/13 12:59:31","新北市中和區員山路36巷16-3號","121.484976666667","24.9914533333333","6500300","中和區"
"235029","098-UM","2018/01/13 12:59:30","新北市中和區錦和路91號","121.489968333333","24.9957516666667","6500300","中和區"
"235004","150-BY","2018/01/13 12:59:39","新北市中和區和城路一段271巷1號","121.485441666667","24.9917166666667","6500300","中和區"
"235022","151-BY","2018/01/13 12:59:31","新北市中和區中正路395號","121.489165","24.9935066666667","6500300","中和區"
"235002","185-VK","2018/01/13 12:59:43","新北市中和區自立路99巷13號","121.522611666667","24.9948","6500300","中和區"
"235031","255-BX","2018/01/13 12:59:18","新北市中和區中山路二段449號","121.483838333333","25.004985","6500300","中和區"
"235036","301-VK","2018/01/13 12:59:29","新北市中和區員山路36巷13號","121.484003333333","24.99097","6500300","中和區"
"235001","AAC-213","2018/01/13 12:59:39","新北市中和區中正路637巷52弄1號","121.485478333333","24.9935416666667","6500300","中和區"
"235005","251-BX","2018/01/13 12:59:32","新北市中和區員山路36巷16-2號","121.485338333333","24.9916333333333","6500300","中和區"
"228005","097-TW","2018/01/13 12:59:39","新北市貢寮區福連里香蘭街3-3號","121.97154","25.024605","6502600","貢寮區"
"228004","212-TW","2018/01/13 12:59:38","新北市貢寮區吉林里內寮街19號","121.887161666667","24.987855","6502600","貢寮區"
"208004","AAC-292","2018/01/13 12:59:43","新北市金山區民生路202號","121.644463333333","25.2223816666667","6502700","金山區"
"207002","749-BX","2018/01/13 12:59:30","新北市萬里區雙興里大坪路45-2號","121.627928333333","25.169265","6502800","萬里區"
"207001","662-BX","2018/01/13 12:59:35","新北市萬里區萬里里獅頭路22-1號","121.693101666667","25.1782766666667","6502800","萬里區"
"252005","AAC-283","2018/01/13 12:59:43","新北市三芝區埔坪里埔頭坑169-2號","121.505975","25.2529066666667","6502100","三芝區"
"236006","498-BY","2018/01/13 12:59:34","新北市土城區亞洲路32巷2號","121.435846666667","24.9743916666667","6501300","土城區"
"221012","276-VK","2018/01/13 12:56:43","新北市汐止區民生街10號","121.660108333333","25.0690383333333","6501100","汐止區"
"221032","280-BY","2018/01/13 12:59:42","新北市汐止區建成路57巷1號","121.662326666667","25.0726533333333","6501100","汐止區"
