"lineid","car","time","location","longitude","latitude","cityid","cityname"
"234044","148-BY","2018/01/13 13:09:31","新北市永和區永元路18巷9號","121.523181666667","25.0003216666667","6500400","永和區"
"234012","149-BY","2018/01/13 13:09:27","新北市永和區中山路一段74號","121.512416666667","25.0107983333333","6500400","永和區"
"234005","207-UY","2018/01/13 13:09:42","新北市永和區中山路一段177號","121.509331666667","25.008955","6500400","永和區"
"234078","298-R6","2018/01/13 13:09:41","新北市永和區永亨路59號","121.520931666667","25.006185","6500400","永和區"
"234036","336-UY","2018/01/13 13:09:49","新北市永和區民樂街71巷1號","121.527368333333","24.99753","6500400","永和區"
"234062","337-UY","2018/01/13 13:09:40","新北市永和區秀朗路二段46號","121.521493333333","25.0023366666667","6500400","永和區"
"234084","338-UY","2018/01/13 13:09:40","新北市永和區永貞路47-1號","121.519643333333","25.0046","6500400","永和區"
"234052","553-UM","2018/01/13 13:09:36","新北市永和區中興街133巷8號","121.518696666667","25.012695","6500400","永和區"
"234015","745-BX","2018/01/13 13:09:35","新北市永和區文化路90巷3弄8號","121.513653333333","25.0155933333333","6500400","永和區"
"234028","746-BX","2018/01/13 13:09:36","新北市永和區民生路23號","121.522861666667","24.99884","6500400","永和區"
"234040","838-RS","2018/01/13 13:09:41","新北市永和區永和路一段49巷3弄81號","121.511933333333","25.006135","6500400","永和區"
"234060","AAD-866","2018/01/13 13:09:34","新北市永和區安樂路451號","121.514368333333","25.0049933333333","6500400","永和區"
"234068","847-RS","2018/01/13 13:09:40","新北市永和區豫溪街137巷1弄23號","121.51849","25.0104083333333","6500400","永和區"
"234048","863-TW","2018/01/13 13:09:39","新北市永和區文化路135巷9號","121.510686666667","25.014455","6500400","永和區"
"234025","9371-KE","2018/01/13 13:09:40","新北市永和區秀朗路一段10巷21號","121.513343333333","25.0063783333333","6500400","永和區"
"234010","9373-KE","2018/01/13 13:09:41","新北市永和區仁愛路30號","121.514656666667","25.013485","6500400","永和區"
"248017","225-UY","2018/01/13 13:09:49","新北市五股區成泰路三段101-1號","121.44427","25.0901466666667","6501500","五股區"
"234022","9380-KE","2018/01/13 13:09:44","新北市永和區中興街29巷20號","121.516375","25.01241","6500400","永和區"
"234076","969-R7","2018/01/13 13:09:42","新北市永和區民光街2號","121.5152","24.9963866666667","6500400","永和區"
"234072","AAC-211","2018/01/13 13:09:47","新北市永和區竹林路200-1號","121.520535","25.0090366666667","6500400","永和區"
"234066","AAC-212","2018/01/13 13:09:46","新北市永和區保平路2-1號","121.513103333333","25.007715","6500400","永和區"
"234001","AAC-295","2018/01/13 13:09:42","新北市永和區和平街2號","121.514261666667","25.0100566666667","6500400","永和區"
"244005","248-BX","2018/01/13 13:09:32","新北市林口區中山路590號","121.375903333333","25.08559","6501700","林口區"
"231002","001-UM","2018/01/13 13:09:37","新北市新店區安華路28-1號","121.519565","24.961035","6500600","新店區"
"231025","0291-UT","2018/01/13 13:09:45","新北市新店區安華路28-1號","121.519231666667","24.9606033333333","6500600","新店區"
"231037","0293-UT","2018/01/13 13:09:38","新北市新店區安華路28-1號","121.51954","24.960565","6500600","新店區"
"231028","046-UY","2018/01/13 13:09:29","新北市新店區安華路28-1號","121.519551666667","24.960795","6500600","新店區"
"231030","047-UY","2018/01/13 13:09:46","新北市新店區安華路28-1號","121.519273333333","24.96087","6500600","新店區"
"231029","106-UY","2018/01/13 13:09:33","新北市新店區安華路28-1號","121.519638333333","24.96084","6500600","新店區"
"231018","107-UY","2018/01/13 13:09:35","新北市新店區安華路28-1號","121.519525","24.961365","6500600","新店區"
"231012","108-UY","2018/01/13 13:09:30","新北市新店區安華路28-1號","121.519476666667","24.9610483333333","6500600","新店區"
"231020","187-VK","2018/01/13 13:09:45","新北市新店區安華路28-1號","121.519603333333","24.961275","6500600","新店區"
"231017","KEA-2219","2018/01/13 13:09:30","新北市新店區安華路28-1號","121.5198","24.9612216666667","6500600","新店區"
"231026","256-BX","2018/01/13 13:09:45","新北市新店區安華路28-1號","121.519731666667","24.9611266666667","6500600","新店區"
"231010","278-BY","2018/01/13 13:09:47","新北市新店區安華路28-1號","121.5197","24.9611133333333","6500600","新店區"
"231023","AAD-862","2018/01/13 13:09:41","新北市新店區安華路28-1號","121.51994","24.9611266666667","6500600","新店區"
"231027","3712-VJ","2018/01/13 13:09:41","新北市新店區安康路一段206號","121.524105","24.9635266666667","6500600","新店區"
"231024","4716-K9","2018/01/13 13:09:46","新北市新店區安華路28-1號","121.519303333333","24.961175","6500600","新店區"
"231038","4715-K9","2018/01/13 13:09:43","新北市新店區安華路28-1號","121.519398333333","24.9607783333333","6500600","新店區"
"231036","512-UM","2018/01/13 13:09:35","新北市新店區安華路28-1號","121.519456666667","24.9611783333333","6500600","新店區"
"231035","515-UM","2018/01/13 13:09:37","新北市新店區安華路28-1號","121.519698333333","24.9612583333333","6500600","新店區"
"231006","617-UM","2018/01/13 13:09:42","新北市新店區安華路28-1號","121.51954","24.96096","6500600","新店區"
"231001","619-UM","2018/01/13 13:09:36","新北市新店區安華路28-1號","121.519501666667","24.9610016666667","6500600","新店區"
"231003","641-BX","2018/01/13 13:09:41","新北市新店區安華路28-1號","121.51958","24.96061","6500600","新店區"
"231034","645-TV","2018/01/13 13:09:33","新北市新店區安華路28-1號","121.519403333333","24.9607416666667","6500600","新店區"
"231013","719-UM","2018/01/13 13:08:46","新北市新店區安康路一段355號","121.520036666667","24.9630583333333","6500600","新店區"
"231033","720-UM","2018/01/13 13:09:32","新北市新店區安華路28-1號","121.519401666667","24.9613933333333","6500600","新店區"
"231005","897-TW","2018/01/13 13:09:33","新北市新店區安華路28-1號","121.519638333333","24.9608083333333","6500600","新店區"
"231004","899-TW","2018/01/13 13:09:40","新北市新店區安華路28-1號","121.51931","24.96095","6500600","新店區"
"235028","005-UY","2018/01/13 13:09:30","新北市中和區中正路748號","121.485726666667","24.9985116666667","6500300","中和區"
"235029","098-UM","2018/01/13 13:09:33","新北市中和區福祥路62號","121.49933","25.0047816666667","6500300","中和區"
"235004","150-BY","2018/01/13 13:09:39","新北市中和區員山路36巷16-6號","121.485258333333","24.9921816666667","6500300","中和區"
"235022","151-BY","2018/01/13 13:09:31","新北市中和區圓通路367巷33弄6-1號","121.49279","24.985685","6500300","中和區"
"235002","185-VK","2018/01/13 13:09:43","新北市中和區大智街55巷1號","121.520958333333","24.9920816666667","6500300","中和區"
"235031","255-BX","2018/01/13 13:09:38","新北市中和區中正路885號","121.48433","25.0043116666667","6500300","中和區"
"235036","301-VK","2018/01/13 13:09:29","新北市中和區員山路36巷12號","121.483955","24.99097","6500300","中和區"
"235007","352-BY","2018/01/13 13:09:33","新北市中和區錦和路350-1號","121.490086666667","24.9935683333333","6500300","中和區"
"235025","378-QA","2018/01/13 13:01:48","新北市中和區員山路36巷16-2號","121.485408333333","24.9913733333333","6500300","中和區"
"235014","4979-A6","2018/01/13 13:09:31","新北市中和區中正路637巷52弄1號","121.485431666667","24.9934266666667","6500300","中和區"
"235033","4980-A6","2018/01/13 13:09:29","新北市中和區錦和路350-1號","121.49029","24.9934566666667","6500300","中和區"
"235006","551-UM","2018/01/13 13:09:45","新北市中和區景平路159巷31號","121.512968333333","24.9911116666667","6500300","中和區"
"235034","558-UM","2018/01/13 13:09:37","新北市中和區和城路一段271巷1號","121.48563","24.9919166666667","6500300","中和區"
"235018","640-BX","2018/01/13 13:09:42","新北市土城區金城路三段259-1號","121.471871666667","24.9900966666667","6500300","中和區"
"235011","732-UM","2018/01/13 13:09:41","新北市中和區員山路36巷13號","121.484165","24.9910483333333","6500300","中和區"
"235026","800-TS","2018/01/13 13:09:26","新北市中和區橋和路2-1號","121.488445","25.00503","6500300","中和區"
"235021","801-TS","2018/01/13 13:09:33","新北市中和區員山路36巷16-3號","121.484965","24.991675","6500300","中和區"
"235017","900-TW","2018/01/13 13:09:47","新北市中和區員山路36巷16-2號","121.485346666667","24.9915","6500300","中和區"
"235015","157-BY","2018/01/13 13:09:36","新北市中和區中正路275號","121.495505","24.9936616666667","6500300","中和區"
"235001","AAC-213","2018/01/13 13:09:39","新北市中和區景平路149號","121.51392","24.99231","6500300","中和區"
"235005","251-BX","2018/01/13 13:09:32","新北市中和區和城路一段271巷1號","121.48549","24.99196","6500300","中和區"
"228005","097-TW","2018/01/13 13:09:39","新北市貢寮區仁理村仁和路36號","121.922913333333","25.0490516666667","6502600","貢寮區"
"228004","212-TW","2018/01/13 13:09:38","新北市貢寮區吉林里內寮街73號","121.892546666667","24.973235","6502600","貢寮區"
"253004","4710-YM","2018/01/13 13:09:38","新北市石門區中山路47號","121.567405","25.2911166666667","6502200","石門區"
"253003","6232-TK","2018/01/13 13:09:46","新北市石門區石崩山23號","121.566683333333","25.2780433333333","6502200","石門區"
"253001","6251-TK","2018/01/13 13:09:28","新北市石門區公地49號","121.5454","25.2896516666667","6502200","石門區"
"253002","637-UY","2018/01/13 13:09:41","新北市石門區老崩山35號","121.557393333333","25.2767916666667","6502200","石門區"
"208004","AAC-292","2018/01/13 13:09:43","新北市金山區環金路353號","121.63005","25.2235433333333","6502700","金山區"
"207002","749-BX","2018/01/13 13:09:30","新北市萬里區崁腳里內崁路2-3號","121.638515","25.1606933333333","6502800","萬里區"
"207001","662-BX","2018/01/13 13:09:35","新北市萬里區萬里里瑪鋉路278號","121.68867","25.1811316666667","6502800","萬里區"
"252005","AAC-283","2018/01/13 13:09:43","新北市三芝區八賢里八連溪40號","121.512713333333","25.2372566666667","6502100","三芝區"
"236006","498-BY","2018/01/13 13:09:34","新北市土城區亞洲路47號","121.433523333333","24.9713866666667","6501300","土城區"
"221012","276-VK","2018/01/13 13:08:23","新北市汐止區信義路5號","121.661983333333","25.0694166666667","6501100","汐止區"
"221032","280-BY","2018/01/13 13:09:42","新北市汐止區大同路二段353號","121.656948333333","25.0672833333333","6501100","汐止區"
