"lineid","car","time","location","longitude","latitude","cityid","cityname"
"234044","148-BY","2018/01/13 13:49:31","新北市永和區永亨路203號","121.52615","25.0027","6500400","永和區"
"234012","149-BY","2018/01/13 13:49:48","新北市永和區仁愛路200號","121.50946","25.01239","6500400","永和區"
"234005","207-UY","2018/01/13 13:49:47","新北市永和區中和路523號","121.5111","25.0026566666667","6500400","永和區"
"234078","298-R6","2018/01/13 13:49:42","新北市永和區林森路99號","121.523435","25.0037133333333","6500400","永和區"
"234036","336-UY","2018/01/13 13:49:49","新北市永和區民樂街59巷5號","121.527963333333","24.9984083333333","6500400","永和區"
"234062","337-UY","2018/01/13 13:49:49","新北市永和區中正路368巷12號","121.518241666667","25.0008316666667","6500400","永和區"
"234084","338-UY","2018/01/13 13:49:40","新北市永和區永亨路61號","121.521056666667","25.0060783333333","6500400","永和區"
"234052","553-UM","2018/01/13 13:49:50","新北市永和區竹林路39巷28弄7號","121.519486666667","25.0145933333333","6500400","永和區"
"234015","745-BX","2018/01/13 13:49:36","新北市永和區永和路二段297號","121.516073333333","25.01599","6500400","永和區"
"234028","746-BX","2018/01/13 13:49:36","新北市永和區民生路45號","121.522851666667","24.997865","6500400","永和區"
"234040","838-RS","2018/01/13 13:49:29","新北市永和區中和路389巷10號","121.50816","25.00099","6500400","永和區"
"234060","AAD-866","2018/01/13 13:49:34","新北市永和區中正路338號","121.517685","25.0000266666667","6500400","永和區"
"234068","847-RS","2018/01/13 13:49:40","新北市永和區竹林路88號","121.51946","25.0126166666667","6500400","永和區"
"234048","863-TW","2018/01/13 13:49:39","新北市永和區保安路77號","121.508598333333","25.0148816666667","6500400","永和區"
"234010","9373-KE","2018/01/13 13:49:41","新北市中和區中山路二段2巷51號","121.501995","25.00758","6500400","永和區"
"248017","225-UY","2018/01/13 13:49:29","新北市五股區民義路二段22巷26-2號","121.423836666667","25.0989066666667","6501500","五股區"
"234022","9380-KE","2018/01/13 13:49:44","新北市永和區中正路662巷52號","121.518481666667","25.0087333333333","6500400","永和區"
"234076","969-R7","2018/01/13 13:49:42","新北市永和區民權路36巷6號","121.519675","24.9989383333333","6500400","永和區"
"234072","AAC-211","2018/01/13 13:49:27","新北市永和區竹林路179巷37號","121.522216666667","25.0102516666667","6500400","永和區"
"234066","AAC-212","2018/01/13 13:49:46","新北市永和區中山路一段255巷22號","121.508413333333","25.007115","6500400","永和區"
"234001","AAC-295","2018/01/13 13:49:40","新北市永和區永和路一段107號","121.513896666667","25.0079083333333","6500400","永和區"
"231002","001-UM","2018/01/13 13:49:37","新北市新店區溪園路393號","121.524203333333","24.9792666666667","6500600","新店區"
"231025","0291-UT","2018/01/13 13:49:45","新北市新店區中央路27號","121.533073333333","24.9779716666667","6500600","新店區"
"231037","0293-UT","2018/01/13 13:49:38","新北市新店區安康路三段355巷43號","121.484953333333","24.9494683333333","6500600","新店區"
"231028","046-UY","2018/01/13 13:49:41","新北市新店區安和路三段9巷8號","121.517193333333","24.9807716666667","6500600","新店區"
"231030","047-UY","2018/01/13 13:49:46","新北市新店區安康路一段258號","121.520741666667","24.9640033333333","6500600","新店區"
"231029","106-UY","2018/01/13 13:49:33","新北市新店區安康路二段128號","121.512676666667","24.9624683333333","6500600","新店區"
"231018","107-UY","2018/01/13 13:49:37","新北市新店區中正路384號","121.5347","24.9770316666667","6500600","新店區"
"231012","108-UY","2018/01/13 13:49:30","新北市新店區中興路二段67巷14號","121.546018333333","24.9711766666667","6500600","新店區"
"231020","187-VK","2018/01/13 13:49:45","新北市新店區櫻花街15號","121.546978333333","24.926645","6500600","新店區"
"231017","KEA-2219","2018/01/13 13:49:30","新北市新店區竹林路97巷8號","121.554233333333","24.9500816666667","6500600","新店區"
"231026","256-BX","2018/01/13 13:49:45","新北市新店區中正路331號","121.535975","24.975035","6500600","新店區"
"231010","278-BY","2018/01/13 13:49:42","新北市新店區三民路60巷9號","121.53544","24.9726183333333","6500600","新店區"
"231023","AAD-862","2018/01/13 13:49:41","新北市新店區國校路2巷1號","121.537901666667","24.95653","6500600","新店區"
"231027","3712-VJ","2018/01/13 13:49:41","新北市新店區中興路一段24號","121.53873","24.95836","6500600","新店區"
"231024","4716-K9","2018/01/13 13:49:46","新北市新店區新生街14號","121.54008","24.966215","6500600","新店區"
"231038","4715-K9","2018/01/13 13:49:43","新北市新店區安康路一段291巷32-1號","121.522338333333","24.9624616666667","6500600","新店區"
"231036","512-UM","2018/01/13 13:49:34","新北市新店區安祥路145巷21號","121.475203333333","24.9562516666667","6500600","新店區"
"231035","515-UM","2018/01/13 13:49:36","新北市新店區安忠路57巷1-8號","121.513485","24.9592466666667","6500600","新店區"
"231006","617-UM","2018/01/13 13:49:42","新北市新店區北宜路一段260號","121.545713333333","24.952775","6500600","新店區"
"231001","619-UM","2018/01/13 13:49:36","新北市新店區三民路40號","121.536211666667","24.9714866666667","6500600","新店區"
"231003","641-BX","2018/01/13 13:49:40","新北市新店區中興路一段110-1號","121.541221666667","24.96239","6500600","新店區"
"231034","645-TV","2018/01/13 13:49:33","新北市新店區達觀路14巷3號","121.50317","24.9417816666667","6500600","新店區"
"231013","719-UM","2018/01/13 13:49:46","新北市新店區二十張路25巷18弄27號","121.539275","24.981225","6500600","新店區"
"231033","720-UM","2018/01/13 13:49:32","新北市新店區莒光路87巷15號","121.525513333333","24.9532516666667","6500600","新店區"
"231005","897-TW","2018/01/13 13:49:33","新北市新店區寶中路121-1號","121.549686666667","24.9794416666667","6500600","新店區"
"231004","899-TW","2018/01/13 13:49:40","新北市新店區寶橋路45號","121.544733333333","24.9746133333333","6500600","新店區"
"235030","003-UY","2018/01/13 13:49:47","新北市中和區水源路29巷12號","121.504285","25.004105","6500300","中和區"
"235028","005-UY","2018/01/13 13:49:30","新北市中和區連城路109巷30號","121.49699","24.99825","6500300","中和區"
"235027","006-UY","2018/01/13 13:49:31","新北市中和區錦和路168號","121.489738333333","24.9956933333333","6500300","中和區"
"235010","031-BX","2018/01/13 13:49:37","新北市中和區仁愛街36巷43號","121.511198333333","24.9867483333333","6500300","中和區"
"235020","096-UM","2018/01/13 13:49:45","新北市中和區中正路1196號","121.480415","25.0103166666667","6500300","中和區"
"235003","097-UM","2018/01/13 13:49:35","新北市中和區大勇街29巷2-5號","121.516206666667","24.9943033333333","6500300","中和區"
"235029","098-UM","2018/01/13 13:49:30","新北市中和區中山路二段2巷33號","121.502956666667","25.0069483333333","6500300","中和區"
"235004","150-BY","2018/01/13 13:49:39","新北市中和區保健路48巷16號","121.509766666667","24.9966133333333","6500300","中和區"
"235022","151-BY","2018/01/13 13:49:31","新北市中和區連城路532巷3-4號","121.47536","24.9919583333333","6500300","中和區"
"235019","183-VK","2018/01/13 13:49:45","新北市中和區德光路77巷1號","121.469511666667","25.0035166666667","6500300","中和區"
"235002","185-VK","2018/01/13 13:49:43","新北市中和區自強路50號","121.520208333333","24.9949333333333","6500300","中和區"
"235013","186-VK","2018/01/13 13:49:42","新北市中和區景安路177巷27號","121.506578333333","24.994655","6500300","中和區"
"235031","255-BX","2018/01/13 13:49:38","新北市中和區新生街220巷4號","121.48297","24.9985233333333","6500300","中和區"
"235008","293-VK","2018/01/13 13:49:39","新北市中和區中興街204號","121.49995","24.99028","6500300","中和區"
"235036","301-VK","2018/01/13 13:49:29","新北市中和區中山路二段22號","121.504673333333","25.0053683333333","6500300","中和區"
"235007","352-BY","2018/01/13 13:49:33","新北市中和區景平路1號","121.525551666667","24.9898733333333","6500300","中和區"
"235032","377-QA","2018/01/13 13:49:38","新北市中和區中正路211巷33號","121.498051666667","24.9926883333333","6500300","中和區"
"235025","378-QA","2018/01/13 13:49:45","新北市中和區民治街128巷8號","121.474863333333","25.0029466666667","6500300","中和區"
"235014","4979-A6","2018/01/13 13:49:31","新北市中和區忠孝街62巷46號","121.513115","24.9838733333333","6500300","中和區"
"235033","4980-A6","2018/01/13 13:49:29","新北市中和區南山路52巷9號","121.501583333333","24.9973633333333","6500300","中和區"
"235006","551-UM","2018/01/13 13:49:44","新北市中和區秀朗路三段70巷48號","121.525098333333","24.9943783333333","6500300","中和區"
"235034","558-UM","2018/01/13 13:48:36","新北市中和區景平路461號","121.500671666667","24.996535","6500300","中和區"
"235009","565-BX","2018/01/13 13:49:46","新北市中和區復興路12號","121.50592","24.9898","6500300","中和區"
"235018","640-BX","2018/01/13 13:49:42","新北市中和區民享街58-1號","121.474091666667","25.0023016666667","6500300","中和區"
"235024","647-TV","2018/01/13 13:49:41","新北市中和區中山路二段581號","121.480408333333","25.0058383333333","6500300","中和區"
"235011","732-UM","2018/01/13 13:49:41","新北市中和區興南路二段34巷56弄2號","121.504831666667","24.98533","6500300","中和區"
"235026","800-TS","2018/01/13 13:49:46","新北市中和區中山路二段302號","121.495893333333","25.0024616666667","6500300","中和區"
"235021","801-TS","2018/01/13 13:49:33","新北市中和區民安街25巷23號","121.480615","24.9998016666667","6500300","中和區"
"235016","805-TS","2018/01/13 13:49:30","新北市中和區興南路二段399巷63-1號","121.501243333333","24.9753283333333","6500300","中和區"
"235012","896-TW","2018/01/13 13:49:37","新北市中和區南山路401號","121.506876666667","24.9900083333333","6500300","中和區"
"235017","900-TW","2018/01/13 13:49:38","新北市中和區華福街3號","121.465225","24.9970566666667","6500300","中和區"
"235015","157-BY","2018/01/13 13:49:36","新北市中和區華新街109巷16號","121.508756666667","24.9810966666667","6500300","中和區"
"235001","AAC-213","2018/01/13 13:49:39","新北市中和區秀朗路三段175巷7號","121.524956666667","24.9914933333333","6500300","中和區"
"235023","AAC-215","2018/01/13 13:49:45","新北市中和區圓通路391-2號","121.489995","24.989175","6500300","中和區"
"220013","072-UY","2018/01/13 13:49:37","新北市板橋區漢生東路266號","121.46819","25.013375","6500100","板橋區"
"220034","073-UY","2018/01/13 13:49:45","新北市板橋區大智街78-3號","121.453763333333","25.0156","6500100","板橋區"
"220105","075-UY","2018/01/13 13:49:32","新北市板橋區民生路二段120號","121.470528333333","25.0195333333333","6500100","板橋區"
"220017","AAD-861","2018/01/13 13:49:38","新北市板橋區華東街268號","121.452663333333","25.00122","6500100","板橋區"
"220045","120-SR","2018/01/13 13:49:37","新北市板橋區民生路二段120號","121.470733333333","25.01951","6500100","板橋區"
"247007","341-TH","2018/01/13 13:49:31","新北市蘆洲區重陽街68號","121.481651666667","25.0840983333333","6501400","蘆洲區"
"247003","336-TH","2018/01/13 13:49:32","新北市蘆洲區中原路19號","121.460666666667","25.082695","6501400","蘆洲區"
"247015","057-VK","2018/01/13 13:49:45","新北市蘆洲區中正路101號","121.46992","25.0840033333333","6501400","蘆洲區"
"247017","001-UY","2018/01/13 13:49:31","新北市蘆洲區民族路408巷4號","121.474756666667","25.0916733333333","6501400","蘆洲區"
"235005","251-BX","2018/01/13 13:49:32","新北市永和區中和路573號","121.511835","25.0035966666667","6500300","中和區"
"228005","097-TW","2018/01/13 13:49:39","新北市貢寮區美豐里土地公嶺21-2號","121.889313333333","25.0623766666667","6502600","貢寮區"
"228004","212-TW","2018/01/13 13:42:58","新北市貢寮區龍崗里嵩陽街8號","121.901886666667","25.010865","6502600","貢寮區"
"253004","4710-YM","2018/01/13 13:49:30","新北市石門區五爪崙8-2號","121.606798333333","25.261795","6502200","石門區"
"253003","6232-TK","2018/01/13 13:49:26","新北市石門區尖子鹿8號","121.575145","25.2799633333333","6502200","石門區"
"253001","6251-TK","2018/01/13 13:49:48","新北市石門區白沙灣別墅31號","121.510946666667","25.277385","6502200","石門區"
"253002","637-UY","2018/01/13 13:49:35","新北市石門區尖山湖3-1號","121.564561666667","25.2412616666667","6502200","石門區"
"208004","AAC-292","2018/01/13 13:49:43","新北市金山區重和里林口28-3號","121.596865","25.20928","6502700","金山區"
"207002","749-BX","2018/01/13 13:49:30","新北市萬里區崁腳里崁腳路166號","121.645093333333","25.15586","6502800","萬里區"
"207001","662-BX","2018/01/13 13:49:35","新北市萬里區磺潭里清水18號","121.637781666667","25.19763","6502800","萬里區"
"252005","AAC-283","2018/01/13 13:49:43","新北市三芝區圓山里二坪頂71號","121.537553333333","25.2404633333333","6502100","三芝區"
"236068","105-UM","2018/01/13 13:49:33","新北市土城區城林路6巷80號","121.438308333333","24.97972","6501300","土城區"
"236041","107-UM","2018/01/13 13:49:36","新北市土城區城林路6巷80號","121.438406666667","24.9798133333333","6501300","土城區"
"236075","166-UM","2018/01/13 13:49:33","新北市土城區中央路三段122號","121.435135","24.9661683333333","6501300","土城區"
"236013","270-VK","2018/01/13 13:49:37","新北市土城區城林路6巷80號","121.438418333333","24.9797483333333","6501300","土城區"
"236035","271-VK","2018/01/13 13:49:44","新北市土城區城林路6巷80號","121.438615","24.97979","6501300","土城區"
"236006","498-BY","2018/01/13 13:49:34","新北市土城區中央路一段363號","121.443118333333","24.9809833333333","6501300","土城區"
"236061","915-UM","2018/01/13 13:49:40","新北市土城區城林路6巷80號","121.438488333333","24.97984","6501300","土城區"
"236054","AAC-216","2018/01/13 13:49:31","新北市土城區城林路6巷80號","121.438418333333","24.9798566666667","6501300","土城區"
"238025","303-VK","2018/01/13 13:49:49","新北市樹林區育德街78號","121.387438333333","24.968425","6500700","樹林區"
"221012","276-VK","2018/01/13 13:33:12","新北市汐止區汐萬路一段256巷3號","121.653463333333","25.074645","6501100","汐止區"
"221032","280-BY","2018/01/13 13:49:42","台北市文山區新光路二段74巷1-1號","121.593281666667","24.9952416666667","6501100","汐止區"
"220027","145-BY","2018/01/13 13:49:39","新北市板橋區中正路12巷135弄13號","121.456188333333","25.0122866666667","6500100","板橋區"
"220028","200-UY","2018/01/13 13:49:41","新北市板橋區大觀路二段265巷60弄57號","121.44125","24.9977533333333","6500100","板橋區"
"220030","610-BX","2018/01/13 13:49:38","新北市板橋區篤行路三段47號","121.428083333333","24.9863016666667","6500100","板橋區"
"220020","277-BY","2018/01/13 13:49:43","新北市板橋區大觀路三段63號","121.433675","24.9954116666667","6500100","板橋區"
"220050","280-UM","2018/01/13 13:49:39","新北市板橋區民生路二段161巷1號","121.470103333333","25.0199116666667","6500100","板橋區"
"220019","283-VK","2018/01/13 13:49:35","新北市板橋區忠孝路176巷25號","121.465321666667","25.0018","6500100","板橋區"
"220043","285-UM","2018/01/13 13:49:45","新北市板橋區民生路二段120號","121.47045","25.01979","6500100","板橋區"
"220001","285-VK","2018/01/13 13:49:42","新北市板橋區民生路二段76號","121.472043333333","25.0183366666667","6500100","板橋區"
"220031","286-VK","2018/01/13 13:49:40","新北市板橋區僑中二街152號","121.444921666667","25.004395","6500100","板橋區"
"220029","287-VK","2018/01/13 13:49:37","新北市板橋區光華街13巷32號","121.45315","25.0113216666667","6500100","板橋區"
"220039","288-VK","2018/01/13 13:49:31","新北市板橋區民生路二段89-6號","121.470598333333","25.019385","6500100","板橋區"
"220009","293-UM","2018/01/13 13:49:41","新北市板橋區太和街4巷5號","121.47407","25.01987","6500100","板橋區"
"220032","296-UM","2018/01/13 13:49:28","新北市板橋區大觀路二段150巷52-1號","121.441595","25.000185","6500100","板橋區"
"220023","303-R5","2018/01/13 13:49:36","新北市板橋區南雅西路一段174巷1弄8號","121.452966666667","25.0074016666667","6500100","板橋區"
"220010","305-R5","2018/01/13 13:49:35","新北市板橋區中山路二段28號","121.472678333333","25.015135","6500100","板橋區"
"220041","307-R5","2018/01/13 13:49:39","新北市板橋區民生路二段120號","121.470613333333","25.0195566666667","6500100","板橋區"
"220047","317-R6","2018/01/13 13:49:31","新北市板橋區民生路二段120號","121.47036","25.0201183333333","6500100","板橋區"
"220012","486-VK","2018/01/13 13:49:32","新北市板橋區民生路二段36-1號","121.472258333333","25.016755","6500100","板橋區"
"220038","487-VK","2018/01/13 13:49:43","新北市板橋區民生路二段161巷1號","121.470016666667","25.0199716666667","6500100","板橋區"
"220037","491-VK","2018/01/13 13:49:40","新北市板橋區民生路二段161巷1號","121.469973333333","25.0201466666667","6500100","板橋區"
"220104","560-BX","2018/01/13 13:49:35","新北市板橋區中正路325巷3弄7號","121.453758333333","25.018895","6500100","板橋區"
"220052","561-BX","2018/01/13 13:49:28","新北市板橋區民生路二段120號","121.470515","25.019495","6500100","板橋區"
"220011","609-BX","2018/01/13 13:49:36","新北市板橋區民生路二段5號","121.472941666667","25.0157933333333","6500100","板橋區"
"220004","630-UY","2018/01/13 13:49:43","新北市板橋區四川路二段35號","121.45429","24.9955183333333","6500100","板橋區"
"220040","637-BX","2018/01/13 13:49:34","新北市板橋區民生路二段161巷3號","121.47028","25.01987","6500100","板橋區"
"220005","686-BX","2018/01/13 13:49:48","新北市板橋區華東街1-9號","121.448111666667","24.9949866666667","6500100","板橋區"
"220025","687-BX","2018/01/13 13:49:41","新北市板橋區金門街95號","121.433268333333","24.99246","6500100","板橋區"
"220042","689-BX","2018/01/13 13:49:38","新北市板橋區民生路二段181號","121.46961","25.0205083333333","6500100","板橋區"
"220002","741-BX","2018/01/13 13:49:39","新北市板橋區館前西路46巷2號","121.458873333333","25.0070466666667","6500100","板橋區"
"220003","827-TW","2018/01/13 13:49:37","新北市板橋區南雅南路二段120-16號","121.452003333333","24.9992233333333","6500100","板橋區"
"220014","829-TW","2018/01/13 13:49:48","新北市板橋區三民路二段正隆巷45號","121.476793333333","25.0134516666667","6500100","板橋區"
"220051","830-TW","2018/01/13 13:49:44","新北市板橋區民生路二段161巷17號","121.470326666667","25.0193483333333","6500100","板橋區"
"220022","895-R6","2018/01/13 13:49:42","新北市板橋區南雅南路一段2號","121.45628","25.00703","6500100","板橋區"
"220021","985-R7","2018/01/13 13:49:36","新北市板橋區南門街52號","121.456813333333","25.0081016666667","6500100","板橋區"
"220046","AAC-210","2018/01/13 13:49:32","新北市板橋區民生路二段120號","121.470541666667","25.019575","6500100","板橋區"
"220018","AAC-253","2018/01/13 13:49:42","新北市板橋區四川路一段93號","121.45973","25.0054983333333","6500100","板橋區"
