"lineid","car","time","location","longitude","latitude","cityid","cityname"
"234005","207-UY","2018/01/13 14:29:47","新北市永和區安樂路208-1號","121.515028333333","25.0020666666667","6500400","永和區"
"234078","298-R6","2018/01/13 14:29:41","新北市永和區永亨路70號","121.520913333333","25.0058433333333","6500400","永和區"
"234036","336-UY","2018/01/13 14:29:49","新北市永和區環河東路四段38號","121.528858333333","24.998925","6500400","永和區"
"234062","337-UY","2018/01/13 14:29:40","新北市永和區中正路528號","121.517336666667","25.0050716666667","6500400","永和區"
"234084","338-UY","2018/01/13 14:29:40","新北市永和區光復街21號","121.516518333333","25.01738","6500400","永和區"
"234052","553-UM","2018/01/13 14:29:36","新北市永和區博愛街45巷25弄1號","121.519005","25.016975","6500400","永和區"
"234028","746-BX","2018/01/13 14:29:35","新北市永和區中正路14號","121.512601666667","24.9938633333333","6500400","永和區"
"234040","838-RS","2018/01/13 14:29:49","新北市永和區安樂路330號","121.514463333333","25.005865","6500400","永和區"
"234060","AAD-866","2018/01/13 14:29:34","新北市永和區秀朗路一段175號","121.517013333333","25.0036833333333","6500400","永和區"
"234048","863-TW","2018/01/13 14:29:43","新北市永和區保福路三段1號","121.508445","25.015485","6500400","永和區"
"234025","9371-KE","2018/01/13 14:29:48","新北市中和區安樂路255號","121.514105","24.999895","6500400","永和區"
"248017","225-UY","2018/01/13 14:18:29","新北市五股區壟路16號","121.41552","25.0854516666667","6501500","五股區"
"234072","AAC-211","2018/01/13 14:29:47","新北市永和區竹林路39巷30號","121.51948","25.0149783333333","6500400","永和區"
"234001","AAC-295","2018/01/13 14:29:40","新北市永和區大新街50號","121.515941666667","25.0083366666667","6500400","永和區"
"231002","001-UM","2018/01/13 14:29:37","新北市新店區中正路460號","121.534026666667","24.9794033333333","6500600","新店區"
"231025","0291-UT","2018/01/13 14:29:45","新北市新店區民族路161號","121.53771","24.976765","6500600","新店區"
"231037","0293-UT","2018/01/13 14:29:38","新北市新店區安興路20號","121.515151666667","24.966145","6500600","新店區"
"231028","046-UY","2018/01/13 14:29:29","新北市新店區安康路二段192號","121.511226666667","24.96001","6500600","新店區"
"231030","047-UY","2018/01/13 14:29:26","新北市新店區安民街136號","121.516563333333","24.9693983333333","6500600","新店區"
"231029","106-UY","2018/01/13 14:29:33","新北市新店區安康路二段379號","121.49508","24.9546233333333","6500600","新店區"
"231018","107-UY","2018/01/13 14:29:35","新北市新店區中央三街61號","121.526923333333","24.9750033333333","6500600","新店區"
"231012","108-UY","2018/01/13 14:29:49","新北市新店區寶興路65巷2號","121.550831666667","24.9716366666667","6500600","新店區"
"231020","187-VK","2018/01/13 14:29:45","新北市新店區桂山路37號","121.563001666667","24.904615","6500600","新店區"
"231017","KEA-2219","2018/01/13 14:29:36","新北市新店區北宜路三段100號","121.579651666667","24.9505116666667","6500600","新店區"
"231023","AAD-862","2018/01/13 14:29:43","新北市新店區光明街103號","121.539191666667","24.96117","6500600","新店區"
"231027","3712-VJ","2018/01/13 14:29:41","新北市新店區中正路76巷11弄20號","121.543741666667","24.971715","6500600","新店區"
"231024","4716-K9","2018/01/13 14:29:46","新北市新店區安民街215號","121.51655","24.9721383333333","6500600","新店區"
"231038","4715-K9","2018/01/13 14:29:43","新北市新店區溪洲路200號","121.528705","24.9663766666667","6500600","新店區"
"231036","512-UM","2018/01/13 14:29:34","新北市新店區安祥路109巷151弄14號","121.477885","24.9588133333333","6500600","新店區"
"231035","515-UM","2018/01/13 14:29:36","新北市新店區安光路10-1號","121.513796666667","24.9641233333333","6500600","新店區"
"231006","617-UM","2018/01/13 14:29:42","新北市新店區北宜路二段322號","121.561871666667","24.953965","6500600","新店區"
"231001","619-UM","2018/01/13 14:29:36","新北市新店區中正路75巷71號","121.543068333333","24.9688766666667","6500600","新店區"
"231003","641-BX","2018/01/13 14:29:40","新北市新店區中興路一段273號","121.545145","24.9681416666667","6500600","新店區"
"231034","645-TV","2018/01/13 14:29:33","新北市新店區黎明路57巷2號","121.502398333333","24.9477033333333","6500600","新店區"
"231013","719-UM","2018/01/13 14:29:46","新北市新店區民權路100-1號","121.536203333333","24.9833783333333","6500600","新店區"
"231005","897-TW","2018/01/13 14:29:33","新北市新店區順安街53號","121.540673333333","24.986165","6500600","新店區"
"231004","899-TW","2018/01/13 14:29:40","新北市新店區中正路263-3號","121.538393333333","24.9738266666667","6500600","新店區"
"235030","003-UY","2018/01/13 14:29:41","新北市中和區景新街48號","121.503925","24.9992083333333","6500300","中和區"
"235028","005-UY","2018/01/13 14:29:30","新北市中和區南山路75號","121.502056666667","24.99817","6500300","中和區"
"235027","006-UY","2018/01/13 14:29:51","新北市中和區連城路203巷10弄4號","121.4949","24.9972733333333","6500300","中和區"
"235010","031-BX","2018/01/13 14:29:37","新北市中和區興南路一段105巷20弄34號","121.510645","24.9848733333333","6500300","中和區"
"235020","096-UM","2018/01/13 14:29:45","新北市中和區員山路514巷16號","121.47962","25.009605","6500300","中和區"
"235003","097-UM","2018/01/13 14:29:42","新北市中和區秀峰街127巷8號","121.519301666667","24.9909216666667","6500300","中和區"
"235029","098-UM","2018/01/13 14:29:50","新北市中和區永和路9巷1號","121.499165","25.00399","6500300","中和區"
"235004","150-BY","2018/01/13 14:29:39","新北市中和區安樂路83號","121.51268","24.99444","6500300","中和區"
"235022","151-BY","2018/01/13 14:29:31","新北市中和區員山路126號","121.481226666667","24.99606","6500300","中和區"
"235019","183-VK","2018/01/13 14:29:45","新北市中和區德光路27巷1弄2號","121.470866666667","25.0039533333333","6500300","中和區"
"235002","185-VK","2018/01/13 14:29:43","新北市中和區自立路109號","121.521973333333","24.9946233333333","6500300","中和區"
"235013","186-VK","2018/01/13 14:29:42","新北市中和區景新街285巷31號","121.510818333333","24.9937333333333","6500300","中和區"
"235031","255-BX","2018/01/13 14:29:38","新北市中和區連城路340巷8弄1號","121.482715","24.996355","6500300","中和區"
"235008","293-VK","2018/01/13 14:29:43","新北市中和區捷運路102號","121.505615","24.9914716666667","6500300","中和區"
"235036","301-VK","2018/01/13 14:29:49","新北市中和區中山路二段3巷22弄27號","121.50595","25.0042833333333","6500300","中和區"
"235007","352-BY","2018/01/13 14:29:33","新北市中和區景平路300號","121.512696666667","24.9927166666667","6500300","中和區"
"235032","377-QA","2018/01/13 14:29:38","新北市中和區枋寮街14號","121.50228","25.0000366666667","6500300","中和區"
"235025","378-QA","2018/01/13 14:29:45","新北市中和區民安街2巷10號","121.480305","25.00149","6500300","中和區"
"235014","4979-A6","2018/01/13 14:29:31","新北市中和區中正路190-1號","121.497856666667","24.9938933333333","6500300","中和區"
"235033","4980-A6","2018/01/13 14:29:29","新北市中和區連城路87號","121.496826666667","25.0002533333333","6500300","中和區"
"235006","551-UM","2018/01/13 14:29:44","新北市中和區安樂路217巷21弄16號","121.513933333333","24.997765","6500300","中和區"
"235034","558-UM","2018/01/13 14:29:36","新北市中和區中山路二段213號","121.49871","25.0025416666667","6500300","中和區"
"235009","565-BX","2018/01/13 14:29:46","新北市中和區景新街423巷49號","121.514678333333","24.989785","6500300","中和區"
"235018","640-BX","2018/01/13 14:29:42","新北市中和區國光街112巷9號","121.469631666667","25.001405","6500300","中和區"
"235024","647-TV","2018/01/13 14:29:38","新北市中和區員山路292號","121.481325","25.0024633333333","6500300","中和區"
"235011","732-UM","2018/01/13 14:29:41","新北市中和區景平路241巷22號","121.508938333333","24.992555","6500300","中和區"
"235026","800-TS","2018/01/13 14:29:46","新北市中和區中山路二段369號","121.487501666667","25.004825","6500300","中和區"
"235021","801-TS","2018/01/13 14:29:33","新北市中和區員山路469巷1號","121.480151666667","25.0045733333333","6500300","中和區"
"235016","805-TS","2018/01/13 14:29:30","新北市中和區華新街143巷67弄35號","121.507561666667","24.97931","6500300","中和區"
"235012","896-TW","2018/01/13 14:29:37","新北市中和區忠孝街13號","121.510066666667","24.982775","6500300","中和區"
"235017","900-TW","2018/01/13 14:29:47","新北市中和區華順街16號","121.467168333333","24.9986833333333","6500300","中和區"
"235015","157-BY","2018/01/13 14:29:36","新北市中和區和平街54巷8弄1號","121.508986666667","24.9913766666667","6500300","中和區"
"235001","AAC-213","2018/01/13 14:29:39","新北市中和區秀朗路三段10巷14弄2號","121.525253333333","24.9964816666667","6500300","中和區"
"235023","AAC-215","2018/01/13 14:29:41","新北市中和區圓通路303號","121.493523333333","24.99087","6500300","中和區"
"220013","072-UY","2018/01/13 14:29:37","新北市板橋區國泰街75巷29-1號","121.467925","25.00552","6500100","板橋區"
"220034","073-UY","2018/01/13 14:29:45","新北市板橋區國光路173巷12號","121.460415","25.01901","6500100","板橋區"
"220105","075-UY","2018/01/13 14:29:32","新北市板橋區文化路二段417巷1號","121.473755","25.0333883333333","6500100","板橋區"
"220017","AAD-861","2018/01/13 14:29:38","新北市板橋區稚暉街62號","121.457051666667","25.0040633333333","6500100","板橋區"
"220045","120-SR","2018/01/13 14:29:37","新北市板橋區萬板路48號","121.471931666667","25.0229783333333","6500100","板橋區"
"247021","893-R6","2018/01/13 14:29:37","新北市蘆洲區中正路506號","121.461831666667","25.0967866666667","6501400","蘆洲區"
"247011","546-UM","2018/01/13 14:29:30","新北市蘆洲區復興路252號","121.47993","25.0896183333333","6501400","蘆洲區"
"247019","500-BY","2018/01/13 14:29:43","新北市蘆洲區水湳街289號","121.469531666667","25.0931416666667","6501400","蘆洲區"
"247007","341-TH","2018/01/13 14:29:31","新北市蘆洲區民生街25號","121.475633333333","25.0789933333333","6501400","蘆洲區"
"247009","339-TH","2018/01/13 14:29:48","新北市蘆洲區信義路154號","121.479368333333","25.0834783333333","6501400","蘆洲區"
"247003","336-TH","2018/01/13 14:29:32","新北市蘆洲區中原路12巷24號","121.460856666667","25.0839833333333","6501400","蘆洲區"
"247015","057-VK","2018/01/13 14:29:45","新北市蘆洲區中正路185巷68弄31號","121.466126666667","25.0857083333333","6501400","蘆洲區"
"247005","056-VK","2018/01/13 14:29:44","新北市蘆洲區長安街62號","121.462913333333","25.07997","6501400","蘆洲區"
"247001","053-VK","2018/01/13 14:29:39","新北市蘆洲區永樂街38巷33弄44號","121.457001666667","25.0898016666667","6501400","蘆洲區"
"247013","007-UY","2018/01/13 14:29:49","新北市蘆洲區中山二路150號","121.471231666667","25.08123","6501400","蘆洲區"
"247023","002-UY","2018/01/13 14:29:32","新北市蘆洲區中正路259號","121.467613333333","25.0871683333333","6501400","蘆洲區"
"247017","001-UY","2018/01/13 14:29:31","新北市蘆洲區民族路278-1號","121.478348333333","25.0893766666667","6501400","蘆洲區"
"235005","251-BX","2018/01/13 14:29:32","新北市中和區安平路106號","121.511663333333","24.9973566666667","6500300","中和區"
"228005","097-TW","2018/01/13 14:29:39","新北市貢寮區美豐里巫里岸9-1號","121.901955","25.0700783333333","6502600","貢寮區"
"228004","212-TW","2018/01/13 14:29:37","新北市貢寮區雙玉里田寮洋街33-1號","121.932206666667","25.01348","6502600","貢寮區"
"253004","4710-YM","2018/01/13 14:22:50","新北市石門區內阿里磅31-2號","121.588055","25.240895","6502200","石門區"
"253003","6232-TK","2018/01/13 14:29:46","新北市石門區尖子鹿89號","121.577858333333","25.290345","6502200","石門區"
"253001","6251-TK","2018/01/13 14:29:27","新北市石門區八甲14-1號","121.523238333333","25.2813133333333","6502200","石門區"
"253002","637-UY","2018/01/13 14:29:35","新北市三芝區橫山里橫山26號","121.544778333333","25.2638116666667","6502200","石門區"
"208004","AAC-292","2018/01/13 14:29:43","新北市金山區六股里下六股65號","121.614421666667","25.2236216666667","6502700","金山區"
"207002","749-BX","2018/01/13 14:28:08","新北市萬里區溪底里福德坑路2-2號","121.624701666667","25.1558616666667","6502800","萬里區"
"207001","662-BX","2018/01/13 14:29:35","新北市萬里區磺潭里清水4號","121.641603333333","25.20111","6502800","萬里區"
"252005","AAC-283","2018/01/13 14:29:43","新北市三芝區橫山里大坑27號","121.526116666667","25.2550683333333","6502100","三芝區"
"236068","105-UM","2018/01/13 14:29:46","新北市土城區永豐路205-3號","121.474041666667","24.9776316666667","6501300","土城區"
"236041","107-UM","2018/01/13 14:29:38","新北市土城區裕民路67巷4弄10號","121.450066666667","24.987725","6501300","土城區"
"236075","166-UM","2018/01/13 14:29:33","新北市土城區大暖路48號","121.423206666667","24.9593066666667","6501300","土城區"
"236029","253-BX","2018/01/13 14:29:40","新北市土城區水源街73號","121.439605","24.976435","6501300","土城區"
"236025","269-VK","2018/01/13 14:29:42","新北市土城區承天路69-1號","121.439918333333","24.9632833333333","6501300","土城區"
"236013","270-VK","2018/01/13 14:29:37","新北市土城區青雲路39巷7號","121.460403333333","24.9875583333333","6501300","土城區"
"236035","271-VK","2018/01/13 14:29:44","新北市土城區青雲路449-1號","121.458765","24.9747716666667","6501300","土城區"
"236017","401-BY","2018/01/13 14:29:48","新北市土城區永豐路202巷7號","121.466271666667","24.98328","6501300","土城區"
"236057","912-UM","2018/01/13 14:29:48","新北市土城區中央路四段281-2號","121.412378333333","24.9536616666667","6501300","土城區"
"236045","913-UM","2018/01/13 14:29:31","新北市土城區青雲路469號","121.458723333333","24.97414","6501300","土城區"
"236061","915-UM","2018/01/13 14:29:46","新北市土城區延壽路118-6號","121.469066666667","24.994635","6501300","土城區"
"236054","AAC-216","2018/01/13 14:29:31","新北市土城區中華路二段1號","121.439711666667","24.97919","6501300","土城區"
"220027","145-BY","2018/01/13 14:29:39","新北市板橋區建國街5號","121.457256666667","25.016915","6500100","板橋區"
"220028","200-UY","2018/01/13 14:29:47","新北市板橋區大觀路二段37巷268號","121.449765","25.00145","6500100","板橋區"
"220030","610-BX","2018/01/13 14:01:18","新北市板橋區滿平街139號","121.428931666667","24.9881683333333","6500100","板橋區"
"220020","277-BY","2018/01/13 14:29:43","新北市板橋區金門街253巷2弄28號","121.431605","24.9877733333333","6500100","板橋區"
"220050","280-UM","2018/01/13 14:29:39","新北市板橋區縣民大道三段135號","121.477653333333","25.023355","6500100","板橋區"
"220019","283-VK","2018/01/13 14:29:45","新北市板橋區四川路一段325巷3弄8號","121.459591666667","25.0004733333333","6500100","板橋區"
"220043","285-UM","2018/01/13 14:29:45","新北市板橋區吳鳳路36號","121.468658333333","25.0303383333333","6500100","板橋區"
"220001","285-VK","2018/01/13 14:29:42","新北市板橋區富山街62巷2號","121.477255","25.0221616666667","6500100","板橋區"
"220031","286-VK","2018/01/13 14:29:39","新北市板橋區龍興街71巷39號","121.442173333333","25.00253","6500100","板橋區"
"220029","287-VK","2018/01/13 14:29:37","新北市板橋區大觀路一段75巷39號","121.448945","25.0041733333333","6500100","板橋區"
"220039","288-VK","2018/01/13 14:29:31","新北市板橋區裕民街87-4號","121.460446666667","25.02807","6500100","板橋區"
"220009","293-UM","2018/01/13 14:29:41","新北市板橋區中山路一段265巷36弄2號","121.469123333333","25.014945","6500100","板橋區"
"220032","296-UM","2018/01/13 14:29:48","新北市板橋區篤行路三段67-1號","121.427658333333","24.9856733333333","6500100","板橋區"
"220023","303-R5","2018/01/13 14:29:16","新北市板橋區南雅南路一段4巷12-1號","121.454738333333","25.0051933333333","6500100","板橋區"
"220010","305-R5","2018/01/13 14:29:35","新北市板橋區三民路二段181巷5號","121.47982","25.01439","6500100","板橋區"
"220041","307-R5","2018/01/13 14:29:39","新北市板橋區光武街2巷13號","121.468255","25.0252783333333","6500100","板橋區"
"220047","317-R6","2018/01/13 14:29:31","新北市板橋區四維路318號","121.462368333333","25.0300533333333","6500100","板橋區"
"220012","486-VK","2018/01/13 14:29:33","新北市板橋區中山路一段37號","121.460675","25.008985","6500100","板橋區"
"220038","487-VK","2018/01/13 14:29:43","新北市板橋區文化路一段143號","121.462325","25.0154633333333","6500100","板橋區"
"220037","491-VK","2018/01/13 14:29:43","新北市板橋區雙十路一段1號","121.478266666667","25.023945","6500100","板橋區"
"220104","560-BX","2018/01/13 14:29:35","新北市板橋區中正路413巷4號","121.453845","25.0226866666667","6500100","板橋區"
"220052","561-BX","2018/01/13 14:29:48","新北市板橋區文化路一段270巷2號","121.467423333333","25.0204916666667","6500100","板橋區"
"220011","609-BX","2018/01/13 14:29:36","新北市板橋區三民路二段253-1號","121.479105","25.0117116666667","6500100","板橋區"
"220004","630-UY","2018/01/13 14:29:43","新北市板橋區國慶路49巷21號","121.459373333333","24.9962933333333","6500100","板橋區"
"220040","637-BX","2018/01/13 14:29:46","新北市板橋區文聖街149巷20號","121.479433333333","25.028415","6500100","板橋區"
"220005","686-BX","2018/01/13 14:29:48","新北市板橋區五權街7-1號","121.46395","24.9946483333333","6500100","板橋區"
"220025","687-BX","2018/01/13 14:29:41","新北市板橋區僑中一街80巷6弄32號","121.448915","25.011295","6500100","板橋區"
"220042","689-BX","2018/01/13 14:29:40","新北市板橋區雨農路27巷2號","121.461195","25.0242116666667","6500100","板橋區"
"220002","741-BX","2018/01/13 14:29:49","新北市板橋區忠孝路239巷43號","121.467353333333","25.0036966666667","6500100","板橋區"
"220003","827-TW","2018/01/13 14:29:37","新北市板橋區重慶路290巷22弄16號","121.4623","24.9995816666667","6500100","板橋區"
"220014","829-TW","2018/01/13 14:29:28","新北市中和區中山路三段170巷8弄1號","121.47251","25.0075866666667","6500100","板橋區"
"220051","830-TW","2018/01/13 14:29:44","新北市板橋區松柏街22巷43號","121.475106666667","25.0288833333333","6500100","板橋區"
"220022","895-R6","2018/01/13 14:29:42","新北市板橋區北門街25-1號","121.456488333333","25.0112983333333","6500100","板橋區"
"220021","985-R7","2018/01/13 14:29:46","新北市板橋區新生街16號","121.455475","25.0211283333333","6500100","板橋區"
"220046","AAC-210","2018/01/13 14:29:32","新北市板橋區漢生西路137號","121.46283","25.0216333333333","6500100","板橋區"
"220018","AAC-253","2018/01/13 14:29:33","新北市板橋區重慶路40號","121.461366666667","25.0074016666667","6500100","板橋區"
