"lineid","car","time","location","longitude","latitude","cityid","cityname"
"234084","338-UY","2018/01/13 14:49:41","新北市五股區新五路三段260號","121.448341666667","25.0912533333333","6500400","永和區"
"234025","9371-KE","2018/01/13 14:49:40","新北市永和區雙和街25巷5號","121.508996666667","25.001875","6500400","永和區"
"234072","AAC-211","2018/01/13 14:49:47","新北市中和區勝利路2號","121.498851666667","25.00884","6500400","永和區"
"231002","001-UM","2018/01/13 14:49:37","新北市新店區民權路63號","121.539215","24.9828966666667","6500600","新店區"
"231025","0291-UT","2018/01/13 14:49:45","新北市新店區民族路163號","121.537676666667","24.9766316666667","6500600","新店區"
"231037","0293-UT","2018/01/13 14:49:38","新北市新店區柴埕路52巷1-14號","121.512611666667","24.964575","6500600","新店區"
"231028","046-UY","2018/01/13 14:49:37","新北市新店區安德街167號","121.508453333333","24.9592583333333","6500600","新店區"
"231030","047-UY","2018/01/13 14:49:46","新北市新店區安興路56號","121.516553333333","24.9748933333333","6500600","新店區"
"231029","106-UY","2018/01/13 14:49:33","新北市新店區錦秀路11巷92弄1號","121.480305","24.9427716666667","6500600","新店區"
"231018","107-UY","2018/01/13 14:49:35","新北市新店區中央六街5號","121.530366666667","24.97446","6500600","新店區"
"231012","108-UY","2018/01/13 14:49:30","新北市新店區寶橋路56號","121.546028333333","24.9754716666667","6500600","新店區"
"231020","187-VK","2018/01/13 14:49:45","新北市新店區永福路54號","121.558113333333","24.928665","6500600","新店區"
"231017","KEA-2219","2018/01/13 14:49:50","新北市新店區北宜路三段100號","121.579436666667","24.9505933333333","6500600","新店區"
"231023","AAD-862","2018/01/13 14:49:41","新北市新店區檳榔路109號","121.544463333333","24.96161","6500600","新店區"
"231027","3712-VJ","2018/01/13 14:49:41","新北市新店區薏仁坑路6號","121.500221666667","24.9580816666667","6500600","新店區"
"231024","4716-K9","2018/01/13 14:49:46","新北市新店區新生街5巷4號","121.540095","24.965845","6500600","新店區"
"231036","512-UM","2018/01/13 14:49:34","新北市新店區安祥路106巷133號","121.473326666667","24.9585016666667","6500600","新店區"
"231035","515-UM","2018/01/13 14:49:36","新北市新店區安利街26號","121.51921","24.9745916666667","6500600","新店區"
"231006","617-UM","2018/01/13 14:49:42","新北市新店區北宜路一段109巷2號","121.539838333333","24.9547466666667","6500600","新店區"
"231001","619-UM","2018/01/13 14:49:36","新北市新店區三民路145-1號","121.53411","24.972865","6500600","新店區"
"231003","641-BX","2018/01/13 14:49:40","新北市新店區中興路二段25號","121.546","24.9695166666667","6500600","新店區"
"231034","645-TV","2018/01/13 14:49:33","新北市新店區玫瑰路4-1號","121.49358","24.9514016666667","6500600","新店區"
"231039","718-UY","2018/01/13 14:49:40","新北市新店區安康路一段266巷4號","121.520048333333","24.9645316666667","6500600","新店區"
"231033","720-UM","2018/01/13 14:49:32","新北市新店區安泰路22號","121.485353333333","24.9484283333333","6500600","新店區"
"231005","897-TW","2018/01/13 14:49:33","新北市新店區復興路2號","121.532435","24.9882716666667","6500600","新店區"
"231004","899-TW","2018/01/13 14:49:40","新北市新店區民族路75-2號","121.539218333333","24.9780316666667","6500600","新店區"
"235030","003-UY","2018/01/13 14:49:41","新北市中和區南工路36號","121.50579","25.0011416666667","6500300","中和區"
"235010","031-BX","2018/01/13 14:49:37","新北市中和區仁愛街35號","121.510913333333","24.9886333333333","6500300","中和區"
"235020","096-UM","2018/01/13 14:49:45","新北市中和區中山路三段114巷11號","121.475606666667","25.0075883333333","6500300","中和區"
"235003","097-UM","2018/01/13 14:49:34","新北市中和區安平路200號","121.513418333333","24.9994583333333","6500300","中和區"
"235029","098-UM","2018/01/13 14:49:50","新北市中和區福祥路85巷2弄1號","121.498645","25.0057466666667","6500300","中和區"
"235004","150-BY","2018/01/13 14:49:39","新北市中和區安平路38號","121.509765","24.9949883333333","6500300","中和區"
"235022","151-BY","2018/01/13 14:49:51","新北市中和區員山路148巷19號","121.482025","24.9971316666667","6500300","中和區"
"235019","183-VK","2018/01/13 14:49:45","新北市中和區民德路12號","121.468791666667","25.0027166666667","6500300","中和區"
"235002","185-VK","2018/01/13 14:49:43","新北市中和區更生街9號","121.521788333333","24.99627","6500300","中和區"
"235013","186-VK","2018/01/13 14:49:42","新北市中和區中正路64巷2號","121.50118","24.9937233333333","6500300","中和區"
"235031","255-BX","2018/01/13 14:49:41","新北市中和區員山路148巷23弄15號","121.482181666667","24.9978866666667","6500300","中和區"
"235008","293-VK","2018/01/13 14:49:38","新北市中和區南山路279號","121.504146666667","24.992295","6500300","中和區"
"235036","301-VK","2018/01/13 14:49:49","新北市中和區連城路80號","121.497293333333","25.0011033333333","6500300","中和區"
"235007","352-BY","2018/01/13 14:49:33","新北市中和區安和路33號","121.510063333333","24.99453","6500300","中和區"
"235032","377-QA","2018/01/13 14:49:38","新北市中和區福美路301巷42號","121.497815","25.003495","6500300","中和區"
"235014","4979-A6","2018/01/13 14:49:50","新北市中和區景平路241巷82弄24號","121.506856666667","24.992265","6500300","中和區"
"235033","4980-A6","2018/01/13 14:49:49","新北市中和區圓通路208號","121.495965","24.99396","6500300","中和區"
"235006","551-UM","2018/01/13 14:49:44","新北市中和區景安路15號","121.508341666667","24.998935","6500300","中和區"
"235034","558-UM","2018/01/13 14:41:56","新北市中和區景平路632-8號","121.499725","24.99899","6500300","中和區"
"235009","565-BX","2018/01/13 14:49:46","新北市中和區安樂路8-1號","121.511678333333","24.991775","6500300","中和區"
"235018","640-BX","2018/01/13 14:49:50","新北市中和區民享街86巷31號","121.472681666667","25.000305","6500300","中和區"
"235024","647-TV","2018/01/13 14:49:47","新北市中和區新生街16巷17號","121.482473333333","25.00432","6500300","中和區"
"235011","732-UM","2018/01/13 14:49:41","新北市中和區和平街29-1號","121.50766","24.9911133333333","6500300","中和區"
"235026","800-TS","2018/01/13 14:49:46","新北市中和區中山路二段480號","121.487693333333","25.0048166666667","6500300","中和區"
"235016","805-TS","2018/01/13 14:49:50","新北市中和區華新街30巷3號","121.507325","24.9843016666667","6500300","中和區"
"235012","896-TW","2018/01/13 14:49:37","新北市中和區忠孝街160號","121.512658333333","24.9877466666667","6500300","中和區"
"235017","900-TW","2018/01/13 14:49:47","新北市中和區民德路146巷14號","121.467803333333","25.0005","6500300","中和區"
"235015","157-BY","2018/01/13 14:49:50","新北市中和區中興街178號","121.499676666667","24.99088","6500300","中和區"
"235001","AAC-213","2018/01/13 14:49:39","新北市中和區自立路58巷2號","121.523636666667","24.9915933333333","6500300","中和區"
"235023","AAC-215","2018/01/13 14:49:40","新北市中和區圓通路305巷5弄40號","121.494708333333","24.9902833333333","6500300","中和區"
"220013","072-UY","2018/01/13 14:46:37","新北市板橋區國泰街17號","121.469331666667","25.00672","6500100","板橋區"
"220034","073-UY","2018/01/13 14:49:45","新北市板橋區南雅西路二段40號","121.453","25.0100333333333","6500100","板橋區"
"220105","075-UY","2018/01/13 14:49:32","新北市板橋區文化路二段608巷64號","121.480136666667","25.0340516666667","6500100","板橋區"
"220017","AAD-861","2018/01/13 14:49:37","新北市板橋區貴興路119巷1弄1號","121.455735","25.0021966666667","6500100","板橋區"
"220045","120-SR","2018/01/13 14:49:37","新北市板橋區民生路二段226巷31弄2號","121.471265","25.0221833333333","6500100","板橋區"
"247007","341-TH","2018/01/13 14:49:51","新北市蘆洲區中山一路97巷30號","121.475828333333","25.0809333333333","6501400","蘆洲區"
"247015","057-VK","2018/01/13 14:49:45","新北市蘆洲區和平路205號","121.465995","25.0815666666667","6501400","蘆洲區"
"247001","053-VK","2018/01/13 14:49:51","新北市蘆洲區永康街8號","121.4592","25.085815","6501400","蘆洲區"
"247013","007-UY","2018/01/13 14:49:49","新北市蘆洲區中央路24號","121.473533333333","25.0828166666667","6501400","蘆洲區"
"247023","002-UY","2018/01/13 14:49:31","新北市五股區四維路185巷6-5號","121.466875","25.0762133333333","6501400","蘆洲區"
"235005","251-BX","2018/01/13 14:49:32","新北市中和區安平路38號","121.509978333333","24.9950066666667","6500300","中和區"
"228005","097-TW","2018/01/13 14:49:45","新北市貢寮區美豐里丹裡街65號","121.909041666667","25.0588766666667","6502600","貢寮區"
"228004","212-TW","2018/01/13 14:49:37","新北市貢寮區福隆里裕隆街3-1號","121.946176666667","25.0159","6502600","貢寮區"
"253004","4710-YM","2018/01/13 14:49:30","新北市石門區茂林社區222號","121.591388333333","25.2688433333333","6502200","石門區"
"253003","6232-TK","2018/01/13 14:49:46","新北市石門區尖子鹿101-1號","121.580078333333","25.2924266666667","6502200","石門區"
"253001","6251-TK","2018/01/13 14:49:47","新北市石門區崁子腳35-2號","121.539955","25.2697216666667","6502200","石門區"
"253002","637-UY","2018/01/13 14:49:16","新北市石門區楓林47號","121.542788333333","25.2785883333333","6502200","石門區"
"208004","AAC-292","2018/01/13 14:49:43","新北市金山區兩湖里倒照湖28號","121.598835","25.2392216666667","6502700","金山區"
"207002","749-BX","2018/01/13 14:49:30","新北市萬里區崁腳里崁腳路73號","121.647618333333","25.1596166666667","6502800","萬里區"
"207001","662-BX","2018/01/13 14:49:35","新北市萬里區雙興里二坪路1-1號","121.650486666667","25.1769316666667","6502800","萬里區"
"252005","AAC-283","2018/01/13 14:49:43","新北市三芝區埔坪里埔頭坑107-1號","121.51431","25.24705","6502100","三芝區"
"236068","105-UM","2018/01/13 14:49:33","新北市土城區明德路一段194號","121.461886666667","24.9778716666667","6501300","土城區"
"236041","107-UM","2018/01/13 14:49:46","新北市土城區裕民路138號","121.451593333333","24.9861766666667","6501300","土城區"
"236075","166-UM","2018/01/13 14:49:41","新北市土城區中央路四段125巷9弄10號","121.416841666667","24.9574066666667","6501300","土城區"
"236029","253-BX","2018/01/13 14:49:40","新北市土城區忠義路34號","121.440325","24.9698283333333","6501300","土城區"
"236025","269-VK","2018/01/13 14:49:42","新北市土城區慶安街57號","121.440915","24.9730183333333","6501300","土城區"
"236013","270-VK","2018/01/13 14:49:37","新北市土城區金城路二段356號","121.461836666667","24.9850966666667","6501300","土城區"
"236035","271-VK","2018/01/13 14:49:44","新北市土城區明德路一段195巷1弄1號","121.463983333333","24.978735","6501300","土城區"
"236017","401-BY","2018/01/13 14:49:48","新北市土城區延吉街253巷15號","121.467925","24.9843716666667","6501300","土城區"
"236057","912-UM","2018/01/13 14:49:48","新北市土城區金城路一段86號","121.444778333333","24.9733983333333","6501300","土城區"
"236045","913-UM","2018/01/13 14:49:30","新北市土城區廣福街68巷32-1號","121.458775","24.99032","6501300","土城區"
"236061","915-UM","2018/01/13 14:49:43","新北市土城區金城路三段207巷8弄12號","121.470318333333","24.99047","6501300","土城區"
"236054","AAC-216","2018/01/13 14:49:31","新北市土城區裕民路191號","121.45361","24.984295","6501300","土城區"
"220027","145-BY","2018/01/13 14:49:39","新北市板橋區中正路135巷12弄4-1號","121.455726666667","25.015795","6500100","板橋區"
"220028","200-UY","2018/01/13 14:49:40","新北市板橋區大觀路二段169巷22號","121.446353333333","24.999825","6500100","板橋區"
"220020","277-BY","2018/01/13 14:49:43","新北市板橋區金門街127巷14號","121.433611666667","24.9910566666667","6500100","板橋區"
"220050","280-UM","2018/01/13 14:49:39","新北市板橋區縣民大道三段93巷28號","121.474801666667","25.0224816666667","6500100","板橋區"
"220019","283-VK","2018/01/13 14:49:34","新北市板橋區五權街30巷11號","121.46434","24.9932583333333","6500100","板橋區"
"220043","285-UM","2018/01/13 14:49:45","新北市板橋區新海路466號","121.457568333333","25.0284116666667","6500100","板橋區"
"220001","285-VK","2018/01/13 14:49:47","新北市板橋區民享街2號","121.47543","25.014645","6500100","板橋區"
"220031","286-VK","2018/01/13 14:49:39","新北市板橋區僑中二街8巷19號","121.446215","25.0112766666667","6500100","板橋區"
"220029","287-VK","2018/01/13 14:49:37","新北市板橋區僑中一街80巷6弄1號","121.447703333333","25.0120766666667","6500100","板橋區"
"220039","288-VK","2018/01/13 14:49:31","新北市板橋區綠堤街29號","121.455771666667","25.026475","6500100","板橋區"
"220009","293-UM","2018/01/13 14:49:41","新北市板橋區觀光街35號","121.471313333333","25.0161783333333","6500100","板橋區"
"220032","296-UM","2018/01/13 14:49:48","新北市板橋區滿平街2巷5-2號","121.425863333333","24.9898883333333","6500100","板橋區"
"220023","303-R5","2018/01/13 14:49:47","新北市板橋區大勇街8巷1號","121.45408","25.0170833333333","6500100","板橋區"
"220010","305-R5","2018/01/13 14:49:41","新北市板橋區中山路二段416巷38弄27-2號","121.481956666667","25.019345","6500100","板橋區"
"220041","307-R5","2018/01/13 14:49:39","新北市板橋區四維路259巷7號","121.462961666667","25.0279183333333","6500100","板橋區"
"220047","317-R6","2018/01/13 14:49:47","新北市板橋區龍泉街55巷24號","121.457616666667","25.0252383333333","6500100","板橋區"
"220012","486-VK","2018/01/13 14:49:35","新北市板橋區實踐路130號","121.464456666667","25.00288","6500100","板橋區"
"220038","487-VK","2018/01/13 14:49:43","新北市板橋區龍泉街116號","121.456898333333","25.02436","6500100","板橋區"
"220037","491-VK","2018/01/13 14:49:40","新北市板橋區仁化街104號","121.476723333333","25.03226","6500100","板橋區"
"220104","560-BX","2018/01/13 14:49:35","新北市板橋區新生街53巷1弄10號","121.456983333333","25.0215683333333","6500100","板橋區"
"220052","561-BX","2018/01/13 14:49:48","新北市板橋區陽明街29巷36號","121.463635","25.02273","6500100","板橋區"
"220011","609-BX","2018/01/13 14:49:36","新北市板橋區林森街3巷1弄6號","121.48265","25.0235883333333","6500100","板橋區"
"220004","630-UY","2018/01/13 14:49:46","新北市板橋區四川路二段97號","121.45259","24.994725","6500100","板橋區"
"220040","637-BX","2018/01/13 14:49:34","新北市板橋區懷德街127巷16號","121.479455","25.031165","6500100","板橋區"
"220005","686-BX","2018/01/13 14:49:50","新北市板橋區廣和街83號","121.462738333333","24.991985","6500100","板橋區"
"220025","687-BX","2018/01/13 14:49:52","新北市板橋區僑中一街128號","121.445678333333","25.01182","6500100","板橋區"
"220042","689-BX","2018/01/13 14:49:37","新北市板橋區長江路二段59號","121.464601666667","25.031395","6500100","板橋區"
"220002","741-BX","2018/01/13 14:49:39","新北市板橋區忠孝路201巷118號","121.464615","25.0051983333333","6500100","板橋區"
"220003","827-TW","2018/01/13 14:49:37","新北市板橋區仁愛路62巷15弄1號","121.459951666667","24.9985233333333","6500100","板橋區"
"220014","829-TW","2018/01/13 14:49:28","新北市板橋區長安街140號","121.472753333333","25.0100466666667","6500100","板橋區"
"220051","830-TW","2018/01/13 14:49:44","新北市板橋區文化路二段410巷23號","121.474631666667","25.0306816666667","6500100","板橋區"
"220022","895-R6","2018/01/13 14:49:45","新北市板橋區文化路一段52巷12號","121.460673333333","25.01145","6500100","板橋區"
"220021","985-R7","2018/01/13 14:49:48","新北市板橋區南雅西路二段108-1號","121.45222","25.0119816666667","6500100","板橋區"
"220046","AAC-210","2018/01/13 14:49:32","新北市板橋區漢生西路73號","121.462945","25.018765","6500100","板橋區"
"220018","AAC-253","2018/01/13 14:49:33","新北市板橋區館前東路132號","121.464026666667","25.0078216666667","6500100","板橋區"
