"lineid","car","time","location","longitude","latitude","cityid","cityname"
"234084","338-UY","2018/01/13 14:59:40","新北市八里區下罟子17號","121.381695","25.1440233333333","6500400","永和區"
"234025","9371-KE","2018/01/13 14:59:50","新北市永和區水源街27巷5號","121.51121","25.0041666666667","6500400","永和區"
"248017","225-UY","2018/01/13 14:59:31","新北市五股區登林路106巷12號","121.426793333333","25.0711266666667","6501500","五股區"
"231002","001-UM","2018/01/13 14:59:37","新北市新店區民權路61號","121.539328333333","24.9828366666667","6500600","新店區"
"231025","0291-UT","2018/01/13 14:59:45","新北市新店區大同街42號","121.53874","24.9807566666667","6500600","新店區"
"231037","0293-UT","2018/01/13 14:59:38","新北市新店區安興路69-1號","121.51579","24.975195","6500600","新店區"
"231028","046-UY","2018/01/13 14:59:49","新北市新店區安豐路49號","121.50004","24.9549116666667","6500600","新店區"
"231030","047-UY","2018/01/13 14:59:46","新北市新店區安民街339號","121.516938333333","24.97484","6500600","新店區"
"231029","106-UY","2018/01/13 14:59:33","新北市新店區錦秀路33號","121.47922","24.9439233333333","6500600","新店區"
"231018","107-UY","2018/01/13 14:59:35","新北市新店區中央六街5號","121.530401666667","24.97452","6500600","新店區"
"231012","108-UY","2018/01/13 14:59:30","新北市新店區寶橋路132號","121.547455","24.9760916666667","6500600","新店區"
"231020","187-VK","2018/01/13 14:59:45","新北市新店區永福路54號","121.55811","24.9286783333333","6500600","新店區"
"231017","KEA-2219","2018/01/13 14:59:30","新北市新店區銀河路66-1號","121.577796666667","24.9578816666667","6500600","新店區"
"231026","256-BX","2018/01/13 14:59:30","新北市新店區中正路193號","121.540516666667","24.9724566666667","6500600","新店區"
"231023","AAD-862","2018/01/13 14:59:41","新北市新店區檳榔路109號","121.544415","24.9615666666667","6500600","新店區"
"231024","4716-K9","2018/01/13 14:59:46","新北市新店區中華路48巷14號","121.540311666667","24.96881","6500600","新店區"
"231036","512-UM","2018/01/13 14:59:34","新北市新店區安祥路102巷30弄1號","121.484328333333","24.9637033333333","6500600","新店區"
"231035","515-UM","2018/01/13 14:59:36","新北市新店區安和路三段83號","121.517903333333","24.9837483333333","6500600","新店區"
"231006","617-UM","2018/01/13 14:59:42","新北市新店區新坡一街85號","121.548968333333","24.9645383333333","6500600","新店區"
"231001","619-UM","2018/01/13 14:59:36","新北市新店區中正路278號","121.538855","24.9737633333333","6500600","新店區"
"231003","641-BX","2018/01/13 14:59:40","新北市新店區中興路二段226號","121.547901666667","24.9751433333333","6500600","新店區"
"231034","645-TV","2018/01/13 14:59:33","新北市新店區玫瑰路4-1號","121.493601666667","24.9513916666667","6500600","新店區"
"231039","718-UY","2018/01/13 14:59:40","新北市新店區民權路6號","121.542648333333","24.9829716666667","6500600","新店區"
"231033","720-UM","2018/01/13 14:59:32","新北市新店區安泰路60巷134弄46號","121.484153333333","24.943855","6500600","新店區"
"231005","897-TW","2018/01/13 14:59:33","新北市新店區復興路59-1號","121.535553333333","24.9874433333333","6500600","新店區"
"231004","899-TW","2018/01/13 14:59:40","新北市新店區民族路41號","121.540641666667","24.9787216666667","6500600","新店區"
"235030","003-UY","2018/01/13 14:59:41","新北市中和區中山路二段15號","121.50513","25.0055083333333","6500300","中和區"
"235010","031-BX","2018/01/13 14:59:37","新北市中和區興南路一段105巷20弄6號","121.510305","24.9855933333333","6500300","中和區"
"235020","096-UM","2018/01/13 14:59:45","新北市中和區中山路三段174號","121.472733333333","25.00636","6500300","中和區"
"235003","097-UM","2018/01/13 14:59:34","新北市中和區安樂路123號","121.5138","24.9962216666667","6500300","中和區"
"235029","098-UM","2018/01/13 14:59:30","新北市中和區永和路110號","121.496491666667","25.005775","6500300","中和區"
"235004","150-BY","2018/01/13 14:59:39","新北市中和區景安路79巷39號","121.50746","24.99631","6500300","中和區"
"235013","186-VK","2018/01/13 14:59:42","新北市中和區南華路13號","121.502335","24.995575","6500300","中和區"
"235008","293-VK","2018/01/13 14:59:38","新北市中和區中興街106號","121.500306666667","24.9932566666667","6500300","中和區"
"235007","352-BY","2018/01/13 14:59:33","新北市中和區華新街151號","121.50622","24.9816233333333","6500300","中和區"
"235032","377-QA","2018/01/13 14:59:38","新北市中和區福祥路85巷1號","121.498816666667","25.0057316666667","6500300","中和區"
"235014","4979-A6","2018/01/13 14:59:31","新北市中和區景平路155巷24號","121.513526666667","24.9916633333333","6500300","中和區"
"235033","4980-A6","2018/01/13 14:59:49","新北市中和區南山路37巷3弄1號","121.502785","24.9988333333333","6500300","中和區"
"235034","558-UM","2018/01/13 14:59:36","新北市中和區連勝街47號","121.498196666667","24.99739","6500300","中和區"
"235018","640-BX","2018/01/13 14:59:42","新北市中和區莒光路122號","121.472453333333","25.001825","6500300","中和區"
"235024","647-TV","2018/01/13 14:59:38","新北市中和區中正路803號","121.48476","25.0011466666667","6500300","中和區"
"235026","800-TS","2018/01/13 14:59:46","新北市中和區永和路103巷23號","121.49467","25.0067933333333","6500300","中和區"
"235016","805-TS","2018/01/13 14:59:30","新北市中和區忠孝街79號","121.512145","24.9851683333333","6500300","中和區"
"235012","896-TW","2018/01/13 14:59:37","新北市中和區忠孝街1巷2-1號","121.509155","24.98302","6500300","中和區"
"235017","900-TW","2018/01/13 14:59:47","新北市中和區國光街215巷10弄12號","121.466765","25.00051","6500300","中和區"
"235015","157-BY","2018/01/13 14:59:36","新北市中和區復興路301巷16號","121.501443333333","24.9895183333333","6500300","中和區"
"235001","AAC-213","2018/01/13 14:59:39","新北市中和區自立路99巷22弄9號","121.5233","24.994045","6500300","中和區"
"235023","AAC-215","2018/01/13 14:59:40","新北市中和區圓通路365號","121.491376666667","24.9896716666667","6500300","中和區"
"220013","072-UY","2018/01/13 14:59:37","新北市板橋區民族路69巷16弄1號","121.465766666667","25.0098566666667","6500100","板橋區"
"220105","075-UY","2018/01/13 14:59:31","新北市板橋區懷德街9號","121.476696666667","25.0330433333333","6500100","板橋區"
"220017","AAD-861","2018/01/13 14:59:38","新北市板橋區大明街57號","121.457555","25.002905","6500100","板橋區"
"220045","120-SR","2018/01/13 14:59:37","新北市板橋區莒光路40巷9號","121.470328333333","25.023645","6500100","板橋區"
"247007","341-TH","2018/01/13 14:59:31","新北市五股區中興路二段182巷5號","121.457001666667","25.07882","6501400","蘆洲區"
"228004","212-TW","2018/01/13 14:59:40","新北市貢寮區雙玉里田寮洋街1號","121.928195","25.0181616666667","6502600","貢寮區"
"253004","4710-YM","2018/01/13 14:59:30","新北市石門區茂林社區255號","121.593386666667","25.2699016666667","6502200","石門區"
"253003","6232-TK","2018/01/13 14:59:46","新北市石門區小坑14號","121.595483333333","25.2841033333333","6502200","石門區"
"253001","6251-TK","2018/01/13 14:59:47","新北市石門區崁子腳31-3號","121.537293333333","25.2848083333333","6502200","石門區"
"253002","637-UY","2018/01/13 14:59:35","新北市石門區楓林28-2號","121.542145","25.2890816666667","6502200","石門區"
"208004","AAC-292","2018/01/13 14:59:43","新北市金山區法鼓路555號","121.615333333333","25.2397066666667","6502700","金山區"
"207002","749-BX","2018/01/13 14:59:50","新北市萬里區崁腳里崁腳路70號","121.648438333333","25.1596766666667","6502800","萬里區"
"207001","662-BX","2018/01/13 14:59:35","新北市萬里區雙興里麗水路5號","121.652136666667","25.1832233333333","6502800","萬里區"
"236068","105-UM","2018/01/13 14:59:33","新北市土城區明德路二段197號","121.446978333333","24.9834933333333","6501300","土城區"
"236041","107-UM","2018/01/13 14:59:36","新北市土城區學府路一段213號","121.451521666667","24.9844866666667","6501300","土城區"
"236075","166-UM","2018/01/13 14:59:33","新北市土城區中央路四段71號","121.417245","24.9583383333333","6501300","土城區"
"236029","253-BX","2018/01/13 14:59:40","新北市土城區中央路二段137號","121.442053333333","24.9771016666667","6501300","土城區"
"236025","269-VK","2018/01/13 14:59:46","新北市土城區中正路68號","121.444338333333","24.9754983333333","6501300","土城區"
"236013","270-VK","2018/01/13 14:59:37","新北市土城區立德路29巷4號","121.462001666667","24.9885183333333","6501300","土城區"
"236035","271-VK","2018/01/13 14:59:44","新北市土城區仁愛路2號","121.459778333333","24.9812533333333","6501300","土城區"
"236017","401-BY","2018/01/13 14:59:47","新北市土城區明峰街50號","121.46777","24.9864466666667","6501300","土城區"
"236057","912-UM","2018/01/13 14:59:48","新北市土城區金城路二段240號","121.456766666667","24.98298","6501300","土城區"
"236045","913-UM","2018/01/13 14:59:50","新北市土城區青雲路318號","121.458668333333","24.97712","6501300","土城區"
"236061","915-UM","2018/01/13 14:59:40","新北市土城區延和路108巷2弄1號","121.467223333333","24.9895133333333","6501300","土城區"
"236054","AAC-216","2018/01/13 14:59:31","新北市土城區學成路165號","121.448151666667","24.9890883333333","6501300","土城區"
"221002","707-TV","2018/01/13 14:59:36","新北市汐止區新興路112號","121.657826666667","25.06108","6501100","汐止區"
"220027","145-BY","2018/01/13 14:59:39","新北市板橋區僑中一街124巷86-4號","121.447798333333","25.0180433333333","6500100","板橋區"
"220020","277-BY","2018/01/13 14:59:43","新北市板橋區金門街109巷16號","121.433893333333","24.9917333333333","6500100","板橋區"
"220050","280-UM","2018/01/13 14:59:39","新北市板橋區縣民大道三段33巷13號","121.473905","25.0210733333333","6500100","板橋區"
"220019","283-VK","2018/01/13 14:59:37","新北市板橋區和平路174巷41-2號","121.46533","24.993945","6500100","板橋區"
"220043","285-UM","2018/01/13 14:59:45","新北市板橋區文德路36號","121.46235","25.02423","6500100","板橋區"
"220001","285-VK","2018/01/13 14:59:42","新北市板橋區永豐街26號","121.474648333333","25.0170916666667","6500100","板橋區"
"220031","286-VK","2018/01/13 14:59:39","新北市板橋區僑中二街52號","121.446665","25.0102283333333","6500100","板橋區"
"220029","287-VK","2018/01/13 14:59:37","新北市板橋區僑中一街124巷18弄35號","121.447558333333","25.0136183333333","6500100","板橋區"
"220039","288-VK","2018/01/13 14:59:31","新北市板橋區幸福路32巷4弄5-3號","121.461143333333","25.0214","6500100","板橋區"
"220009","293-UM","2018/01/13 14:59:41","新北市板橋區中山路二段13號","121.472118333333","25.0149633333333","6500100","板橋區"
"220032","296-UM","2018/01/13 14:59:48","新北市板橋區滿平街2巷27號","121.425411666667","24.9892566666667","6500100","板橋區"
"220023","303-R5","2018/01/13 14:59:43","新北市板橋區金華街10巷48弄8號","121.45725","25.019845","6500100","板橋區"
"220010","305-R5","2018/01/13 14:59:35","新北市板橋區光復街172巷31弄5-2號","121.486481666667","25.0189833333333","6500100","板橋區"
"220041","307-R5","2018/01/13 14:59:39","新北市板橋區裕民街133巷1號","121.459068333333","25.026995","6500100","板橋區"
"220047","317-R6","2018/01/13 14:59:51","新北市板橋區新海路72巷7號","121.462183333333","25.0220483333333","6500100","板橋區"
"220012","486-VK","2018/01/13 14:59:46","新北市板橋區長安街48巷1號","121.468051666667","25.0089466666667","6500100","板橋區"
"220038","487-VK","2018/01/13 14:59:43","新北市板橋區龍泉街108巷6號","121.456151666667","25.0243516666667","6500100","板橋區"
"220037","491-VK","2018/01/13 14:59:40","新北市板橋區懷德街191巷2號","121.480051666667","25.0293466666667","6500100","板橋區"
"220052","561-BX","2018/01/13 14:59:28","新北市板橋區自由路44號","121.465643333333","25.0232833333333","6500100","板橋區"
"220011","609-BX","2018/01/13 14:59:36","新北市板橋區中山路二段418號","121.483068333333","25.02112","6500100","板橋區"
"220040","637-BX","2018/01/13 14:59:34","新北市板橋區懷德街174巷1-16號","121.478976666667","25.02949","6500100","板橋區"
"220005","686-BX","2018/01/13 14:59:48","新北市板橋區四川路二段2號","121.456663333333","24.9966483333333","6500100","板橋區"
"220025","687-BX","2018/01/13 14:59:40","新北市板橋區僑中一街124巷46-3號","121.446465","25.0151266666667","6500100","板橋區"
"220042","689-BX","2018/01/13 14:59:50","新北市板橋區長江路三段132號","121.475548333333","25.0346016666667","6500100","板橋區"
"220003","827-TW","2018/01/13 14:59:37","新北市板橋區忠孝路48巷11弄2號","121.461396666667","24.99975","6500100","板橋區"
"220014","829-TW","2018/01/13 14:59:48","新北市板橋區漢生東路193巷69弄1號","121.472308333333","25.012205","6500100","板橋區"
"220051","830-TW","2018/01/13 14:59:44","新北市板橋區文聖街42號","121.476335","25.03129","6500100","板橋區"
"220022","895-R6","2018/01/13 14:59:22","新北市板橋區府後街1巷2-2號","121.459141666667","25.0106383333333","6500100","板橋區"
"220021","985-R7","2018/01/13 14:59:35","新北市板橋區大觀路二段153巷44弄5號","121.446525","24.9993133333333","6500100","板橋區"
"220046","AAC-210","2018/01/13 14:59:52","新北市板橋區光正街18巷5號","121.46254","25.0174533333333","6500100","板橋區"
"220018","AAC-253","2018/01/13 14:59:33","新北市板橋區四川路一段114號","121.45981","25.004435","6500100","板橋區"
