"lineid","car","time","location","longitude","latitude","cityid","cityname"
"231002","001-UM","2018/01/13 15:19:37","新北市新店區中正路700巷3號","121.533498333333","24.9915816666667","6500600","新店區"
"231025","0291-UT","2018/01/13 15:19:45","新北市新店區民權路105號","121.53648","24.9828","6500600","新店區"
"231037","0293-UT","2018/01/13 15:19:42","新北市新店區安興路110號","121.514763333333","24.97696","6500600","新店區"
"231028","046-UY","2018/01/13 15:19:49","新北市新店區吉祥街9巷35號","121.498656666667","24.9471033333333","6500600","新店區"
"231030","047-UY","2018/01/13 15:19:46","新北市新店區安和路三段68號","121.518085","24.9830033333333","6500600","新店區"
"231029","106-UY","2018/01/13 15:19:33","新北市新店區安康路三段740號","121.473855","24.94194","6500600","新店區"
"231018","107-UY","2018/01/13 15:19:35","新北市新店區中央七街5號","121.53055","24.9747716666667","6500600","新店區"
"231012","108-UY","2018/01/13 15:19:49","新北市新店區復興路10-3號","121.540255","24.9867483333333","6500600","新店區"
"231020","187-VK","2018/01/13 15:19:45","新北市新店區湖興路49號","121.562568333333","24.9334116666667","6500600","新店區"
"231017","KEA-2219","2018/01/13 15:06:50","新北市新店區明山路45號","121.563498333333","24.95576","6500600","新店區"
"231026","256-BX","2018/01/13 15:19:50","新北市新店區中正路265巷21號","121.537851666667","24.9731466666667","6500600","新店區"
"231023","AAD-862","2018/01/13 15:19:41","新北市新店區行政街14巷2號","121.542961666667","24.96635","6500600","新店區"
"231024","4716-K9","2018/01/13 15:19:46","新北市新店區安康路一段261號","121.52429","24.96341","6500600","新店區"
"231036","512-UM","2018/01/13 15:19:34","新北市新店區安祥路69巷19號","121.481898333333","24.9613216666667","6500600","新店區"
"231035","515-UM","2018/01/13 15:19:36","新北市新店區安和路三段50號","121.518096666667","24.98251","6500600","新店區"
"231006","617-UM","2018/01/13 15:19:42","新北市新店區北新路一段169號","121.53995","24.9639166666667","6500600","新店區"
"231001","619-UM","2018/01/13 15:19:36","新北市新店區光明街187號","121.53978","24.9633466666667","6500600","新店區"
"231003","641-BX","2018/01/13 15:19:40","新北市新店區寶高路116號","121.554546666667","24.9760216666667","6500600","新店區"
"231034","645-TV","2018/01/13 15:19:33","新北市新店區如意街1巷2號","121.495713333333","24.94947","6500600","新店區"
"231039","718-UY","2018/01/13 15:19:40","新北市新店區中興路三段312號","121.542243333333","24.9857283333333","6500600","新店區"
"231033","720-UM","2018/01/13 15:19:32","新北市新店區裕合街143號","121.489185","24.9490683333333","6500600","新店區"
"231005","897-TW","2018/01/13 15:19:41","新北市新店區建國路137號","121.539123333333","24.97849","6500600","新店區"
"231004","899-TW","2018/01/13 15:19:40","新北市新店區博愛街13巷24號","121.540265","24.9740716666667","6500600","新店區"
"241013","270-UM","2018/01/13 15:19:45","新北市三重區重新路四段121號","121.48487","25.05254","6500200","三重區"
"235030","003-UY","2018/01/13 15:19:41","新北市中和區光華街31巷49號","121.505891666667","25.0050116666667","6500300","中和區"
"235004","150-BY","2018/01/13 15:19:39","新北市中和區景安路79巷21號","121.50704","24.996735","6500300","中和區"
"235014","4979-A6","2018/01/13 15:19:31","新北市中和區景平路466號","121.505665","24.9937383333333","6500300","中和區"
"235033","4980-A6","2018/01/13 15:19:29","新北市中和區中正路283號","121.49379","24.9939433333333","6500300","中和區"
"235034","558-UM","2018/01/13 15:19:16","新北市中和區中正路266-1號","121.495208333333","24.9939683333333","6500300","中和區"
"235026","800-TS","2018/01/13 15:19:46","新北市中和區中山路二段344號","121.493476666667","25.00232","6500300","中和區"
"235012","896-TW","2018/01/13 15:19:37","新北市中和區興南路一段43號","121.511023333333","24.9904033333333","6500300","中和區"
"235001","AAC-213","2018/01/13 15:19:39","新北市三重區後埔街82-1號","121.478826666667","25.045875","6500300","中和區"
"235023","AAC-215","2018/01/13 15:19:46","新北市中和區圓通路367巷20弄7號","121.49192","24.9885166666667","6500300","中和區"
"220013","072-UY","2018/01/13 15:19:37","新北市板橋區南雅南路一段131號","121.455235","25.0042633333333","6500100","板橋區"
"227002","400-TW","2018/01/13 15:19:35","新北市雙溪區三貂里政光路3-1號","121.850915","25.0629466666667","6502500","雙溪區"
"253004","4710-YM","2018/01/13 15:19:30","新北市石門區小坑20號","121.596448333333","25.2818633333333","6502200","石門區"
"253003","6232-TK","2018/01/13 15:19:46","新北市石門區小坑9號","121.594368333333","25.2885816666667","6502200","石門區"
"253001","6251-TK","2018/01/13 15:19:47","新北市石門區小坑9號","121.594546666667","25.2891533333333","6502200","石門區"
"253002","637-UY","2018/01/13 15:19:35","新北市石門區小坑9號","121.594503333333","25.2891716666667","6502200","石門區"
"208004","AAC-292","2018/01/13 15:19:43","新北市金山區南勢30-1號","121.626865","25.2190066666667","6502700","金山區"
"207002","749-BX","2018/01/13 15:19:49","新北市萬里區崁腳里內中福路2-1號","121.669353333333","25.16546","6502800","萬里區"
"207001","662-BX","2018/01/13 15:19:35","新北市萬里區大鵬里萬里加投10號","121.65068","25.2071416666667","6502800","萬里區"
"236068","105-UM","2018/01/13 15:19:33","新北市土城區裕民路185巷36弄10號","121.454371666667","24.984515","6501300","土城區"
"236041","107-UM","2018/01/13 15:19:36","新北市土城區裕民路185巷24號","121.45426","24.984945","6501300","土城區"
"236075","166-UM","2018/01/13 15:19:33","新北市土城區中央路四段201號","121.414598333333","24.9565083333333","6501300","土城區"
"236029","253-BX","2018/01/13 15:19:40","新北市土城區中華路一段203號","121.442935","24.9849433333333","6501300","土城區"
"236025","269-VK","2018/01/13 15:19:50","新北市土城區中央路二段61巷28號","121.443435","24.9786133333333","6501300","土城區"
"236013","270-VK","2018/01/13 15:19:42","新北市土城區廣福街9號","121.457148333333","24.9888716666667","6501300","土城區"
"236035","271-VK","2018/01/13 15:19:44","新北市土城區國際路139巷53號","121.468405","24.9775616666667","6501300","土城區"
"236017","401-BY","2018/01/13 15:19:47","新北市土城區金城路三段200-5號","121.468773333333","24.9876133333333","6501300","土城區"
"236057","912-UM","2018/01/13 15:19:48","新北市土城區中央路二段41號","121.442778333333","24.9798116666667","6501300","土城區"
"236045","913-UM","2018/01/13 15:19:30","新北市土城區清水路336號","121.464078333333","24.9856183333333","6501300","土城區"
"236061","915-UM","2018/01/13 15:19:40","新北市土城區延平街65號","121.46778","24.9927866666667","6501300","土城區"
"236054","AAC-216","2018/01/13 15:19:31","新北市土城區學府路一段162號","121.454143333333","24.98666","6501300","土城區"
"220050","280-UM","2018/01/13 15:19:39","新北市板橋區莊敬路79號","121.47294","25.02675","6500100","板橋區"
"220031","286-VK","2018/01/13 15:19:39","新北市板橋區僑中二街104巷15號","121.445313333333","25.0079933333333","6500100","板橋區"
"220029","287-VK","2018/01/13 15:19:37","新北市板橋區大觀路二段1巷60-4號","121.451885","25.0037366666667","6500100","板橋區"
"220012","486-VK","2018/01/13 15:19:51","新北市板橋區重慶路112號","121.461923333333","25.0050266666667","6500100","板橋區"
"220038","487-VK","2018/01/13 15:19:43","新北市板橋區四維路251號","121.463535","25.02778","6500100","板橋區"
"220052","561-BX","2018/01/13 15:19:28","新北市板橋區漢生西路56號","121.462985","25.01876","6500100","板橋區"
"220025","687-BX","2018/01/13 15:19:40","新北市新莊區中平路377巷17弄56號","121.442345","25.0520766666667","6500100","板橋區"
"220042","689-BX","2018/01/13 15:19:41","新北市板橋區長江路一段102號","121.459445","25.0295216666667","6500100","板橋區"
"220003","827-TW","2018/01/13 15:19:37","新北市板橋區南雅南路二段144巷92號","121.450093333333","24.995745","6500100","板橋區"
"220051","830-TW","2018/01/13 15:19:44","新北市板橋區文化路一段130號","121.465198333333","25.018635","6500100","板橋區"
"220018","AAC-253","2018/01/13 15:19:33","新北市板橋區四川路二段243號","121.450396666667","24.99371","6500100","板橋區"
