"lineid","car","time","location","longitude","latitude","cityid","cityname"
"234026","9371-KE","2018/01/13 17:39:47","新北市永和區中正路637號","121.515395","25.010105","6500400","永和區"
"249005","172-UM","2018/01/13 17:39:32","新北市八里區荖阡坑路34號","121.402828333333","25.1295533333333","6502300","八里區"
"249001","173-UM","2018/01/13 17:39:42","新北市八里區龍米路二段153-8號","121.440046666667","25.1534916666667","6502300","八里區"
"249004","303-UY","2018/01/13 17:39:41","新北市八里區賢二街43號","121.41904","25.1577166666667","6502300","八里區"
"249002","305-UY","2018/01/13 17:39:44","新北市八里區龍形五街37巷20號","121.44607","25.1335633333333","6502300","八里區"
"249003","593-UM","2018/01/13 17:39:45","新北市八里區中山路二段171號","121.405006666667","25.15062","6502300","八里區"
"248006","077-UY","2018/01/13 17:39:43","新北市五股區中興路二段37巷28號","121.460078333333","25.0748766666667","6501500","五股區"
"232011","375-UM","2018/01/13 17:39:41","新北市坪林區鶯子瀨1-2號","121.708618333333","24.9182933333333","6502000","坪林區"
"244013","069-UM","2018/01/13 17:39:55","新北市林口區中正路559號","121.381116666667","25.0769533333333","6501700","林口區"
"244007","080-UY","2018/01/13 17:39:36","新北市林口區林口路226號","121.386736666667","25.0838883333333","6501700","林口區"
"244019","402-UM","2018/01/13 17:39:45","新北市林口區公園路122號","121.370843333333","25.0713633333333","6501700","林口區"
"244025","742-UY","2018/01/13 17:39:36","新北市林口區文化三路一段394巷8號","121.366243333333","25.0729783333333","6501700","林口區"
"244023","483-VK","2018/01/13 17:39:35","新北市林口區興林路221巷29號","121.389811666667","25.0717266666667","6501700","林口區"
"244017","485-VK","2018/01/13 17:39:46","新北市林口區忠孝路382號","121.369826666667","25.0710816666667","6501700","林口區"
"244011","656-BX","2018/01/13 17:39:34","新北市林口區佳林路154號","121.384158333333","25.077095","6501700","林口區"
"244009","837-TS","2018/01/13 17:39:49","新北市林口區中北三街178號","121.383028333333","25.08261","6501700","林口區"
"244021","838-TS","2018/01/13 17:39:32","新北市林口區東林街14號","121.396188333333","25.0789466666667","6501700","林口區"
"231046","278-BY","2018/01/13 17:39:48","新北市新店區直潭路92號","121.530906666667","24.9376483333333","6500600","新店區"
"241017","063-VK","2018/01/13 17:39:37","新北市三重區重新路三段2號","121.495453333333","25.06153","6500200","三重區"
"241024","065-VK","2018/01/13 17:39:52","新北市三重區力行路二段9巷11號","121.482833333333","25.07217","6500200","三重區"
"241005","262-UM","2018/01/13 17:39:50","新北市三重區碧華街252號","121.487821666667","25.0828333333333","6500200","三重區"
"241016","266-UM","2018/01/13 17:39:41","新北市三重區重新路二段64號","121.497875","25.0621733333333","6500200","三重區"
"241007","398-BY","2018/01/13 17:39:35","新北市三重區國道路一段57號","121.48125","25.07283","6500200","三重區"
"241014","543-UM","2018/01/13 17:39:43","新北市三重區龍濱路48號","121.502716666667","25.0685766666667","6500200","三重區"
"241023","545-UM","2018/01/13 17:39:49","新北市三重區三民街132號","121.483031666667","25.0650233333333","6500200","三重區"
"241012","941-UM","2018/01/13 17:39:35","新北市三重區龍濱路196號","121.501005","25.073365","6500200","三重區"
"241033","AAC-255","2018/01/13 17:39:45","新北市三重區光復路一段49號","121.47212","25.0488066666667","6500200","三重區"
"235064","005-UY","2018/01/13 17:39:47","新北市中和區員山路36巷16-3號","121.485101666667","24.99134","6500300","中和區"
"235060","647-TV","2018/01/13 17:39:43","新北市中和區員山路36巷16-3號","121.484776666667","24.9916483333333","6500300","中和區"
"235062","800-TS","2018/01/13 17:39:49","新北市中和區員山路36巷16-3號","121.484958333333","24.9915933333333","6500300","中和區"
"247022","893-R6","2018/01/13 17:39:48","新北市蘆洲區三民路277號","121.467833333333","25.089835","6501400","蘆洲區"
"247012","546-UM","2018/01/13 17:39:51","新北市蘆洲區民權路3巷4號","121.476306666667","25.0856016666667","6501400","蘆洲區"
"247020","500-BY","2018/01/13 17:39:37","新北市蘆洲區民族路450號","121.472415","25.091965","6501400","蘆洲區"
"247008","341-TH","2018/01/13 17:39:45","新北市蘆洲區民生街105號","121.473478333333","25.0787533333333","6501400","蘆洲區"
"247010","339-TH","2018/01/13 17:39:50","新北市蘆洲區中山一路74巷43號","121.47956","25.0814183333333","6501400","蘆洲區"
"247004","336-TH","2018/01/13 17:39:52","新北市蘆洲區長安街249巷24號","121.458265","25.0829483333333","6501400","蘆洲區"
"247016","057-VK","2018/01/13 17:39:37","新北市蘆洲區光華路54巷1號","121.468245","25.0828416666667","6501400","蘆洲區"
"247006","056-VK","2018/01/13 17:39:41","新北市蘆洲區長安街68巷10號","121.463145","25.0804333333333","6501400","蘆洲區"
"247002","053-VK","2018/01/13 17:39:54","新北市蘆洲區永平街32巷11弄36號","121.4575","25.09207","6501400","蘆洲區"
"247014","007-UY","2018/01/13 17:39:47","新北市蘆洲區中正路32號","121.471315","25.08226","6501400","蘆洲區"
"247024","002-UY","2018/01/13 17:39:37","新北市蘆洲區長樂路159號","121.462075","25.0881433333333","6501400","蘆洲區"
"247018","001-UY","2018/01/13 17:39:39","新北市蘆洲區民權路87-3號","121.473033333333","25.0888233333333","6501400","蘆洲區"
"228003","097-TW","2018/01/13 17:39:34","新北市貢寮區仁理村仁和路268號","121.924195","25.0543216666667","6502600","貢寮區"
"228002","585-TW","2018/01/13 17:39:46","新北市貢寮區福隆里外隆林街16-4號","121.958245","25.0047183333333","6502600","貢寮區"
"224006","676-BX","2018/01/13 17:39:36","新北市瑞芳區中山路310號","121.79703","25.1099733333333","6501200","瑞芳區"
"224009","285-BY","2018/01/13 17:39:40","新北市瑞芳區山尖路209號","121.849808333333","25.1117183333333","6501200","瑞芳區"
"224008","275-VK","2018/01/13 17:39:35","新北市瑞芳區坪林路7號","121.832301666667","25.1019166666667","6501200","瑞芳區"
"224005","271-BY","2018/01/13 17:39:53","新北市瑞芳區籠山路15號","121.831761666667","25.1240033333333","6501200","瑞芳區"
"227002","400-TW","2018/01/13 17:39:35","新北市雙溪區三貂里政光路3-1號","121.851038333333","25.0632666666667","6502500","雙溪區"
"251009","008-UM","2018/01/13 17:39:50","新北市淡水區中正路90-3號","121.442305","25.169585","6501000","淡水區"
"251004","009-UM","2018/01/13 17:39:47","新北市淡水區中正東路二段88巷37-22號","121.459346666667","25.1438483333333","6501000","淡水區"
"251001","011-UM","2018/01/13 17:39:36","新北市淡水區民權路92巷35-1號","121.462281666667","25.12667","6501000","淡水區"
"251013","179-VK","2018/01/13 17:39:48","新北市淡水區演戲埔腳6號","121.471703333333","25.193855","6501000","淡水區"
"251014","180-VK","2018/01/13 17:39:50","新北市淡水區水碓7-1號","121.477138333333","25.2230033333333","6501000","淡水區"
"251008","181-VK","2018/01/13 17:39:38","新北市淡水區八勢路30巷19號","121.462435","25.153605","6501000","淡水區"
"251015","182-VK","2018/01/13 17:39:44","新北市淡水區糞箕湖1-8號","121.483881666667","25.170895","6501000","淡水區"
"251010","413-VK","2018/01/13 17:39:40","新北市淡水區淡海路280巷33弄34-2號","121.41874","25.1886183333333","6501000","淡水區"
"251012","441-VK","2018/01/13 17:39:43","新北市淡水區北新路200巷10號","121.451788333333","25.1796516666667","6501000","淡水區"
"251016","442-VK","2018/01/13 17:39:37","新北市淡水區埤島39-15號","121.452743333333","25.1959","6501000","淡水區"
"251005","443-VK","2018/01/13 17:39:33","新北市淡水區鄧公路33巷11號","121.451898333333","25.1709383333333","6501000","淡水區"
"251006","561-UM","2018/01/13 17:39:54","新北市淡水區中山北路一段119巷8號","121.442326666667","25.1770483333333","6501000","淡水區"
"251007","577-R6","2018/01/13 17:39:52","新北市淡水區民族路33巷2號","121.464298333333","25.137435","6501000","淡水區"
"251011","650-BX","2018/01/13 17:39:50","新北市淡水區小坪頂13-3號","121.486605","25.1561566666667","6501000","淡水區"
"251002","672-BX","2018/01/13 17:39:40","新北市淡水區中山路143-2號","121.44073","25.172025","6501000","淡水區"
"251003","673-BX","2018/01/13 17:39:31","新北市淡水區大忠街8號","121.443075","25.1762983333333","6501000","淡水區"
"207003","550-UM","2018/01/13 17:39:38","新北市萬里區龜吼里漁澳路65號","121.68747","25.19551","6502800","萬里區"
"207004","225-TW","2018/01/13 17:39:44","新北市萬里區中幅里中福路8-1號","121.685946666667","25.16491","6502800","萬里區"
"252002","178-VK","2018/01/13 17:39:45","新北市三芝區中正路二段18號","121.504516666667","25.2552683333333","6502100","三芝區"
"252004","249-BX","2018/01/13 17:39:37","新北市三芝區錫板里海尾14-5號","121.4775","25.2589133333333","6502100","三芝區"
"252001","292-VK","2018/01/13 17:39:47","新北市三芝區育英街1號","121.501768333333","25.258865","6502100","三芝區"
"237008","302-VK","2018/01/13 17:39:51","新北市三峽區中山路333-1號","121.360161666667","24.9378483333333","6500900","三峽區"
"237016","649-BX","2018/01/13 17:22:50","新北市三峽區中山路459巷163-3號","121.34874","24.9328866666667","6500900","三峽區"
"237010","706-TV","2018/01/13 17:39:34","新北市三峽區中山路153號","121.364841666667","24.9363316666667","6500900","三峽區"
"236073","105-UM","2018/01/13 17:39:39","新北市土城區城林路6巷80號","121.438475","24.9797233333333","6501300","土城區"
"236043","107-UM","2018/01/13 17:39:36","新北市土城區城林路6巷80號","121.438576666667","24.9797416666667","6501300","土城區"
"236015","270-VK","2018/01/13 17:39:50","新北市土城區城林路6巷80號","121.438506666667","24.9795783333333","6501300","土城區"
"236059","912-UM","2018/01/13 17:39:36","新北市土城區城林路6巷80號","121.438686666667","24.9796533333333","6501300","土城區"
"242031","AAC-296","2018/01/13 17:39:50","新北市新莊區新泰路361巷23號","121.442555","25.0429983333333","6500500","新莊區"
"242029","986-R7","2018/01/13 17:39:45","新北市新莊區復興路二段28號","121.454613333333","25.0440616666667","6500500","新莊區"
"242051","751-BX","2018/01/13 17:39:51","新北市新莊區西盛街189號","121.428865","25.01709","6500500","新莊區"
"242025","615-BX","2018/01/13 17:39:47","新北市新莊區思源路90號","121.460178333333","25.0455533333333","6500500","新莊區"
"242023","613-BX","2018/01/13 17:39:51","新北市新莊區公園路222巷1號","121.456361666667","25.0406033333333","6500500","新莊區"
"242027","612-BX","2018/01/13 17:39:38","新北市新莊區福壽街114號","121.458003333333","25.0507833333333","6500500","新莊區"
"242039","566-BX","2018/01/13 17:39:47","新北市新莊區民全街7號","121.428925","25.0214183333333","6500500","新莊區"
"242044","442-UM","2018/01/13 17:39:34","新北市新莊區中正路871巷9弄37號","121.419755","25.0268683333333","6500500","新莊區"
"242048","441-UM","2018/01/13 17:39:49","新北市新莊區萬安街100號","121.420623333333","25.0224033333333","6500500","新莊區"
"242053","440-UM","2018/01/13 17:39:51","新北市新莊區新樹路699巷27號","121.432798333333","25.0015216666667","6500500","新莊區"
"242034","415-TV","2018/01/13 17:39:38","新北市新莊區新莊路504號","121.446103333333","25.0332216666667","6500500","新莊區"
"242004","413-TV","2018/01/13 17:39:46","新北市新莊區自立街117號","121.455858333333","25.0455216666667","6500500","新莊區"
"242042","400-BY","2018/01/13 17:39:51","新北市新莊區中正路514巷49號","121.432196666667","25.0335466666667","6500500","新莊區"
"242061","362-BY","2018/01/13 17:39:35","新北市新莊區瓊林南路118-22號","121.433868333333","25.010815","6500500","新莊區"
"242058","353-BY","2018/01/13 17:39:49","新北市新莊區中正路644號","121.421741666667","25.0287133333333","6500500","新莊區"
"242007","132-UY","2018/01/13 17:39:48","新北市新莊區福樂街122號","121.456958333333","25.04779","6500500","新莊區"
"242036","133-UY","2018/01/13 17:39:52","新北市新莊區後港一路119號","121.428885","25.027275","6500500","新莊區"
"242021","135-UY","2018/01/13 17:39:47","新北市新莊區中華路一段62號","121.452053333333","25.03866","6500500","新莊區"
"242046","172-VK","2018/01/13 17:39:53","新北市新莊區福營路101號","121.43415","25.0322783333333","6500500","新莊區"
"242015","175-VK","2018/01/13 17:39:36","新北市新莊區新泰路330號","121.444965","25.04187","6500500","新莊區"
"242002","176-VK","2018/01/13 17:39:48","新北市新莊區新莊路298號","121.451166666667","25.0337533333333","6500500","新莊區"
"242013","346-TH","2018/01/13 17:39:53","新北市新莊區中誠街101號","121.449848333333","25.0477183333333","6500500","新莊區"
"242019","348-TH","2018/01/13 17:39:48","新北市新莊區中港路151號","121.455023333333","25.0409783333333","6500500","新莊區"
"242056","349-TH","2018/01/13 17:39:38","新北市新莊區泰豐街3-1號","121.44851","25.031135","6500500","新莊區"
"242017","350-TH","2018/01/13 17:39:52","新北市新莊區復興路一段149巷21弄23號","121.448981666667","25.0438933333333","6500500","新莊區"
"242011","351-TH","2018/01/13 17:39:40","新北市新莊區中港路618-2號","121.451116666667","25.0544433333333","6500500","新莊區"
"238015","755-BX","2018/01/13 17:39:51","新北市樹林區啟智街25號","121.420905","24.9933683333333","6500700","樹林區"
"238023","601-UM","2018/01/13 17:39:34","新北市樹林區三福街79號","121.407345","25.0163383333333","6500700","樹林區"
"238019","599-UM","2018/01/13 17:39:36","新北市樹林區太順街32號","121.419258333333","24.97994","6500700","樹林區"
"238018","571-TV","2018/01/13 17:39:48","新北市樹林區鎮前街124號","121.424928333333","24.9909966666667","6500700","樹林區"
"238024","5061-A6","2018/01/13 17:39:43","新北市樹林區環河路110號","121.426045","24.9773","6500700","樹林區"
"238021","KEA-2217","2018/01/13 17:39:48","新北市樹林區柑園街一段250號","121.391235","24.956465","6500700","樹林區"
"238022","KEA-2213","2018/01/13 17:39:45","新北市樹林區和平街2巷2號","121.420878333333","24.9814483333333","6500700","樹林區"
"238025","303-VK","2018/01/13 17:39:39","新北市樹林區保安街二段221號","121.413248333333","25.0043116666667","6500700","樹林區"
"238017","283-BY","2018/01/13 17:39:38","新北市樹林區中正路639號","121.413085","25.01198","6500700","樹林區"
"238014","282-BY","2018/01/13 17:39:41","新北市樹林區保安街一段294巷22號","121.420306666667","24.9987366666667","6500700","樹林區"
"238026","172-UY","2018/01/13 17:39:41","新北市樹林區新興街19巷36弄5號","121.402426666667","24.9733133333333","6500700","樹林區"
"238016","169-UY","2018/01/13 17:39:42","新北市樹林區中山路一段143-1號","121.422303333333","24.9895766666667","6500700","樹林區"
"239007","AAC-297","2018/01/13 17:39:45","新北市鶯歌區國光街72號","121.341453333333","24.958055","6500800","鶯歌區"
"239006","891-R6","2018/01/13 17:39:41","新北市鶯歌區永和街56巷11號","121.333731666667","24.9677183333333","6500800","鶯歌區"
"239008","527-UM","2018/01/13 17:39:36","新北市鶯歌區大湖路700巷24號","121.333461666667","24.9768816666667","6500800","鶯歌區"
"239005","526-UM","2018/01/13 17:39:46","新北市鶯歌區福隆二街1號","121.325455","24.9721333333333","6500800","鶯歌區"
"239001","417-VK","2018/01/13 17:39:47","新北市鶯歌區中正三路234-6號","121.33046","24.93698","6500800","鶯歌區"
"239003","360-BY","2018/01/13 17:39:40","新北市鶯歌區鶯桃路204號","121.337346666667","24.9590933333333","6500800","鶯歌區"
"239002","359-BY","2018/01/13 17:39:42","新北市鶯歌區育智路86號","121.345116666667","24.954595","6500800","鶯歌區"
"239004","193-VK","2018/01/13 17:39:39","新北市三峽區隆恩街250號","121.356983333333","24.94073","6500800","鶯歌區"
"221010","269-BY","2018/01/13 17:39:54","新北市汐止區汐萬路一段418巷46號","121.651155","25.0790383333333","6501100","汐止區"
"221023","279-VK","2018/01/13 17:39:48","新北市汐止區康寧街901號","121.651676666667","25.074895","6501100","汐止區"
"221032","280-BY","2018/01/13 17:39:47","新北市汐止區樟樹二路351號","121.643068333333","25.073775","6501100","汐止區"
"221021","299-VK","2018/01/13 17:39:46","新北市汐止區康寧街901號","121.651461666667","25.0750033333333","6501100","汐止區"
"221008","358-BY","2018/01/13 17:39:52","新北市汐止區康寧街901號","121.651376666667","25.075045","6501100","汐止區"
"221015","567-BX","2018/01/13 17:39:40","新北市汐止區汐萬路一段256巷3號","121.652446666667","25.0746433333333","6501100","汐止區"
"221033","647-BX","2018/01/13 17:39:40","新北市汐止區新台五路一段131號","121.652255","25.0619616666667","6501100","汐止區"
