"lineid","car","time","location","longitude","latitude","cityid","cityname"
"234026","9371-KE","2018/01/13 17:49:47","新北市永和區和平街109巷6號","121.510735","25.00976","6500400","永和區"
"249005","172-UM","2018/01/13 17:49:52","新北市八里區荖阡坑路26-2號","121.400155","25.1384833333333","6502300","八里區"
"249001","173-UM","2018/01/13 17:49:42","新北市八里區龍米路二段125巷25號","121.446133333333","25.145835","6502300","八里區"
"249004","303-UY","2018/01/13 17:49:41","新北市八里區中華路一段81巷22號","121.419545","25.1555166666667","6502300","八里區"
"249002","305-UY","2018/01/13 17:49:44","新北市八里區龍形五街37巷3-1號","121.448715","25.1326016666667","6502300","八里區"
"249003","593-UM","2018/01/13 17:49:45","新北市八里區中山路二段125號","121.40554","25.1518433333333","6502300","八里區"
"248016","026-BX","2018/01/13 17:49:38","新北市五股區中興路二段83巷26-6號","121.460023333333","25.0752183333333","6501500","五股區"
"248006","077-UY","2018/01/13 17:49:43","新北市五股區中興路二段37巷28號","121.460088333333","25.0748683333333","6501500","五股區"
"248008","095-VK","2018/01/13 17:49:36","新北市五股區中興路二段37巷28號","121.460155","25.0748916666667","6501500","五股區"
"232011","375-UM","2018/01/13 17:49:41","新北市坪林區北宜路八段29號","121.703573333333","24.9359416666667","6502000","坪林區"
"244013","069-UM","2018/01/13 17:49:34","新北市林口區中正路499號","121.383448333333","25.077705","6501700","林口區"
"244007","080-UY","2018/01/13 17:49:36","新北市林口區竹林路153號","121.388688333333","25.07982","6501700","林口區"
"244019","402-UM","2018/01/13 17:49:45","新北市林口區公園路176號","121.372903333333","25.072415","6501700","林口區"
"244025","742-UY","2018/01/13 17:49:36","新北市林口區忠孝三路42號","121.360175","25.0700133333333","6501700","林口區"
"244023","483-VK","2018/01/13 17:49:35","新北市林口區東湖路12巷40號","121.388905","25.0750483333333","6501700","林口區"
"244017","485-VK","2018/01/13 17:49:40","新北市林口區文化二路一段260巷1-1號","121.371203333333","25.0733683333333","6501700","林口區"
"244011","656-BX","2018/01/13 17:49:55","新北市林口區佳林路168號","121.383555","25.076545","6501700","林口區"
"244009","837-TS","2018/01/13 17:49:49","新北市林口區寶林路93號","121.384331666667","25.0850183333333","6501700","林口區"
"244021","838-TS","2018/01/13 17:49:51","新北市林口區仁愛路一段123巷13號","121.398148333333","25.07117","6501700","林口區"
"222003","436-BY","2018/01/13 17:49:51","新北市深坑區阿柔洋60-1號","121.608621666667","24.9985216666667","6501800","深坑區"
"222002","659-BX","2018/01/13 17:49:42","新北市深坑區平埔街22巷17弄1號","121.61485","25.0008383333333","6501800","深坑區"
"231046","278-BY","2018/01/13 17:49:48","新北市新店區下石厝路1號","121.531165","24.9298116666667","6500600","新店區"
"241024","065-VK","2018/01/13 17:49:52","新北市三重區國道路一段50號","121.482346666667","25.0729416666667","6500200","三重區"
"241016","266-UM","2018/01/13 17:49:44","新北市三重區新北大道一段7號","121.489623333333","25.0613816666667","6500200","三重區"
"241033","AAC-255","2018/01/13 17:49:45","新北市三重區重新路五段543號","121.470806666667","25.0461016666667","6500200","三重區"
"235064","005-UY","2018/01/13 17:49:47","新北市中和區員山路36巷16-3號","121.485151666667","24.991285","6500300","中和區"
"235065","098-UM","2018/01/13 17:49:46","新北市中和區員山路36巷16-3號","121.485108333333","24.99122","6500300","中和區"
"235060","647-TV","2018/01/13 17:49:43","新北市中和區員山路36巷16-3號","121.484601666667","24.9914516666667","6500300","中和區"
"235062","800-TS","2018/01/13 17:49:49","新北市中和區員山路36巷16-3號","121.484838333333","24.9916166666667","6500300","中和區"
"247022","893-R6","2018/01/13 17:49:48","新北市蘆洲區中正路381號","121.464345","25.09125","6501400","蘆洲區"
"247012","546-UM","2018/01/13 17:49:49","新北市蘆洲區復興路60巷1弄1號","121.474753333333","25.08608","6501400","蘆洲區"
"247020","500-BY","2018/01/13 17:49:37","新北市蘆洲區民義街71巷22號","121.472695","25.0907333333333","6501400","蘆洲區"
"247008","341-TH","2018/01/13 17:49:45","新北市蘆洲區中山一路262號","121.471991666667","25.0797416666667","6501400","蘆洲區"
"247010","339-TH","2018/01/13 17:49:49","新北市蘆洲區民族路31號","121.477501666667","25.0849016666667","6501400","蘆洲區"
"247004","336-TH","2018/01/13 17:49:52","新北市蘆洲區長安街194巷3號","121.459085","25.08407","6501400","蘆洲區"
"247016","057-VK","2018/01/13 17:49:37","新北市蘆洲區中正路185巷25弄25號","121.46744","25.0838116666667","6501400","蘆洲區"
"247006","056-VK","2018/01/13 17:49:41","新北市蘆洲區長安街22巷37號","121.46494","25.0801833333333","6501400","蘆洲區"
"247002","053-VK","2018/01/13 17:49:42","新北市蘆洲區環堤大道224號","121.458203333333","25.0926933333333","6501400","蘆洲區"
"247014","007-UY","2018/01/13 17:49:47","新北市蘆洲區保和街71號","121.46943","25.0861383333333","6501400","蘆洲區"
"247024","002-UY","2018/01/13 17:49:37","新北市蘆洲區長樂路120巷2號","121.462275","25.0897433333333","6501400","蘆洲區"
"247018","001-UY","2018/01/13 17:49:39","新北市蘆洲區復興路227巷2弄2號","121.479943333333","25.0900416666667","6501400","蘆洲區"
"228003","097-TW","2018/01/13 17:49:54","新北市貢寮區真理里美艷山街6-2號","121.928818333333","25.060765","6502600","貢寮區"
"228001","212-TW","2018/01/13 17:49:45","新北市貢寮區仁理村仁愛路95-1號","121.927685","25.0554333333333","6502600","貢寮區"
"228002","585-TW","2018/01/13 17:49:38","新北市貢寮區福隆里龜壽谷街13號","121.956413333333","25.006035","6502600","貢寮區"
"224006","676-BX","2018/01/13 17:49:36","新北市瑞芳區傑魚坑路183號","121.788433333333","25.1082783333333","6501200","瑞芳區"
"224002","639-TC","2018/01/13 17:49:35","新北市瑞芳區民權街3-1號","121.809416666667","25.108135","6501200","瑞芳區"
"224009","285-BY","2018/01/13 17:49:40","新北市瑞芳區新山路183號","121.851065","25.10885","6501200","瑞芳區"
"224008","275-VK","2018/01/13 17:49:55","新北市瑞芳區明燈路一段15號","121.823921666667","25.1074616666667","6501200","瑞芳區"
"224005","271-BY","2018/01/13 17:49:47","新北市瑞芳區建基路一段64號","121.816763333333","25.1277033333333","6501200","瑞芳區"
"253006","295-VK","2018/01/13 17:49:37","新北市石門區中央路6號","121.566563333333","25.2913633333333","6502200","石門區"
"208002","742-BX","2018/01/13 17:49:37","新北市金山區磺清路135號","121.639518333333","25.2277766666667","6502700","金山區"
"208003","665-BX","2018/01/13 17:49:44","新北市金山區磺清路135號","121.639341666667","25.2275366666667","6502700","金山區"
"208001","761-BX","2018/01/13 17:49:44","新北市金山區磺清路135號","121.639325","25.227675","6502700","金山區"
"251009","008-UM","2018/01/13 17:49:50","新北市淡水區長興街29號","121.443925","25.1710883333333","6501000","淡水區"
"251004","009-UM","2018/01/13 17:49:47","新北市淡水區民權一街46號","121.45911","25.1362133333333","6501000","淡水區"
"251001","011-UM","2018/01/13 17:49:36","新北市淡水區民權路92巷35-1號","121.462225","25.1266333333333","6501000","淡水區"
"251013","179-VK","2018/01/13 17:49:48","新北市淡水區泉洲厝31號","121.479618333333","25.1910316666667","6501000","淡水區"
"251014","180-VK","2018/01/13 17:49:50","新北市淡水區公埔子16-6號","121.481018333333","25.22458","6501000","淡水區"
"251008","181-VK","2018/01/13 17:49:38","新北市淡水區八勢路一段147號","121.46749","25.1573133333333","6501000","淡水區"
"251015","182-VK","2018/01/13 17:49:03","新北市淡水區興福寮3-1號","121.491525","25.16574","6501000","淡水區"
"251010","413-VK","2018/01/13 17:49:40","新北市淡水區淡海路189巷25-2號","121.418518333333","25.1844333333333","6501000","淡水區"
"251012","441-VK","2018/01/13 17:49:43","新北市淡水區北新路二段13號","121.47613","25.1856416666667","6501000","淡水區"
"251016","442-VK","2018/01/13 17:49:37","新北市淡水區埤島39-15號","121.452746666667","25.1959033333333","6501000","淡水區"
"251005","443-VK","2018/01/13 17:49:53","新北市淡水區學府路102巷16號","121.451006666667","25.1718433333333","6501000","淡水區"
"251006","561-UM","2018/01/13 17:49:54","新北市淡水區大信街1巷25號","121.440196666667","25.17674","6501000","淡水區"
"251007","577-R6","2018/01/13 17:49:53","新北市淡水區民族路29巷19號","121.461776666667","25.1372916666667","6501000","淡水區"
"251011","650-BX","2018/01/13 17:49:09","新北市淡水區吳(仔)厝38號","121.479553333333","25.1495933333333","6501000","淡水區"
"251002","672-BX","2018/01/13 17:49:40","新北市淡水區中山路60號","121.4439","25.170475","6501000","淡水區"
"251003","673-BX","2018/01/13 17:49:53","新北市淡水區大忠街33號","121.444203333333","25.176235","6501000","淡水區"
"207003","550-UM","2018/01/13 17:49:38","新北市萬里區野柳里東澳路66號","121.692691666667","25.2009183333333","6502800","萬里區"
"207004","225-TW","2018/01/13 17:49:44","新北市萬里區萬里里瑪鋉頂街61號","121.688408333333","25.1804966666667","6502800","萬里區"
"252002","178-VK","2018/01/13 17:49:45","新北市三芝區中山路一段86號","121.502346666667","25.2566183333333","6502100","三芝區"
"252001","292-VK","2018/01/13 17:49:47","新北市三芝區淡金路一段30號","121.5002","25.25931","6502100","三芝區"
"237004","078-UY","2018/01/13 17:49:32","新北市三峽區仁愛街11號","121.3685","24.933795","6500900","三峽區"
"237009","210-TH","2018/01/13 17:49:44","新北市三峽區大勇路21號","121.367168333333","24.9365616666667","6500900","三峽區"
"237013","252-BX","2018/01/13 17:49:52","新北市三峽區安溪路309巷11號","121.373501666667","24.9332966666667","6500900","三峽區"
"237012","275-BY","2018/01/13 17:49:39","新北市三峽區文化路164號","121.369928333333","24.9361083333333","6500900","三峽區"
"237008","302-VK","2018/01/13 17:49:51","新北市三峽區中正路二段31號","121.366863333333","24.9190716666667","6500900","三峽區"
"237014","433-BY","2018/01/13 17:49:53","新北市三峽區文化路117號","121.370228333333","24.93613","6500900","三峽區"
"237006","5529-G3","2018/01/13 17:49:43","新北市三峽區介壽路二段38巷8號","121.391373333333","24.93507","6500900","三峽區"
"237016","649-BX","2018/01/13 17:49:50","新北市三峽區白雞129-1號","121.397815","24.9063933333333","6500900","三峽區"
"237010","706-TV","2018/01/13 17:49:34","新北市三峽區文化路149號","121.368423333333","24.93593","6500900","三峽區"
"237005","AKY-6261","2018/01/13 17:49:35","新北市三峽區中山路459巷90-1號","121.355006666667","24.936245","6500900","三峽區"
"236073","105-UM","2018/01/13 17:49:39","新北市土城區青雲路322巷28號","121.457476666667","24.9745816666667","6501300","土城區"
"236043","107-UM","2018/01/13 17:49:36","新北市土城區城林路6巷80號","121.438591666667","24.9797416666667","6501300","土城區"
"236079","166-UM","2018/01/13 17:47:36","新北市土城區中華路二段198號","121.437566666667","24.9700516666667","6501300","土城區"
"236031","253-BX","2018/01/13 17:49:33","新北市土城區城林路6巷80號","121.43846","24.979785","6501300","土城區"
"236027","269-VK","2018/01/13 17:49:53","新北市土城區中華路二段2號","121.439518333333","24.9795383333333","6501300","土城區"
"236015","270-VK","2018/01/13 17:49:50","新北市土城區城林路6巷80號","121.438541666667","24.9795683333333","6501300","土城區"
"236038","271-VK","2018/01/13 17:49:42","新北市土城區城林路6巷80號","121.43839","24.9797483333333","6501300","土城區"
"236059","912-UM","2018/01/13 17:49:36","新北市土城區城林路6巷80號","121.438671666667","24.9796683333333","6501300","土城區"
"236049","913-UM","2018/01/13 17:49:39","新北市土城區城林路6巷80號","121.438473333333","24.9795566666667","6501300","土城區"
"236063","915-UM","2018/01/13 17:49:40","新北市土城區城林路6巷80號","121.438616666667","24.97975","6501300","土城區"
"236055","AAC-216","2018/01/13 17:49:33","新北市土城區城林路6巷80號","121.438553333333","24.9796883333333","6501300","土城區"
"242031","AAC-296","2018/01/13 17:49:50","新北市新莊區新泰路321巷27號","121.44347","25.0410783333333","6500500","新莊區"
"242029","986-R7","2018/01/13 17:49:45","新北市新莊區復興路一段101號","121.448965","25.0429","6500500","新莊區"
"242051","751-BX","2018/01/13 17:49:52","新北市新莊區西盛街245巷19號","121.428866666667","25.0161566666667","6500500","新莊區"
"242025","615-BX","2018/01/13 17:49:40","新北市三重區光復路二段170號","121.47184","25.061265","6500500","新莊區"
"242023","613-BX","2018/01/13 17:49:51","新北市新莊區福樂街38號","121.45784","25.0456183333333","6500500","新莊區"
"242027","612-BX","2018/01/13 17:49:38","新北市新莊區福壽街155號","121.45803","25.0534083333333","6500500","新莊區"
"242039","566-BX","2018/01/13 17:49:47","新北市新莊區民安路145號","121.425338333333","25.02385","6500500","新莊區"
"242044","442-UM","2018/01/13 17:49:35","新北市新莊區雙鳳路25號","121.416681666667","25.0269683333333","6500500","新莊區"
"242048","441-UM","2018/01/13 17:49:51","新北市新莊區萬安街102巷5號","121.420126666667","25.0223133333333","6500500","新莊區"
"242053","440-UM","2018/01/13 17:49:51","新北市新莊區民安西路468號","121.431611666667","25.007985","6500500","新莊區"
"242034","415-TV","2018/01/13 17:49:38","新北市新莊區新莊路682號","121.441123333333","25.032725","6500500","新莊區"
"242004","413-TV","2018/01/13 17:49:46","新北市新莊區思源路177巷5弄4號","121.459166666667","25.04506","6500500","新莊區"
"242042","400-BY","2018/01/13 17:49:51","新北市泰山區新北大道六段369號","121.422428333333","25.0327716666667","6500500","新莊區"
"242061","362-BY","2018/01/13 17:49:40","新北市新莊區新樹路541號","121.432875","25.0082083333333","6500500","新莊區"
"242058","353-BY","2018/01/13 17:49:51","新北市新莊區中正路730號","121.414965","25.0237","6500500","新莊區"
"242007","132-UY","2018/01/13 17:49:48","新北市新莊區福樂街108巷15號","121.457743333333","25.04825","6500500","新莊區"
"242036","133-UY","2018/01/13 17:49:52","新北市新莊區後港一路92號","121.427565","25.0267166666667","6500500","新莊區"
"242021","135-UY","2018/01/13 17:49:47","新北市新莊區復興路一段212號","121.452898333333","25.04376","6500500","新莊區"
"242046","172-VK","2018/01/13 17:49:33","新北市新莊區建國一路35號","121.434171666667","25.0310566666667","6500500","新莊區"
"242015","175-VK","2018/01/13 17:49:35","新北市新莊區新泰路488號","121.442681666667","25.0458583333333","6500500","新莊區"
"242002","176-VK","2018/01/13 17:49:48","新北市新莊區景德路103號","121.45167","25.03451","6500500","新莊區"
"242013","346-TH","2018/01/13 17:49:53","新北市新莊區中誠街164號","121.44816","25.0473816666667","6500500","新莊區"
"242019","348-TH","2018/01/13 17:49:48","新北市新莊區復興路二段31號","121.454218333333","25.0441216666667","6500500","新莊區"
"242056","349-TH","2018/01/13 17:49:34","新北市新莊區瓊林路38巷23號","121.447208333333","25.0304316666667","6500500","新莊區"
"242017","350-TH","2018/01/13 17:49:52","新北市新莊區永安街38號","121.451653333333","25.0447833333333","6500500","新莊區"
"242011","351-TH","2018/01/13 17:49:53","新北市新莊區中港路695號","121.450685","25.0567966666667","6500500","新莊區"
"238015","755-BX","2018/01/13 17:49:43","新北市樹林區樹德街136巷33號","121.419965","24.994185","6500700","樹林區"
"238023","601-UM","2018/01/13 17:49:54","新北市樹林區龍興街13巷38號","121.403935","25.0166133333333","6500700","樹林區"
"238019","599-UM","2018/01/13 17:49:36","新北市樹林區太平路225巷2號","121.4185","24.9770483333333","6500700","樹林區"
"238018","571-TV","2018/01/13 17:49:48","新北市樹林區博愛街92號","121.4269","24.9918116666667","6500700","樹林區"
"238021","KEA-2217","2018/01/13 17:49:48","新北市樹林區柑園街一段171號","121.399743333333","24.957245","6500700","樹林區"
"238022","KEA-2213","2018/01/13 17:49:43","新北市樹林區太順街52號","121.418185","24.9793566666667","6500700","樹林區"
"238025","303-VK","2018/01/13 17:49:39","新北市樹林區三俊街56號","121.412801666667","25.0156266666667","6500700","樹林區"
"238017","283-BY","2018/01/13 17:49:38","新北市樹林區俊德街51號","121.415431666667","25.01324","6500700","樹林區"
"238014","282-BY","2018/01/13 17:49:41","新北市樹林區保安街一段293號","121.41795","24.9971716666667","6500700","樹林區"
"238026","172-UY","2018/01/13 17:49:41","新北市樹林區八德街500號","121.399813333333","24.9703933333333","6500700","樹林區"
"238016","169-UY","2018/01/13 17:49:42","新北市樹林區啟智街129-10號","121.417645","24.9887866666667","6500700","樹林區"
"239007","AAC-297","2018/01/13 17:49:49","新北市鶯歌區鶯桃路永富巷11號","121.338988333333","24.9546983333333","6500800","鶯歌區"
"239006","891-R6","2018/01/13 17:49:41","新北市鶯歌區鶯桃路413巷36號","121.330868333333","24.9634933333333","6500800","鶯歌區"
"239008","527-UM","2018/01/13 17:49:36","新北市鶯歌區香賓街29巷1號","121.337738333333","24.9795983333333","6500800","鶯歌區"
"239005","526-UM","2018/01/13 17:49:46","新北市鶯歌區鳳吉五街16號","121.326911666667","24.9723716666667","6500800","鶯歌區"
"239001","417-VK","2018/01/13 17:49:49","新北市鶯歌區中正三路472號","121.320915","24.9340166666667","6500800","鶯歌區"
"239003","360-BY","2018/01/13 17:49:40","新北市鶯歌區永吉街45號","121.335558333333","24.957165","6500800","鶯歌區"
"239002","359-BY","2018/01/13 17:49:50","新北市鶯歌區國華路99號","121.343046666667","24.9539516666667","6500800","鶯歌區"
"239004","193-VK","2018/01/13 17:49:39","新北市鶯歌區尖山路32號","121.351465","24.950355","6500800","鶯歌區"
"221036","130-UY","2018/01/13 17:49:35","新北市汐止區汐萬路一段135號","121.653673333333","25.0709833333333","6501100","汐止區"
"221010","269-BY","2018/01/13 17:49:47","新北市汐止區汐萬路二段66巷3弄18號","121.648941666667","25.0825483333333","6501100","汐止區"
"221012","278-VK","2018/01/13 17:49:53","新北市汐止區汐萬路一段160號","121.652571666667","25.0715016666667","6501100","汐止區"
"221023","279-VK","2018/01/13 17:49:48","新北市汐止區民族二街36號","121.634875","25.0705083333333","6501100","汐止區"
"221032","280-BY","2018/01/13 17:49:47","新北市汐止區民權街一段16號","121.621168333333","25.05303","6501100","汐止區"
"221027","281-BY","2018/01/13 17:49:52","新北市汐止區汐萬路一段265巷2號","121.65066","25.07418","6501100","汐止區"
"221029","298-VK","2018/01/13 17:49:37","新北市汐止區康寧街901號","121.651418333333","25.0749883333333","6501100","汐止區"
"221021","299-VK","2018/01/13 17:49:46","新北市汐止區水源路一段18號","121.657158333333","25.06657","6501100","汐止區"
"221008","358-BY","2018/01/13 17:49:32","新北市汐止區康寧街901號","121.651368333333","25.0750566666667","6501100","汐止區"
"221015","567-BX","2018/01/13 17:49:40","新北市汐止區汐萬路一段191號","121.652441666667","25.0716316666667","6501100","汐止區"
"221035","622-UM","2018/01/13 17:49:32","新北市汐止區汐萬路一段211巷13號","121.651886666667","25.0719483333333","6501100","汐止區"
"221025","623-UM","2018/01/13 17:49:53","新北市汐止區新台五路一段131號","121.652253333333","25.0620933333333","6501100","汐止區"
"221038","646-BX","2018/01/13 17:49:36","新北市汐止區汐萬路一段204號","121.652135","25.0722316666667","6501100","汐止區"
"221033","647-BX","2018/01/13 17:49:40","新北市汐止區林森街78號","121.623795","25.04053","6501100","汐止區"
"221018","753-BX","2018/01/13 17:49:47","新北市汐止區汐萬路一段18號","121.656025","25.0675116666667","6501100","汐止區"
