"lineid","car","time","location","longitude","latitude","cityid","cityname"
"234007","207-UY","2018/01/13 18:29:49","新北市永和區環河西路二段229巷1號","121.501443333333","25.0099966666667","6500400","永和區"
"234081","298-R6","2018/01/13 18:29:48","新北市永和區林森路46巷1號","121.524993333333","25.0047666666667","6500400","永和區"
"234086","338-UY","2018/01/13 18:29:32","新北市永和區福和路10巷1號","121.524523333333","25.0086783333333","6500400","永和區"
"234017","745-BX","2018/01/13 18:29:42","新北市永和區福和路1號","121.526411666667","25.0097816666667","6500400","永和區"
"234042","838-RS","2018/01/13 18:29:36","新北市永和區福和路8巷1號","121.52503","25.009045","6500400","永和區"
"234026","9371-KE","2018/01/13 18:29:47","新北市永和區中山路一段98-2號","121.51162","25.0107933333333","6500400","永和區"
"234011","9373-KE","2018/01/13 18:29:43","新北市永和區保安路69號","121.509008333333","25.01533","6500400","永和區"
"249005","172-UM","2018/01/13 18:29:52","新北市八里區中華路三段145巷5號","121.391676666667","25.1339916666667","6502300","八里區"
"249001","173-UM","2018/01/13 18:29:42","新北市八里區龍米路一段160號","121.45276","25.125965","6502300","八里區"
"249004","303-UY","2018/01/13 18:29:41","新北市八里區忠孝路51號","121.428231666667","25.1602683333333","6502300","八里區"
"249002","305-UY","2018/01/13 18:29:44","新北市八里區龍形三街17號","121.449081666667","25.131615","6502300","八里區"
"248016","026-BX","2018/01/13 18:29:37","新北市五股區凌雲路一段133巷13號","121.449268333333","25.101595","6501500","五股區"
"248006","077-UY","2018/01/13 18:29:43","新北市五股區四維路38號","121.467293333333","25.0715916666667","6501500","五股區"
"248008","095-VK","2018/01/13 18:29:36","新北市五股區四維路185巷42弄1號","121.463613333333","25.0768533333333","6501500","五股區"
"248020","225-UY","2018/01/13 18:29:39","新北市五股區天乙路114號","121.44695","25.113365","6501500","五股區"
"248012","247-BX","2018/01/13 18:29:43","新北市五股區御成路145號","121.440868333333","25.09438","6501500","五股區"
"248014","261-SL","2018/01/13 18:29:50","新北市五股區明德路7巷16號","121.43471","25.0708683333333","6501500","五股區"
"248004","677-BX","2018/01/13 18:29:38","新北市五股區工商路150號","121.433203333333","25.08742","6501500","五股區"
"248002","678-BX","2018/01/13 18:24:53","新北市五股區西雲路117號","121.44401","25.093025","6501500","五股區"
"248010","682-TV","2018/01/13 18:29:35","新北市五股區明德路8號","121.433325","25.0716616666667","6501500","五股區"
"234077","969-R7","2018/01/13 18:29:53","新北市永和區中正路562號","121.517146666667","25.0059816666667","6500400","永和區"
"232011","375-UM","2018/01/13 18:19:13","新北市坪林區坪雙路一段43號","121.711691666667","24.9424516666667","6502000","坪林區"
"244013","069-UM","2018/01/13 18:29:54","新北市林口區中山路260號","121.384965","25.0798433333333","6501700","林口區"
"244007","080-UY","2018/01/13 18:29:36","新北市林口區湖北里61-7號","121.381905","25.1087566666667","6501700","林口區"
"244019","402-UM","2018/01/13 18:29:45","新北市林口區忠孝路561巷2號","121.372961666667","25.0685216666667","6501700","林口區"
"244025","742-UY","2018/01/13 18:29:36","新北市林口區南勢四街324號","121.357373333333","25.0760433333333","6501700","林口區"
"244023","483-VK","2018/01/13 18:29:35","新北市林口區仁愛路二段62巷49號","121.383565","25.07604","6501700","林口區"
"244017","485-VK","2018/01/13 18:29:40","新北市林口區文化二路一段86號","121.366313333333","25.0695883333333","6501700","林口區"
"244011","656-BX","2018/01/13 18:29:34","新北市林口區中正路144號","121.392736666667","25.0774066666667","6501700","林口區"
"244009","837-TS","2018/01/13 18:29:49","新北市林口區民生路142號","121.379141666667","25.08805","6501700","林口區"
"244021","838-TS","2018/01/13 18:29:51","新北市林口區自強四街11號","121.399223333333","25.076625","6501700","林口區"
"243012","AAD-798","2018/01/13 18:29:52","新北市泰山區忠孝街19巷1弄2號","121.427515","25.065735","6501600","泰山區"
"243013","646-TV","2018/01/13 18:29:34","新北市泰山區明志路三段206巷1號","121.423303333333","25.037895","6501600","泰山區"
"222003","436-BY","2018/01/13 18:29:51","新北市深坑區翠谷街8巷10號","121.627355","25.00755","6501800","深坑區"
"222002","659-BX","2018/01/13 18:29:42","新北市深坑區雲鄉路133號","121.622735","24.9980566666667","6501800","深坑區"
"231066","0293-UT","2018/01/13 18:29:46","新北市新店區安華路1-1號","121.51944","24.960505","6500600","新店區"
"231059","046-UY","2018/01/13 18:29:41","新北市新店區安華路28-1號","121.519505","24.960765","6500600","新店區"
"231061","047-UY","2018/01/13 18:29:39","新北市新店區安華路28-1號","121.519288333333","24.9609266666667","6500600","新店區"
"231060","106-UY","2018/01/13 18:29:35","新北市新店區安華路28-1號","121.519551666667","24.9609283333333","6500600","新店區"
"231051","107-UY","2018/01/13 18:29:49","新北市新店區安華路28-1號","121.519665","24.9614833333333","6500600","新店區"
"231048","108-UY","2018/01/13 18:29:53","新北市新店區安華路28-1號","121.519431666667","24.961235","6500600","新店區"
"231052","187-VK","2018/01/13 18:29:38","新北市新店區新烏路一段50-2號","121.545733333333","24.9492216666667","6500600","新店區"
"231057","256-BX","2018/01/13 18:29:49","新北市新店區光明街1-1號","121.538013333333","24.959145","6500600","新店區"
"231046","278-BY","2018/01/13 18:29:47","新北市新店區直潭七街60號","121.532253333333","24.939815","6500600","新店區"
"231054","AAD-862","2018/01/13 18:29:48","新北市新店區安華路28-1號","121.51967","24.9611283333333","6500600","新店區"
"231058","3712-VJ","2018/01/13 18:29:53","新北市新店區新店後街40號","121.537863333333","24.9536416666667","6500600","新店區"
"231056","3713-VJ","2018/01/13 18:29:51","新北市新店區二十張路105巷11號","121.536851666667","24.9792833333333","6500600","新店區"
"231055","4716-K9","2018/01/13 18:29:48","新北市新店區北新路二段29巷1弄5號","121.5421","24.9722433333333","6500600","新店區"
"231067","4772-VM","2018/01/13 18:29:42","新北市新店區安康路二段362號","121.501813333333","24.9573883333333","6500600","新店區"
"231065","512-UM","2018/01/13 18:29:44","新北市新店區安華路28-1號","121.51913","24.9612633333333","6500600","新店區"
"231064","515-UM","2018/01/13 18:29:50","新北市新店區安華路28-1號","121.519576666667","24.961175","6500600","新店區"
"231045","617-UM","2018/01/13 18:21:09","新北市新店區安華路28-1號","121.51935","24.96085","6500600","新店區"
"231040","619-UM","2018/01/13 18:29:42","新北市新店區安華路28-1號","121.519641666667","24.9606616666667","6500600","新店區"
"231042","641-BX","2018/01/13 18:29:32","新北市新店區安華路1-1號","121.519541666667","24.9604733333333","6500600","新店區"
"231063","645-TV","2018/01/13 18:29:51","新北市新店區安華路28-1號","121.519273333333","24.9606433333333","6500600","新店區"
"231049","719-UM","2018/01/13 18:29:44","新北市新店區安華路28-1號","121.519516666667","24.9611916666667","6500600","新店區"
"231062","720-UM","2018/01/13 18:29:35","新北市新店區安華路28-1號","121.519316666667","24.961305","6500600","新店區"
"231044","897-TW","2018/01/13 18:29:38","新北市新店區安華路28-1號","121.519503333333","24.9607883333333","6500600","新店區"
"231043","899-TW","2018/01/13 18:29:48","新北市新店區安華路28-1號","121.519161666667","24.9608416666667","6500600","新店區"
"235066","003-UY","2018/01/13 18:29:38","新北市中和區中山路二段120號","121.502816666667","25.0037266666667","6500300","中和區"
"235064","005-UY","2018/01/13 18:29:47","新北市中和區連城路139巷54號","121.49671","24.9973633333333","6500300","中和區"
"235063","006-UY","2018/01/13 18:29:49","新北市中和區連城路347巷16弄29號","121.487465","24.9950466666667","6500300","中和區"
"235046","031-BX","2018/01/13 18:29:44","新北市中和區中正路169號","121.497991666667","24.9937483333333","6500300","中和區"
"235056","096-UM","2018/01/13 18:29:33","新北市中和區員山路611巷1號","121.477856666667","25.0112466666667","6500300","中和區"
"235039","097-UM","2018/01/13 18:29:46","新北市中和區景安路72號","121.505773333333","24.9965416666667","6500300","中和區"
"235065","098-UM","2018/01/13 18:29:46","新北市中和區莊敬路49巷8號","121.501485","25.0057483333333","6500300","中和區"
"235040","150-BY","2018/01/13 18:29:41","新北市中和區安平路38號","121.509838333333","24.9949066666667","6500300","中和區"
"235058","151-BY","2018/01/13 18:29:43","新北市中和區圓通路369巷30弄2號","121.48868","24.98403","6500300","中和區"
"235055","183-VK","2018/01/13 18:29:48","新北市中和區中山路三段200號","121.47185","25.006455","6500300","中和區"
"235038","185-VK","2018/01/13 18:29:45","新北市中和區自強路6號","121.520081666667","24.996005","6500300","中和區"
"235049","186-VK","2018/01/13 18:29:32","新北市中和區南山路231號","121.503605","24.99338","6500300","中和區"
"235067","255-BX","2018/01/13 18:29:55","新北市中和區新生街115號","121.48352","25.0018633333333","6500300","中和區"
"235044","293-VK","2018/01/13 18:29:51","新北市中和區復興路301巷31號","121.502318333333","24.9897133333333","6500300","中和區"
"235072","301-VK","2018/01/13 18:29:42","新北市中和區連城路169號","121.495546666667","24.9982283333333","6500300","中和區"
"235043","352-BY","2018/01/13 18:29:52","新北市中和區景平路283號","121.507468333333","24.99315","6500300","中和區"
"235068","377-QA","2018/01/13 18:29:53","新北市中和區圓通路268-2號","121.492451666667","24.99075","6500300","中和區"
"235025","378-QA","2018/01/13 18:29:45","新北市中和區民享街90巷2號","121.474578333333","25.0004783333333","6500300","中和區"
"235050","4979-A6","2018/01/13 18:29:52","新北市中和區景新街410巷18弄15號","121.511901666667","24.989655","6500300","中和區"
"235069","4980-A6","2018/01/13 18:29:36","新北市中和區連城路103號","121.496423333333","24.999715","6500300","中和區"
"235042","551-UM","2018/01/13 18:29:46","新北市中和區秀朗路三段150巷25號","121.523323333333","24.9910416666667","6500300","中和區"
"235070","558-UM","2018/01/13 18:29:35","新北市中和區景平路445號","121.500801666667","24.9961433333333","6500300","中和區"
"235045","565-BX","2018/01/13 18:29:51","新北市中和區南山路236巷24弄21號","121.504876666667","24.988895","6500300","中和區"
"235054","640-BX","2018/01/13 18:29:36","新北市中和區民享街87號","121.474401666667","25.0015616666667","6500300","中和區"
"235060","647-TV","2018/01/13 18:29:43","新北市中和區員山路457號","121.480481666667","25.0043016666667","6500300","中和區"
"235047","732-UM","2018/01/13 18:29:47","新北市中和區南山路300號","121.50783","24.9870983333333","6500300","中和區"
"235062","800-TS","2018/01/13 18:29:49","新北市中和區景平路726-2號","121.49667","25.0035766666667","6500300","中和區"
"235057","801-TS","2018/01/13 18:29:41","新北市中和區民享街97巷17號","121.475433333333","24.9996266666667","6500300","中和區"
"235052","805-TS","2018/01/13 18:29:46","新北市中和區興南路二段96號","121.504956666667","24.983955","6500300","中和區"
"235048","896-TW","2018/01/13 18:29:41","新北市中和區中正路79號","121.500833333333","24.993445","6500300","中和區"
"235053","900-TW","2018/01/13 18:29:46","新北市中和區連城路526-1號","121.476051666667","24.9916666666667","6500300","中和區"
"235051","157-BY","2018/01/13 18:29:42","新北市中和區興南路二段142巷25弄20號","121.502838333333","24.9840866666667","6500300","中和區"
"235037","AAC-213","2018/01/13 18:29:47","新北市中和區景德街129號","121.51485","24.9910466666667","6500300","中和區"
"220086","073-UY","2018/01/13 18:29:51","新北市板橋區板城路421號","121.448566666667","24.996045","6500100","板橋區"
"226004","312-R5","2018/01/13 18:29:49","新北市平溪區靜安路二段88巷7號","121.719678333333","25.022535","6502400","平溪區"
"235041","251-BX","2018/01/13 18:29:39","新北市中和區景安路40號","121.507031666667","24.998265","6500300","中和區"
"228003","097-TW","2018/01/13 18:29:34","新北市貢寮區和美里和美街46號","121.914891666667","25.09286","6502600","貢寮區"
"228001","212-TW","2018/01/13 18:29:45","新北市貢寮區仁理村仁和路90號","121.922798333333","25.05031","6502600","貢寮區"
"228002","585-TW","2018/01/13 18:29:38","新北市貢寮區福連里福連街15號","121.98807","25.0133866666667","6502600","貢寮區"
"224010","AGQ-8101","2018/01/13 18:26:39","新北市瑞芳區街頂巷41號","121.844598333333","25.1075183333333","6501200","瑞芳區"
"224006","676-BX","2018/01/13 18:29:36","新北市瑞芳區明燈路二段103號","121.809966666667","25.1079066666667","6501200","瑞芳區"
"224002","639-TC","2018/01/13 18:29:52","新北市瑞芳區三爪子坑路29巷25號","121.813686666667","25.1068083333333","6501200","瑞芳區"
"224009","285-BY","2018/01/13 18:29:48","新北市瑞芳區五號路18號","121.854936666667","25.1102633333333","6501200","瑞芳區"
"224008","275-VK","2018/01/13 18:29:35","新北市瑞芳區逢甲路159巷1號","121.806346666667","25.1101183333333","6501200","瑞芳區"
"224007","273-VK","2018/01/13 18:29:38","新北市瑞芳區大埔路吉慶公園城12號","121.765155","25.100155","6501200","瑞芳區"
"224005","271-BY","2018/01/13 18:29:53","新北市瑞芳區建基路一段44-6號","121.819373333333","25.1232333333333","6501200","瑞芳區"
"227010","642-TC","2018/01/13 18:29:51","新北市雙溪區牡丹里牡丹113號","121.850933333333","25.0596233333333","6502500","雙溪區"
"227002","400-TW","2018/01/13 18:29:55","新北市雙溪區魚行里新店76號","121.871953333333","25.026615","6502500","雙溪區"
"253005","032-BX","2018/01/13 18:29:49","新北市石門區老崩山10號","121.552996666667","25.29125","6502200","石門區"
"253006","295-VK","2018/01/13 18:29:37","新北市石門區公地15號","121.54562","25.2902283333333","6502200","石門區"
"222001","KEA-2212","2018/01/13 18:29:55","新北市深坑區北深路一段196號","121.633423333333","25.010795","6501800","深坑區"
"208002","742-BX","2018/01/13 18:29:36","新北市金山區民生路45號","121.642066666667","25.2210666666667","6502700","金山區"
"208003","665-BX","2018/01/13 18:29:45","新北市金山區中山路245號","121.63714","25.222","6502700","金山區"
"208001","761-BX","2018/01/13 18:29:44","新北市金山區文化二路6號","121.636803333333","25.224625","6502700","金山區"
"251004","009-UM","2018/01/13 18:09:47","新北市淡水區樟佬寮坪5號","121.471515","25.172295","6501000","淡水區"
"251001","011-UM","2018/01/13 18:29:36","新北市淡水區自強路122巷1號","121.464406666667","25.1331016666667","6501000","淡水區"
"251013","179-VK","2018/01/13 18:29:48","新北市淡水區椿子林19-5號","121.48095","25.2028183333333","6501000","淡水區"
"251014","180-VK","2018/01/13 18:29:50","新北市淡水區崙頂10號","121.493075","25.2194883333333","6501000","淡水區"
"251008","181-VK","2018/01/13 18:29:37","新北市淡水區北投子87-2號","121.468331666667","25.1785316666667","6501000","淡水區"
"251015","182-VK","2018/01/13 18:29:44","新北市淡水區興福寮88巷228號","121.486056666667","25.1665833333333","6501000","淡水區"
"251010","413-VK","2018/01/13 18:29:40","新北市淡水區沙崙路181巷1號","121.424151666667","25.1841916666667","6501000","淡水區"
"251012","441-VK","2018/01/13 18:29:43","新北市淡水區北新路一段55號","121.45575","25.1816416666667","6501000","淡水區"
"251016","442-VK","2018/01/13 18:29:37","新北市淡水區淡金路三段212號","121.448868333333","25.2045416666667","6501000","淡水區"
"251005","443-VK","2018/01/13 18:29:33","新北市淡水區中正東路3號","121.445105","25.1687366666667","6501000","淡水區"
"251006","561-UM","2018/01/13 18:29:54","新北市淡水區新生街49號","121.440531666667","25.17494","6501000","淡水區"
"251011","650-BX","2018/01/13 18:29:50","新北市淡水區中正東路一段3巷14弄1號","121.450901666667","25.1641","6501000","淡水區"
"251002","672-BX","2018/01/13 18:29:40","新北市淡水區竿蓁二街19巷15號","121.452748333333","25.164285","6501000","淡水區"
"251003","673-BX","2018/01/13 18:29:51","新北市淡水區北新路69巷26號","121.446808333333","25.1801033333333","6501000","淡水區"
"207003","550-UM","2018/01/13 18:29:45","新北市萬里區野柳里港東路72號","121.687956666667","25.204695","6502800","萬里區"
"207004","225-TW","2018/01/13 18:29:43","新北市萬里區萬里里瑪鋉路272-1號","121.688873333333","25.1808283333333","6502800","萬里區"
"252002","178-VK","2018/01/13 18:29:45","新北市三芝區中山路二段36號","121.502963333333","25.2552083333333","6502100","三芝區"
"252003","249-BX","2018/01/13 18:29:41","新北市三芝區後厝里北勢子43號","121.471888333333","25.252545","6502100","三芝區"
"252001","292-VK","2018/01/13 18:29:47","新北市三芝區中興街二段2號","121.498373333333","25.25662","6502100","三芝區"
"237004","078-UY","2018/01/13 18:29:52","新北市三峽區五寮81號","121.35952","24.8586383333333","6500900","三峽區"
"237007","153-BY","2018/01/13 18:29:48","新北市三峽區中正路三段120號","121.354881666667","24.9035133333333","6500900","三峽區"
"237009","210-TH","2018/01/13 18:29:44","新北市三峽區大同路239號","121.367","24.926325","6500900","三峽區"
"237013","252-BX","2018/01/13 18:29:52","新北市三峽區永安街9巷10號","121.377211666667","24.9299266666667","6500900","三峽區"
"237012","275-BY","2018/01/13 18:29:39","新北市三峽區三樹路110號","121.378335","24.9391816666667","6500900","三峽區"
"237008","302-VK","2018/01/13 18:29:51","新北市三峽區白雞68-231號","121.391001666667","24.9087266666667","6500900","三峽區"
"237014","433-BY","2018/01/13 18:29:41","新北市三峽區民生街119-3號","121.373643333333","24.9352866666667","6500900","三峽區"
"237006","5529-G3","2018/01/13 18:29:43","新北市三峽區溪東路371巷4弄27號","121.412908333333","24.92947","6500900","三峽區"
"237016","649-BX","2018/01/13 18:27:30","新北市三峽區竹崙路149號","121.433975","24.90783","6500900","三峽區"
"237010","706-TV","2018/01/13 18:29:34","新北市三峽區復興路451號","121.362496666667","24.9384966666667","6500900","三峽區"
"237005","AKY-6261","2018/01/13 18:29:35","新北市三峽區民族街5巷28號","121.36983","24.93214","6500900","三峽區"
"236073","105-UM","2018/01/13 18:29:39","新北市土城區永豐路255巷34號","121.475645","24.97286","6501300","土城區"
"236043","107-UM","2018/01/13 18:29:36","新北市土城區學成路99巷11號","121.449938333333","24.9884283333333","6501300","土城區"
"236031","253-BX","2018/01/13 18:29:33","新北市土城區水源街93巷3號","121.439403333333","24.9761283333333","6501300","土城區"
"236027","269-VK","2018/01/13 18:29:53","新北市土城區南天母路137-2號","121.447606666667","24.954055","6501300","土城區"
"236015","270-VK","2018/01/13 18:29:50","新北市土城區青雲路39巷7號","121.460296666667","24.9874266666667","6501300","土城區"
"236038","271-VK","2018/01/13 18:29:42","新北市土城區青雲路451巷1號","121.45905","24.9746733333333","6501300","土城區"
"236023","401-BY","2018/01/13 18:29:45","新北市土城區永豐路202巷7號","121.46629","24.9832533333333","6501300","土城區"
"236059","912-UM","2018/01/13 18:29:36","新北市土城區中央路四段323號","121.410365","24.950915","6501300","土城區"
"236049","913-UM","2018/01/13 18:29:39","新北市土城區青雲路469號","121.458701666667","24.9741333333333","6501300","土城區"
"236063","915-UM","2018/01/13 18:29:51","新北市土城區延壽路75巷21弄1號","121.468755","24.9922383333333","6501300","土城區"
"236055","AAC-216","2018/01/13 18:29:53","新北市土城區中華路二段1號","121.439535","24.9788566666667","6501300","土城區"
"242031","AAC-296","2018/01/13 18:29:51","新北市新莊區新泰路277巷43弄17號","121.443938333333","25.039795","6500500","新莊區"
"242029","986-R7","2018/01/13 18:29:45","新北市新莊區幸福路858號","121.44381","25.0490733333333","6500500","新莊區"
"242051","751-BX","2018/01/13 18:29:51","新北市新莊區新樹路301號","121.433561666667","25.01959","6500500","新莊區"
"242044","442-UM","2018/01/13 18:29:53","新北市新莊區中正路新生巷9號","121.417193333333","25.024055","6500500","新莊區"
"242053","440-UM","2018/01/13 18:29:51","新北市新莊區樹新路120巷49弄2號","121.430248333333","24.9957633333333","6500500","新莊區"
"242042","400-BY","2018/01/13 18:29:51","新北市新莊區天祥街72巷11號","121.416248333333","25.0299283333333","6500500","新莊區"
"242061","362-BY","2018/01/13 18:29:35","新北市新莊區民安東路187號","121.433175","25.0204316666667","6500500","新莊區"
"242058","353-BY","2018/01/13 18:29:49","桃園市龜山區萬壽路一段93號","121.409073333333","25.0194083333333","6500500","新莊區"
"242021","135-UY","2018/01/13 18:29:47","新北市新莊區中正路281號","121.449046666667","25.03543","6500500","新莊區"
"242046","172-VK","2018/01/13 18:29:36","新北市新莊區中正路803巷45號","121.422185","25.0279033333333","6500500","新莊區"
"242015","175-VK","2018/01/13 18:29:55","新北市新莊區中平路92巷2號","121.444828333333","25.0454283333333","6500500","新莊區"
"242056","349-TH","2018/01/13 18:29:34","新北市新莊區瓊林路13-3號","121.44883","25.030945","6500500","新莊區"
"242011","351-TH","2018/01/13 18:29:53","新北市泰山區信華六街23號","121.441971666667","25.044495","6500500","新莊區"
"238015","755-BX","2018/01/13 18:29:43","新北市樹林區啟智街139號","121.416963333333","24.9882483333333","6500700","樹林區"
"238023","601-UM","2018/01/13 18:29:49","新北市樹林區三福街67巷3號","121.40795","25.0158916666667","6500700","樹林區"
"238019","599-UM","2018/01/13 18:29:36","新北市樹林區中華路190號","121.41194","24.98055","6500700","樹林區"
"238018","571-TV","2018/01/13 18:29:48","新北市樹林區樹新路28巷2號","121.42714","24.9942883333333","6500700","樹林區"
"238024","5061-A6","2018/01/13 18:29:43","新北市樹林區育英街2巷52號","121.42358","24.99063","6500700","樹林區"
"238021","KEA-2217","2018/01/13 18:29:48","新北市樹林區西圳街二段53號","121.387586666667","24.9604716666667","6500700","樹林區"
"238025","303-VK","2018/01/13 18:29:39","新北市樹林區中山路三段79號","121.400226666667","24.9748916666667","6500700","樹林區"
"238017","283-BY","2018/01/13 18:29:38","新北市樹林區光榮街21號","121.412","25.003725","6500700","樹林區"
"238014","282-BY","2018/01/13 18:29:41","新北市樹林區大安路111巷11號","121.423085","24.99762","6500700","樹林區"
"238026","172-UY","2018/01/13 18:29:41","新北市樹林區佳園路一段75巷74號","121.396013333333","24.97034","6500700","樹林區"
"238016","169-UY","2018/01/13 18:29:42","新北市樹林區文化街23號","121.419318333333","24.9876383333333","6500700","樹林區"
"239007","AAC-297","2018/01/13 18:29:45","新北市鶯歌區重慶街108號","121.347948333333","24.9522933333333","6500800","鶯歌區"
"239006","891-R6","2018/01/13 18:29:41","新北市鶯歌區鶯桃路296巷46-3號","121.33581","24.9613066666667","6500800","鶯歌區"
"239008","527-UM","2018/01/13 18:29:36","新北市鶯歌區國際一路14號","121.336188333333","24.9765783333333","6500800","鶯歌區"
"239005","526-UM","2018/01/13 18:29:46","新北市鶯歌區鳳吉一街168號","121.328941666667","24.9755066666667","6500800","鶯歌區"
"239001","417-VK","2018/01/13 18:29:47","新北市鶯歌區高職南街11號","121.337371666667","24.93939","6500800","鶯歌區"
"239003","360-BY","2018/01/13 18:29:39","新北市鶯歌區鶯桃路379號","121.333651666667","24.9635833333333","6500800","鶯歌區"
"239002","359-BY","2018/01/13 18:29:42","新北市鶯歌區中山路129號","121.349673333333","24.957065","6500800","鶯歌區"
"239004","193-VK","2018/01/13 18:29:39","新北市鶯歌區國中街62號","121.34209","24.9431666666667","6500800","鶯歌區"
"221036","130-UY","2018/01/13 18:29:35","新北市汐止區長興街一段49號","121.670298333333","25.079135","6501100","汐止區"
"221010","269-BY","2018/01/13 18:29:54","新北市汐止區汐萬路三段252巷3號","121.644161666667","25.104665","6501100","汐止區"
"221012","278-VK","2018/01/13 18:29:53","新北市汐止區保長路53號","121.673521666667","25.07885","6501100","汐止區"
"221023","279-VK","2018/01/13 18:29:48","新北市汐止區康寧街541巷14號","121.633733333333","25.0693966666667","6501100","汐止區"
"221032","280-BY","2018/01/13 18:29:47","新北市汐止區福山街60巷1號","121.617826666667","25.0464516666667","6501100","汐止區"
"221027","281-BY","2018/01/13 18:29:32","新北市汐止區和平街31號","121.662573333333","25.07077","6501100","汐止區"
"221029","298-VK","2018/01/13 18:29:37","新北市汐止區樟樹二路330巷68號","121.642926666667","25.069795","6501100","汐止區"
"221021","299-VK","2018/01/13 18:29:46","新北市汐止區復興路53巷2號","121.656873333333","25.062605","6501100","汐止區"
"221008","358-BY","2018/01/13 18:29:52","新北市汐止區康寧街901號","121.651431666667","25.0750716666667","6501100","汐止區"
"221015","567-BX","2018/01/13 18:29:40","新北市汐止區鄉長路二段23巷18號","121.667743333333","25.0831433333333","6501100","汐止區"
"221035","622-UM","2018/01/13 18:29:32","新北市汐止區大同路二段15號","121.647226666667","25.0628933333333","6501100","汐止區"
"221025","623-UM","2018/01/13 18:29:53","新北市汐止區仁愛路108號","121.66248","25.06351","6501100","汐止區"
"221038","646-BX","2018/01/13 18:29:47","新北市汐止區忠孝東路228號","121.66235","25.066825","6501100","汐止區"
"221033","647-BX","2018/01/13 18:29:40","新北市汐止區宜興街8號","121.62116","25.0413966666667","6501100","汐止區"
"221002","707-TV","2018/01/13 18:29:44","新北市汐止區福德一路178號","121.635745","25.0660416666667","6501100","汐止區"
"221018","753-BX","2018/01/13 18:29:47","新北市汐止區茄苳路213號","121.670721666667","25.0689616666667","6501100","汐止區"
"220079","145-BY","2018/01/13 18:29:37","新北市板橋區華東街1-10號","121.448321666667","24.9950883333333","6500100","板橋區"
"220082","610-BX","2018/01/13 18:29:48","新北市樹林區樹新路106巷1號","121.430106666667","24.9977816666667","6500100","板橋區"
"220084","296-UM","2018/01/13 18:29:49","新北市板橋區華東街1-9號","121.448191666667","24.99491","6500100","板橋區"
"220035","560-BX","2018/01/13 18:29:52","新北市板橋區南雅西路二段145巷10號","121.451556666667","25.0120633333333","6500100","板橋區"
