"lineid","car","time","location","longitude","latitude","cityid","cityname"
"234046","148-BY","2018/01/13 18:39:51","新北市永和區永元路68號","121.522543333333","25.001535","6500400","永和區"
"234013","149-BY","2018/01/13 18:39:36","新北市永和區保安路13號","121.510471666667","25.0169066666667","6500400","永和區"
"234007","207-UY","2018/01/13 18:39:49","新北市永和區新生路2-6號","121.509288333333","25.0169616666667","6500400","永和區"
"234081","298-R6","2018/01/13 18:39:48","新北市永和區林森路77號","121.523913333333","25.0039933333333","6500400","永和區"
"234086","338-UY","2018/01/13 18:39:53","新北市中和區景新街273巷32號","121.51087","24.9940816666667","6500400","永和區"
"234017","745-BX","2018/01/13 18:39:42","新北市永和區福和路1號","121.526065","25.0096066666667","6500400","永和區"
"234030","746-BX","2018/01/13 18:39:46","新北市永和區得和路327號","121.523465","24.9995833333333","6500400","永和區"
"234042","838-RS","2018/01/13 18:39:36","新北市永和區永貞路306號","121.511866666667","25.00482","6500400","永和區"
"234061","AAD-866","2018/01/13 18:39:40","新北市永和區福和路29號","121.523655","25.0081066666667","6500400","永和區"
"234026","9371-KE","2018/01/13 18:39:47","新北市永和區永貞路349號","121.50929","25.0074116666667","6500400","永和區"
"234011","9373-KE","2018/01/13 18:39:43","新北市永和區永和路二段233-1號","121.515263333333","25.0142516666667","6500400","永和區"
"249005","172-UM","2018/01/13 18:39:52","新北市八里區中華路三段196號","121.388151666667","25.1255716666667","6502300","八里區"
"249001","173-UM","2018/01/13 18:39:42","新北市八里區龍米路一段388號","121.451408333333","25.132845","6502300","八里區"
"249004","303-UY","2018/01/13 18:39:41","新北市八里區中山路一段176號","121.417055","25.1594683333333","6502300","八里區"
"249002","305-UY","2018/01/13 18:39:44","新北市八里區龍形一街33巷1-1號","121.449341666667","25.1301283333333","6502300","八里區"
"248016","026-BX","2018/01/13 18:39:37","新北市五股區凌雲路一段133巷27-3號","121.448655","25.100855","6501500","五股區"
"248008","095-VK","2018/01/13 18:39:36","新北市五股區中興路一段151巷1弄1號","121.465076666667","25.0732216666667","6501500","五股區"
"248020","225-UY","2018/01/13 18:36:39","新北市五股區孝義路118號","121.441371666667","25.1203066666667","6501500","五股區"
"248012","247-BX","2018/01/13 18:39:45","新北市五股區御成路120號","121.441685","25.093895","6501500","五股區"
"248014","261-SL","2018/01/13 18:39:50","新北市五股區蓬萊路24號","121.433918333333","25.0798683333333","6501500","五股區"
"248004","677-BX","2018/01/13 18:39:46","新北市五股區民義路一段277號","121.425938333333","25.0926983333333","6501500","五股區"
"248002","678-BX","2018/01/13 18:39:33","新北市五股區西雲路199號","121.448058333333","25.0960283333333","6501500","五股區"
"248010","682-TV","2018/01/13 18:39:35","新北市五股區水碓一路92號","121.431823333333","25.0736016666667","6501500","五股區"
"234023","9380-KE","2018/01/13 18:39:30","新北市永和區福和路8巷1號","121.524808333333","25.0088316666667","6500400","永和區"
"234077","969-R7","2018/01/13 18:39:33","新北市永和區中正路70號","121.513548333333","24.9950216666667","6500400","永和區"
"232011","375-UM","2018/01/13 18:19:13","新北市坪林區坪雙路一段43號","121.711691666667","24.9424516666667","6502000","坪林區"
"244013","069-UM","2018/01/13 18:39:34","新北市林口區佳林路159號","121.385236666667","25.079145","6501700","林口區"
"244007","080-UY","2018/01/13 18:39:36","新北市林口區太平嶺22號","121.375763333333","25.1163","6501700","林口區"
"244019","402-UM","2018/01/13 18:39:45","新北市林口區忠孝路586巷6號","121.375148333333","25.0677966666667","6501700","林口區"
"244025","742-UY","2018/01/13 18:39:36","新北市林口區南勢里53-7號","121.355168333333","25.0747183333333","6501700","林口區"
"244023","483-VK","2018/01/13 18:39:35","新北市林口區信義路128號","121.380451666667","25.0794066666667","6501700","林口區"
"244017","485-VK","2018/01/13 18:39:40","新北市林口區文化二路一段68巷4-3號","121.366098333333","25.0683633333333","6501700","林口區"
"244011","656-BX","2018/01/13 18:39:34","新北市林口區仁愛路一段326號","121.391248333333","25.07646","6501700","林口區"
"244009","837-TS","2018/01/13 18:39:49","新北市林口區民生路102-2號","121.377415","25.0883683333333","6501700","林口區"
"244021","838-TS","2018/01/13 18:39:52","新北市林口區工六路18號","121.398141666667","25.0790183333333","6501700","林口區"
"243012","AAD-798","2018/01/13 18:39:52","新北市泰山區泰林路二段73巷27號","121.434453333333","25.05784","6501600","泰山區"
"243013","646-TV","2018/01/13 18:39:34","新北市泰山區明志路三段206巷8號","121.423326666667","25.0380283333333","6501600","泰山區"
"222003","436-BY","2018/01/13 18:39:51","新北市深坑區翠谷街8巷2號","121.626956666667","25.0082","6501800","深坑區"
"222002","659-BX","2018/01/13 18:39:49","新北市深坑區雲鄉路2號","121.62096","24.9998866666667","6501800","深坑區"
"231041","001-UM","2018/01/13 18:39:49","新北市新店區安華路28-1號","121.51946","24.9609366666667","6500600","新店區"
"231066","0293-UT","2018/01/13 18:39:46","新北市新店區安華路28-1號","121.51954","24.960525","6500600","新店區"
"231059","046-UY","2018/01/13 18:39:41","新北市新店區安華路28-1號","121.519501666667","24.96083","6500600","新店區"
"231061","047-UY","2018/01/13 18:39:39","新北市新店區安華路28-1號","121.519293333333","24.96094","6500600","新店區"
"231060","106-UY","2018/01/13 18:39:35","新北市新店區安華路28-1號","121.51953","24.9608666666667","6500600","新店區"
"231051","107-UY","2018/01/13 18:39:49","新北市新店區中央路183-1號","121.536141666667","24.9688533333333","6500600","新店區"
"231048","108-UY","2018/01/13 18:39:53","新北市新店區安康路一段3-1號","121.534121666667","24.9606133333333","6500600","新店區"
"231052","187-VK","2018/01/13 18:39:38","新北市新店區長興路1號","121.545771666667","24.9405466666667","6500600","新店區"
"231057","256-BX","2018/01/13 18:39:49","新北市新店區新烏路一段215號","121.549291666667","24.9314716666667","6500600","新店區"
"231046","278-BY","2018/01/13 18:39:47","新北市新店區直潭一街1號","121.535645","24.943215","6500600","新店區"
"231054","AAD-862","2018/01/13 18:39:48","新北市新店區安華路28-1號","121.51963","24.961165","6500600","新店區"
"231058","3712-VJ","2018/01/13 18:39:33","新北市新店區能仁街16號","121.540621666667","24.9554566666667","6500600","新店區"
"231056","3713-VJ","2018/01/13 18:39:51","新北市新店區自立街62號","121.537758333333","24.9794016666667","6500600","新店區"
"231055","4716-K9","2018/01/13 18:39:48","新北市新店區華興街11號","121.53786","24.96962","6500600","新店區"
"231067","4772-VM","2018/01/13 18:39:42","新北市新店區安康路一段82號","121.528115","24.9619166666667","6500600","新店區"
"231065","512-UM","2018/01/13 18:39:44","新北市新店區安華路28-1號","121.519356666667","24.9611483333333","6500600","新店區"
"231064","515-UM","2018/01/13 18:39:50","新北市新店區安華路28-1號","121.519636666667","24.9611483333333","6500600","新店區"
"231045","617-UM","2018/01/13 18:21:09","新北市新店區安華路28-1號","121.51935","24.96085","6500600","新店區"
"231040","619-UM","2018/01/13 18:39:42","新北市新店區安康路一段355-3號","121.51981","24.9625816666667","6500600","新店區"
"231042","641-BX","2018/01/13 18:39:52","新北市新店區安華路1-1號","121.519545","24.9604983333333","6500600","新店區"
"231063","645-TV","2018/01/13 18:39:51","新北市新店區安華路28-1號","121.519358333333","24.960725","6500600","新店區"
"231049","719-UM","2018/01/13 18:39:44","新北市新店區安康路一段222號","121.523753333333","24.9635266666667","6500600","新店區"
"231062","720-UM","2018/01/13 18:39:55","新北市新店區安華路28-1號","121.519361666667","24.9613716666667","6500600","新店區"
"231044","897-TW","2018/01/13 18:39:38","新北市新店區光明街161號","121.539455","24.962525","6500600","新店區"
"231043","899-TW","2018/01/13 18:39:48","新北市新店區安華路28-1號","121.51892","24.9608333333333","6500600","新店區"
"235066","003-UY","2018/01/13 18:39:38","新北市中和區水源路37號","121.504503333333","25.0035733333333","6500300","中和區"
"235064","005-UY","2018/01/13 18:39:47","新北市中和區連勝街39號","121.498196666667","24.997725","6500300","中和區"
"235063","006-UY","2018/01/13 18:39:49","新北市中和區連城路347巷4弄4號","121.487985","24.9956316666667","6500300","中和區"
"235046","031-BX","2018/01/13 18:39:44","新北市中和區仁愛街91號","121.511763333333","24.986945","6500300","中和區"
"235056","096-UM","2018/01/13 18:39:53","新北市中和區員山路611巷1號","121.477895","25.0112683333333","6500300","中和區"
"235039","097-UM","2018/01/13 18:39:46","新北市中和區安平路161號","121.512393333333","24.9984383333333","6500300","中和區"
"235065","098-UM","2018/01/13 18:39:46","新北市中和區莊敬路33巷34弄11號","121.50047","25.0060866666667","6500300","中和區"
"235040","150-BY","2018/01/13 18:39:41","新北市中和區宜安路41號","121.511825","24.9964633333333","6500300","中和區"
"235058","151-BY","2018/01/13 18:39:43","新北市中和區員山路37-8號","121.481863333333","24.9894966666667","6500300","中和區"
"235055","183-VK","2018/01/13 18:39:48","新北市板橋區民族路276巷48號","121.46913","25.0054766666667","6500300","中和區"
"235038","185-VK","2018/01/13 18:39:45","新北市中和區立人街14巷44號","121.51873","24.995645","6500300","中和區"
"235049","186-VK","2018/01/13 18:39:52","新北市中和區景平路508號","121.503828333333","24.993805","6500300","中和區"
"235067","255-BX","2018/01/13 18:39:35","新北市中和區中山路二段479號","121.483133333333","25.0048366666667","6500300","中和區"
"235044","293-VK","2018/01/13 18:39:51","新北市中和區復興路280巷28號","121.501768333333","24.9917366666667","6500300","中和區"
"235072","301-VK","2018/01/13 18:39:42","新北市中和區景平路597號","121.497043333333","25.00069","6500300","中和區"
"235043","352-BY","2018/01/13 18:39:51","新北市中和區景平路105號","121.5169","24.991985","6500300","中和區"
"235068","377-QA","2018/01/13 18:39:53","新北市中和區中正路165號","121.498313333333","24.99342","6500300","中和區"
"235025","378-QA","2018/01/13 18:39:41","新北市中和區民享街92巷23號","121.473725","24.9996516666667","6500300","中和區"
"235050","4979-A6","2018/01/13 18:39:52","新北市中和區景新街496巷26號","121.513315","24.985845","6500300","中和區"
"235069","4980-A6","2018/01/13 18:39:36","新北市中和區連城路65巷13號","121.498038333333","25.00078","6500300","中和區"
"235042","551-UM","2018/01/13 18:39:46","新北市中和區成功路127巷12弄3號","121.52694","24.9906333333333","6500300","中和區"
"235070","558-UM","2018/01/13 18:39:33","新北市中和區南華路14號","121.502518333333","24.9954166666667","6500300","中和區"
"235045","565-BX","2018/01/13 18:39:51","新北市中和區南山路236巷32號","121.505496666667","24.988515","6500300","中和區"
"235054","640-BX","2018/01/13 18:39:36","新北市中和區莒光路129巷2弄24號","121.473061666667","25.001175","6500300","中和區"
"235060","647-TV","2018/01/13 18:39:43","新北市中和區中山路二段640號","121.480998333333","25.0057","6500300","中和區"
"235047","732-UM","2018/01/13 18:39:47","新北市中和區南山路320巷1號","121.507738333333","24.9865483333333","6500300","中和區"
"235062","800-TS","2018/01/13 18:39:49","新北市中和區中山路二段312巷33弄10號","121.494895","25.0038383333333","6500300","中和區"
"235057","801-TS","2018/01/13 18:39:41","新北市中和區員山路327巷41號","121.479705","25.00202","6500300","中和區"
"235052","805-TS","2018/01/13 18:39:46","新北市中和區興南路三段35號","121.496725","24.978065","6500300","中和區"
"235048","896-TW","2018/01/13 18:39:41","新北市中和區南山路311號","121.504911666667","24.9915283333333","6500300","中和區"
"235053","900-TW","2018/01/13 18:39:46","新北市中和區莒光路222-8號","121.468938333333","24.9948616666667","6500300","中和區"
"235051","157-BY","2018/01/13 18:39:42","新北市中和區華新街143巷106弄5號","121.50607","24.9789583333333","6500300","中和區"
"235037","AAC-213","2018/01/13 18:39:47","新北市中和區景平路111巷63號","121.515171666667","24.9903433333333","6500300","中和區"
"235059","AAC-215","2018/01/13 18:39:41","新北市中和區錦和路350-1號","121.490085","24.9935183333333","6500300","中和區"
"220065","072-UY","2018/01/13 18:39:43","新北市板橋區南雅南路二段120-8號","121.45238","24.9995533333333","6500100","板橋區"
"220086","073-UY","2018/01/13 18:39:51","新北市板橋區南雅西路二段192巷1弄1號","121.451971666667","25.01447","6500100","板橋區"
"226004","312-R5","2018/01/13 18:39:38","新北市平溪區石底里公園街17號","121.737168333333","25.024955","6502400","平溪區"
"235041","251-BX","2018/01/13 18:39:39","新北市中和區宜安路156號","121.509281666667","24.9987983333333","6500300","中和區"
"228003","097-TW","2018/01/13 18:39:54","新北市貢寮區和美里龍洞街34號","121.916288333333","25.111745","6502600","貢寮區"
"228001","212-TW","2018/01/13 18:39:45","新北市貢寮區仁理村研海街12-1號","121.923785","25.0516666666667","6502600","貢寮區"
"228002","585-TW","2018/01/13 18:39:18","新北市貢寮區福隆里東興街6-11號","121.950728333333","25.0210733333333","6502600","貢寮區"
"224006","676-BX","2018/01/13 18:39:36","新北市瑞芳區明燈路三段84號","121.805756666667","25.1082966666667","6501200","瑞芳區"
"224002","639-TC","2018/01/13 18:39:35","新北市瑞芳區中山路307-2號","121.79378","25.1094983333333","6501200","瑞芳區"
"224009","285-BY","2018/01/13 18:39:40","新北市瑞芳區祈堂路30號","121.859265","25.1110016666667","6501200","瑞芳區"
"224008","275-VK","2018/01/13 18:39:55","新北市瑞芳區逢甲路202號","121.806905","25.11024","6501200","瑞芳區"
"224007","273-VK","2018/01/13 18:39:38","新北市瑞芳區大埔路161號","121.763493333333","25.1016816666667","6501200","瑞芳區"
"224005","271-BY","2018/01/13 18:39:52","新北市瑞芳區瑞濱路93號","121.820561666667","25.12073","6501200","瑞芳區"
"227010","642-TC","2018/01/13 18:39:51","新北市雙溪區牡丹里下坑11號","121.850993333333","25.05617","6502500","雙溪區"
"227002","400-TW","2018/01/13 18:39:35","新北市雙溪區魚行里坤溪3-5號","121.87567","25.02122","6502500","雙溪區"
"253005","032-BX","2018/01/13 18:39:49","新北市石門區中山路33號","121.567056666667","25.2908116666667","6502200","石門區"
"253006","295-VK","2018/01/13 18:39:37","新北市石門區崁子腳28-3號","121.537673333333","25.28932","6502200","石門區"
"222001","KEA-2212","2018/01/13 18:39:35","新北市深坑區北深路一段80號","121.636391666667","25.0106916666667","6501800","深坑區"
"208002","742-BX","2018/01/13 18:39:37","新北市金山區忠孝一路19巷9號","121.63775","25.217865","6502700","金山區"
"208003","665-BX","2018/01/13 18:39:44","新北市金山區中山路395號","121.633366666667","25.2252783333333","6502700","金山區"
"208001","761-BX","2018/01/13 18:39:44","新北市金山區文化三路46號","121.63504","25.2250116666667","6502700","金山區"
"251001","011-UM","2018/01/13 18:39:36","新北市淡水區自強路415巷2號","121.46551","25.1343133333333","6501000","淡水區"
"251013","179-VK","2018/01/13 18:39:48","新北市三芝區興華里田心子34-3號","121.485576666667","25.2047716666667","6501000","淡水區"
"251014","180-VK","2018/01/13 18:39:50","新北市淡水區番社前25-1號","121.494461666667","25.21459","6501000","淡水區"
"251008","181-VK","2018/01/13 18:39:37","新北市淡水區北投子62號","121.456668333333","25.1798966666667","6501000","淡水區"
"251015","182-VK","2018/01/13 18:39:44","新北市淡水區興福寮66巷28號","121.486101666667","25.162465","6501000","淡水區"
"251010","413-VK","2018/01/13 18:39:40","新北市淡水區沙崙路124號","121.423378333333","25.182825","6501000","淡水區"
"251012","441-VK","2018/01/13 18:39:43","新北市淡水區北新路117號","121.448976666667","25.1785683333333","6501000","淡水區"
"251016","442-VK","2018/01/13 18:39:37","新北市淡水區下圭柔山102號","121.440955","25.2088183333333","6501000","淡水區"
"251006","561-UM","2018/01/13 18:39:34","新北市淡水區中山北路二段383號","121.44405","25.1883583333333","6501000","淡水區"
"251011","650-BX","2018/01/13 18:39:50","新北市淡水區鄧公路36巷11號","121.45613","25.16914","6501000","淡水區"
"251002","672-BX","2018/01/13 18:39:40","新北市淡水區中正東路一段3巷14弄1號","121.450843333333","25.1641833333333","6501000","淡水區"
"251003","673-BX","2018/01/13 18:39:51","新北市淡水區中山北路一段212巷38號","121.446118333333","25.1789933333333","6501000","淡水區"
"207003","550-UM","2018/01/13 18:39:38","新北市萬里區大鵬里頂社2-1號","121.660418333333","25.2072766666667","6502800","萬里區"
"207004","225-TW","2018/01/13 18:39:43","新北市萬里區萬里里獅頭路10-1號","121.692113333333","25.178705","6502800","萬里區"
"252002","178-VK","2018/01/13 18:39:47","新北市三芝區民生街64巷13號","121.50366","25.255015","6502100","三芝區"
"252003","249-BX","2018/01/13 18:39:41","新北市三芝區後厝里土地公坑999號","121.464335","25.2490033333333","6502100","三芝區"
"252001","292-VK","2018/01/13 18:39:47","新北市三芝區埔頭里埔頭14號","121.500755","25.2539266666667","6502100","三芝區"
"237004","078-UY","2018/01/13 18:39:52","新北市三峽區金敏3號","121.382221666667","24.87619","6500900","三峽區"
"237007","153-BY","2018/01/13 18:39:48","新北市三峽區中正路三段262號","121.337625","24.89799","6500900","三峽區"
"237009","210-TH","2018/01/13 18:39:44","新北市三峽區大同路286巷12號","121.363946666667","24.925195","6500900","三峽區"
"237013","252-BX","2018/01/13 18:39:52","新北市三峽區光明路69巷25號","121.376693333333","24.9292033333333","6500900","三峽區"
"237012","275-BY","2018/01/13 18:39:39","新北市三峽區三樹路330號","121.381735","24.9440966666667","6500900","三峽區"
"237008","302-VK","2018/01/13 18:39:51","新北市三峽區白雞67號","121.396766666667","24.9112666666667","6500900","三峽區"
"237014","433-BY","2018/01/13 18:39:53","新北市三峽區和平街32號","121.37018","24.9370716666667","6500900","三峽區"
"237006","5529-G3","2018/01/13 18:39:43","新北市三峽區溪東路315巷6號","121.410568333333","24.9306266666667","6500900","三峽區"
"237016","649-BX","2018/01/13 18:27:30","新北市三峽區竹崙路149號","121.433975","24.90783","6500900","三峽區"
"237010","706-TV","2018/01/13 18:39:54","新北市三峽區復興路323號","121.364778333333","24.93877","6500900","三峽區"
"237005","AKY-6261","2018/01/13 18:39:35","新北市三峽區民生街104巷3-1號","121.37358","24.936015","6500900","三峽區"
"236073","105-UM","2018/01/13 18:39:39","新北市土城區永豐路157巷29弄6-1號","121.468328333333","24.9814583333333","6501300","土城區"
"236043","107-UM","2018/01/13 18:39:48","新北市土城區學成路108巷3號","121.450001666667","24.9894966666667","6501300","土城區"
"236031","253-BX","2018/01/13 18:39:33","新北市土城區慶利街30號","121.438896666667","24.9744416666667","6501300","土城區"
"236027","269-VK","2018/01/13 18:39:33","新北市土城區千歲路3巷6弄26號","121.44218","24.97033","6501300","土城區"
"236015","270-VK","2018/01/13 18:39:50","新北市土城區清水路207巷11號","121.45989","24.98231","6501300","土城區"
"236038","271-VK","2018/01/13 18:39:42","新北市土城區明德路一段291巷11弄20號","121.460868333333","24.975985","6501300","土城區"
"236023","401-BY","2018/01/13 18:39:45","新北市土城區延吉街311號","121.465993333333","24.9843466666667","6501300","土城區"
"236059","912-UM","2018/01/13 18:39:55","新北市土城區中央路四段25-10號","121.424525","24.9623533333333","6501300","土城區"
"236049","913-UM","2018/01/13 18:39:41","新北市土城區明德路一段30號","121.465095","24.9846966666667","6501300","土城區"
"236063","915-UM","2018/01/13 18:39:51","新北市土城區延壽路13巷19號","121.46993","24.9913566666667","6501300","土城區"
"236055","AAC-216","2018/01/13 18:39:53","新北市土城區中華路一段23號","121.446996666667","24.9891216666667","6501300","土城區"
"242061","362-BY","2018/01/13 18:39:34","新北市新莊區三和路12-21號","121.442236666667","25.038395","6500500","新莊區"
"242058","353-BY","2018/01/13 18:39:49","新北市新莊區龍安路2號","121.414273333333","25.023145","6500500","新莊區"
"242056","349-TH","2018/01/13 18:39:54","新北市新莊區中環路一段38號","121.442073333333","25.0277416666667","6500500","新莊區"
"242011","351-TH","2018/01/13 18:39:53","新北市新莊區環河路48-3號","121.43631","25.0084733333333","6500500","新莊區"
"238015","755-BX","2018/01/13 18:39:43","新北市樹林區大安路540號","121.413515","24.9856983333333","6500700","樹林區"
"238023","601-UM","2018/01/13 18:39:48","新北市樹林區三福街42號","121.407883333333","25.0164933333333","6500700","樹林區"
"238019","599-UM","2018/01/13 18:39:36","新北市樹林區中華路190號","121.411876666667","24.9805016666667","6500700","樹林區"
"238018","571-TV","2018/01/13 18:39:48","新北市樹林區樹新路197號","121.429258333333","24.9974566666667","6500700","樹林區"
"238024","5061-A6","2018/01/13 18:39:43","新北市樹林區中山路二段222號","121.411015","24.9823016666667","6500700","樹林區"
"238025","303-VK","2018/01/13 18:39:39","新北市樹林區中山路三段22號","121.395628333333","24.972955","6500700","樹林區"
"238017","283-BY","2018/01/13 18:39:38","新北市樹林區光興街50號","121.40987","25.0027216666667","6500700","樹林區"
"238014","282-BY","2018/01/13 18:39:41","新北市樹林區大安路111巷11號","121.42316","24.9976883333333","6500700","樹林區"
"238026","172-UY","2018/01/13 18:39:41","新北市樹林區八德街1176號","121.39094","24.9687683333333","6500700","樹林區"
"238016","169-UY","2018/01/13 18:39:41","新北市樹林區文化街28號","121.41932","24.9876833333333","6500700","樹林區"
"239007","AAC-297","2018/01/13 18:39:50","新北市鶯歌區中正一路461-5號","121.36351","24.9563666666667","6500800","鶯歌區"
"239006","891-R6","2018/01/13 18:39:41","新北市鶯歌區鶯桃路296巷46-3號","121.335806666667","24.961315","6500800","鶯歌區"
"239008","527-UM","2018/01/13 18:39:36","新北市鶯歌區國際一路14號","121.336188333333","24.97658","6500800","鶯歌區"
"239005","526-UM","2018/01/13 18:39:46","新北市鶯歌區鳳吉一街38號","121.326036666667","24.9737516666667","6500800","鶯歌區"
"239001","417-VK","2018/01/13 18:39:47","新北市鶯歌區中正二路185-4號","121.34079","24.94763","6500800","鶯歌區"
"239003","360-BY","2018/01/13 18:39:39","新北市鶯歌區永和二街6-2號","121.336143333333","24.9716733333333","6500800","鶯歌區"
"239002","359-BY","2018/01/13 18:39:42","新北市鶯歌區國慶街169-1號","121.351271666667","24.952905","6500800","鶯歌區"
"239004","193-VK","2018/01/13 18:39:39","新北市鶯歌區中正三路237號","121.334268333333","24.938825","6500800","鶯歌區"
"221036","130-UY","2018/01/13 18:39:54","新北市汐止區南昌街27號","121.663228333333","25.0692433333333","6501100","汐止區"
"221010","269-BY","2018/01/13 18:39:53","新北市汐止區汐萬路三段268號","121.64274","25.1061616666667","6501100","汐止區"
"221012","278-VK","2018/01/13 18:39:52","新北市汐止區鄉長路一段295號","121.669238333333","25.0795566666667","6501100","汐止區"
"221023","279-VK","2018/01/13 18:39:48","新北市汐止區康寧街747號","121.638423333333","25.073155","6501100","汐止區"
"221032","280-BY","2018/01/13 18:39:47","新北市汐止區民權街二段79號","121.6192","25.0481016666667","6501100","汐止區"
"221027","281-BY","2018/01/13 18:39:52","新北市汐止區汐萬路一段256巷3號","121.653061666667","25.0743783333333","6501100","汐止區"
"221029","298-VK","2018/01/13 18:39:37","新北市汐止區樟樹一路131號","121.642066666667","25.064975","6501100","汐止區"
"221021","299-VK","2018/01/13 18:39:46","新北市汐止區南興路9號","121.651953333333","25.062665","6501100","汐止區"
"221008","358-BY","2018/01/13 18:34:21","新北市汐止區康寧街901號","121.651425","25.0750716666667","6501100","汐止區"
"221015","567-BX","2018/01/13 18:39:40","新北市汐止區鄉友街18號","121.668493333333","25.0809466666667","6501100","汐止區"
"221035","622-UM","2018/01/13 18:39:52","新北市汐止區汐萬路一段22號","121.65598","25.06781","6501100","汐止區"
"221025","623-UM","2018/01/13 18:39:53","新北市汐止區仁愛路119巷11號","121.662358333333","25.0639866666667","6501100","汐止區"
"221038","646-BX","2018/01/13 18:39:36","新北市汐止區汐萬路一段256巷3號","121.653345","25.07479","6501100","汐止區"
"221033","647-BX","2018/01/13 18:39:40","新北市汐止區南勢街1巷1號","121.627083333333","25.0374466666667","6501100","汐止區"
"221002","707-TV","2018/01/13 18:39:44","新北市汐止區中興路39號","121.634616666667","25.0621616666667","6501100","汐止區"
"221018","753-BX","2018/01/13 18:39:48","新北市汐止區茄苳路250巷18號","121.671538333333","25.0677933333333","6501100","汐止區"
"220079","145-BY","2018/01/13 18:39:35","新北市板橋區館前西路162號","121.452873333333","25.0085333333333","6500100","板橋區"
"220080","200-UY","2018/01/13 18:39:36","新北市板橋區大觀路二段265巷7-7號","121.443968333333","24.9946016666667","6500100","板橋區"
"220082","610-BX","2018/01/13 18:39:48","新北市板橋區篤行路一段29號","121.431996666667","24.9945133333333","6500100","板橋區"
"220072","277-BY","2018/01/13 18:39:39","新北市板橋區大觀路三段59巷17弄6-1號","121.435146666667","24.9955966666667","6500100","板橋區"
"220071","283-VK","2018/01/13 18:39:44","新北市板橋區華東街1號","121.448368333333","24.9940933333333","6500100","板橋區"
"220094","285-UM","2018/01/13 18:39:43","新北市板橋區民生路二段161巷9號","121.470218333333","25.01965","6500100","板橋區"
"220053","285-VK","2018/01/13 18:39:42","新北市板橋區民生路二段120號","121.47034","25.0196783333333","6500100","板橋區"
"220083","286-VK","2018/01/13 18:39:44","新北市板橋區板城路421號","121.448145","24.9957","6500100","板橋區"
"220081","287-VK","2018/01/13 18:39:39","新北市板橋區南雅南路二段122-2號","121.45159","24.9986433333333","6500100","板橋區"
"220090","288-VK","2018/01/13 18:39:49","新北市板橋區民生路二段161巷9號","121.470166666667","25.0194833333333","6500100","板橋區"
"220061","293-UM","2018/01/13 18:39:49","新北市板橋區民生路二段120號","121.470426666667","25.019705","6500100","板橋區"
"220084","296-UM","2018/01/13 18:39:49","新北市板橋區大觀路二段266號","121.448835","24.9972233333333","6500100","板橋區"
"220075","303-R5","2018/01/13 18:39:38","新北市板橋區南雅南路二段120-1號","121.452273333333","24.999745","6500100","板橋區"
"220035","560-BX","2018/01/13 18:39:52","新北市板橋區南雅西路二段145巷10號","121.45156","25.0120616666667","6500100","板橋區"
"220103","561-BX","2018/01/13 18:39:44","新北市板橋區民生路二段120號","121.47034","25.0196083333333","6500100","板橋區"
"220056","630-UY","2018/01/13 18:39:50","新北市板橋區南雅南路二段49號","121.45153","24.9943916666667","6500100","板橋區"
"220057","686-BX","2018/01/13 18:39:43","新北市板橋區華東街1-9號","121.448151666667","24.9949083333333","6500100","板橋區"
"220077","687-BX","2018/01/13 18:39:35","新北市板橋區大觀路二段435號","121.441963333333","24.995055","6500100","板橋區"
"220054","741-BX","2018/01/13 18:39:45","新北市板橋區華東街1-9號","121.44807","24.99491","6500100","板橋區"
"220067","829-TW","2018/01/13 18:39:38","新北市板橋區民生路二段161巷1號","121.4699","25.0198616666667","6500100","板橋區"
"220074","895-R6","2018/01/13 18:39:43","新北市板橋區南雅南路二段144巷89號","121.449893333333","24.9949033333333","6500100","板橋區"
"220073","985-R7","2018/01/13 18:39:48","新北市板橋區南雅南路二段132號","121.452036666667","24.9966416666667","6500100","板橋區"
"220097","AAC-210","2018/01/13 18:39:51","新北市板橋區民生路二段161巷9號","121.470205","25.01959","6500100","板橋區"
"220070","AAC-253","2018/01/13 18:39:37","新北市板橋區華東街1-9號","121.448245","24.9948983333333","6500100","板橋區"
