"lineid","car","time","location","longitude","latitude","cityid","cityname"
"234046","148-BY","2018/01/13 18:59:51","新北市永和區得和路373巷16弄9號","121.525575","25.0000516666667","6500400","永和區"
"234013","149-BY","2018/01/13 18:59:36","新北市永和區中山路一段56號","121.513035","25.01083","6500400","永和區"
"234007","207-UY","2018/01/13 18:59:50","新北市永和區中山路一段9號","121.514091666667","25.010355","6500400","永和區"
"234081","298-R6","2018/01/13 18:59:54","新北市永和區永亨路81號","121.52173","25.005725","6500400","永和區"
"234038","336-UY","2018/01/13 18:59:34","新北市永和區成功路二段207號","121.526595","24.9959066666667","6500400","永和區"
"234064","337-UY","2018/01/13 18:59:54","新北市永和區秀朗路一段198號","121.519381666667","25.0031516666667","6500400","永和區"
"234086","338-UY","2018/01/13 18:59:53","新北市永和區永寧街129巷2號","121.518066666667","25.005265","6500400","永和區"
"234054","553-UM","2018/01/13 18:59:49","新北市永和區竹林路66巷5號","121.518265","25.0132966666667","6500400","永和區"
"234017","745-BX","2018/01/13 18:59:42","新北市永和區永和路二段297號","121.515955","25.0160383333333","6500400","永和區"
"234030","746-BX","2018/01/13 18:59:46","新北市永和區秀朗路二段276號","121.525978333333","24.9979316666667","6500400","永和區"
"234042","838-RS","2018/01/13 18:59:36","新北市永和區永貞路271號","121.511708333333","25.0048333333333","6500400","永和區"
"234061","AAD-866","2018/01/13 18:59:49","新北市永和區福和路309巷1號","121.516416666667","25.0070566666667","6500400","永和區"
"234070","847-RS","2018/01/13 18:59:38","新北市永和區竹林路124巷36號","121.518068333333","25.0115116666667","6500400","永和區"
"234050","863-TW","2018/01/13 18:59:51","新北市永和區文化路190號","121.510851666667","25.01619","6500400","永和區"
"234026","9371-KE","2018/01/13 18:59:47","新北市永和區安樂路453號","121.51433","25.0049916666667","6500400","永和區"
"234011","9373-KE","2018/01/13 18:59:43","新北市永和區仁愛路141巷3弄4號","121.511776666667","25.0123883333333","6500400","永和區"
"249005","172-UM","2018/01/13 18:59:52","新北市八里區長道坑2號","121.39366","25.1246216666667","6502300","八里區"
"249001","173-UM","2018/01/13 18:59:41","新北市八里區龍米路二段228-1號","121.432711666667","25.1583766666667","6502300","八里區"
"248016","026-BX","2018/01/13 18:59:37","新北市五股區成泰路三段559巷14弄2號","121.451368333333","25.1024","6501500","五股區"
"248006","077-UY","2018/01/13 18:59:23","新北市五股區中興路一段48號","121.468143333333","25.0726133333333","6501500","五股區"
"248008","095-VK","2018/01/13 18:59:36","新北市五股區中興路一段118巷6弄34號","121.466403333333","25.0750133333333","6501500","五股區"
"248020","225-UY","2018/01/13 18:59:39","新北市五股區凌雲路三段57號","121.425276666667","25.125005","6501500","五股區"
"248012","247-BX","2018/01/13 18:59:43","新北市五股區工商路18巷23弄8號","121.440256666667","25.0841666666667","6501500","五股區"
"248004","677-BX","2018/01/13 18:59:38","新北市五股區民義路二段50-5號","121.410835","25.1040283333333","6501500","五股區"
"248002","678-BX","2018/01/13 18:59:52","新北市五股區凌雲路一段62號","121.45115","25.10113","6501500","五股區"
"248010","682-TV","2018/01/13 18:59:35","新北市五股區水碓一路23號","121.43058","25.07138","6501500","五股區"
"234023","9380-KE","2018/01/13 18:59:52","新北市永和區竹林路91巷70號","121.522011666667","25.0136933333333","6500400","永和區"
"234077","969-R7","2018/01/13 18:59:33","新北市永和區智光街22號","121.517903333333","24.9993316666667","6500400","永和區"
"234074","AAC-211","2018/01/13 18:59:45","新北市永和區環河東路二段98號","121.524106666667","25.010335","6500400","永和區"
"234003","AAC-295","2018/01/13 18:59:44","新北市永和區和平街38號","121.512951666667","25.0099983333333","6500400","永和區"
"232011","375-UM","2018/01/13 18:59:42","新北市坪林區坪林街10-2號","121.712981666667","24.93539","6502000","坪林區"
"244013","069-UM","2018/01/13 18:59:54","新北市林口區麗園一街6巷4號","121.375738333333","25.07023","6501700","林口區"
"244007","080-UY","2018/01/13 18:59:56","新北市八里區中華路三段103號","121.39288","25.1382416666667","6501700","林口區"
"244019","402-UM","2018/01/13 18:59:45","新北市林口區忠孝路642號","121.379003333333","25.06844","6501700","林口區"
"244025","742-UY","2018/01/13 18:59:56","新北市林口區忠孝路1號","121.364193333333","25.0760983333333","6501700","林口區"
"244023","483-VK","2018/01/13 18:59:35","新北市林口區民權路81號","121.37224","25.0810983333333","6501700","林口區"
"244017","485-VK","2018/01/13 18:59:40","新北市林口區公園路87號","121.368668333333","25.0696283333333","6501700","林口區"
"244011","656-BX","2018/01/13 18:59:34","新北市林口區仁愛路一段272巷2號","121.393643333333","25.0760416666667","6501700","林口區"
"244009","837-TS","2018/01/13 18:59:49","新北市林口區竹林路358巷17號","121.392598333333","25.0840433333333","6501700","林口區"
"243012","AAD-798","2018/01/13 18:59:52","新北市泰山區仁德路114號","121.432826666667","25.057035","6501600","泰山區"
"243015","380-SR","2018/01/13 18:59:52","新北市泰山區明志路一段217號","121.432646666667","25.0612333333333","6501600","泰山區"
"243014","421-VK","2018/01/13 18:59:23","新北市泰山區黎明路21號","121.420918333333","25.062715","6501600","泰山區"
"243010","KEA-2215","2018/01/13 18:59:48","新北市泰山區辭修路24號","121.429006666667","25.0581533333333","6501600","泰山區"
"243009","KEA-2216","2018/01/13 18:59:54","新北市泰山區福德街7號","121.432401666667","25.0624816666667","6501600","泰山區"
"243013","646-TV","2018/01/13 18:59:36","新北市泰山區明志路三段351巷3號","121.422223333333","25.0351216666667","6501600","泰山區"
"243016","680-BX","2018/01/13 18:59:41","新北市泰山區明志路二段152-3號","121.427541666667","25.0504283333333","6501600","泰山區"
"222003","436-BY","2018/01/13 18:59:51","新北市深坑區深南路51-1號","121.621348333333","25.0101483333333","6501800","深坑區"
"222002","659-BX","2018/01/13 18:59:52","新北市深坑區文山路一段33號","121.629575","25.0038033333333","6501800","深坑區"
"231041","001-UM","2018/01/13 18:59:49","新北市新店區環河路72號","121.53704","24.9630483333333","6500600","新店區"
"231066","0293-UT","2018/01/13 18:59:46","新北市新店區安祥路86號","121.49112","24.956505","6500600","新店區"
"231059","046-UY","2018/01/13 18:59:41","新北市新店區安康路一段266巷4號","121.51992","24.964005","6500600","新店區"
"231061","047-UY","2018/01/13 18:59:39","新北市新店區安康路一段351-1號","121.519415","24.9639216666667","6500600","新店區"
"231060","106-UY","2018/01/13 18:59:35","新北市新店區安豐路54-1號","121.499978333333","24.95401","6500600","新店區"
"231051","107-UY","2018/01/13 18:59:49","新北市新店區三民路187號","121.535078333333","24.9755066666667","6500600","新店區"
"231048","108-UY","2018/01/13 18:59:53","新北市新店區德正街27巷29弄45號","121.54577","24.972185","6500600","新店區"
"231052","187-VK","2018/01/13 18:59:38","新北市新店區屈尺路58號","121.54737","24.9228266666667","6500600","新店區"
"231050","KEA-2219","2018/01/13 18:59:34","新北市新店區新烏路一段9-1號","121.54728","24.9513466666667","6500600","新店區"
"231046","278-BY","2018/01/13 18:59:47","新北市新店區直潭五街19號","121.534303333333","24.94109","6500600","新店區"
"231054","AAD-862","2018/01/13 18:59:48","新北市新店區國校路77號","121.53843","24.9523366666667","6500600","新店區"
"231058","3712-VJ","2018/01/13 18:59:53","新北市新店區中興路一段121號","121.541581666667","24.9629483333333","6500600","新店區"
"231056","3713-VJ","2018/01/13 18:59:51","新北市新店區大同街8巷4號","121.539676666667","24.9802283333333","6500600","新店區"
"231055","4716-K9","2018/01/13 18:59:48","新北市新店區新生街13巷26號","121.538938333333","24.9665","6500600","新店區"
"231067","4772-VM","2018/01/13 18:59:42","新北市新店區安康路一段247巷31號","121.52482","24.9619783333333","6500600","新店區"
"231065","512-UM","2018/01/13 18:59:44","新北市新店區安祥路147巷72號","121.475858333333","24.9557933333333","6500600","新店區"
"231064","515-UM","2018/01/13 18:59:50","新北市新店區安忠路8-1號","121.514766666667","24.96312","6500600","新店區"
"231045","617-UM","2018/01/13 18:59:43","新北市新店區北新路一段2-18號","121.5384","24.9601266666667","6500600","新店區"
"231040","619-UM","2018/01/13 18:59:53","新北市新店區三民路144號","121.535156666667","24.9751966666667","6500600","新店區"
"231042","641-BX","2018/01/13 18:59:52","新北市新店區中興路一段282號","121.545586666667","24.96861","6500600","新店區"
"231063","645-TV","2018/01/13 18:59:51","新北市新店區車子路110號","121.505211666667","24.952075","6500600","新店區"
"231049","719-UM","2018/01/13 18:59:44","新北市新店區中正路454-5號","121.534528333333","24.97916","6500600","新店區"
"231062","720-UM","2018/01/13 18:59:35","新北市新店區安平路53-5號","121.51995","24.9684033333333","6500600","新店區"
"231044","897-TW","2018/01/13 18:59:40","新北市新店區寶中路78號","121.54836","24.9806316666667","6500600","新店區"
"231043","899-TW","2018/01/13 18:59:48","新北市新店區北新路二段68號","121.54289","24.9723616666667","6500600","新店區"
"241020","156-TC","2018/01/13 18:59:51","新北市三重區忠孝路二段34號","121.48575","25.0710033333333","6500200","三重區"
"235066","003-UY","2018/01/13 18:59:38","新北市中和區中山路二段131巷11-1號","121.502941666667","25.0023266666667","6500300","中和區"
"235064","005-UY","2018/01/13 18:59:47","新北市中和區景平路634-10號","121.498893333333","24.9997933333333","6500300","中和區"
"235063","006-UY","2018/01/13 18:59:49","新北市中和區中正路538號","121.487533333333","24.9944083333333","6500300","中和區"
"235046","031-BX","2018/01/13 18:59:44","新北市中和區興南路一段135巷22弄12號","121.509021666667","24.9867483333333","6500300","中和區"
"235056","096-UM","2018/01/13 18:59:53","新北市中和區新民街96號","121.48121","25.0084733333333","6500300","中和區"
"235039","097-UM","2018/01/13 18:59:46","新北市中和區宜安路52巷22號","121.512603333333","24.9974366666667","6500300","中和區"
"235065","098-UM","2018/01/13 18:59:46","新北市中和區勝利路35巷9弄2號","121.499568333333","25.0068116666667","6500300","中和區"
"235040","150-BY","2018/01/13 18:59:41","新北市中和區宜安路23巷6號","121.512648333333","24.99559","6500300","中和區"
"235058","151-BY","2018/01/13 18:59:53","新北市中和區連城路549號","121.48023","24.9946833333333","6500300","中和區"
"235055","183-VK","2018/01/13 18:59:48","新北市中和區民德路21號","121.468815","25.0027583333333","6500300","中和區"
"235038","185-VK","2018/01/13 18:59:45","新北市中和區立人街24-5號","121.518886666667","24.9941733333333","6500300","中和區"
"235049","186-VK","2018/01/13 18:59:52","新北市中和區景安路167巷17號","121.506428333333","24.9948183333333","6500300","中和區"
"235067","255-BX","2018/01/13 18:59:44","新北市中和區民樂路78號","121.484406666667","25.0011983333333","6500300","中和區"
"235044","293-VK","2018/01/13 18:59:51","新北市中和區中興街202巷8號","121.49889","24.9904516666667","6500300","中和區"
"235072","301-VK","2018/01/13 18:59:43","新北市中和區中山路二段257號","121.497351666667","25.0023133333333","6500300","中和區"
"235043","352-BY","2018/01/13 18:59:51","新北市中和區成功路41巷1號","121.526226666667","24.9932916666667","6500300","中和區"
"235068","377-QA","2018/01/13 18:59:53","新北市中和區圓通路232巷16號","121.495088333333","24.9932983333333","6500300","中和區"
"235025","378-QA","2018/01/13 18:59:41","新北市中和區民治街130巷5號","121.475025","25.0025966666667","6500300","中和區"
"235050","4979-A6","2018/01/13 18:59:52","新北市中和區忠孝街2-8號","121.509201666667","24.9829733333333","6500300","中和區"
"235069","4980-A6","2018/01/13 18:59:36","新北市中和區圓通路109巷2號","121.499568333333","24.9964233333333","6500300","中和區"
"235042","551-UM","2018/01/13 18:59:46","新北市中和區秀朗路三段128巷36弄2號","121.524811666667","24.9937583333333","6500300","中和區"
"235070","558-UM","2018/01/13 18:58:14","新北市中和區南華路14號","121.502518333333","24.9954166666667","6500300","中和區"
"235045","565-BX","2018/01/13 18:59:51","新北市中和區景新街428號","121.51305","24.9886916666667","6500300","中和區"
"235054","640-BX","2018/01/13 18:59:43","新北市中和區民享街6號","121.474038333333","25.0049766666667","6500300","中和區"
"235060","647-TV","2018/01/13 18:59:51","新北市中和區中山路三段127號","121.474316666667","25.0061133333333","6500300","中和區"
"235047","732-UM","2018/01/13 18:59:47","新北市中和區興南路二段74巷14號","121.505321666667","24.9850516666667","6500300","中和區"
"235062","800-TS","2018/01/13 18:59:49","新北市中和區中山路二段526巷17號","121.485836666667","25.0054633333333","6500300","中和區"
"235057","801-TS","2018/01/13 18:59:41","新北市中和區民安街65巷3號","121.478778333333","24.999485","6500300","中和區"
"235052","805-TS","2018/01/13 18:59:46","新北市中和區興南路二段114巷2號","121.504275","24.9842283333333","6500300","中和區"
"235048","896-TW","2018/01/13 18:59:41","新北市中和區華新街109巷16號","121.508671666667","24.981025","6500300","中和區"
"235053","900-TW","2018/01/13 18:59:46","新北市中和區壽德街20-1號","121.466221666667","24.99485","6500300","中和區"
"235051","157-BY","2018/01/13 18:59:42","新北市中和區忠孝街11巷1號","121.509873333333","24.9831333333333","6500300","中和區"
"235037","AAC-213","2018/01/13 18:59:47","新北市中和區自立路31號","121.522206666667","24.99579","6500300","中和區"
"235059","AAC-215","2018/01/13 18:59:41","新北市中和區圓通路367巷20弄7號","121.49188","24.988425","6500300","中和區"
"220065","072-UY","2018/01/13 18:59:43","新北市板橋區漢生東路330-1號","121.47176","25.0078783333333","6500100","板橋區"
"220086","073-UY","2018/01/13 18:59:51","新北市板橋區民權路209號","121.457926666667","25.01487","6500100","板橋區"
"220106","075-UY","2018/01/13 18:59:47","新北市板橋區莒光路48-1號","121.470681666667","25.0243683333333","6500100","板橋區"
"220069","AAD-861","2018/01/13 18:59:44","新北市板橋區華興街73-1號","121.456985","25.00503","6500100","板橋區"
"220096","120-SR","2018/01/13 18:59:51","新北市板橋區莒光路135號","121.473188333333","25.023975","6500100","板橋區"
"226004","312-R5","2018/01/13 18:59:38","新北市平溪區靜安路二段398號","121.738743333333","25.0244616666667","6502400","平溪區"
"235041","251-BX","2018/01/13 18:59:39","新北市中和區宜安路92巷13號","121.51114","24.9978516666667","6500300","中和區"
"228003","097-TW","2018/01/13 18:59:34","新北市貢寮區和美里龍洞街33號","121.916546666667","25.1107666666667","6502600","貢寮區"
"228001","212-TW","2018/01/13 18:59:45","新北市貢寮區仁理村研海街12-1號","121.923763333333","25.0516233333333","6502600","貢寮區"
"228002","585-TW","2018/01/13 18:59:55","新北市貢寮區福隆里東興街106巷21弄2號","121.946161666667","25.01808","6502600","貢寮區"
"224010","AGQ-8101","2018/01/13 18:59:39","新北市瑞芳區基山街89號","121.844806666667","25.1083083333333","6501200","瑞芳區"
"224006","676-BX","2018/01/13 18:59:36","新北市瑞芳區中正路2號","121.808925","25.1070466666667","6501200","瑞芳區"
"224009","285-BY","2018/01/13 18:59:40","新北市瑞芳區山尖路54號","121.855525","25.1145316666667","6501200","瑞芳區"
"224008","275-VK","2018/01/13 18:59:55","新北市瑞芳區逢甲路343-7號","121.79981","25.1123766666667","6501200","瑞芳區"
"224007","273-VK","2018/01/13 18:59:50","新北市瑞芳區大埔路慶安新村40號","121.762213333333","25.1001733333333","6501200","瑞芳區"
"224005","271-BY","2018/01/13 18:59:53","新北市瑞芳區豎崎路32-5號","121.824013333333","25.12087","6501200","瑞芳區"
"227010","642-TC","2018/01/13 18:59:51","新北市雙溪區牡丹里中正路58巷18號","121.866365","25.0414883333333","6502500","雙溪區"
"227002","400-TW","2018/01/13 18:59:35","新北市雙溪區平林里康福家園10號","121.858776666667","25.0373","6502500","雙溪區"
"253005","032-BX","2018/01/13 18:59:49","新北市石門區中央路37-2號","121.568641666667","25.2955016666667","6502200","石門區"
"253006","295-VK","2018/01/13 18:59:37","新北市石門區八甲4-6號","121.521353333333","25.2822983333333","6502200","石門區"
"222001","KEA-2212","2018/01/13 18:59:35","新北市深坑區翠谷街17巷3弄9號","121.625241666667","25.0068916666667","6501800","深坑區"
"208002","742-BX","2018/01/13 18:59:36","新北市金山區信義路72號","121.63512","25.2196333333333","6502700","金山區"
"208003","665-BX","2018/01/13 18:59:44","新北市金山區中正路93號","121.633216666667","25.2216283333333","6502700","金山區"
"208001","761-BX","2018/01/13 18:59:44","新北市金山區中山路79號","121.640468333333","25.2185633333333","6502700","金山區"
"251009","008-UM","2018/01/13 18:59:49","新北市淡水區重建街53號","121.439853333333","25.1715633333333","6501000","淡水區"
"251001","011-UM","2018/01/13 18:59:36","新北市淡水區自強路60號","121.463091666667","25.12752","6501000","淡水區"
"251013","179-VK","2018/01/13 18:59:48","新北市淡水區安子內3號","121.48704","25.213495","6501000","淡水區"
"251014","180-VK","2018/01/13 18:59:50","新北市淡水區崙頂3-1號","121.490743333333","25.224905","6501000","淡水區"
"251015","182-VK","2018/01/13 18:59:44","新北市淡水區糞箕湖131巷2號","121.488356666667","25.1733233333333","6501000","淡水區"
"251010","413-VK","2018/01/13 18:59:40","新北市淡水區沙崙路97號","121.422313333333","25.1823633333333","6501000","淡水區"
"251016","442-VK","2018/01/13 18:59:54","新北市淡水區淡金路三段195號","121.448768333333","25.20479","6501000","淡水區"
"251007","577-R6","2018/01/13 18:59:32","新北市淡水區民生路113巷1弄37號","121.463101666667","25.138615","6501000","淡水區"
"251002","672-BX","2018/01/13 18:59:40","新北市淡水區中正東路49號","121.446515","25.1679666666667","6501000","淡水區"
"251003","673-BX","2018/01/13 18:59:51","新北市淡水區中山北路一段149巷24號","121.442901666667","25.1779916666667","6501000","淡水區"
"207003","550-UM","2018/01/13 18:59:38","新北市萬里區大鵬里頂社24-2號","121.65751","25.2102933333333","6502800","萬里區"
"207004","225-TW","2018/01/13 18:59:44","新北市萬里區萬里里獅頭路23號","121.693216666667","25.1783383333333","6502800","萬里區"
"252002","178-VK","2018/01/13 18:59:45","新北市三芝區民生街2號","121.503778333333","25.25754","6502100","三芝區"
"252003","249-BX","2018/01/13 18:59:41","新北市三芝區後厝里北勢子42-6號","121.472366666667","25.2527433333333","6502100","三芝區"
"252001","292-VK","2018/01/13 18:59:47","新北市三芝區中興街二段260號","121.501705","25.2530366666667","6502100","三芝區"
"237004","078-UY","2018/01/13 18:59:52","新北市三峽區有木194-1號","121.447243333333","24.8454716666667","6500900","三峽區"
"237007","153-BY","2018/01/13 18:59:48","新北市三峽區大埔路133號","121.366573333333","24.906225","6500900","三峽區"
"237013","252-BX","2018/01/13 18:59:52","新北市三峽區光明路69巷25號","121.37669","24.9292266666667","6500900","三峽區"
"237012","275-BY","2018/01/13 18:59:39","新北市三峽區三樹路212-1號","121.379116666667","24.942145","6500900","三峽區"
"237008","302-VK","2018/01/13 18:59:51","新北市三峽區中正路一段289號","121.371626666667","24.92568","6500900","三峽區"
"237014","433-BY","2018/01/13 18:59:33","新北市三峽區隆恩街190-10號","121.360673333333","24.9423183333333","6500900","三峽區"
"237006","5529-G3","2018/01/13 18:59:43","新北市三峽區溪東路213號","121.405675","24.9329433333333","6500900","三峽區"
"237016","649-BX","2018/01/13 18:54:50","新北市三峽區建安52號","121.447161666667","24.927405","6500900","三峽區"
"237010","706-TV","2018/01/13 18:59:54","新北市三峽區國光街54號","121.37449","24.9380966666667","6500900","三峽區"
"237005","AKY-6261","2018/01/13 18:59:35","新北市三峽區中山路459巷163-3號","121.34864","24.9329516666667","6500900","三峽區"
"236073","105-UM","2018/01/13 18:59:39","新北市土城區清水路99巷13號","121.456823333333","24.982375","6501300","土城區"
"236043","107-UM","2018/01/13 18:59:56","新北市土城區學府路一段225號","121.451231666667","24.9842","6501300","土城區"
"236031","253-BX","2018/01/13 18:59:53","新北市土城區慶利街11號","121.439511666667","24.973655","6501300","土城區"
"236027","269-VK","2018/01/13 18:59:53","新北市土城區中正路56巷13號","121.444056666667","24.9747533333333","6501300","土城區"
"236015","270-VK","2018/01/13 18:59:50","新北市土城區永豐路31巷22號","121.463743333333","24.988195","6501300","土城區"
"236038","271-VK","2018/01/13 18:59:42","新北市土城區明德路一段240巷28號","121.459913333333","24.97793","6501300","土城區"
"236023","401-BY","2018/01/13 18:59:45","新北市土城區明峰街55號","121.467625","24.9866083333333","6501300","土城區"
"236059","912-UM","2018/01/13 18:59:36","新北市土城區明德路一段385-1號","121.4524","24.9797766666667","6501300","土城區"
"236049","913-UM","2018/01/13 18:59:53","新北市土城區青雲路172-1號","121.459211666667","24.9826","6501300","土城區"
"236063","915-UM","2018/01/13 18:59:40","新北市土城區延和路41巷6弄16號","121.466666666667","24.990255","6501300","土城區"
"236055","AAC-216","2018/01/13 18:59:53","新北市土城區學成路164號","121.448066666667","24.98911","6501300","土城區"
"238023","601-UM","2018/01/13 18:59:34","新北市樹林區工興街18-1號","121.397801666667","25.0131116666667","6500700","樹林區"
"238019","599-UM","2018/01/13 18:59:36","新北市樹林區東華街34號","121.414865","24.9819066666667","6500700","樹林區"
"238018","571-TV","2018/01/13 18:59:48","新北市樹林區中華路227號","121.418753333333","24.9809516666667","6500700","樹林區"
"238021","KEA-2217","2018/01/13 18:59:43","新北市樹林區西圳街二段125號","121.38433","24.957535","6500700","樹林區"
"238022","KEA-2213","2018/01/13 18:59:44","新北市樹林區東興街43-1號","121.410841666667","24.9774083333333","6500700","樹林區"
"238025","303-VK","2018/01/13 18:59:39","新北市樹林區民和街81號","121.378913333333","24.9729816666667","6500700","樹林區"
"238017","283-BY","2018/01/13 18:59:38","新北市樹林區光興街50號","121.40983","25.0027233333333","6500700","樹林區"
"238014","282-BY","2018/01/13 18:59:28","新北市樹林區潭興街143巷11號","121.425431666667","25.0000283333333","6500700","樹林區"
"238026","172-UY","2018/01/13 18:59:41","新北市樹林區信和街12號","121.390721666667","24.97277","6500700","樹林區"
"238016","169-UY","2018/01/13 18:59:42","新北市樹林區復興路373巷7弄26號","121.418356666667","24.98709","6500700","樹林區"
"239007","AAC-297","2018/01/13 18:59:45","新北市鶯歌區成功街10號","121.358536666667","24.9574733333333","6500800","鶯歌區"
"239006","891-R6","2018/01/13 18:59:41","新北市鶯歌區鶯桃路268巷16弄7號","121.336281666667","24.9602683333333","6500800","鶯歌區"
"239008","527-UM","2018/01/13 18:59:56","新北市鶯歌區國際二路18巷43號","121.338163333333","24.9759433333333","6500800","鶯歌區"
"239005","526-UM","2018/01/13 18:59:46","新北市鶯歌區中湖街22號","121.346938333333","24.9728333333333","6500800","鶯歌區"
"239001","417-VK","2018/01/13 18:59:47","新北市鶯歌區永安街42號","121.337876666667","24.9562166666667","6500800","鶯歌區"
"239003","360-BY","2018/01/13 18:59:39","新北市鶯歌區鶯桃路485號","121.33171","24.9662966666667","6500800","鶯歌區"
"239002","359-BY","2018/01/13 18:59:42","新北市鶯歌區中山路7號","121.352811666667","24.9570533333333","6500800","鶯歌區"
"239004","193-VK","2018/01/13 18:59:39","新北市鶯歌區中正三路406巷12號","121.325191666667","24.93547","6500800","鶯歌區"
"221036","130-UY","2018/01/13 18:59:54","新北市汐止區忠孝東路269號","121.663268333333","25.0682416666667","6501100","汐止區"
"221010","269-BY","2018/01/13 18:59:54","新北市汐止區康寧街901號","121.651498333333","25.075005","6501100","汐止區"
"221012","278-VK","2018/01/13 18:59:52","新北市汐止區康寧街901號","121.650798333333","25.0752416666667","6501100","汐止區"
"221023","279-VK","2018/01/13 18:59:48","新北市汐止區康寧街901號","121.650983333333","25.0752016666667","6501100","汐止區"
"221032","280-BY","2018/01/13 18:59:47","新北市汐止區橫科路385巷11號","121.62452","25.047735","6501100","汐止區"
"221027","281-BY","2018/01/13 18:59:52","新北市汐止區康寧街901號","121.651461666667","25.0749866666667","6501100","汐止區"
"221029","298-VK","2018/01/13 18:59:37","新北市汐止區樟樹一路254號","121.642448333333","25.0672683333333","6501100","汐止區"
"221008","358-BY","2018/01/13 18:59:50","新北市汐止區康寧街861巷1號","121.645385","25.07594","6501100","汐止區"
"221015","567-BX","2018/01/13 18:59:40","新北市汐止區鄉長路一段43號","121.665286666667","25.0750116666667","6501100","汐止區"
"221025","623-UM","2018/01/13 18:59:53","新北市汐止區汐萬路一段256巷3號","121.653366666667","25.0747483333333","6501100","汐止區"
"221038","646-BX","2018/01/13 18:59:56","新北市汐止區康寧街901號","121.650716666667","25.0752783333333","6501100","汐止區"
"221033","647-BX","2018/01/13 18:59:40","新北市汐止區南勢街1巷1號","121.627066666667","25.0374266666667","6501100","汐止區"
"221002","707-TV","2018/01/13 18:59:44","新北市汐止區大同路一段4號","121.621108333333","25.0550366666667","6501100","汐止區"
"221018","753-BX","2018/01/13 18:59:47","新北市汐止區汐萬路一段121號","121.654133333333","25.0710883333333","6501100","汐止區"
"220079","145-BY","2018/01/13 18:59:56","新北市板橋區民權路202巷18弄2號","121.460751666667","25.0164133333333","6500100","板橋區"
"220080","200-UY","2018/01/13 18:59:36","新北市板橋區大觀路二段265巷1弄52號","121.445135","24.9979133333333","6500100","板橋區"
"220082","610-BX","2018/01/13 18:59:54","新北市板橋區滿平街88號","121.427725","24.9890466666667","6500100","板橋區"
"220072","277-BY","2018/01/13 18:59:39","新北市板橋區篤行路一段33號","121.432008333333","24.9943466666667","6500100","板橋區"
"220101","280-UM","2018/01/13 18:59:51","新北市板橋區莊敬路78-2號","121.471633333333","25.0250466666667","6500100","板橋區"
"220071","283-VK","2018/01/13 18:59:54","新北市板橋區重慶路235號","121.463113333333","25.0010566666667","6500100","板橋區"
"220094","285-UM","2018/01/13 18:59:43","新北市板橋區文化路二段19號","121.468758333333","25.0246533333333","6500100","板橋區"
"220053","285-VK","2018/01/13 18:59:43","新北市板橋區中山路二段89巷39號","121.473721666667","25.0171033333333","6500100","板橋區"
"220083","286-VK","2018/01/13 18:59:44","新北市板橋區大觀路一段38巷156弄129號","121.443426666667","25.0083533333333","6500100","板橋區"
"220081","287-VK","2018/01/13 18:59:39","新北市板橋區南雅西路二段96號","121.452555","25.0114133333333","6500100","板橋區"
"220090","288-VK","2018/01/13 18:59:49","新北市板橋區四維路177巷2弄1號","121.46406","25.0262466666667","6500100","板橋區"
"220061","293-UM","2018/01/13 18:59:49","新北市板橋區富山街83號","121.47675","25.0218683333333","6500100","板橋區"
"220084","296-UM","2018/01/13 18:59:49","新北市板橋區龍興街63巷2號","121.442985","25.001315","6500100","板橋區"
"220075","303-R5","2018/01/13 18:59:38","新北市板橋區茶館街15號","121.456671666667","25.0106133333333","6500100","板橋區"
"220062","305-R5","2018/01/13 18:59:37","新北市板橋區三民路二段正隆巷13號","121.477548333333","25.0130083333333","6500100","板橋區"
"220092","307-R5","2018/01/13 18:59:50","新北市板橋區文化路一段106號","121.464896666667","25.018095","6500100","板橋區"
"220098","317-R6","2018/01/13 18:59:42","新北市板橋區民有街17號","121.46618","25.0249566666667","6500100","板橋區"
"220064","486-VK","2018/01/13 18:59:51","新北市板橋區板新路131號","121.470831666667","25.0152666666667","6500100","板橋區"
"220089","487-VK","2018/01/13 18:59:51","新北市板橋區仁化街5號","121.474761666667","25.0317183333333","6500100","板橋區"
"220088","491-VK","2018/01/13 18:59:54","新北市板橋區民生路二段232-13號","121.468698333333","25.0223583333333","6500100","板橋區"
"220035","560-BX","2018/01/13 18:59:32","新北市板橋區中正路341巷35號","121.454205","25.0197583333333","6500100","板橋區"
"220103","561-BX","2018/01/13 18:59:44","新北市板橋區縣民大道二段279號","121.46997","25.0179966666667","6500100","板橋區"
"220063","609-BX","2018/01/13 18:59:54","新北市板橋區中山路二段146號","121.476585","25.017055","6500100","板橋區"
"220056","630-UY","2018/01/13 18:59:55","新北市板橋區信義路98號","121.458113333333","24.9928283333333","6500100","板橋區"
"220091","637-BX","2018/01/13 18:59:52","新北市板橋區文聖街176號","121.479095","25.0270683333333","6500100","板橋區"
"220057","686-BX","2018/01/13 18:59:42","新北市板橋區館前東路80號","121.461693333333","25.0074433333333","6500100","板橋區"
"220077","687-BX","2018/01/13 18:59:54","新北市板橋區龍興街8號","121.442795","24.999645","6500100","板橋區"
"220093","689-BX","2018/01/13 18:59:42","新北市板橋區民生路三段66號","121.466968333333","25.02559","6500100","板橋區"
"220054","741-BX","2018/01/13 18:59:45","新北市板橋區後埔街79號","121.460695","25.0053983333333","6500100","板橋區"
"220055","827-TW","2018/01/13 18:59:53","新北市板橋區中山路一段158巷35號","121.466735","25.0109716666667","6500100","板橋區"
"220067","829-TW","2018/01/13 18:59:51","新北市板橋區三民路二段正隆巷12弄15號","121.477698333333","25.0134516666667","6500100","板橋區"
"220102","830-TW","2018/01/13 18:59:40","新北市板橋區懷德街235巷2-1號","121.48137","25.028115","6500100","板橋區"
"220074","895-R6","2018/01/13 18:59:43","新北市板橋區林園街37號","121.453796666667","25.0099366666667","6500100","板橋區"
"220073","985-R7","2018/01/13 18:59:49","新北市板橋區民權路200號","121.459086666667","25.0138316666667","6500100","板橋區"
"220097","AAC-210","2018/01/13 18:59:51","新北市板橋區四維路137巷31號","121.463723333333","25.02461","6500100","板橋區"
"220070","AAC-253","2018/01/13 18:59:37","新北市板橋區四川路一段278號","121.458776666667","25.0009066666667","6500100","板橋區"
