"lineid","car","time","location","longitude","latitude","cityid","cityname"
"234046","148-BY","2018/01/13 19:09:51","新北市永和區永元路52巷2號","121.522565","25.0010366666667","6500400","永和區"
"234013","149-BY","2018/01/13 19:09:36","新北市永和區保福路二段11號","121.510923333333","25.010995","6500400","永和區"
"234007","207-UY","2018/01/13 19:09:49","新北市永和區中山路一段277號","121.507145","25.006975","6500400","永和區"
"234081","298-R6","2018/01/13 19:09:48","新北市永和區永貞路41號","121.52114","25.0064483333333","6500400","永和區"
"234038","336-UY","2018/01/13 19:09:34","新北市永和區民樂街92巷2號","121.527316666667","24.99733","6500400","永和區"
"234064","337-UY","2018/01/13 19:09:34","新北市永和區秀朗路二段48號","121.521606666667","25.002175","6500400","永和區"
"234086","338-UY","2018/01/13 19:09:53","新北市永和區永貞路89號","121.518416666667","25.0044316666667","6500400","永和區"
"234054","553-UM","2018/01/13 19:09:49","新北市永和區竹林路72巷2號","121.519225","25.0129466666667","6500400","永和區"
"234017","745-BX","2018/01/13 19:09:42","新北市永和區忠孝街27號","121.513955","25.0156033333333","6500400","永和區"
"234030","746-BX","2018/01/13 19:09:46","新北市永和區民生路29號","121.522905","24.9984066666667","6500400","永和區"
"234042","838-RS","2018/01/13 19:09:56","新北市永和區永和路一段49巷3弄81號","121.511935","25.0061683333333","6500400","永和區"
"234061","AAD-866","2018/01/13 19:09:40","新北市永和區安樂路306-8號","121.514666666667","25.0053016666667","6500400","永和區"
"234070","847-RS","2018/01/13 19:09:37","新北市永和區豫溪街137巷1弄11號","121.519078333333","25.0104416666667","6500400","永和區"
"234050","863-TW","2018/01/13 19:09:51","新北市永和區文化路135巷9號","121.510675","25.0144116666667","6500400","永和區"
"234026","9371-KE","2018/01/13 19:09:47","新北市永和區安樂路274號","121.514706666667","25.0042366666667","6500400","永和區"
"234011","9373-KE","2018/01/13 19:09:43","新北市永和區仁愛路141巷30弄26號","121.512035","25.01145","6500400","永和區"
"249005","172-UM","2018/01/13 19:09:52","新北市八里區中華路三段51號","121.395283333333","25.1415666666667","6502300","八里區"
"249001","173-UM","2018/01/13 19:09:41","新北市八里區龍米路二段228-2號","121.432563333333","25.1584316666667","6502300","八里區"
"249003","593-UM","2018/01/13 19:09:38","新北市八里區博物館路9號","121.415445","25.1637683333333","6502300","八里區"
"248016","026-BX","2018/01/13 19:09:37","新北市五股區成泰路三段545號","121.451848333333","25.101735","6501500","五股區"
"248020","225-UY","2018/01/13 19:02:40","新北市五股區凌雲路三段57號","121.42528","25.1249983333333","6501500","五股區"
"248012","247-BX","2018/01/13 19:09:43","新北市五股區中興路四段48巷16號","121.43858","25.08347","6501500","五股區"
"248004","677-BX","2018/01/13 19:09:38","新北市五股區六合街3號","121.431975","25.0885066666667","6501500","五股區"
"248002","678-BX","2018/01/13 19:09:52","新北市五股區凌雲路一段158巷6號","121.448015","25.10284","6501500","五股區"
"248010","682-TV","2018/01/13 19:09:55","新北市五股區水碓一路23號","121.430621666667","25.0713216666667","6501500","五股區"
"234023","9380-KE","2018/01/13 19:09:50","新北市永和區中興街135號","121.518645","25.0123916666667","6500400","永和區"
"234077","969-R7","2018/01/13 19:09:52","新北市永和區民族街25號","121.51881","24.9996016666667","6500400","永和區"
"234074","AAC-211","2018/01/13 19:09:45","新北市永和區竹林路198號","121.520503333333","25.0095783333333","6500400","永和區"
"234067","AAC-212","2018/01/13 19:09:39","新北市永和區保平路23號","121.512616666667","25.0074266666667","6500400","永和區"
"234003","AAC-295","2018/01/13 19:09:44","新北市永和區保福路一段96號","121.511973333333","25.0104383333333","6500400","永和區"
"244013","069-UM","2018/01/13 19:09:35","新北市林口區麗園一街11巷11號","121.378786666667","25.0705633333333","6501700","林口區"
"244019","402-UM","2018/01/13 19:09:45","新北市林口區麗園二街47巷41號","121.382328333333","25.0696383333333","6501700","林口區"
"244025","742-UY","2018/01/13 19:09:56","新北市林口區文化北路一段542巷55弄1號","121.369253333333","25.0783916666667","6501700","林口區"
"244023","483-VK","2018/01/13 19:09:35","新北市林口區仁愛路二段700號","121.369185","25.0808566666667","6501700","林口區"
"244017","485-VK","2018/01/13 19:09:40","新北市林口區忠孝路1號","121.364288333333","25.0758666666667","6501700","林口區"
"244011","656-BX","2018/01/13 19:09:54","新北市林口區竹林路55號","121.38742","25.0782216666667","6501700","林口區"
"244009","837-TS","2018/01/13 19:09:49","新北市林口區竹林路325號","121.38987","25.0834366666667","6501700","林口區"
"243012","AAD-798","2018/01/13 19:09:52","新北市泰山區吳厝窠1號","121.427936666667","25.0585933333333","6501600","泰山區"
"243011","297-R6","2018/01/13 19:09:43","新北市泰山區明志路二段374號","121.425478333333","25.0448083333333","6501600","泰山區"
"243015","380-SR","2018/01/13 19:09:56","新北市泰山區明志路一段399號","121.430788333333","25.0572766666667","6501600","泰山區"
"243014","421-VK","2018/01/13 19:09:42","新北市泰山區泰林路二段480號","121.425035","25.0639916666667","6501600","泰山區"
"243010","KEA-2215","2018/01/13 19:09:48","新北市泰山區明志路一段483巷1弄4號","121.431128333333","25.0554333333333","6501600","泰山區"
"243009","KEA-2216","2018/01/13 19:09:54","新北市泰山區楓樹街15巷5號","121.434755","25.0629433333333","6501600","泰山區"
"243013","646-TV","2018/01/13 19:09:36","新北市泰山區明志路三段277號","121.423016666667","25.0367766666667","6501600","泰山區"
"243016","680-BX","2018/01/13 19:09:21","新北市泰山區明志路二段355號","121.425428333333","25.0443483333333","6501600","泰山區"
"222003","436-BY","2018/01/13 19:09:51","新北市深坑區深南路156號","121.624881666667","25.014555","6501800","深坑區"
"222002","659-BX","2018/01/13 19:09:42","新北市深坑區北深路一段177號","121.63258","25.010805","6501800","深坑區"
"231041","001-UM","2018/01/13 19:09:49","新北市新店區溪園路363號","121.523211666667","24.9808366666667","6500600","新店區"
"231066","0293-UT","2018/01/13 19:09:46","新北市新店區安康路三段359巷16號","121.484596666667","24.9496283333333","6500600","新店區"
"231059","046-UY","2018/01/13 19:09:41","新北市新店區安和路二段138-3號","121.519476666667","24.972065","6500600","新店區"
"231061","047-UY","2018/01/13 19:09:39","新北市新店區安康路一段65號","121.53047","24.9610166666667","6500600","新店區"
"231060","106-UY","2018/01/13 19:09:35","新北市新店區安康路二段232號","121.50944","24.959265","6500600","新店區"
"231051","107-UY","2018/01/13 19:09:49","新北市新店區中正路380號","121.534926666667","24.9770716666667","6500600","新店區"
"231048","108-UY","2018/01/13 19:09:53","新北市新店區德正街25巷8號","121.544671666667","24.9717733333333","6500600","新店區"
"231052","187-VK","2018/01/13 19:09:38","新北市新店區屈尺路87巷2號","121.54556","24.9227533333333","6500600","新店區"
"231050","KEA-2219","2018/01/13 19:09:37","新北市新店區竹林路2巷23-1號","121.550261666667","24.9509883333333","6500600","新店區"
"231046","278-BY","2018/01/13 19:09:47","新北市新店區華潭街1巷47號","121.52783","24.947605","6500600","新店區"
"231054","AAD-862","2018/01/13 19:09:48","新北市新店區新店路211-1號","121.537176666667","24.9569383333333","6500600","新店區"
"231058","3712-VJ","2018/01/13 19:09:54","新北市新店區光明街138巷13弄5號","121.54019","24.9613733333333","6500600","新店區"
"231056","3713-VJ","2018/01/13 19:09:51","新北市新店區二十張路46巷37弄45號","121.535415","24.9812583333333","6500600","新店區"
"231055","4716-K9","2018/01/13 19:09:48","新北市新店區安和路三段4巷1-3號","121.518271666667","24.980605","6500600","新店區"
"231067","4772-VM","2018/01/13 19:09:42","新北市新店區安光路1號","121.514106666667","24.9635433333333","6500600","新店區"
"231065","512-UM","2018/01/13 19:09:44","新北市新店區安祥路140號","121.474468333333","24.9558783333333","6500600","新店區"
"231064","515-UM","2018/01/13 19:09:50","新北市新店區安忠路75號","121.51121","24.95728","6500600","新店區"
"231045","617-UM","2018/01/13 19:09:43","新北市新店區北宜路一段164號","121.540405","24.9533633333333","6500600","新店區"
"231040","619-UM","2018/01/13 19:09:42","新北市新店區三民路155號","121.53385","24.9734833333333","6500600","新店區"
"231042","641-BX","2018/01/13 19:09:52","新北市新店區中興路一段113號","121.541321666667","24.9627583333333","6500600","新店區"
"231063","645-TV","2018/01/13 19:09:51","新北市新店區車子路134號","121.505073333333","24.9487516666667","6500600","新店區"
"231049","719-UM","2018/01/13 19:09:44","新北市新店區二十張路19號","121.53934","24.9821316666667","6500600","新店區"
"231062","720-UM","2018/01/13 19:09:35","新北市新店區莒光路32號","121.523461666667","24.959085","6500600","新店區"
"231044","897-TW","2018/01/13 19:09:38","新北市新店區中興路三段216號","121.543545","24.9824666666667","6500600","新店區"
"231043","899-TW","2018/01/13 19:09:48","新北市新店區寶橋路69-1號","121.545573333333","24.9749833333333","6500600","新店區"
"241026","066-VK","2018/01/13 19:09:34","新北市三重區泉州街70巷1號","121.494993333333","25.0548033333333","6500200","三重區"
"241020","156-TC","2018/01/13 19:09:51","新北市三重區後竹圍街146號","121.487881666667","25.0724066666667","6500200","三重區"
"241029","942-UM","2018/01/13 19:09:40","新北市三重區重安街83號","121.492496666667","25.0557816666667","6500200","三重區"
"235066","003-UY","2018/01/13 19:09:38","新北市中和區光華街28號","121.504745","25.0040866666667","6500300","中和區"
"235064","005-UY","2018/01/13 19:09:47","新北市中和區泰和街38巷10號","121.498983333333","25.0005316666667","6500300","中和區"
"235063","006-UY","2018/01/13 19:09:49","新北市中和區連城路249巷5號","121.493753333333","24.9967783333333","6500300","中和區"
"235046","031-BX","2018/01/13 19:09:44","新北市中和區忠孝街1巷17號","121.508558333333","24.9838966666667","6500300","中和區"
"235056","096-UM","2018/01/13 19:09:49","新北市中和區員山路526號","121.478898333333","25.00971","6500300","中和區"
"235039","097-UM","2018/01/13 19:09:46","新北市永和區民有街11號","121.51638","24.9968483333333","6500300","中和區"
"235065","098-UM","2018/01/13 19:09:46","新北市中和區勝利路35巷1弄36號","121.500425","25.0079216666667","6500300","中和區"
"235040","150-BY","2018/01/13 19:09:41","新北市中和區宜安路120號","121.510183333333","24.9980116666667","6500300","中和區"
"235058","151-BY","2018/01/13 19:09:43","新北市中和區連城路378號","121.480955","24.9951316666667","6500300","中和區"
"235055","183-VK","2018/01/13 19:09:48","新北市中和區莒光路2號","121.471688333333","25.004715","6500300","中和區"
"235038","185-VK","2018/01/13 19:09:49","新北市中和區大仁街10巷27弄4號","121.519196666667","24.9927066666667","6500300","中和區"
"235049","186-VK","2018/01/13 19:09:52","新北市中和區明禮街43號","121.504181666667","24.9963616666667","6500300","中和區"
"235067","255-BX","2018/01/13 19:09:40","新北市中和區新生街176巷13號","121.48295","24.9998566666667","6500300","中和區"
"235044","293-VK","2018/01/13 19:09:51","新北市中和區中興街222-6號","121.500666666667","24.9896116666667","6500300","中和區"
"235072","301-VK","2018/01/13 19:09:42","新北市中和區福祥路2號","121.499688333333","25.0027816666667","6500300","中和區"
"235043","352-BY","2018/01/13 19:09:51","新北市中和區景平路116號","121.51936","24.9916433333333","6500300","中和區"
"235068","377-QA","2018/01/13 19:09:44","新北市中和區圓通路162巷35號","121.496698333333","24.99553","6500300","中和區"
"235025","378-QA","2018/01/13 19:09:36","新北市中和區民有街59號","121.476311666667","25.0035816666667","6500300","中和區"
"235050","4979-A6","2018/01/13 19:09:52","新北市中和區復興路249巷11弄3號","121.503548333333","24.989705","6500300","中和區"
"235069","4980-A6","2018/01/13 19:09:36","新北市中和區中和路217巷1弄1號","121.504085","25.0002833333333","6500300","中和區"
"235042","551-UM","2018/01/13 19:09:46","新北市中和區自立路113號","121.52222","24.99453","6500300","中和區"
"235070","558-UM","2018/01/13 18:58:14","新北市中和區南華路14號","121.502518333333","24.9954166666667","6500300","中和區"
"235045","565-BX","2018/01/13 19:09:51","新北市中和區景新街467巷20弄86號","121.514475","24.9876116666667","6500300","中和區"
"235054","640-BX","2018/01/13 19:09:36","新北市中和區國光街32號","121.471336666667","25.000205","6500300","中和區"
"235060","647-TV","2018/01/13 19:09:43","新北市中和區民治街25巷2號","121.475451666667","25.00171","6500300","中和區"
"235047","732-UM","2018/01/13 19:09:47","新北市中和區興南路一段56巷1弄2號","121.510725","24.9908283333333","6500300","中和區"
"235057","801-TS","2018/01/13 19:09:41","新北市中和區民利街58巷5弄11號","121.478166666667","24.99916","6500300","中和區"
"235052","805-TS","2018/01/13 19:09:46","新北市中和區興南路二段242巷23號","121.502373333333","24.9830883333333","6500300","中和區"
"235048","896-TW","2018/01/13 19:09:41","新北市中和區華新街208號","121.506566666667","24.9819016666667","6500300","中和區"
"235053","900-TW","2018/01/13 19:09:46","新北市中和區華福街73號","121.467238333333","24.9965433333333","6500300","中和區"
"235051","157-BY","2018/01/13 19:09:42","新北市中和區興南路一段93巷89弄4號","121.510791666667","24.98599","6500300","中和區"
"235037","AAC-213","2018/01/13 19:09:47","新北市中和區秀朗路三段60巷35號","121.525173333333","24.9948933333333","6500300","中和區"
"235059","AAC-215","2018/01/13 19:09:41","新北市中和區圓通路294巷9號","121.488773333333","24.9899833333333","6500300","中和區"
"220065","072-UY","2018/01/13 19:09:43","新北市板橋區民族路247巷3弄19號","121.469856666667","25.0077433333333","6500100","板橋區"
"220086","073-UY","2018/01/13 19:09:53","新北市板橋區中正路250巷110號","121.459583333333","25.02","6500100","板橋區"
"220106","075-UY","2018/01/13 19:09:47","新北市板橋區雙十路三段10巷1號","121.47204","25.030745","6500100","板橋區"
"220069","AAD-861","2018/01/13 19:09:44","新北市板橋區大華街146巷1號","121.459448333333","25.0042966666667","6500100","板橋區"
"220096","120-SR","2018/01/13 19:09:41","新北市板橋區雙十路二段4-2號","121.477073333333","25.0255316666667","6500100","板橋區"
"247004","336-TH","2018/01/13 19:09:52","新北市五股區中興路三段163號","121.449186666667","25.0807566666667","6501400","蘆洲區"
"226004","312-R5","2018/01/13 19:09:38","新北市平溪區靜安路三段10號","121.74917","25.02607","6502400","平溪區"
"235041","251-BX","2018/01/13 19:09:50","新北市中和區中和路260-1號","121.507963333333","24.9993566666667","6500300","中和區"
"228003","097-TW","2018/01/13 19:09:54","新北市貢寮區和美里和美街32-7號","121.9131","25.0844266666667","6502600","貢寮區"
"228001","212-TW","2018/01/13 19:09:45","新北市貢寮區真理里新港街10號","121.925506666667","25.05436","6502600","貢寮區"
"228002","585-TW","2018/01/13 19:09:38","新北市貢寮區福隆里福隆街36號","121.9451","25.0174416666667","6502600","貢寮區"
"224010","AGQ-8101","2018/01/13 19:06:19","新北市瑞芳區汽車路7-3號","121.848065","25.1094416666667","6501200","瑞芳區"
"224006","676-BX","2018/01/13 19:09:36","新北市瑞芳區東和路37號","121.804981666667","25.1060066666667","6501200","瑞芳區"
"224009","285-BY","2018/01/13 19:09:20","新北市瑞芳區洞頂路148號","121.85942","25.1181883333333","6501200","瑞芳區"
"224008","275-VK","2018/01/13 19:09:55","新北市瑞芳區瑞芳街82-1號","121.803078333333","25.11001","6501200","瑞芳區"
"224005","271-BY","2018/01/13 19:09:53","新北市瑞芳區三爪子坑路43號","121.813136666667","25.1074133333333","6501200","瑞芳區"
"227010","642-TC","2018/01/13 19:09:51","新北市雙溪區牡丹里中正路46-1號","121.864963333333","25.0389216666667","6502500","雙溪區"
"227002","400-TW","2018/01/13 19:09:55","新北市雙溪區平林里梅竹蹊56-4號","121.860685","25.0367183333333","6502500","雙溪區"
"253005","032-BX","2018/01/13 19:09:49","新北市石門區阿里荖35-2號","121.6065","25.28067","6502200","石門區"
"253006","295-VK","2018/01/13 19:09:37","新北市石門區崁子腳58-1號","121.529713333333","25.2859633333333","6502200","石門區"
"222001","KEA-2212","2018/01/13 19:09:35","新北市深坑區北深路一段300號","121.624185","25.0057233333333","6501800","深坑區"
"208002","742-BX","2018/01/13 19:09:57","新北市金山區仁愛路67巷28號","121.634038333333","25.220835","6502700","金山區"
"208003","665-BX","2018/01/13 19:09:44","新北市金山區中山路245號","121.637195","25.2220366666667","6502700","金山區"
"208001","761-BX","2018/01/13 19:09:44","新北市金山區金包里街68號","121.63917","25.22156","6502700","金山區"
"251009","008-UM","2018/01/13 19:09:49","新北市淡水區清水街111號","121.440531666667","25.1708566666667","6501000","淡水區"
"251001","011-UM","2018/01/13 19:09:36","新北市淡水區自強路201巷43號","121.462068333333","25.126845","6501000","淡水區"
"251013","179-VK","2018/01/13 19:09:48","新北市淡水區安子內12號","121.481563333333","25.219085","6501000","淡水區"
"251014","180-VK","2018/01/13 19:09:50","新北市淡水區小中寮18號","121.485998333333","25.230265","6501000","淡水區"
"251015","182-VK","2018/01/13 19:09:44","新北市淡水區糞箕湖50號","121.48549","25.1710133333333","6501000","淡水區"
"251010","413-VK","2018/01/13 19:09:40","新北市淡水區中正路一段156巷3號","121.421163333333","25.1802633333333","6501000","淡水區"
"251016","442-VK","2018/01/13 19:09:37","新北市淡水區淡金路三段212號","121.448886666667","25.2043533333333","6501000","淡水區"
"251005","443-VK","2018/01/13 19:09:33","新北市淡水區原德路11號","121.442163333333","25.17123","6501000","淡水區"
"251006","561-UM","2018/01/13 19:09:34","新北市淡水區中山北路三段136號","121.444428333333","25.1946933333333","6501000","淡水區"
"251007","577-R6","2018/01/13 19:09:52","新北市淡水區民生路135巷10號","121.46605","25.13889","6501000","淡水區"
"251002","672-BX","2018/01/13 19:09:52","新北市淡水區中山路87巷1號","121.442523333333","25.1704383333333","6501000","淡水區"
"251003","673-BX","2018/01/13 19:09:50","新北市淡水區中山北路一段68號","121.442121666667","25.1758266666667","6501000","淡水區"
"207003","550-UM","2018/01/13 19:09:38","新北市萬里區大鵬里萬里加投14號","121.65023","25.208985","6502800","萬里區"
"207004","225-TW","2018/01/13 19:09:43","新北市萬里區萬里里瑪鋉下街46號","121.691451666667","25.1791916666667","6502800","萬里區"
"252002","178-VK","2018/01/13 19:09:45","新北市三芝區埔坪里埔頭坑84號","121.508096666667","25.25429","6502100","三芝區"
"252003","249-BX","2018/01/13 19:09:41","新北市三芝區錫板里南勢崗6號","121.47954","25.261965","6502100","三芝區"
"252001","292-VK","2018/01/13 19:09:47","新北市三芝區長勤街80號","121.50028","25.255125","6502100","三芝區"
"237004","078-UY","2018/01/13 19:09:52","新北市三峽區有木200-1號","121.441733333333","24.8504333333333","6500900","三峽區"
"237007","153-BY","2018/01/13 19:09:48","新北市三峽區中正路二段218號","121.366055","24.9138716666667","6500900","三峽區"
"237013","252-BX","2018/01/13 19:09:52","新北市三峽區光明路69巷25號","121.376728333333","24.9292033333333","6500900","三峽區"
"237012","275-BY","2018/01/13 19:09:39","新北市三峽區三樹路222巷228弄9號","121.391491666667","24.9425833333333","6500900","三峽區"
"237008","302-VK","2018/01/13 19:09:51","新北市三峽區大同路40-6號","121.376253333333","24.9280066666667","6500900","三峽區"
"237014","433-BY","2018/01/13 19:09:53","新北市三峽區大勇路22-2號","121.367051666667","24.9377983333333","6500900","三峽區"
"237006","5529-G3","2018/01/13 19:09:43","新北市三峽區橫溪路96號","121.397916666667","24.935455","6500900","三峽區"
"237016","649-BX","2018/01/13 19:09:50","新北市三峽區安坑48-1號","121.459451666667","24.9322416666667","6500900","三峽區"
"237010","706-TV","2018/01/13 19:09:54","新北市三峽區復興路45號","121.373473333333","24.9369316666667","6500900","三峽區"
"237005","AKY-6261","2018/01/13 19:09:55","新北市三峽區中山路459巷163-3號","121.348816666667","24.932895","6500900","三峽區"
"236073","105-UM","2018/01/13 19:09:39","新北市土城區裕生路84巷9號","121.446791666667","24.985555","6501300","土城區"
"236027","269-VK","2018/01/13 19:09:53","新北市土城區中央路二段193號","121.442271666667","24.9752183333333","6501300","土城區"
"236015","270-VK","2018/01/13 19:09:50","新北市土城區學府路一段75巷16弄2號","121.457198333333","24.9876833333333","6501300","土城區"
"236038","271-VK","2018/01/13 19:09:42","新北市土城區清水路145號","121.458395","24.981815","6501300","土城區"
"236023","401-BY","2018/01/13 19:09:45","新北市土城區延峰街36巷3號","121.469571666667","24.9844616666667","6501300","土城區"
"236059","912-UM","2018/01/13 19:08:45","新北市土城區金城路二段232號","121.456555","24.9829016666667","6501300","土城區"
"236049","913-UM","2018/01/13 19:09:39","新北市土城區明德路一段398-1號","121.453643333333","24.9790883333333","6501300","土城區"
"236055","AAC-216","2018/01/13 19:09:33","新北市土城區學府路一段169號","121.452693333333","24.9854566666667","6501300","土城區"
"238023","601-UM","2018/01/13 19:09:43","新北市樹林區大慶街57號","121.39601","25.0138466666667","6500700","樹林區"
"238019","599-UM","2018/01/13 19:09:36","新北市樹林區東華街33號","121.4151","24.9818116666667","6500700","樹林區"
"238018","571-TV","2018/01/13 19:09:48","新北市樹林區太平路56巷1號","121.418976666667","24.9819433333333","6500700","樹林區"
"238024","5061-A6","2018/01/13 19:09:43","新北市樹林區中山路三段109-1號","121.399571666667","24.97452","6500700","樹林區"
"238021","KEA-2217","2018/01/13 19:09:43","新北市樹林區柑園街二段300號","121.373663333333","24.9518383333333","6500700","樹林區"
"238022","KEA-2213","2018/01/13 19:09:49","新北市樹林區中山路二段151巷6弄5號","121.406598333333","24.9781633333333","6500700","樹林區"
"238025","303-VK","2018/01/13 19:09:39","新北市樹林區中山路三段68號","121.393858333333","24.9723583333333","6500700","樹林區"
"238017","283-BY","2018/01/13 19:09:38","新北市樹林區光興街223巷56號","121.406766666667","25.0049033333333","6500700","樹林區"
"238014","282-BY","2018/01/13 19:09:41","新北市樹林區千歲街92巷7弄25號","121.427403333333","24.9980433333333","6500700","樹林區"
"238026","172-UY","2018/01/13 19:09:41","新北市樹林區佳園路一段41巷6號","121.393495","24.9708683333333","6500700","樹林區"
"238016","169-UY","2018/01/13 19:09:41","新北市樹林區復興路373巷7弄11號","121.417713333333","24.9868666666667","6500700","樹林區"
"239007","AAC-297","2018/01/13 19:09:45","新北市鶯歌區中正一路221號","121.354056666667","24.957105","6500800","鶯歌區"
"239006","891-R6","2018/01/13 19:09:41","新北市鶯歌區鶯桃路91巷40弄2號","121.33755","24.9523833333333","6500800","鶯歌區"
"239008","527-UM","2018/01/13 19:09:36","新北市鶯歌區國際二路8巷2號","121.33817","24.9738866666667","6500800","鶯歌區"
"239005","526-UM","2018/01/13 19:09:46","新北市鶯歌區東湖路5號","121.351111666667","24.9725016666667","6500800","鶯歌區"
"239001","417-VK","2018/01/13 19:09:47","新北市鶯歌區鶯桃路95巷76號","121.337176666667","24.9528333333333","6500800","鶯歌區"
"239003","360-BY","2018/01/13 19:09:39","新北市鶯歌區八德路10號","121.332693333333","24.9549816666667","6500800","鶯歌區"
"239002","359-BY","2018/01/13 19:09:42","新北市鶯歌區中山路117號","121.34999","24.9569966666667","6500800","鶯歌區"
"239004","193-VK","2018/01/13 19:09:53","新北市鶯歌區中正三路鄭厝巷18-2號","121.333163333333","24.9339333333333","6500800","鶯歌區"
"221036","130-UY","2018/01/13 19:09:54","新北市汐止區大同路二段383號","121.65764","25.0672666666667","6501100","汐止區"
"221010","269-BY","2018/01/13 19:09:53","新北市汐止區康寧街901號","121.651496666667","25.0749933333333","6501100","汐止區"
"221012","278-VK","2018/01/13 19:09:53","新北市汐止區康寧街901號","121.650856666667","25.0752416666667","6501100","汐止區"
"221023","279-VK","2018/01/13 19:09:47","新北市汐止區康寧街901號","121.651023333333","25.0751916666667","6501100","汐止區"
"221032","280-BY","2018/01/13 19:09:47","新北市汐止區南興路28號","121.652318333333","25.0616966666667","6501100","汐止區"
"221027","281-BY","2018/01/13 19:09:52","新北市汐止區康寧街901號","121.651441666667","25.07503","6501100","汐止區"
"221029","298-VK","2018/01/13 19:09:37","新北市汐止區汐萬路一段256巷3號","121.652746666667","25.07448","6501100","汐止區"
"221008","358-BY","2018/01/13 19:09:50","新北市汐止區康寧街582號","121.63496","25.069805","6501100","汐止區"
"221015","567-BX","2018/01/13 19:09:40","新北市汐止區汐萬路一段312號","121.650468333333","25.0750916666667","6501100","汐止區"
"221025","623-UM","2018/01/13 19:09:33","新北市汐止區康寧街901號","121.65143","25.0749766666667","6501100","汐止區"
"221038","646-BX","2018/01/13 19:09:36","新北市汐止區康寧街901號","121.650708333333","25.07523","6501100","汐止區"
"221033","647-BX","2018/01/13 19:09:40","新北市汐止區南勢街1巷1號","121.627035","25.0374533333333","6501100","汐止區"
"221002","707-TV","2018/01/13 19:09:44","台北市南港區南港路一段2號","121.620455","25.0547116666667","6501100","汐止區"
"220079","145-BY","2018/01/13 19:09:55","新北市板橋區民權路302巷4號","121.457411666667","25.01637","6500100","板橋區"
"220080","200-UY","2018/01/13 19:09:37","新北市板橋區大觀路二段7巷86號","121.449796666667","25.0030333333333","6500100","板橋區"
"220082","610-BX","2018/01/13 19:09:48","新北市板橋區溪崑二街63號","121.427988333333","24.9903733333333","6500100","板橋區"
"220072","277-BY","2018/01/13 19:09:39","新北市板橋區金門街369巷58號","121.428308333333","24.981705","6500100","板橋區"
"220101","280-UM","2018/01/13 19:09:31","新北市板橋區民生路二段89-6號","121.470423333333","25.01899","6500100","板橋區"
"220071","283-VK","2018/01/13 19:09:45","新北市板橋區重慶路353巷3號","121.464556666667","24.9980083333333","6500100","板橋區"
"220094","285-UM","2018/01/13 19:09:43","新北市板橋區光武街153號","121.46546","25.02956","6500100","板橋區"
"220053","285-VK","2018/01/13 19:09:49","新北市板橋區懷仁街35巷2弄2號","121.476746666667","25.0195716666667","6500100","板橋區"
"220083","286-VK","2018/01/13 19:09:44","新北市板橋區龍興街101巷1號","121.444366666667","25.0031366666667","6500100","板橋區"
"220081","287-VK","2018/01/13 19:09:40","新北市板橋區光華街39巷11號","121.45334","25.01306","6500100","板橋區"
"220090","288-VK","2018/01/13 19:09:52","新北市板橋區裕民街31號","121.461805","25.0288016666667","6500100","板橋區"
"220061","293-UM","2018/01/13 19:09:49","新北市板橋區三民路二段2號","121.479243333333","25.018185","6500100","板橋區"
"220084","296-UM","2018/01/13 19:09:49","新北市板橋區溪崑一街28號","121.43009","24.9910316666667","6500100","板橋區"
"220075","303-R5","2018/01/13 19:09:38","新北市板橋區南雅南路一段5巷19號","121.456456666667","25.0054566666667","6500100","板橋區"
"220062","305-R5","2018/01/13 19:09:42","新北市板橋區三民路二段居仁巷1弄40號","121.48063","25.0136116666667","6500100","板橋區"
"220092","307-R5","2018/01/13 19:09:50","新北市板橋區文化路二段225巷60弄25號","121.46916","25.0290633333333","6500100","板橋區"
"220098","317-R6","2018/01/13 19:09:42","新北市板橋區自由路51巷9-3號","121.464998333333","25.0234416666667","6500100","板橋區"
"220064","486-VK","2018/01/13 19:09:51","新北市板橋區板新路21-1號","121.474646666667","25.0125766666667","6500100","板橋區"
"220089","487-VK","2018/01/13 19:09:56","新北市板橋區文化路二段367號","121.473076666667","25.0309816666667","6500100","板橋區"
"220088","491-VK","2018/01/13 19:09:54","新北市板橋區文化路二段182巷1弄2號","121.471071666667","25.027495","6500100","板橋區"
"220035","560-BX","2018/01/13 19:09:53","新北市板橋區中正路326巷4弄1號","121.454848333333","25.0216183333333","6500100","板橋區"
"220103","561-BX","2018/01/13 19:09:44","新北市板橋區文化路一段188巷9弄39號","121.469288333333","25.0190583333333","6500100","板橋區"
"220063","609-BX","2018/01/13 19:09:55","新北市板橋區三民路二段251號","121.478975","25.0122816666667","6500100","板橋區"
"220056","630-UY","2018/01/13 19:09:50","新北市板橋區信義路74巷1弄2號","121.457181666667","24.9931483333333","6500100","板橋區"
"220091","637-BX","2018/01/13 19:09:52","新北市板橋區縣民大道三段247巷9號","121.481715","25.02631","6500100","板橋區"
"220057","686-BX","2018/01/13 19:09:42","新北市板橋區重慶路201號","121.46286","25.0016566666667","6500100","板橋區"
"220077","687-BX","2018/01/13 19:09:54","新北市板橋區大觀路二段113號","121.446068333333","25.0015566666667","6500100","板橋區"
"220093","689-BX","2018/01/13 19:09:37","新北市板橋區民生路三段253號","121.464425","25.02915","6500100","板橋區"
"220054","741-BX","2018/01/13 19:09:53","新北市板橋區重慶路89巷14號","121.46315","25.0065066666667","6500100","板橋區"
"220055","827-TW","2018/01/13 19:09:51","新北市板橋區新民街7巷25號","121.463591666667","25.01045","6500100","板橋區"
"220067","829-TW","2018/01/13 19:09:38","新北市板橋區民享街116巷2弄13號","121.477388333333","25.015445","6500100","板橋區"
"220102","830-TW","2018/01/13 19:09:53","新北市板橋區田單街38號","121.482533333333","25.0280533333333","6500100","板橋區"
"220074","895-R6","2018/01/13 19:09:43","新北市板橋區中正路8號","121.456535","25.0132133333333","6500100","板橋區"
"220073","985-R7","2018/01/13 19:09:48","新北市板橋區中正路403號","121.454218333333","25.0222083333333","6500100","板橋區"
"220097","AAC-210","2018/01/13 19:09:51","新北市板橋區幸福路60巷81號","121.459708333333","25.0218316666667","6500100","板橋區"
"220070","AAC-253","2018/01/13 19:09:47","新北市板橋區忠孝路23號","121.460488333333","25.00193","6500100","板橋區"
