"lineid","car","time","location","longitude","latitude","cityid","cityname"
"234046","148-BY","2018/01/13 19:19:52","新北市永和區秀朗路二段148巷12弄2號","121.525331666667","25.000795","6500400","永和區"
"234013","149-BY","2018/01/13 19:19:36","新北市永和區信義路77號","121.512363333333","25.0132083333333","6500400","永和區"
"234007","207-UY","2018/01/13 19:19:49","新北市永和區中山路一段232號","121.507866666667","25.0080516666667","6500400","永和區"
"234081","298-R6","2018/01/13 19:19:48","新北市永和區福和路7巷3號","121.525113333333","25.00821","6500400","永和區"
"234038","336-UY","2018/01/13 19:19:34","新北市永和區民樂街59巷4號","121.527588333333","24.9982483333333","6500400","永和區"
"234064","337-UY","2018/01/13 19:19:34","新北市永和區永元路17巷15號","121.52133","25.0007416666667","6500400","永和區"
"234086","338-UY","2018/01/13 19:19:43","新北市永和區永利路69號","121.519491666667","25.0050016666667","6500400","永和區"
"234054","553-UM","2018/01/13 19:19:49","新北市永和區中興街30號","121.516233333333","25.0117766666667","6500400","永和區"
"234017","745-BX","2018/01/13 19:19:42","新北市永和區文化路144巷19弄12號","121.512363333333","25.01673","6500400","永和區"
"234030","746-BX","2018/01/13 19:19:46","新北市永和區厚德街77號","121.524595","24.9987566666667","6500400","永和區"
"234042","838-RS","2018/01/13 19:19:36","新北市永和區水源街43巷2號","121.509831666667","25.0042133333333","6500400","永和區"
"234061","AAD-866","2018/01/13 19:19:40","新北市永和區秀朗路一段175號","121.517043333333","25.0036783333333","6500400","永和區"
"234070","847-RS","2018/01/13 19:19:39","新北市永和區豫溪街45號","121.516945","25.009905","6500400","永和區"
"234050","863-TW","2018/01/13 19:19:51","新北市永和區仁愛路104巷10號","121.51203","25.0136883333333","6500400","永和區"
"234026","9371-KE","2018/01/13 19:19:47","新北市永和區安樂路144巷31號","121.51526","24.9996733333333","6500400","永和區"
"234011","9373-KE","2018/01/13 19:19:43","新北市永和區保福路二段23巷21號","121.510063333333","25.0112033333333","6500400","永和區"
"249005","172-UM","2018/01/13 19:19:52","新北市八里區中華路三段170-1號","121.39226","25.1303783333333","6502300","八里區"
"249001","173-UM","2018/01/13 19:19:56","新北市八里區中華路二段103-1號","121.409241666667","25.15223","6502300","八里區"
"249003","593-UM","2018/01/13 19:19:39","新北市八里區中山路二段466巷6號","121.398878333333","25.147445","6502300","八里區"
"248016","026-BX","2018/01/13 19:19:37","新北市五股區成洲五路12號","121.452308333333","25.10159","6501500","五股區"
"248020","225-UY","2018/01/13 19:02:40","新北市五股區凌雲路三段57號","121.42528","25.1249983333333","6501500","五股區"
"248012","247-BX","2018/01/13 19:19:43","新北市五股區中興路四段48巷16號","121.4386","25.0834316666667","6501500","五股區"
"248004","677-BX","2018/01/13 19:19:38","新北市五股區五福路47號","121.433033333333","25.0895333333333","6501500","五股區"
"248002","678-BX","2018/01/13 19:18:13","新北市五股區凌雲路一段158巷11號","121.447581666667","25.1034016666667","6501500","五股區"
"248010","682-TV","2018/01/13 19:19:35","新北市五股區水碓一路23號","121.43061","25.0713216666667","6501500","五股區"
"234023","9380-KE","2018/01/13 19:19:50","新北市永和區中興街10巷19號","121.515873333333","25.011175","6500400","永和區"
"234077","969-R7","2018/01/13 19:19:53","新北市永和區民治街70號","121.517805","24.9980883333333","6500400","永和區"
"234074","AAC-211","2018/01/13 19:19:45","新北市永和區竹林路94-1號","121.519541666667","25.0122133333333","6500400","永和區"
"234067","AAC-212","2018/01/13 19:19:38","新北市永和區保平路30巷2號","121.512033333333","25.0073133333333","6500400","永和區"
"234003","AAC-295","2018/01/13 19:19:48","新北市永和區永平路173號","121.510665","25.0089666666667","6500400","永和區"
"244013","069-UM","2018/01/13 19:19:55","新北市林口區麗園一街4巷1號","121.376553333333","25.071225","6501700","林口區"
"244019","402-UM","2018/01/13 19:19:45","新北市林口區麗園二街87號","121.38262","25.0668016666667","6501700","林口區"
"244023","483-VK","2018/01/13 19:19:55","新北市林口區文化三路一段555巷88-1號","121.368788333333","25.0766933333333","6501700","林口區"
"244017","485-VK","2018/01/13 19:19:40","新北市林口區頂福里6鄰32號","121.361795","25.09653","6501700","林口區"
"244011","656-BX","2018/01/13 19:19:54","新北市林口區中山路97巷22號","121.389441666667","25.077945","6501700","林口區"
"243012","AAD-798","2018/01/13 19:19:52","新北市泰山區仁愛路100巷9號","121.433405","25.05523","6501600","泰山區"
"243011","297-R6","2018/01/13 19:19:43","新北市泰山區中央路36巷1號","121.426258333333","25.042735","6501600","泰山區"
"243015","380-SR","2018/01/13 19:19:32","新北市泰山區公園路67號","121.426401666667","25.0553283333333","6501600","泰山區"
"243014","421-VK","2018/01/13 19:19:42","新北市泰山區泰林路二段202號","121.433341666667","25.06129","6501600","泰山區"
"243010","KEA-2215","2018/01/13 19:19:48","新北市泰山區明志路一段492巷2號","121.43019","25.054725","6501600","泰山區"
"243009","KEA-2216","2018/01/13 19:19:54","新北市泰山區和平街13巷23號","121.434438333333","25.065665","6501600","泰山區"
"243013","646-TV","2018/01/13 19:19:36","新北市泰山區明志路三段145巷2弄13號","121.425138333333","25.0394516666667","6501600","泰山區"
"243016","680-BX","2018/01/13 19:19:41","新北市泰山區明志路三段146號","121.424608333333","25.039675","6501600","泰山區"
"222003","436-BY","2018/01/13 19:19:51","新北市深坑區深南路93號","121.62637","25.0159433333333","6501800","深坑區"
"222002","659-BX","2018/01/13 19:19:42","新北市深坑區北深路一段177號","121.632541666667","25.0109083333333","6501800","深坑區"
"231041","001-UM","2018/01/13 19:19:49","新北市新店區溪園路245-2號","121.525725","24.98364","6500600","新店區"
"231066","0293-UT","2018/01/13 19:19:46","新北市新店區安康路三段165巷2弄29號","121.48795","24.9514866666667","6500600","新店區"
"231059","046-UY","2018/01/13 19:19:41","新北市新店區安和路三段1-1號","121.516941666667","24.9799866666667","6500600","新店區"
"231061","047-UY","2018/01/13 19:19:39","新北市新店區安康路一段222-2號","121.523043333333","24.9636766666667","6500600","新店區"
"231060","106-UY","2018/01/13 19:19:55","新北市新店區安康路二段105-1號","121.512743333333","24.9624333333333","6500600","新店區"
"231051","107-UY","2018/01/13 19:19:49","新北市新店區中央路75號","121.532246666667","24.9768016666667","6500600","新店區"
"231048","108-UY","2018/01/13 19:19:53","新北市新店區中興路二段77號","121.546805","24.9711083333333","6500600","新店區"
"231052","187-VK","2018/01/13 19:19:38","新北市新店區櫻花街206號","121.548041666667","24.91985","6500600","新店區"
"231050","KEA-2219","2018/01/13 19:19:37","新北市新店區竹林路71-7號","121.553673333333","24.951235","6500600","新店區"
"231046","278-BY","2018/01/13 19:19:47","新北市新店區華城路36巷1-1號","121.528466666667","24.9553283333333","6500600","新店區"
"231054","AAD-862","2018/01/13 19:19:48","新北市新店區文中路37號","121.53921","24.9567933333333","6500600","新店區"
"231058","3712-VJ","2018/01/13 19:19:53","新北市新店區北新路一段86號","121.541556666667","24.9676916666667","6500600","新店區"
"231056","3713-VJ","2018/01/13 19:19:51","新北市新店區溪園路417號","121.524515","24.97893","6500600","新店區"
"231065","512-UM","2018/01/13 19:19:44","新北市新店區安祥路110巷17弄1號","121.473941666667","24.955785","6500600","新店區"
"231064","515-UM","2018/01/13 19:19:50","新北市新店區安忠路57巷26弄2號","121.513058333333","24.9588","6500600","新店區"
"231045","617-UM","2018/01/13 19:19:43","新北市新店區北宜路一段256號","121.545628333333","24.9527883333333","6500600","新店區"
"231040","619-UM","2018/01/13 19:19:42","新北市新店區三民路31-3號","121.537893333333","24.9704816666667","6500600","新店區"
"231042","641-BX","2018/01/13 19:19:52","新北市新店區北宜路一段7號","121.538296666667","24.9583133333333","6500600","新店區"
"231063","645-TV","2018/01/13 19:19:51","新北市新店區達觀路14巷8號","121.503218333333","24.9432433333333","6500600","新店區"
"231049","719-UM","2018/01/13 19:19:44","新北市新店區明德路66號","121.541565","24.9794866666667","6500600","新店區"
"231062","720-UM","2018/01/13 19:19:35","新北市新店區莒光路59號","121.523421666667","24.9588433333333","6500600","新店區"
"231044","897-TW","2018/01/13 19:19:38","新北市新店區中興路三段301號","121.542095","24.9854216666667","6500600","新店區"
"231043","899-TW","2018/01/13 19:19:48","新北市新店區北新路二段156號","121.542943333333","24.9755","6500600","新店區"
"241009","060-VK","2018/01/13 19:19:32","新北市三重區溪尾街230巷42-2號","121.48612","25.0811466666667","6500200","三重區"
"241031","061-VK","2018/01/13 19:19:48","新北市三重區重新路四段91號","121.486198333333","25.055525","6500200","三重區"
"241017","063-VK","2018/01/13 19:19:37","新北市三重區大同北路182號","121.491716666667","25.0656933333333","6500200","三重區"
"241026","066-VK","2018/01/13 19:19:54","新北市三重區中正南路216號","121.493881666667","25.0551033333333","6500200","三重區"
"241020","156-TC","2018/01/13 19:19:51","新北市三重區三和路四段32巷81號","121.48899","25.0737283333333","6500200","三重區"
"241022","267-UM","2018/01/13 19:19:40","新北市三重區中正北路50號","121.487073333333","25.0641983333333","6500200","三重區"
"241032","269-UM","2018/01/13 19:19:34","新北市三重區新生街96號","121.483438333333","25.05936","6500200","三重區"
"241025","271-UM","2018/01/13 19:19:36","新北市三重區中正北路311號","121.474048333333","25.071385","6500200","三重區"
"241007","398-BY","2018/01/13 19:19:55","新北市三重區慈愛街50號","121.486005","25.0791316666667","6500200","三重區"
"241030","480-VK","2018/01/13 19:19:50","新北市三重區成功路41巷97號","121.491463333333","25.0531733333333","6500200","三重區"
"241006","AAD-863","2018/01/13 19:19:54","新北市三重區車路頭街165號","121.483596666667","25.0774266666667","6500200","三重區"
"241035","743-BX","2018/01/13 19:19:44","新北市三重區新北大道一段7號","121.489465","25.0614816666667","6500200","三重區"
"241029","942-UM","2018/01/13 19:19:40","新北市三重區重安街27號","121.491155","25.0570516666667","6500200","三重區"
"235066","003-UY","2018/01/13 19:19:38","新北市中和區廣福路112號","121.502121666667","25.0011433333333","6500300","中和區"
"235064","005-UY","2018/01/13 19:19:47","新北市中和區中和路40巷8號","121.49964","25.0013","6500300","中和區"
"235063","006-UY","2018/01/13 19:19:49","新北市中和區連勝街113號","121.495105","24.99513","6500300","中和區"
"235046","031-BX","2018/01/13 19:19:44","新北市中和區忠孝街2巷14弄10號","121.510715","24.9814316666667","6500300","中和區"
"235056","096-UM","2018/01/13 19:19:53","新北市中和區員山路541號","121.479655","25.0072233333333","6500300","中和區"
"235039","097-UM","2018/01/13 19:19:46","新北市中和區自立路58巷9號","121.523426666667","24.9914583333333","6500300","中和區"
"235065","098-UM","2018/01/13 19:19:46","新北市中和區中山路二段64巷7弄23號","121.502865","25.00464","6500300","中和區"
"235040","150-BY","2018/01/13 19:19:41","新北市中和區保健路50巷5號","121.510345","24.9965933333333","6500300","中和區"
"235058","151-BY","2018/01/13 19:19:43","新北市中和區連城路477巷6弄1號","121.483088333333","24.9950433333333","6500300","中和區"
"235055","183-VK","2018/01/13 19:19:48","新北市中和區德光路53號","121.470026666667","25.0040066666667","6500300","中和區"
"235038","185-VK","2018/01/13 19:19:45","新北市中和區景平路126巷2弄15號","121.519843333333","24.9923816666667","6500300","中和區"
"235049","186-VK","2018/01/13 19:19:52","新北市中和區景新街239號","121.508168333333","24.9944966666667","6500300","中和區"
"235067","255-BX","2018/01/13 19:19:35","新北市中和區民樂路36號","121.483046666667","25.0011583333333","6500300","中和區"
"235044","293-VK","2018/01/13 19:19:51","新北市中和區復興路309號","121.501266666667","24.9902683333333","6500300","中和區"
"235072","301-VK","2018/01/13 19:19:42","新北市中和區連城路265巷8弄2號","121.491535","24.995755","6500300","中和區"
"235043","352-BY","2018/01/13 19:19:51","新北市中和區景平路404號","121.50909","24.9931233333333","6500300","中和區"
"235068","377-QA","2018/01/13 19:19:53","新北市中和區連勝街26巷2號","121.498308333333","24.99807","6500300","中和區"
"235025","378-QA","2018/01/13 19:19:36","新北市中和區員山路202號","121.481316666667","25.0006566666667","6500300","中和區"
"235050","4979-A6","2018/01/13 19:19:52","新北市中和區景安路208巷12號","121.503416666667","24.9912716666667","6500300","中和區"
"235069","4980-A6","2018/01/13 19:19:56","新北市中和區中山路二段133號","121.502221666667","25.0031383333333","6500300","中和區"
"235042","551-UM","2018/01/13 19:19:46","新北市中和區大勇街45巷1號","121.51809","24.9947333333333","6500300","中和區"
"235070","558-UM","2018/01/13 18:58:14","新北市中和區南華路14號","121.502518333333","24.9954166666667","6500300","中和區"
"235045","565-BX","2018/01/13 19:19:51","新北市中和區景新街437巷19號","121.51423","24.989335","6500300","中和區"
"235054","640-BX","2018/01/13 19:19:36","新北市中和區國光街109巷4號","121.469868333333","25.000435","6500300","中和區"
"235060","647-TV","2018/01/13 19:19:43","新北市中和區民有街49號","121.47592","25.0046816666667","6500300","中和區"
"235047","732-UM","2018/01/13 19:19:47","新北市中和區景平路239巷73號","121.50816","24.9920716666667","6500300","中和區"
"235057","801-TS","2018/01/13 19:19:41","新北市中和區員山路263號","121.481216666667","24.9991833333333","6500300","中和區"
"235052","805-TS","2018/01/13 19:19:46","新北市中和區華新街143巷33號","121.506438333333","24.9806133333333","6500300","中和區"
"235048","896-TW","2018/01/13 19:19:45","新北市中和區忠孝街72號","121.512006666667","24.9841166666667","6500300","中和區"
"235053","900-TW","2018/01/13 19:19:46","新北市中和區華安街19巷10號","121.467463333333","24.99777","6500300","中和區"
"235051","157-BY","2018/01/13 19:19:42","新北市中和區和平街24巷11號","121.509971666667","24.99063","6500300","中和區"
"235037","AAC-213","2018/01/13 19:19:47","新北市中和區秀朗路三段10巷37弄15號","121.524055","24.995645","6500300","中和區"
"235059","AAC-215","2018/01/13 19:19:41","新北市中和區錦和路193號","121.490693333333","24.9907283333333","6500300","中和區"
"220065","072-UY","2018/01/13 19:19:43","新北市板橋區民族路129巷12弄5號","121.468125","25.0084133333333","6500100","板橋區"
"220086","073-UY","2018/01/13 19:19:51","新北市板橋區中正路216巷102號","121.458886666667","25.0191333333333","6500100","板橋區"
"220106","075-UY","2018/01/13 19:19:49","新北市板橋區雙十路三段72號","121.470185","25.0325883333333","6500100","板橋區"
"220069","AAD-861","2018/01/13 19:19:44","新北市板橋區華興街33-2號","121.458383333333","25.0046716666667","6500100","板橋區"
"220096","120-SR","2018/01/13 19:19:41","新北市板橋區大同街26巷14號","121.478136666667","25.0268616666667","6500100","板橋區"
"247004","336-TH","2018/01/13 19:19:52","新北市蘆洲區長榮路661號","121.460151666667","25.0913316666667","6501400","蘆洲區"
"226004","312-R5","2018/01/13 19:19:39","新北市平溪區十分里十分街96-1號","121.776935","25.0424283333333","6502400","平溪區"
"235041","251-BX","2018/01/13 19:19:39","新北市中和區景安路7號","121.508035","24.9990683333333","6500300","中和區"
"228003","097-TW","2018/01/13 19:19:54","新北市貢寮區和美里和美街19-2號","121.91277","25.08262","6502600","貢寮區"
"228001","212-TW","2018/01/13 19:19:53","新北市貢寮區真理里新港街26巷6-3號","121.925618333333","25.05455","6502600","貢寮區"
"228002","585-TW","2018/01/13 19:19:38","新北市貢寮區雙玉里田寮洋街21號","121.926345","25.024825","6502600","貢寮區"
"224010","AGQ-8101","2018/01/13 19:19:39","新北市瑞芳區基山街86號","121.844398333333","25.10876","6501200","瑞芳區"
"224006","676-BX","2018/01/13 19:19:56","新北市瑞芳區中山路225號","121.800708333333","25.1067633333333","6501200","瑞芳區"
"224008","275-VK","2018/01/13 19:19:55","新北市瑞芳區一坑路122號","121.802416666667","25.10852","6501200","瑞芳區"
"224005","271-BY","2018/01/13 19:19:53","新北市瑞芳區蛇子形路3-5號","121.824191666667","25.1033216666667","6501200","瑞芳區"
"227010","642-TC","2018/01/13 19:19:51","新北市雙溪區新基里新基北街40號","121.868526666667","25.03802","6502500","雙溪區"
"227002","400-TW","2018/01/13 19:19:35","新北市雙溪區平林里梅竹蹊66-1號","121.860138333333","25.0358166666667","6502500","雙溪區"
"253005","032-BX","2018/01/13 19:19:49","新北市石門區阿里荖5-4號","121.609616666667","25.279825","6502200","石門區"
"253006","295-VK","2018/01/13 19:19:37","新北市石門區崁子腳27號","121.535875","25.2909183333333","6502200","石門區"
"222001","KEA-2212","2018/01/13 19:19:55","新北市深坑區北深路二段103號","121.617545","25.0033583333333","6501800","深坑區"
"208002","742-BX","2018/01/13 19:19:36","新北市金山區環金路376巷2號","121.632178333333","25.2221233333333","6502700","金山區"
"208003","665-BX","2018/01/13 19:19:53","新北市金山區忠孝一路44號","121.637815","25.220125","6502700","金山區"
"208001","761-BX","2018/01/13 19:19:44","新北市金山區民生路69號","121.640118333333","25.2197216666667","6502700","金山區"
"251009","008-UM","2018/01/13 19:19:49","新北市淡水區清水街246號","121.440598333333","25.1721433333333","6501000","淡水區"
"251001","011-UM","2018/01/13 19:19:36","新北市淡水區自強路201巷61號","121.461756666667","25.1274566666667","6501000","淡水區"
"251013","179-VK","2018/01/13 19:19:48","新北市淡水區安子內12號","121.481571666667","25.21908","6501000","淡水區"
"251014","180-VK","2018/01/13 19:19:50","新北市淡水區小中寮39號","121.487075","25.2274733333333","6501000","淡水區"
"251015","182-VK","2018/01/13 19:19:43","新北市淡水區南勢埔27-2號","121.483243333333","25.1806583333333","6501000","淡水區"
"251010","413-VK","2018/01/13 19:19:40","新北市淡水區沙崙路30號","121.421491666667","25.18143","6501000","淡水區"
"251016","442-VK","2018/01/13 19:19:37","新北市淡水區淡金路三段350巷18號","121.450795","25.2083616666667","6501000","淡水區"
"251005","443-VK","2018/01/13 19:19:33","新北市淡水區水源街一段27巷1-6號","121.443176666667","25.17257","6501000","淡水區"
"251006","561-UM","2018/01/13 19:19:54","新北市淡水區大信街33號","121.442053333333","25.1773333333333","6501000","淡水區"
"251007","577-R6","2018/01/13 19:19:52","新北市淡水區民生路145巷8號","121.466013333333","25.138535","6501000","淡水區"
"251002","672-BX","2018/01/13 19:19:40","新北市淡水區中正路358號","121.434278333333","25.174215","6501000","淡水區"
"251003","673-BX","2018/01/13 19:19:50","新北市淡水區中山北路一段33號","121.441573333333","25.17519","6501000","淡水區"
"207003","550-UM","2018/01/13 19:19:38","新北市萬里區大鵬里萬里加投79-3號","121.647323333333","25.2123466666667","6502800","萬里區"
"207004","225-TW","2018/01/13 19:19:44","新北市萬里區萬里里瑪鋉路4號","121.687621666667","25.17504","6502800","萬里區"
"252002","178-VK","2018/01/13 19:19:45","新北市三芝區淡金路二段18-1號","121.502688333333","25.2595533333333","6502100","三芝區"
"252001","292-VK","2018/01/13 19:19:47","新北市三芝區長勤街9巷11弄1號","121.501796666667","25.2547366666667","6502100","三芝區"
"237004","078-UY","2018/01/13 19:19:32","新北市三峽區有木205-1號","121.439023333333","24.8516083333333","6500900","三峽區"
"237007","153-BY","2018/01/13 19:19:48","新北市三峽區麻園36-10號","121.363675","24.9197733333333","6500900","三峽區"
"237009","210-TH","2018/01/13 19:19:44","新北市三峽區信義街26號","121.370778333333","24.9353183333333","6500900","三峽區"
"237013","252-BX","2018/01/13 19:19:51","新北市三峽區大同路39巷9號","121.37732","24.9276233333333","6500900","三峽區"
"237012","275-BY","2018/01/13 19:19:39","新北市三峽區三樹路222巷236弄8-3號","121.3914","24.9428533333333","6500900","三峽區"
"237008","302-VK","2018/01/13 19:19:51","新北市三峽區永安街183號","121.373143333333","24.9267216666667","6500900","三峽區"
"237014","433-BY","2018/01/13 19:19:33","新北市三峽區中山路277巷4號","121.361771666667","24.937135","6500900","三峽區"
"237006","5529-G3","2018/01/13 19:19:43","新北市三峽區中正路一段294號","121.371306666667","24.9258","6500900","三峽區"
"237016","649-BX","2018/01/13 19:19:50","新北市三峽區成福路319-1號","121.430373333333","24.9238016666667","6500900","三峽區"
"237010","706-TV","2018/01/13 19:19:54","新北市三峽區復興路49號","121.373358333333","24.9370033333333","6500900","三峽區"
"237005","AKY-6261","2018/01/13 19:19:35","新北市三峽區中山路459巷24號","121.357481666667","24.9387433333333","6500900","三峽區"
"236073","105-UM","2018/01/13 19:19:39","新北市土城區學成路138號","121.44897","24.9895616666667","6501300","土城區"
"236027","269-VK","2018/01/13 19:19:53","新北市土城區中央路二段154號","121.441978333333","24.9768033333333","6501300","土城區"
"236015","270-VK","2018/01/13 19:19:50","新北市土城區學府路一段21-1號","121.458561666667","24.98835","6501300","土城區"
"236023","401-BY","2018/01/13 19:19:45","新北市土城區峰廷街3號","121.469076666667","24.9873266666667","6501300","土城區"
"236059","912-UM","2018/01/13 19:19:52","新北市土城區金城路一段5號","121.4393","24.9689133333333","6501300","土城區"
"236049","913-UM","2018/01/13 19:19:39","新北市土城區明德路一段398-1號","121.45366","24.9790933333333","6501300","土城區"
"238023","601-UM","2018/01/13 19:19:34","新北市樹林區三興路77號","121.392635","25.014475","6500700","樹林區"
"238019","599-UM","2018/01/13 19:19:36","新北市樹林區東榮街54號","121.416988333333","24.9832066666667","6500700","樹林區"
"238018","571-TV","2018/01/13 19:19:48","新北市樹林區中華路271號","121.417673333333","24.980405","6500700","樹林區"
"238024","5061-A6","2018/01/13 19:19:43","新北市樹林區福德街48-10號","121.398833333333","24.974785","6500700","樹林區"
"238021","KEA-2217","2018/01/13 19:19:43","新北市樹林區柑園街二段411號","121.36539","24.9477266666667","6500700","樹林區"
"238022","KEA-2213","2018/01/13 19:19:45","新北市樹林區東興街2號","121.40885","24.9801033333333","6500700","樹林區"
"238025","303-VK","2018/01/13 19:19:39","新北市樹林區中山路二段89號","121.411351666667","24.9827366666667","6500700","樹林區"
"238017","283-BY","2018/01/13 19:19:38","新北市樹林區光榮街79號","121.412088333333","25.00302","6500700","樹林區"
"238014","282-BY","2018/01/13 19:19:41","新北市樹林區千歲街57號","121.425715","24.9967533333333","6500700","樹林區"
"238026","172-UY","2018/01/13 19:19:41","新北市樹林區佳園路三段51號","121.387688333333","24.9534516666667","6500700","樹林區"
"238016","169-UY","2018/01/13 19:19:41","新北市樹林區復興路373巷7弄10號","121.417766666667","24.986725","6500700","樹林區"
"239007","AAC-297","2018/01/13 19:19:45","新北市鶯歌區中山路138巷40號","121.351306666667","24.95995","6500800","鶯歌區"
"239006","891-R6","2018/01/13 19:19:41","新北市鶯歌區建國路512巷3號","121.34044","24.95107","6500800","鶯歌區"
"239008","527-UM","2018/01/13 19:19:56","新北市鶯歌區大湖路560號","121.336966666667","24.97327","6500800","鶯歌區"
"239005","526-UM","2018/01/13 19:19:46","新北市鶯歌區中湖街319號","121.348938333333","24.9753766666667","6500800","鶯歌區"
"239001","417-VK","2018/01/13 19:19:47","新北市鶯歌區建國路367巷1號","121.339155","24.949505","6500800","鶯歌區"
"239003","360-BY","2018/01/13 19:19:39","新北市鶯歌區建國路162號","121.350396666667","24.9535466666667","6500800","鶯歌區"
"239002","359-BY","2018/01/13 19:19:42","新北市鶯歌區湖山路58巷2號","121.33955","24.9757916666667","6500800","鶯歌區"
"239004","193-VK","2018/01/13 19:19:39","新北市鶯歌區二甲路33-27號","121.340201666667","24.9376783333333","6500800","鶯歌區"
"221036","130-UY","2018/01/13 19:19:34","新北市汐止區汐萬路一段256巷1號","121.651933333333","25.0747933333333","6501100","汐止區"
"221010","269-BY","2018/01/13 19:19:53","新北市汐止區康寧街901號","121.651515","25.0749883333333","6501100","汐止區"
"221012","278-VK","2018/01/13 19:19:52","新北市汐止區汐萬路一段242號","121.651516666667","25.0731333333333","6501100","汐止區"
"221023","279-VK","2018/01/13 19:19:47","新北市汐止區康寧街901號","121.651011666667","25.0751916666667","6501100","汐止區"
"221032","280-BY","2018/01/13 19:19:47","新北市汐止區汐萬路一段256巷3號","121.653303333333","25.0746266666667","6501100","汐止區"
"221027","281-BY","2018/01/13 19:19:52","新北市汐止區汐萬路一段271號","121.650593333333","25.074325","6501100","汐止區"
"221029","298-VK","2018/01/13 19:19:37","新北市汐止區康寧街901號","121.651605","25.0749733333333","6501100","汐止區"
"221008","358-BY","2018/01/13 19:19:50","新北市汐止區康寧街579號","121.634908333333","25.069795","6501100","汐止區"
"221015","567-BX","2018/01/13 19:19:40","新北市汐止區康寧街901號","121.651681666667","25.0748866666667","6501100","汐止區"
"221025","623-UM","2018/01/13 19:19:53","新北市汐止區汐萬路一段223號","121.651831666667","25.0724566666667","6501100","汐止區"
"221038","646-BX","2018/01/13 19:19:36","新北市汐止區康寧街901號","121.650731666667","25.075275","6501100","汐止區"
"221033","647-BX","2018/01/13 19:19:40","新北市汐止區南勢街1巷1號","121.627035","25.0374216666667","6501100","汐止區"
"221002","707-TV","2018/01/13 19:19:51","新北市汐止區大同路一段335號","121.638433333333","25.0593433333333","6501100","汐止區"
"220079","145-BY","2018/01/13 19:19:55","新北市板橋區民權路202巷36號","121.460638333333","25.0174533333333","6500100","板橋區"
"220080","200-UY","2018/01/13 19:19:36","新北市板橋區大觀路二段19巷111號","121.450295","25.0027366666667","6500100","板橋區"
"220082","610-BX","2018/01/13 19:19:48","新北市板橋區金門街320號","121.428605","24.9850283333333","6500100","板橋區"
"220072","277-BY","2018/01/13 19:19:39","新北市板橋區金門街337巷9弄1號","121.430396666667","24.984665","6500100","板橋區"
"220101","280-UM","2018/01/13 19:19:51","新北市板橋區雙十路二段83-3號","121.47595","25.02726","6500100","板橋區"
"220071","283-VK","2018/01/13 19:19:44","新北市板橋區大豐街117號","121.461068333333","25.0011266666667","6500100","板橋區"
"220094","285-UM","2018/01/13 19:19:43","新北市板橋區吳鳳路21巷2號","121.466925","25.031275","6500100","板橋區"
"220053","285-VK","2018/01/13 19:19:42","新北市板橋區富山街12號","121.478495","25.0218416666667","6500100","板橋區"
"220083","286-VK","2018/01/13 19:19:44","新北市板橋區大觀路二段174巷196弄3-2號","121.44259","25.0038916666667","6500100","板橋區"
"220081","287-VK","2018/01/13 19:19:39","新北市板橋區南雅東路89號","121.45317","25.0086666666667","6500100","板橋區"
"220090","288-VK","2018/01/13 19:19:56","新北市板橋區長江路一段106巷13弄20號","121.460856666667","25.0294266666667","6500100","板橋區"
"220061","293-UM","2018/01/13 19:19:49","新北市板橋區中山路二段320號","121.481013333333","25.0194466666667","6500100","板橋區"
"220084","296-UM","2018/01/13 19:19:51","新北市板橋區溪北路71號","121.4282","24.9896583333333","6500100","板橋區"
"220075","303-R5","2018/01/13 19:19:38","新北市板橋區僑中一街124巷70-5號","121.449425","25.0173916666667","6500100","板橋區"
"220062","305-R5","2018/01/13 19:19:37","新北市板橋區三民路二段153巷8弄6號","121.481116666667","25.0149","6500100","板橋區"
"220092","307-R5","2018/01/13 19:19:50","新北市板橋區光武街48巷30號","121.468225","25.0270133333333","6500100","板橋區"
"220098","317-R6","2018/01/13 19:19:42","新北市板橋區民有街89巷11號","121.464251666667","25.0272933333333","6500100","板橋區"
"220064","486-VK","2018/01/13 19:19:51","新北市板橋區縣民大道二段60號","121.462798333333","25.012425","6500100","板橋區"
"220089","487-VK","2018/01/13 19:19:51","新北市板橋區文化路一段369-1號","121.466848333333","25.021235","6500100","板橋區"
"220088","491-VK","2018/01/13 19:19:34","新北市板橋區雙十路二段52號","121.475411666667","25.0277533333333","6500100","板橋區"
"220035","560-BX","2018/01/13 19:19:53","新北市板橋區中正路433巷29號","121.453001666667","25.0236133333333","6500100","板橋區"
"220103","561-BX","2018/01/13 19:19:44","新北市板橋區文化路一段188巷7弄16號","121.467663333333","25.019685","6500100","板橋區"
"220063","609-BX","2018/01/13 19:19:42","新北市板橋區三民路一段31巷13號","121.479848333333","25.0231716666667","6500100","板橋區"
"220056","630-UY","2018/01/13 19:19:51","新北市板橋區信義路147號","121.458123333333","24.9929183333333","6500100","板橋區"
"220091","637-BX","2018/01/13 19:19:52","新北市板橋區文聖街147號","121.478513333333","25.0280833333333","6500100","板橋區"
"220057","686-BX","2018/01/13 19:19:42","新北市板橋區重慶路308巷12號","121.463486666667","24.9977383333333","6500100","板橋區"
"220077","687-BX","2018/01/13 19:19:54","新北市板橋區僑中一街70號","121.447453333333","25.0115183333333","6500100","板橋區"
"220093","689-BX","2018/01/13 19:19:37","新北市板橋區文化路一段102號","121.464651666667","25.0180466666667","6500100","板橋區"
"220054","741-BX","2018/01/13 19:19:54","新北市板橋區校前街42號","121.461233333333","25.0032","6500100","板橋區"
"220055","827-TW","2018/01/13 19:19:46","新北市板橋區館前東路156巷10號","121.464328333333","25.0072066666667","6500100","板橋區"
"220067","829-TW","2018/01/13 19:19:43","新北市板橋區長安街178巷8號","121.47412","25.011055","6500100","板橋區"
"220102","830-TW","2018/01/13 19:19:40","新北市板橋區文聖街207-1號","121.479945","25.0262883333333","6500100","板橋區"
"220074","895-R6","2018/01/13 19:19:43","新北市板橋區中正路自強新村91-1號","121.454868333333","25.01315","6500100","板橋區"
"220073","985-R7","2018/01/13 19:19:48","新北市板橋區新生街18號","121.455695","25.0211583333333","6500100","板橋區"
"220097","AAC-210","2018/01/13 19:19:50","新北市板橋區幸福路32巷3弄12號","121.460818333333","25.0206983333333","6500100","板橋區"
"220070","AAC-253","2018/01/13 19:19:39","新北市板橋區忠孝路110號","121.462301666667","25.0020866666667","6500100","板橋區"
