"lineid","car","time","location","longitude","latitude","cityid","cityname"
"234046","148-BY","2018/01/13 19:49:50","新北市永和區成功路一段78號","121.52624","25.00331","6500400","永和區"
"234013","149-BY","2018/01/13 19:49:36","新北市永和區仁愛路247號","121.508743333333","25.0118383333333","6500400","永和區"
"234007","207-UY","2018/01/13 19:49:49","新北市中和區中和路206號","121.505528333333","24.999695","6500400","永和區"
"234081","298-R6","2018/01/13 19:49:48","新北市永和區永亨路98號","121.523056666667","25.0049416666667","6500400","永和區"
"234038","336-UY","2018/01/13 19:49:34","新北市永和區民樂街59巷1號","121.527808333333","24.99827","6500400","永和區"
"234064","337-UY","2018/01/13 19:49:34","新北市永和區中正路368巷8號","121.5181","25.0008583333333","6500400","永和區"
"234086","338-UY","2018/01/13 19:49:32","新北市永和區中正路505號","121.516883333333","25.0069583333333","6500400","永和區"
"234054","553-UM","2018/01/13 19:49:49","新北市永和區竹林路75巷25弄8號","121.520175","25.0143783333333","6500400","永和區"
"234017","745-BX","2018/01/13 19:49:42","新北市永和區永和路二段299號","121.516033333333","25.0161266666667","6500400","永和區"
"234030","746-BX","2018/01/13 19:49:46","新北市永和區民生路67巷34號","121.524468333333","24.997365","6500400","永和區"
"234042","838-RS","2018/01/13 19:49:36","新北市永和區中和路305巷16弄20號","121.507138333333","25.0011183333333","6500400","永和區"
"234061","AAD-866","2018/01/13 19:49:45","新北市永和區中正路152號","121.514943333333","24.9963133333333","6500400","永和區"
"234070","847-RS","2018/01/13 19:49:37","新北市永和區竹林路81號","121.51954","25.0125916666667","6500400","永和區"
"234050","863-TW","2018/01/13 19:49:31","新北市永和區保福路二段163巷19號","121.50874","25.014475","6500400","永和區"
"234026","9371-KE","2018/01/13 19:49:47","新北市永和區雙和街52巷1號","121.508986666667","25.0031983333333","6500400","永和區"
"234011","9373-KE","2018/01/13 19:49:43","新北市永和區仁愛路352巷94號","121.501161666667","25.0080166666667","6500400","永和區"
"249001","173-UM","2018/01/13 19:49:35","新北市八里區中華路二段260號","121.40526","25.149535","6502300","八里區"
"249004","303-UY","2018/01/13 19:49:23","新北市八里區中山路一段268巷50號","121.414826666667","25.1610233333333","6502300","八里區"
"249002","305-UY","2018/01/13 19:49:44","新北市八里區頂寮五街20號","121.451303333333","25.1262133333333","6502300","八里區"
"249003","593-UM","2018/01/13 19:49:39","新北市八里區華峰三街72號","121.398495","25.14557","6502300","八里區"
"248016","026-BX","2018/01/13 19:49:37","新北市五股區成泰路三段599號","121.45234","25.1031883333333","6501500","五股區"
"248008","095-VK","2018/01/13 19:49:36","新北市五股區四維路171巷3號","121.467595","25.0751083333333","6501500","五股區"
"248020","225-UY","2018/01/13 19:49:36","新北市五股區中直路65-3號","121.418396666667","25.117985","6501500","五股區"
"248012","247-BX","2018/01/13 19:49:43","新北市五股區蓬萊路24號","121.433953333333","25.07991","6501500","五股區"
"248014","261-SL","2018/01/13 19:49:44","新北市五股區五福路42巷10號","121.434308333333","25.089565","6501500","五股區"
"248004","677-BX","2018/01/13 19:49:38","新北市五股區成泰路一段126號","121.435265","25.0743783333333","6501500","五股區"
"248002","678-BX","2018/01/13 19:48:52","新北市五股區成泰路三段617號","121.452665","25.1038183333333","6501500","五股區"
"248010","682-TV","2018/01/13 19:49:35","新北市五股區登林路76-5號","121.430633333333","25.06955","6501500","五股區"
"234023","9380-KE","2018/01/13 19:49:30","新北市永和區保生路55-1號","121.504496666667","25.010915","6500400","永和區"
"234077","969-R7","2018/01/13 19:49:33","新北市永和區中正路242巷2弄1號","121.51687","24.9979983333333","6500400","永和區"
"234074","AAC-211","2018/01/13 19:49:45","新北市永和區豫溪街136巷5號","121.521255","25.0099416666667","6500400","永和區"
"234067","AAC-212","2018/01/13 19:49:39","新北市永和區永貞路353號","121.509051666667","25.007485","6500400","永和區"
"234003","AAC-295","2018/01/13 19:49:44","新北市永和區福和路352號","121.514858333333","25.0073016666667","6500400","永和區"
"244019","402-UM","2018/01/13 19:49:45","新北市林口區文化二路一段575號","121.375788333333","25.0782416666667","6501700","林口區"
"243012","AAD-798","2018/01/13 19:49:52","新北市泰山區全興路18巷1號","121.432116666667","25.0588533333333","6501600","泰山區"
"243011","297-R6","2018/01/13 19:49:43","新北市泰山區明志路三段204巷10弄11號","121.422981666667","25.03868","6501600","泰山區"
"243015","380-SR","2018/01/13 19:49:52","新北市泰山區文程路18巷20號","121.428138333333","25.0486066666667","6501600","泰山區"
"243014","421-VK","2018/01/13 19:49:42","新北市泰山區泰林路二段33-7號","121.435175","25.0563866666667","6501600","泰山區"
"243010","KEA-2215","2018/01/13 19:49:48","新北市泰山區民生路33號","121.430708333333","25.0521366666667","6501600","泰山區"
"243009","KEA-2216","2018/01/13 19:49:34","新北市泰山區美寧街60號","121.43091","25.06471","6501600","泰山區"
"243013","646-TV","2018/01/13 19:49:36","新北市泰山區應化街13號","121.423846666667","25.043725","6501600","泰山區"
"243016","680-BX","2018/01/13 19:49:41","新北市泰山區中山路三段114號","121.417911666667","25.03245","6501600","泰山區"
"222003","436-BY","2018/01/13 19:31:24","新北市深坑區深南路51-1號","121.621303333333","25.009785","6501800","深坑區"
"222002","659-BX","2018/01/13 19:49:42","新北市深坑區北深路二段20號","121.620593333333","25.00447","6501800","深坑區"
"231041","001-UM","2018/01/13 19:49:49","新北市新店區中央路99號","121.531135","24.9749916666667","6500600","新店區"
"231066","0293-UT","2018/01/13 19:49:46","新北市新店區薏仁坑路5號","121.499078333333","24.959035","6500600","新店區"
"231059","046-UY","2018/01/13 19:49:42","新北市新店區安和路二段3-5號","121.51792","24.967255","6500600","新店區"
"231061","047-UY","2018/01/13 19:49:39","新北市新店區安民街314號","121.517625","24.9741516666667","6500600","新店區"
"231060","106-UY","2018/01/13 19:49:35","新北市新店區安康路二段199號","121.509196666667","24.95896","6500600","新店區"
"231051","107-UY","2018/01/13 19:49:49","新北市新店區中央三街60號","121.526995","24.97483","6500600","新店區"
"231048","108-UY","2018/01/13 19:49:32","新北市新店區寶興路65巷2號","121.550831666667","24.97173","6500600","新店區"
"231052","187-VK","2018/01/13 19:49:38","新北市新店區新烏路三段206號","121.550888333333","24.9016133333333","6500600","新店區"
"231050","KEA-2219","2018/01/13 19:49:37","新北市新店區北宜路二段384號","121.564901666667","24.953275","6500600","新店區"
"231057","256-BX","2018/01/13 19:49:44","新北市新店區梅崗三路1號","121.558336666667","24.9312583333333","6500600","新店區"
"231046","278-BY","2018/01/13 19:49:47","新北市新店區三民路159巷19弄46號","121.532188333333","24.9732416666667","6500600","新店區"
"231054","AAD-862","2018/01/13 19:49:48","新北市新店區中興路一段94號","121.540181666667","24.9605933333333","6500600","新店區"
"231058","3712-VJ","2018/01/13 19:49:33","新北市新店區安興路117號","121.515336666667","24.9788583333333","6500600","新店區"
"231056","3713-VJ","2018/01/13 19:49:51","新北市新店區中正路487號","121.53382","24.9821483333333","6500600","新店區"
"231055","4716-K9","2018/01/13 19:49:48","新北市新店區新生街2號","121.540263333333","24.965955","6500600","新店區"
"231067","4772-VM","2018/01/13 19:49:42","新北市新店區精忠路10-1號","121.532695","24.9590483333333","6500600","新店區"
"231065","512-UM","2018/01/13 19:49:44","新北市新店區安祥路109巷151弄12號","121.478091666667","24.9589266666667","6500600","新店區"
"231064","515-UM","2018/01/13 19:49:50","新北市新店區安和路二段97號","121.518713333333","24.9694833333333","6500600","新店區"
"231045","617-UM","2018/01/13 19:49:43","新北市新店區北宜路二段360-1號","121.564698333333","24.952445","6500600","新店區"
"231040","619-UM","2018/01/13 19:49:42","新北市新店區北新路一段96巷23號","121.543045","24.96877","6500600","新店區"
"231042","641-BX","2018/01/13 19:49:52","新北市新店區中興路一段285號","121.545446666667","24.9685133333333","6500600","新店區"
"231063","645-TV","2018/01/13 19:49:31","新北市新店區車子路11號","121.50306","24.952065","6500600","新店區"
"231068","718-UY","2018/01/13 19:49:47","新北市新店區安華路28-1號","121.518991666667","24.9609016666667","6500600","新店區"
"231049","719-UM","2018/01/13 19:49:44","新北市新店區民權路127巷5號","121.53542","24.98183","6500600","新店區"
"231062","720-UM","2018/01/13 19:49:35","新北市新店區華潭街26巷1弄3號","121.529506666667","24.953735","6500600","新店區"
"231044","897-TW","2018/01/13 19:49:38","新北市新店區復興路121號","121.534143333333","24.98797","6500600","新店區"
"231043","899-TW","2018/01/13 19:49:48","新北市新店區中正路243號","121.539208333333","24.9732916666667","6500600","新店區"
"241011","013-R5","2018/01/13 19:49:44","新北市三重區介壽路39巷6號","121.499048333333","25.070095","6500200","三重區"
"241028","022-UY","2018/01/13 19:49:36","新北市三重區中正南路157-1號","121.493648333333","25.0561566666667","6500200","三重區"
"241008","059-VK","2018/01/13 19:49:40","新北市三重區永福街96號","121.478801666667","25.0759416666667","6500200","三重區"
"241009","060-VK","2018/01/13 19:49:33","新北市三重區三和路四段396巷23號","121.480471666667","25.0789916666667","6500200","三重區"
"241031","061-VK","2018/01/13 19:49:48","新北市三重區重新路四段248號","121.486065","25.0533483333333","6500200","三重區"
"241015","062-VK","2018/01/13 19:49:40","新北市三重區三和路一段2號","121.50384","25.0642816666667","6500200","三重區"
"241017","063-VK","2018/01/13 19:49:37","新北市三重區重陽路三段11號","121.489271666667","25.066745","6500200","三重區"
"241024","065-VK","2018/01/13 19:49:40","新北市三重區中正北路165巷21號","121.479226666667","25.0707966666667","6500200","三重區"
"241026","066-VK","2018/01/13 19:49:34","新北市三重區光興街57號","121.498918333333","25.0601566666667","6500200","三重區"
"241003","091-VK","2018/01/13 19:49:39","新北市三重區五華街93巷45號","121.492991666667","25.0842033333333","6500200","三重區"
"241020","156-TC","2018/01/13 19:49:31","新北市三重區後竹圍街86號","121.48964","25.0729783333333","6500200","三重區"
"241018","265-UM","2018/01/13 19:49:39","新北市三重區雙園街57巷16號","121.49474","25.067845","6500200","三重區"
"241016","266-UM","2018/01/13 19:49:44","新北市三重區正德街43號","121.495736666667","25.0627366666667","6500200","三重區"
"241022","267-UM","2018/01/13 19:49:36","新北市三重區新北大道一段7號","121.489785","25.0616483333333","6500200","三重區"
"241032","269-UM","2018/01/13 19:49:34","新北市三重區重陽路一段68號","121.486466666667","25.0587566666667","6500200","三重區"
"241013","270-UM","2018/01/13 19:49:41","新北市三重區仁愛街102巷8號","121.494866666667","25.0738516666667","6500200","三重區"
"241025","271-UM","2018/01/13 19:49:36","新北市三重區大有街1-1號","121.477693333333","25.065265","6500200","三重區"
"241007","398-BY","2018/01/13 19:49:35","新北市三重區三和路四段147號","121.484273333333","25.0783066666667","6500200","三重區"
"241004","475-VK","2018/01/13 19:49:47","新北市三重區五華街70號","121.493505","25.0819433333333","6500200","三重區"
"241019","478-VK","2018/01/13 19:49:42","新北市三重區自強路二段76號","121.488143333333","25.070095","6500200","三重區"
"241030","480-VK","2018/01/13 19:49:30","新北市三重區環河南路254巷80號","121.488995","25.0516516666667","6500200","三重區"
"241014","543-UM","2018/01/13 19:49:43","新北市三重區長元街98巷18弄28號","121.501883333333","25.0674016666667","6500200","三重區"
"241023","545-UM","2018/01/13 19:49:49","新北市三重區頂崁街172號","121.477543333333","25.0659583333333","6500200","三重區"
"241001","547-UM","2018/01/13 19:49:36","新北市三重區仁愛街327巷21號","121.492901666667","25.079835","6500200","三重區"
"241006","AAD-863","2018/01/13 19:49:49","新北市三重區永福街269號","121.481566666667","25.074055","6500200","三重區"
"241035","743-BX","2018/01/13 19:49:44","新北市三重區中央北路18巷41號","121.499498333333","25.063875","6500200","三重區"
"241012","941-UM","2018/01/13 19:49:35","新北市三重區仁興街56巷30號","121.498375","25.0755016666667","6500200","三重區"
"241029","942-UM","2018/01/13 19:49:39","新北市三重區光明路17號","121.491026666667","25.058605","6500200","三重區"
"241033","AAC-255","2018/01/13 19:49:43","新北市三重區中興南街66號","121.470645","25.04401","6500200","三重區"
"235066","003-UY","2018/01/13 19:49:38","新北市中和區南工路56號","121.506083333333","25.0015716666667","6500300","中和區"
"235064","005-UY","2018/01/13 19:49:47","新北市中和區圓通路19號","121.501448333333","24.9978816666667","6500300","中和區"
"235046","031-BX","2018/01/13 19:49:44","新北市中和區仁愛街57號","121.511311666667","24.9878733333333","6500300","中和區"
"235056","096-UM","2018/01/13 19:49:33","新北市中和區中山路三段136號","121.473991666667","25.0062183333333","6500300","中和區"
"235039","097-UM","2018/01/13 19:49:46","新北市中和區景德街1號","121.519113333333","24.9914033333333","6500300","中和區"
"235065","098-UM","2018/01/13 19:49:46","新北市中和區中山路二段187號","121.500406666667","25.00279","6500300","中和區"
"235040","150-BY","2018/01/13 19:49:41","新北市中和區安平路59號","121.509645","24.9949616666667","6500300","中和區"
"235058","151-BY","2018/01/13 19:49:43","新北市中和區員山路148巷44弄3號","121.48257","24.9968016666667","6500300","中和區"
"235055","183-VK","2018/01/13 19:49:48","新北市中和區中山路三段181巷18弄3號","121.472745","25.005205","6500300","中和區"
"235038","185-VK","2018/01/13 19:49:45","新北市永和區民生路38號","121.522511666667","24.9968","6500300","中和區"
"235049","186-VK","2018/01/13 19:49:32","新北市中和區中正路78號","121.500553333333","24.9939066666667","6500300","中和區"
"235067","255-BX","2018/01/13 19:49:39","新北市中和區新生街186巷1弄5號","121.483408333333","24.9994233333333","6500300","中和區"
"235044","293-VK","2018/01/13 19:49:31","新北市中和區南山路231號","121.5035","24.9931983333333","6500300","中和區"
"235043","352-BY","2018/01/13 19:49:31","新北市中和區興南路二段159巷31號","121.50561","24.9826666666667","6500300","中和區"
"235068","377-QA","2018/01/13 19:49:33","新北市中和區莊敬路16巷2號","121.499906666667","25.00417","6500300","中和區"
"235025","378-QA","2018/01/13 19:49:36","新北市中和區員山路178號","121.481298333333","25.0001266666667","6500300","中和區"
"235050","4979-A6","2018/01/13 19:49:32","新北市中和區景平路241巷82弄31號","121.506623333333","24.99238","6500300","中和區"
"235069","4980-A6","2018/01/13 19:49:36","新北市中和區中正路395號","121.48979","24.993965","6500300","中和區"
"235042","551-UM","2018/01/13 19:49:46","新北市中和區保健路2巷32-1號","121.506923333333","24.9974783333333","6500300","中和區"
"235045","565-BX","2018/01/13 19:49:31","新北市中和區安樂路1號","121.511653333333","24.9919733333333","6500300","中和區"
"235054","640-BX","2018/01/13 19:49:40","新北市中和區莒光路51號","121.47214","25.0046","6500300","中和區"
"235060","647-TV","2018/01/13 19:49:43","新北市中和區員山路396號","121.480491666667","25.0046416666667","6500300","中和區"
"235047","732-UM","2018/01/13 19:49:47","新北市中和區和平街74號","121.507701666667","24.9911266666667","6500300","中和區"
"235057","801-TS","2018/01/13 19:49:45","新北市中和區員山路150號","121.48127","24.9971866666667","6500300","中和區"
"235052","805-TS","2018/01/13 19:49:46","新北市中和區華新街144巷7弄1號","121.507588333333","24.983045","6500300","中和區"
"235048","896-TW","2018/01/13 19:49:40","新北市中和區華新街2-6號","121.507441666667","24.9851733333333","6500300","中和區"
"235053","900-TW","2018/01/13 19:49:46","新北市中和區國光街215巷47號","121.46727","25.000385","6500300","中和區"
"235051","157-BY","2018/01/13 19:49:42","新北市中和區中興街202巷6號","121.499278333333","24.9906666666667","6500300","中和區"
"235037","AAC-213","2018/01/13 19:49:47","新北市中和區秀朗路三段175巷2號","121.524528333333","24.9912816666667","6500300","中和區"
"235059","AAC-215","2018/01/13 19:49:41","新北市中和區圓通路305巷8號","121.494048333333","24.9897283333333","6500300","中和區"
"220065","072-UY","2018/01/13 19:49:43","新北市板橋區國泰街21號","121.469253333333","25.006745","6500100","板橋區"
"220086","073-UY","2018/01/13 19:49:36","新北市板橋區光華街1號","121.454248333333","25.01109","6500100","板橋區"
"220106","075-UY","2018/01/13 19:49:47","新北市板橋區民治街57巷24弄6號","121.480391666667","25.0336833333333","6500100","板橋區"
"220069","AAD-861","2018/01/13 19:49:44","新北市板橋區南雅南路二段11-28號","121.454028333333","25.0015966666667","6500100","板橋區"
"220096","120-SR","2018/01/13 19:49:40","新北市板橋區莊敬路171號","121.470978333333","25.023845","6500100","板橋區"
"247008","341-TH","2018/01/13 19:49:45","新北市蘆洲區信義路93號","121.477706666667","25.0800966666667","6501400","蘆洲區"
"247004","336-TH","2018/01/13 19:49:32","新北市蘆洲區中原路45號","121.459456666667","25.082245","6501400","蘆洲區"
"247006","056-VK","2018/01/13 19:49:29","新北市蘆洲區永安南路二段14號","121.467333333333","25.077015","6501400","蘆洲區"
"247002","053-VK","2018/01/13 19:49:39","新北市蘆洲區永樂街38巷57弄2號","121.458433333333","25.09026","6501400","蘆洲區"
"247014","007-UY","2018/01/13 19:49:34","新北市蘆洲區復興路30號","121.472173333333","25.0852883333333","6501400","蘆洲區"
"226004","312-R5","2018/01/13 19:49:38","新北市平溪區十分里十分街67號","121.776031666667","25.041915","6502400","平溪區"
"235041","251-BX","2018/01/13 19:49:39","新北市中和區中安街18號","121.513413333333","25.00313","6500300","中和區"
"228003","097-TW","2018/01/13 19:49:35","新北市貢寮區真理里延平街151號","121.92509","25.0579833333333","6502600","貢寮區"
"228001","212-TW","2018/01/13 19:49:45","新北市貢寮區仁理村仁愛路95-1號","121.927406666667","25.0556633333333","6502600","貢寮區"
"224010","AGQ-8101","2018/01/13 19:48:49","新北市瑞芳區八號巷31號","121.84184","25.1109733333333","6501200","瑞芳區"
"224002","639-TC","2018/01/13 19:49:35","新北市瑞芳區員山子路員山巷1號","121.81685","25.1036066666667","6501200","瑞芳區"
"227010","642-TC","2018/01/13 19:49:51","新北市雙溪區新基里自強路2號","121.866395","25.0388366666667","6502500","雙溪區"
"227002","400-TW","2018/01/13 19:49:35","新北市雙溪區雙溪里內挖路36號","121.863198333333","25.036785","6502500","雙溪區"
"222001","KEA-2212","2018/01/13 19:49:35","新北市深坑區北深路三段112號","121.606761666667","25.0015833333333","6501800","深坑區"
"208002","742-BX","2018/01/13 19:49:36","新北市金山區中華路364號","121.63326","25.2244133333333","6502700","金山區"
"208003","665-BX","2018/01/13 19:49:44","新北市金山區海興路112-1號","121.631166666667","25.2387266666667","6502700","金山區"
"208001","761-BX","2018/01/13 19:49:44","新北市金山區重和里林口23號","121.597111666667","25.210365","6502700","金山區"
"251009","008-UM","2018/01/13 19:49:29","新北市淡水區中正路38-1號","121.443733333333","25.1692733333333","6501000","淡水區"
"251004","009-UM","2018/01/13 19:49:51","新北市淡水區民權路177巷55號","121.460455","25.13373","6501000","淡水區"
"251001","011-UM","2018/01/13 19:49:36","新北市淡水區中正東路二段37號","121.459285","25.1562716666667","6501000","淡水區"
"251013","179-VK","2018/01/13 19:49:28","新北市淡水區頂田寮18號","121.461433333333","25.214325","6501000","淡水區"
"251014","180-VK","2018/01/13 19:49:50","新北市淡水區番社前5號","121.47508","25.2357833333333","6501000","淡水區"
"251015","182-VK","2018/01/13 19:49:43","新北市淡水區竹圍子5-1號","121.482786666667","25.19262","6501000","淡水區"
"251012","441-VK","2018/01/13 19:49:43","新北市淡水區淡金路三段23號","121.446243333333","25.1971516666667","6501000","淡水區"
"251016","442-VK","2018/01/13 19:49:37","新北市淡水區三塊厝2-1號","121.454275","25.2096583333333","6501000","淡水區"
"251005","443-VK","2018/01/13 19:49:33","新北市淡水區中山路126號","121.441943333333","25.17099","6501000","淡水區"
"251006","561-UM","2018/01/13 19:49:34","新北市淡水區水碓街15號","121.443505","25.17696","6501000","淡水區"
"251007","577-R6","2018/01/13 19:49:40","新北市淡水區中正東路一段3巷21號","121.451951666667","25.1660166666667","6501000","淡水區"
"251011","650-BX","2018/01/13 19:49:43","新北市淡水區淡金路二段138號","121.446866666667","25.1877283333333","6501000","淡水區"
"207003","550-UM","2018/01/13 19:49:38","新北市萬里區磺潭里公館崙8-1號","121.641963333333","25.21405","6502800","萬里區"
"207004","225-TW","2018/01/13 19:49:44","新北市萬里區萬里里瑪鋉路238號","121.68917","25.1804433333333","6502800","萬里區"
"252002","178-VK","2018/01/13 19:49:45","新北市三芝區三民街31號","121.504583333333","25.2584466666667","6502100","三芝區"
"252001","292-VK","2018/01/13 19:49:47","新北市三芝區公正街9號","121.499765","25.257475","6502100","三芝區"
"237004","078-UY","2018/01/13 19:49:32","新北市三峽區添福14-13號","121.374313333333","24.90076","6500900","三峽區"
"237007","153-BY","2018/01/13 19:49:48","新北市三峽區二鬮路110巷8號","121.35918","24.9092616666667","6500900","三峽區"
"237009","210-TH","2018/01/13 19:49:44","新北市三峽區中園街46號","121.368188333333","24.9262133333333","6500900","三峽區"
"237013","252-BX","2018/01/13 19:49:51","新北市三峽區溪北街12號","121.396445","24.9363183333333","6500900","三峽區"
"237012","275-BY","2018/01/13 19:49:39","新北市三峽區中華路26號","121.373805","24.9323483333333","6500900","三峽區"
"237008","302-VK","2018/01/13 19:49:31","新北市三峽區中正路一段174巷4弄29號","121.372823333333","24.9294266666667","6500900","三峽區"
"237014","433-BY","2018/01/13 19:49:33","新北市三峽區添福141號","121.375286666667","24.9009916666667","6500900","三峽區"
"237006","5529-G3","2018/01/13 19:49:43","新北市三峽區中正路一段336巷15弄2號","121.369955","24.9249466666667","6500900","三峽區"
"237016","649-BX","2018/01/13 19:49:50","新北市三峽區介壽路二段138巷1弄13號","121.396425","24.93373","6500900","三峽區"
"237005","AKY-6261","2018/01/13 19:49:47","新北市三峽區長泰街20號","121.378831666667","24.9317883333333","6500900","三峽區"
"236073","105-UM","2018/01/13 19:49:39","新北市土城區水源街17號","121.441165","24.9751933333333","6501300","土城區"
"236043","107-UM","2018/01/13 19:49:36","新北市土城區金城路二段245巷19號","121.455176666667","24.9833516666667","6501300","土城區"
"236031","253-BX","2018/01/13 19:49:33","新北市土城區中央路一段294號","121.44333","24.98236","6501300","土城區"
"236027","269-VK","2018/01/13 19:49:33","新北市土城區中央路二段61巷40號","121.443768333333","24.9785216666667","6501300","土城區"
"236038","271-VK","2018/01/13 19:49:42","新北市土城區國際路158巷54號","121.467985","24.97485","6501300","土城區"
"236023","401-BY","2018/01/13 19:49:45","新北市土城區峰廷街3號","121.469288333333","24.9874433333333","6501300","土城區"
"236059","912-UM","2018/01/13 19:49:36","新北市土城區中央路一段210號","121.444995","24.98545","6501300","土城區"
"236049","913-UM","2018/01/13 19:49:51","新北市土城區青雲路258號","121.459013333333","24.97952","6501300","土城區"
"236063","915-UM","2018/01/13 19:49:40","新北市土城區延平街33巷15號","121.467256666667","24.991525","6501300","土城區"
"236055","AAC-216","2018/01/13 19:49:46","新北市土城區延和路84號","121.46633","24.9893633333333","6501300","土城區"
"242031","AAC-296","2018/01/13 19:49:45","新北市新莊區仁愛街73號","121.443988333333","25.03773","6500500","新莊區"
"242029","986-R7","2018/01/13 19:49:34","新北市新莊區幸福路874號","121.443183333333","25.0490016666667","6500500","新莊區"
"242025","615-BX","2018/01/13 19:49:44","新北市新莊區五權一路12巷21弄6號","121.457841666667","25.0645033333333","6500500","新莊區"
"242023","613-BX","2018/01/13 19:49:31","新北市新莊區化成路146號","121.465455","25.044875","6500500","新莊區"
"242027","612-BX","2018/01/13 19:49:35","新北市新莊區中平路377巷41號","121.443191666667","25.05263","6500500","新莊區"
"242039","566-BX","2018/01/13 19:49:49","新北市新莊區民安路350號","121.429623333333","25.0224683333333","6500500","新莊區"
"242044","442-UM","2018/01/13 19:49:33","新北市新莊區新北大道七段365號","121.412325","25.0266383333333","6500500","新莊區"
"242048","441-UM","2018/01/13 19:49:48","新北市新莊區建安街76巷3弄13號","121.425798333333","25.0246166666667","6500500","新莊區"
"242034","415-TV","2018/01/13 19:49:38","新北市新莊區公園一路95號","121.444308333333","25.0379283333333","6500500","新莊區"
"242004","413-TV","2018/01/13 19:49:46","新北市新莊區化成路63巷24弄14號","121.462186666667","25.0461","6500500","新莊區"
"242061","362-BY","2018/01/13 19:49:39","新北市新莊區中正路473-1號","121.441906666667","25.0330883333333","6500500","新莊區"
"242058","353-BY","2018/01/13 19:49:41","新北市新莊區八德街45號","121.424911666667","25.0222283333333","6500500","新莊區"
"242007","132-UY","2018/01/13 19:49:48","新北市新莊區思源路593巷6弄16號","121.458846666667","25.059915","6500500","新莊區"
"242036","133-UY","2018/01/13 19:49:32","新北市新莊區建安街101巷1弄11號","121.427226666667","25.0243083333333","6500500","新莊區"
"242021","135-UY","2018/01/13 19:49:39","新北市新莊區建中街52號","121.448478333333","25.0372633333333","6500500","新莊區"
"242009","173-VK","2018/01/13 19:49:39","新北市新莊區新泰路141號","121.448138333333","25.0364883333333","6500500","新莊區"
"242002","176-VK","2018/01/13 19:49:44","新北市新莊區新泰路2-11號","121.45013","25.032455","6500500","新莊區"
"242013","346-TH","2018/01/13 19:49:51","新北市新莊區中泰街38巷3號","121.450741666667","25.0471733333333","6500500","新莊區"
"242019","348-TH","2018/01/13 19:49:48","新北市新莊區民生街15巷3弄9號","121.455256666667","25.0424416666667","6500500","新莊區"
"242056","349-TH","2018/01/13 19:49:33","新北市新莊區新泰路89號","121.448856666667","25.034435","6500500","新莊區"
"242017","350-TH","2018/01/13 19:49:41","新北市新莊區中華路一段226號","121.452603333333","25.04297","6500500","新莊區"
"242011","351-TH","2018/01/13 19:49:33","新北市新莊區中信街122號","121.447795","25.054285","6500500","新莊區"
"238023","601-UM","2018/01/13 19:49:34","新北市樹林區三福街114號","121.406628333333","25.0163133333333","6500700","樹林區"
"238021","KEA-2217","2018/01/13 19:49:43","新北市樹林區佳園路三段181巷17號","121.387051666667","24.9477466666667","6500700","樹林區"
"238022","KEA-2213","2018/01/13 19:49:44","新北市樹林區東順街100號","121.405503333333","24.9746866666667","6500700","樹林區"
"238017","283-BY","2018/01/13 19:49:38","新北市樹林區大安路227號","121.42004","24.99492","6500700","樹林區"
"238014","282-BY","2018/01/13 19:49:41","新北市樹林區千歲街70巷1弄1號","121.426465","24.9973333333333","6500700","樹林區"
"238016","169-UY","2018/01/13 19:49:39","新北市樹林區復興路410號","121.414345","24.9847833333333","6500700","樹林區"
"239006","891-R6","2018/01/13 19:49:47","新北市鶯歌區文化路115巷17號","121.35755","24.9552066666667","6500800","鶯歌區"
"221036","130-UY","2018/01/13 19:49:35","新北市汐止區汐萬路一段22號","121.655781666667","25.06786","6501100","汐止區"
"221010","269-BY","2018/01/13 19:49:33","新北市汐止區康寧街885巷3號","121.650175","25.0765466666667","6501100","汐止區"
"221012","278-VK","2018/01/13 19:49:32","新北市汐止區大同路三段547號","121.681318333333","25.0715516666667","6501100","汐止區"
"221023","279-VK","2018/01/13 19:49:47","新北市汐止區民族三街44號","121.629595","25.0700566666667","6501100","汐止區"
"221032","280-BY","2018/01/13 19:49:47","新北市汐止區橫科路119號","121.620023333333","25.0503933333333","6501100","汐止區"
"221027","281-BY","2018/01/13 19:49:52","新北市汐止區忠孝東路9號","121.658278333333","25.0659483333333","6501100","汐止區"
"221029","298-VK","2018/01/13 19:49:37","新北市汐止區汐萬路一段312號","121.650596666667","25.0753633333333","6501100","汐止區"
"221021","299-VK","2018/01/13 19:49:45","新北市汐止區復興路58巷11弄2號","121.656135","25.0618883333333","6501100","汐止區"
"221008","358-BY","2018/01/13 19:49:50","新北市汐止區康寧街374號","121.628891666667","25.06764","6501100","汐止區"
"221015","567-BX","2018/01/13 19:49:40","新北市汐止區忠孝東路497號","121.666451666667","25.074585","6501100","汐止區"
"221035","622-UM","2018/01/13 19:49:32","新北市汐止區長江街13巷6弄1號","121.654695","25.0716783333333","6501100","汐止區"
"221025","623-UM","2018/01/13 19:49:33","新北市汐止區仁愛路113巷23號","121.661803333333","25.0641633333333","6501100","汐止區"
"221038","646-BX","2018/01/13 19:49:36","新北市汐止區忠孝東路357號","121.665563333333","25.0706916666667","6501100","汐止區"
"221033","647-BX","2018/01/13 19:49:39","新北市汐止區東勢街76巷100-1號","121.636431666667","25.03896","6501100","汐止區"
"221018","753-BX","2018/01/13 19:49:47","新北市汐止區大同路二段524號","121.66112","25.0684733333333","6501100","汐止區"
"220079","145-BY","2018/01/13 19:49:35","新北市板橋區中正路183巷40-2號","121.455183333333","25.0160683333333","6500100","板橋區"
"220080","200-UY","2018/01/13 19:49:36","新北市板橋區大觀路二段37巷46號","121.44887","25.00256","6500100","板橋區"
"220082","610-BX","2018/01/13 19:49:48","新北市板橋區存德街84號","121.43203","24.991045","6500100","板橋區"
"220072","277-BY","2018/01/13 19:49:39","新北市板橋區金門街215巷79號","121.434095","24.9893266666667","6500100","板橋區"
"220101","280-UM","2018/01/13 19:49:31","新北市板橋區縣民大道三段91號","121.475826666667","25.02196","6500100","板橋區"
"220071","283-VK","2018/01/13 19:49:44","新北市板橋區五權街32巷15號","121.464356666667","24.9929066666667","6500100","板橋區"
"220094","285-UM","2018/01/13 19:49:43","新北市板橋區長江路一段104號","121.459553333333","25.0295733333333","6500100","板橋區"
"220053","285-VK","2018/01/13 19:49:48","新北市板橋區民生路一段36-1號","121.474636666667","25.01441","6500100","板橋區"
"220083","286-VK","2018/01/13 19:49:44","新北市板橋區龍興街63巷4號","121.442946666667","25.001315","6500100","板橋區"
"220081","287-VK","2018/01/13 19:49:39","新北市板橋區大觀路一段28巷18號","121.449941666667","25.0089766666667","6500100","板橋區"
"220090","288-VK","2018/01/13 19:49:47","新北市板橋區龍泉街54巷7弄5號","121.45663","25.026475","6500100","板橋區"
"220061","293-UM","2018/01/13 19:49:49","新北市板橋區中山路一段283巷2弄26號","121.470711666667","25.0150783333333","6500100","板橋區"
"220084","296-UM","2018/01/13 19:49:49","新北市板橋區溪崑二街124巷18號","121.425465","24.9883883333333","6500100","板橋區"
"220075","303-R5","2018/01/13 19:49:38","新北市板橋區金華街10巷7號","121.456018333333","25.0200616666667","6500100","板橋區"
"220062","305-R5","2018/01/13 19:49:37","新北市板橋區中山路二段416巷38弄36號","121.481803333333","25.0194883333333","6500100","板橋區"
"220092","307-R5","2018/01/13 19:49:50","新北市板橋區四維路137巷1弄21號","121.465191666667","25.024495","6500100","板橋區"
"220098","317-R6","2018/01/13 19:49:42","新北市板橋區新海路385巷24號","121.458075","25.0254566666667","6500100","板橋區"
"220064","486-VK","2018/01/13 19:49:51","新北市板橋區公園街34巷2號","121.462456666667","25.0083933333333","6500100","板橋區"
"220089","487-VK","2018/01/13 19:49:31","新北市板橋區綠堤街39-4號","121.455283333333","25.0263633333333","6500100","板橋區"
"220088","491-VK","2018/01/13 19:49:35","新北市板橋區仁化街66號","121.475956666667","25.0318133333333","6500100","板橋區"
"220035","560-BX","2018/01/13 19:49:32","新北市板橋區新生街29巷5號","121.456466666667","25.0214816666667","6500100","板橋區"
"220103","561-BX","2018/01/13 19:49:44","新北市板橋區陽明街29巷2號","121.465136666667","25.02178","6500100","板橋區"
"220063","609-BX","2018/01/13 19:49:42","新北市板橋區三民路一段43-2號","121.479435","25.0226616666667","6500100","板橋區"
"220091","637-BX","2018/01/13 19:49:32","新北市板橋區懷德街127巷23弄31號","121.480265","25.0322266666667","6500100","板橋區"
"220057","686-BX","2018/01/13 19:49:43","新北市板橋區廣和街112號","121.462466666667","24.9928783333333","6500100","板橋區"
"220077","687-BX","2018/01/13 19:49:52","新北市板橋區僑中一街124巷9弄1號","121.445928333333","25.012635","6500100","板橋區"
"220093","689-BX","2018/01/13 19:49:48","新北市板橋區長江路二段215號","121.468015","25.03246","6500100","板橋區"
"220054","741-BX","2018/01/13 19:49:52","新北市板橋區忠孝路忠義巷18弄2號","121.466103333333","25.0037816666667","6500100","板橋區"
"220055","827-TW","2018/01/13 19:49:46","新北市板橋區國慶路128號","121.460808333333","24.9958833333333","6500100","板橋區"
"220067","829-TW","2018/01/13 19:49:38","新北市板橋區長安街251巷32號","121.472013333333","25.011095","6500100","板橋區"
"220102","830-TW","2018/01/13 19:49:40","新北市板橋區松柏街50巷3號","121.4757","25.0302516666667","6500100","板橋區"
"220074","895-R6","2018/01/13 19:49:43","新北市板橋區府中路42號","121.457431666667","25.0095333333333","6500100","板橋區"
"220073","985-R7","2018/01/13 19:49:48","新北市板橋區大仁街71號","121.454013333333","25.0161516666667","6500100","板橋區"
"220097","AAC-210","2018/01/13 19:49:35","新北市板橋區文化路一段285巷2弄1號","121.464658333333","25.01916","6500100","板橋區"
"220070","AAC-253","2018/01/13 19:49:37","新北市板橋區民族路83號","121.465728333333","25.0085833333333","6500100","板橋區"
