"lineid","car","time","location","longitude","latitude","cityid","cityname"
"231050","KEA-2219","2018/01/13 21:29:36","新北市新店區中正路284巷2號","121.53842","24.97469","6500600","新店區"
"231027","3712-VJ","2018/01/13 21:20:08","新北市新店區安華路28-1號","121.519333333333","24.960645","6500600","新店區"
"231063","645-TV","2018/01/13 21:29:51","新北市新店區如意街106號","121.496456666667","24.94695","6500600","新店區"
"241017","063-VK","2018/01/13 21:29:37","新北市三重區中正北路25巷2號","121.49321","25.0626683333333","6500200","三重區"
"241024","065-VK","2018/01/13 21:29:40","新北市三重區中正北路145巷1弄12號","121.483648333333","25.0671333333333","6500200","三重區"
"241003","091-VK","2018/01/13 21:29:39","新北市三重區五華街141巷58號","121.493525","25.08675","6500200","三重區"
"241005","262-UM","2018/01/13 21:29:50","新北市三重區仁華街17號","121.483533333333","25.0818516666667","6500200","三重區"
"241016","266-UM","2018/01/13 21:29:44","新北市三重區正義北路113號","121.49696","25.06567","6500200","三重區"
"241007","398-BY","2018/01/13 21:29:55","新北市三重區正義北路137號","121.496658333333","25.0666083333333","6500200","三重區"
"235010","031-BX","2018/01/13 21:00:28","新北市中和區員山路36巷16-2號","121.485265","24.99161","6500300","中和區"
"235026","800-TS","2018/01/13 21:29:29","新北市新店區安忠路205巷8號","121.508798333333","24.954545","6500300","中和區"
"247022","893-R6","2018/01/13 21:29:51","新北市蘆洲區長安街222號","121.458308333333","25.08536","6501400","蘆洲區"
"247012","546-UM","2018/01/13 21:29:35","新北市蘆洲區復興路142號","121.47695","25.0876433333333","6501400","蘆洲區"
"247020","500-BY","2018/01/13 21:29:33","新北市蘆洲區環堤大道206號","121.45738","25.0918883333333","6501400","蘆洲區"
"247008","341-TH","2018/01/13 21:29:45","新北市五股區四維路185巷60號","121.462565","25.078095","6501400","蘆洲區"
"247010","339-TH","2018/01/13 21:29:51","新北市蘆洲區中山二路77號","121.473241666667","25.0819583333333","6501400","蘆洲區"
"247014","007-UY","2018/01/13 21:29:33","新北市蘆洲區中正路333號","121.465495","25.089615","6501400","蘆洲區"
"247024","002-UY","2018/01/13 21:29:46","新北市五股區成泰路四段22巷10-2號","121.454373333333","25.104615","6501400","蘆洲區"
"251009","008-UM","2018/01/13 21:29:49","新北市淡水區民族路33巷16-3號","121.463366666667","25.1360283333333","6501000","淡水區"
"251001","011-UM","2018/01/13 21:29:36","新北市淡水區濱海路一段221號","121.437676666667","25.1897983333333","6501000","淡水區"
"251013","179-VK","2018/01/13 21:29:48","新北市淡水區埤島58-9號","121.457113333333","25.1952716666667","6501000","淡水區"
"251014","180-VK","2018/01/13 21:29:50","新北市淡水區六塊厝2-1號","121.450141666667","25.2404933333333","6501000","淡水區"
"251008","181-VK","2018/01/13 21:29:37","新北市淡水區水源街二段118號","121.45277","25.17461","6501000","淡水區"
"251010","413-VK","2018/01/13 21:29:40","新北市淡水區沙崙路25巷21號","121.420545","25.1824183333333","6501000","淡水區"
"251012","441-VK","2018/01/13 21:29:43","新北市淡水區石頭埔8號","121.452686666667","25.2345733333333","6501000","淡水區"
"251016","442-VK","2018/01/13 21:29:37","新北市淡水區前洲子5號","121.443295","25.2186966666667","6501000","淡水區"
"251005","443-VK","2018/01/13 21:29:53","新北市淡水區水源街一段34巷8號","121.443058333333","25.1719266666667","6501000","淡水區"
"251006","561-UM","2018/01/13 21:29:34","新北市淡水區公明街19號","121.442898333333","25.169175","6501000","淡水區"
"251007","577-R6","2018/01/13 21:29:52","新北市淡水區水源街二段194號","121.456911666667","25.1761366666667","6501000","淡水區"
"251011","650-BX","2018/01/13 21:29:43","新北市淡水區新民街166號","121.436916666667","25.1785266666667","6501000","淡水區"
"251002","672-BX","2018/01/13 21:16:16","新北市淡水區英專路151號","121.448343333333","25.17489","6501000","淡水區"
"251003","673-BX","2018/01/13 21:27:20","新北市淡水區崁頂15-5號","121.43896","25.1858683333333","6501000","淡水區"
"221015","567-BX","2018/01/13 21:22:55","新北市汐止區汐萬路一段256巷3號","121.652411666667","25.0746583333333","6501100","汐止區"
"220101","280-UM","2018/01/13 21:29:51","新北市三重區光復路二段178-1號","121.472031666667","25.0621683333333","6500100","板橋區"
"220070","AAC-253","2018/01/13 21:29:36","新北市五股區新五路二段89號","121.436948333333","25.0744933333333","6500100","板橋區"
