"lineid","car","time","location","longitude","latitude","cityid","cityname"
"247008","341-TH","2018/01/13 22:19:45","新北市五股區中興路三段163號","121.449085","25.0806216666667","6501400","蘆洲區"
"247003","336-TH","2018/01/13 22:18:31","新北市五股區中興路三段163號","121.44908","25.0808783333333","6501400","蘆洲區"
"247003","335-TH","2018/01/13 22:19:35","新北市五股區中興路三段163號","121.44888","25.0804566666667","6501400","蘆洲區"
"251004","009-UM","2018/01/13 22:19:42","新北市淡水區民族路33巷16-19號","121.462393333333","25.1359366666667","6501000","淡水區"
"251008","181-VK","2018/01/13 22:19:37","新北市淡水區學府路104號","121.449866666667","25.171945","6501000","淡水區"
"251010","413-VK","2018/01/13 22:19:40","新北市淡水區沙崙路200號","121.424806666667","25.1839316666667","6501000","淡水區"
"251007","577-R6","2018/01/13 22:19:52","新北市淡水區北新路180號","121.449338333333","25.1787666666667","6501000","淡水區"
"251011","650-BX","2018/01/13 22:19:43","新北市淡水區水碓街7號","121.443155","25.17719","6501000","淡水區"
