"lineid","car","time","location","longitude","latitude","cityid","cityname"
"234070","149-BY","2018/07/20 08:19:44","新北市永和區秀朗路一段114號","121.516871666667","25.0037383333333","6500400","永和區"
"248005","653-BX","2018/07/20 08:19:41","新北市五股區明德路10號","121.433386666667","25.07176","6501500","五股區"
"244004","248-BX","2018/07/20 08:19:42","新北市林口區嘉溪雅坑5-8號","121.344305","25.1008916666667","6501700","林口區"
"222005","289-BY","2018/07/20 08:19:52","新北市深坑區萬福路75巷8號","121.601318333333","25.0096083333333","6501800","深坑區"
"231007","189-VK","2018/07/20 08:19:40","新北市新店區新潭路一段200號","121.52972","24.930995","6500600","新店區"
"231009","192-VK","2018/07/20 08:19:36","新北市新店區北宜路一段39巷30號","121.54003","24.9574833333333","6500600","新店區"
"235001","611-BX","2018/07/20 08:19:37","新北市中和區連城路469巷13號","121.483601666667","24.9953733333333","6500300","中和區"
"226005","5620-A6","2018/07/20 08:19:44","新北市平溪區南山里南山坪124-1號","121.784085","25.0450466666667","6502400","平溪區"
"226001","7418-A5","2018/07/20 08:19:36","新北市平溪區望古里灰3號","121.75847","25.03038","6502400","平溪區"
"226006","AGD-0702","2018/07/20 08:19:41","新北市平溪區新寮里新寮路10號","121.79299","25.05926","6502400","平溪區"
"223006","022-BY","2018/07/20 08:19:34","新北市深坑區文山路一段2號","121.64732","25.0086166666667","6501900","石碇區"
"223003","205-TH","2018/07/20 08:19:18","新北市石碇區北宜路六段塗潭巷6號","121.645373333333","24.9345083333333","6501900","石碇區"
"223008","406-TH","2018/07/20 08:19:33","新北市石碇區串空湖9號","121.669128333333","25.0025716666667","6501900","石碇區"
"223001","592-UM","2018/07/20 08:19:34","新北市石碇區北宜路六段塗潭巷7號","121.645545","24.93397","6501900","石碇區"
"223004","660-BX","2018/07/20 08:19:44","新北市石碇區外按3-1號","121.651715","24.9940366666667","6501900","石碇區"
"223005","677-TV","2018/07/20 08:19:46","新北市石碇區外按5-2號","121.65155","24.9940566666667","6501900","石碇區"
"227005","282-VK","2018/07/20 08:19:49","新北市雙溪區上林里大瀨10號","121.82229","25.0222233333333","6502500","雙溪區"
"237001","159-UY","2018/07/20 08:19:43","新北市三峽區三樹路199號","121.378075","24.9421966666667","6500900","三峽區"
"236010","165-UM","2018/07/20 08:19:45","新北市土城區石門路56號","121.454205","24.9569083333333","6501300","土城區"
"236006","498-BY","2018/07/20 08:19:46","新北市土城區中央路四段27-1號","121.424705","24.9612383333333","6501300","土城區"
