"lineid","car","time","location","longitude","latitude","cityid","cityname"
"234070","149-BY","2018/07/20 08:29:44","新北市永和區永元路2號","121.521878333333","24.9996283333333","6500400","永和區"
"248005","653-BX","2018/07/20 08:29:41","新北市五股區明德路10號","121.433431666667","25.0717483333333","6501500","五股區"
"244004","248-BX","2018/07/20 08:29:41","新北市林口區文化北路一段338號","121.361181666667","25.073675","6501700","林口區"
"222005","289-BY","2018/07/20 08:29:52","新北市深坑區萬福路169-1號","121.61458","25.0147183333333","6501800","深坑區"
"231007","189-VK","2018/07/20 08:29:40","新北市新店區小坑二路15號","121.529351666667","24.9164416666667","6500600","新店區"
"231009","192-VK","2018/07/20 08:29:36","新北市新店區新烏路一段171號","121.545065","24.9347433333333","6500600","新店區"
"235001","611-BX","2018/07/20 08:29:37","新北市中和區民安街42巷32號","121.47925","25.0010483333333","6500300","中和區"
"226005","5620-A6","2018/07/20 08:29:44","新北市平溪區南山里六分11-1號","121.797668333333","25.0499","6502400","平溪區"
"226001","7418-A5","2018/07/20 08:29:36","新北市平溪區東勢里番仔坑3號","121.746948333333","25.0010216666667","6502400","平溪區"
"226006","AGD-0702","2018/07/20 08:29:41","新北市平溪區十分里十分街214號","121.779096666667","25.0448333333333","6502400","平溪區"
"223006","022-BY","2018/07/20 08:29:54","新北市石碇區碇坪路一段82號","121.657678333333","24.9913016666667","6501900","石碇區"
"223003","205-TH","2018/07/20 08:29:38","新北市石碇區北宜路六段直潭巷10號","121.660715","24.9353066666667","6501900","石碇區"
"223008","406-TH","2018/07/20 08:27:20","新北市石碇區靜安路一段252號","121.677545","25.0106333333333","6501900","石碇區"
"223001","592-UM","2018/07/20 08:29:54","新北市石碇區北宜路六段直潭巷16號","121.66107","24.9344866666667","6501900","石碇區"
"223004","660-BX","2018/07/20 08:29:48","新北市石碇區石碇東街12號","121.661596666667","24.99079","6501900","石碇區"
"223005","677-TV","2018/07/20 08:29:46","新北市石碇區湳窟22-1號","121.661066666667","24.9908983333333","6501900","石碇區"
"227005","282-VK","2018/07/20 08:29:49","新北市雙溪區外柑里三叉坑8號","121.82743","25.009115","6502500","雙溪區"
"237001","159-UY","2018/07/20 08:29:43","新北市三峽區大觀路117號","121.374556666667","24.9454366666667","6500900","三峽區"
"236010","165-UM","2018/07/20 08:25:05","新北市土城區石門路76號","121.459331666667","24.9556266666667","6501300","土城區"
"236006","498-BY","2018/07/20 08:29:46","新北市土城區大暖路11號","121.422686666667","24.9612933333333","6501300","土城區"
