"lineid","car","time","location","longitude","latitude","cityid","cityname"
"234044","148-BY","2018/07/20 12:39:17","新北市永和區永元路94號","121.522476666667","25.0017866666667","6500400","永和區"
"234070","149-BY","2018/07/20 12:39:09","新北市永和區福和路1號","121.526416666667","25.010045","6500400","永和區"
"234005","207-UY","2018/07/20 12:39:12","新北市永和區福和路1號","121.526448333333","25.010105","6500400","永和區"
"234078","298-R6","2018/07/20 12:39:24","新北市永和區林森路83號","121.523898333333","25.00377","6500400","永和區"
"234036","336-UY","2018/07/20 12:39:25","新北市永和區福和路1號","121.526691666667","25.0101416666667","6500400","永和區"
"234062","337-UY","2018/07/20 12:39:19","新北市永和區福和路1號","121.526561666667","25.0101516666667","6500400","永和區"
"234084","338-UY","2018/07/20 12:39:19","新北市中和區景新街273巷32號","121.51088","24.9940633333333","6500400","永和區"
"234068","552-UM","2018/07/20 12:38:05","新北市永和區福和路1號","121.525401666667","25.0093816666667","6500400","永和區"
"234015","745-BX","2018/07/20 12:39:17","新北市永和區福和路1號","121.526355","25.0097283333333","6500400","永和區"
"234028","746-BX","2018/07/20 12:39:26","新北市永和區成功路一段62號","121.52698","25.00374","6500400","永和區"
"234012","KEA-2591","2018/07/20 12:39:17","新北市永和區文化路174號","121.51172","25.0155866666667","6500400","永和區"
"234060","AAD-866","2018/07/20 12:39:25","新北市永和區福和路1號","121.526321666667","25.00989","6500400","永和區"
"234048","863-TW","2018/07/20 12:39:28","新北市永和區福和路1號","121.52664","25.0099216666667","6500400","永和區"
"234010","9373-KE","2018/07/20 12:39:20","新北市永和區環河東路二段92號","121.524435","25.0106116666667","6500400","永和區"
"234022","9380-KE","2018/07/20 12:39:11","新北市永和區福和路1號","121.526015","25.00913","6500400","永和區"
"234076","969-R7","2018/07/20 12:39:14","新北市永和區中正路246號","121.516526666667","24.9983366666667","6500400","永和區"
"234001","AAC-295","2018/07/20 12:39:19","新北市永和區福和路1號","121.526641666667","25.00992","6500400","永和區"
"244004","248-BX","2018/07/20 12:39:12","新北市林口區粉寮路二段160巷28號","121.40516","25.0907666666667","6501700","林口區"
"231005","106-UY","2018/07/20 12:39:24","新北市新店區安華路28-1號","121.519596666667","24.960775","6500600","新店區"
"231036","512-UM","2018/07/20 12:39:23","新北市新店區安一路一段1-1號","121.51937","24.9613116666667","6500600","新店區"
"231013","513-UM","2018/07/20 12:39:15","新北市新店區安一路一段1-1號","121.519728333333","24.96124","6500600","新店區"
"231035","719-UM","2018/07/20 12:39:27","新北市新店區安一路一段1-1號","121.519483333333","24.96137","6500600","新店區"
"235029","098-UM","2018/07/20 12:13:04","新北市中和區員山路36巷16-3號","121.484953333333","24.9912583333333","6500300","中和區"
"235001","611-BX","2018/07/20 12:39:22","新北市中和區連城路372-2號","121.481651666667","24.99528","6500300","中和區"
"207002","749-BX","2018/07/20 12:39:05","新北市萬里區雙興里太和路7-2號","121.658648333333","25.174135","6502800","萬里區"
"207001","662-BX","2018/07/20 12:39:14","新北市萬里區萬里里獅頭路15-1號","121.697296666667","25.1799883333333","6502800","萬里區"
"236006","498-BY","2018/07/20 12:39:26","新北市土城區永平街51號","121.427525","24.95914","6501300","土城區"
"221010","269-BY","2018/07/20 12:39:21","台北市內湖區康樂街87號","121.61875","25.0696283333333","6501100","汐止區"
"221032","280-BY","2018/07/20 12:39:08","新北市汐止區康寧街901號","121.651373333333","25.074975","6501100","汐止區"
