"lineid","car","time","location","longitude","latitude","cityid","cityname"
"234044","148-BY","2018/07/20 13:29:17","新北市永和區秀朗路二段259號","121.526358333333","24.9991683333333","6500400","永和區"
"234070","149-BY","2018/07/20 13:29:29","新北市中和區永貞路262巷3號","121.513785","25.0040433333333","6500400","永和區"
"234005","207-UY","2018/07/20 13:29:12","新北市永和區中山路一段170號","121.509301666667","25.00913","6500400","永和區"
"234078","298-R6","2018/07/20 13:29:24","新北市永和區林森路4號","121.526688333333","25.005805","6500400","永和區"
"234036","336-UY","2018/07/20 13:29:25","新北市永和區民樂街35巷2號","121.527581666667","25.0008383333333","6500400","永和區"
"234062","337-UY","2018/07/20 13:29:18","新北市永和區中正路368巷1弄88號","121.520475","25.0007","6500400","永和區"
"234084","338-UY","2018/07/20 13:29:19","新北市永和區林森路41巷31號","121.526236666667","25.0042666666667","6500400","永和區"
"234068","552-UM","2018/07/20 13:29:26","新北市永和區竹林路198號","121.520246666667","25.009545","6500400","永和區"
"234015","745-BX","2018/07/20 13:29:17","新北市永和區環河西路一段51巷1號","121.514171666667","25.018105","6500400","永和區"
"234028","746-BX","2018/07/20 13:29:26","新北市永和區民生路69號","121.522653333333","24.9972216666667","6500400","永和區"
"234052","KEA-2590","2018/07/20 13:29:18","新北市永和區復興街7號","121.515861666667","25.0129516666667","6500400","永和區"
"234012","KEA-2591","2018/07/20 13:29:25","新北市永和區永平路216號","121.509253333333","25.0104233333333","6500400","永和區"
"234060","AAD-866","2018/07/20 13:29:25","新北市永和區永貞路175號","121.515118333333","25.0038333333333","6500400","永和區"
"234066","847-RS","2018/07/20 13:29:15","新北市永和區保平路184號","121.510613333333","25.0064966666667","6500400","永和區"
"234040","862-TW","2018/07/20 13:29:13","新北市永和區中和路519巷6號","121.510981666667","25.0030283333333","6500400","永和區"
"234048","863-TW","2018/07/20 13:29:28","新北市永和區信義路93號","121.512306666667","25.013795","6500400","永和區"
"234025","9371-KE","2018/07/20 13:29:26","新北市永和區永和路一段157-1號","121.514346666667","25.0096083333333","6500400","永和區"
"234010","9373-KE","2018/07/20 13:29:20","新北市永和區仁愛路141巷5弄8號","121.51206","25.01201","6500400","永和區"
"248019","225-UY","2018/07/20 13:29:27","新北市五股區天乙路110號","121.446893333333","25.1117266666667","6501500","五股區"
"234022","9380-KE","2018/07/20 13:29:10","新北市永和區竹林路91巷56號","121.521426666667","25.0127866666667","6500400","永和區"
"234076","969-R7","2018/07/20 13:29:14","新北市永和區中正路340號","121.5179","24.999985","6500400","永和區"
"234072","AAC-211","2018/07/20 13:29:11","新北市永和區光復街42號","121.516656666667","25.0176283333333","6500400","永和區"
"234001","AAC-295","2018/07/20 13:29:19","新北市永和區永和路一段136號","121.513996666667","25.0080033333333","6500400","永和區"
"244004","248-BX","2018/07/20 13:29:12","新北市林口區頂福里85-1號","121.351161666667","25.0802133333333","6501700","林口區"
"231002","002-UM","2018/07/20 13:29:15","新北市新店區環河路62號","121.537","24.9626616666667","6500600","新店區"
"231027","0293-UT","2018/07/20 13:29:26","新北市新店區新店後街58號","121.537806666667","24.9540583333333","6500600","新店區"
"231028","046-UY","2018/07/20 13:29:20","新北市新店區安華路28-1號","121.51961","24.9607916666667","6500600","新店區"
"231001","047-UY","2018/07/20 13:29:19","新北市新店區環河路116號","121.536956666667","24.9674433333333","6500600","新店區"
"231005","106-UY","2018/07/20 13:29:24","新北市新店區環河路2號","121.538438333333","24.9617366666667","6500600","新店區"
"231010","107-UY","2018/07/20 13:29:22","新北市新店區中央路15號","121.533298333333","24.9783366666667","6500600","新店區"
"231012","110-UY","2018/07/20 13:29:29","新北市新店區北新路一段309號","121.541571666667","24.967825","6500600","新店區"
"231023","KEA-2219","2018/07/20 13:29:24","新北市新店區新店路13號","121.540305","24.9528683333333","6500600","新店區"
"231026","256-BX","2018/07/20 13:29:30","新北市新店區光明街9號","121.538183333333","24.9592916666667","6500600","新店區"
"231003","268-BY","2018/07/20 13:29:32","新北市新店區北新路一段307號","121.541473333333","24.9677033333333","6500600","新店區"
"231018","278-BY","2018/07/20 13:29:25","新北市新店區中央路63號","121.532563333333","24.9770033333333","6500600","新店區"
"231016","AAD-862","2018/07/20 13:29:15","新北市新店區北宜路二段56巷1弄2號","121.549156666667","24.9510083333333","6500600","新店區"
"231038","3712-VJ","2018/07/20 13:29:21","新北市新店區安華路28-1號","121.519215","24.9606383333333","6500600","新店區"
"231037","4716-K9","2018/07/20 13:29:31","新北市新店區安康路二段380號","121.500566666667","24.956995","6500600","新店區"
"231025","4715-K9","2018/07/20 13:29:11","新北市新店區中央六街56號","121.52791","24.975745","6500600","新店區"
"231036","512-UM","2018/07/20 13:29:14","新北市新店區建業路47-1號","121.478723333333","24.9552416666667","6500600","新店區"
"231013","513-UM","2018/07/20 13:29:16","新北市新店區中央路135號","121.530291666667","24.9737766666667","6500600","新店區"
"231034","616-UM","2018/07/20 13:29:14","新北市新店區安華路3號","121.51924","24.9595933333333","6500600","新店區"
"231006","617-UM","2018/07/20 13:29:25","新北市新店區安康路一段35號","121.531791666667","24.960685","6500600","新店區"
"231030","619-UM","2018/07/20 13:29:18","新北市新店區安華路30巷1號","121.519793333333","24.9596933333333","6500600","新店區"
"231035","719-UM","2018/07/20 13:29:27","新北市新店區安一路一段1-1號","121.5195","24.9611516666667","6500600","新店區"
"231022","719-UY","2018/07/20 13:29:21","新北市新店區北宜路一段123號","121.540393333333","24.9535516666667","6500600","新店區"
"231032","720-UM","2018/07/20 13:29:16","新北市新店區安豐路54號","121.499331666667","24.9543733333333","6500600","新店區"
"231029","897-TW","2018/07/20 13:29:23","新北市新店區安華路28-1號","121.519683333333","24.960855","6500600","新店區"
"231004","899-TW","2018/07/20 13:29:23","新北市新店區安康路一段116號","121.527193333333","24.9625366666667","6500600","新店區"
"231024","AKT-0513","2018/07/20 13:29:20","新北市新店區中正路154巷6號","121.541828333333","24.97204","6500600","新店區"
"235030","003-UY","2018/07/20 13:29:15","新北市中和區中山路二段116巷3弄1號","121.502663333333","25.0040216666667","6500300","中和區"
"235028","005-UY","2018/07/20 13:29:20","新北市中和區連城路139巷16號","121.496185","24.9982916666667","6500300","中和區"
"235027","006-UY","2018/07/20 13:29:14","新北市中和區連城路347巷29-1號","121.488456666667","24.99514","6500300","中和區"
"235020","096-UM","2018/07/20 13:29:19","新北市中和區中山路二段594號","121.482275","25.0054483333333","6500300","中和區"
"235003","097-UM","2018/07/20 13:29:28","新北市中和區景平路172號","121.517046666667","24.9925566666667","6500300","中和區"
"235029","098-UM","2018/07/20 13:29:25","新北市中和區莊敬路49巷18號","121.501601666667","25.0060116666667","6500300","中和區"
"235004","150-BY","2018/07/20 13:29:16","新北市中和區保健路50巷68號","121.509325","24.9950133333333","6500300","中和區"
"235022","151-BY","2018/07/20 13:29:11","新北市中和區圓通路369巷55弄10號","121.490918333333","24.98342","6500300","中和區"
"235019","183-VK","2018/07/20 13:29:25","新北市中和區民享街287-1號","121.470158333333","24.995475","6500300","中和區"
"235002","185-VK","2018/07/20 13:29:16","新北市中和區自立路141巷18號","121.523083333333","24.99347","6500300","中和區"
"235013","186-VK","2018/07/20 13:29:10","新北市中和區景安路80號","121.505676666667","24.99624","6500300","中和區"
"235031","255-BX","2018/07/20 13:29:27","新北市中和區員山路148巷39-4號","121.482515","24.9971416666667","6500300","中和區"
"235008","293-VK","2018/07/20 13:29:19","新北市中和區復興路303號","121.501413333333","24.9902466666667","6500300","中和區"
"235036","301-VK","2018/07/20 13:29:25","新北市中和區錦和路162號","121.489816666667","24.9958633333333","6500300","中和區"
"235007","352-BY","2018/07/20 13:29:19","新北市中和區景平路335號","121.505648333333","24.9932","6500300","中和區"
"235006","KEA-2878","2018/07/20 13:29:26","新北市中和區自立路56巷3號","121.523376666667","24.9917733333333","6500300","中和區"
"235014","4979-A6","2018/07/20 13:29:18","新北市中和區景新街362巷14號","121.511723333333","24.9901016666667","6500300","中和區"
"235033","4980-A6","2018/07/20 13:29:21","新北市中和區連城路127巷9-1號","121.496551666667","24.9986516666667","6500300","中和區"
"235034","558-UM","2018/07/20 13:29:31","新北市中和區景平路435號","121.501003333333","24.9959433333333","6500300","中和區"
"235009","565-BX","2018/07/20 13:29:11","新北市中和區南山路236巷24弄22號","121.504903333333","24.9891233333333","6500300","中和區"
"235018","640-BX","2018/07/20 13:29:21","新北市中和區民享街89巷4弄1號","121.475031666667","25.0016166666667","6500300","中和區"
"235024","647-TV","2018/07/20 13:29:11","新北市中和區員山路289號","121.481221666667","24.9998533333333","6500300","中和區"
"235011","732-UM","2018/07/20 13:29:25","新北市中和區南山路479號","121.508013333333","24.9883266666667","6500300","中和區"
"235010","733-UM","2018/07/20 13:29:29","新北市中和區錦和路350-1號","121.4905","24.9935666666667","6500300","中和區"
"235035","783-BX","2018/07/20 13:29:23","新北市板橋區光環路二段28-2號","121.482236666667","25.0139233333333","6500300","中和區"
"235026","800-TS","2018/07/20 13:29:24","新北市中和區景平路754號","121.496363333333","25.0045883333333","6500300","中和區"
"235005","802-TS","2018/07/20 13:29:19","新北市中和區中和路324巷6弄1號","121.509798333333","25.0005333333333","6500300","中和區"
"235017","900-TW","2018/07/20 13:29:23","新北市中和區民享街457號","121.470408333333","24.99316","6500300","中和區"
"235021","911-UM","2018/07/20 13:29:14","新北市中和區民享街97巷21號","121.475335","24.999535","6500300","中和區"
"235015","157-BY","2018/07/20 13:29:28","新北市中和區興南路二段112巷1-1號","121.504066666667","24.9844533333333","6500300","中和區"
"235001","AAC-213","2018/07/20 13:29:17","新北市中和區景德街71號","121.516691666667","24.9912533333333","6500300","中和區"
"235023","AAC-215","2018/07/20 13:29:10","新北市中和區建八路1號","121.485445","24.998595","6500300","中和區"
"220013","072-UY","2018/07/20 13:29:30","新北市板橋區南雅南路二段1-1號","121.454923333333","25.003975","6500100","板橋區"
"220034","073-UY","2018/07/20 13:29:20","新北市板橋區板城路407號","121.447443333333","24.9951966666667","6500100","板橋區"
"220017","AAD-861","2018/07/20 13:29:12","新北市板橋區華東街1-10號","121.44866","24.9949183333333","6500100","板橋區"
"247007","056-VK","2018/07/20 13:29:16","新北市五股區工商路8號","121.440581666667","25.082455","6501400","蘆洲區"
"235011","251-BX","2018/07/20 13:29:26","新北市中和區興南路二段149號","121.505013333333","24.98368","6500300","中和區"
"207002","749-BX","2018/07/20 13:29:24","新北市萬里區崁腳里崁腳路166號","121.645116666667","25.1558183333333","6502800","萬里區"
"207001","662-BX","2018/07/20 13:27:54","新北市萬里區龜吼里石角路19-1號","121.684093333333","25.1919","6502800","萬里區"
"236006","498-BY","2018/07/20 13:29:26","新北市土城區亞洲路11巷3弄9號","121.436015","24.9715283333333","6501300","土城區"
"221036","130-UY","2018/07/20 13:29:25","新北市汐止區大同路三段116號","121.671951666667","25.0768466666667","6501100","汐止區"
"221012","246-BX","2018/07/20 13:29:26","新北市汐止區新台五路一段125號","121.65178","25.061655","6501100","汐止區"
"221010","269-BY","2018/07/20 13:29:21","新北市汐止區長青路124號","121.606463333333","25.108345","6501100","汐止區"
"221032","280-BY","2018/07/20 13:29:28","新北市汐止區水源路一段56號","121.657386666667","25.065585","6501100","汐止區"
"220028","200-UY","2018/07/20 13:29:25","新北市板橋區華東街1-9號","121.448166666667","24.994955","6500100","板橋區"
"220031","286-VK","2018/07/20 13:29:21","新北市板橋區華東街1-10號","121.448321666667","24.9950966666667","6500100","板橋區"
"220032","296-UM","2018/07/20 13:29:16","新北市板橋區華東街1-9號","121.448155","24.99497","6500100","板橋區"
"220023","303-R5","2018/07/20 13:29:25","新北市板橋區華東街1-10號","121.448251666667","24.994975","6500100","板橋區"
"220104","560-BX","2018/07/20 13:29:13","新北市板橋區南雅南路二段1-1號","121.454733333333","25.0037733333333","6500100","板橋區"
"220027","630-UY","2018/07/20 13:29:19","新北市板橋區華東街1-10號","121.448306666667","24.9951","6500100","板橋區"
"220005","686-BX","2018/07/20 13:29:27","新北市板橋區華東街1-9號","121.448211666667","24.9948833333333","6500100","板橋區"
"220025","687-BX","2018/07/20 13:29:17","新北市板橋區篤行路一段30號","121.431871666667","24.9940466666667","6500100","板橋區"
"220002","741-BX","2018/07/20 13:29:13","新北市板橋區華東街1-9號","121.448101666667","24.99492","6500100","板橋區"
"235032","KEA-2873","2018/07/20 13:29:27","新北市中和區中正路273-5號","121.495573333333","24.99325","6500300","中和區"
"235025","KEA-2875","2018/07/20 13:29:09","新北市中和區民享街116巷25弄1號","121.473983333333","24.998875","6500300","中和區"
