"lineid","car","time","location","longitude","latitude","cityid","cityname"
"234044","148-BY","2018/07/20 13:39:17","新北市永和區永利路121號","121.523888333333","25.0025583333333","6500400","永和區"
"234070","149-BY","2018/07/20 13:39:29","新北市永和區自由街77巷20弄1號","121.513831666667","25.0042766666667","6500400","永和區"
"234005","207-UY","2018/07/20 13:39:31","新北市永和區永和路一段118號","121.513965","25.0079183333333","6500400","永和區"
"234078","298-R6","2018/07/20 13:39:27","新北市永和區國中路104巷8弄22號","121.525315","25.0063483333333","6500400","永和區"
"234036","336-UY","2018/07/20 13:39:25","新北市永和區民樂街31巷6弄2號","121.52798","25.0012433333333","6500400","永和區"
"234062","337-UY","2018/07/20 13:39:18","新北市永和區秀朗路一段192巷6弄12號","121.519103333333","25.0023183333333","6500400","永和區"
"234084","338-UY","2018/07/20 13:39:19","新北市永和區永亨路122號","121.524465","25.0040016666667","6500400","永和區"
"234068","552-UM","2018/07/20 13:39:26","新北市永和區永和路二段233號","121.515581666667","25.0142733333333","6500400","永和區"
"234015","745-BX","2018/07/20 13:39:31","新北市永和區永和路二段405巷6號","121.515293333333","25.0174133333333","6500400","永和區"
"234028","746-BX","2018/07/20 13:39:26","新北市永和區民權路1巷12號","121.520981666667","24.998295","6500400","永和區"
"234052","KEA-2590","2018/07/20 13:39:18","新北市永和區竹林路39巷18號","121.518636666667","25.0146566666667","6500400","永和區"
"234012","KEA-2591","2018/07/20 13:39:17","新北市永和區仁愛路168號","121.510211666667","25.0126683333333","6500400","永和區"
"234060","AAD-866","2018/07/20 13:39:25","新北市永和區中正路436號","121.517498333333","25.0025316666667","6500400","永和區"
"234066","847-RS","2018/07/20 13:39:18","新北市永和區中山路一段191巷9弄6號","121.509733333333","25.0080066666667","6500400","永和區"
"234040","862-TW","2018/07/20 13:39:12","新北市中和區中和路294號","121.50862","24.9996666666667","6500400","永和區"
"234048","863-TW","2018/07/20 13:39:28","新北市永和區保安路132號","121.508936666667","25.0153433333333","6500400","永和區"
"234025","9371-KE","2018/07/20 13:39:11","新北市永和區秀朗路一段10巷19號","121.51345","25.0061333333333","6500400","永和區"
"234010","9373-KE","2018/07/20 13:39:20","新北市永和區保福路二段9巷9號","121.510558333333","25.01092","6500400","永和區"
"248019","225-UY","2018/07/20 13:39:07","新北市五股區凌雲路三段田埔巷14-3號","121.43586","25.12154","6501500","五股區"
"234022","9380-KE","2018/07/20 13:39:33","新北市永和區中正路702巷11號","121.516281666667","25.0104833333333","6500400","永和區"
"234076","969-R7","2018/07/20 13:39:14","新北市永和區民族街25號","121.518795","24.9996383333333","6500400","永和區"
"234072","AAC-211","2018/07/20 13:39:11","新北市永和區竹林路213巷4號","121.521148333333","25.008805","6500400","永和區"
"234001","AAC-295","2018/07/20 13:39:19","新北市永和區永和路一段116號","121.513856666667","25.0074766666667","6500400","永和區"
"244004","248-BX","2018/07/20 13:39:12","新北市林口區頂福里5-10號","121.361216666667","25.0825766666667","6501700","林口區"
"231002","002-UM","2018/07/20 13:39:15","新北市新店區溪園路405號","121.524088333333","24.9782","6500600","新店區"
"231027","0293-UT","2018/07/20 13:39:26","新北市新店區北宜路一段105巷10弄3號","121.5405","24.9557166666667","6500600","新店區"
"231028","046-UY","2018/07/20 13:39:20","新北市新店區安和路一段6-2號","121.517095","24.9649066666667","6500600","新店區"
"231001","047-UY","2018/07/20 13:39:19","新北市新店區中正路373號","121.534718333333","24.97671","6500600","新店區"
"231005","106-UY","2018/07/20 13:39:24","新北市新店區寶中路45-3號","121.545196666667","24.979045","6500600","新店區"
"231010","107-UY","2018/07/20 13:39:22","新北市新店區中正路307巷22號","121.536188333333","24.9741283333333","6500600","新店區"
"231012","110-UY","2018/07/20 13:39:29","新北市新店區德正街27巷3號","121.544626666667","24.9714683333333","6500600","新店區"
"231023","KEA-2219","2018/07/20 13:39:24","新北市新店區新店路140號","121.537141666667","24.9552683333333","6500600","新店區"
"231026","256-BX","2018/07/20 13:39:30","新北市新店區中正路277號","121.537618333333","24.974305","6500600","新店區"
"231003","268-BY","2018/07/20 13:39:12","新北市新店區中正路41號","121.544933333333","24.9698383333333","6500600","新店區"
"231018","278-BY","2018/07/20 13:39:25","新北市新店區百忍街33號","121.533628333333","24.975685","6500600","新店區"
"231016","AAD-862","2018/07/20 13:39:29","新北市新店區竹林路28號","121.552048333333","24.9513433333333","6500600","新店區"
"231038","3712-VJ","2018/07/20 13:39:21","新北市新店區安華路28-1號","121.519263333333","24.960665","6500600","新店區"
"231037","4716-K9","2018/07/20 13:39:31","新北市新店區薏仁坑路22號","121.498285","24.9592883333333","6500600","新店區"
"231025","4715-K9","2018/07/20 13:39:31","新北市新店區中央六街56號","121.52798","24.97574","6500600","新店區"
"231036","512-UM","2018/07/20 13:39:14","新北市新店區安祥路147巷54號","121.476343333333","24.9564133333333","6500600","新店區"
"231013","513-UM","2018/07/20 13:39:16","新北市新店區中正路454-5號","121.534426666667","24.9790383333333","6500600","新店區"
"231034","616-UM","2018/07/20 13:39:13","新北市新店區車子路162號","121.504468333333","24.9459966666667","6500600","新店區"
"231006","617-UM","2018/07/20 13:39:25","新北市新店區北宜路一段106號","121.539051666667","24.9553466666667","6500600","新店區"
"231030","619-UM","2018/07/20 13:39:18","新北市新店區安康路一段222-3號","121.522606666667","24.9637233333333","6500600","新店區"
"231035","719-UM","2018/07/20 13:39:27","新北市新店區安忠路38號","121.51307","24.95946","6500600","新店區"
"231022","719-UY","2018/07/20 13:39:21","新北市新店區永興路88-1號","121.544058333333","24.93369","6500600","新店區"
"231032","720-UM","2018/07/20 13:39:16","新北市新店區安華路8號","121.519775","24.962445","6500600","新店區"
"231029","897-TW","2018/07/20 13:39:23","新北市新店區安康路二段352號","121.50236","24.957525","6500600","新店區"
"231004","899-TW","2018/07/20 13:39:23","新北市新店區北新路二段1號","121.542646666667","24.9712766666667","6500600","新店區"
"231024","AKT-0513","2018/07/20 13:39:28","新北市新店區中華路47巷2弄1號","121.539673333333","24.9674783333333","6500600","新店區"
"235030","003-UY","2018/07/20 13:39:15","新北市中和區水源路43號","121.504651666667","25.00364","6500300","中和區"
"235028","005-UY","2018/07/20 13:39:20","新北市中和區連城路110號","121.496248333333","24.9996716666667","6500300","中和區"
"235027","006-UY","2018/07/20 13:39:14","新北市中和區連城路389巷10弄4號","121.486305","24.9956533333333","6500300","中和區"
"235020","096-UM","2018/07/20 13:39:19","新北市中和區員山路466巷17弄5號","121.480558333333","25.0068916666667","6500300","中和區"
"235003","097-UM","2018/07/20 13:39:28","新北市中和區大勇街25巷29弄3號","121.515166666667","24.9936766666667","6500300","中和區"
"235029","098-UM","2018/07/20 13:39:25","新北市中和區中山路二段2巷51號","121.501915","25.0072533333333","6500300","中和區"
"235004","150-BY","2018/07/20 13:39:16","新北市中和區保健路50巷68號","121.509266666667","24.995115","6500300","中和區"
"235022","151-BY","2018/07/20 13:39:31","新北市中和區連城路384號","121.480653333333","24.9950833333333","6500300","中和區"
"235019","183-VK","2018/07/20 13:39:29","新北市中和區莒光路120巷13弄1-4號","121.471628333333","25.0014766666667","6500300","中和區"
"235002","185-VK","2018/07/20 13:39:16","新北市中和區大勇街60巷6號","121.518553333333","24.9947283333333","6500300","中和區"
"235013","186-VK","2018/07/20 13:39:10","新北市中和區明義街8號","121.504971666667","24.9949833333333","6500300","中和區"
"235031","255-BX","2018/07/20 13:39:27","新北市中和區新生街186巷5弄27號","121.482903333333","24.99867","6500300","中和區"
"235008","293-VK","2018/07/20 13:39:19","新北市中和區復興路276號","121.502833333333","24.9904383333333","6500300","中和區"
"235036","301-VK","2018/07/20 13:39:25","新北市中和區連城路171巷41弄1號","121.496273333333","24.9965383333333","6500300","中和區"
"235007","352-BY","2018/07/20 13:39:19","新北市中和區景平路161-1號","121.512498333333","24.9924166666667","6500300","中和區"
"235006","KEA-2878","2018/07/20 13:39:26","新北市中和區秀朗路三段135巷7弄3號","121.525575","24.9919783333333","6500300","中和區"
"235014","4979-A6","2018/07/20 13:39:18","新北市中和區景新街496巷33弄2號","121.51345","24.985835","6500300","中和區"
"235033","4980-A6","2018/07/20 13:39:21","新北市中和區連城路97號","121.496543333333","24.9997883333333","6500300","中和區"
"235034","558-UM","2018/07/20 13:39:31","新北市中和區景新街129號","121.505831666667","24.9972916666667","6500300","中和區"
"235009","565-BX","2018/07/20 13:39:11","新北市中和區南山路236巷63弄1號","121.503846666667","24.987605","6500300","中和區"
"235018","640-BX","2018/07/20 13:39:21","新北市中和區民享街41號","121.474015","25.00298","6500300","中和區"
"235024","647-TV","2018/07/20 13:39:31","新北市中和區中山路二段519號","121.481801666667","25.0052366666667","6500300","中和區"
"235011","732-UM","2018/07/20 13:39:25","新北市中和區南山路320巷10弄21號","121.506825","24.9867283333333","6500300","中和區"
"235010","733-UM","2018/07/20 13:39:29","新北市中和區南山路186號","121.505645","24.9907766666667","6500300","中和區"
"235035","783-BX","2018/07/20 13:39:23","新北市中和區永和路356巷51號","121.48718","25.0142733333333","6500300","中和區"
"235026","800-TS","2018/07/20 13:39:24","新北市中和區景平路703巷2弄7-3號","121.495666666667","25.003635","6500300","中和區"
"235005","802-TS","2018/07/20 13:39:19","新北市中和區中安街78號","121.512155","25.00194","6500300","中和區"
"235017","900-TW","2018/07/20 13:39:23","新北市土城區延壽路77巷4弄21號","121.469045","24.9931483333333","6500300","中和區"
"235021","911-UM","2018/07/20 13:39:14","新北市中和區民安街42巷42號","121.478913333333","25.0013016666667","6500300","中和區"
"235015","157-BY","2018/07/20 13:39:28","新北市中和區華新街143巷106弄30號","121.506163333333","24.97877","6500300","中和區"
"235001","AAC-213","2018/07/20 13:39:17","新北市中和區景平路73號","121.518878333333","24.9913083333333","6500300","中和區"
"235023","AAC-215","2018/07/20 13:39:31","新北市中和區錦和路356號","121.490518333333","24.9914683333333","6500300","中和區"
"220013","072-UY","2018/07/20 13:39:10","新北市板橋區漢生東路157號","121.468493333333","25.0134383333333","6500100","板橋區"
"220034","073-UY","2018/07/20 13:39:20","新北市板橋區南雅西路二段192巷1弄11號","121.45216","25.01472","6500100","板橋區"
"220017","AAD-861","2018/07/20 13:39:12","新北市板橋區華東街1-10號","121.448336666667","24.9950983333333","6500100","板橋區"
"247007","056-VK","2018/07/20 13:39:16","新北市蘆洲區國道路二段103號","121.470655","25.0748783333333","6501400","蘆洲區"
"235011","251-BX","2018/07/20 13:39:26","新北市中和區興南路三段42-3號","121.495681666667","24.977055","6500300","中和區"
"207002","749-BX","2018/07/20 13:39:24","新北市萬里區崁腳里崁腳路166號","121.64508","25.1558366666667","6502800","萬里區"
"207001","662-BX","2018/07/20 13:39:14","新北市萬里區大鵬里萬里加投51號","121.643418333333","25.2101566666667","6502800","萬里區"
"236040","107-UM","2018/07/20 13:39:17","新北市土城區城林路6巷80號","121.43849","24.9797383333333","6501300","土城區"
"236077","166-UM","2018/07/20 13:39:25","新北市土城區城林路6巷80號","121.438173333333","24.9794516666667","6501300","土城區"
"236032","271-VK","2018/07/20 13:39:28","新北市土城區城林路6巷80號","121.438478333333","24.9798366666667","6501300","土城區"
"236067","KEA-2877","2018/07/20 13:39:29","新北市土城區城林路6巷80號","121.43876","24.9796416666667","6501300","土城區"
"236006","498-BY","2018/07/20 13:39:26","新北市土城區慶祥街70號","121.436321666667","24.97372","6501300","土城區"
"236057","912-UM","2018/07/20 13:39:11","新北市土城區城林路6巷80號","121.438476666667","24.97979","6501300","土城區"
"236045","913-UM","2018/07/20 13:39:15","新北市土城區城林路6巷80號","121.43851","24.979745","6501300","土城區"
"236054","AAC-216","2018/07/20 13:39:22","新北市土城區城林路6巷80號","121.438733333333","24.9796783333333","6501300","土城區"
"221036","130-UY","2018/07/20 13:39:25","新北市汐止區汐平路一段84號","121.68468","25.0694166666667","6501100","汐止區"
"221012","246-BX","2018/07/20 13:39:26","新北市汐止區新台五路一段94-2號","121.648045","25.0607866666667","6501100","汐止區"
"221010","269-BY","2018/07/20 13:39:21","新北市汐止區長青路210巷119號","121.615251666667","25.1141666666667","6501100","汐止區"
"221032","280-BY","2018/07/20 13:39:28","新北市汐止區仁愛路10號","121.659308333333","25.0636183333333","6501100","汐止區"
"220028","200-UY","2018/07/20 13:39:25","新北市板橋區大觀路二段265巷76弄31號","121.44142","24.996715","6500100","板橋區"
"220030","610-BX","2018/07/20 13:39:30","新北市板橋區篤行路一段18號","121.432081666667","24.9950466666667","6500100","板橋區"
"220004","276-BY","2018/07/20 13:39:24","新北市板橋區四川路二段橋頭6號","121.448163333333","24.9937933333333","6500100","板橋區"
"220020","277-BY","2018/07/20 13:39:25","新北市板橋區大觀路二段443-2號","121.438963333333","24.9952183333333","6500100","板橋區"
"220019","283-VK","2018/07/20 13:39:20","新北市板橋區四川路二段93號","121.452791666667","24.9948816666667","6500100","板橋區"
"220043","285-UM","2018/07/20 13:39:26","新北市板橋區民生路二段161巷1號","121.470083333333","25.01988","6500100","板橋區"
"220031","286-VK","2018/07/20 13:39:21","新北市板橋區大觀路二段55號","121.446731666667","25.0028666666667","6500100","板橋區"
"220029","287-VK","2018/07/20 13:39:17","新北市板橋區大觀路二段153巷39弄1號","121.446961666667","25.000445","6500100","板橋區"
"220009","293-UM","2018/07/20 13:39:16","新北市板橋區民生路二段161巷3號","121.470276666667","25.019805","6500100","板橋區"
"220032","296-UM","2018/07/20 13:39:16","新北市板橋區大觀路二段153巷44弄23號","121.446091666667","24.99914","6500100","板橋區"
"220023","303-R5","2018/07/20 13:39:24","新北市板橋區華東街328號","121.45274","25.003355","6500100","板橋區"
"220104","560-BX","2018/07/20 13:39:13","新北市板橋區南雅西路二段145巷10號","121.451533333333","25.012","6500100","板橋區"
"220011","609-BX","2018/07/20 13:39:16","新北市板橋區民生路二段171號","121.469848333333","25.0201033333333","6500100","板橋區"
"220027","630-UY","2018/07/20 13:39:19","新北市板橋區南雅西路二段189號","121.451826666667","25.013005","6500100","板橋區"
"220005","686-BX","2018/07/20 13:39:27","新北市板橋區華東街1-9號","121.448225","24.994925","6500100","板橋區"
"220025","687-BX","2018/07/20 13:39:17","新北市板橋區沙崙街37號","121.430508333333","24.9945383333333","6500100","板橋區"
"220002","741-BX","2018/07/20 13:39:13","新北市板橋區華東街1-9號","121.448121666667","24.9949383333333","6500100","板橋區"
"220003","827-TW","2018/07/20 13:39:25","新北市板橋區華東街1-9號","121.44822","24.99495","6500100","板橋區"
"220022","895-R6","2018/07/20 13:39:23","新北市板橋區南雅南路一段47號","121.456056666667","25.0061733333333","6500100","板橋區"
"220021","985-R7","2018/07/20 13:39:12","新北市板橋區華興街90號","121.4567","25.0054483333333","6500100","板橋區"
"220018","AAC-253","2018/07/20 13:39:24","新北市板橋區華東街1-9號","121.448268333333","24.9948833333333","6500100","板橋區"
"235032","KEA-2873","2018/07/20 13:39:27","新北市中和區中正路211巷32弄20號","121.496485","24.992375","6500300","中和區"
"235025","KEA-2875","2018/07/20 13:39:09","新北市中和區民享街90巷24號","121.473353333333","25.0000783333333","6500300","中和區"
