"lineid","car","time","location","longitude","latitude","cityid","cityname"
"234044","148-BY","2018/07/20 14:09:17","新北市永和區得和路324號","121.523195","24.9995533333333","6500400","永和區"
"234070","149-BY","2018/07/20 14:09:29","新北市永和區豫溪街191巷7弄8號","121.52388","25.0109","6500400","永和區"
"234005","207-UY","2018/07/20 14:09:11","新北市永和區保平路151巷2弄4號","121.509763333333","25.0057433333333","6500400","永和區"
"234078","298-R6","2018/07/20 14:09:26","新北市永和區國中路99號","121.524366666667","25.00621","6500400","永和區"
"234036","336-UY","2018/07/20 14:09:25","新北市永和區成功路一段47巷8號","121.527486666667","25.0040366666667","6500400","永和區"
"234062","337-UY","2018/07/20 14:09:18","新北市永和區永利路152號","121.522428333333","25.0027433333333","6500400","永和區"
"234084","338-UY","2018/07/20 14:09:32","新北市永和區中正路636號","121.517048333333","25.0081616666667","6500400","永和區"
"234068","552-UM","2018/07/20 14:09:26","新北市永和區永貞路10巷10號","121.520468333333","25.0074133333333","6500400","永和區"
"234015","745-BX","2018/07/20 14:09:17","新北市永和區仁愛路7號","121.514901666667","25.01346","6500400","永和區"
"234028","746-BX","2018/07/20 14:09:26","新北市永和區民權路47號","121.519988333333","24.9971466666667","6500400","永和區"
"234052","KEA-2590","2018/07/20 14:09:18","新北市永和區博愛街33號","121.518586666667","25.0158433333333","6500400","永和區"
"234012","KEA-2591","2018/07/20 14:09:17","新北市永和區永貞路375號","121.508343333333","25.0083366666667","6500400","永和區"
"234060","AAD-866","2018/07/20 14:09:25","新北市中和區安平路222號","121.514086666667","25.00012","6500400","永和區"
"234066","847-RS","2018/07/20 14:09:15","新北市永和區保平路236巷6號","121.508745","25.006135","6500400","永和區"
"234040","862-TW","2018/07/20 14:09:32","新北市永和區雙和街64巷7號","121.509386666667","25.0034633333333","6500400","永和區"
"234048","863-TW","2018/07/20 14:09:28","新北市永和區環河西路二段37號","121.507383333333","25.0156516666667","6500400","永和區"
"234025","9371-KE","2018/07/20 14:09:11","新北市永和區安樂路272巷9弄7號","121.515095","25.0046716666667","6500400","永和區"
"234010","9373-KE","2018/07/20 14:09:20","新北市永和區環河西路二段241號","121.500536666667","25.0092883333333","6500400","永和區"
"248019","225-UY","2018/07/20 14:04:59","新北市五股區凌雲路三段57號","121.425193333333","25.1250516666667","6501500","五股區"
"234022","9380-KE","2018/07/20 14:09:10","新北市永和區博愛街32巷12號","121.518776666667","25.0152983333333","6500400","永和區"
"234076","969-R7","2018/07/20 14:09:29","新北市永和區民有街67巷10號","121.5182","24.996445","6500400","永和區"
"234072","AAC-211","2018/07/20 14:09:31","新北市永和區竹林路201巷24弄3號","121.522463333333","25.0096766666667","6500400","永和區"
"234001","AAC-295","2018/07/20 14:09:19","新北市永和區中正路708號","121.516055","25.0099833333333","6500400","永和區"
"244004","248-BX","2018/07/20 14:09:32","新北市林口區南勢里10鄰34-2號","121.35224","25.0704766666667","6501700","林口區"
"231002","002-UM","2018/07/20 14:09:14","新北市新店區中正路501-5號","121.533648333333","24.9838916666667","6500600","新店區"
"231027","0293-UT","2018/07/20 14:09:27","新北市新店區光明街168巷5弄1號","121.540383333333","24.96177","6500600","新店區"
"231028","046-UY","2018/07/20 14:09:20","新北市新店區安和路三段37號","121.51786","24.9819933333333","6500600","新店區"
"231001","047-UY","2018/07/20 14:09:19","新北市新店區中華路14號","121.540603333333","24.967575","6500600","新店區"
"231005","106-UY","2018/07/20 14:09:24","新北市新店區中興路三段299號","121.542073333333","24.9851916666667","6500600","新店區"
"231010","107-UY","2018/07/20 14:09:22","新北市新店區安一路一段1-1號","121.519703333333","24.961065","6500600","新店區"
"231012","110-UY","2018/07/20 14:09:29","新北市新店區五峰路149號","121.544975","24.96566","6500600","新店區"
"231023","KEA-2219","2018/07/20 14:09:24","新北市新店區文中路45號","121.539651666667","24.9566433333333","6500600","新店區"
"231003","268-BY","2018/07/20 14:09:32","新北市新店區北宜路一段3號","121.538391666667","24.95847","6500600","新店區"
"231018","278-BY","2018/07/20 14:09:25","新北市新店區中央五街48-1號","121.52805","24.9751266666667","6500600","新店區"
"231016","AAD-862","2018/07/20 14:09:15","新北市新店區北宜路二段392巷9號","121.566476666667","24.95314","6500600","新店區"
"231038","3712-VJ","2018/07/20 14:09:21","新北市新店區安康路一段321巷3號","121.521715","24.9628833333333","6500600","新店區"
"231037","4716-K9","2018/07/20 14:09:31","新北市新店區安康路二段341巷38號","121.496618333333","24.9543416666667","6500600","新店區"
"231025","4715-K9","2018/07/20 14:09:31","新北市新店區二十張路129巷1弄1號","121.535981666667","24.979135","6500600","新店區"
"231036","512-UM","2018/07/20 14:09:14","新北市新店區安祥路109巷11號","121.475896666667","24.9590733333333","6500600","新店區"
"231013","513-UM","2018/07/20 14:09:16","新北市新店區北新路三段65巷14號","121.54076","24.9810166666667","6500600","新店區"
"231034","616-UM","2018/07/20 14:09:13","新北市新店區黎明路3號","121.503233333333","24.952235","6500600","新店區"
"231006","617-UM","2018/07/20 14:09:25","新北市新店區北宜路二段443號","121.561246666667","24.9542383333333","6500600","新店區"
"231030","619-UM","2018/07/20 14:09:18","新北市新店區安民街115巷28號","121.515131666667","24.9676016666667","6500600","新店區"
"231035","719-UM","2018/07/20 14:09:27","新北市新店區安和路一段52巷2號","121.517623333333","24.966225","6500600","新店區"
"231022","719-UY","2018/07/20 14:09:21","新北市新店區屈尺路2號","121.549215","24.9225716666667","6500600","新店區"
"231032","720-UM","2018/07/20 14:09:16","新北市新店區永業路28號","121.532888333333","24.955595","6500600","新店區"
"231029","897-TW","2018/07/20 14:09:22","新北市新店區安康路二段133號","121.511926666667","24.9604916666667","6500600","新店區"
"231004","899-TW","2018/07/20 14:09:23","新北市新店區北新路二段183號","121.542833333333","24.9774233333333","6500600","新店區"
"235030","003-UY","2018/07/20 14:09:15","新北市中和區廣福路46號","121.504123333333","25.0021133333333","6500300","中和區"
"235028","005-UY","2018/07/20 14:09:20","新北市中和區中和路33號","121.499953333333","25.00175","6500300","中和區"
"235027","006-UY","2018/07/20 14:09:34","新北市中和區連城路249巷5號","121.493685","24.9967666666667","6500300","中和區"
"235020","096-UM","2018/07/20 14:09:23","新北市中和區中正路1191號","121.480673333333","25.0098566666667","6500300","中和區"
"235003","097-UM","2018/07/20 14:09:28","新北市中和區秀峰街119巷6弄12號","121.518983333333","24.9902383333333","6500300","中和區"
"235029","098-UM","2018/07/20 14:09:26","新北市中和區中山路二段64巷16弄5號","121.503356666667","25.0061166666667","6500300","中和區"
"235004","150-BY","2018/07/20 14:09:16","新北市中和區保健路76巷7號","121.511363333333","24.9959933333333","6500300","中和區"
"235022","151-BY","2018/07/20 14:09:31","新北市中和區連城路523巷11弄1號","121.481665","24.9943083333333","6500300","中和區"
"235019","183-VK","2018/07/20 14:09:19","新北市中和區德光路62號","121.469665","25.0039183333333","6500300","中和區"
"235002","185-VK","2018/07/20 14:09:16","新北市中和區大仁街10巷27弄3號","121.519158333333","24.9927366666667","6500300","中和區"
"235013","186-VK","2018/07/20 14:09:30","新北市中和區南華路46號","121.503985","24.9965","6500300","中和區"
"235031","255-BX","2018/07/20 14:09:27","新北市中和區民樂路81號","121.48466","25.0013916666667","6500300","中和區"
"235008","293-VK","2018/07/20 14:09:18","新北市中和區中興街214號","121.499566666667","24.9900616666667","6500300","中和區"
"235036","301-VK","2018/07/20 14:09:25","新北市中和區中山路二段178巷1號","121.500498333333","25.0028216666667","6500300","中和區"
"235007","352-BY","2018/07/20 14:09:29","新北市中和區景平路134號","121.518793333333","24.9919016666667","6500300","中和區"
"235006","KEA-2878","2018/07/20 14:09:26","新北市中和區自立路16巷2號","121.521633333333","24.993625","6500300","中和區"
"247009","KEA-2869","2018/07/20 14:09:13","新北市蘆洲區三民路50號","121.47549","25.0831783333333","6501400","蘆洲區"
"235014","4979-A6","2018/07/20 14:09:18","新北市中和區復興路274巷20號","121.502856666667","24.9912433333333","6500300","中和區"
"235033","4980-A6","2018/07/20 14:09:21","新北市中和區中和路217巷12號","121.504508333333","25.0005266666667","6500300","中和區"
"235034","558-UM","2018/07/20 14:09:31","新北市中和區中和路119號","121.501671666667","25.00015","6500300","中和區"
"235009","565-BX","2018/07/20 14:09:31","新北市中和區景新街467巷35弄20-3號","121.51401","24.98888","6500300","中和區"
"235018","640-BX","2018/07/20 14:09:21","新北市中和區民德路130號","121.46879","25.0008183333333","6500300","中和區"
"235024","647-TV","2018/07/20 14:09:31","新北市中和區中山路三段111號","121.474766666667","25.0060016666667","6500300","中和區"
"235011","732-UM","2018/07/20 14:09:25","新北市中和區興南路一段77號","121.51005","24.98916","6500300","中和區"
"235010","733-UM","2018/07/20 14:09:29","新北市中和區忠孝街1巷7號","121.508646666667","24.9835","6500300","中和區"
"235035","783-BX","2018/07/20 14:09:23","新北市中和區立言街56號","121.488366666667","25.0071766666667","6500300","中和區"
"235026","800-TS","2018/07/20 14:09:24","新北市中和區中山路二段380巷18號","121.490816666667","25.0051616666667","6500300","中和區"
"235005","802-TS","2018/07/20 14:09:18","新北市中和區宜安路118巷18號","121.51081","24.998575","6500300","中和區"
"235012","896-TW","2018/07/20 14:09:30","新北市中和區工專路147號","121.508378333333","24.9787783333333","6500300","中和區"
"235017","900-TW","2018/07/20 14:09:23","新北市中和區華福街71巷7-2號","121.467221666667","24.9969366666667","6500300","中和區"
"235021","911-UM","2018/07/20 14:09:14","新北市中和區民利街51號","121.479481666667","24.99872","6500300","中和區"
"235015","157-BY","2018/07/20 14:09:28","新北市中和區興南路一段56巷9號","121.510321666667","24.9912233333333","6500300","中和區"
"235001","AAC-213","2018/07/20 14:09:17","新北市中和區秀朗路三段93號","121.526516666667","24.9953483333333","6500300","中和區"
"235023","AAC-215","2018/07/20 14:09:10","新北市中和區圓通路417-1號","121.488718333333","24.989095","6500300","中和區"
"220013","072-UY","2018/07/20 14:09:30","新北市板橋區民族路151巷77號","121.469535","25.00866","6500100","板橋區"
"220034","073-UY","2018/07/20 14:09:19","新北市板橋區中正路216巷100號","121.45879","25.0191833333333","6500100","板橋區"
"220017","AAD-861","2018/07/20 14:09:32","新北市板橋區貴興路3號","121.457778333333","25.0044983333333","6500100","板橋區"
"220105","120-SR","2018/07/20 14:09:21","新北市板橋區雙十路三段10巷12號","121.472141666667","25.0307966666667","6500100","板橋區"
"247023","893-R6","2018/07/20 14:09:29","新北市蘆洲區光榮路116號","121.46446","25.089445","6501400","蘆洲區"
"247013","546-UM","2018/07/20 14:09:19","新北市蘆洲區三民路155號","121.471395","25.0868533333333","6501400","蘆洲區"
"247021","500-BY","2018/07/20 14:09:31","新北市蘆洲區三民路173號","121.471065","25.0871416666667","6501400","蘆洲區"
"247011","339-TH","2018/07/20 14:09:10","新北市蘆洲區信義路317號","121.478345","25.0864383333333","6501400","蘆洲區"
"247003","337-TH","2018/07/20 14:09:23","新北市蘆洲區中華街6巷28號","121.462938333333","25.082295","6501400","蘆洲區"
"247005","336-TH","2018/07/20 14:09:31","新北市蘆洲區永安南路二段16巷15號","121.467778333333","25.0777966666667","6501400","蘆洲區"
"247017","057-VK","2018/07/20 14:09:12","新北市蘆洲區復興路111-5號","121.476625","25.0883583333333","6501400","蘆洲區"
"247007","056-VK","2018/07/20 14:09:16","新北市蘆洲區中山一路267號","121.47253","25.080005","6501400","蘆洲區"
"247015","007-UY","2018/07/20 14:09:22","新北市蘆洲區光華路46巷23號","121.46826","25.0837083333333","6501400","蘆洲區"
"247001","002-UY","2018/07/20 14:09:07","新北市蘆洲區永平街65號","121.457365","25.0915183333333","6501400","蘆洲區"
"247019","001-UY","2018/07/20 14:09:32","新北市蘆洲區仁愛街42-8號","121.472681666667","25.0937983333333","6501400","蘆洲區"
"235011","251-BX","2018/07/20 14:09:25","新北市中和區興南路二段142巷25弄1號","121.503065","24.9836666666667","6500300","中和區"
"207002","749-BX","2018/07/20 14:08:44","新北市萬里區溪底里瑞泉路21號","121.604345","25.1489483333333","6502800","萬里區"
"207001","662-BX","2018/07/20 14:01:54","新北市萬里區磺潭里清水18號","121.637773333333","25.19766","6502800","萬里區"
"236040","107-UM","2018/07/20 14:09:16","新北市土城區中華路二段2號","121.439708333333","24.9795366666667","6501300","土城區"
"236077","166-UM","2018/07/20 14:09:25","新北市土城區永和街5號","121.43459","24.9650766666667","6501300","土城區"
"236029","253-BX","2018/07/20 14:09:15","新北市土城區興城路75號","121.440066666667","24.97082","6501300","土城區"
"236024","269-VK","2018/07/20 14:09:18","新北市土城區承天路67號","121.439571666667","24.9635633333333","6501300","土城區"
"236013","270-VK","2018/07/20 14:09:21","新北市土城區裕民路174號","121.452566666667","24.985425","6501300","土城區"
"236032","271-VK","2018/07/20 14:09:28","新北市土城區中正路75號","121.445203333333","24.9757033333333","6501300","土城區"
"236067","KEA-2877","2018/07/20 14:09:29","新北市土城區和平路42號","121.445005","24.9707416666667","6501300","土城區"
"236016","401-BY","2018/07/20 14:09:23","新北市土城區中華路二段2號","121.4397","24.9794816666667","6501300","土城區"
"236006","498-BY","2018/07/20 14:09:26","新北市土城區中央路一段14號","121.448881666667","24.9915966666667","6501300","土城區"
"236057","912-UM","2018/07/20 14:09:31","新北市土城區中央路四段93號","121.416853333333","24.9579833333333","6501300","土城區"
"236045","913-UM","2018/07/20 14:09:15","新北市土城區明德路一段365-1號","121.453566666667","24.9790316666667","6501300","土城區"
"236060","915-UM","2018/07/20 14:09:18","新北市土城區金城路三段192號","121.468398333333","24.98811","6501300","土城區"
"236054","AAC-216","2018/07/20 14:09:21","新北市土城區城林路6巷80號","121.4384","24.979805","6501300","土城區"
"221036","130-UY","2018/07/20 14:09:25","新北市汐止區東勢街58-1號","121.624791666667","25.039755","6501100","汐止區"
"221012","246-BX","2018/07/20 14:09:26","新北市汐止區光復街8巷10號","121.640281666667","25.0565133333333","6501100","汐止區"
"221010","269-BY","2018/07/20 14:09:21","新北市汐止區長青路210巷176號","121.615166666667","25.113505","6501100","汐止區"
"221032","280-BY","2018/07/20 14:09:28","新北市汐止區長江街101-5號","121.658791666667","25.0730583333333","6501100","汐止區"
"220028","200-UY","2018/07/20 14:09:25","新北市板橋區大觀路二段3巷22號","121.447903333333","25.0036216666667","6500100","板橋區"
"220030","610-BX","2018/07/20 14:09:17","新北市板橋區溪崑二街87號","121.427345","24.9895166666667","6500100","板橋區"
"220050","245-BX","2018/07/20 14:09:14","新北市板橋區民生路二段182號","121.471083333333","25.0204233333333","6500100","板橋區"
"220040","267-BY","2018/07/20 14:09:26","新北市板橋區縣民大道三段247巷12號","121.481745","25.0263116666667","6500100","板橋區"
"220004","276-BY","2018/07/20 14:09:30","新北市板橋區信義路110巷3號","121.458121666667","24.9920083333333","6500100","板橋區"
"220020","277-BY","2018/07/20 14:09:25","新北市板橋區溪城路85號","121.426866666667","24.9835116666667","6500100","板橋區"
"220019","283-VK","2018/07/20 14:09:20","新北市板橋區大豐街14號","121.462268333333","25.00149","6500100","板橋區"
"220043","285-UM","2018/07/20 14:09:25","新北市板橋區光武街171號","121.465231666667","25.0300983333333","6500100","板橋區"
"220001","285-VK","2018/07/20 14:09:28","新北市板橋區懷仁街14巷1號","121.475993333333","25.0197783333333","6500100","板橋區"
"220031","286-VK","2018/07/20 14:09:32","新北市板橋區大觀路二段174巷165弄6號","121.441621666667","25.003415","6500100","板橋區"
"220029","287-VK","2018/07/20 14:09:17","新北市板橋區南雅西路二段2-1號","121.453173333333","25.0087616666667","6500100","板橋區"
"220039","288-VK","2018/07/20 14:09:24","新北市板橋區裕民街45巷3-1號","121.461621666667","25.0284033333333","6500100","板橋區"
"220009","293-UM","2018/07/20 14:09:16","新北市板橋區三民路二段19號","121.479366666667","25.0181316666667","6500100","板橋區"
"220010","295-UM","2018/07/20 14:09:27","新北市板橋區三民路二段居仁巷2弄23號","121.479895","25.01302","6500100","板橋區"
"220032","296-UM","2018/07/20 14:09:16","新北市板橋區溪崑二街56巷25號","121.427596666667","24.990975","6500100","板橋區"
"220023","303-R5","2018/07/20 14:09:24","新北市板橋區林園街40號","121.453921666667","25.0103283333333","6500100","板橋區"
"220041","307-R5","2018/07/20 14:09:27","新北市板橋區文化路二段225巷60弄24號","121.469231666667","25.0290333333333","6500100","板橋區"
"220047","317-R6","2018/07/20 14:09:21","新北市板橋區自由路51巷8號","121.465091666667","25.0235516666667","6500100","板橋區"
"220012","486-VK","2018/07/20 14:09:28","新北市板橋區板新路96號","121.472283333333","25.0147283333333","6500100","板橋區"
"220037","491-VK","2018/07/20 14:09:24","新北市板橋區文化路二段182巷7弄8號","121.472336666667","25.0270783333333","6500100","板橋區"
"220104","560-BX","2018/07/20 14:09:15","新北市板橋區中正路360巷44號","121.45593","25.022935","6500100","板橋區"
"220052","561-BX","2018/07/20 14:09:27","新北市板橋區文化路一段188巷9弄33號","121.468981666667","25.0192533333333","6500100","板橋區"
"220011","609-BX","2018/07/20 14:09:24","新北市板橋區三民路二段192號","121.478926666667","25.0146683333333","6500100","板橋區"
"220027","630-UY","2018/07/20 14:09:19","新北市板橋區民權路302巷1弄1號","121.457328333333","25.0162983333333","6500100","板橋區"
"220005","686-BX","2018/07/20 14:09:27","新北市板橋區重慶路292號","121.463625","24.998685","6500100","板橋區"
"220025","687-BX","2018/07/20 14:09:17","新北市板橋區龍興街5號","121.442665","24.9993916666667","6500100","板橋區"
"220042","689-BX","2018/07/20 14:09:20","新北市板橋區民生路三段223號","121.464826666667","25.0284066666667","6500100","板橋區"
"220002","741-BX","2018/07/20 14:09:13","新北市板橋區重慶路76巷6號","121.461338333333","25.0062533333333","6500100","板橋區"
"220051","KEA-2699","2018/07/20 14:09:26","新北市板橋區萬板路818巷10號","121.482885","25.0269533333333","6500100","板橋區"
"220003","827-TW","2018/07/20 14:09:31","新北市板橋區新民街6巷1號","121.464661666667","25.010325","6500100","板橋區"
"220014","829-TW","2018/07/20 14:09:21","新北市板橋區中山路二段90巷43弄15號","121.476928333333","25.01526","6500100","板橋區"
"220016","830-TW","2018/07/20 14:09:12","新北市板橋區翠華街6巷61號","121.481206666667","25.0249933333333","6500100","板橋區"
"220045","831-TW","2018/07/20 14:09:13","新北市板橋區雙十路二段6-12號","121.476798333333","25.0266583333333","6500100","板橋區"
"220038","833-TW","2018/07/20 14:08:57","新北市板橋區文化路二段357號","121.472923333333","25.03077","6500100","板橋區"
"220022","895-R6","2018/07/20 14:09:30","新北市板橋區府中路133號","121.455873333333","25.0095766666667","6500100","板橋區"
"220021","985-R7","2018/07/20 14:09:12","新北市板橋區民權路226號","121.458583333333","25.014325","6500100","板橋區"
"220046","AAC-210","2018/07/20 14:09:11","新北市板橋區新海路135巷2號","121.45995","25.0230033333333","6500100","板橋區"
"220018","AAC-253","2018/07/20 14:09:24","新北市板橋區忠孝路41-1號","121.461113333333","25.002045","6500100","板橋區"
"235032","KEA-2873","2018/07/20 14:09:27","新北市中和區景平路493巷12弄9號","121.498871666667","24.99724","6500300","中和區"
"235025","KEA-2875","2018/07/20 14:09:09","新北市中和區中山路三段61號","121.476631666667","25.005585","6500300","中和區"
