"lineid","car","time","location","longitude","latitude","cityid","cityname"
"234070","149-BY","2018/07/20 14:19:29","新北市板橋區文化路二段652號","121.480196666667","25.0417883333333","6500400","永和區"
"234005","207-UY","2018/07/20 14:19:31","新北市永和區中正路553號","121.51686","25.00825","6500400","永和區"
"234078","298-R6","2018/07/20 14:19:24","新北市永和區國中路132巷18號","121.524095","25.00766","6500400","永和區"
"234036","336-UY","2018/07/20 14:19:30","新北市永和區成功路一段7號","121.527145","25.0051666666667","6500400","永和區"
"234062","337-UY","2018/07/20 14:19:18","新北市永和區得和路164號","121.519406666667","25.00015","6500400","永和區"
"234084","338-UY","2018/07/20 14:19:19","新北市永和區永和路二段88號","121.514933333333","25.0115033333333","6500400","永和區"
"234068","552-UM","2018/07/20 14:19:26","新北市永和區福和路237巷7號","121.5186","25.0069366666667","6500400","永和區"
"234028","746-BX","2018/07/20 14:19:27","新北市永和區民權路49巷9號","121.520661666667","24.9973133333333","6500400","永和區"
"234052","KEA-2590","2018/07/20 14:19:27","新北市永和區光復街2巷24號","121.51762","25.01655","6500400","永和區"
"234060","AAD-866","2018/07/20 14:19:26","新北市永和區安樂路194巷17弄3號","121.51589","25.0011516666667","6500400","永和區"
"234066","847-RS","2018/07/20 14:19:14","新北市永和區保平路268巷51弄22號","121.506811666667","25.00604","6500400","永和區"
"234040","862-TW","2018/07/20 14:19:12","新北市中和區中和路350巷12弄4號","121.510811666667","25.0001466666667","6500400","永和區"
"234048","863-TW","2018/07/20 14:19:28","新北市永和區環河西路二段7-9號","121.508546666667","25.0174166666667","6500400","永和區"
"234025","9371-KE","2018/07/20 14:19:11","新北市永和區安樂路144巷29號","121.515135","24.999715","6500400","永和區"
"248019","225-UY","2018/07/20 14:04:59","新北市五股區凌雲路三段57號","121.425193333333","25.1250516666667","6501500","五股區"
"234022","9380-KE","2018/07/20 14:19:10","新北市永和區竹林路25巷21號","121.518133333333","25.0149883333333","6500400","永和區"
"234076","969-R7","2018/07/20 14:19:14","新北市永和區民族街81巷58號","121.520105","24.996565","6500400","永和區"
"234072","AAC-211","2018/07/20 14:19:31","新北市永和區竹林路119巷22弄3-3號","121.521993333333","25.0115866666667","6500400","永和區"
"234001","AAC-295","2018/07/20 14:19:19","新北市永和區中正路618-1號","121.516958333333","25.0077733333333","6500400","永和區"
"244004","248-BX","2018/07/20 14:19:32","新北市林口區南勢里10鄰34-2號","121.3522","25.0704666666667","6501700","林口區"
"231002","002-UM","2018/07/20 14:19:15","新北市新店區中央路151號","121.529538333333","24.9723816666667","6500600","新店區"
"231027","0293-UT","2018/07/20 14:19:26","新北市新店區北新路二段228巷1號","121.542838333333","24.9775866666667","6500600","新店區"
"231028","046-UY","2018/07/20 14:19:20","新北市新店區安和路二段171號","121.518645","24.9745083333333","6500600","新店區"
"231001","047-UY","2018/07/20 14:19:19","新北市新店區中正路75巷71號","121.543258333333","24.9689533333333","6500600","新店區"
"231005","106-UY","2018/07/20 14:19:24","新北市新店區中興路三段143號","121.54438","24.9798583333333","6500600","新店區"
"231012","110-UY","2018/07/20 14:19:29","新北市新店區中興路一段300號","121.546535","24.9694416666667","6500600","新店區"
"231023","KEA-2219","2018/07/20 14:19:24","新北市新店區光明街91號","121.538963333333","24.960985","6500600","新店區"
"231003","268-BY","2018/07/20 14:19:31","新北市新店區中興路一段201號","121.543476666667","24.9654516666667","6500600","新店區"
"231018","278-BY","2018/07/20 14:19:25","新北市新店區中央三街1號","121.529743333333","24.9737583333333","6500600","新店區"
"231016","AAD-862","2018/07/20 14:19:15","新北市新店區北宜路三段65號","121.576131666667","24.95164","6500600","新店區"
"231038","3712-VJ","2018/07/20 14:19:21","新北市新店區安康路一段3-1號","121.534101666667","24.96046","6500600","新店區"
"231037","4716-K9","2018/07/20 14:19:11","新北市新店區車子路64號","121.503876666667","24.9513583333333","6500600","新店區"
"231036","512-UM","2018/07/20 14:19:14","新北市新店區安祥路109巷151弄16號","121.477721666667","24.9588016666667","6500600","新店區"
"231013","513-UM","2018/07/20 14:19:16","新北市新店區建國路253號","121.53752","24.98274","6500600","新店區"
"231034","616-UM","2018/07/20 14:19:13","新北市新店區黎明路3號","121.50324","24.952235","6500600","新店區"
"231006","617-UM","2018/07/20 14:19:25","新北市新店區北宜路二段599號","121.568186666667","24.9556666666667","6500600","新店區"
"231030","619-UM","2018/07/20 14:19:18","新北市新店區柴埕路59號","121.513643333333","24.964955","6500600","新店區"
"231035","719-UM","2018/07/20 14:19:27","新北市新店區安民街156巷33號","121.518048333333","24.9702266666667","6500600","新店區"
"231022","719-UY","2018/07/20 14:19:21","新北市新店區新烏路二段212-1號","121.547456666667","24.9160433333333","6500600","新店區"
"231032","720-UM","2018/07/20 14:19:16","新北市新店區溪洲路101-1號","121.5317","24.9624183333333","6500600","新店區"
"231029","897-TW","2018/07/20 14:19:23","新北市新店區安康路二段296-2號","121.5066","24.95816","6500600","新店區"
"231004","899-TW","2018/07/20 14:19:23","新北市新店區中正路161號","121.541218333333","24.971915","6500600","新店區"
"231024","AKT-0513","2018/07/20 14:19:20","新北市新店區安德街60巷35號","121.510843333333","24.9636333333333","6500600","新店區"
"235030","003-UY","2018/07/20 14:19:15","新北市中和區景新街2號","121.502585","24.9996666666667","6500300","中和區"
"235028","005-UY","2018/07/20 14:19:20","新北市中和區景平路656號","121.497586666667","25.0006533333333","6500300","中和區"
"235027","006-UY","2018/07/20 14:19:14","新北市中和區連勝街149號","121.49446","24.9962783333333","6500300","中和區"
"235020","096-UM","2018/07/20 14:19:19","新北市中和區員山路501號","121.479863333333","25.0062583333333","6500300","中和區"
"235003","097-UM","2018/07/20 14:19:28","新北市中和區秀峰街119巷8弄9號","121.518508333333","24.9893233333333","6500300","中和區"
"235029","098-UM","2018/07/20 14:19:25","新北市中和區永和路60-2號","121.498925","25.0043833333333","6500300","中和區"
"235004","150-BY","2018/07/20 14:19:16","新北市中和區安樂路51巷14號","121.511641666667","24.9938216666667","6500300","中和區"
"235022","151-BY","2018/07/20 14:19:31","新北市中和區員山路36巷16-2號","121.485258333333","24.9916383333333","6500300","中和區"
"235019","183-VK","2018/07/20 14:19:19","新北市中和區中山路三段177號","121.472773333333","25.0061366666667","6500300","中和區"
"235002","185-VK","2018/07/20 14:19:16","新北市中和區大仁街10巷41號","121.51967","24.99241","6500300","中和區"
"235013","186-VK","2018/07/20 14:19:30","新北市中和區景新街230號","121.508223333333","24.9941816666667","6500300","中和區"
"235031","255-BX","2018/07/20 14:19:27","新北市中和區連城路318號","121.48343","24.9960916666667","6500300","中和區"
"235008","293-VK","2018/07/20 14:19:18","新北市中和區中興街250號","121.499396666667","24.9881283333333","6500300","中和區"
"235036","301-VK","2018/07/20 14:19:25","新北市中和區福美路267號","121.498268333333","25.005125","6500300","中和區"
"235007","352-BY","2018/07/20 14:19:19","新北市中和區景平路161-1號","121.51259","24.9925383333333","6500300","中和區"
"235006","KEA-2878","2018/07/20 14:19:26","新北市中和區安樂路217巷21弄16號","121.513995","24.9977766666667","6500300","中和區"
"247009","KEA-2869","2018/07/20 14:19:13","新北市蘆洲區三民路26巷30號","121.47787","25.0830416666667","6501400","蘆洲區"
"235014","4979-A6","2018/07/20 14:19:18","新北市中和區景安路206號","121.503943333333","24.9909033333333","6500300","中和區"
"235033","4980-A6","2018/07/20 14:19:21","新北市中和區中山路二段170號","121.50123","25.002925","6500300","中和區"
"235034","558-UM","2018/07/20 14:19:11","新北市中和區景平路670號","121.497046666667","25.0011283333333","6500300","中和區"
"235009","565-BX","2018/07/20 14:19:31","新北市中和區景新街383巷61號","121.5138","24.9907583333333","6500300","中和區"
"235018","640-BX","2018/07/20 14:19:21","新北市中和區國光街110號","121.470026666667","25.0006433333333","6500300","中和區"
"235024","647-TV","2018/07/20 14:19:31","新北市中和區員山路370號","121.480865","25.0039116666667","6500300","中和區"
"235011","732-UM","2018/07/20 14:19:25","新北市中和區景平路239巷53弄2號","121.508796666667","24.9921116666667","6500300","中和區"
"235010","733-UM","2018/07/20 14:19:29","新北市中和區忠孝街2巷13弄2號","121.51043","24.9819216666667","6500300","中和區"
"235035","783-BX","2018/07/20 14:19:23","新北市中和區連城路308號","121.483685","24.9962233333333","6500300","中和區"
"235026","800-TS","2018/07/20 14:19:24","新北市中和區中山路二段488-1號","121.487446666667","25.00495","6500300","中和區"
"235005","802-TS","2018/07/20 14:19:18","新北市中和區安平路118號","121.511855","24.9976033333333","6500300","中和區"
"235012","896-TW","2018/07/20 14:19:30","新北市中和區華新街109巷2號","121.50866","24.9824233333333","6500300","中和區"
"235017","900-TW","2018/07/20 14:19:23","新北市中和區華安街17巷15號","121.466998333333","24.9982516666667","6500300","中和區"
"235021","911-UM","2018/07/20 14:19:14","新北市中和區員山路313號","121.481245","25.0003716666667","6500300","中和區"
"235015","157-BY","2018/07/20 14:19:28","新北市中和區南山路146巷3號","121.503625","24.9923616666667","6500300","中和區"
"235001","AAC-213","2018/07/20 14:19:17","新北市中和區自立路15巷8號","121.52289","24.9959283333333","6500300","中和區"
"235023","AAC-215","2018/07/20 14:19:31","新北市中和區圓通路252巷5弄56號","121.492255","24.9920383333333","6500300","中和區"
"220013","072-UY","2018/07/20 14:19:33","新北市板橋區國泰街75巷4號","121.467461666667","25.0063133333333","6500100","板橋區"
"220034","073-UY","2018/07/20 14:19:19","新北市板橋區中正路250巷13號","121.456155","25.0194433333333","6500100","板橋區"
"220017","AAD-861","2018/07/20 14:19:12","新北市板橋區華興街21巷23號","121.458815","25.0036966666667","6500100","板橋區"
"220105","120-SR","2018/07/20 14:19:21","新北市板橋區長江路二段280-1號","121.46999","25.032745","6500100","板橋區"
"247023","893-R6","2018/07/20 14:19:29","新北市蘆洲區長榮路655號","121.460066666667","25.0912116666667","6501400","蘆洲區"
"247013","546-UM","2018/07/20 14:19:19","新北市蘆洲區中山一路234號","121.47282","25.080225","6501400","蘆洲區"
"247021","500-BY","2018/07/20 14:19:30","新北市蘆洲區仁愛街230巷16號","121.464311666667","25.0942966666667","6501400","蘆洲區"
"247011","339-TH","2018/07/20 14:19:10","新北市蘆洲區民權路38巷10號","121.476431666667","25.0867066666667","6501400","蘆洲區"
"247003","337-TH","2018/07/20 14:19:23","新北市蘆洲區中原路12巷10號","121.461061666667","25.0837033333333","6501400","蘆洲區"
"247005","336-TH","2018/07/20 14:19:24","新北市蘆洲區長安街23巷23號","121.463293333333","25.0783383333333","6501400","蘆洲區"
"247017","057-VK","2018/07/20 14:19:12","新北市蘆洲區民權路99號","121.472751666667","25.089105","6501400","蘆洲區"
"247007","056-VK","2018/07/20 14:19:16","新北市蘆洲區中山一路95巷14號","121.47723","25.080905","6501400","蘆洲區"
"247001","002-UY","2018/07/20 14:19:27","新北市蘆洲區永樂街77號","121.456005","25.0886583333333","6501400","蘆洲區"
"247019","001-UY","2018/07/20 14:19:32","新北市蘆洲區仁愛街25號","121.472258333333","25.0926566666667","6501400","蘆洲區"
"235011","251-BX","2018/07/20 14:19:25","新北市中和區華新街208號","121.506578333333","24.9818866666667","6500300","中和區"
"207002","749-BX","2018/07/20 14:19:24","新北市萬里區溪底里溪底路13號","121.614276666667","25.1492383333333","6502800","萬里區"
"207001","662-BX","2018/07/20 14:01:54","新北市萬里區磺潭里清水18號","121.637773333333","25.19766","6502800","萬里區"
"236040","107-UM","2018/07/20 14:19:17","新北市土城區樂利街3巷2號","121.448356666667","24.9860783333333","6501300","土城區"
"236077","166-UM","2018/07/20 14:19:25","新北市土城區中央路三段281巷23弄12號","121.426215","24.9615816666667","6501300","土城區"
"236029","253-BX","2018/07/20 14:19:15","新北市土城區順風路29號","121.440241666667","24.9770216666667","6501300","土城區"
"236024","269-VK","2018/07/20 14:19:18","新北市土城區承天路18號","121.439485","24.9634233333333","6501300","土城區"
"236013","270-VK","2018/07/20 14:19:21","新北市土城區青雲路39巷7號","121.460355","24.9875866666667","6501300","土城區"
"236032","271-VK","2018/07/20 14:19:28","新北市土城區青雲路483巷7號","121.459438333333","24.9740583333333","6501300","土城區"
"236067","KEA-2877","2018/07/20 14:19:29","新北市土城區明德路一段128巷2號","121.46324","24.9790766666667","6501300","土城區"
"236016","401-BY","2018/07/20 14:19:23","新北市土城區明德路一段160號","121.462971666667","24.9784766666667","6501300","土城區"
"236006","498-BY","2018/07/20 14:19:26","新北市土城區中華路一段56巷28-10號","121.444998333333","24.9907016666667","6501300","土城區"
"236057","912-UM","2018/07/20 14:19:31","新北市土城區中央路四段307-3號","121.410821666667","24.9515016666667","6501300","土城區"
"236045","913-UM","2018/07/20 14:19:15","新北市土城區明德路一段288-2號","121.456423333333","24.9777083333333","6501300","土城區"
"236060","915-UM","2018/07/20 14:19:18","新北市土城區延壽路44巷15號","121.47144","24.9930033333333","6501300","土城區"
"236054","AAC-216","2018/07/20 14:19:21","新北市土城區中華路二段92號","121.438208333333","24.974695","6501300","土城區"
"221036","130-UY","2018/07/20 14:19:25","新北市汐止區東勢街215巷30弄1號","121.637125","25.0425966666667","6501100","汐止區"
"221012","246-BX","2018/07/20 14:19:26","新北市汐止區光復街8巷50-1號","121.638331666667","25.05592","6501100","汐止區"
"221010","269-BY","2018/07/20 14:19:21","新北市汐止區八連路二段625-2號","121.621391666667","25.112575","6501100","汐止區"
"220028","200-UY","2018/07/20 14:19:25","新北市板橋區大觀路二段17號","121.446963333333","25.00332","6500100","板橋區"
"220030","610-BX","2018/07/20 14:19:17","新北市板橋區篤行路三段99號","121.426233333333","24.9847033333333","6500100","板橋區"
"220050","245-BX","2018/07/20 14:19:14","新北市板橋區雙十路二段4號","121.476998333333","25.025385","6500100","板橋區"
"220040","267-BY","2018/07/20 14:19:26","新北市板橋區文聖街70號","121.477251666667","25.03039","6500100","板橋區"
"220004","276-BY","2018/07/20 14:19:24","新北市板橋區干城路18號","121.459613333333","24.993545","6500100","板橋區"
"220020","277-BY","2018/07/20 14:19:25","新北市板橋區金門街339-2號","121.42929","24.9856166666667","6500100","板橋區"
"220019","283-VK","2018/07/20 14:19:20","新北市板橋區忠孝路24巷24號","121.460243333333","25.0009116666667","6500100","板橋區"
"220043","285-UM","2018/07/20 14:19:25","新北市板橋區光武街153號","121.465546666667","25.0295633333333","6500100","板橋區"
"220001","285-VK","2018/07/20 14:19:28","新北市板橋區永豐街265號","121.47814","25.0212733333333","6500100","板橋區"
"220031","286-VK","2018/07/20 14:19:23","新北市板橋區龍興街73巷33-1號","121.442488333333","25.002675","6500100","板橋區"
"220029","287-VK","2018/07/20 14:19:17","新北市板橋區南雅南路一段106號","121.454936666667","25.0044016666667","6500100","板橋區"
"220039","288-VK","2018/07/20 14:19:28","新北市板橋區長江路一段106巷13弄25號","121.461035","25.02963","6500100","板橋區"
"220009","293-UM","2018/07/20 14:19:16","新北市板橋區中山路二段255巷7號","121.47698","25.0179383333333","6500100","板橋區"
"220010","295-UM","2018/07/20 14:19:27","新北市板橋區三民路二段153巷7弄2號","121.480501666667","25.0150883333333","6500100","板橋區"
"220032","296-UM","2018/07/20 14:19:16","新北市板橋區篤行路三段玉平巷70號","121.428121666667","24.9858783333333","6500100","板橋區"
"220023","303-R5","2018/07/20 14:19:24","新北市板橋區南雅西路一段10巷11號","121.45444","25.004785","6500100","板橋區"
"220041","307-R5","2018/07/20 14:19:27","新北市板橋區松江街68號","121.468661666667","25.0276683333333","6500100","板橋區"
"220047","317-R6","2018/07/20 14:19:21","新北市板橋區民有街105號","121.464485","25.028115","6500100","板橋區"
"220012","486-VK","2018/07/20 14:19:24","新北市板橋區中山路一段37號","121.460586666667","25.0087766666667","6500100","板橋區"
"220037","491-VK","2018/07/20 14:19:28","新北市板橋區雙十路二段79號","121.476001666667","25.02721","6500100","板橋區"
"220104","560-BX","2018/07/20 14:19:13","新北市板橋區中正路399巷13弄2號","121.453276666667","25.0225716666667","6500100","板橋區"
"220052","561-BX","2018/07/20 14:19:33","新北市板橋區文化路一段188巷7弄23號","121.467741666667","25.0197083333333","6500100","板橋區"
"220011","609-BX","2018/07/20 14:19:16","新北市板橋區三民路二段228號","121.478738333333","25.01131","6500100","板橋區"
"220027","630-UY","2018/07/20 14:19:30","新北市板橋區民權路202巷36號","121.46061","25.0174783333333","6500100","板橋區"
"220005","686-BX","2018/07/20 14:19:27","新北市板橋區五權街1-8號","121.463833333333","24.9949983333333","6500100","板橋區"
"220025","687-BX","2018/07/20 14:19:25","新北市板橋區大觀路二段29號","121.446738333333","25.003135","6500100","板橋區"
"220042","689-BX","2018/07/20 14:19:20","新北市板橋區漢生西路113號","121.462618333333","25.0201466666667","6500100","板橋區"
"220002","741-BX","2018/07/20 14:19:13","新北市板橋區實踐路102號","121.463956666667","25.004725","6500100","板橋區"
"220051","KEA-2699","2018/07/20 14:19:23","新北市板橋區文聖街205巷2號","121.479955","25.0264083333333","6500100","板橋區"
"220003","827-TW","2018/07/20 14:19:25","新北市板橋區實踐路65巷6-7號","121.46447","25.0065383333333","6500100","板橋區"
"220014","829-TW","2018/07/20 14:19:16","新北市板橋區長安街138巷3弄43號","121.47402","25.009815","6500100","板橋區"
"220016","830-TW","2018/07/20 14:19:12","新北市板橋區翠華街6巷94號","121.481811666667","25.0244166666667","6500100","板橋區"
"220045","831-TW","2018/07/20 14:19:13","新北市板橋區大同街35巷16號","121.477526666667","25.02786","6500100","板橋區"
"220038","833-TW","2018/07/20 14:19:17","新北市板橋區文化路一段339號","121.466576666667","25.0206233333333","6500100","板橋區"
"220022","895-R6","2018/07/20 14:19:23","新北市板橋區北門街25-1號","121.456513333333","25.0112783333333","6500100","板橋區"
"220021","985-R7","2018/07/20 14:19:32","新北市板橋區中正路330號","121.454363333333","25.0216733333333","6500100","板橋區"
"220046","AAC-210","2018/07/20 14:19:31","新北市板橋區幸福路58號","121.461165","25.0201433333333","6500100","板橋區"
"220018","AAC-253","2018/07/20 14:19:25","新北市板橋區忠孝路108-1號","121.462231666667","25.0020883333333","6500100","板橋區"
"235032","KEA-2873","2018/07/20 14:19:27","新北市中和區廟美街14號","121.500953333333","25.0016983333333","6500300","中和區"
"235025","KEA-2875","2018/07/20 14:19:15","新北市中和區員山路326號","121.481506666667","25.0029233333333","6500300","中和區"
