"lineid","car","time","location","longitude","latitude","cityid","cityname"
"234070","149-BY","2018/07/20 15:09:29","新北市板橋區萬安街20巷10弄16號","121.484998333333","25.0237566666667","6500400","永和區"
"234025","9371-KE","2018/07/20 15:09:31","新北市永和區永貞路412號","121.50896","25.0079316666667","6500400","永和區"
"248019","225-UY","2018/07/20 15:09:14","新北市五股區凌雲路三段24巷24號","121.435293333333","25.1044516666667","6501500","五股區"
"244004","248-BX","2018/07/20 15:09:32","新北市林口區湖南里70-3號","121.375523333333","25.0891983333333","6501700","林口區"
"231002","002-UM","2018/07/20 15:09:14","新北市新店區中正路543-4號","121.53367","24.98753","6500600","新店區"
"231028","046-UY","2018/07/20 15:09:20","新北市新店區僑信路117號","121.50072","24.9460316666667","6500600","新店區"
"231001","047-UY","2018/07/20 15:09:31","新北市新店區中正路190號","121.540656666667","24.9724616666667","6500600","新店區"
"231005","106-UY","2018/07/20 15:09:24","新北市新店區北新路三段118號","121.541666666667","24.9817066666667","6500600","新店區"
"231012","110-UY","2018/07/20 15:09:29","新北市新店區寶元路一段61號","121.542178333333","24.985885","6500600","新店區"
"231023","KEA-2219","2018/07/20 15:09:24","新北市新店區檳榔路109號","121.54446","24.9616183333333","6500600","新店區"
"231026","256-BX","2018/07/20 15:09:24","新北市新店區明德路41號","121.541303333333","24.9756883333333","6500600","新店區"
"231003","268-BY","2018/07/20 15:09:33","新北市新店區寶橋路213號","121.548691666667","24.9771533333333","6500600","新店區"
"231018","278-BY","2018/07/20 15:09:25","新北市新店區中央八街112號","121.525745","24.9778516666667","6500600","新店區"
"231016","AAD-862","2018/07/20 15:09:15","新北市新店區明山路45-1號","121.56408","24.956015","6500600","新店區"
"231038","3712-VJ","2018/07/20 15:09:21","新北市新店區安華路28-1號","121.519736666667","24.9608816666667","6500600","新店區"
"231025","4715-K9","2018/07/20 15:09:31","新北市新店區二十張路46巷37弄5號","121.536361666667","24.98198","6500600","新店區"
"231036","512-UM","2018/07/20 15:08:34","新北市新店區安祥路102巷133號","121.486678333333","24.9647833333333","6500600","新店區"
"231034","616-UM","2018/07/20 15:09:13","新北市新店區玫瑰路4-1號","121.493595","24.951455","6500600","新店區"
"231006","617-UM","2018/07/20 15:09:25","新北市新店區新坡一街82號","121.547926666667","24.9621783333333","6500600","新店區"
"231030","619-UM","2018/07/20 15:09:18","新北市新店區安民街341-1號","121.516895","24.975015","6500600","新店區"
"231039","718-UY","2018/07/20 15:09:21","新北市新店區北新路三段106號","121.542058333333","24.9813516666667","6500600","新店區"
"231035","719-UM","2018/07/20 15:09:26","新北市新店區安和路三段110巷9號","121.517475","24.9857366666667","6500600","新店區"
"231022","719-UY","2018/07/20 15:09:21","新北市新店區新烏路二段428號","121.551671666667","24.9086466666667","6500600","新店區"
"231032","720-UM","2018/07/20 15:09:16","新北市新店區安泰路100號","121.48703","24.9412266666667","6500600","新店區"
"231029","897-TW","2018/07/20 15:09:22","新北市新店區安康路三段738號","121.473818333333","24.942035","6500600","新店區"
"231004","899-TW","2018/07/20 15:09:23","新北市新店區建國路29號","121.540233333333","24.974095","6500600","新店區"
"231024","AKT-0513","2018/07/20 15:09:20","新北市新店區北新路一段297巷25號","121.540611666667","24.9680433333333","6500600","新店區"
"241013","270-UM","2018/07/20 15:09:21","新北市三重區重新路四段121號","121.484838333333","25.052575","6500200","三重區"
"235030","003-UY","2018/07/20 15:09:15","新北市永和區保平路290號","121.507901666667","25.0046016666667","6500300","中和區"
"235020","096-UM","2018/07/20 15:09:19","新北市中和區中山路三段157號","121.473515","25.0062133333333","6500300","中和區"
"235004","150-BY","2018/07/20 15:09:16","新北市中和區安平路38號","121.509758333333","24.9948883333333","6500300","中和區"
"235036","301-VK","2018/07/20 15:09:25","新北市中和區建一路170號","121.488068333333","24.9977733333333","6500300","中和區"
"235007","352-BY","2018/07/20 15:09:19","新北市中和區興南路二段159巷1-1號","121.505166666667","24.983535","6500300","中和區"
"247009","KEA-2869","2018/07/20 15:09:28","新北市五股區中興路三段163號","121.449176666667","25.08074","6501400","蘆洲區"
"235014","4979-A6","2018/07/20 15:09:18","新北市中和區景新街323-1號","121.511415","24.9921916666667","6500300","中和區"
"235033","4980-A6","2018/07/20 15:09:21","新北市中和區景新街64巷7弄10號","121.504428333333","24.9985633333333","6500300","中和區"
"235034","558-UM","2018/07/20 15:09:30","新北市中和區中正路282號","121.494706666667","24.9940683333333","6500300","中和區"
"235018","640-BX","2018/07/20 15:09:21","新北市中和區民樂路77號","121.484433333333","25.0014066666667","6500300","中和區"
"235010","733-UM","2018/07/20 15:09:28","新北市中和區忠孝街31巷41號","121.509768333333","24.9850866666667","6500300","中和區"
"235035","783-BX","2018/07/20 15:09:23","新北市中和區中正路988巷12號","121.482056666667","25.0094666666667","6500300","中和區"
"235012","896-TW","2018/07/20 15:09:30","新北市中和區興南路一段146號","121.508441666667","24.9870566666667","6500300","中和區"
"235001","AAC-213","2018/07/20 15:09:17","新北市中和區秀朗路三段175巷6號","121.524551666667","24.9909833333333","6500300","中和區"
"235023","AAC-215","2018/07/20 15:09:31","新北市中和區圓通路367巷13弄39號","121.493531666667","24.9879583333333","6500300","中和區"
"220017","AAD-861","2018/07/20 15:09:12","新北市板橋區大明街20巷19弄18號","121.457965","25.0032683333333","6500100","板橋區"
"235028","251-BX","2018/07/20 15:09:25","新北市中和區中正路440號","121.491053333333","24.9942616666667","6500300","中和區"
"207002","749-BX","2018/07/20 15:09:29","新北市萬里區崁腳里內中福路80號","121.656235","25.1675","6502800","萬里區"
"207001","662-BX","2018/07/20 15:09:14","新北市萬里區雙興里麗水路8-1號","121.649735","25.1874766666667","6502800","萬里區"
"236040","107-UM","2018/07/20 15:09:16","新北市土城區金城路二段245巷40號","121.455573333333","24.9831666666667","6501300","土城區"
"236077","166-UM","2018/07/20 15:09:25","新北市土城區中州路27巷78號","121.412615","24.9563583333333","6501300","土城區"
"236029","253-BX","2018/07/20 15:09:15","新北市土城區福祥街65號","121.440961666667","24.9805466666667","6501300","土城區"
"236024","269-VK","2018/07/20 15:09:23","新北市土城區中央路二段177巷1-4號","121.442401666667","24.97604","6501300","土城區"
"236013","270-VK","2018/07/20 15:09:21","新北市土城區學府路一段75巷1弄2號","121.457291666667","24.987735","6501300","土城區"
"236032","271-VK","2018/07/20 15:09:28","新北市土城區國際路71號","121.466893333333","24.97627","6501300","土城區"
"236067","KEA-2877","2018/07/20 15:09:29","新北市土城區中央路一段69巷5號","121.448063333333","24.9894933333333","6501300","土城區"
"236016","401-BY","2018/07/20 15:09:23","新北市土城區峰廷街3號","121.469073333333","24.9873533333333","6501300","土城區"
"236057","912-UM","2018/07/20 15:09:31","新北市土城區明德路一段385-1號","121.452653333333","24.9802633333333","6501300","土城區"
"236045","913-UM","2018/07/20 15:09:34","新北市土城區清水路211號","121.4605","24.98202","6501300","土城區"
"236060","915-UM","2018/07/20 15:09:17","新北市土城區延平街77號","121.46734","24.99336","6501300","土城區"
"236054","AAC-216","2018/07/20 15:09:21","新北市土城區學府路一段276號","121.45018","24.9832833333333","6501300","土城區"
"221036","130-UY","2018/07/20 15:09:25","新北市汐止區汐萬路一段188號","121.652228333333","25.0721683333333","6501100","汐止區"
"221012","246-BX","2018/07/20 15:09:26","新北市汐止區汐碇路42-15號","121.651778333333","25.0548266666667","6501100","汐止區"
"220030","610-BX","2018/07/20 15:09:17","新北市板橋區大觀路二段443-2號","121.439505","24.9950833333333","6500100","板橋區"
"220050","245-BX","2018/07/20 15:09:14","新北市板橋區莊敬路75巷31號","121.473966666667","25.0263783333333","6500100","板橋區"
"220031","286-VK","2018/07/20 15:09:21","新北市板橋區僑中二街106巷12號","121.445325","25.007705","6500100","板橋區"
"220029","287-VK","2018/07/20 15:09:17","新北市板橋區大觀路一段28巷104號","121.450166666667","25.0110583333333","6500100","板橋區"
"220009","293-UM","2018/07/20 15:09:16","新北市板橋區四川路一段274巷1弄2號","121.458261666667","25.001305","6500100","板橋區"
"220041","307-R5","2018/07/20 15:09:26","新北市板橋區光正街45巷35號","121.461771666667","25.01569","6500100","板橋區"
"220052","561-BX","2018/07/20 15:09:31","新北市板橋區陽明街279巷23號","121.461243333333","25.0256633333333","6500100","板橋區"
"220025","687-BX","2018/07/20 15:09:17","新北市板橋區板城路399號","121.450983333333","24.9994916666667","6500100","板橋區"
"220042","689-BX","2018/07/20 15:09:20","新北市板橋區長江路二段197號","121.467286666667","25.0322683333333","6500100","板橋區"
"220051","KEA-2699","2018/07/20 15:09:23","新北市板橋區文聖街89巷2號","121.477558333333","25.0297866666667","6500100","板橋區"
"220014","829-TW","2018/07/20 15:09:13","新北市板橋區中山路一段317號","121.471713333333","25.014735","6500100","板橋區"
"220016","830-TW","2018/07/20 15:09:32","新北市板橋區光復街230號","121.484798333333","25.0213516666667","6500100","板橋區"
"220038","833-TW","2018/07/20 15:09:19","新北市板橋區互助街66號","121.46105","25.026685","6500100","板橋區"
"220046","AAC-210","2018/07/20 15:09:31","新北市板橋區光正街44號","121.461885","25.017605","6500100","板橋區"
"220018","AAC-253","2018/07/20 15:09:24","新北市板橋區四川路二段245巷53號","121.452246666667","24.992415","6500100","板橋區"
