"lineid","car","time","location","longitude","latitude","cityid","cityname"
"234067","553-UM","2018/07/20 16:22:42","新北市永和區福和路1號","121.526321666667","25.0097016666667","6500400","永和區"
"231046","107-UY","2018/07/20 16:29:14","新北市新店區灣潭路3-3號","121.538238333333","24.95083","6500600","新店區"
"241011","013-R5","2018/07/20 16:29:16","新北市三重區龍濱路190號","121.501135","25.0732816666667","6500200","三重區"
"241028","022-UY","2018/07/20 16:29:17","新北市三重區重安街170巷6號","121.496293333333","25.0548133333333","6500200","三重區"
"241008","059-VK","2018/07/20 16:29:31","新北市三重區力行路二段136巷45弄10號","121.479186666667","25.0753383333333","6500200","三重區"
"241022","060-VK","2018/07/20 16:29:32","新北市三重區過圳街98號","121.486065","25.0620233333333","6500200","三重區"
"241031","061-VK","2018/07/20 16:29:16","新北市三重區重陽路一段58-1號","121.486601666667","25.0581866666667","6500200","三重區"
"241015","062-VK","2018/07/20 16:29:13","新北市三重區福德北路34號","121.502131666667","25.065165","6500200","三重區"
"241017","063-VK","2018/07/20 16:29:25","新北市三重區大同北路85號","121.494826666667","25.06362","6500200","三重區"
"241024","065-VK","2018/07/20 16:29:25","新北市三重區中正北路293號","121.47471","25.0714333333333","6500200","三重區"
"241026","066-VK","2018/07/20 16:29:22","新北市三重區光興街1號","121.500261666667","25.0603866666667","6500200","三重區"
"241002","090-VK","2018/07/20 16:29:30","新北市三重區五華街9-2號","121.49513","25.0800966666667","6500200","三重區"
"241003","091-VK","2018/07/20 16:29:18","新北市三重區五華街71巷105號","121.494761666667","25.0841416666667","6500200","三重區"
"241005","262-UM","2018/07/20 16:29:23","新北市三重區溪尾街305號","121.487575","25.0836816666667","6500200","三重區"
"241016","266-UM","2018/07/20 16:29:31","新北市三重區自強路一段160巷2弄37號","121.494486666667","25.0657583333333","6500200","三重區"
"241009","267-UM","2018/07/20 16:29:16","新北市三重區三和路四段191巷57號","121.483783333333","25.0795866666667","6500200","三重區"
"241018","268-UM","2018/07/20 16:29:25","新北市三重區重陽路四段120號","121.492128333333","25.0707316666667","6500200","三重區"
"241032","269-UM","2018/07/20 16:29:29","新北市三重區三陽路100巷3弄13號","121.483015","25.0581283333333","6500200","三重區"
"241013","270-UM","2018/07/20 16:29:21","新北市三重區仁愛街50號","121.495991666667","25.0727766666667","6500200","三重區"
"241025","271-UM","2018/07/20 16:29:28","新北市三重區中正北路560巷100弄17-1號","121.47267","25.0683633333333","6500200","三重區"
"241007","413-TH","2018/07/20 16:29:13","新北市三重區三和路四段167巷113號","121.487303333333","25.0800816666667","6500200","三重區"
"241004","475-VK","2018/07/20 16:29:14","新北市三重區仁愛街371號","121.49169","25.0804083333333","6500200","三重區"
"241020","478-VK","2018/07/20 16:29:17","新北市三重區後竹圍街211號","121.484845","25.0715466666667","6500200","三重區"
"241030","480-VK","2018/07/20 16:29:32","新北市三重區成功路106-1號","121.487536666667","25.05158","6500200","三重區"
"241014","543-UM","2018/07/20 16:29:27","新北市三重區河邊北街70-2號","121.504365","25.0683416666667","6500200","三重區"
"241023","545-UM","2018/07/20 16:29:19","新北市三重區忠孝路三段50巷47號","121.482936666667","25.06437","6500200","三重區"
"241019","KEA-2593","2018/07/20 16:29:25","新北市三重區重陽路三段89號","121.490025","25.0676116666667","6500200","三重區"
"241006","AAD-863","2018/07/20 16:29:22","新北市三重區力行路二段162巷16號","121.482053333333","25.076475","6500200","三重區"
"241001","887-TS","2018/07/20 16:29:28","新北市三重區福隆路57號","121.491125","25.0777866666667","6500200","三重區"
"241012","941-UM","2018/07/20 16:29:32","新北市三重區河邊北街254號","121.50178","25.07612","6500200","三重區"
"241029","942-UM","2018/07/20 16:29:24","新北市三重區集美街126巷16號","121.489605","25.0538033333333","6500200","三重區"
"241033","AAC-255","2018/07/20 16:29:28","新北市三重區五谷王北街2巷14號","121.474208333333","25.0477833333333","6500200","三重區"
"235026","800-TS","2018/07/20 16:29:24","新北市中和區建八路162號","121.490168333333","24.9985366666667","6500300","中和區"
"224007","275-VK","2018/07/20 16:29:29","新北市瑞芳區瑞竹路36巷1號","121.76419","25.1035433333333","6501200","瑞芳區"
"224005","271-BY","2018/07/20 16:29:07","新北市瑞芳區海濱路34號","121.83104","25.1238516666667","6501200","瑞芳區"
"227011","642-TC","2018/07/20 16:29:30","新北市雙溪區三港里雙澳路37-5號","121.872513333333","25.0505666666667","6502500","雙溪區"
"227003","400-TW","2018/07/20 16:29:20","新北市雙溪區上林里內平林120-10號","121.824195","25.0260966666667","6502500","雙溪區"
"251008","442-VK","2018/07/20 16:29:22","新北市淡水區自強路124巷19號","121.466005","25.13092","6501000","淡水區"
