"lineid","car","time","location","longitude","latitude","cityid","cityname"
"249005","172-UM","2018/07/20 17:09:19","新北市八里區華富山3-1號","121.41628","25.146","6502300","八里區"
"249001","173-UM","2018/07/20 17:09:30","新北市八里區訊塘路1號","121.398301666667","25.144435","6502300","八里區"
"249004","303-UY","2018/07/20 17:09:34","新北市八里區忠孝路205號","121.422","25.1609033333333","6502300","八里區"
"249002","305-UY","2018/07/20 17:09:16","新北市八里區龍米路二段153巷1號","121.440848333333","25.151895","6502300","八里區"
"249003","593-UM","2018/07/20 17:09:23","新北市八里區中山路二段417號","121.397165","25.14627","6502300","八里區"
"244007","080-UY","2018/07/20 17:09:33","新北市林口區菁埔路31號","121.377506666667","25.0970483333333","6501700","林口區"
"244019","403-UM","2018/07/20 17:09:18","新北市林口區四維路156號","121.380565","25.0755333333333","6501700","林口區"
"244013","742-UY","2018/07/20 17:09:17","新北市林口區粉寮69號","121.40479","25.0908266666667","6501700","林口區"
"244023","483-VK","2018/07/20 17:09:31","新北市林口區粉寮路一段1號","121.396186666667","25.0758133333333","6501700","林口區"
"244025","837-TS","2018/07/20 17:09:18","新北市林口區粉寮路二段27號","121.400748333333","25.084435","6501700","林口區"
"244021","838-TS","2018/07/20 17:09:32","新北市林口區粉寮路二段94號","121.404518333333","25.0889766666667","6501700","林口區"
"231046","107-UY","2018/07/20 17:09:34","新北市新店區直潭路92號","121.530926666667","24.937615","6500600","新店區"
"241011","013-R5","2018/07/20 17:09:36","新北市三重區河邊北街100巷1-1號","121.503821666667","25.0706366666667","6500200","三重區"
"241028","022-UY","2018/07/20 17:09:17","新北市三重區重新路三段110號","121.49233","25.0602916666667","6500200","三重區"
"241008","059-VK","2018/07/20 17:09:31","新北市三重區力行路二段136巷9號","121.482006666667","25.0756833333333","6500200","三重區"
"241022","060-VK","2018/07/20 17:09:32","新北市三重區三民街65-3號","121.485905","25.0626266666667","6500200","三重區"
"241031","061-VK","2018/07/20 17:09:20","新北市三重區重陽路一段113巷1弄1號","121.487243333333","25.0598966666667","6500200","三重區"
"241015","062-VK","2018/07/20 17:09:33","新北市三重區長生街22號","121.499375","25.0665333333333","6500200","三重區"
"241017","063-VK","2018/07/20 17:09:25","新北市三重區中正北路25巷16號","121.493505","25.062965","6500200","三重區"
"241024","065-VK","2018/07/20 17:09:25","新北市三重區後竹圍街285號","121.478981666667","25.0700166666667","6500200","三重區"
"241026","066-VK","2018/07/20 17:09:27","新北市三重區重新路一段102號","121.50102","25.0632383333333","6500200","三重區"
"241002","090-VK","2018/07/20 17:09:34","新北市三重區五華街60號","121.494196666667","25.0813033333333","6500200","三重區"
"241003","091-VK","2018/07/20 17:09:18","新北市三重區富福街98號","121.493085","25.0853966666667","6500200","三重區"
"241005","262-UM","2018/07/20 17:09:23","新北市三重區碧華街50號","121.483455","25.0813066666667","6500200","三重區"
"241016","266-UM","2018/07/20 17:09:31","新北市三重區國隆路29號","121.492546666667","25.0644","6500200","三重區"
"241009","267-UM","2018/07/20 17:09:36","新北市三重區三和路四段233號","121.48123","25.0798883333333","6500200","三重區"
"241018","268-UM","2018/07/20 17:09:25","新北市三重區大智街109號","121.491685","25.069425","6500200","三重區"
"241032","269-UM","2018/07/20 17:09:29","新北市三重區興華街38號","121.485308333333","25.0597183333333","6500200","三重區"
"241013","270-UM","2018/07/20 17:09:21","新北市三重區仁福街14號","121.496235","25.0744516666667","6500200","三重區"
"241025","271-UM","2018/07/20 17:09:28","新北市三重區中正北路560巷89號","121.471193333333","25.0683066666667","6500200","三重區"
"241007","413-TH","2018/07/20 17:09:33","新北市三重區三和路四段163巷1號","121.483545","25.0786583333333","6500200","三重區"
"241004","475-VK","2018/07/20 17:09:14","新北市三重區五華街92巷7號","121.492268333333","25.0820633333333","6500200","三重區"
"241020","478-VK","2018/07/20 17:09:17","新北市三重區自強路三段44號","121.486846666667","25.0727366666667","6500200","三重區"
"241030","480-VK","2018/07/20 17:09:32","新北市三重區集美街138號","121.489385","25.0531183333333","6500200","三重區"
"241014","543-UM","2018/07/20 17:09:27","新北市三重區河邊北街124巷65號","121.502158333333","25.0711416666667","6500200","三重區"
"241023","545-UM","2018/07/20 17:09:19","新北市三重區忠孝路三段84巷1號","121.480265","25.0645433333333","6500200","三重區"
"241019","KEA-2593","2018/07/20 17:09:24","新北市三重區三張街115-1號","121.487943333333","25.070095","6500200","三重區"
"241006","AAD-863","2018/07/20 17:09:22","新北市三重區三和路四段250號","121.486055","25.0767016666667","6500200","三重區"
"241001","887-TS","2018/07/20 17:09:18","新北市三重區仁愛街269巷30號","121.493895","25.0792933333333","6500200","三重區"
"241012","941-UM","2018/07/20 17:09:31","新北市三重區龍門路274巷33號","121.501256666667","25.0752","6500200","三重區"
"241029","942-UM","2018/07/20 17:09:24","新北市三重區重新路四段65號","121.487293333333","25.0570833333333","6500200","三重區"
"241033","AAC-255","2018/07/20 17:09:28","新北市三重區中興北街271號","121.469195","25.0606416666667","6500200","三重區"
"247010","KEA-2869","2018/07/20 17:09:28","新北市蘆洲區民族路22號","121.476053333333","25.08416","6501400","蘆洲區"
"247024","893-R6","2018/07/20 17:09:28","新北市蘆洲區長興路25號","121.463688333333","25.0833783333333","6501400","蘆洲區"
"247014","546-UM","2018/07/20 17:09:18","新北市蘆洲區中央路37巷15號","121.473325","25.0824883333333","6501400","蘆洲區"
"247022","500-BY","2018/07/20 17:09:13","新北市蘆洲區民族路532號","121.46873","25.08975","6501400","蘆洲區"
"247012","339-TH","2018/07/20 17:09:32","新北市蘆洲區信義路282號","121.477925","25.08718","6501400","蘆洲區"
"247004","337-TH","2018/07/20 17:09:20","新北市蘆洲區長安街138號","121.46029","25.0820833333333","6501400","蘆洲區"
"247006","336-TH","2018/07/20 17:09:13","新北市蘆洲區長安街108巷23號","121.461838333333","25.0823466666667","6501400","蘆洲區"
"247018","057-VK","2018/07/20 17:09:33","新北市蘆洲區復興路85號","121.47658","25.0875283333333","6501400","蘆洲區"
"247008","056-VK","2018/07/20 17:09:33","新北市蘆洲區信義路30巷108號","121.475031666667","25.07712","6501400","蘆洲區"
"247016","007-UY","2018/07/20 17:09:33","新北市蘆洲區光華路69號","121.4682","25.082555","6501400","蘆洲區"
"247002","002-UY","2018/07/20 17:09:32","新北市蘆洲區長安街332號","121.457466666667","25.0883733333333","6501400","蘆洲區"
"247020","001-UY","2018/07/20 17:09:24","新北市蘆洲區民族路426巷56號","121.47276","25.0937816666667","6501400","蘆洲區"
"228002","663-BX","2018/07/20 17:09:16","新北市貢寮區龍崗里嵩陽街55號","121.907561666667","25.016575","6502600","貢寮區"
"228001","670-TC","2018/07/20 17:09:19","新北市貢寮區仁理村研海街45號","121.925856666667","25.0424216666667","6502600","貢寮區"
"228003","828-UM","2018/07/20 17:09:22","新北市貢寮區福隆里東興街10-1號","121.950983333333","25.01925","6502600","貢寮區"
"224006","676-BX","2018/07/20 17:09:26","新北市瑞芳區大寮路101-6號","121.777878333333","25.09954","6501200","瑞芳區"
"224008","285-BY","2018/07/20 17:09:32","新北市瑞芳區侯硐路71號","121.829751666667","25.0889266666667","6501200","瑞芳區"
"224009","273-VK","2018/07/20 17:09:27","新北市瑞芳區豎崎路36號","121.843183333333","25.1107566666667","6501200","瑞芳區"
"224005","271-BY","2018/07/20 17:09:24","新北市瑞芳區鼻頭路169號","121.915881666667","25.12274","6501200","瑞芳區"
"227011","642-TC","2018/07/20 17:09:30","新北市雙溪區牡丹里下坑35號","121.850486666667","25.0567766666667","6502500","雙溪區"
"227003","400-TW","2018/07/20 17:09:20","新北市雙溪區外柑里外柑腳37號","121.80963","25.01834","6502500","雙溪區"
"251004","009-UM","2018/07/20 17:09:20","新北市淡水區中正東路43號","121.446473333333","25.16794","6501000","淡水區"
"251005","010-UM","2018/07/20 17:09:36","新北市淡水區鄧公路19-1號","121.450296666667","25.1699683333333","6501000","淡水區"
"251002","012-UM","2018/07/20 17:09:17","新北市淡水區中正路二段18號","121.419676666667","25.18117","6501000","淡水區"
"251010","413-VK","2018/07/20 17:09:20","新北市淡水區新市五路二段75號","121.432013333333","25.1990133333333","6501000","淡水區"
"251012","441-VK","2018/07/20 17:09:22","新北市淡水區中山北路一段158號","121.444221666667","25.1778716666667","6501000","淡水區"
"251008","442-VK","2018/07/20 17:09:22","新北市淡水區民生路169號","121.469585","25.14204","6501000","淡水區"
"251006","561-UM","2018/07/20 17:09:34","新北市淡水區真理街6號","121.438435","25.174525","6501000","淡水區"
"251009","575-R6","2018/07/20 17:09:16","新北市淡水區三民街4巷3號","121.439275","25.1716283333333","6501000","淡水區"
"251007","577-R6","2018/07/20 17:09:30","新北市淡水區民權路99-5號","121.460096666667","25.1377233333333","6501000","淡水區"
"251011","650-BX","2018/07/20 17:09:31","新北市淡水區坪頂路52巷10號","121.45778","25.1624833333333","6501000","淡水區"
"252002","178-VK","2018/07/20 17:09:22","新北市三芝區忠孝街1-19號","121.505868333333","25.2531533333333","6502100","三芝區"
"252001","292-VK","2018/07/20 17:09:15","新北市三芝區埔頭里埔頭37號","121.498421666667","25.2602533333333","6502100","三芝區"
"242034","AAC-296","2018/07/20 17:09:33","新北市新莊區新泰路357巷3弄57號","121.442231666667","25.03946","6500500","新莊區"
"242058","986-R7","2018/07/20 17:09:23","新北市新莊區新泰路357巷3弄57號","121.442028333333","25.0392033333333","6500500","新莊區"
"242054","751-BX","2018/07/20 17:09:22","新北市新莊區三和路12-21號","121.442081666667","25.0382966666667","6500500","新莊區"
"242027","615-BX","2018/07/20 17:09:25","新北市新莊區新泰路255巷83號","121.442158333333","25.0389516666667","6500500","新莊區"
"242029","612-BX","2018/07/20 17:09:28","新北市新莊區新泰路357巷3弄57號","121.441938333333","25.0389883333333","6500500","新莊區"
"242046","497-BY","2018/07/20 17:09:21","新北市新莊區公園一路75巷5號","121.44246","25.0375616666667","6500500","新莊區"
"242050","441-UM","2018/07/20 17:09:32","新北市新莊區新樹路7號","121.440876666667","25.0331616666667","6500500","新莊區"
"242056","440-UM","2018/07/20 17:09:37","新北市新莊區新泰路357巷3弄57號","121.442271666667","25.0394083333333","6500500","新莊區"
"242037","415-TV","2018/07/20 17:09:23","新北市新莊區新泰路357巷3弄57號","121.442026666667","25.03941","6500500","新莊區"
"242007","413-TV","2018/07/20 17:09:22","新北市新莊區新泰路357巷3弄57號","121.441948333333","25.0393933333333","6500500","新莊區"
"242044","400-BY","2018/07/20 17:09:35","新北市新莊區新泰路357巷3弄45號","121.44197","25.0401766666667","6500500","新莊區"
"242023","362-BY","2018/07/20 17:09:37","新北市新莊區三和路12-21號","121.442145","25.038645","6500500","新莊區"
"242060","353-BY","2018/07/20 17:09:29","新北市新莊區新泰路255巷83號","121.442215","25.0388366666667","6500500","新莊區"
"242039","133-UY","2018/07/20 17:09:27","新北市新莊區新泰路357巷3弄41號","121.441791666667","25.0403016666667","6500500","新莊區"
"242021","348-TH","2018/07/20 17:09:30","新北市新莊區三和路12-21號","121.44233","25.038205","6500500","新莊區"
"242019","350-TH","2018/07/20 17:09:21","新北市新莊區三和路12-21號","121.441975","25.03874","6500500","新莊區"
"242013","351-TH","2018/07/20 17:09:24","新北市新莊區新泰路357巷3弄57號","121.442011666667","25.0394533333333","6500500","新莊區"
"238023","601-UM","2018/07/20 17:09:15","新北市樹林區大安路257號","121.419206666667","24.9940633333333","6500700","樹林區"
"238019","599-UM","2018/07/20 17:09:23","新北市樹林區太平路273巷23號","121.421216666667","24.97636","6500700","樹林區"
"238018","571-TV","2018/07/20 17:09:33","新北市樹林區中華路6-2號","121.424778333333","24.984165","6500700","樹林區"
"238024","5061-A6","2018/07/20 17:09:33","新北市樹林區八德街11號","121.419941666667","24.97472","6500700","樹林區"
"238022","KEA-2213","2018/07/20 17:09:17","新北市樹林區八德街251巷12號","121.42262","24.9791333333333","6500700","樹林區"
"238021","KEA-2539","2018/07/20 17:09:28","新北市樹林區西圳街一段165巷20弄28號","121.395638333333","24.9601516666667","6500700","樹林區"
"238017","283-BY","2018/07/20 17:09:20","新北市樹林區中山路二段185-1號","121.405441666667","24.9782766666667","6500700","樹林區"
"238014","282-BY","2018/07/20 17:09:25","新北市樹林區中山路二段89號","121.411366666667","24.982715","6500700","樹林區"
"238020","268-VK","2018/07/20 17:09:31","新北市樹林區保安街一段191號","121.42064","24.9957283333333","6500700","樹林區"
"238003","169-UY","2018/07/20 17:09:26","新北市樹林區太平路127巷20號","121.42026","24.98096","6500700","樹林區"
"239007","AAC-297","2018/07/20 17:09:17","新北市鶯歌區信義街48號","121.353311666667","24.9553133333333","6500800","鶯歌區"
"239006","891-R6","2018/07/20 17:09:23","新北市鶯歌區八德路2巷18弄2號","121.33678","24.9469716666667","6500800","鶯歌區"
"239008","527-UM","2018/07/20 17:09:35","新北市鶯歌區尖山路57-1號","121.35007","24.94972","6500800","鶯歌區"
"239005","526-UM","2018/07/20 17:09:16","新北市鶯歌區德昌二街95號","121.333276666667","24.957515","6500800","鶯歌區"
"239001","417-VK","2018/07/20 17:09:25","新北市鶯歌區尖山路140巷12弄1號","121.346315","24.9492716666667","6500800","鶯歌區"
"239002","359-BY","2018/07/20 17:09:24","新北市鶯歌區建國路156號","121.35063","24.95369","6500800","鶯歌區"
"239004","193-VK","2018/07/20 17:09:26","新北市鶯歌區文化路322-1號","121.352773333333","24.94588","6500800","鶯歌區"
