"lineid","car","time","location","longitude","latitude","cityid","cityname"
"234046","148-BY","2018/07/20 18:39:32","新北市永和區永元路66號","121.522445","25.0014066666667","6500400","永和區"
"234007","207-UY","2018/07/20 18:39:19","新北市永和區文化路174號","121.511633333333","25.0157133333333","6500400","永和區"
"234081","298-R6","2018/07/20 18:39:35","新北市永和區林森路81號","121.523896666667","25.0038883333333","6500400","永和區"
"234064","337-UY","2018/07/20 18:39:31","新北市永和區福和路1號","121.526606666667","25.0101816666667","6500400","永和區"
"234086","338-UY","2018/07/20 18:39:18","新北市中和區安平路162號","121.51264","24.9986566666667","6500400","永和區"
"234067","553-UM","2018/07/20 18:39:23","新北市永和區福和路1號","121.525601666667","25.009625","6500400","永和區"
"234017","745-BX","2018/07/20 18:39:23","新北市永和區福和路1號","121.526388333333","25.0096333333333","6500400","永和區"
"234030","746-BX","2018/07/20 18:39:26","新北市永和區得和路328號","121.523368333333","24.9995366666667","6500400","永和區"
"234013","KEA-2591","2018/07/20 18:39:23","新北市永和區保福路二段105號","121.510258333333","25.0133866666667","6500400","永和區"
"234026","9371-KE","2018/07/20 18:39:36","新北市永和區自由街58號","121.513751666667","25.0059116666667","6500400","永和區"
"234011","9373-KE","2018/07/20 18:39:35","新北市永和區文化路9巷22弄6號","121.51505","25.0145783333333","6500400","永和區"
"249005","172-UM","2018/07/20 18:39:19","新北市八里區中華路三段196號","121.388291666667","25.1255966666667","6502300","八里區"
"249001","173-UM","2018/07/20 18:39:26","新北市八里區龍米路一段382號","121.451515","25.131835","6502300","八里區"
"249004","303-UY","2018/07/20 18:39:34","新北市八里區中山路一段41號","121.419561666667","25.1597583333333","6502300","八里區"
"249002","305-UY","2018/07/20 18:39:35","新北市八里區龍形一街33巷1-6號","121.449366666667","25.1295116666667","6502300","八里區"
"248014","025-BX","2018/07/20 18:39:35","新北市五股區成泰路二段25號","121.437165","25.0817233333333","6501500","五股區"
"248016","026-BX","2018/07/20 18:39:36","新北市五股區凌雲路一段133巷27-3號","121.448648333333","25.1008983333333","6501500","五股區"
"248008","095-VK","2018/07/20 18:39:23","新北市五股區中興路一段150巷5號","121.464593333333","25.0741633333333","6501500","五股區"
"248019","225-UY","2018/07/20 18:39:31","新北市五股區民義路二段62號","121.40634","25.107875","6501500","五股區"
"248012","247-BX","2018/07/20 18:39:21","新北市五股區成泰路三段2巷1-20號","121.441198333333","25.086655","6501500","五股區"
"248010","272-BY","2018/07/20 18:39:38","新北市五股區水碓三路120號","121.431895","25.0734433333333","6501500","五股區"
"248002","655-BX","2018/07/20 18:39:28","新北市五股區西雲路221號","121.448811666667","25.0969383333333","6501500","五股區"
"248004","677-BX","2018/07/20 18:39:23","新北市五股區民義路一段222號","121.429173333333","25.0904466666667","6501500","五股區"
"234023","9380-KE","2018/07/20 18:39:28","新北市永和區福和路10巷1號","121.524606666667","25.0086966666667","6500400","永和區"
"234077","969-R7","2018/07/20 18:39:35","新北市永和區中正路344號","121.517651666667","25.0003716666667","6500400","永和區"
"234003","AAC-295","2018/07/20 18:39:21","新北市永和區福和路1號","121.525936666667","25.009155","6500400","永和區"
"244007","080-UY","2018/07/20 18:39:33","新北市林口區湖北里60-1號","121.384893333333","25.107765","6501700","林口區"
"244019","403-UM","2018/07/20 18:39:18","新北市林口區忠孝路625號","121.379626666667","25.0691216666667","6501700","林口區"
"244013","742-UY","2018/07/20 18:39:36","新北市林口區中正路514巷19號","121.381868333333","25.0776966666667","6501700","林口區"
"244009","410-SL","2018/07/20 18:39:30","新北市林口區竹林路366巷14號","121.392741666667","25.0845983333333","6501700","林口區"
"244023","483-VK","2018/07/20 18:39:31","新北市林口區民權路106號","121.373711666667","25.0828533333333","6501700","林口區"
"244017","485-VK","2018/07/20 18:39:22","新北市林口區文化二路一段62-4號","121.365351666667","25.068505","6501700","林口區"
"244011","657-BX","2018/07/20 18:39:31","新北市林口區仁愛路一段338-1號","121.390891666667","25.07647","6501700","林口區"
"244025","837-TS","2018/07/20 18:39:18","新北市林口區南勢街280號","121.357513333333","25.0763683333333","6501700","林口區"
"244021","838-TS","2018/07/20 18:39:32","新北市林口區工六路100號","121.401191666667","25.0766016666667","6501700","林口區"
"243013","AAD-798","2018/07/20 18:27:58","新北市泰山區明志路三段206巷3號","121.423271666667","25.037935","6501600","泰山區"
"222003","436-BY","2018/07/20 18:39:22","新北市深坑區翠谷街15號","121.626593333333","25.008405","6501800","深坑區"
"222002","659-BX","2018/07/20 18:39:22","新北市深坑區文山路一段62巷33號","121.621131666667","25.0002183333333","6501800","深坑區"
"231041","002-UM","2018/07/20 18:39:29","新北市新店區安華路28-1號","121.519715","24.960865","6500600","新店區"
"231059","046-UY","2018/07/20 18:39:34","新北市新店區安華路28-1號","121.519751666667","24.9607083333333","6500600","新店區"
"231040","047-UY","2018/07/20 18:39:26","新北市新店區安一路一段1-1號","121.519303333333","24.96106","6500600","新店區"
"231044","106-UY","2018/07/20 18:39:15","新北市新店區秀山路20號","121.532603333333","24.9603716666667","6500600","新店區"
"231046","107-UY","2018/07/20 18:39:34","新北市新店區直潭二街1號","121.535526666667","24.9432016666667","6500600","新店區"
"231048","110-UY","2018/07/20 18:39:36","新北市新店區安康路一段355-10號","121.520258333333","24.9637666666667","6500600","新店區"
"231054","KEA-2219","2018/07/20 18:39:19","新北市新店區安一路一段1-1號","121.519898333333","24.9612783333333","6500600","新店區"
"231057","256-BX","2018/07/20 18:39:25","新北市新店區新烏路一段205-2號","121.547506666667","24.932665","6500600","新店區"
"231042","268-BY","2018/07/20 18:39:34","新北市新店區安華路28-1號","121.519416666667","24.960555","6500600","新店區"
"231051","278-BY","2018/07/20 18:39:16","新北市新店區環河路103-5號","121.531773333333","24.9710666666667","6500600","新店區"
"231050","AAD-862","2018/07/20 18:39:27","新北市新店區安一路一段1-1號","121.519858333333","24.9611216666667","6500600","新店區"
"231058","3713-VJ","2018/07/20 18:39:25","新北市新店區北宜路一段168號","121.540363333333","24.9529183333333","6500600","新店區"
"231066","4716-K9","2018/07/20 18:39:27","新北市新店區安一路一段1-1號","121.519323333333","24.9613333333333","6500600","新店區"
"231056","4715-K9","2018/07/20 18:39:28","新北市新店區建國路196號","121.537836666667","24.9805366666667","6500600","新店區"
"231067","4772-VM","2018/07/20 18:39:29","新北市新店區安華路28-1號","121.519118333333","24.9607133333333","6500600","新店區"
"231065","512-UM","2018/07/20 18:39:35","新北市新店區安一路一段1-1號","121.519243333333","24.96122","6500600","新店區"
"231049","513-UM","2018/07/20 18:39:35","新北市新店區安一路一段1-1號","121.519785","24.961115","6500600","新店區"
"231063","616-UM","2018/07/20 18:39:35","新北市新店區安華路1-1號","121.519531666667","24.9605033333333","6500600","新店區"
"231045","617-UM","2018/07/20 18:39:21","新北市新店區安華路28-1號","121.519526666667","24.9609666666667","6500600","新店區"
"231061","619-UM","2018/07/20 18:39:21","新北市新店區安華路28-1號","121.519721666667","24.960815","6500600","新店區"
"231064","719-UM","2018/07/20 18:39:24","新北市新店區安一路一段1-1號","121.519568333333","24.9611183333333","6500600","新店區"
"231053","719-UY","2018/07/20 18:39:26","新北市新店區長興路13號","121.546245","24.9401133333333","6500600","新店區"
"231062","720-UM","2018/07/20 18:39:30","新北市新店區安一路一段1-1號","121.51909","24.96123","6500600","新店區"
"231060","897-TW","2018/07/20 18:39:24","新北市新店區安華路28-1號","121.51974","24.96084","6500600","新店區"
"231043","899-TW","2018/07/20 18:39:33","新北市新店區安華路28-1號","121.51926","24.96082","6500600","新店區"
"231055","AKT-0513","2018/07/20 18:39:27","新北市新店區北新路一段271巷43-1號","121.539396666667","24.9669333333333","6500600","新店區"
"241035","462-BY","2018/07/20 18:39:30","新北市三重區重新路四段121號","121.484845","25.0518783333333","6500200","三重區"
"235066","003-UY","2018/07/20 18:39:22","新北市中和區水源路30號","121.504551666667","25.0035266666667","6500300","中和區"
"235064","005-UY","2018/07/20 18:39:34","新北市中和區連城路89巷8號","121.496973333333","24.9993716666667","6500300","中和區"
"235063","006-UY","2018/07/20 18:39:34","新北市中和區連城路347巷4弄12號","121.487741666667","24.99559","6500300","中和區"
"235056","096-UM","2018/07/20 18:39:21","新北市中和區員山路611巷1號","121.477858333333","25.0111333333333","6500300","中和區"
"235039","097-UM","2018/07/20 18:39:26","新北市中和區宜安路2號","121.513623333333","24.9955","6500300","中和區"
"235065","098-UM","2018/07/20 18:39:24","新北市中和區莊敬路33巷22弄8號","121.500783333333","25.0063883333333","6500300","中和區"
"235040","150-BY","2018/07/20 18:39:25","新北市中和區宜安路41號","121.511775","24.996415","6500300","中和區"
"235058","151-BY","2018/07/20 18:39:30","新北市中和區員山路7-6號","121.482363333333","24.985465","6500300","中和區"
"235055","183-VK","2018/07/20 18:39:26","新北市板橋區民族路276巷44號","121.469323333333","25.0056633333333","6500300","中和區"
"235038","185-VK","2018/07/20 18:39:32","新北市中和區大勇街60巷8號","121.518671666667","24.9946866666667","6500300","中和區"
"235049","186-VK","2018/07/20 18:39:26","新北市中和區景平路490號","121.504915","24.9938116666667","6500300","中和區"
"235067","255-BX","2018/07/20 18:39:32","新北市中和區新生街8號","121.483085","25.004595","6500300","中和區"
"235044","293-VK","2018/07/20 18:39:22","新北市中和區復興路280巷1弄2號","121.502145","24.9907316666667","6500300","中和區"
"235072","301-VK","2018/07/20 18:39:38","新北市中和區連城路87號","121.496651666667","25.0003383333333","6500300","中和區"
"235043","352-BY","2018/07/20 18:39:34","新北市中和區景平路149號","121.513738333333","24.9921466666667","6500300","中和區"
"235042","KEA-2878","2018/07/20 18:39:24","新北市中和區成功路41巷1號","121.526201666667","24.9931666666667","6500300","中和區"
"235050","4979-A6","2018/07/20 18:39:31","新北市中和區景新街496巷35弄1號","121.51348","24.9856883333333","6500300","中和區"
"235069","4980-A6","2018/07/20 18:39:26","新北市中和區連城路109巷37號","121.497061666667","24.9985333333333","6500300","中和區"
"235070","558-UM","2018/07/20 18:39:30","新北市中和區景平路568號","121.501993333333","24.9954233333333","6500300","中和區"
"235045","565-BX","2018/07/20 18:39:26","新北市中和區南山路236巷63弄1號","121.503871666667","24.987675","6500300","中和區"
"235054","640-BX","2018/07/20 18:39:19","新北市中和區民享街34號","121.473971666667","25.0031783333333","6500300","中和區"
"235060","647-TV","2018/07/20 18:39:35","新北市中和區中山路三段13號","121.47964","25.0060033333333","6500300","中和區"
"235047","732-UM","2018/07/20 18:39:29","新北市中和區南山路292號","121.507895","24.98731","6500300","中和區"
"235046","733-UM","2018/07/20 18:39:20","新北市中和區忠孝街126-1號","121.512111666667","24.9863033333333","6500300","中和區"
"235062","800-TS","2018/07/20 18:39:37","新北市中和區中山路二段312巷2號","121.495776666667","25.0026533333333","6500300","中和區"
"235041","802-TS","2018/07/20 18:39:20","新北市中和區中安街192號","121.511296666667","24.9992266666667","6500300","中和區"
"235048","896-TW","2018/07/20 18:39:28","新北市中和區南山路218號","121.506333333333","24.9903416666667","6500300","中和區"
"235053","900-TW","2018/07/20 18:39:20","新北市土城區延壽路77巷4弄3號","121.46912","24.99279","6500300","中和區"
"235057","911-UM","2018/07/20 18:39:19","新北市中和區員山路327巷52號","121.480285","25.0018583333333","6500300","中和區"
"235051","157-BY","2018/07/20 18:39:22","新北市中和區華新街143巷46號","121.506095","24.9800066666667","6500300","中和區"
"235037","AAC-213","2018/07/20 18:39:17","新北市中和區景德街63號","121.517111666667","24.9914516666667","6500300","中和區"
"235059","AAC-215","2018/07/20 18:39:35","新北市中和區錦和路350-1號","121.490611666667","24.9935616666667","6500300","中和區"
"220065","072-UY","2018/07/20 18:39:19","新北市板橋區館前東路110號","121.463255","25.0077333333333","6500100","板橋區"
"220086","073-UY","2018/07/20 18:39:30","新北市板橋區南雅西路二段192巷1弄29號","121.452425","25.01533","6500100","板橋區"
"220069","AAD-861","2018/07/20 18:39:32","新北市板橋區華東街1-10號","121.44835","24.9951366666667","6500100","板橋區"
"226004","205-ST","2018/07/20 18:39:20","新北市平溪區平溪里平溪街58號","121.737971666667","25.0274916666667","6502400","平溪區"
"235052","251-BX","2018/07/20 18:39:21","新北市中和區興南路三段83號","121.491473333333","24.9737783333333","6500300","中和區"
"228002","663-BX","2018/07/20 18:39:16","新北市貢寮區福隆里東興街6-11號","121.95074","25.0210666666667","6502600","貢寮區"
"228001","670-TC","2018/07/20 18:39:18","新北市貢寮區仁理村保健街73號","121.923723333333","25.0516983333333","6502600","貢寮區"
"228003","828-UM","2018/07/20 18:39:22","新北市貢寮區和美里龍洞街40-1號","121.915453333333","25.1116666666667","6502600","貢寮區"
"224010","AGQ-8101","2018/07/20 18:39:35","新北市瑞芳區烏勢巷124號","121.846591666667","25.1087433333333","6501200","瑞芳區"
"224006","676-BX","2018/07/20 18:39:30","新北市瑞芳區明燈路三段132號","121.804361666667","25.1085566666667","6501200","瑞芳區"
"224002","639-TC","2018/07/20 18:39:21","新北市瑞芳區中山路251號","121.798258333333","25.1093033333333","6501200","瑞芳區"
"224008","285-BY","2018/07/20 18:39:32","新北市瑞芳區瑞芳街28號","121.80626","25.109575","6501200","瑞芳區"
"224007","275-VK","2018/07/20 18:39:39","新北市瑞芳區大埔路115巷26號","121.762978333333","25.1016033333333","6501200","瑞芳區"
"224009","273-VK","2018/07/20 18:39:27","新北市瑞芳區祈堂路2號","121.859766666667","25.1117083333333","6501200","瑞芳區"
"224005","271-BY","2018/07/20 18:39:31","新北市瑞芳區建基路一段4號","121.820471666667","25.12078","6501200","瑞芳區"
"227011","642-TC","2018/07/20 18:39:33","新北市雙溪區牡丹里下坑11號","121.851025","25.05617","6502500","雙溪區"
"227003","400-TW","2018/07/20 18:39:20","新北市雙溪區魚行里坤溪12號","121.87339","25.0227983333333","6502500","雙溪區"
"253005","032-BX","2018/07/20 18:39:28","新北市石門區石門街43號","121.566455","25.2904783333333","6502200","石門區"
"253006","295-VK","2018/07/20 18:39:17","新北市石門區崁子腳1-2號","121.53202","25.2881166666667","6502200","石門區"
"222001","KEA-2212","2018/07/20 18:39:28","新北市深坑區北深路一段82號","121.636301666667","25.0107483333333","6501800","深坑區"
"208002","KEA-2872","2018/07/20 18:39:27","新北市金山區忠孝一路21號","121.638618333333","25.2192033333333","6502700","金山區"
"208003","665-BX","2018/07/20 18:39:26","新北市金山區中山路292號","121.634746666667","25.2245416666667","6502700","金山區"
"208001","761-BX","2018/07/20 18:39:38","新北市金山區文化三路7號","121.63503","25.22494","6502700","金山區"
"251004","009-UM","2018/07/20 18:39:20","新北市淡水區八勢路50巷66號","121.462228333333","25.1495833333333","6501000","淡水區"
"251002","012-UM","2018/07/20 18:39:36","新北市淡水區中正東路一段3巷14弄1號","121.450963333333","25.1641866666667","6501000","淡水區"
"251010","413-VK","2018/07/20 18:39:20","新北市淡水區沙崙路141號","121.423238333333","25.1828783333333","6501000","淡水區"
"251012","441-VK","2018/07/20 18:39:22","新北市淡水區北新路117號","121.448931666667","25.1785666666667","6501000","淡水區"
"251008","442-VK","2018/07/20 18:39:22","新北市淡水區北投子14-2號","121.448845","25.1835883333333","6501000","淡水區"
"251001","559-UM","2018/07/20 18:39:21","新北市淡水區自強路415巷2號","121.465503333333","25.1341983333333","6501000","淡水區"
"251006","561-UM","2018/07/20 18:39:34","新北市淡水區崁頂36-6號","121.439295","25.1942083333333","6501000","淡水區"
"251007","577-R6","2018/07/20 18:39:30","新北市淡水區中正東路二段143巷2弄1號","121.460548333333","25.1473766666667","6501000","淡水區"
"251011","650-BX","2018/07/20 18:39:31","新北市淡水區鄧公路210巷6號","121.454848333333","25.1690083333333","6501000","淡水區"
"251003","673-BX","2018/07/20 18:39:34","新北市淡水區北新路69巷26號","121.446653333333","25.18001","6501000","淡水區"
"207003","550-UM","2018/07/20 18:39:34","新北市萬里區野柳里八斗60號","121.66036","25.207235","6502800","萬里區"
"207004","225-TW","2018/07/20 18:39:19","新北市萬里區萬里里獅頭路12號","121.692313333333","25.1790566666667","6502800","萬里區"
"252002","178-VK","2018/07/20 18:39:21","新北市三芝區民生街64巷1號","121.503491666667","25.2553333333333","6502100","三芝區"
"252003","249-BX","2018/07/20 18:39:34","新北市三芝區後厝里土地公坑54-9號","121.46649","25.2497333333333","6502100","三芝區"
"252001","292-VK","2018/07/20 18:39:35","新北市三芝區中興街二段268號","121.502103333333","25.2527566666667","6502100","三芝區"
"237004","KEA-2597","2018/07/20 18:39:20","新北市三峽區插角25號","121.403885","24.8728183333333","6500900","三峽區"
"237007","153-BY","2018/07/20 18:39:22","新北市三峽區柑樹路2巷98號","121.361663333333","24.904365","6500900","三峽區"
"237009","210-TH","2018/07/20 18:39:35","新北市三峽區大同路280號","121.364593333333","24.925285","6500900","三峽區"
"237013","252-BX","2018/07/20 18:39:23","新北市三峽區光明路69巷25號","121.376733333333","24.929235","6500900","三峽區"
"237012","275-BY","2018/07/20 18:39:23","新北市三峽區三樹路340號","121.383953333333","24.943315","6500900","三峽區"
"237008","302-VK","2018/07/20 18:39:21","新北市三峽區白雞45號","121.382603333333","24.9123133333333","6500900","三峽區"
"237014","433-BY","2018/07/20 18:39:18","新北市三峽區復興路489號","121.361251666667","24.9385866666667","6500900","三峽區"
"237006","5529-G3","2018/07/20 18:39:30","新北市三峽區溪東路233巷2弄3號","121.407","24.9336583333333","6500900","三峽區"
"237011","KEA-2596","2018/07/20 18:39:21","新北市三峽區橫溪路55-2號","121.397131666667","24.935255","6500900","三峽區"
"237015","649-BX","2018/07/20 18:39:31","新北市三峽區安坑12-3號","121.442408333333","24.9262666666667","6500900","三峽區"
"237010","706-TV","2018/07/20 18:39:26","新北市三峽區國光街322號","121.372033333333","24.9394083333333","6500900","三峽區"
"237005","AKY-6261","2018/07/20 18:39:19","新北市三峽區復興路7號","121.37428","24.9360766666667","6500900","三峽區"
"236069","105-UM","2018/07/20 18:39:29","新北市土城區永豐路157巷4號","121.468256666667","24.981505","6501300","土城區"
"236042","107-UM","2018/07/20 18:39:32","新北市土城區裕民路57號","121.448913333333","24.9879283333333","6501300","土城區"
"236079","166-UM","2018/07/20 18:39:23","新北市土城區頂埔街57號","121.41721","24.959225","6501300","土城區"
"236030","253-BX","2018/07/20 18:39:30","新北市土城區慶利街32號","121.438871666667","24.9744466666667","6501300","土城區"
"236026","269-VK","2018/07/20 18:39:28","新北市土城區金城路一段42號","121.441938333333","24.9701166666667","6501300","土城區"
"236014","270-VK","2018/07/20 18:39:18","新北市土城區清水路207巷17號","121.459811666667","24.9823616666667","6501300","土城區"
"236039","271-VK","2018/07/20 18:39:22","新北市土城區明德路一段295號","121.46006","24.9773066666667","6501300","土城區"
"236020","401-BY","2018/07/20 18:39:17","新北市土城區延吉街253巷1號","121.467625","24.984675","6501300","土城區"
"236059","912-UM","2018/07/20 18:39:23","新北市土城區永寧路1號","121.430383333333","24.964765","6501300","土城區"
"236048","913-UM","2018/07/20 18:39:31","新北市土城區金城路二段342號","121.460178333333","24.9847833333333","6501300","土城區"
"236063","915-UM","2018/07/20 18:39:30","新北市土城區延和路125巷77號","121.469098333333","24.9911033333333","6501300","土城區"
"236055","AAC-216","2018/07/20 18:39:26","新北市土城區裕民路41號","121.448436666667","24.988215","6501300","土城區"
"242058","986-R7","2018/07/20 18:39:23","新北市新莊區中正路879-4號","121.417728333333","25.0263166666667","6500500","新莊區"
"242054","751-BX","2018/07/20 18:39:21","新北市樹林區樹新路120巷22號","121.430616666667","24.99668","6500500","新莊區"
"242025","613-BX","2018/07/20 18:39:34","新北市泰山區泰林路一段6號","121.442001666667","25.04892","6500500","新莊區"
"242046","497-BY","2018/07/20 18:39:21","新北市樹林區中正路417號","121.41695","25.0076716666667","6500500","新莊區"
"242060","353-BY","2018/07/20 18:39:28","新北市新莊區四維路25號","121.424275","25.02379","6500500","新莊區"
"242002","349-TH","2018/07/20 18:39:31","新北市新莊區三和路12-21號","121.441898333333","25.0380666666667","6500500","新莊區"
"242019","350-TH","2018/07/20 18:39:21","新北市新莊區三和路12-21號","121.442163333333","25.03871","6500500","新莊區"
"238023","601-UM","2018/07/20 18:39:35","新北市樹林區三福街114號","121.406518333333","25.0163083333333","6500700","樹林區"
"238019","599-UM","2018/07/20 18:39:23","新北市樹林區中華路190-16號","121.411701666667","24.9805983333333","6500700","樹林區"
"238018","571-TV","2018/07/20 18:39:33","新北市樹林區鎮前街165號","121.422241666667","24.9872133333333","6500700","樹林區"
"238024","5061-A6","2018/07/20 18:39:33","新北市樹林區太平路96號","121.418638333333","24.9794266666667","6500700","樹林區"
"238022","KEA-2213","2018/07/20 18:39:17","新北市樹林區中華路190-1號","121.411371666667","24.98055","6500700","樹林區"
"238025","303-VK","2018/07/20 18:39:19","新北市樹林區中山路三段22號","121.395531666667","24.9729266666667","6500700","樹林區"
"238017","283-BY","2018/07/20 18:39:20","新北市樹林區光興街50號","121.409861666667","25.0027066666667","6500700","樹林區"
"238014","282-BY","2018/07/20 18:39:25","新北市樹林區大安路111巷25號","121.423135","24.9975366666667","6500700","樹林區"
"238020","268-VK","2018/07/20 18:39:31","新北市樹林區俊安街64號","121.418523333333","25.013275","6500700","樹林區"
"238026","172-UY","2018/07/20 18:39:32","新北市樹林區中和街21巷15號","121.391091666667","24.97235","6500700","樹林區"
"239007","AAC-297","2018/07/20 18:39:16","新北市鶯歌區中正一路建德巷38號","121.364491666667","24.9578116666667","6500800","鶯歌區"
"239006","891-R6","2018/07/20 18:39:23","新北市鶯歌區鶯桃路296巷55弄12號","121.336076666667","24.961675","6500800","鶯歌區"
"239008","527-UM","2018/07/20 18:39:34","新北市鶯歌區晨曦街27號","121.337888333333","24.9768233333333","6500800","鶯歌區"
"239005","526-UM","2018/07/20 18:39:36","新北市鶯歌區鳳吉一街56號","121.32644","24.9740066666667","6500800","鶯歌區"
"239001","417-VK","2018/07/20 18:39:24","新北市鶯歌區中正三路106-1號","121.338061666667","24.9408233333333","6500800","鶯歌區"
"239003","360-BY","2018/07/20 18:39:30","新北市鶯歌區永和街148號","121.335515","24.97001","6500800","鶯歌區"
"239002","359-BY","2018/07/20 18:39:24","新北市鶯歌區中山路282號","121.34428","24.957215","6500800","鶯歌區"
"239004","193-VK","2018/07/20 18:39:25","新北市鶯歌區國中街136號","121.33929","24.9398383333333","6500800","鶯歌區"
"221008","489-VK","2018/07/20 18:39:29","新北市汐止區康寧街901號","121.651338333333","25.0750483333333","6501100","汐止區"
"221036","130-UY","2018/07/20 18:39:27","新北市汐止區忠孝東路337號","121.66524","25.06993","6501100","汐止區"
"221015","131-UY","2018/07/20 18:39:36","新北市汐止區吉祥街1巷2號","121.667911666667","25.0798516666667","6501100","汐止區"
"221010","269-BY","2018/07/20 18:39:25","新北市汐止區汐萬路二段321號","121.645176666667","25.09014","6501100","汐止區"
"221012","278-VK","2018/07/20 18:39:21","新北市汐止區汐萬路一段247-1號","121.65117","25.0733183333333","6501100","汐止區"
"221023","279-VK","2018/07/20 18:39:22","新北市汐止區汐萬路一段312號","121.650513333333","25.0753983333333","6501100","汐止區"
"221032","280-BY","2018/07/20 18:39:25","新北市汐止區民權街二段79號","121.619105","25.0480333333333","6501100","汐止區"
"221027","281-BY","2018/07/20 18:39:31","新北市汐止區汐萬路一段147號","121.65336","25.0711283333333","6501100","汐止區"
"221033","297-VK","2018/07/20 18:39:23","新北市汐止區南勢街1巷1號","121.627058333333","25.0374733333333","6501100","汐止區"
"221029","298-VK","2018/07/20 18:39:25","新北市汐止區樟樹一路133巷1號","121.642148333333","25.06518","6501100","汐止區"
"221021","299-VK","2018/07/20 18:39:28","新北市汐止區新興路74號","121.657458333333","25.0620016666667","6501100","汐止區"
"221031","353-TW","2018/07/20 18:39:26","新北市汐止區福德一路274號","121.632116666667","25.0639633333333","6501100","汐止區"
"221035","622-UM","2018/07/20 18:39:29","新北市汐止區大同路二段278號","121.654855","25.0662266666667","6501100","汐止區"
"221025","623-UM","2018/07/20 18:39:25","新北市汐止區仁愛路119巷20號","121.662136666667","25.0643733333333","6501100","汐止區"
"221038","646-BX","2018/07/20 18:39:26","新北市汐止區汐萬路一段312號","121.650653333333","25.075305","6501100","汐止區"
"221002","707-TV","2018/07/20 18:39:18","新北市汐止區中興路25號","121.636906666667","25.0596266666667","6501100","汐止區"
"221018","753-BX","2018/07/20 18:39:36","新北市汐止區茄興街1號","121.673296666667","25.0676683333333","6501100","汐止區"
"220080","200-UY","2018/07/20 18:39:24","新北市板橋區大觀路二段265巷76弄26號","121.441455","24.9967566666667","6500100","板橋區"
"220082","610-BX","2018/07/20 18:39:29","新北市板橋區大觀路三段52號","121.432498333333","24.99595","6500100","板橋區"
"220056","276-BY","2018/07/20 18:39:24","新北市板橋區華東街1號","121.448598333333","24.994365","6500100","板橋區"
"220072","277-BY","2018/07/20 18:39:35","新北市板橋區大觀路三段59巷17弄6-1號","121.436748333333","24.9954266666667","6500100","板橋區"
"220071","283-VK","2018/07/20 18:39:23","新北市板橋區四川路二段243號","121.450478333333","24.9937283333333","6500100","板橋區"
"220081","287-VK","2018/07/20 18:39:32","新北市板橋區合安一路77-6號","121.448466666667","24.998685","6500100","板橋區"
"220062","295-UM","2018/07/20 18:39:27","新北市板橋區民生路二段120號","121.47039","25.0196333333333","6500100","板橋區"
"220084","296-UM","2018/07/20 18:39:19","新北市板橋區大觀路二段179巷34號","121.446221666667","24.9994433333333","6500100","板橋區"
"242032","281-VK","2018/07/20 18:39:31","新北市新莊區三和路12-18號","121.441925","25.03763","6500500","新莊區"
"220075","303-R5","2018/07/20 18:39:28","新北市板橋區南雅南路二段120-2號","121.452296666667","24.9999133333333","6500100","板橋區"
"220064","486-VK","2018/07/20 18:39:25","新北市板橋區縣民大道一段312號","121.461465","25.0108583333333","6500100","板橋區"
"220035","560-BX","2018/07/20 18:39:31","新北市板橋區南雅西路二段145巷10號","121.45143","25.0120383333333","6500100","板橋區"
"220079","630-UY","2018/07/20 18:39:20","新北市板橋區大觀路一段31號","121.449685","25.00849","6500100","板橋區"
"220057","686-BX","2018/07/20 18:39:30","新北市板橋區華東街1-9號","121.44822","24.9948983333333","6500100","板橋區"
"220077","687-BX","2018/07/20 18:39:35","新北市板橋區大觀路二段156巷39號","121.441005","24.9997566666667","6500100","板橋區"
"220054","741-BX","2018/07/20 18:39:19","新北市板橋區南雅南路二段120-12號","121.452108333333","24.9994666666667","6500100","板橋區"
"220055","827-TW","2018/07/20 18:39:27","新北市板橋區南雅南路二段120-16號","121.451915","24.9991916666667","6500100","板橋區"
"220067","829-TW","2018/07/20 18:39:31","新北市板橋區民生路二段120號","121.470468333333","25.019835","6500100","板橋區"
"220074","895-R6","2018/07/20 18:39:29","新北市板橋區南雅南路二段18號","121.454498333333","25.0033933333333","6500100","板橋區"
"220073","985-R7","2018/07/20 18:39:26","新北市板橋區貴興路112號","121.455215","25.002185","6500100","板橋區"
"220070","AAC-253","2018/07/20 18:39:19","新北市板橋區板城路421號","121.448145","24.9957","6500100","板橋區"
"235068","KEA-2873","2018/07/20 18:39:36","新北市中和區中正路211巷13弄5號","121.497085","24.9931333333333","6500300","中和區"
"235061","KEA-2875","2018/07/20 18:39:10","新北市中和區民享街114巷27號","121.473438333333","24.9995083333333","6500300","中和區"
