"lineid","car","time","location","longitude","latitude","cityid","cityname"
"234046","148-BY","2018/07/20 18:49:32","新北市永和區秀朗路二段149號","121.524771666667","25.0016116666667","6500400","永和區"
"234007","207-UY","2018/07/20 18:49:19","新北市永和區文化路123號","121.512236666667","25.0153533333333","6500400","永和區"
"234081","298-R6","2018/07/20 18:49:35","新北市永和區永利路98號","121.520995","25.003505","6500400","永和區"
"234038","336-UY","2018/07/20 18:49:31","新北市永和區福和路7巷15弄19號","121.526","25.0076666666667","6500400","永和區"
"234064","337-UY","2018/07/20 18:49:31","新北市永和區福和路1號","121.526568333333","25.010085","6500400","永和區"
"234086","338-UY","2018/07/20 18:49:39","新北市永和區中正路17號","121.514238333333","24.99586","6500400","永和區"
"234067","553-UM","2018/07/20 18:49:23","新北市永和區中正路504號","121.517335","25.0043333333333","6500400","永和區"
"234017","745-BX","2018/07/20 18:49:23","新北市永和區忠孝街26巷27弄1號","121.515173333333","25.017","6500400","永和區"
"234030","746-BX","2018/07/20 18:49:26","新北市永和區得和路321號","121.523415","24.999655","6500400","永和區"
"234054","KEA-2590","2018/07/20 18:49:25","新北市永和區豫溪街215巷25號","121.523581666667","25.0103766666667","6500400","永和區"
"234013","KEA-2591","2018/07/20 18:49:23","新北市永和區保福路二段133巷25號","121.509336666667","25.01358","6500400","永和區"
"234061","AAD-866","2018/07/20 18:49:28","新北市永和區福和路271號","121.517658333333","25.00738","6500400","永和區"
"234050","863-TW","2018/07/20 18:49:19","新北市永和區豫溪街191巷7弄8號","121.524016666667","25.0110833333333","6500400","永和區"
"234026","9371-KE","2018/07/20 18:49:16","新北市永和區自由街38號","121.513995","25.006115","6500400","永和區"
"234011","9373-KE","2018/07/20 18:49:35","新北市永和區文化路124號","121.513056666667","25.0154033333333","6500400","永和區"
"249005","172-UM","2018/07/20 18:49:19","新北市八里區長道坑17號","121.39631","25.1155733333333","6502300","八里區"
"249001","173-UM","2018/07/20 18:49:26","新北市八里區龍米路二段26號","121.448786666667","25.139505","6502300","八里區"
"248014","025-BX","2018/07/20 18:49:35","新北市五股區成泰路二段252號","121.44062","25.08718","6501500","五股區"
"248016","026-BX","2018/07/20 18:49:36","新北市五股區凌雲路一段83巷21號","121.44877","25.10096","6501500","五股區"
"248006","077-UY","2018/07/20 18:49:18","新北市五股區中興路一段171巷63號","121.465625","25.0705216666667","6501500","五股區"
"248008","095-VK","2018/07/20 18:49:23","新北市五股區中興路一段151巷42號","121.465165","25.0725083333333","6501500","五股區"
"248019","225-UY","2018/07/20 18:49:31","新北市五股區民義路二段37號","121.41324","25.1003366666667","6501500","五股區"
"248012","247-BX","2018/07/20 18:49:24","新北市五股區工商路28號","121.439391666667","25.0834533333333","6501500","五股區"
"248010","272-BY","2018/07/20 18:49:33","新北市五股區水碓五路81號","121.429946666667","25.0719","6501500","五股區"
"248002","655-BX","2018/07/20 18:49:28","新北市五股區成泰路三段454號","121.451365","25.1003983333333","6501500","五股區"
"248004","677-BX","2018/07/20 18:49:23","新北市五股區民義路二段50-5號","121.411015","25.10391","6501500","五股區"
"234023","9380-KE","2018/07/20 18:49:28","新北市永和區竹林路119巷45號","121.521903333333","25.0118833333333","6500400","永和區"
"234077","969-R7","2018/07/20 18:49:35","新北市永和區中正路42巷6弄2號","121.513253333333","24.9941933333333","6500400","永和區"
"234003","AAC-295","2018/07/20 18:49:21","新北市永和區中正路668號","121.516906666667","25.0091116666667","6500400","永和區"
"232011","375-UM","2018/07/20 18:49:18","新北市坪林區坪林街54號","121.711416666667","24.937455","6502000","坪林區"
"244007","080-UY","2018/07/20 18:49:33","新北市林口區太平里23-3號","121.37626","25.1154916666667","6501700","林口區"
"244019","403-UM","2018/07/20 18:49:38","新北市林口區麗園二街一段60巷36號","121.380966666667","25.0676083333333","6501700","林口區"
"244013","742-UY","2018/07/20 18:49:36","新北市林口區文化一路一段100巷10弄16-1號","121.374938333333","25.0712383333333","6501700","林口區"
"244009","410-SL","2018/07/20 18:49:30","新北市林口區台電新村1號","121.38776","25.0853283333333","6501700","林口區"
"244023","483-VK","2018/07/20 18:49:31","新北市林口區文林六街62巷16號","121.371995","25.0816933333333","6501700","林口區"
"244017","485-VK","2018/07/20 18:49:22","新北市林口區文化二路一段164號","121.368528333333","25.07169","6501700","林口區"
"244011","657-BX","2018/07/20 18:49:31","新北市林口區中正路41巷3號","121.395763333333","25.076905","6501700","林口區"
"244025","837-TS","2018/07/20 18:49:18","新北市林口區忠孝一路148號","121.360385","25.0742866666667","6501700","林口區"
"243013","AAD-798","2018/07/20 18:27:58","新北市泰山區明志路三段206巷3號","121.423271666667","25.037935","6501600","泰山區"
"243016","380-SR","2018/07/20 18:49:29","新北市泰山區泰林路二段236號","121.432268333333","25.0621033333333","6501600","泰山區"
"243015","421-VK","2018/07/20 18:49:16","新北市泰山區美寧街50號","121.430475","25.0645","6501600","泰山區"
"243010","KEA-2216","2018/07/20 18:49:28","新北市泰山區黎明路49號","121.421781666667","25.0583716666667","6501600","泰山區"
"222003","436-BY","2018/07/20 18:49:37","新北市深坑區深南路51-1號","121.621316666667","25.010155","6501800","深坑區"
"222002","659-BX","2018/07/20 18:49:23","新北市深坑區文山路一段69號","121.626996666667","25.0019166666667","6501800","深坑區"
"231041","002-UM","2018/07/20 18:49:29","新北市新店區安華路28-1號","121.519736666667","24.9608266666667","6500600","新店區"
"231059","046-UY","2018/07/20 18:49:34","新北市新店區安華路28-1號","121.519605","24.9607683333333","6500600","新店區"
"231040","047-UY","2018/07/20 18:49:26","新北市新店區中央路45號","121.53287","24.9775733333333","6500600","新店區"
"231044","106-UY","2018/07/20 18:49:35","新北市新店區寶橋路132號","121.547226666667","24.9761483333333","6500600","新店區"
"231046","107-UY","2018/07/20 18:49:34","新北市新店區直潭路43號","121.533638333333","24.9425933333333","6500600","新店區"
"231048","110-UY","2018/07/20 18:49:36","新北市新店區北新路一段309號","121.541406666667","24.9677916666667","6500600","新店區"
"231054","KEA-2219","2018/07/20 18:49:19","新北市新店區安康路一段85號","121.52941","24.9614283333333","6500600","新店區"
"231042","268-BY","2018/07/20 18:49:34","新北市新店區光明街177號","121.539566666667","24.96283","6500600","新店區"
"231051","278-BY","2018/07/20 18:49:36","新北市新店區中央路63號","121.532545","24.977115","6500600","新店區"
"231050","AAD-862","2018/07/20 18:49:27","新北市新店區安康路一段79巷3號","121.529921666667","24.9611833333333","6500600","新店區"
"231058","3713-VJ","2018/07/20 18:49:25","新北市新店區中興路一段199號","121.543433333333","24.965315","6500600","新店區"
"231066","4716-K9","2018/07/20 18:49:27","新北市新店區安一路一段1-1號","121.519308333333","24.9613266666667","6500600","新店區"
"231056","4715-K9","2018/07/20 18:49:28","新北市新店區大同街13號","121.53918","24.9801666666667","6500600","新店區"
"231067","4772-VM","2018/07/20 18:49:29","新北市新店區安華路28-1號","121.519031666667","24.9607783333333","6500600","新店區"
"231065","512-UM","2018/07/20 18:49:35","新北市新店區車子路10-4號","121.504716666667","24.9545333333333","6500600","新店區"
"231049","513-UM","2018/07/20 18:49:35","新北市新店區中央路151號","121.529496666667","24.97194","6500600","新店區"
"231063","616-UM","2018/07/20 18:49:35","新北市新店區安華路28-1號","121.519513333333","24.9605316666667","6500600","新店區"
"231045","617-UM","2018/07/20 18:49:21","新北市新店區安康路一段61號","121.530606666667","24.960995","6500600","新店區"
"231061","619-UM","2018/07/20 18:49:21","新北市新店區安華路28-1號","121.519671666667","24.96068","6500600","新店區"
"231064","719-UM","2018/07/20 18:49:24","新北市新店區安一路一段1-1號","121.51968","24.9612116666667","6500600","新店區"
"231053","719-UY","2018/07/20 18:49:26","新北市新店區新烏路一段106號","121.545656666667","24.9364616666667","6500600","新店區"
"231062","720-UM","2018/07/20 18:49:30","新北市新店區安一路一段1-1號","121.519365","24.9611683333333","6500600","新店區"
"231060","897-TW","2018/07/20 18:49:24","新北市新店區安華路28-1號","121.51977","24.9607766666667","6500600","新店區"
"231043","899-TW","2018/07/20 18:49:33","新北市新店區安康路一段78號","121.528186666667","24.9618966666667","6500600","新店區"
"231055","AKT-0513","2018/07/20 18:49:27","新北市新店區新生街13巷14號","121.539426666667","24.96594","6500600","新店區"
"241035","462-BY","2018/07/20 18:49:30","新北市三重區重新路四段121號","121.484858333333","25.0518916666667","6500200","三重區"
"235066","003-UY","2018/07/20 18:49:22","新北市中和區水源路7巷25號","121.504058333333","25.0038333333333","6500300","中和區"
"235064","005-UY","2018/07/20 18:49:34","新北市中和區景平路597號","121.496935","25.0005966666667","6500300","中和區"
"235063","006-UY","2018/07/20 18:49:18","新北市中和區連城路319巷11弄12號","121.489683333333","24.9949866666667","6500300","中和區"
"235056","096-UM","2018/07/20 18:49:21","新北市中和區員山路611巷5弄1號","121.477891666667","25.0111066666667","6500300","中和區"
"235039","097-UM","2018/07/20 18:49:26","新北市中和區宜安路52巷20號","121.512488333333","24.997335","6500300","中和區"
"235065","098-UM","2018/07/20 18:49:24","新北市中和區中山路二段2巷45弄24號","121.501505","25.0069583333333","6500300","中和區"
"235040","150-BY","2018/07/20 18:49:25","新北市中和區保健路106巷4弄1號","121.51207","24.9955483333333","6500300","中和區"
"235058","151-BY","2018/07/20 18:49:30","新北市中和區連城路532巷20號","121.475226666667","24.992705","6500300","中和區"
"235055","183-VK","2018/07/20 18:49:26","新北市中和區民生街71號","121.469286666667","25.0050016666667","6500300","中和區"
"235038","185-VK","2018/07/20 18:49:32","新北市中和區大勇街39號","121.517633333333","24.99445","6500300","中和區"
"235049","186-VK","2018/07/20 18:49:30","新北市中和區景安路175-2號","121.505161666667","24.99425","6500300","中和區"
"235067","255-BX","2018/07/20 18:49:32","新北市中和區中正路873號","121.484505","25.0039216666667","6500300","中和區"
"235044","293-VK","2018/07/20 18:49:22","新北市中和區中興街154號","121.499851666667","24.99182","6500300","中和區"
"235072","301-VK","2018/07/20 18:49:18","新北市中和區中山路二段102號","121.50324","25.004215","6500300","中和區"
"235043","352-BY","2018/07/20 18:49:34","新北市中和區成功路129號","121.526015","24.9906733333333","6500300","中和區"
"235042","KEA-2878","2018/07/20 18:49:24","新北市中和區秀朗路三段70巷37號","121.525378333333","24.99436","6500300","中和區"
"235050","4979-A6","2018/07/20 18:49:26","新北市中和區忠孝街62巷12號","121.51237","24.983645","6500300","中和區"
"235069","4980-A6","2018/07/20 18:49:26","新北市中和區中和路143號","121.502185","24.9997316666667","6500300","中和區"
"235070","558-UM","2018/07/20 18:49:30","新北市中和區中和路102號","121.502763333333","24.9998066666667","6500300","中和區"
"235045","565-BX","2018/07/20 18:49:26","新北市中和區捷運路129號","121.507048333333","24.9907666666667","6500300","中和區"
"235054","640-BX","2018/07/20 18:49:33","新北市中和區民治街28號","121.475193333333","25.003805","6500300","中和區"
"235060","647-TV","2018/07/20 18:49:35","新北市中和區中山路三段208號","121.47151","25.0065083333333","6500300","中和區"
"235047","732-UM","2018/07/20 18:49:29","新北市中和區興南路二段74巷8號","121.505201666667","24.9846416666667","6500300","中和區"
"235046","733-UM","2018/07/20 18:49:32","新北市中和區仁愛街36巷44號","121.51134","24.98634","6500300","中和區"
"235062","800-TS","2018/07/20 18:49:17","新北市中和區景平路703巷2弄2號","121.49621","25.0035033333333","6500300","中和區"
"235041","802-TS","2018/07/20 18:49:39","新北市中和區中安街222號","121.5121","24.9987333333333","6500300","中和區"
"235048","896-TW","2018/07/20 18:49:28","新北市中和區華新街2-6號","121.507486666667","24.98519","6500300","中和區"
"235053","900-TW","2018/07/20 18:49:20","新北市中和區民德路290巷17號","121.466531666667","24.9959766666667","6500300","中和區"
"235057","911-UM","2018/07/20 18:49:19","新北市中和區民安街25巷11號","121.480545","25.0003033333333","6500300","中和區"
"235051","157-BY","2018/07/20 18:49:37","新北市中和區忠孝街28號","121.510586666667","24.9831633333333","6500300","中和區"
"235037","AAC-213","2018/07/20 18:49:34","新北市中和區秀朗路三段128巷9弄1號","121.524568333333","24.993025","6500300","中和區"
"235059","AAC-215","2018/07/20 18:49:35","新北市中和區圓通路373號","121.490846666667","24.9893133333333","6500300","中和區"
"220065","072-UY","2018/07/20 18:49:39","新北市板橋區民族路151巷52號","121.470095","25.0084966666667","6500100","板橋區"
"220086","073-UY","2018/07/20 18:49:30","新北市板橋區大智街27號","121.454888333333","25.01514","6500100","板橋區"
"220069","AAD-861","2018/07/20 18:49:32","新北市板橋區縣民大道一段114號","121.457348333333","25.00606","6500100","板橋區"
"220106","120-SR","2018/07/20 18:49:21","新北市板橋區民生路二段120號","121.47039","25.0197666666667","6500100","板橋區"
"226004","205-ST","2018/07/20 18:49:20","新北市平溪區嶺腳里嶺腳寮9-1號","121.747756666667","25.0298016666667","6502400","平溪區"
"235052","251-BX","2018/07/20 18:49:21","新北市中和區興南路二段399巷98弄48號","121.497965","24.9764283333333","6500300","中和區"
"228002","663-BX","2018/07/20 18:49:36","新北市貢寮區福隆里東興街6-11號","121.950716666667","25.0210616666667","6502600","貢寮區"
"228001","670-TC","2018/07/20 18:49:38","新北市貢寮區仁理村保健街73號","121.92374","25.05168","6502600","貢寮區"
"228003","828-UM","2018/07/20 18:49:22","新北市貢寮區和美里龍洞街63-7號","121.91744","25.11848","6502600","貢寮區"
"224010","AGQ-8101","2018/07/20 18:47:15","新北市瑞芳區烏勢巷145號","121.847715","25.1089516666667","6501200","瑞芳區"
"224006","676-BX","2018/07/20 18:49:28","新北市瑞芳區中正路63號","121.8063","25.1074216666667","6501200","瑞芳區"
"224002","639-TC","2018/07/20 18:49:21","新北市瑞芳區靜安路四段10號","121.795063333333","25.0853816666667","6501200","瑞芳區"
"224008","285-BY","2018/07/20 18:49:32","新北市瑞芳區逢甲路275號","121.801633333333","25.112","6501200","瑞芳區"
"224007","275-VK","2018/07/20 18:49:21","新北市瑞芳區大埔路103巷49號","121.762295","25.1006616666667","6501200","瑞芳區"
"224009","273-VK","2018/07/20 18:49:27","新北市瑞芳區山尖路91號","121.855343333333","25.113935","6501200","瑞芳區"
"224005","271-BY","2018/07/20 18:49:24","新北市瑞芳區濱二路41-2號","121.832945","25.1163983333333","6501200","瑞芳區"
"227011","642-TC","2018/07/20 18:49:33","新北市雙溪區牡丹里聖南31-1號","121.855618333333","25.0542466666667","6502500","雙溪區"
"227003","400-TW","2018/07/20 18:49:20","新北市雙溪區平林里梅竹蹊28號","121.861638333333","25.0360166666667","6502500","雙溪區"
"253005","032-BX","2018/07/20 18:49:36","新北市石門區中山路32-3號","121.566005","25.2899066666667","6502200","石門區"
"253006","295-VK","2018/07/20 18:49:37","新北市石門區下員坑33-6號","121.519218333333","25.2827233333333","6502200","石門區"
"222001","KEA-2212","2018/07/20 18:49:08","新北市深坑區松柏街30巷1號","121.638698333333","25.01131","6501800","深坑區"
"208002","KEA-2872","2018/07/20 18:49:27","新北市金山區信義路66號","121.635683333333","25.2189433333333","6502700","金山區"
"208003","665-BX","2018/07/20 18:49:19","新北市金山區中山路393號","121.633415","25.2252366666667","6502700","金山區"
"208001","761-BX","2018/07/20 18:49:17","新北市金山區文化三路66巷1號","121.634111666667","25.2255983333333","6502700","金山區"
"251004","009-UM","2018/07/20 18:49:20","新北市淡水區中正東路二段143巷2弄1號","121.460571666667","25.147315","6501000","淡水區"
"251002","012-UM","2018/07/20 18:49:36","新北市淡水區學府路81號","121.448556666667","25.170065","6501000","淡水區"
"251010","413-VK","2018/07/20 18:49:20","新北市淡水區沙崙路11號","121.421155","25.1812083333333","6501000","淡水區"
"251012","441-VK","2018/07/20 18:49:25","新北市淡水區新興街13號","121.443283333333","25.1804733333333","6501000","淡水區"
"251008","442-VK","2018/07/20 18:49:22","新北市淡水區崁頂78-5號","121.429645","25.20659","6501000","淡水區"
"251001","559-UM","2018/07/20 18:49:21","新北市淡水區自強路86號","121.462715","25.1282416666667","6501000","淡水區"
"251007","577-R6","2018/07/20 18:49:30","新北市淡水區竹林路120號","121.462696666667","25.1442383333333","6501000","淡水區"
"251011","650-BX","2018/07/20 18:49:31","新北市淡水區學府路16號","121.447481666667","25.16805","6501000","淡水區"
"251003","673-BX","2018/07/20 18:49:34","新北市淡水區中山北路一段186巷27弄1-1號","121.446191666667","25.1787583333333","6501000","淡水區"
"207003","550-UM","2018/07/20 18:49:34","新北市萬里區大鵬里頂社1號","121.656995","25.2097016666667","6502800","萬里區"
"207004","225-TW","2018/07/20 18:49:39","新北市萬里區萬里里獅頭路23號","121.6932","25.1782283333333","6502800","萬里區"
"252002","178-VK","2018/07/20 18:49:21","新北市三芝區中正路一段101-1號","121.504736666667","25.2563883333333","6502100","三芝區"
"252003","249-BX","2018/07/20 18:49:34","新北市三芝區後厝里大片頭108號","121.458501666667","25.2427666666667","6502100","三芝區"
"252001","292-VK","2018/07/20 18:49:35","新北市三芝區中正路三段9號","121.502821666667","25.2539866666667","6502100","三芝區"
"237004","KEA-2597","2018/07/20 18:49:36","新北市三峽區有木49號","121.432606666667","24.8628183333333","6500900","三峽區"
"237007","153-BY","2018/07/20 18:49:22","新北市三峽區大埔路136號","121.36774","24.9038116666667","6500900","三峽區"
"237013","252-BX","2018/07/20 18:49:23","新北市三峽區光明路69巷25號","121.376718333333","24.929185","6500900","三峽區"
"237012","275-BY","2018/07/20 18:49:22","新北市樹林區佳園路三段486號","121.382773333333","24.94397","6500900","三峽區"
"237008","302-VK","2018/07/20 18:49:21","新北市三峽區正義街158-3號","121.368326666667","24.9157966666667","6500900","三峽區"
"237014","433-BY","2018/07/20 18:49:38","新北市三峽區隆恩街175號","121.361591666667","24.942525","6500900","三峽區"
"237006","5529-G3","2018/07/20 18:49:30","新北市三峽區溪東路233巷47弄2號","121.410576666667","24.9346566666667","6500900","三峽區"
"237011","KEA-2596","2018/07/20 18:49:21","新北市三峽區介壽路三段194號","121.402641666667","24.9442666666667","6500900","三峽區"
"237015","649-BX","2018/07/20 18:49:31","新北市三峽區建安167號","121.466536666667","24.9143733333333","6500900","三峽區"
"237010","706-TV","2018/07/20 18:49:26","新北市三峽區國光街322號","121.37199","24.9394033333333","6500900","三峽區"
"237005","AKY-6261","2018/07/20 18:49:19","新北市三峽區中山路365-2號","121.35853","24.9370016666667","6500900","三峽區"
"236069","105-UM","2018/07/20 18:49:29","新北市土城區永豐路145號","121.466546666667","24.9836683333333","6501300","土城區"
"236042","107-UM","2018/07/20 18:49:32","新北市土城區裕民路136巷6弄2號","121.450968333333","24.98552","6501300","土城區"
"236079","166-UM","2018/07/20 18:49:24","新北市土城區中央路四段67巷30號","121.417726666667","24.957235","6501300","土城區"
"236030","253-BX","2018/07/20 18:49:30","新北市土城區忠義路26巷19號","121.43973","24.9698533333333","6501300","土城區"
"236026","269-VK","2018/07/20 18:49:28","新北市土城區慶安街80號","121.440645","24.9727583333333","6501300","土城區"
"236014","270-VK","2018/07/20 18:49:38","新北市土城區金城路二段354巷18號","121.460868333333","24.984155","6501300","土城區"
"236039","271-VK","2018/07/20 18:49:22","新北市土城區明德路一段197號","121.463778333333","24.9789266666667","6501300","土城區"
"236020","401-BY","2018/07/20 18:49:37","新北市土城區金城路三段52巷40號","121.466086666667","24.986135","6501300","土城區"
"236059","912-UM","2018/07/20 18:49:28","新北市土城區金城路二段8-1號","121.449021666667","24.9771066666667","6501300","土城區"
"236048","913-UM","2018/07/20 18:49:35","新北市土城區青雲路104號","121.459253333333","24.98622","6501300","土城區"
"236063","915-UM","2018/07/20 18:49:37","新北市土城區金城路三段153號","121.46873","24.988275","6501300","土城區"
"236055","AAC-216","2018/07/20 18:49:26","新北市土城區裕民路192號","121.45304","24.9849766666667","6501300","土城區"
"242058","986-R7","2018/07/20 18:49:23","新北市新莊區新泰路357巷3弄51號","121.44196","25.040025","6500500","新莊區"
"242054","751-BX","2018/07/20 18:49:21","新北市板橋區溪城路90-2號","121.429628333333","24.9804166666667","6500500","新莊區"
"242046","497-BY","2018/07/20 18:49:21","新北市樹林區八德街262-1號","121.417911666667","24.9722616666667","6500500","新莊區"
"242002","349-TH","2018/07/20 18:49:31","新北市新莊區三和路12-21號","121.441985","25.0379816666667","6500500","新莊區"
"238023","601-UM","2018/07/20 18:49:35","桃園市龜山區萬壽路一段424號","121.399538333333","25.016405","6500700","樹林區"
"238019","599-UM","2018/07/20 18:49:23","新北市樹林區東榮街169號","121.41396","24.98143","6500700","樹林區"
"238022","KEA-2213","2018/07/20 18:49:17","新北市樹林區東大街1-5號","121.413423333333","24.976505","6500700","樹林區"
"238025","303-VK","2018/07/20 18:49:19","新北市樹林區中山路三段24號","121.395526666667","24.9729383333333","6500700","樹林區"
"238017","283-BY","2018/07/20 18:49:20","新北市樹林區光興街50號","121.409823333333","25.0027066666667","6500700","樹林區"
"238014","282-BY","2018/07/20 18:49:25","新北市樹林區潭興街143巷11號","121.425378333333","25.0000166666667","6500700","樹林區"
"238020","268-VK","2018/07/20 18:49:31","新北市樹林區俊英街280號","121.423778333333","25.0131816666667","6500700","樹林區"
"238026","172-UY","2018/07/20 18:49:32","新北市樹林區吉祥街31號","121.395925","24.9737683333333","6500700","樹林區"
"239007","AAC-297","2018/07/20 18:49:16","新北市鶯歌區成功街15號","121.358286666667","24.9577216666667","6500800","鶯歌區"
"239006","891-R6","2018/07/20 18:49:23","新北市鶯歌區鶯桃路296巷94弄16號","121.337335","24.961715","6500800","鶯歌區"
"239008","527-UM","2018/07/20 18:49:34","新北市鶯歌區國際二路20巷36號","121.337765","24.9757883333333","6500800","鶯歌區"
"239005","526-UM","2018/07/20 18:49:16","新北市鶯歌區大湖路361巷26號","121.330511666667","24.9779316666667","6500800","鶯歌區"
"239001","417-VK","2018/07/20 18:49:24","新北市鶯歌區鶯桃路97巷1-1號","121.338543333333","24.954305","6500800","鶯歌區"
"239003","360-BY","2018/07/20 18:49:30","新北市鶯歌區鶯桃路658巷49-2號","121.330728333333","24.97021","6500800","鶯歌區"
"239002","359-BY","2018/07/20 18:49:24","新北市鶯歌區中正一路370號","121.358256666667","24.9569583333333","6500800","鶯歌區"
"239004","193-VK","2018/07/20 18:49:25","新北市鶯歌區中正三路194巷2-3號","121.3327","24.9385333333333","6500800","鶯歌區"
"221008","489-VK","2018/07/20 18:49:29","新北市汐止區康寧街901號","121.651343333333","25.0750433333333","6501100","汐止區"
"221036","130-UY","2018/07/20 18:49:32","新北市汐止區南昌街2巷15號","121.662805","25.0687716666667","6501100","汐止區"
"221015","131-UY","2018/07/20 18:49:16","新北市汐止區鄉長路一段33-8號","121.66539","25.0748366666667","6501100","汐止區"
"221010","269-BY","2018/07/20 18:49:25","新北市汐止區康寧街901號","121.651521666667","25.0749966666667","6501100","汐止區"
"221012","278-VK","2018/07/20 18:49:21","新北市汐止區康寧街901號","121.650826666667","25.0752433333333","6501100","汐止區"
"221023","279-VK","2018/07/20 18:49:22","新北市汐止區康寧街901號","121.650988333333","25.0752216666667","6501100","汐止區"
"221032","280-BY","2018/07/20 18:49:25","新北市汐止區橫科路385巷6弄6號","121.624205","25.0478783333333","6501100","汐止區"
"221027","281-BY","2018/07/20 18:49:31","新北市汐止區康寧街901號","121.651463333333","25.074965","6501100","汐止區"
"221033","297-VK","2018/07/20 18:49:23","新北市汐止區南勢街1巷1號","121.627046666667","25.0374666666667","6501100","汐止區"
"221029","298-VK","2018/07/20 18:49:25","新北市汐止區工建路62號","121.64064","25.0629216666667","6501100","汐止區"
"221021","299-VK","2018/07/20 18:49:28","新北市汐止區汐萬路一段204號","121.652158333333","25.0722216666667","6501100","汐止區"
"221031","353-TW","2018/07/20 18:49:26","新北市汐止區福德一路300巷11號","121.630936666667","25.0636116666667","6501100","汐止區"
"221035","622-UM","2018/07/20 18:49:29","新北市汐止區汐萬路一段159號","121.653065","25.0710283333333","6501100","汐止區"
"221025","623-UM","2018/07/20 18:49:25","新北市汐止區秀峰路61號","121.659936666667","25.0647033333333","6501100","汐止區"
"221038","646-BX","2018/07/20 18:49:26","新北市汐止區汐萬路一段312號","121.65067","25.075295","6501100","汐止區"
"221002","707-TV","2018/07/20 18:49:18","新北市汐止區大同路一段154-1號","121.632061666667","25.0560333333333","6501100","汐止區"
"221018","753-BX","2018/07/20 18:49:36","新北市汐止區汐萬路一段37號","121.65549","25.068415","6501100","汐止區"
"220080","200-UY","2018/07/20 18:49:24","新北市板橋區大觀路二段265巷60弄35號","121.441795","24.9978433333333","6500100","板橋區"
"220082","610-BX","2018/07/20 18:49:29","新北市板橋區篤行路三段67號","121.427576666667","24.9857466666667","6500100","板橋區"
"220091","267-BY","2018/07/20 18:49:32","新北市板橋區民生路二段161巷1號","121.469956666667","25.0200366666667","6500100","板橋區"
"220056","276-BY","2018/07/20 18:49:24","新北市板橋區四川路二段1-15號","121.456851666667","24.996325","6500100","板橋區"
"220072","277-BY","2018/07/20 18:49:15","新北市板橋區大觀路三段36巷76號","121.434526666667","24.9973933333333","6500100","板橋區"
"220071","283-VK","2018/07/20 18:49:23","新北市板橋區忠孝路101號","121.462476666667","25.00223","6500100","板橋區"
"220094","285-UM","2018/07/20 18:49:30","新北市板橋區民生路二段161巷1號","121.470036666667","25.019865","6500100","板橋區"
"220083","286-VK","2018/07/20 18:49:32","新北市板橋區僑中二街112巷1號","121.445741666667","25.006905","6500100","板橋區"
"220081","287-VK","2018/07/20 18:49:32","新北市板橋區光華街13巷54號","121.45262","25.0111783333333","6500100","板橋區"
"220090","288-VK","2018/07/20 18:49:34","新北市板橋區民生路二段120號","121.47042","25.01968","6500100","板橋區"
"220061","293-UM","2018/07/20 18:49:34","新北市板橋區介壽街113號","121.470441666667","25.0187966666667","6500100","板橋區"
"220062","295-UM","2018/07/20 18:49:27","新北市板橋區觀光街2號","121.472446666667","25.0153283333333","6500100","板橋區"
"220084","296-UM","2018/07/20 18:49:23","新北市板橋區大觀路二段156巷2-3號","121.441463333333","24.9993316666667","6500100","板橋區"
"242032","281-VK","2018/07/20 18:49:31","新北市新莊區三和路12-18號","121.441961666667","25.037665","6500500","新莊區"
"220075","303-R5","2018/07/20 18:49:28","新北市板橋區館前西路225號","121.454436666667","25.00873","6500100","板橋區"
"220098","317-R6","2018/07/20 18:49:23","新北市板橋區民生路二段120號","121.470485","25.01992","6500100","板橋區"
"220064","486-VK","2018/07/20 18:49:25","新北市板橋區民生路二段17號","121.47242","25.0164066666667","6500100","板橋區"
"220035","560-BX","2018/07/20 18:49:31","新北市板橋區中正路325巷30-2號","121.452978333333","25.01874","6500100","板橋區"
"220103","561-BX","2018/07/20 18:49:21","新北市板橋區民生路二段120號","121.470305","25.0197833333333","6500100","板橋區"
"220063","609-BX","2018/07/20 18:49:31","新北市板橋區民生路二段89-6號","121.470585","25.0188316666667","6500100","板橋區"
"220079","630-UY","2018/07/20 18:49:21","新北市板橋區民權路202巷1弄2-3號","121.45945","25.01415","6500100","板橋區"
"220057","686-BX","2018/07/20 18:49:30","新北市板橋區南雅南路一段1巷42號","121.457516666667","25.0063616666667","6500100","板橋區"
"220077","687-BX","2018/07/20 18:49:35","新北市板橋區龍興街97巷1號","121.444146666667","25.0025883333333","6500100","板橋區"
"220054","741-BX","2018/07/20 18:49:19","新北市板橋區後埔街13號","121.460458333333","25.006845","6500100","板橋區"
"220102","KEA-2699","2018/07/20 18:49:33","新北市板橋區民生路二段120號","121.470533333333","25.019695","6500100","板橋區"
"220055","827-TW","2018/07/20 18:49:27","新北市板橋區縣民大道一段312號","121.461558333333","25.010925","6500100","板橋區"
"220067","829-TW","2018/07/20 18:49:30","新北市板橋區中山路二段90巷47弄16號","121.47713","25.0149083333333","6500100","板橋區"
"220089","833-TW","2018/07/20 18:49:34","新北市板橋區民生路二段161巷1號","121.46997","25.019905","6500100","板橋區"
"220074","895-R6","2018/07/20 18:49:29","新北市板橋區林園街46號","121.453983333333","25.0105366666667","6500100","板橋區"
"220073","985-R7","2018/07/20 18:49:26","新北市板橋區林園街56號","121.453936666667","25.0107466666667","6500100","板橋區"
"220070","AAC-253","2018/07/20 18:49:19","新北市板橋區四川路一段55號","121.459596666667","25.0062916666667","6500100","板橋區"
"235068","KEA-2873","2018/07/20 18:49:36","新北市中和區圓通路265巷60號","121.49622","24.992455","6500300","中和區"
"235061","KEA-2875","2018/07/20 18:49:13","新北市中和區民享街44巷16號","121.473468333333","25.002655","6500300","中和區"
