"lineid","car","time","location","longitude","latitude","cityid","cityname"
"234046","148-BY","2018/07/20 19:09:33","新北市永和區永元路18巷40弄1號","121.524241666667","25.000285","6500400","永和區"
"234007","207-UY","2018/07/20 19:09:19","新北市永和區中山路一段201號","121.50902","25.0085716666667","6500400","永和區"
"234081","298-R6","2018/07/20 19:09:35","新北市永和區福和路57巷14弄1號","121.522748333333","25.00695","6500400","永和區"
"234038","336-UY","2018/07/20 19:09:31","新北市永和區民樂街90巷2號","121.52733","24.9975833333333","6500400","永和區"
"234064","337-UY","2018/07/20 19:09:31","新北市永和區秀朗路二段48號","121.521631666667","25.0021816666667","6500400","永和區"
"234086","338-UY","2018/07/20 19:09:18","新北市永和區永貞路98號","121.519243333333","25.0044633333333","6500400","永和區"
"234070","552-UM","2018/07/20 19:09:31","新北市永和區豫溪街95巷4弄1號","121.518283333333","25.0105666666667","6500400","永和區"
"234067","553-UM","2018/07/20 19:09:23","新北市永和區永和路一段65巷4號","121.512765","25.0073","6500400","永和區"
"234017","745-BX","2018/07/20 19:09:24","新北市永和區文化路90巷9弄1號","121.51382","25.0157283333333","6500400","永和區"
"234030","746-BX","2018/07/20 19:09:26","新北市永和區民生路21號","121.522766666667","24.9988666666667","6500400","永和區"
"234054","KEA-2590","2018/07/20 19:09:25","新北市永和區竹林路72巷2號","121.51912","25.012895","6500400","永和區"
"234013","KEA-2591","2018/07/20 19:09:23","新北市永和區保福路二段48號","121.511048333333","25.0121033333333","6500400","永和區"
"234061","AAD-866","2018/07/20 19:09:28","新北市永和區安樂路320號","121.514365","25.0055133333333","6500400","永和區"
"234042","862-TW","2018/07/20 19:09:18","新北市永和區永貞路334號","121.511196666667","25.0054783333333","6500400","永和區"
"234050","863-TW","2018/07/20 19:09:39","新北市永和區文化路135巷9號","121.51068","25.0143716666667","6500400","永和區"
"234026","9371-KE","2018/07/20 19:09:36","新北市永和區安樂路270號","121.514491666667","25.0040766666667","6500400","永和區"
"234011","9373-KE","2018/07/20 19:09:15","新北市永和區信義路25巷53號","121.512295","25.0115516666667","6500400","永和區"
"249005","172-UM","2018/07/20 19:09:19","新北市八里區中華路三段77號","121.394365","25.140525","6502300","八里區"
"249001","173-UM","2018/07/20 19:09:26","新北市八里區龍米路二段228-1號","121.432686666667","25.1584183333333","6502300","八里區"
"248016","026-BX","2018/07/20 19:09:16","新北市五股區成泰路三段543巷41-1號","121.449821666667","25.1029333333333","6501500","五股區"
"248008","095-VK","2018/07/20 19:09:23","新北市五股區中興路一段118巷21號","121.465975","25.074495","6501500","五股區"
"248019","225-UY","2018/07/20 19:09:31","新北市五股區民義路一段220巷17號","121.428715","25.0944916666667","6501500","五股區"
"248012","247-BX","2018/07/20 19:09:21","新北市五股區中興路四段48巷16號","121.438565","25.08344","6501500","五股區"
"248010","272-BY","2018/07/20 19:09:38","新北市五股區自強路90巷72號","121.43084","25.071295","6501500","五股區"
"248002","655-BX","2018/07/20 19:09:28","新北市五股區凌雲路一段158巷6號","121.447766666667","25.103","6501500","五股區"
"248004","677-BX","2018/07/20 19:09:23","新北市五股區民義路一段166號","121.432941666667","25.087725","6501500","五股區"
"234023","9380-KE","2018/07/20 19:09:28","新北市永和區中興街10巷17號","121.5158","25.0112466666667","6500400","永和區"
"234077","969-R7","2018/07/20 19:09:36","新北市永和區民族街40號","121.518568333333","24.9990966666667","6500400","永和區"
"234074","AAC-211","2018/07/20 19:09:22","新北市永和區竹林路222號","121.520786666667","25.008115","6500400","永和區"
"234003","AAC-295","2018/07/20 19:09:21","新北市永和區保福路一段45號","121.512541666667","25.00932","6500400","永和區"
"244019","403-UM","2018/07/20 19:09:38","新北市林口區麗園一街9巷2號","121.376685","25.07096","6501700","林口區"
"244013","742-UY","2018/07/20 19:09:17","新北市林口區麗園一街4巷1號","121.376516666667","25.0711966666667","6501700","林口區"
"244023","483-VK","2018/07/20 19:09:31","新北市林口區民富街198號","121.370623333333","25.075405","6501700","林口區"
"244017","485-VK","2018/07/20 19:09:22","新北市林口區公園路129號","121.369261666667","25.07028","6501700","林口區"
"244011","657-BX","2018/07/20 19:09:30","新北市林口區中正路321號","121.388536666667","25.0777216666667","6501700","林口區"
"244025","837-TS","2018/07/20 19:09:18","新北市林口區文化北路一段542巷8號","121.36845","25.0793333333333","6501700","林口區"
"243013","AAD-798","2018/07/20 19:09:28","新北市泰山區明志路三段277號","121.42317","25.0367766666667","6501600","泰山區"
"243009","297-R6","2018/07/20 19:09:21","新北市泰山區明志路一段117巷24號","121.434258333333","25.06345","6501600","泰山區"
"243016","380-SR","2018/07/20 19:09:29","新北市泰山區明志路二段327號","121.425765","25.0449466666667","6501600","泰山區"
"243015","421-VK","2018/07/20 19:09:34","新北市泰山區明志路一段468號","121.430535","25.055345","6501600","泰山區"
"243011","KEA-2215","2018/07/20 19:09:23","新北市泰山區明志路二段322號","121.426131666667","25.0459983333333","6501600","泰山區"
"243010","KEA-2216","2018/07/20 19:09:33","新北市泰山區明志路一段479號","121.430886666667","25.05545","6501600","泰山區"
"243012","646-TV","2018/07/20 19:09:17","新北市泰山區辭修路34巷1號","121.428743333333","25.05807","6501600","泰山區"
"243014","680-BX","2018/07/20 19:09:32","新北市泰山區泰林路二段429號","121.4264","25.0641683333333","6501600","泰山區"
"222003","436-BY","2018/07/20 19:09:17","新北市深坑區深南路162號","121.626103333333","25.0149633333333","6501800","深坑區"
"222002","659-BX","2018/07/20 19:09:23","新北市深坑區北深路一段246號","121.629831666667","25.0087383333333","6501800","深坑區"
"231041","002-UM","2018/07/20 19:09:29","新北市新店區溪園路393號","121.524066666667","24.979055","6500600","新店區"
"231059","046-UY","2018/07/20 19:09:34","新北市新店區安康路一段351-1號","121.519313333333","24.96399","6500600","新店區"
"231040","047-UY","2018/07/20 19:09:26","新北市新店區三民路98-4號","121.533911666667","24.97335","6500600","新店區"
"231044","106-UY","2018/07/20 19:09:35","新北市新店區中興路三段182號","121.544048333333","24.9813283333333","6500600","新店區"
"231046","107-UY","2018/07/20 19:09:34","新北市新店區永業路91號","121.529251666667","24.9490766666667","6500600","新店區"
"231048","110-UY","2018/07/20 19:09:36","新北市新店區德正街27巷29弄94號","121.545641666667","24.9737066666667","6500600","新店區"
"231054","KEA-2219","2018/07/20 19:09:19","新北市新店區新店路122號","121.537135","24.954925","6500600","新店區"
"231042","268-BY","2018/07/20 19:09:34","新北市新店區中興路一段171號","121.542786666667","24.964535","6500600","新店區"
"231051","278-BY","2018/07/20 19:09:16","新北市新店區中正路400巷22號","121.535245","24.978255","6500600","新店區"
"231050","AAD-862","2018/07/20 19:09:27","新北市新店區竹林路2巷27弄2號","121.550096666667","24.9506533333333","6500600","新店區"
"231058","3713-VJ","2018/07/20 19:09:25","新北市新店區光明街138巷13弄2號","121.540076666667","24.961435","6500600","新店區"
"231066","4716-K9","2018/07/20 19:09:27","新北市新店區安祥路20號","121.493016666667","24.9548333333333","6500600","新店區"
"231056","4715-K9","2018/07/20 19:09:28","新北市新店區中央路2號","121.533926666667","24.9790616666667","6500600","新店區"
"231067","4772-VM","2018/07/20 19:09:29","新北市新店區安康路一段76巷18-1號","121.528461666667","24.9628983333333","6500600","新店區"
"231065","512-UM","2018/07/20 19:09:35","新北市新店區安祥路145巷16號","121.475213333333","24.9562166666667","6500600","新店區"
"231049","513-UM","2018/07/20 19:09:35","新北市新店區二十張路25巷18弄28號","121.53921","24.9813566666667","6500600","新店區"
"231063","616-UM","2018/07/20 19:09:35","新北市新店區車子路153號","121.50539","24.9470766666667","6500600","新店區"
"231045","617-UM","2018/07/20 19:09:21","新北市新店區北宜路一段260號","121.545701666667","24.952765","6500600","新店區"
"231061","619-UM","2018/07/20 19:09:21","新北市新店區安康路一段220號","121.523825","24.963515","6500600","新店區"
"231064","719-UM","2018/07/20 19:09:24","新北市新店區安忠路56巷6號","121.512948333333","24.9593783333333","6500600","新店區"
"231053","719-UY","2018/07/20 19:09:26","新北市新店區屈尺路75號","121.545571666667","24.9226966666667","6500600","新店區"
"231062","720-UM","2018/07/20 19:09:30","新北市新店區安平路20號","121.524025","24.96714","6500600","新店區"
"231060","897-TW","2018/07/20 19:09:24","新北市新店區安康路二段316號","121.505546666667","24.9581166666667","6500600","新店區"
"231043","899-TW","2018/07/20 19:09:33","新北市新店區寶橋路98號","121.54693","24.9758016666667","6500600","新店區"
"241026","066-VK","2018/07/20 19:09:23","新北市三重區泉州街61巷1號","121.494666666667","25.0546566666667","6500200","三重區"
"241035","462-BY","2018/07/20 19:09:30","新北市三重區過圳街7巷36號","121.490403333333","25.0597483333333","6500200","三重區"
"241029","942-UM","2018/07/20 19:09:30","新北市三重區集美街263號","121.49244","25.0557266666667","6500200","三重區"
"235066","003-UY","2018/07/20 19:09:22","新北市中和區廣福路12-3號","121.50541","25.00278","6500300","中和區"
"235064","005-UY","2018/07/20 19:09:34","新北市中和區泰和街30巷10號","121.499166666667","25.00085","6500300","中和區"
"235063","006-UY","2018/07/20 19:09:18","新北市中和區連城路359號","121.487791666667","24.9961633333333","6500300","中和區"
"235056","096-UM","2018/07/20 19:09:21","新北市中和區員山路560號","121.478836666667","25.010495","6500300","中和區"
"235039","097-UM","2018/07/20 19:09:26","新北市中和區自立路58巷25弄2號","121.523005","24.991325","6500300","中和區"
"235065","098-UM","2018/07/20 19:09:24","新北市中和區中山路二段136巷8號","121.501816666667","25.0037766666667","6500300","中和區"
"235040","150-BY","2018/07/20 19:09:25","新北市中和區保健路48巷55號","121.509388333333","24.9960916666667","6500300","中和區"
"235058","151-BY","2018/07/20 19:09:30","新北市中和區員山路82巷9號","121.481676666667","24.9941766666667","6500300","中和區"
"235055","183-VK","2018/07/20 19:09:26","新北市中和區德光路53號","121.47007","25.0039466666667","6500300","中和區"
"235038","185-VK","2018/07/20 19:09:32","新北市中和區大仁街10巷9弄29號","121.519293333333","24.9930216666667","6500300","中和區"
"235049","186-VK","2018/07/20 19:09:26","新北市中和區明禮街45號","121.504091666667","24.9965216666667","6500300","中和區"
"235067","255-BX","2018/07/20 19:09:39","新北市中和區新生街176巷3號","121.48341","24.9998183333333","6500300","中和區"
"235044","293-VK","2018/07/20 19:09:22","新北市中和區中興街202巷10號","121.499231666667","24.98996","6500300","中和區"
"235072","301-VK","2018/07/20 19:09:18","新北市中和區景平路733號","121.496295","25.0042766666667","6500300","中和區"
"235043","352-BY","2018/07/20 19:09:34","新北市中和區景平路146號","121.518448333333","24.9919866666667","6500300","中和區"
"235042","KEA-2878","2018/07/20 19:09:24","新北市中和區自強路13巷1號","121.520655","24.99354","6500300","中和區"
"235050","4979-A6","2018/07/20 19:09:28","新北市中和區復興路280巷18弄4號","121.502421666667","24.9916066666667","6500300","中和區"
"235069","4980-A6","2018/07/20 19:09:26","新北市中和區中和路217巷16號","121.504695","25.0003933333333","6500300","中和區"
"235070","558-UM","2018/07/20 19:09:30","新北市中和區中山路二段207號","121.499566666667","25.0024016666667","6500300","中和區"
"235045","565-BX","2018/07/20 19:09:26","新北市中和區景新街467巷35弄23號","121.513513333333","24.9886216666667","6500300","中和區"
"235054","640-BX","2018/07/20 19:09:39","新北市中和區國光街109巷2弄19號","121.469046666667","25.0006416666667","6500300","中和區"
"235060","647-TV","2018/07/20 19:09:35","新北市中和區民有街11號","121.475658333333","25.005545","6500300","中和區"
"235047","732-UM","2018/07/20 19:09:29","新北市中和區興南路一段129號","121.509016666667","24.9879316666667","6500300","中和區"
"235046","733-UM","2018/07/20 19:09:20","新北市中和區忠孝街1巷86號","121.508191666667","24.9849883333333","6500300","中和區"
"235071","783-BX","2018/07/20 19:09:36","新北市中和區連城路322號","121.483403333333","24.9960516666667","6500300","中和區"
"235062","800-TS","2018/07/20 19:09:17","新北市中和區中山路二段408號","121.490035","25.0037916666667","6500300","中和區"
"235041","802-TS","2018/07/20 19:09:20","新北市中和區中和路250號","121.507398333333","24.9995933333333","6500300","中和區"
"235048","896-TW","2018/07/20 19:09:28","新北市中和區忠孝街2-8號","121.50921","24.9829516666667","6500300","中和區"
"235053","900-TW","2018/07/20 19:09:20","新北市中和區華福街86號","121.467513333333","24.9964516666667","6500300","中和區"
"235057","911-UM","2018/07/20 19:09:19","新北市中和區民利街78號","121.478136666667","24.9982916666667","6500300","中和區"
"235051","157-BY","2018/07/20 19:09:17","新北市中和區仁愛街36巷4號","121.51059","24.9882133333333","6500300","中和區"
"235037","AAC-213","2018/07/20 19:09:37","新北市中和區秀朗路三段60巷3號","121.526041666667","24.9950666666667","6500300","中和區"
"235059","AAC-215","2018/07/20 19:09:35","新北市中和區圓通路294巷13號","121.488626666667","24.990035","6500300","中和區"
"220065","072-UY","2018/07/20 19:09:19","新北市板橋區民族路219巷22號","121.46932","25.0083483333333","6500100","板橋區"
"220086","073-UY","2018/07/20 19:09:30","新北市板橋區國光路184號","121.460978333333","25.0184016666667","6500100","板橋區"
"220069","AAD-861","2018/07/20 19:09:35","新北市板橋區華興街26號","121.459125","25.00467","6500100","板橋區"
"220106","120-SR","2018/07/20 19:09:21","新北市板橋區文化路二段311號","121.471978333333","25.0296016666667","6500100","板橋區"
"226004","205-ST","2018/07/20 19:09:20","新北市平溪區十分里十分街114號","121.776893333333","25.043085","6502400","平溪區"
"235052","251-BX","2018/07/20 19:09:12","新北市中和區興南路二段142巷31弄61號","121.501808333333","24.983505","6500300","中和區"
"228002","663-BX","2018/07/20 19:09:16","新北市貢寮區福隆里福隆街32-1號","121.945096666667","25.0174216666667","6502600","貢寮區"
"228001","670-TC","2018/07/20 19:09:38","新北市貢寮區真理里新港街10號","121.925525","25.0543633333333","6502600","貢寮區"
"228003","828-UM","2018/07/20 19:09:22","新北市貢寮區和美里和美街36-1號","121.91219","25.0856516666667","6502600","貢寮區"
"224010","AGQ-8101","2018/07/20 19:09:15","新北市瑞芳區基山街53號","121.845341666667","25.1086766666667","6501200","瑞芳區"
"224006","676-BX","2018/07/20 19:09:26","新北市瑞芳區中山路254號","121.799785","25.1073633333333","6501200","瑞芳區"
"224008","285-BY","2018/07/20 19:09:32","新北市瑞芳區明燈路三段259號","121.799001666667","25.1119416666667","6501200","瑞芳區"
"224009","273-VK","2018/07/20 19:09:07","新北市瑞芳區籠山路214-1號","121.850116666667","25.1259833333333","6501200","瑞芳區"
"227011","642-TC","2018/07/20 19:09:33","新北市雙溪區牡丹里中正路50號","121.86503","25.0392066666667","6502500","雙溪區"
"227003","400-TW","2018/07/20 19:09:29","新北市雙溪區平林里梅竹蹊56-4號","121.860603333333","25.0368183333333","6502500","雙溪區"
"253005","032-BX","2018/07/20 19:09:28","新北市石門區阿里荖41-1號","121.605738333333","25.28063","6502200","石門區"
"253006","295-VK","2018/07/20 19:09:37","新北市石門區崁子腳46-1號","121.533446666667","25.2887133333333","6502200","石門區"
"222001","KEA-2212","2018/07/20 19:09:28","新北市深坑區北深路一段300號","121.624203333333","25.0057216666667","6501800","深坑區"
"208002","KEA-2872","2018/07/20 19:09:27","新北市金山區中華路112巷13號","121.633921666667","25.2208216666667","6502700","金山區"
"208003","665-BX","2018/07/20 19:09:19","新北市金山區中正路135號","121.632433333333","25.2215216666667","6502700","金山區"
"208001","761-BX","2018/07/20 19:09:37","新北市金山區金包里街68號","121.639108333333","25.221515","6502700","金山區"
"251004","009-UM","2018/07/20 19:09:20","新北市淡水區中正東路二段143巷2弄1號","121.460565","25.1473066666667","6501000","淡水區"
"251005","010-UM","2018/07/20 19:09:36","新北市淡水區原德路13號","121.442148333333","25.1713566666667","6501000","淡水區"
"251002","012-UM","2018/07/20 19:09:36","新北市淡水區中山路95巷2號","121.442135","25.1705083333333","6501000","淡水區"
"251010","413-VK","2018/07/20 19:09:20","新北市淡水區中正路一段156巷3號","121.4211","25.1802733333333","6501000","淡水區"
"251008","442-VK","2018/07/20 19:09:22","新北市淡水區新市二路四段130號","121.44388","25.1923566666667","6501000","淡水區"
"251001","559-UM","2018/07/20 19:09:21","新北市淡水區自強路201巷43號","121.462071666667","25.1268666666667","6501000","淡水區"
"251009","575-R6","2018/07/20 19:09:16","新北市淡水區清水街99-1號","121.440701666667","25.1706966666667","6501000","淡水區"
"251007","577-R6","2018/07/20 19:09:30","新北市淡水區民生路145巷58號","121.468016666667","25.1387666666667","6501000","淡水區"
"251003","673-BX","2018/07/20 19:09:34","新北市淡水區中山北路一段76號","121.442103333333","25.1759433333333","6501000","淡水區"
"207003","550-UM","2018/07/20 19:09:34","新北市萬里區大鵬里萬里加投14號","121.650398333333","25.2092166666667","6502800","萬里區"
"207004","225-TW","2018/07/20 19:09:19","新北市萬里區萬里里瑪鋉路112-1號","121.691153333333","25.178585","6502800","萬里區"
"252002","178-VK","2018/07/20 19:09:21","新北市三芝區埔坪里埔頭坑77號","121.509416666667","25.25443","6502100","三芝區"
"252003","249-BX","2018/07/20 19:09:34","新北市三芝區錫板里南勢崗6號","121.479543333333","25.26198","6502100","三芝區"
"252001","292-VK","2018/07/20 19:09:35","新北市三芝區長勤街48號","121.500413333333","25.2553683333333","6502100","三芝區"
"237004","KEA-2597","2018/07/20 19:09:20","新北市三峽區有木205-1號","121.439056666667","24.8516083333333","6500900","三峽區"
"237007","153-BY","2018/07/20 19:09:22","新北市三峽區中正路二段42巷84號","121.364321666667","24.9205583333333","6500900","三峽區"
"237009","210-TH","2018/07/20 19:09:35","新北市三峽區文化路164號","121.369941666667","24.936085","6500900","三峽區"
"237013","252-BX","2018/07/20 19:09:23","新北市三峽區光明路69巷25號","121.376676666667","24.92915","6500900","三峽區"
"237012","275-BY","2018/07/20 19:09:22","新北市三峽區三樹路222巷236弄8-3號","121.391391666667","24.943015","6500900","三峽區"
"237008","302-VK","2018/07/20 19:09:21","新北市三峽區光明路106巷32號","121.375823333333","24.9271033333333","6500900","三峽區"
"237014","433-BY","2018/07/20 19:09:38","新北市三峽區復興路485號","121.361375","24.938485","6500900","三峽區"
"237006","5529-G3","2018/07/20 19:09:30","新北市三峽區永安街79-1號","121.375295","24.9294083333333","6500900","三峽區"
"237011","KEA-2596","2018/07/20 19:09:21","新北市三峽區中正路一段154號","121.373098333333","24.9288316666667","6500900","三峽區"
"237015","649-BX","2018/07/20 19:09:31","新北市三峽區建安86-2號","121.45337","24.9211916666667","6500900","三峽區"
"237010","706-TV","2018/07/20 19:09:26","新北市三峽區復興路174巷2號","121.370528333333","24.9385016666667","6500900","三峽區"
"237005","AKY-6261","2018/07/20 19:09:38","新北市三峽區中山路459巷163-3號","121.348631666667","24.9328966666667","6500900","三峽區"
"236069","105-UM","2018/07/20 19:09:29","新北市土城區裕生路84巷2號","121.447313333333","24.98539","6501300","土城區"
"236079","166-UM","2018/07/20 19:09:23","新北市土城區龍泉路36-1號","121.41186","24.9463316666667","6501300","土城區"
"236026","269-VK","2018/07/20 19:09:36","新北市土城區中正路69號","121.444638333333","24.9756833333333","6501300","土城區"
"236014","270-VK","2018/07/20 19:09:31","新北市土城區學府路一段115巷5號","121.456308333333","24.9875316666667","6501300","土城區"
"236020","401-BY","2018/07/20 19:09:17","新北市土城區明峰街83號","121.468935","24.9873116666667","6501300","土城區"
"236059","912-UM","2018/07/20 19:09:23","新北市土城區金城路一段131號","121.444833333333","24.9736833333333","6501300","土城區"
"236048","913-UM","2018/07/20 19:09:31","新北市土城區明德路一段365-1號","121.453641666667","24.97906","6501300","土城區"
"236055","AAC-216","2018/07/20 19:09:26","新北市土城區學府路一段276號","121.450078333333","24.9832016666667","6501300","土城區"
"242046","497-BY","2018/07/20 19:09:21","新北市板橋區金門街215巷81弄8號","121.434901666667","24.9890616666667","6500500","新莊區"
"242002","349-TH","2018/07/20 19:09:31","新北市新莊區三和路12-21號","121.441781666667","25.0379583333333","6500500","新莊區"
"238015","755-BX","2018/07/20 19:09:27","新北市樹林區光明街6號","121.410926666667","24.9890116666667","6500700","樹林區"
"238023","601-UM","2018/07/20 19:09:27","新北市樹林區三興路50號","121.394516666667","25.0143933333333","6500700","樹林區"
"238019","599-UM","2018/07/20 19:09:23","新北市樹林區東榮街106號","121.415561666667","24.9823466666667","6500700","樹林區"
"238024","5061-A6","2018/07/20 19:09:33","新北市樹林區福德街18號","121.400948333333","24.9760616666667","6500700","樹林區"
"238022","KEA-2213","2018/07/20 19:09:37","新北市樹林區中山路二段151巷8弄45號","121.405831666667","24.9773733333333","6500700","樹林區"
"238021","KEA-2539","2018/07/20 19:09:30","新北市樹林區柑園街二段386巷2號","121.367786666667","24.9490266666667","6500700","樹林區"
"238025","303-VK","2018/07/20 19:09:19","新北市樹林區中山路三段80號","121.393445","24.9722983333333","6500700","樹林區"
"238017","283-BY","2018/07/20 19:09:20","新北市樹林區光興街180號","121.407451666667","25.0045816666667","6500700","樹林區"
"238014","282-BY","2018/07/20 19:09:25","新北市樹林區中正路22-1號","121.427716666667","24.9994033333333","6500700","樹林區"
"238020","268-VK","2018/07/20 19:09:30","新北市樹林區俊英街135號","121.424395","25.0114483333333","6500700","樹林區"
"238026","172-UY","2018/07/20 19:09:32","新北市樹林區佳園路二段86巷82號","121.390333333333","24.9588466666667","6500700","樹林區"
"239007","AAC-297","2018/07/20 19:09:36","新北市鶯歌區西湖街53巷30-1號","121.341931666667","24.9610883333333","6500800","鶯歌區"
"239006","891-R6","2018/07/20 19:09:23","新北市鶯歌區鶯桃路67巷3號","121.340943333333","24.952575","6500800","鶯歌區"
"239008","527-UM","2018/07/20 19:09:34","新北市鶯歌區大湖路560號","121.336921666667","24.9732833333333","6500800","鶯歌區"
"239005","526-UM","2018/07/20 19:09:36","新北市鶯歌區東湖路10號","121.35166","24.9721216666667","6500800","鶯歌區"
"239001","417-VK","2018/07/20 19:09:24","新北市鶯歌區永智街100號","121.33687","24.9535","6500800","鶯歌區"
"239003","360-BY","2018/07/20 19:09:30","新北市鶯歌區八德路7-2號","121.336331666667","24.9502466666667","6500800","鶯歌區"
"239002","359-BY","2018/07/20 19:09:24","新北市鶯歌區湖山路58巷2號","121.339561666667","24.9757733333333","6500800","鶯歌區"
"239004","193-VK","2018/07/20 19:09:25","新北市鶯歌區中正三路鄭厝巷16-9號","121.333408333333","24.9340533333333","6500800","鶯歌區"
"221008","489-VK","2018/07/20 19:09:29","新北市汐止區康寧街426號","121.630685","25.0680416666667","6501100","汐止區"
"221036","130-UY","2018/07/20 19:09:27","新北市汐止區汐萬路一段256巷3號","121.652938333333","25.0743733333333","6501100","汐止區"
"221015","131-UY","2018/07/20 19:09:36","新北市汐止區康寧街901號","121.651658333333","25.0749433333333","6501100","汐止區"
"221010","269-BY","2018/07/20 19:09:25","新北市汐止區康寧街901號","121.651395","25.0750366666667","6501100","汐止區"
"221012","278-VK","2018/07/20 19:09:21","新北市汐止區康寧街901號","121.650831666667","25.0752133333333","6501100","汐止區"
"221023","279-VK","2018/07/20 19:09:22","新北市汐止區康寧街901號","121.65097","25.0752116666667","6501100","汐止區"
"221027","281-BY","2018/07/20 19:09:31","新北市汐止區康寧街901號","121.65147","25.07498","6501100","汐止區"
"221033","297-VK","2018/07/20 19:09:23","新北市汐止區南勢街1巷1號","121.627036666667","25.0374283333333","6501100","汐止區"
"221029","298-VK","2018/07/20 19:09:25","新北市汐止區汐萬路一段256巷3號","121.653093333333","25.07445","6501100","汐止區"
"221021","299-VK","2018/07/20 19:09:28","新北市汐止區康寧街901號","121.651551666667","25.07502","6501100","汐止區"
"221031","353-TW","2018/07/20 19:09:26","新北市汐止區福德三路75號","121.636388333333","25.0691716666667","6501100","汐止區"
"221025","623-UM","2018/07/20 19:09:25","新北市汐止區康寧街901號","121.651553333333","25.07494","6501100","汐止區"
"221038","646-BX","2018/07/20 19:09:26","新北市汐止區汐萬路一段312號","121.650651666667","25.0752666666667","6501100","汐止區"
"221002","707-TV","2018/07/20 19:09:18","台北市南港區南港路一段28號","121.618735","25.054875","6501100","汐止區"
"221018","753-BX","2018/07/20 19:09:36","新北市汐止區康寧街901號","121.651573333333","25.0749733333333","6501100","汐止區"
"220080","200-UY","2018/07/20 19:09:29","新北市板橋區大觀路二段1巷20號","121.449113333333","25.0037866666667","6500100","板橋區"
"220082","610-BX","2018/07/20 19:09:29","新北市板橋區溪崑二街89號","121.427225","24.9894733333333","6500100","板橋區"
"220101","245-BX","2018/07/20 19:09:33","新北市板橋區民生路二段161巷1號","121.469808333333","25.0199183333333","6500100","板橋區"
"220091","267-BY","2018/07/20 19:09:32","新北市板橋區縣民大道247巷41號","121.482095","25.02696","6500100","板橋區"
"220056","276-BY","2018/07/20 19:09:24","新北市板橋區信義路74巷1弄11號","121.457503333333","24.9928533333333","6500100","板橋區"
"220072","277-BY","2018/07/20 19:09:35","新北市板橋區金門街280巷12號","121.429118333333","24.986285","6500100","板橋區"
"220071","283-VK","2018/07/20 19:09:23","新北市板橋區重慶路353巷3號","121.464516666667","24.9979466666667","6500100","板橋區"
"220094","285-UM","2018/07/20 19:09:30","新北市板橋區光武街151號","121.46556","25.0294783333333","6500100","板橋區"
"220053","285-VK","2018/07/20 19:09:36","新北市板橋區懷仁街14巷18號","121.475513333333","25.0198","6500100","板橋區"
"220083","286-VK","2018/07/20 19:09:32","新北市板橋區大觀路二段174巷173弄4號","121.441695","25.0037383333333","6500100","板橋區"
"220081","287-VK","2018/07/20 19:09:32","新北市板橋區南雅西路二段156巷53號","121.452386666667","25.01273","6500100","板橋區"
"220090","288-VK","2018/07/20 19:09:34","新北市板橋區裕民街43號","121.46149","25.0286616666667","6500100","板橋區"
"220061","293-UM","2018/07/20 19:09:34","新北市板橋區三民路二段28號","121.479248333333","25.0181233333333","6500100","板橋區"
"220062","295-UM","2018/07/20 19:09:27","新北市板橋區三民路二段245巷4弄2號","121.480943333333","25.0122616666667","6500100","板橋區"
"220084","296-UM","2018/07/20 19:09:19","新北市板橋區溪崑二街56巷20號","121.427891666667","24.9911833333333","6500100","板橋區"
"242032","281-VK","2018/07/20 19:09:31","新北市新莊區三和路12-17號","121.441813333333","25.0375516666667","6500500","新莊區"
"220075","303-R5","2018/07/20 19:09:34","新北市板橋區南雅南路一段73號","121.455798333333","25.0056133333333","6500100","板橋區"
"220092","307-R5","2018/07/20 19:09:28","新北市板橋區文化路二段225巷1號","121.470868333333","25.0281183333333","6500100","板橋區"
"220098","317-R6","2018/07/20 19:09:26","新北市板橋區自由路51巷14弄3號","121.464765","25.0236116666667","6500100","板橋區"
"220064","486-VK","2018/07/20 19:09:25","新北市板橋區板新路77號","121.473535","25.0136816666667","6500100","板橋區"
"220088","491-VK","2018/07/20 19:09:34","新北市板橋區文化路二段262號","121.47167","25.0284116666667","6500100","板橋區"
"220035","560-BX","2018/07/20 19:09:31","新北市板橋區中正路326巷13號","121.455191666667","25.0222466666667","6500100","板橋區"
"220103","561-BX","2018/07/20 19:09:21","新北市板橋區文化路一段188巷7弄43號","121.468296666667","25.019525","6500100","板橋區"
"220063","609-BX","2018/07/20 19:09:31","新北市板橋區三民路二段144號","121.47911","25.0154516666667","6500100","板橋區"
"220079","630-UY","2018/07/20 19:09:32","新北市板橋區民權路202巷7弄2-5號","121.46014","25.01505","6500100","板橋區"
"220057","686-BX","2018/07/20 19:09:35","新北市板橋區重慶路305號","121.463795","24.998865","6500100","板橋區"
"220077","687-BX","2018/07/20 19:09:35","新北市板橋區大觀路一段28巷10號","121.449998333333","25.0088616666667","6500100","板橋區"
"220093","689-BX","2018/07/20 19:09:27","新北市板橋區民生路三段177號","121.465585","25.0272816666667","6500100","板橋區"
"220054","741-BX","2018/07/20 19:09:19","新北市板橋區重慶路64號","121.461618333333","25.0067933333333","6500100","板橋區"
"220102","KEA-2699","2018/07/20 19:09:33","新北市板橋區田單街51號","121.482636666667","25.027925","6500100","板橋區"
"220055","827-TW","2018/07/20 19:09:27","新北市板橋區新民街4巷8號","121.464586666667","25.0100616666667","6500100","板橋區"
"220067","829-TW","2018/07/20 19:09:30","新北市板橋區長安街222-2號","121.474983333333","25.0122233333333","6500100","板橋區"
"220068","830-TW","2018/07/20 19:09:35","新北市板橋區中山路二段443巷72號","121.480976666667","25.0221183333333","6500100","板橋區"
"220096","831-TW","2018/07/20 19:09:34","新北市板橋區雙十路二段33巷22號","121.475963333333","25.0253433333333","6500100","板橋區"
"220089","833-TW","2018/07/20 19:09:35","新北市板橋區文化路二段389號","121.473418333333","25.03142","6500100","板橋區"
"220074","895-R6","2018/07/20 19:09:29","新北市板橋區中正路自強新村56號","121.454798333333","25.01357","6500100","板橋區"
"220073","985-R7","2018/07/20 19:09:26","新北市板橋區新生街89巷4號","121.458146666667","25.0221933333333","6500100","板橋區"
"220097","AAC-210","2018/07/20 19:09:27","新北市板橋區英士路199號","121.45864","25.023455","6500100","板橋區"
"220070","AAC-253","2018/07/20 19:09:30","新北市板橋區忠孝路42號","121.460488333333","25.001885","6500100","板橋區"
"235068","KEA-2873","2018/07/20 19:09:36","新北市中和區連勝街38巷16號","121.49783","24.9978833333333","6500300","中和區"
"235061","KEA-2875","2018/07/20 19:09:10","新北市中和區中山路三段61號","121.476638333333","25.0057033333333","6500300","中和區"
