"lineid","car","time","location","longitude","latitude","cityid","cityname"
"234046","148-BY","2018/07/20 19:29:34","新北市永和區秀朗路二段222號","121.526286666667","24.9997583333333","6500400","永和區"
"234007","207-UY","2018/07/20 19:29:39","新北市永和區永和路一段118號","121.513961666667","25.0077616666667","6500400","永和區"
"234081","298-R6","2018/07/20 19:29:35","新北市永和區林森路10巷8號","121.526083333333","25.0061083333333","6500400","永和區"
"234038","336-UY","2018/07/20 19:29:31","新北市永和區民樂街41巷1號","121.527513333333","25.0001383333333","6500400","永和區"
"234064","337-UY","2018/07/20 19:29:31","新北市永和區得和路243巷28弄1號","121.52091","25.0013633333333","6500400","永和區"
"234086","338-UY","2018/07/20 19:29:18","新北市永和區林森路75號","121.52401","25.0040033333333","6500400","永和區"
"234070","552-UM","2018/07/20 19:29:29","新北市永和區警光街14號","121.519653333333","25.0095466666667","6500400","永和區"
"234067","553-UM","2018/07/20 19:29:23","新北市永和區永貞路364號","121.510123333333","25.006675","6500400","永和區"
"234017","745-BX","2018/07/20 19:29:24","新北市永和區環河西路一段79號","121.513138333333","25.0180733333333","6500400","永和區"
"234030","746-BX","2018/07/20 19:29:32","新北市永和區民生路61號","121.522668333333","24.9974616666667","6500400","永和區"
"234054","KEA-2590","2018/07/20 19:29:25","新北市永和區復興街19巷9號","121.516101666667","25.013155","6500400","永和區"
"234013","KEA-2591","2018/07/20 19:29:23","新北市永和區中山路一段184巷9弄19號","121.50826","25.0089933333333","6500400","永和區"
"234061","AAD-866","2018/07/20 19:29:38","新北市永和區永貞路147巷1號","121.516173333333","25.004015","6500400","永和區"
"234042","862-TW","2018/07/20 19:29:38","新北市永和區水源街39巷11號","121.510571666667","25.003775","6500400","永和區"
"234050","863-TW","2018/07/20 19:29:19","新北市永和區仁愛路137號","121.51162","25.01292","6500400","永和區"
"234026","9371-KE","2018/07/20 19:29:36","新北市中和區安樂路245號","121.51415","24.9995716666667","6500400","永和區"
"234011","9373-KE","2018/07/20 19:29:35","新北市永和區保福路二段85號","121.510716666667","25.0125966666667","6500400","永和區"
"249003","593-UM","2018/07/20 19:29:24","新北市八里區商港六路23號","121.396645","25.1485466666667","6502300","八里區"
"248014","025-BX","2018/07/20 19:29:24","新北市五股區民義路一段183巷8-3號","121.429893333333","25.0867916666667","6501500","五股區"
"248008","095-VK","2018/07/20 19:29:23","新北市五股區中興路一段95巷3號","121.466655","25.0726666666667","6501500","五股區"
"248019","225-UY","2018/07/20 19:27:51","新北市五股區壟路16號","121.41537","25.0856033333333","6501500","五股區"
"248012","247-BX","2018/07/20 19:29:21","新北市五股區成泰路二段97號","121.437913333333","25.084315","6501500","五股區"
"248010","272-BY","2018/07/20 19:29:18","新北市五股區自強路90巷72號","121.430885","25.0713083333333","6501500","五股區"
"248002","655-BX","2018/07/20 19:29:28","新北市五股區凌雲路一段158巷6號","121.447793333333","25.1030283333333","6501500","五股區"
"248004","677-BX","2018/07/20 19:29:23","新北市五股區工商路161號","121.434666666667","25.0866716666667","6501500","五股區"
"234023","9380-KE","2018/07/20 19:29:28","新北市永和區竹林路91巷47弄1號","121.521208333333","25.0128933333333","6500400","永和區"
"234077","969-R7","2018/07/20 19:29:36","新北市永和區民族街43巷10號","121.519045","24.9983833333333","6500400","永和區"
"234074","AAC-211","2018/07/20 19:29:34","新北市永和區環河東路二段10號","121.522228333333","25.0132316666667","6500400","永和區"
"234003","AAC-295","2018/07/20 19:29:26","新北市永和區福和路353號","121.5145","25.0073083333333","6500400","永和區"
"244019","403-UM","2018/07/20 19:29:38","新北市林口區嘉溪雅坑6號","121.341843333333","25.104355","6501700","林口區"
"244017","485-VK","2018/07/20 19:29:22","新北市林口區湖南里70-9號","121.375913333333","25.0896916666667","6501700","林口區"
"243013","AAD-798","2018/07/20 19:29:28","新北市泰山區貴子路36巷5弄1號","121.425941666667","25.0410633333333","6501600","泰山區"
"243009","297-R6","2018/07/20 19:29:21","新北市泰山區半山雅3號","121.431315","25.0674783333333","6501600","泰山區"
"243016","380-SR","2018/07/20 19:29:29","新北市泰山區工專路20號","121.423656666667","25.0397416666667","6501600","泰山區"
"243015","421-VK","2018/07/20 19:29:36","新北市泰山區民權街28號","121.428656666667","25.0506516666667","6501600","泰山區"
"243011","KEA-2215","2018/07/20 19:29:23","新北市泰山區貴子路120號","121.428233333333","25.0406683333333","6501600","泰山區"
"243010","KEA-2216","2018/07/20 19:29:28","新北市泰山區民生路17巷59號","121.429321666667","25.05109","6501600","泰山區"
"243012","646-TV","2018/07/20 19:29:37","新北市泰山區明志路一段501巷19號","121.431343333333","25.05457","6501600","泰山區"
"243014","680-BX","2018/07/20 19:29:33","新北市泰山區仁義路220巷53號","121.43224","25.0526633333333","6501600","泰山區"
"222003","436-BY","2018/07/20 19:28:14","新北市深坑區深南路51-1號","121.621258333333","25.0097833333333","6501800","深坑區"
"222002","659-BX","2018/07/20 19:29:23","新北市深坑區北深路一段177號","121.632543333333","25.0108733333333","6501800","深坑區"
"231041","002-UM","2018/07/20 19:29:33","新北市新店區中正路547號","121.533778333333","24.9877633333333","6500600","新店區"
"231059","046-UY","2018/07/20 19:29:34","新北市新店區安和路三段4巷1-3號","121.518221666667","24.98059","6500600","新店區"
"231040","047-UY","2018/07/20 19:29:26","新北市新店區北新路一段273號","121.54107","24.9666133333333","6500600","新店區"
"231044","106-UY","2018/07/20 19:29:35","新北市新店區中興路三段145號","121.544428333333","24.9799166666667","6500600","新店區"
"231046","107-UY","2018/07/20 19:29:34","新北市新店區光明街139號","121.539363333333","24.9620983333333","6500600","新店區"
"231048","110-UY","2018/07/20 19:29:36","新北市新店區五峰路140號","121.544866666667","24.9656416666667","6500600","新店區"
"231054","KEA-2219","2018/07/20 19:29:39","新北市新店區文中路45號","121.539573333333","24.95666","6500600","新店區"
"231057","256-BX","2018/07/20 19:29:33","新北市新店區花園一路二段15號","121.550798333333","24.9333066666667","6500600","新店區"
"231042","268-BY","2018/07/20 19:29:33","新北市新店區中興路一段24-2號","121.538538333333","24.9583833333333","6500600","新店區"
"231051","278-BY","2018/07/20 19:29:36","新北市新店區中央五街61號","121.527453333333","24.9756516666667","6500600","新店區"
"231050","AAD-862","2018/07/20 19:29:27","新北市新店區竹林路167號","121.557298333333","24.9485283333333","6500600","新店區"
"231058","3713-VJ","2018/07/20 19:29:25","新北市新店區寶橋路85巷5弄3號","121.546026666667","24.9755733333333","6500600","新店區"
"231066","4716-K9","2018/07/20 19:29:27","新北市新店區安康路三段355巷15號","121.48484","24.950425","6500600","新店區"
"231067","4772-VM","2018/07/20 19:29:29","新北市新店區安光路1號","121.514045","24.963585","6500600","新店區"
"231065","512-UM","2018/07/20 19:29:35","新北市新店區安祥路109巷1弄17號","121.476166666667","24.959865","6500600","新店區"
"231049","513-UM","2018/07/20 19:29:35","新北市新店區北新路三段65巷34弄15號","121.539983333333","24.9815716666667","6500600","新店區"
"231063","616-UM","2018/07/20 19:29:35","新北市新店區達觀路16-7號","121.502215","24.9408266666667","6500600","新店區"
"231045","617-UM","2018/07/20 19:29:21","新北市新店區北宜路二段209號","121.553191666667","24.9533016666667","6500600","新店區"
"231061","619-UM","2018/07/20 19:29:21","新北市新店區安康路一段222-1號","121.522913333333","24.9637666666667","6500600","新店區"
"231064","719-UM","2018/07/20 19:29:32","新北市新店區安康路二段85號","121.513553333333","24.9626866666667","6500600","新店區"
"231053","719-UY","2018/07/20 19:29:26","新北市新店區廣興路22號","121.545968333333","24.9128833333333","6500600","新店區"
"231062","720-UM","2018/07/20 19:29:30","新北市新店區安康路一段133號","121.527925","24.961915","6500600","新店區"
"231060","897-TW","2018/07/20 19:29:24","新北市新店區安康路二段61號","121.514056666667","24.9631933333333","6500600","新店區"
"231043","899-TW","2018/07/20 19:29:33","新北市新店區北新路二段200號","121.543015","24.9768433333333","6500600","新店區"
"231055","AKT-0513","2018/07/20 19:29:27","新北市新店區中華路83巷55號","121.5385","24.9675783333333","6500600","新店區"
"241028","022-UY","2018/07/20 19:29:38","新北市三重區中寮街70號","121.493073333333","25.0582733333333","6500200","三重區"
"241008","059-VK","2018/07/20 19:29:19","新北市三重區永福街135巷36號","121.477373333333","25.0771716666667","6500200","三重區"
"241022","060-VK","2018/07/20 19:29:25","新北市三重區三民街157巷1號","121.483931666667","25.0645016666667","6500200","三重區"
"241031","061-VK","2018/07/20 19:29:16","新北市三重區集美街100號","121.488556666667","25.0541716666667","6500200","三重區"
"241017","063-VK","2018/07/20 19:29:25","新北市三重區中正北路25巷25弄1號","121.493176666667","25.062575","6500200","三重區"
"241026","066-VK","2018/07/20 19:29:23","新北市三重區文化南路47巷37號","121.499248333333","25.0611233333333","6500200","三重區"
"241009","267-UM","2018/07/20 19:29:20","新北市三重區溪尾街242巷64號","121.48625","25.0813816666667","6500200","三重區"
"241032","269-UM","2018/07/20 19:29:30","新北市三重區三陽路25號","121.485525","25.0588216666667","6500200","三重區"
"241025","271-UM","2018/07/20 19:29:29","新北市三重區頂崁街210巷28弄9號","121.475805","25.067195","6500200","三重區"
"241035","462-BY","2018/07/20 19:29:09","新北市三重區信義西街1巷3號","121.498051666667","25.065055","6500200","三重區"
"241020","478-VK","2018/07/20 19:29:37","新北市三重區大智街256號","121.489176666667","25.073345","6500200","三重區"
"241030","480-VK","2018/07/20 19:29:32","新北市三重區成功路41巷10號","121.49023","25.0515533333333","6500200","三重區"
"241006","AAD-863","2018/07/20 19:29:22","新北市三重區國道路一段1號","121.486566666667","25.073415","6500200","三重區"
"241029","942-UM","2018/07/20 19:29:30","新北市三重區中正南路216號","121.493731666667","25.0551983333333","6500200","三重區"
"235066","003-UY","2018/07/20 19:29:22","新北市中和區景新街48號","121.503783333333","24.999095","6500300","中和區"
"235064","005-UY","2018/07/20 19:29:34","新北市中和區南山路24號","121.501973333333","24.998175","6500300","中和區"
"235063","006-UY","2018/07/20 19:29:18","新北市中和區連城路164號","121.494071666667","24.9977133333333","6500300","中和區"
"235056","096-UM","2018/07/20 19:29:21","新北市中和區民富街19號","121.4765","25.007525","6500300","中和區"
"235039","097-UM","2018/07/20 19:29:26","新北市中和區秀峰街103巷6弄2號","121.520358333333","24.9898433333333","6500300","中和區"
"235065","098-UM","2018/07/20 19:29:24","新北市中和區莊敬路10號","121.499668333333","25.0042516666667","6500300","中和區"
"235040","150-BY","2018/07/20 19:29:25","新北市中和區保健路42-3號","121.509421666667","24.9971966666667","6500300","中和區"
"235058","151-BY","2018/07/20 19:29:30","新北市中和區連城路467-6號","121.483586666667","24.99594","6500300","中和區"
"235055","183-VK","2018/07/20 19:29:32","新北市中和區國光街102巷29號","121.471375","25.000705","6500300","中和區"
"235038","185-VK","2018/07/20 19:29:32","新北市中和區自立路119號","121.52194","24.994395","6500300","中和區"
"235049","186-VK","2018/07/20 19:29:26","新北市中和區景新街295巷29號","121.511168333333","24.9934783333333","6500300","中和區"
"235067","255-BX","2018/07/20 19:29:32","新北市中和區連城路475號","121.483215","24.995855","6500300","中和區"
"235044","293-VK","2018/07/20 19:29:22","新北市中和區復興路259號","121.50303","24.9903066666667","6500300","中和區"
"235072","301-VK","2018/07/20 19:29:18","新北市中和區連城路263巷4弄6號","121.491606666667","24.9955783333333","6500300","中和區"
"235043","352-BY","2018/07/20 19:29:34","新北市中和區南山路179號","121.50271","24.9952083333333","6500300","中和區"
"235042","KEA-2878","2018/07/20 19:29:37","新北市中和區中和路262巷45號","121.509991666667","24.9997633333333","6500300","中和區"
"235050","4979-A6","2018/07/20 19:29:26","新北市中和區中正路395號","121.489291666667","24.9938383333333","6500300","中和區"
"235070","558-UM","2018/07/20 19:29:30","新北市中和區景平路634-18號","121.498103333333","25.00009","6500300","中和區"
"235045","565-BX","2018/07/20 19:29:25","新北市中和區景新街399巷8號","121.513008333333","24.9898683333333","6500300","中和區"
"235054","640-BX","2018/07/20 19:29:19","新北市中和區國光街112巷20弄5號","121.470618333333","25.0018966666667","6500300","中和區"
"235060","647-TV","2018/07/20 19:29:35","新北市中和區員山路266巷15號","121.481923333333","25.00185","6500300","中和區"
"235047","732-UM","2018/07/20 19:29:30","新北市中和區景平路241巷64弄8號","121.507661666667","24.9925166666667","6500300","中和區"
"235046","733-UM","2018/07/20 19:29:20","新北市中和區忠孝街37巷22號","121.510858333333","24.9842016666667","6500300","中和區"
"235071","783-BX","2018/07/20 19:29:36","新北市中和區連城路469巷21弄3號","121.484023333333","24.9951216666667","6500300","中和區"
"235041","802-TS","2018/07/20 19:29:19","新北市中和區中和路350巷12號","121.510901666667","25.0003033333333","6500300","中和區"
"235048","896-TW","2018/07/20 19:29:28","新北市中和區忠孝街113巷1號","121.51246","24.987365","6500300","中和區"
"235053","900-TW","2018/07/20 19:29:20","新北市中和區華順街2巷3號","121.467426666667","24.9991716666667","6500300","中和區"
"235057","911-UM","2018/07/20 19:29:19","新北市中和區中山路三段37巷41號","121.479681666667","25.0045066666667","6500300","中和區"
"235051","157-BY","2018/07/20 19:29:37","新北市中和區景新街134號","121.505203333333","24.9979483333333","6500300","中和區"
"235037","AAC-213","2018/07/20 19:29:37","新北市中和區秀朗路三段10巷21弄2號","121.525251666667","24.99645","6500300","中和區"
"235059","AAC-215","2018/07/20 19:29:35","新北市中和區圓通路252巷29弄15號","121.492561666667","24.9919366666667","6500300","中和區"
"220065","072-UY","2018/07/20 19:29:39","新北市板橋區國泰街111巷15號","121.466143333333","25.00604","6500100","板橋區"
"220086","073-UY","2018/07/20 19:29:36","新北市板橋區中正路216巷115號","121.459515","25.01944","6500100","板橋區"
"220069","AAD-861","2018/07/20 19:29:32","新北市板橋區稚暉街33號","121.457005","25.004155","6500100","板橋區"
"220106","120-SR","2018/07/20 19:29:21","新北市板橋區文化路二段417巷9號","121.473621666667","25.0337866666667","6500100","板橋區"
"226004","205-ST","2018/07/20 19:29:20","新北市平溪區十分里十分街114號","121.776833333333","25.0430416666667","6502400","平溪區"
"235052","251-BX","2018/07/20 19:29:21","新北市中和區華新街143巷67弄33號","121.507508333333","24.9792766666667","6500300","中和區"
"228001","670-TC","2018/07/20 19:29:18","新北市貢寮區真理里延平街68-1號","121.925376666667","25.0574433333333","6502600","貢寮區"
"228003","828-UM","2018/07/20 19:29:22","新北市貢寮區和美里和美街22-1號","121.912805","25.082615","6502600","貢寮區"
"224010","AGQ-8101","2018/07/20 19:29:15","新北市瑞芳區基山街139號","121.844031666667","25.108305","6501200","瑞芳區"
"224002","639-TC","2018/07/20 19:29:21","新北市瑞芳區三爪子坑路13巷67號","121.814315","25.10646","6501200","瑞芳區"
"227011","642-TC","2018/07/20 19:29:33","新北市雙溪區新基里新基北街43號","121.868165","25.03976","6502500","雙溪區"
"227003","400-TW","2018/07/20 19:29:20","新北市雙溪區雙溪里光復街3號","121.865101666667","25.0355233333333","6502500","雙溪區"
"253005","032-BX","2018/07/20 19:29:28","新北市石門區小坑9號","121.594298333333","25.2886533333333","6502200","石門區"
"222001","KEA-2212","2018/07/20 19:29:28","新北市深坑區深坑街10號","121.61596","25.0027383333333","6501800","深坑區"
"208002","KEA-2872","2018/07/20 19:29:27","新北市金山區仁愛路83號","121.634666666667","25.2213666666667","6502700","金山區"
"208003","665-BX","2018/07/20 19:29:38","新北市金山區中山路263巷10號","121.63634","25.22163","6502700","金山區"
"208001","761-BX","2018/07/20 19:29:37","新北市金山區中正路57號","121.63429","25.2218983333333","6502700","金山區"
"251004","009-UM","2018/07/20 19:29:40","新北市淡水區中正東路二段145號","121.460406666667","25.1472666666667","6501000","淡水區"
"251005","010-UM","2018/07/20 19:29:36","新北市淡水區水源街一段53巷12號","121.444088333333","25.172885","6501000","淡水區"
"251010","413-VK","2018/07/20 19:29:40","新北市淡水區中正路二段142號","121.422026666667","25.1874816666667","6501000","淡水區"
"251012","441-VK","2018/07/20 19:29:22","新北市淡水區崁頂128號","121.432246666667","25.2048866666667","6501000","淡水區"
"251008","442-VK","2018/07/20 19:29:37","新北市淡水區中正路一段87巷1號","121.421921666667","25.17918","6501000","淡水區"
"251001","559-UM","2018/07/20 19:29:25","新北市淡水區民權路155號","121.459973333333","25.1361666666667","6501000","淡水區"
"251006","561-UM","2018/07/20 19:29:34","新北市淡水區大義街40號","121.442021666667","25.1784066666667","6501000","淡水區"
"251009","575-R6","2018/07/20 19:29:36","新北市淡水區大忠街5巷9號","121.44336","25.1766","6501000","淡水區"
"251007","577-R6","2018/07/20 19:29:30","新北市淡水區坪頂路52巷36號","121.457638333333","25.1619816666667","6501000","淡水區"
"251011","650-BX","2018/07/20 19:29:18","新北市淡水區中正東路二段143巷2弄1號","121.460736666667","25.147435","6501000","淡水區"
"207003","550-UM","2018/07/20 19:29:34","新北市萬里區大鵬里萬里加投249號","121.644265","25.21554","6502800","萬里區"
"207004","225-TW","2018/07/20 19:29:39","新北市萬里區萬里里瑪鋉路123號","121.689046666667","25.1782","6502800","萬里區"
"252002","178-VK","2018/07/20 19:29:21","新北市三芝區淡金路二段18-1號","121.502661666667","25.2595333333333","6502100","三芝區"
"252001","292-VK","2018/07/20 19:29:35","新北市三芝區長勤街62-1號","121.500166666667","25.25609","6502100","三芝區"
"237004","KEA-2597","2018/07/20 19:29:20","新北市三峽區有木206號","121.439103333333","24.85161","6500900","三峽區"
"237007","153-BY","2018/07/20 19:29:25","新北市三峽區二鬮路136巷20弄83號","121.358188333333","24.9089166666667","6500900","三峽區"
"237009","210-TH","2018/07/20 19:29:35","新北市三峽區民權街99號","121.369206666667","24.932695","6500900","三峽區"
"237013","252-BX","2018/07/20 19:29:23","新北市三峽區介壽路一段322號","121.38127","24.93026","6500900","三峽區"
"237012","275-BY","2018/07/20 19:29:22","新北市三峽區民生街1巷1-7號","121.376938333333","24.9371733333333","6500900","三峽區"
"237008","302-VK","2018/07/20 19:29:21","新北市三峽區大同路132巷12號","121.373883333333","24.92736","6500900","三峽區"
"237014","433-BY","2018/07/20 19:29:18","新北市三峽區中山路67巷29號","121.36671","24.93415","6500900","三峽區"
"237006","5529-G3","2018/07/20 19:29:30","新北市三峽區中正路一段336巷15弄2號","121.369961666667","24.9249266666667","6500900","三峽區"
"237015","649-BX","2018/07/20 19:29:31","新北市三峽區成福路118號","121.422143333333","24.92954","6500900","三峽區"
"237005","AKY-6261","2018/07/20 19:29:19","新北市三峽區中山路184巷19號","121.364451666667","24.93731","6500900","三峽區"
"236069","105-UM","2018/07/20 19:29:29","新北市土城區裕民路185巷36弄10號","121.454395","24.9844983333333","6501300","土城區"
"236079","166-UM","2018/07/20 19:29:23","新北市土城區中州路22號","121.414553333333","24.9573966666667","6501300","土城區"
"236026","269-VK","2018/07/20 19:29:28","新北市土城區中央路二段61巷26號","121.443276666667","24.9785833333333","6501300","土城區"
"236020","401-BY","2018/07/20 19:29:37","新北市土城區明峰街83號","121.468906666667","24.9874266666667","6501300","土城區"
"236048","913-UM","2018/07/20 19:29:11","新北市土城區清水路203號","121.460015","24.981685","6501300","土城區"
"236055","AAC-216","2018/07/20 19:29:26","新北市土城區學府路一段276號","121.450056666667","24.98323","6501300","土城區"
"242046","497-BY","2018/07/20 19:29:21","新北市新莊區瓊林南路77-41號","121.437605","25.0122666666667","6500500","新莊區"
"242007","413-TV","2018/07/20 19:29:28","新北市新莊區新泰路357巷3弄55號","121.442476666667","25.0398383333333","6500500","新莊區"
"242023","362-BY","2018/07/20 19:29:34","新北市新莊區中港路280號","121.453073333333","25.044115","6500500","新莊區"
"242021","348-TH","2018/07/20 19:29:14","新北市新莊區中港二街33號","121.450945","25.045955","6500500","新莊區"
"242013","351-TH","2018/07/20 19:29:24","新北市新莊區新泰路486號","121.442561666667","25.0457216666667","6500500","新莊區"
"238015","755-BX","2018/07/20 19:29:27","新北市樹林區中興街24號","121.420918333333","24.9906066666667","6500700","樹林區"
"238023","601-UM","2018/07/20 19:29:40","新北市樹林區三福街164號","121.404828333333","25.0161783333333","6500700","樹林區"
"238019","599-UM","2018/07/20 19:29:36","新北市樹林區東榮街29號","121.417683333333","24.9832016666667","6500700","樹林區"
"238024","5061-A6","2018/07/20 19:25:33","新北市樹林區中山路三段155號","121.395566666667","24.9727283333333","6500700","樹林區"
"238022","KEA-2213","2018/07/20 19:29:25","新北市樹林區名園街39號","121.419656666667","24.9789083333333","6500700","樹林區"
"238021","KEA-2539","2018/07/20 19:29:30","新北市樹林區佳園路三段207號","121.385141666667","24.94698","6500700","樹林區"
"238025","303-VK","2018/07/20 19:29:19","新北市樹林區保安二街12號","121.424955","24.9940033333333","6500700","樹林區"
"238017","283-BY","2018/07/20 19:29:20","新北市樹林區保安街二段107巷1弄5號","121.415158333333","25.0008533333333","6500700","樹林區"
"238014","282-BY","2018/07/20 19:29:24","新北市樹林區保安二街66號","121.42391","24.9953133333333","6500700","樹林區"
"238020","268-VK","2018/07/20 19:29:30","新北市樹林區俊英街107號","121.42503","25.0096","6500700","樹林區"
"238026","172-UY","2018/07/20 19:29:32","新北市樹林區佳園路二段15巷9弄19號","121.394275","24.963435","6500700","樹林區"
"239006","891-R6","2018/07/20 19:29:23","新北市鶯歌區文化路299號","121.35263","24.9525933333333","6500800","鶯歌區"
"239001","417-VK","2018/07/20 19:29:29","新北市鶯歌區尖山埔路277號","121.343845","24.9497816666667","6500800","鶯歌區"
"239003","360-BY","2018/07/20 19:29:30","新北市鶯歌區中山路7號","121.352843333333","24.9570216666667","6500800","鶯歌區"
"239002","359-BY","2018/07/20 19:29:24","新北市鶯歌區大湖路18號","121.342933333333","24.9608266666667","6500800","鶯歌區"
"239004","193-VK","2018/07/20 19:29:25","新北市鶯歌區二甲路佳美巷5號","121.337336666667","24.9342916666667","6500800","鶯歌區"
"221008","489-VK","2018/07/20 19:29:29","新北市汐止區康寧街145號","121.621845","25.0666616666667","6501100","汐止區"
"221036","130-UY","2018/07/20 19:29:27","新北市汐止區汐萬路一段312號","121.650695","25.0752766666667","6501100","汐止區"
"221015","131-UY","2018/07/20 19:29:36","新北市汐止區康寧街901號","121.651646666667","25.07487","6501100","汐止區"
"221010","269-BY","2018/07/20 19:29:25","新北市汐止區連峰街5巷2號","121.646511666667","25.0770616666667","6501100","汐止區"
"221012","278-VK","2018/07/20 19:29:30","新北市汐止區大同路三段182號","121.674256666667","25.0746583333333","6501100","汐止區"
"221023","279-VK","2018/07/20 19:29:21","新北市汐止區康寧街597號","121.635475","25.070255","6501100","汐止區"
"221032","280-BY","2018/07/20 19:29:25","新北市汐止區汐萬路一段312號","121.650373333333","25.0749583333333","6501100","汐止區"
"221027","281-BY","2018/07/20 19:29:31","新北市汐止區忠孝東路9號","121.658323333333","25.0659283333333","6501100","汐止區"
"221033","297-VK","2018/07/20 19:29:23","新北市汐止區南勢街1巷1號","121.627053333333","25.0373983333333","6501100","汐止區"
"221029","298-VK","2018/07/20 19:29:25","新北市汐止區康寧街901號","121.651378333333","25.074955","6501100","汐止區"
"221021","299-VK","2018/07/20 19:29:28","新北市汐止區康寧街901號","121.651426666667","25.0750166666667","6501100","汐止區"
"221031","353-TW","2018/07/20 19:29:26","新北市汐止區康寧街901號","121.650898333333","25.0752333333333","6501100","汐止區"
"221025","623-UM","2018/07/20 19:26:13","新北市汐止區汐萬路一段39號","121.654941666667","25.069045","6501100","汐止區"
"221038","646-BX","2018/07/20 19:29:26","新北市汐止區大同路二段341-1號","121.656181666667","25.067205","6501100","汐止區"
"221002","707-TV","2018/07/20 19:29:18","新北市汐止區中興路19號","121.636998333333","25.0595116666667","6501100","汐止區"
"221018","753-BX","2018/07/20 19:29:36","新北市汐止區康寧街901號","121.651535","25.0749483333333","6501100","汐止區"
"220080","200-UY","2018/07/20 19:29:24","新北市板橋區大觀路二段37巷238號","121.4496","25.0015216666667","6500100","板橋區"
"220082","610-BX","2018/07/20 19:29:29","新北市板橋區金門街40號","121.43323","24.9936633333333","6500100","板橋區"
"220101","245-BX","2018/07/20 19:29:33","新北市板橋區縣民大道三段127巷24號","121.476913333333","25.0237616666667","6500100","板橋區"
"220091","267-BY","2018/07/20 19:29:32","新北市板橋區文聖街135巷25號","121.478991666667","25.0289683333333","6500100","板橋區"
"220056","276-BY","2018/07/20 19:29:35","新北市板橋區信義路1巷26弄40號","121.45892","24.99663","6500100","板橋區"
"220072","277-BY","2018/07/20 19:29:37","新北市板橋區金門街253巷13號","121.432755","24.9885133333333","6500100","板橋區"
"220071","283-VK","2018/07/20 19:29:23","新北市板橋區四川路一段325巷3弄5號","121.459441666667","25.0005216666667","6500100","板橋區"
"220094","285-UM","2018/07/20 19:29:10","新北市板橋區吳鳳路50巷8號","121.468798333333","25.0301866666667","6500100","板橋區"
"220053","285-VK","2018/07/20 19:29:27","新北市板橋區永豐街185號","121.476051666667","25.0207966666667","6500100","板橋區"
"220083","286-VK","2018/07/20 19:29:32","新北市板橋區大觀路二段174巷178號","121.442036666667","25.0035883333333","6500100","板橋區"
"220081","287-VK","2018/07/20 19:29:32","新北市板橋區大觀路一段28巷1弄102號","121.451871666667","25.0063583333333","6500100","板橋區"
"220090","288-VK","2018/07/20 19:29:34","新北市板橋區裕民街85號","121.460533333333","25.0281183333333","6500100","板橋區"
"220061","293-UM","2018/07/20 19:29:34","新北市板橋區民生路一段80號","121.473475","25.0156083333333","6500100","板橋區"
"220062","295-UM","2018/07/20 19:29:34","新北市板橋區三民路二段181巷1號","121.479605","25.01438","6500100","板橋區"
"220084","296-UM","2018/07/20 19:29:19","新北市板橋區滿平街84巷86號","121.42621","24.98704","6500100","板橋區"
"242032","281-VK","2018/07/20 19:29:31","新北市新莊區新泰路225巷24號","121.44525","25.0390233333333","6500500","新莊區"
"220075","303-R5","2018/07/20 19:29:33","新北市板橋區大勇街4巷17號","121.454523333333","25.0178383333333","6500100","板橋區"
"220092","307-R5","2018/07/20 19:29:28","新北市板橋區光武街4巷25號","121.468248333333","25.0259866666667","6500100","板橋區"
"220098","317-R6","2018/07/20 19:29:24","新北市板橋區民生路三段263巷2弄14號","121.463743333333","25.0297666666667","6500100","板橋區"
"220064","486-VK","2018/07/20 19:29:25","新北市板橋區中山路一段1號","121.459561666667","25.0075866666667","6500100","板橋區"
"220088","491-VK","2018/07/20 19:29:38","新北市板橋區文化路二段426號","121.474223333333","25.0319866666667","6500100","板橋區"
"220035","560-BX","2018/07/20 19:29:31","新北市板橋區中正路399巷13弄2號","121.453163333333","25.0225883333333","6500100","板橋區"
"220103","561-BX","2018/07/20 19:29:21","新北市板橋區文化路一段188巷9號","121.466456666667","25.0194666666667","6500100","板橋區"
"220063","609-BX","2018/07/20 19:29:31","新北市板橋區三民路一段31巷89弄1號","121.481625","25.0234016666667","6500100","板橋區"
"220079","630-UY","2018/07/20 19:29:20","新北市板橋區民權路202巷17弄53號","121.45888","25.0165616666667","6500100","板橋區"
"220057","686-BX","2018/07/20 19:29:33","新北市板橋區和平路100號","121.462051666667","24.99466","6500100","板橋區"
"220077","687-BX","2018/07/20 19:29:40","新北市板橋區僑中三街13號","121.446303333333","25.00452","6500100","板橋區"
"220093","689-BX","2018/07/20 19:29:27","新北市板橋區英士路51巷1號","121.460876666667","25.0245983333333","6500100","板橋區"
"220054","741-BX","2018/07/20 19:29:22","新北市板橋區忠孝路201巷1號","121.464951666667","25.002685","6500100","板橋區"
"220102","KEA-2699","2018/07/20 19:29:33","新北市板橋區雙十路二段112號","121.474545","25.028845","6500100","板橋區"
"220055","827-TW","2018/07/20 19:29:27","新北市板橋區國慶路147號","121.461396666667","24.9961433333333","6500100","板橋區"
"220067","829-TW","2018/07/20 19:29:30","新北市板橋區漢生東路299巷30號","121.47266","25.0087466666667","6500100","板橋區"
"220068","830-TW","2018/07/20 19:29:19","新北市板橋區翠華街10巷21號","121.481876666667","25.0244933333333","6500100","板橋區"
"220096","831-TW","2018/07/20 19:29:35","新北市板橋區大同街4號","121.476963333333","25.02668","6500100","板橋區"
"220089","833-TW","2018/07/20 19:29:34","新北市板橋區民權路182號","121.459418333333","25.0133466666667","6500100","板橋區"
"220074","895-R6","2018/07/20 19:29:29","新北市板橋區文化路一段11號","121.457813333333","25.0100383333333","6500100","板橋區"
"220073","985-R7","2018/07/20 19:29:26","新北市板橋區國光路67巷14號","121.458921666667","25.0186666666667","6500100","板橋區"
"220097","AAC-210","2018/07/20 19:29:27","新北市板橋區漢生西路158號","121.463285","25.0231683333333","6500100","板橋區"
"220070","AAC-253","2018/07/20 19:29:19","新北市板橋區四川路一段8號","121.459331666667","25.00681","6500100","板橋區"
"235068","KEA-2873","2018/07/20 19:29:36","新北市中和區景平路493巷5號","121.49966","24.9974383333333","6500300","中和區"
"235061","KEA-2875","2018/07/20 19:29:10","新北市中和區連城路446號","121.479635","24.9947966666667","6500300","中和區"
