"lineid","car","time","location","longitude","latitude","cityid","cityname"
"234046","148-BY","2018/07/20 19:39:32","新北市永和區永利路121號","121.524106666667","25.0026483333333","6500400","永和區"
"234007","207-UY","2018/07/20 19:39:19","新北市中和區中和路408號","121.511426666667","25.00297","6500400","永和區"
"234081","298-R6","2018/07/20 19:39:35","新北市永和區國中路104巷8弄18號","121.525238333333","25.00643","6500400","永和區"
"234038","336-UY","2018/07/20 19:39:31","新北市永和區民樂街20號","121.527605","25.001985","6500400","永和區"
"234064","337-UY","2018/07/20 19:39:34","新北市永和區秀朗路二段24巷28弄14號","121.51947","25.0019383333333","6500400","永和區"
"234086","338-UY","2018/07/20 19:39:38","新北市永和區永亨路142號","121.525073333333","25.0039266666667","6500400","永和區"
"234070","552-UM","2018/07/20 19:39:29","新北市永和區永和路二段239-1號","121.515695","25.0145883333333","6500400","永和區"
"234067","553-UM","2018/07/20 19:39:23","新北市永和區中山路一段191巷7弄7號","121.509635","25.0084383333333","6500400","永和區"
"234017","745-BX","2018/07/20 19:39:03","新北市永和區永和路二段425巷43號","121.514053333333","25.0174833333333","6500400","永和區"
"234030","746-BX","2018/07/20 19:39:26","新北市永和區民生路47巷16號","121.523843333333","24.9976866666667","6500400","永和區"
"234054","KEA-2590","2018/07/20 19:39:25","新北市永和區竹林路39巷21號","121.519008333333","25.01486","6500400","永和區"
"234013","KEA-2591","2018/07/20 19:39:23","新北市永和區仁愛路219號","121.509396666667","25.0122733333333","6500400","永和區"
"234061","AAD-866","2018/07/20 19:39:27","新北市永和區中正路456號","121.517468333333","25.0029066666667","6500400","永和區"
"234042","862-TW","2018/07/20 19:39:18","新北市永和區中和路305巷2弄1號","121.506675","25.000055","6500400","永和區"
"234050","863-TW","2018/07/20 19:39:39","新北市永和區保安路31號","121.509906666667","25.0162866666667","6500400","永和區"
"234026","9371-KE","2018/07/20 19:39:36","新北市永和區中和路501巷5號","121.51047","25.002625","6500400","永和區"
"234011","9373-KE","2018/07/20 19:39:35","新北市永和區保生路55號","121.504711666667","25.010615","6500400","永和區"
"249004","303-UY","2018/07/20 19:39:27","新北市八里區忠孝路423號","121.41473","25.1613083333333","6502300","八里區"
"249002","305-UY","2018/07/20 19:39:35","新北市八里區頂寮二街42號","121.450473333333","25.1251833333333","6502300","八里區"
"249003","593-UM","2018/07/20 19:39:24","新北市八里區華峰三街31號","121.399378333333","25.1458683333333","6502300","八里區"
"248014","025-BX","2018/07/20 19:39:24","新北市五股區五福路68巷2弄1號","121.43359","25.0904316666667","6501500","五股區"
"248016","026-BX","2018/07/20 19:39:19","新北市五股區成泰路四段88號","121.457265","25.11117","6501500","五股區"
"248008","095-VK","2018/07/20 19:39:23","新北市五股區四維路118巷10弄1號","121.468806666667","25.074315","6501500","五股區"
"248019","225-UY","2018/07/20 19:27:51","新北市五股區壟路16號","121.41537","25.0856033333333","6501500","五股區"
"248012","247-BX","2018/07/20 19:39:21","新北市五股區成泰路一段241巷12號","121.436068333333","25.0810083333333","6501500","五股區"
"248010","272-BY","2018/07/20 19:39:38","新北市五股區明德路32號","121.432471666667","25.0716166666667","6501500","五股區"
"248002","655-BX","2018/07/20 19:39:28","新北市五股區成泰路三段577巷47號","121.450716666667","25.1030966666667","6501500","五股區"
"248004","677-BX","2018/07/20 19:39:23","新北市五股區成泰路二段47號","121.43737","25.0822116666667","6501500","五股區"
"234077","969-R7","2018/07/20 19:39:36","新北市永和區民權路54號","121.52009","24.99841","6500400","永和區"
"234074","AAC-211","2018/07/20 19:39:22","新北市永和區福和路174號","121.520901666667","25.0077933333333","6500400","永和區"
"234003","AAC-295","2018/07/20 19:39:22","新北市永和區自由街53號","121.513813333333","25.00575","6500400","永和區"
"244019","403-UM","2018/07/20 19:39:18","新北市林口區太平里180號","121.366363333333","25.1345516666667","6501700","林口區"
"243013","AAD-798","2018/07/20 19:39:28","新北市泰山區應化街7號","121.42385","25.0437316666667","6501600","泰山區"
"243009","297-R6","2018/07/20 19:39:21","新北市泰山區美寧街69號","121.43096","25.0647133333333","6501600","泰山區"
"243016","380-SR","2018/07/20 19:39:29","新北市泰山區明志路三段450號","121.420835","25.0325783333333","6501600","泰山區"
"243015","421-VK","2018/07/20 19:39:36","新北市泰山區明志路二段237巷6號","121.427503333333","25.0480783333333","6501600","泰山區"
"243011","KEA-2215","2018/07/20 19:39:23","新北市三重區新北大道六段100號","121.42796","25.0382466666667","6501600","泰山區"
"243010","KEA-2216","2018/07/20 19:39:28","新北市泰山區民生路33號","121.430825","25.05218","6501600","泰山區"
"243012","646-TV","2018/07/20 19:39:37","新北市泰山區仁愛路100巷31號","121.433591666667","25.0548883333333","6501600","泰山區"
"243014","680-BX","2018/07/20 19:39:32","新北市泰山區泰林路二段33-7號","121.435201666667","25.0564683333333","6501600","泰山區"
"222003","436-BY","2018/07/20 19:28:14","新北市深坑區深南路51-1號","121.621258333333","25.0097833333333","6501800","深坑區"
"222002","659-BX","2018/07/20 19:39:22","新北市深坑區北深路一段177號","121.632421666667","25.01078","6501800","深坑區"
"231041","002-UM","2018/07/20 19:39:29","新北市新店區中正路487號","121.533903333333","24.9821316666667","6500600","新店區"
"231059","046-UY","2018/07/20 19:39:34","新北市新店區安和路三段83號","121.517845","24.98382","6500600","新店區"
"231040","047-UY","2018/07/20 19:39:26","新北市新店區中正路75巷71號","121.543113333333","24.9688483333333","6500600","新店區"
"231044","106-UY","2018/07/20 19:39:35","新北市新店區北新路三段179號","121.54098","24.9844016666667","6500600","新店區"
"231046","107-UY","2018/07/20 19:39:34","新北市新店區自由街13號","121.535541666667","24.97493","6500600","新店區"
"231048","110-UY","2018/07/20 19:39:36","新北市新店區五峰路63巷10號","121.546615","24.96859","6500600","新店區"
"231054","KEA-2219","2018/07/20 19:39:19","新北市新店區文中路45號","121.539575","24.956655","6500600","新店區"
"231057","256-BX","2018/07/20 19:39:29","新北市新店區橘園一路11號","121.548001666667","24.9340333333333","6500600","新店區"
"231042","268-BY","2018/07/20 19:39:33","新北市新店區中興路一段203號","121.543701666667","24.965875","6500600","新店區"
"231051","278-BY","2018/07/20 19:39:36","新北市新店區中央四街11號","121.529503333333","24.9739116666667","6500600","新店區"
"231050","AAD-862","2018/07/20 19:39:27","新北市新店區秀水路19號","121.55488","24.9549616666667","6500600","新店區"
"231058","3713-VJ","2018/07/20 19:39:25","新北市新店區華中街17巷2號","121.539705","24.969855","6500600","新店區"
"231066","4716-K9","2018/07/20 19:39:27","新北市新店區安康路三段207巷10號","121.487851666667","24.9510516666667","6500600","新店區"
"231067","4772-VM","2018/07/20 19:39:29","新北市新店區安康路二段320巷15弄18號","121.50264","24.9591216666667","6500600","新店區"
"231065","512-UM","2018/07/20 19:39:35","新北市新店區安祥路109巷90弄89號","121.475955","24.9577266666667","6500600","新店區"
"231049","513-UM","2018/07/20 19:39:35","新北市新店區建國路150號","121.538733333333","24.97922","6500600","新店區"
"231063","616-UM","2018/07/20 19:39:35","新北市新店區達觀路30號","121.502096666667","24.940315","6500600","新店區"
"231045","617-UM","2018/07/20 19:39:21","新北市新店區北宜路二段268號","121.560731666667","24.9542916666667","6500600","新店區"
"231061","619-UM","2018/07/20 19:39:21","新北市新店區安民街42號","121.515873333333","24.9654016666667","6500600","新店區"
"231064","719-UM","2018/07/20 19:39:24","新北市新店區安和路一段52巷2-1號","121.517693333333","24.966285","6500600","新店區"
"231053","719-UY","2018/07/20 19:39:26","新北市新店區廣興路15號","121.541735","24.9119833333333","6500600","新店區"
"231062","720-UM","2018/07/20 19:39:39","新北市新店區碧潭路36號","121.534248333333","24.9564816666667","6500600","新店區"
"231060","897-TW","2018/07/20 19:39:24","新北市新店區安康路二段161號","121.510126666667","24.95933","6500600","新店區"
"231043","899-TW","2018/07/20 19:39:33","新北市新店區中正路126號","121.542068333333","24.9712633333333","6500600","新店區"
"231055","AKT-0513","2018/07/20 19:39:37","新北市新店區新生街5巷6號","121.540053333333","24.9658533333333","6500600","新店區"
"241011","013-R5","2018/07/20 19:39:16","新北市三重區秀江街232號","121.496671666667","25.0713433333333","6500200","三重區"
"241028","022-UY","2018/07/20 19:39:38","新北市三重區中正南路157號","121.493826666667","25.0560633333333","6500200","三重區"
"241008","059-VK","2018/07/20 19:39:39","新北市三重區永福街137號","121.47871","25.0767216666667","6500200","三重區"
"241022","060-VK","2018/07/20 19:39:25","新北市三重區中正北路162號","121.484608333333","25.0659916666667","6500200","三重區"
"241031","061-VK","2018/07/20 19:39:36","新北市三重區重新路四段248號","121.486063333333","25.0534133333333","6500200","三重區"
"241015","062-VK","2018/07/20 19:39:33","新北市三重區福德北路36號","121.501978333333","25.06526","6500200","三重區"
"241017","063-VK","2018/07/20 19:39:25","新北市三重區大仁街52號","121.492038333333","25.06481","6500200","三重區"
"241026","066-VK","2018/07/20 19:39:23","新北市三重區文化南路65巷29號","121.499133333333","25.060745","6500200","三重區"
"241003","091-VK","2018/07/20 19:39:22","新北市三重區五華街93巷87號","121.493788333333","25.0849066666667","6500200","三重區"
"241009","267-UM","2018/07/20 19:39:19","新北市三重區三和路四段400巷27號","121.480018333333","25.0792983333333","6500200","三重區"
"241032","269-UM","2018/07/20 19:39:30","新北市三重區重陽路一段60巷76號","121.484256666667","25.0582083333333","6500200","三重區"
"241013","270-UM","2018/07/20 19:39:27","新北市三重區仁賢街10號","121.495831666667","25.0746283333333","6500200","三重區"
"241025","271-UM","2018/07/20 19:39:29","新北市三重區忠孝路三段84巷1號","121.48028","25.0645033333333","6500200","三重區"
"241035","462-BY","2018/07/20 19:39:29","新北市三重區信義西街1號","121.498195","25.0647616666667","6500200","三重區"
"241020","478-VK","2018/07/20 19:39:37","新北市三重區三和路四段20巷59號","121.489633333333","25.0736416666667","6500200","三重區"
"241030","480-VK","2018/07/20 19:39:32","新北市三重區新興路35號","121.492021666667","25.0534816666667","6500200","三重區"
"241014","543-UM","2018/07/20 19:39:27","新北市三重區長壽街196號","121.504191666667","25.0690483333333","6500200","三重區"
"241023","545-UM","2018/07/20 19:39:19","新北市三重區忠孝路三段99巷4號","121.480016666667","25.0642083333333","6500200","三重區"
"241019","KEA-2593","2018/07/20 19:39:28","新北市三重區安慶街361巷11號","121.488056666667","25.0676816666667","6500200","三重區"
"241006","AAD-863","2018/07/20 19:39:22","新北市三重區三和路四段160巷66號","121.486058333333","25.0749783333333","6500200","三重區"
"241001","887-TS","2018/07/20 19:39:33","新北市三重區仁愛街315巷46號","121.493636666667","25.0799566666667","6500200","三重區"
"241012","941-UM","2018/07/20 19:39:31","新北市三重區河邊北街256巷41號","121.500378333333","25.075885","6500200","三重區"
"241029","942-UM","2018/07/20 19:39:30","新北市三重區光明路122號","121.492846666667","25.0559516666667","6500200","三重區"
"235066","003-UY","2018/07/20 19:39:22","新北市中和區景新街162號","121.505705","24.997175","6500300","中和區"
"235064","005-UY","2018/07/20 19:39:34","新北市中和區南山路127巷8弄1號","121.502843333333","24.9972833333333","6500300","中和區"
"235063","006-UY","2018/07/20 19:39:18","新北市中和區連城路139巷64號","121.496673333333","24.9968416666667","6500300","中和區"
"235056","096-UM","2018/07/20 19:39:38","新北市中和區中山路三段114巷21號","121.475556666667","25.0081233333333","6500300","中和區"
"235039","097-UM","2018/07/20 19:39:26","新北市中和區景平路150-3號","121.517948333333","24.99212","6500300","中和區"
"235065","098-UM","2018/07/20 19:39:24","新北市中和區永和路8巷1號","121.50016","25.0031583333333","6500300","中和區"
"235040","150-BY","2018/07/20 19:39:25","新北市中和區安平路59號","121.509655","24.99499","6500300","中和區"
"235058","151-BY","2018/07/20 19:39:30","新北市中和區員山路124巷25號","121.482515","24.9960366666667","6500300","中和區"
"235055","183-VK","2018/07/20 19:39:26","新北市中和區中山路三段181巷2號","121.472806666667","25.00598","6500300","中和區"
"235038","185-VK","2018/07/20 19:39:32","新北市中和區自立路20巷7號","121.521916666667","24.993325","6500300","中和區"
"235049","186-VK","2018/07/20 19:39:26","新北市中和區明仁街10號","121.506053333333","24.995515","6500300","中和區"
"235067","255-BX","2018/07/20 19:39:32","新北市中和區新生街184號","121.483648333333","24.9996866666667","6500300","中和區"
"235044","293-VK","2018/07/20 19:39:22","新北市中和區捷運路63號","121.509065","24.989795","6500300","中和區"
"235072","301-VK","2018/07/20 19:39:38","新北市中和區連城路265巷6弄9號","121.491068333333","24.9957783333333","6500300","中和區"
"235043","352-BY","2018/07/20 19:39:34","新北市中和區興南路一段4號","121.511568333333","24.9914783333333","6500300","中和區"
"235042","KEA-2878","2018/07/20 19:39:23","新北市中和區景安路79巷37弄14-6號","121.508251666667","24.996015","6500300","中和區"
"235050","4979-A6","2018/07/20 19:39:26","新北市中和區錦和路350-1號","121.49053","24.9935683333333","6500300","中和區"
"235070","558-UM","2018/07/20 19:39:30","新北市中和區連城路171巷38號","121.495985","24.9965216666667","6500300","中和區"
"235045","565-BX","2018/07/20 19:39:25","新北市中和區景新街448號","121.51333","24.9877783333333","6500300","中和區"
"235054","640-BX","2018/07/20 19:39:39","新北市中和區民德路21號","121.46889","25.00276","6500300","中和區"
"235060","647-TV","2018/07/20 19:39:35","新北市中和區中山路二段523巷1弄1號","121.481748333333","25.0049666666667","6500300","中和區"
"235047","732-UM","2018/07/20 19:39:29","新北市中和區南山路283巷11號","121.50446","24.9926516666667","6500300","中和區"
"235046","733-UM","2018/07/20 19:39:20","新北市中和區忠孝街57號","121.511686666667","24.9846066666667","6500300","中和區"
"235071","783-BX","2018/07/20 19:39:16","新北市中和區中正路839巷29號","121.483601666667","25.00239","6500300","中和區"
"235041","802-TS","2018/07/20 19:39:19","新北市中和區中和路456號","121.51218","25.0037683333333","6500300","中和區"
"235048","896-TW","2018/07/20 19:39:28","新北市中和區忠孝街1巷2-1號","121.509033333333","24.98317","6500300","中和區"
"235053","900-TW","2018/07/20 19:39:20","新北市中和區國光街215巷4弄3號","121.466346666667","25.0017233333333","6500300","中和區"
"235057","911-UM","2018/07/20 19:39:19","新北市中和區員山路168號","121.481383333333","24.9998116666667","6500300","中和區"
"235051","157-BY","2018/07/20 19:39:37","新北市中和區板南路190-1號","121.50013","24.9928533333333","6500300","中和區"
"235037","AAC-213","2018/07/20 19:39:37","新北市中和區秀朗路三段52號","121.526425","24.9954866666667","6500300","中和區"
"235059","AAC-215","2018/07/20 19:39:35","新北市中和區錦和路169號","121.49071","24.9918716666667","6500300","中和區"
"220065","072-UY","2018/07/20 19:39:39","新北市板橋區國泰街39巷5弄8號","121.468668333333","25.0060333333333","6500100","板橋區"
"220086","073-UY","2018/07/20 19:39:32","新北市板橋區林園街4-1號","121.454235","25.009495","6500100","板橋區"
"220069","AAD-861","2018/07/20 19:39:32","新北市板橋區貴興路106巷8號","121.455198333333","25.0029716666667","6500100","板橋區"
"220106","120-SR","2018/07/20 19:39:21","新北市板橋區雙十路三段9號","121.471726666667","25.0302583333333","6500100","板橋區"
"247004","337-TH","2018/07/20 19:39:35","新北市蘆洲區長安街102巷26號","121.462816666667","25.0821066666667","6501400","蘆洲區"
"247008","056-VK","2018/07/20 19:39:34","新北市蘆洲區三民路1號","121.475753333333","25.081665","6501400","蘆洲區"
"226004","205-ST","2018/07/20 19:39:20","新北市平溪區十分里十分街67號","121.77602","25.0419583333333","6502400","平溪區"
"235052","251-BX","2018/07/20 19:39:21","新北市中和區華新街204號","121.506566666667","24.9820333333333","6500300","中和區"
"228001","670-TC","2018/07/20 19:39:38","新北市貢寮區真理里延平街22-9號","121.924691666667","25.0558483333333","6502600","貢寮區"
"228003","828-UM","2018/07/20 19:39:22","新北市貢寮區真理里美艷山街15-3號","121.923701666667","25.0680333333333","6502600","貢寮區"
"224010","AGQ-8101","2018/07/20 19:38:35","新北市瑞芳區基山街169號","121.843315","25.1080933333333","6501200","瑞芳區"
"224002","639-TC","2018/07/20 19:39:31","新北市瑞芳區民享新村24號","121.817436666667","25.1057066666667","6501200","瑞芳區"
"227011","642-TC","2018/07/20 19:39:33","新北市雙溪區新基里新基北街22號","121.867225","25.0389016666667","6502500","雙溪區"
"227003","400-TW","2018/07/20 19:39:24","新北市雙溪區雙溪里內挖路41號","121.863383333333","25.03637","6502500","雙溪區"
"222001","KEA-2212","2018/07/20 19:39:28","新北市深坑區深坑街150號","121.613011666667","25.0014066666667","6501800","深坑區"
"208002","KEA-2872","2018/07/20 19:39:27","新北市金山區四維路9號","121.635393333333","25.22258","6502700","金山區"
"208003","665-BX","2018/07/20 19:39:19","新北市金山區仁愛路6號","121.638546666667","25.2201283333333","6502700","金山區"
"208001","761-BX","2018/07/20 19:39:37","新北市金山區六股里頂六股13-1號","121.613101666667","25.222885","6502700","金山區"
"251004","009-UM","2018/07/20 19:39:20","新北市淡水區民權路183巷18號","121.460228333333","25.1340716666667","6501000","淡水區"
"251005","010-UM","2018/07/20 19:39:36","新北市淡水區原德路123號","121.44311","25.1733316666667","6501000","淡水區"
"251010","413-VK","2018/07/20 19:39:20","新北市淡水區濱海路二段202巷27號","121.435188333333","25.1932966666667","6501000","淡水區"
"251012","441-VK","2018/07/20 19:39:22","新北市淡水區中山北路三段156號","121.44555","25.1957483333333","6501000","淡水區"
"251008","442-VK","2018/07/20 19:39:37","新北市淡水區中正路32巷1號","121.430981666667","25.1753933333333","6501000","淡水區"
"251001","559-UM","2018/07/20 19:39:34","新北市淡水區民權路13-5號","121.459728333333","25.1414","6501000","淡水區"
"251006","561-UM","2018/07/20 19:39:34","新北市淡水區中山北路一段207巷32號","121.443271666667","25.1792316666667","6501000","淡水區"
"251009","575-R6","2018/07/20 19:39:36","新北市淡水區中山北路一段198巷3號","121.445038333333","25.17932","6501000","淡水區"
"251007","577-R6","2018/07/20 19:39:30","新北市淡水區中正東路一段111巷8號","121.454526666667","25.1605316666667","6501000","淡水區"
"251011","650-BX","2018/07/20 19:39:38","新北市淡水區紅樹林路96號","121.459548333333","25.1606433333333","6501000","淡水區"
"207003","550-UM","2018/07/20 19:39:34","新北市萬里區大鵬里下社3號","121.64787","25.2167333333333","6502800","萬里區"
"207004","225-TW","2018/07/20 19:39:19","新北市萬里區萬里里瑪鋉路21號","121.687205","25.1753616666667","6502800","萬里區"
"252002","178-VK","2018/07/20 19:39:21","新北市三芝區中正路一段18巷56號","121.504243333333","25.2586716666667","6502100","三芝區"
"252001","292-VK","2018/07/20 19:39:35","新北市三芝區公正街9號","121.49975","25.257545","6502100","三芝區"
"237004","KEA-2597","2018/07/20 19:39:20","新北市三峽區插角219-3號","121.415905","24.8661566666667","6500900","三峽區"
"237007","153-BY","2018/07/20 19:39:22","新北市三峽區二鬮路136巷22弄45號","121.357478333333","24.9103366666667","6500900","三峽區"
"237009","210-TH","2018/07/20 19:39:35","新北市三峽區中園街88-3號","121.367475","24.92398","6500900","三峽區"
"237013","252-BX","2018/07/20 19:39:23","新北市三峽區介壽路二段66號","121.392088333333","24.9353816666667","6500900","三峽區"
"237012","275-BY","2018/07/20 19:39:22","新北市三峽區光明路35號","121.373636666667","24.9307783333333","6500900","三峽區"
"237008","302-VK","2018/07/20 19:39:23","新北市三峽區中華路138號","121.37065","24.927115","6500900","三峽區"
"237014","433-BY","2018/07/20 19:39:38","新北市三峽區嘉添1號","121.368248333333","24.9118216666667","6500900","三峽區"
"237006","5529-G3","2018/07/20 19:39:30","新北市三峽區中正路一段336巷15弄2號","121.369951666667","24.92493","6500900","三峽區"
"237015","649-BX","2018/07/20 19:39:37","新北市三峽區溪東路218巷2-2號","121.40743","24.9319016666667","6500900","三峽區"
"237005","AKY-6261","2018/07/20 19:39:38","新北市三峽區中山路219巷7號","121.363258333333","24.9362433333333","6500900","三峽區"
"236069","105-UM","2018/07/20 19:39:29","新北市土城區金城路一段112號","121.446335","24.9752266666667","6501300","土城區"
"236042","107-UM","2018/07/20 19:39:32","新北市土城區裕民路260號","121.454605","24.982815","6501300","土城區"
"236079","166-UM","2018/07/20 19:39:23","新北市土城區中央路四段254號","121.415025","24.956955","6501300","土城區"
"236030","253-BX","2018/07/20 19:39:39","新北市土城區福祥街68號","121.44161","24.9817933333333","6501300","土城區"
"236026","269-VK","2018/07/20 19:39:28","新北市土城區中央路二段61巷28號","121.443485","24.97875","6501300","土城區"
"236039","271-VK","2018/07/20 19:39:11","新北市土城區青雲路257巷8號","121.459601666667","24.9807316666667","6501300","土城區"
"236020","401-BY","2018/07/20 19:39:37","新北市土城區明峰街83號","121.468905","24.9874083333333","6501300","土城區"
"236048","913-UM","2018/07/20 19:39:33","新北市土城區明德路一段66號","121.465553333333","24.9832883333333","6501300","土城區"
"236063","915-UM","2018/07/20 19:39:37","新北市土城區延平街64號","121.467915","24.9927316666667","6501300","土城區"
"236055","AAC-216","2018/07/20 19:39:33","新北市土城區學府路一段60號","121.45716","24.9884533333333","6501300","土城區"
"242029","612-BX","2018/07/20 19:39:35","新北市新莊區新泰路255巷83號","121.442141666667","25.0389933333333","6500500","新莊區"
"242046","497-BY","2018/07/20 19:39:21","新北市新莊區瓊林南路77-41號","121.437601666667","25.0122633333333","6500500","新莊區"
"242007","413-TV","2018/07/20 19:39:28","新北市新莊區中央路232號","121.454383333333","25.0588033333333","6500500","新莊區"
"242023","362-BY","2018/07/20 19:35:17","新北市新莊區化成路45號","121.465156666667","25.0448066666667","6500500","新莊區"
"242039","133-UY","2018/07/20 19:39:27","新北市新莊區建國二路83-14號","121.430868333333","25.0253983333333","6500500","新莊區"
"242011","173-VK","2018/07/20 19:39:21","新北市新莊區三和路12-21號","121.44198","25.0388633333333","6500500","新莊區"
"242005","176-VK","2018/07/20 19:39:33","新北市新莊區化成路29巷61號","121.462433333333","25.04397","6500500","新莊區"
"242021","348-TH","2018/07/20 19:39:34","新北市新莊區景德路386號","121.445985","25.0335183333333","6500500","新莊區"
"242013","351-TH","2018/07/20 19:39:24","新北市新莊區中誠街123號","121.449363333333","25.047555","6500500","新莊區"
"238015","755-BX","2018/07/20 19:39:38","新北市樹林區日新街59號","121.42237","24.9914133333333","6500700","樹林區"
"238023","601-UM","2018/07/20 19:39:35","新北市樹林區三福街114號","121.40651","25.016345","6500700","樹林區"
"238022","KEA-2213","2018/07/20 19:39:17","新北市樹林區名園街53號","121.419925","24.9782433333333","6500700","樹林區"
"238021","KEA-2539","2018/07/20 19:39:30","新北市樹林區佳園路三段101巷38弄20號","121.39145","24.9500083333333","6500700","樹林區"
"238025","303-VK","2018/07/20 19:39:39","新北市樹林區中山路一段346號","121.419418333333","24.98596","6500700","樹林區"
"238017","283-BY","2018/07/20 19:39:20","新北市樹林區保安街二段45巷36號","121.414413333333","25.0001866666667","6500700","樹林區"
"238014","282-BY","2018/07/20 19:39:32","新北市樹林區千歲街48號","121.42607","24.9969383333333","6500700","樹林區"
"239006","891-R6","2018/07/20 19:39:23","新北市鶯歌區文化路145巷4號","121.356685","24.9539816666667","6500800","鶯歌區"
"239003","360-BY","2018/07/20 19:36:50","新北市樹林區中山路三段210-2號","121.380835","24.9668966666667","6500800","鶯歌區"
"221008","489-VK","2018/07/20 19:39:29","新北市汐止區康寧街141巷30號","121.621211666667","25.0682166666667","6501100","汐止區"
"221036","130-UY","2018/07/20 19:39:27","新北市汐止區康寧街901號","121.650718333333","25.07529","6501100","汐止區"
"221015","131-UY","2018/07/20 19:39:36","新北市汐止區康寧街901號","121.650905","25.075165","6501100","汐止區"
"221010","269-BY","2018/07/20 19:39:25","新北市汐止區汐萬路一段409號","121.649245","25.07933","6501100","汐止區"
"221012","278-VK","2018/07/20 19:39:32","新北市汐止區汐平路一段9號","121.680956666667","25.0713283333333","6501100","汐止區"
"221023","279-VK","2018/07/20 19:39:21","新北市汐止區民族六街21-2號","121.63012","25.0690333333333","6501100","汐止區"
"221032","280-BY","2018/07/20 19:39:25","新北市汐止區橫科路403巷13號","121.624855","25.04764","6501100","汐止區"
"221027","281-BY","2018/07/20 19:39:31","新北市汐止區忠孝東路9號","121.658331666667","25.06594","6501100","汐止區"
"221033","297-VK","2018/07/20 19:39:25","台北市南港區舊莊街二段9號","121.625005","25.03757","6501100","汐止區"
"221029","298-VK","2018/07/20 19:39:25","新北市汐止區康寧街901號","121.651371666667","25.0749933333333","6501100","汐止區"
"221021","299-VK","2018/07/20 19:39:28","新北市汐止區新台五路一段131號","121.652153333333","25.0621616666667","6501100","汐止區"
"221031","353-TW","2018/07/20 19:39:26","新北市汐止區康寧街901號","121.650898333333","25.07524","6501100","汐止區"
"221025","623-UM","2018/07/20 19:39:29","新北市汐止區新台五路二段54號","121.661303333333","25.0654516666667","6501100","汐止區"
"221038","646-BX","2018/07/20 19:39:29","新北市汐止區忠孝東路235號","121.662541666667","25.0673533333333","6501100","汐止區"
"221002","707-TV","2018/07/20 19:39:18","新北市汐止區大同路一段219巷27號","121.633326666667","25.0583166666667","6501100","汐止區"
"221018","753-BX","2018/07/20 19:39:36","新北市汐止區康寧街901號","121.6514","25.0750616666667","6501100","汐止區"
"220080","200-UY","2018/07/20 19:39:24","新北市板橋區大觀路二段37巷39號","121.448671666667","25.0027433333333","6500100","板橋區"
"220082","610-BX","2018/07/20 19:39:29","新北市板橋區大觀路三段175號","121.432056666667","24.9938083333333","6500100","板橋區"
"220101","245-BX","2018/07/20 19:39:33","新北市板橋區縣民大道三段37號","121.473931666667","25.02093","6500100","板橋區"
"220091","267-BY","2018/07/20 19:39:32","新北市板橋區懷德街139巷8號","121.479428333333","25.0304583333333","6500100","板橋區"
"220056","276-BY","2018/07/20 19:39:24","新北市板橋區四川路二段47巷2弄1號","121.454125","24.9948833333333","6500100","板橋區"
"220072","277-BY","2018/07/20 19:39:35","新北市板橋區金門街151巷25號","121.434158333333","24.9901966666667","6500100","板橋區"
"220071","283-VK","2018/07/20 19:39:23","新北市土城區延和路41巷25號","121.465323333333","24.990505","6500100","板橋區"
"220094","285-UM","2018/07/20 19:39:30","新北市板橋區宏國路93號","121.469771666667","25.0322883333333","6500100","板橋區"
"220053","285-VK","2018/07/20 19:39:27","新北市板橋區中山路二段253號","121.47733","25.0175033333333","6500100","板橋區"
"220083","286-VK","2018/07/20 19:39:34","新北市板橋區龍興街65巷80號","121.441865","25.0021733333333","6500100","板橋區"
"220081","287-VK","2018/07/20 19:39:32","新北市板橋區大觀路一段29巷131弄2號","121.45049","25.0054016666667","6500100","板橋區"
"220090","288-VK","2018/07/20 19:39:34","新北市板橋區新海路431巷1號","121.457856666667","25.0275716666667","6500100","板橋區"
"220061","293-UM","2018/07/20 19:39:34","新北市板橋區漢生東路117號","121.467381666667","25.0147433333333","6500100","板橋區"
"220062","295-UM","2018/07/20 19:39:27","新北市板橋區三民路二段110號","121.479241666667","25.016685","6500100","板橋區"
"220084","296-UM","2018/07/20 19:39:31","新北市板橋區溪崑二街124巷20號","121.425433333333","24.9884533333333","6500100","板橋區"
"242032","281-VK","2018/07/20 19:39:31","新北市新莊區公園一路140號","121.446383333333","25.03819","6500500","新莊區"
"220075","303-R5","2018/07/20 19:39:28","新北市板橋區大勇街3巷1號","121.455055","25.017465","6500100","板橋區"
"220092","307-R5","2018/07/20 19:39:27","新北市板橋區文化路一段387巷19號","121.46612","25.022125","6500100","板橋區"
"220098","317-R6","2018/07/20 19:39:24","新北市板橋區四維路269巷62號","121.460796666667","25.0272183333333","6500100","板橋區"
"220064","486-VK","2018/07/20 19:39:25","新北市板橋區民權路31號","121.462378333333","25.0111016666667","6500100","板橋區"
"220088","491-VK","2018/07/20 19:39:34","新北市板橋區仁化街135號","121.477298333333","25.0328316666667","6500100","板橋區"
"220035","560-BX","2018/07/20 19:39:31","新北市板橋區金華街112號","121.458893333333","25.0208066666667","6500100","板橋區"
"220103","561-BX","2018/07/20 19:39:40","新北市板橋區文化路一段290號","121.467488333333","25.0213966666667","6500100","板橋區"
"220063","609-BX","2018/07/20 19:39:31","新北市板橋區中山路二段422-9號","121.483511666667","25.02132","6500100","板橋區"
"220079","630-UY","2018/07/20 19:39:20","新北市板橋區光正街45巷6弄19號","121.460833333333","25.0169116666667","6500100","板橋區"
"220057","686-BX","2018/07/20 19:39:30","新北市板橋區和平路71號","121.461381666667","24.994585","6500100","板橋區"
"220077","687-BX","2018/07/20 19:39:35","新北市板橋區僑中一街150號","121.444706666667","25.01212","6500100","板橋區"
"220093","689-BX","2018/07/20 19:39:33","新北市板橋區長江路一段142號","121.460743333333","25.03012","6500100","板橋區"
"220054","741-BX","2018/07/20 19:39:39","新北市板橋區實踐路65巷29號","121.464748333333","25.0065366666667","6500100","板橋區"
"220102","KEA-2699","2018/07/20 19:39:13","新北市板橋區文化路二段410巷35號","121.4747","25.0304433333333","6500100","板橋區"
"220055","827-TW","2018/07/20 19:39:27","新北市板橋區國慶路149巷29弄3號","121.460748333333","24.99766","6500100","板橋區"
"220067","829-TW","2018/07/20 19:39:30","新北市板橋區長安街255巷44號","121.472423333333","25.0112766666667","6500100","板橋區"
"220068","830-TW","2018/07/20 19:39:39","新北市板橋區中山路二段527號","121.483236666667","25.0212733333333","6500100","板橋區"
"220096","831-TW","2018/07/20 19:39:35","新北市板橋區民生路二段240巷44號","121.469508333333","25.022855","6500100","板橋區"
"220089","833-TW","2018/07/20 19:39:34","新北市板橋區英士路41號","121.461491666667","25.0247583333333","6500100","板橋區"
"220074","895-R6","2018/07/20 19:39:29","新北市板橋區福德街35號","121.45626","25.008695","6500100","板橋區"
"220073","985-R7","2018/07/20 19:39:26","新北市板橋區國光路12號","121.456886666667","25.017385","6500100","板橋區"
"220097","AAC-210","2018/07/20 19:39:27","新北市板橋區幸福路34號","121.461626666667","25.0202666666667","6500100","板橋區"
"220070","AAC-253","2018/07/20 19:39:23","新北市板橋區民族路310號","121.470808333333","25.0066416666667","6500100","板橋區"
"235068","KEA-2873","2018/07/20 19:39:36","新北市中和區莊敬路2號","121.49946","25.0041916666667","6500300","中和區"
"235061","KEA-2875","2018/07/20 19:39:10","新北市中和區民利街69號","121.478861666667","24.998355","6500300","中和區"
