"lineid","car","time","location","longitude","latitude","cityid","cityname"
"234081","298-R6","2018/07/20 20:19:36","新北市永和區福和路19巷4號","121.524145","25.007785","6500400","永和區"
"234038","336-UY","2018/07/20 20:19:31","新北市永和區成功路一段93巷21弄2號","121.528293333333","25.0027516666667","6500400","永和區"
"234064","337-UY","2018/07/20 20:19:31","新北市永和區得和路111號","121.518508333333","25.000225","6500400","永和區"
"234086","338-UY","2018/07/20 20:19:25","新北市永和區永和路二段93號","121.51487","25.011485","6500400","永和區"
"234070","552-UM","2018/07/20 20:19:29","新北市永和區福和路263巷9號","121.517945","25.0068266666667","6500400","永和區"
"234067","553-UM","2018/07/20 20:19:32","新北市永和區保平路236巷1弄16號","121.508378333333","25.0054816666667","6500400","永和區"
"234017","745-BX","2018/07/20 20:19:32","新北市永和區仁愛路85號","121.513156666667","25.0132166666667","6500400","永和區"
"234030","746-BX","2018/07/20 20:19:26","新北市永和區民有街75巷10弄18號","121.519015","24.9960533333333","6500400","永和區"
"234054","KEA-2590","2018/07/20 20:19:25","新北市永和區永和路二段336號","121.516476666667","25.0166283333333","6500400","永和區"
"234013","KEA-2591","2018/07/20 20:19:23","新北市永和區仁愛路284號","121.503331666667","25.008535","6500400","永和區"
"234061","AAD-866","2018/07/20 20:19:27","新北市永和區得和路51-4號","121.516933333333","25.0001883333333","6500400","永和區"
"234042","862-TW","2018/07/20 20:19:18","新北市中和區中安街166號","121.510876666667","25.0000766666667","6500400","永和區"
"234050","863-TW","2018/07/20 20:19:37","新北市永和區文化路187號","121.509591666667","25.016995","6500400","永和區"
"249005","172-UM","2018/07/20 20:19:39","新北市八里區下罟子1-15號","121.389358333333","25.1422733333333","6502300","八里區"
"249001","173-UM","2018/07/20 20:19:32","新北市八里區中華路二段341-10號","121.399118333333","25.1450133333333","6502300","八里區"
"249004","303-UY","2018/07/20 20:19:27","新北市八里區中山路一段129巷19-1號","121.413965","25.1586283333333","6502300","八里區"
"249002","305-UY","2018/07/20 20:19:35","新北市八里區龍米路一段98號","121.45359","25.1246483333333","6502300","八里區"
"249003","593-UM","2018/07/20 20:19:24","新北市八里區中山路二段447巷2號","121.396988333333","25.145355","6502300","八里區"
"248014","025-BX","2018/07/20 20:19:23","新北市八里區荖阡坑路34號","121.40259","25.128695","6501500","五股區"
"248016","026-BX","2018/07/20 20:19:19","新北市五股區天乙路34號","121.448456666667","25.1034416666667","6501500","五股區"
"248012","247-BX","2018/07/20 20:19:21","新北市五股區民義路一段206號","121.430556666667","25.0891616666667","6501500","五股區"
"248002","655-BX","2018/07/20 20:19:28","新北市五股區成泰路三段46號","121.442425","25.08893","6501500","五股區"
"234023","9380-KE","2018/07/20 20:19:28","新北市永和區復興街20號","121.515983333333","25.0128366666667","6500400","永和區"
"234077","969-R7","2018/07/20 20:19:35","新北市永和區民享街6號","121.515115","24.9954783333333","6500400","永和區"
"234074","AAC-211","2018/07/20 20:19:22","新北市永和區竹林路201巷24弄9號","121.522643333333","25.0097516666667","6500400","永和區"
"234003","AAC-295","2018/07/20 20:19:41","新北市永和區大新街43號","121.515553333333","25.0084333333333","6500400","永和區"
"243013","AAD-798","2018/07/20 20:19:36","新北市泰山區新民路28號","121.426801666667","25.0446416666667","6501600","泰山區"
"243009","297-R6","2018/07/20 20:19:21","新北市泰山區福泰街26號","121.433521666667","25.0596783333333","6501600","泰山區"
"243016","380-SR","2018/07/20 20:19:29","新北市泰山區明志路三段94號","121.424911666667","25.0412383333333","6501600","泰山區"
"243015","421-VK","2018/07/20 20:19:36","新北市泰山區仁德路127號","121.432635","25.05602","6501600","泰山區"
"243011","KEA-2215","2018/07/20 20:19:25","新北市泰山區德安街26-1號","121.418366666667","25.0313416666667","6501600","泰山區"
"243010","KEA-2216","2018/07/20 20:19:28","新北市泰山區明志路二段273巷3弄2號","121.427286666667","25.0472183333333","6501600","泰山區"
"243012","646-TV","2018/07/20 20:19:36","新北市泰山區楓江路49號","121.43517","25.0629416666667","6501600","泰山區"
"243014","680-BX","2018/07/20 20:19:32","新北市泰山區泰林路二段455號","121.425668333333","25.0640783333333","6501600","泰山區"
"222003","436-BY","2018/07/20 20:19:22","新北市深坑區文化街86號","121.61762","25.0019333333333","6501800","深坑區"
"222002","659-BX","2018/07/20 20:19:23","新北市深坑區萬福路75巷47號","121.598291666667","25.0097866666667","6501800","深坑區"
"231041","002-UM","2018/07/20 20:19:29","新北市新店區民權路46號","121.540156666667","24.983015","6500600","新店區"
"231059","046-UY","2018/07/20 20:19:34","新北市新店區安成街39號","121.509676666667","24.96118","6500600","新店區"
"231040","047-UY","2018/07/20 20:19:26","新北市新店區中正路190號","121.540675","24.9723933333333","6500600","新店區"
"231044","106-UY","2018/07/20 20:19:35","新北市新店區北新路三段118號","121.541608333333","24.9817133333333","6500600","新店區"
"231048","110-UY","2018/07/20 20:19:36","新北市新店區寶橋路132號","121.54739","24.9761116666667","6500600","新店區"
"231054","KEA-2219","2018/07/20 20:19:39","新北市新店區檳榔路109號","121.544496666667","24.96165","6500600","新店區"
"231057","256-BX","2018/07/20 20:19:29","新北市新店區花園五路二段27號","121.554713333333","24.9347966666667","6500600","新店區"
"231042","268-BY","2018/07/20 20:19:33","新北市新店區中興路二段100巷1號","121.547483333333","24.9715633333333","6500600","新店區"
"231051","278-BY","2018/07/20 20:19:36","新北市新店區中央六街111號","121.525433333333","24.9774066666667","6500600","新店區"
"231050","AAD-862","2018/07/20 20:19:27","新北市新店區中正路191號","121.540525","24.9724283333333","6500600","新店區"
"231058","3713-VJ","2018/07/20 20:19:25","新北市新店區中央路21號","121.533126666667","24.978165","6500600","新店區"
"231066","4716-K9","2018/07/20 20:19:27","新北市新店區安德街60巷21號","121.510343333333","24.9633883333333","6500600","新店區"
"231056","4715-K9","2018/07/20 20:19:28","新北市新店區中正路328巷45號","121.538046666667","24.976435","6500600","新店區"
"231067","4772-VM","2018/07/20 20:19:29","新北市新店區安康路一段32號","121.531708333333","24.96116","6500600","新店區"
"231065","512-UM","2018/07/20 20:19:35","新北市新店區安祥路104巷6弄36號","121.483105","24.9630133333333","6500600","新店區"
"231049","513-UM","2018/07/20 20:19:35","新北市新店區北新路一段319號","121.54161","24.9681133333333","6500600","新店區"
"231063","616-UM","2018/07/20 20:19:35","新北市新店區薏仁坑路自強巷6號","121.49674","24.958435","6500600","新店區"
"231045","617-UM","2018/07/20 20:19:21","新北市新店區新坡一街85號","121.548941666667","24.9645233333333","6500600","新店區"
"231061","619-UM","2018/07/20 20:19:21","新北市新店區安民街133巷26號","121.515408333333","24.9695583333333","6500600","新店區"
"231068","718-UY","2018/07/20 20:19:37","新北市新店區寶安街33號","121.541945","24.982375","6500600","新店區"
"231064","719-UM","2018/07/20 20:19:24","新北市新店區安業街8巷1號","121.51577","24.9772516666667","6500600","新店區"
"231053","719-UY","2018/07/20 20:19:26","新北市新店區新烏路二段317號","121.54987","24.9109616666667","6500600","新店區"
"231062","720-UM","2018/07/20 20:19:30","新北市新店區安泰路7巷16號","121.485671666667","24.9510016666667","6500600","新店區"
"231060","897-TW","2018/07/20 20:19:23","新北市新店區錦秀路11巷66號","121.480635","24.943445","6500600","新店區"
"231043","899-TW","2018/07/20 20:19:33","新北市新店區建國路133號","121.539278333333","24.9783166666667","6500600","新店區"
"231055","AKT-0513","2018/07/20 20:19:27","新北市新店區北新路一段309號","121.541471666667","24.96786","6500600","新店區"
"241011","013-R5","2018/07/20 20:19:36","新北市三重區龍門路84號","121.497141666667","25.07274","6500200","三重區"
"241028","022-UY","2018/07/20 20:19:38","新北市三重區大同南路95號","121.496168333333","25.05889","6500200","三重區"
"241008","059-VK","2018/07/20 20:19:39","新北市三重區永福街209號","121.479898333333","25.0744433333333","6500200","三重區"
"241022","060-VK","2018/07/20 20:19:25","新北市三重區新北大道一段6號","121.488891666667","25.0615933333333","6500200","三重區"
"241031","061-VK","2018/07/20 20:19:36","新北市三重區三寧街15號","121.48951","25.0597216666667","6500200","三重區"
"241015","062-VK","2018/07/20 20:19:33","新北市三重區重新路一段130號","121.500151666667","25.0627933333333","6500200","三重區"
"241017","063-VK","2018/07/20 20:19:25","新北市三重區自強路一段288號","121.491578333333","25.0682966666667","6500200","三重區"
"241024","065-VK","2018/07/20 20:19:25","新北市三重區忠孝路三段1號","121.481871666667","25.0678716666667","6500200","三重區"
"241026","066-VK","2018/07/20 20:19:23","新北市三重區重新路一段16號","121.503805","25.0639933333333","6500200","三重區"
"241002","090-VK","2018/07/20 20:19:30","新北市三重區仁義街101巷2號","121.497595","25.080085","6500200","三重區"
"241003","091-VK","2018/07/20 20:19:22","新北市三重區富華街78號","121.490731666667","25.0832483333333","6500200","三重區"
"241005","262-UM","2018/07/20 20:19:23","新北市三重區分子尾街100號","121.488616666667","25.08264","6500200","三重區"
"241016","266-UM","2018/07/20 20:19:23","新北市三重區大同北路54巷1號","121.49424","25.0636666666667","6500200","三重區"
"241009","267-UM","2018/07/20 20:19:19","新北市三重區三和路四段384號","121.482378333333","25.0788666666667","6500200","三重區"
"241018","268-UM","2018/07/20 20:19:24","新北市三重區雙園街105號","121.493695","25.0673216666667","6500200","三重區"
"241032","269-UM","2018/07/20 20:19:29","新北市三重區捷運路19巷8弄13號","121.48438","25.05725","6500200","三重區"
"241013","270-UM","2018/07/20 20:19:27","新北市三重區三和路三段167巷2號","121.491983333333","25.0741266666667","6500200","三重區"
"241025","271-UM","2018/07/20 20:19:29","新北市三重區頂崁街210巷7號","121.476675","25.06771","6500200","三重區"
"241007","413-TH","2018/07/20 20:19:33","新北市三重區溪尾街108巷63號","121.487366666667","25.0781883333333","6500200","三重區"
"241035","462-BY","2018/07/20 20:19:29","新北市三重區文化北路18號","121.499335","25.06397","6500200","三重區"
"241004","475-VK","2018/07/20 20:19:34","新北市三重區仁愛街392號","121.490888333333","25.080965","6500200","三重區"
"241020","478-VK","2018/07/20 20:19:37","新北市三重區明德街50號","121.49209","25.0718466666667","6500200","三重區"
"241030","480-VK","2018/07/20 20:19:32","新北市三重區環河南路254巷63號","121.487688333333","25.0523766666667","6500200","三重區"
"241014","543-UM","2018/07/20 20:19:07","新北市三重區龍濱路149號","121.502773333333","25.069275","6500200","三重區"
"241023","545-UM","2018/07/20 20:19:39","新北市三重區忠孝路三段99巷25號","121.479368333333","25.064335","6500200","三重區"
"241019","KEA-2593","2018/07/20 20:19:28","新北市三重區忠孝路一段33號","121.49154","25.0720133333333","6500200","三重區"
"241006","AAD-863","2018/07/20 20:19:22","新北市三重區車路頭街139巷14號","121.484376666667","25.0761416666667","6500200","三重區"
"241001","887-TS","2018/07/20 20:19:33","新北市三重區自強路四段31巷30號","121.490573333333","25.07712","6500200","三重區"
"241012","941-UM","2018/07/20 20:19:31","新北市三重區河邊北街262號","121.501668333333","25.0764616666667","6500200","三重區"
"241029","942-UM","2018/07/20 20:19:30","新北市三重區光明路116號","121.492708333333","25.0560533333333","6500200","三重區"
"241033","AAC-255","2018/07/20 20:19:40","新北市三重區五谷王北街50巷68號","121.474651666667","25.05132","6500200","三重區"
"235066","003-UY","2018/07/20 20:19:31","新北市中和區保平路261號","121.507193333333","25.004055","6500300","中和區"
"235039","097-UM","2018/07/20 20:19:26","新北市中和區大勇街27巷24號","121.516366666667","24.9940683333333","6500300","中和區"
"235065","098-UM","2018/07/20 20:19:24","新北市中和區景平路756號","121.49634","25.0047166666667","6500300","中和區"
"247010","KEA-2869","2018/07/20 20:19:27","新北市蘆洲區信義路253號","121.478953333333","25.0845383333333","6501400","蘆洲區"
"235050","4979-A6","2018/07/20 20:19:26","新北市中和區景平路398-2號","121.509488333333","24.9931216666667","6500300","中和區"
"235069","4980-A6","2018/07/20 20:19:26","新北市中和區板南路247-1號","121.496396666667","24.9946716666667","6500300","中和區"
"235059","AAC-215","2018/07/20 20:19:35","新北市中和區圓通路332號","121.484443333333","24.9865016666667","6500300","中和區"
"247024","893-R6","2018/07/20 20:19:25","新北市蘆洲區光榮路120巷8弄41號","121.464496666667","25.0876966666667","6501400","蘆洲區"
"247014","546-UM","2018/07/20 20:19:24","新北市蘆洲區中山二路137巷42號","121.472401666667","25.0807766666667","6501400","蘆洲區"
"247022","500-BY","2018/07/20 20:19:17","新北市蘆洲區民族路538號","121.467995","25.0892916666667","6501400","蘆洲區"
"247012","339-TH","2018/07/20 20:19:32","新北市蘆洲區中興街53號","121.48134","25.0873183333333","6501400","蘆洲區"
"247004","337-TH","2018/07/20 20:19:35","新北市蘆洲區長安街297號","121.457956666667","25.0847783333333","6501400","蘆洲區"
"247006","336-TH","2018/07/20 20:19:32","新北市蘆洲區九芎街167巷40號","121.46586","25.0781383333333","6501400","蘆洲區"
"247018","057-VK","2018/07/20 20:19:22","新北市蘆洲區民族路257巷2號","121.476566666667","25.090545","6501400","蘆洲區"
"247008","056-VK","2018/07/20 20:19:34","新北市蘆洲區集賢路209號","121.483493333333","25.0873283333333","6501400","蘆洲區"
"247016","007-UY","2018/07/20 20:19:33","新北市蘆洲區中正路185巷45弄2號","121.465885","25.0837483333333","6501400","蘆洲區"
"247002","002-UY","2018/07/20 20:19:38","新北市蘆洲區長安街331巷40號","121.455625","25.0865933333333","6501400","蘆洲區"
"247020","001-UY","2018/07/20 20:19:29","新北市蘆洲區仁愛街42號","121.471968333333","25.09326","6501400","蘆洲區"
"235052","251-BX","2018/07/20 20:19:41","新北市土城區永豐路167-1號","121.468725","24.9803866666667","6500300","中和區"
"222001","KEA-2212","2018/07/20 20:19:28","新北市深坑區北深路三段257號","121.599003333333","25.0045933333333","6501800","深坑區"
"251004","009-UM","2018/07/20 20:19:20","新北市淡水區中正東路二段161巷11弄12號","121.461348333333","25.14615","6501000","淡水區"
"251002","012-UM","2018/07/20 20:19:36","新北市淡水區中正路192號","121.440036666667","25.169995","6501000","淡水區"
"251010","413-VK","2018/07/20 20:19:20","新北市淡水區新民街一段134號","121.427541666667","25.18886","6501000","淡水區"
"251012","441-VK","2018/07/20 20:19:22","新北市淡水區下圭柔山431-1號","121.449891666667","25.2103416666667","6501000","淡水區"
"251008","442-VK","2018/07/20 20:19:37","新北市淡水區淡海路182巷16號","121.421078333333","25.1847016666667","6501000","淡水區"
"251001","559-UM","2018/07/20 20:19:41","新北市淡水區新市二路四段265號","121.445736666667","25.1925083333333","6501000","淡水區"
"251006","561-UM","2018/07/20 20:19:34","新北市淡水區淡金路一段575號","121.452436666667","25.1804533333333","6501000","淡水區"
"251009","575-R6","2018/07/20 20:19:36","新北市淡水區中正路8巷6號","121.441795","25.1700833333333","6501000","淡水區"
"251003","673-BX","2018/07/20 20:19:34","新北市淡水區中山北路一段229號","121.444498333333","25.1794783333333","6501000","淡水區"
"207004","225-TW","2018/07/20 20:19:19","新北市萬里區北基里仁二街2號","121.682638333333","25.1756466666667","6502800","萬里區"
"252002","178-VK","2018/07/20 20:19:21","新北市三芝區中正路一段27號","121.502991666667","25.2585433333333","6502100","三芝區"
"252001","292-VK","2018/07/20 20:19:35","新北市三芝區中山路一段35號","121.500688333333","25.2579466666667","6502100","三芝區"
"237006","5529-G3","2018/07/20 20:19:30","新北市三峽區中正路二段66號","121.366643333333","24.9183916666667","6500900","三峽區"
"237005","AKY-6261","2018/07/20 20:19:38","新北市三峽區三樹路98巷74弄63號","121.38514","24.93987","6500900","三峽區"
"236069","105-UM","2018/07/20 20:19:29","新北市土城區三民路21號","121.42025","24.9635083333333","6501300","土城區"
"236030","253-BX","2018/07/20 20:19:30","新北市土城區學成路128巷11號","121.449501666667","24.9901516666667","6501300","土城區"
"236026","269-VK","2018/07/20 20:19:28","新北市土城區裕生路84巷2號","121.447368333333","24.9854016666667","6501300","土城區"
"236014","270-VK","2018/07/20 20:19:38","新北市土城區廣明街90巷23號","121.455411666667","24.994645","6501300","土城區"
"236020","401-BY","2018/07/20 20:19:37","新北市土城區中央路二段101號","121.442551666667","24.97799","6501300","土城區"
"236059","912-UM","2018/07/20 20:19:23","新北市土城區中央路三段134-1號","121.433455","24.9656583333333","6501300","土城區"
"242034","AAC-296","2018/07/20 20:19:38","新北市新莊區建中街137號","121.445143333333","25.036465","6500500","新莊區"
"242058","986-R7","2018/07/20 20:19:32","新北市新莊區八德街167號","121.423346666667","25.0191216666667","6500500","新莊區"
"242054","751-BX","2018/07/20 20:19:21","新北市新莊區民安西路261巷12號","121.426718333333","25.01301","6500500","新莊區"
"242027","615-BX","2018/07/20 20:19:29","新北市新莊區幸福路616號","121.451458333333","25.0492816666667","6500500","新莊區"
"242025","613-BX","2018/07/20 20:19:04","新北市新莊區五工二路62巷7號","121.460721666667","25.0660016666667","6500500","新莊區"
"242029","612-BX","2018/07/20 20:18:35","新北市新莊區中華路二段190號","121.453186666667","25.0515883333333","6500500","新莊區"
"242041","566-BX","2018/07/20 20:19:39","新北市新莊區壽山路47號","121.414496666667","25.0311466666667","6500500","新莊區"
"242046","497-BY","2018/07/20 20:19:21","新北市新莊區中正路新生巷62號","121.417383333333","25.0228316666667","6500500","新莊區"
"242050","441-UM","2018/07/20 20:19:34","新北市新莊區民安西路212巷5弄1號","121.424945","25.01485","6500500","新莊區"
"242056","440-UM","2018/07/20 20:19:37","新北市新莊區新莊路649巷7號","121.445038333333","25.0321733333333","6500500","新莊區"
"242037","415-TV","2018/07/20 20:19:23","新北市新莊區建安街62巷22號","121.426773333333","25.0253316666667","6500500","新莊區"
"242007","413-TV","2018/07/20 20:19:30","新北市新莊區福壽街124巷34弄9號","121.45933","25.05088","6500500","新莊區"
"242044","400-BY","2018/07/20 20:19:21","新北市新莊區中正路新建巷28弄10號","121.413906666667","25.0216416666667","6500500","新莊區"
"242023","362-BY","2018/07/20 20:19:33","新北市新莊區化成路547號","121.465145","25.0649116666667","6500500","新莊區"
"242060","353-BY","2018/07/20 20:19:28","新北市新莊區瓊林路208-1號","121.436178333333","25.02187","6500500","新莊區"
"242009","132-UY","2018/07/20 20:19:33","新北市新莊區昌平街5號","121.454875","25.0516116666667","6500500","新莊區"
"242039","133-UY","2018/07/20 20:19:32","新北市新莊區成功街61號","121.42492","25.0203483333333","6500500","新莊區"
"242048","172-VK","2018/07/20 20:19:24","新北市新莊區龍安路293號","121.420866666667","25.0197683333333","6500500","新莊區"
"242011","173-VK","2018/07/20 20:19:21","新北市新莊區中信街18號","121.450941666667","25.0508333333333","6500500","新莊區"
"242017","175-VK","2018/07/20 20:19:35","新北市新莊區中港一街140號","121.44799","25.0451566666667","6500500","新莊區"
"242005","176-VK","2018/07/20 20:19:33","新北市新莊區頭前路15巷2號","121.467863333333","25.0521716666667","6500500","新莊區"
"242015","347-TH","2018/07/20 20:19:35","新北市新莊區永樂街265號","121.445373333333","25.0442566666667","6500500","新莊區"
"242021","348-TH","2018/07/20 20:19:34","新北市新莊區復興路一段10號","121.445745","25.0413683333333","6500500","新莊區"
"242002","349-TH","2018/07/20 20:19:31","新北市三重區重新路五段629號","121.467653333333","25.0438016666667","6500500","新莊區"
"242019","350-TH","2018/07/20 20:19:31","新北市新莊區復興路二段94號","121.45607","25.0441716666667","6500500","新莊區"
"242013","351-TH","2018/07/20 20:19:24","新北市新莊區中和街184號","121.44735","25.0497183333333","6500500","新莊區"
"221008","489-VK","2018/07/20 20:19:29","新北市汐止區三民街1巷1號","121.624401666667","25.0668333333333","6501100","汐止區"
"221036","130-UY","2018/07/20 20:19:27","新北市汐止區福安街57巷11號","121.664163333333","25.0641766666667","6501100","汐止區"
"221015","131-UY","2018/07/20 20:19:36","新北市汐止區建成路142巷21號","121.662288333333","25.07395","6501100","汐止區"
"221010","269-BY","2018/07/20 20:19:29","新北市汐止區八連路二段439號","121.628463333333","25.1038416666667","6501100","汐止區"
"221012","278-VK","2018/07/20 20:19:31","新北市汐止區保新街101號","121.68675","25.0713216666667","6501100","汐止區"
"221023","279-VK","2018/07/20 20:19:21","新北市汐止區湖東街5巷9號","121.634061666667","25.0730266666667","6501100","汐止區"
"221032","280-BY","2018/07/20 20:19:30","新北市汐止區民權街二段28號","121.619533333333","25.05014","6501100","汐止區"
"221027","281-BY","2018/07/20 20:19:35","新北市汐止區水源路一段3號","121.657166666667","25.0672166666667","6501100","汐止區"
"221033","297-VK","2018/07/20 20:19:23","新北市汐止區東勢街201巷2號","121.633703333333","25.0421483333333","6501100","汐止區"
"221029","298-VK","2018/07/20 20:19:25","新北市汐止區工建路98號","121.639595","25.0634616666667","6501100","汐止區"
"221021","299-VK","2018/07/20 20:19:28","新北市汐止區水源路一段284號","121.654223333333","25.0582916666667","6501100","汐止區"
"221031","353-TW","2018/07/20 20:19:26","新北市汐止區中興路150巷15號","121.633078333333","25.0650383333333","6501100","汐止區"
"221035","622-UM","2018/07/20 20:19:29","新北市汐止區長江街101-5號","121.65873","25.073235","6501100","汐止區"
"221025","623-UM","2018/07/20 20:19:29","新北市汐止區水源路二段42號","121.655121666667","25.0571116666667","6501100","汐止區"
"221038","646-BX","2018/07/20 20:19:26","新北市汐止區忠孝東路403號","121.665791666667","25.0711166666667","6501100","汐止區"
"221002","707-TV","2018/07/20 20:19:38","新北市汐止區福德三路67號","121.636795","25.0693","6501100","汐止區"
"221018","753-BX","2018/07/20 20:19:36","新北市汐止區茄苳路260號","121.671765","25.0681383333333","6501100","汐止區"
"220101","245-BX","2018/07/20 20:19:33","新北市板橋區雙十路一段44巷36號","121.477316666667","25.02502","6500100","板橋區"
"220079","256-TC","2018/07/20 20:19:35","新北市板橋區中正路183巷24-1號","121.45552","25.0162483333333","6500100","板橋區"
"220072","277-BY","2018/07/20 20:19:35","新北市五股區中直路1號","121.42868","25.1088883333333","6500100","板橋區"
"220083","286-VK","2018/07/20 20:19:32","新北市板橋區僑中二街102巷35號","121.444693333333","25.0083016666667","6500100","板橋區"
"220081","287-VK","2018/07/20 20:19:32","新北市板橋區僑中一街80巷1弄7號","121.447205","25.0118966666667","6500100","板橋區"
"220061","293-UM","2018/07/20 20:19:34","新北市板橋區文華街18號","121.457565","25.0005316666667","6500100","板橋區"
"242032","281-VK","2018/07/20 20:07:37","新北市新莊區中正路370號","121.443475","25.03452","6500500","新莊區"
"220092","307-R5","2018/07/20 20:19:27","新北市板橋區大觀路一段1-1號","121.45106","25.0084783333333","6500100","板橋區"
"220088","491-VK","2018/07/20 20:19:34","新北市五股區凌雲路三段24巷7號","121.437773333333","25.1064883333333","6500100","板橋區"
"220103","561-BX","2018/07/20 20:19:21","新北市板橋區漢生西路17號","121.463676666667","25.0181016666667","6500100","板橋區"
"220102","KEA-2699","2018/07/20 20:19:33","新北市板橋區縣民大道二段200巷11號","121.469845","25.0176616666667","6500100","板橋區"
"220089","833-TW","2018/07/20 20:19:34","新北市板橋區陽明街166號","121.463693333333","25.0246283333333","6500100","板橋區"
"220097","AAC-210","2018/07/20 20:19:27","新北市板橋區公館街94-1號","121.461323333333","25.0166083333333","6500100","板橋區"
"220070","AAC-253","2018/07/20 20:19:19","新北市板橋區南雅南路二段140號","121.452015","24.9962566666667","6500100","板橋區"
