"lineid","car","time","location","longitude","latitude","cityid","cityname"
"234081","298-R6","2018/07/20 20:39:35","新北市永和區永貞路82號","121.520163333333","25.005015","6500400","永和區"
"234064","337-UY","2018/07/20 20:39:31","新北市永和區保順路8號","121.503311666667","25.0121333333333","6500400","永和區"
"234030","746-BX","2018/07/20 20:39:26","新北市板橋區長江路二段61號","121.463961666667","25.0333616666667","6500400","永和區"
"234061","AAD-866","2018/07/20 20:39:07","新北市永和區秀朗路一段175號","121.51704","25.0036916666667","6500400","永和區"
"234042","862-TW","2018/07/20 20:39:38","新北市永和區自由街2號","121.514935","25.0071133333333","6500400","永和區"
"249001","173-UM","2018/07/20 20:39:31","新北市八里區中山路三段335號","121.377311666667","25.1387416666667","6502300","八里區"
"249004","303-UY","2018/07/20 20:39:27","新北市八里區中山路一段300號","121.41345","25.1593983333333","6502300","八里區"
"249003","593-UM","2018/07/20 20:39:24","新北市八里區商港路120號","121.393165","25.149755","6502300","八里區"
"234023","9380-KE","2018/07/20 20:39:28","新北市永和區竹林路25巷21號","121.518186666667","25.0149666666667","6500400","永和區"
"234077","969-R7","2018/07/20 20:39:35","新北市三重區重新路五段326巷25-1號","121.479631666667","25.04275","6500400","永和區"
"234074","AAC-211","2018/07/20 20:39:22","新北市永和區復興街91號","121.517711666667","25.0141166666667","6500400","永和區"
"243016","380-SR","2018/07/20 20:39:29","新北市泰山區文程路11號","121.42787","25.04977","6501600","泰山區"
"243011","KEA-2215","2018/07/20 20:39:23","新北市泰山區公園路89號","121.424446666667","25.055115","6501600","泰山區"
"243012","646-TV","2018/07/20 20:39:36","新北市泰山區橫窠雅2號","121.402006666667","25.0722183333333","6501600","泰山區"
"222003","436-BY","2018/07/20 20:39:22","新北市深坑區阿柔洋25-1號","121.613148333333","24.9990666666667","6501800","深坑區"
"222002","659-BX","2018/07/20 20:39:22","新北市深坑區萬福路45號","121.599476666667","25.0069316666667","6501800","深坑區"
"231041","002-UM","2018/07/20 20:39:29","新北市新店區中正路696號","121.534011666667","24.9905216666667","6500600","新店區"
"231059","046-UY","2018/07/20 20:39:37","新北市新店區僑信路132巷30號","121.500031666667","24.9455616666667","6500600","新店區"
"231040","047-UY","2018/07/20 20:39:26","新北市新店區中正路276號","121.538911666667","24.97378","6500600","新店區"
"231044","106-UY","2018/07/20 20:39:35","新北市新店區建國路257號","121.537365","24.9834733333333","6500600","新店區"
"231048","110-UY","2018/07/20 20:39:36","新北市新店區寶慶街5號","121.54417","24.9866183333333","6500600","新店區"
"231054","KEA-2219","2018/07/20 20:39:32","新北市新店區行政街20號","121.543183333333","24.965905","6500600","新店區"
"231057","256-BX","2018/07/20 20:39:28","新北市新店區花園二路一段9-6號","121.556333333333","24.9328533333333","6500600","新店區"
"231042","268-BY","2018/07/20 20:39:33","新北市新店區寶橋路238號","121.551575","24.9789616666667","6500600","新店區"
"231051","278-BY","2018/07/20 20:39:36","新北市新店區中央五街85號","121.52642","24.9764883333333","6500600","新店區"
"231050","AAD-862","2018/07/20 20:39:27","新北市新店區中正路265號","121.538058333333","24.9740216666667","6500600","新店區"
"231058","3713-VJ","2018/07/20 20:39:25","新北市新店區平等街21號","121.536731666667","24.97379","6500600","新店區"
"231066","4716-K9","2018/07/20 20:39:27","新北市新店區安民街365巷1弄8號","121.516335","24.975245","6500600","新店區"
"231056","4715-K9","2018/07/20 20:39:28","新北市新店區中央六街57號","121.528008333333","24.97604","6500600","新店區"
"231067","4772-VM","2018/07/20 20:39:29","新北市新店區安華路28-1號","121.51974","24.96086","6500600","新店區"
"231065","512-UM","2018/07/20 20:39:35","新北市新店區安祥路102巷119號","121.486341666667","24.96431","6500600","新店區"
"231049","513-UM","2018/07/20 20:39:35","新北市新店區永業路81巷5弄33號","121.531101666667","24.95003","6500600","新店區"
"231063","616-UM","2018/07/20 20:39:35","新北市新店區玫瑰路4-1號","121.49359","24.9514366666667","6500600","新店區"
"231045","617-UM","2018/07/20 20:39:21","新北市新店區長春路20-1號","121.549521666667","24.9567633333333","6500600","新店區"
"231061","619-UM","2018/07/20 20:39:21","新北市新店區新和街35號","121.51923","24.98495","6500600","新店區"
"231068","718-UY","2018/07/20 20:39:37","新北市新店區寶元路一段85巷8號","121.543133333333","24.985835","6500600","新店區"
"231064","719-UM","2018/07/20 20:39:24","新北市新店區安和路三段171號","121.516031666667","24.9861183333333","6500600","新店區"
"231053","719-UY","2018/07/20 20:39:26","新北市新店區廣興路7-6號","121.546241666667","24.9117183333333","6500600","新店區"
"231062","720-UM","2018/07/20 20:39:30","新北市新店區安泰路60巷55弄131號","121.484573333333","24.9467316666667","6500600","新店區"
"231060","897-TW","2018/07/20 20:39:23","新北市新店區安康路三段738號","121.47392","24.9420116666667","6500600","新店區"
"231043","899-TW","2018/07/20 20:39:33","新北市新店區建國路6-1號","121.539976666667","24.9734283333333","6500600","新店區"
"241011","013-R5","2018/07/20 20:39:36","新北市三重區河邊北街138號","121.503298333333","25.0720466666667","6500200","三重區"
"241028","022-UY","2018/07/20 20:39:38","新北市三重區光興街32號","121.497358333333","25.0598283333333","6500200","三重區"
"241008","059-VK","2018/07/20 20:39:39","新北市三重區下竹圍街42-1號","121.481015","25.074905","6500200","三重區"
"241022","060-VK","2018/07/20 20:39:25","新北市三重區中山路33巷27-5號","121.487955","25.0620616666667","6500200","三重區"
"241031","061-VK","2018/07/20 20:39:36","新北市三重區重陽路一段43巷30號","121.488148333333","25.0586766666667","6500200","三重區"
"241015","062-VK","2018/07/20 20:39:33","新北市三重區雙園街1號","121.497808333333","25.06842","6500200","三重區"
"241017","063-VK","2018/07/20 20:39:25","新北市三重區大同北路269號","121.49085","25.0673416666667","6500200","三重區"
"241024","065-VK","2018/07/20 20:39:25","新北市三重區忠孝路三段47號","121.480915","25.0666083333333","6500200","三重區"
"241026","066-VK","2018/07/20 20:39:23","新北市三重區和平街1號","121.500073333333","25.062355","6500200","三重區"
"241002","090-VK","2018/07/20 20:39:30","新北市三重區仁義街170號","121.496953333333","25.0812183333333","6500200","三重區"
"241005","262-UM","2018/07/20 20:39:23","新北市三重區碧華街428號","121.492476666667","25.085555","6500200","三重區"
"241016","266-UM","2018/07/20 20:39:23","新北市三重區長壽西街143-2號","121.494535","25.06678","6500200","三重區"
"241009","267-UM","2018/07/20 20:39:19","新北市三重區碧華街51號","121.48467","25.08137","6500200","三重區"
"241018","268-UM","2018/07/20 20:39:24","新北市三重區自強路一段316號","121.491103333333","25.0685133333333","6500200","三重區"
"241032","269-UM","2018/07/20 20:39:29","新北市三重區重陽路一段120巷35號","121.485108333333","25.060175","6500200","三重區"
"241013","270-UM","2018/07/20 20:39:27","新北市三重區三和路四段124號","121.489388333333","25.0751766666667","6500200","三重區"
"241025","271-UM","2018/07/20 20:39:29","新北市三重區忠孝路三段93巷10-1號","121.478836666667","25.0649333333333","6500200","三重區"
"241007","413-TH","2018/07/20 20:39:33","新北市三重區自強路四段5號","121.488493333333","25.0761966666667","6500200","三重區"
"241035","462-BY","2018/07/20 20:39:29","新北市三重區正義北路358號","121.493985","25.0712333333333","6500200","三重區"
"241004","475-VK","2018/07/20 20:39:34","新北市三重區仁愛街409號","121.490755","25.0811733333333","6500200","三重區"
"241020","478-VK","2018/07/20 20:39:37","新北市三重區忠孝路一段21號","121.491953333333","25.0718266666667","6500200","三重區"
"241030","480-VK","2018/07/20 20:39:32","新北市三重區成功路73巷18號","121.489436666667","25.0519633333333","6500200","三重區"
"241014","543-UM","2018/07/20 20:39:27","新北市三重區萬壽街16號","121.499456666667","25.06941","6500200","三重區"
"241023","545-UM","2018/07/20 20:39:39","新北市三重區自由街35巷2號","121.478975","25.066905","6500200","三重區"
"241019","KEA-2593","2018/07/20 20:39:28","新北市三重區忠孝路一段10巷33號","121.491125","25.0713016666667","6500200","三重區"
"241006","AAD-863","2018/07/20 20:39:22","新北市三重區車路頭街135-1號","121.484275","25.0761466666667","6500200","三重區"
"241001","887-TS","2018/07/20 20:39:33","新北市三重區自強路三段76巷27弄8號","121.485213333333","25.0743333333333","6500200","三重區"
"241012","941-UM","2018/07/20 20:39:31","新北市三重區秀江街31號","121.502061666667","25.07293","6500200","三重區"
"241029","942-UM","2018/07/20 20:39:30","新北市三重區集美街126巷26號","121.489981666667","25.0540016666667","6500200","三重區"
"241033","AAC-255","2018/07/20 20:39:19","新北市三重區興德路100號","121.472368333333","25.0531416666667","6500200","三重區"
"247010","KEA-2869","2018/07/20 20:39:27","新北市蘆洲區中山一路107號","121.476421666667","25.0815916666667","6501400","蘆洲區"
"235069","4980-A6","2018/07/20 20:39:26","新北市中和區中正路637巷3號","121.484896666667","24.9954","6500300","中和區"
"247024","893-R6","2018/07/20 20:39:25","新北市蘆洲區長樂路140號","121.462235","25.0902516666667","6501400","蘆洲區"
"247014","546-UM","2018/07/20 20:39:28","新北市蘆洲區中山一路230號","121.472873333333","25.080435","6501400","蘆洲區"
"247022","500-BY","2018/07/20 20:39:37","新北市蘆洲區中正路261號","121.467428333333","25.087375","6501400","蘆洲區"
"247012","339-TH","2018/07/20 20:39:32","新北市蘆洲區中興街61號","121.48165","25.0876966666667","6501400","蘆洲區"
"247004","337-TH","2018/07/20 20:39:35","新北市蘆洲區長安街222號","121.458121666667","25.0849983333333","6501400","蘆洲區"
"247006","336-TH","2018/07/20 20:39:32","新北市蘆洲區和平路121巷8弄22號","121.466311666667","25.0806033333333","6501400","蘆洲區"
"247008","056-VK","2018/07/20 20:39:34","新北市三重區仁愛街743號","121.481356666667","25.08064","6501400","蘆洲區"
"247016","007-UY","2018/07/20 20:39:33","新北市蘆洲區中山二路309號","121.469148333333","25.0771183333333","6501400","蘆洲區"
"247002","002-UY","2018/07/20 20:39:18","新北市蘆洲區永樂街83號","121.455813333333","25.0887816666667","6501400","蘆洲區"
"247020","001-UY","2018/07/20 20:39:29","新北市蘆洲區民族路424-1號","121.47393","25.0919366666667","6501400","蘆洲區"
"222001","KEA-2212","2018/07/20 20:39:28","新北市深坑區北深路三段234號","121.600596666667","25.004165","6501800","深坑區"
"251004","009-UM","2018/07/20 20:39:20","新北市淡水區中正東路二段143巷2弄1號","121.46053","25.1472466666667","6501000","淡水區"
"251002","012-UM","2018/07/20 20:39:36","新北市淡水區中正路38-1號","121.443733333333","25.16929","6501000","淡水區"
"251010","413-VK","2018/07/20 20:39:20","新北市淡水區沙崙路181巷15號","121.423966666667","25.1843433333333","6501000","淡水區"
"251012","441-VK","2018/07/20 20:39:22","新北市淡水區興仁路108號","121.451698333333","25.2181366666667","6501000","淡水區"
"251008","442-VK","2018/07/20 20:39:36","新北市淡水區新民街278號","121.435376666667","25.1817716666667","6501000","淡水區"
"251001","559-UM","2018/07/20 20:39:21","新北市淡水區淡金路218號","121.460266666667","25.16699","6501000","淡水區"
"251006","561-UM","2018/07/20 20:39:34","新北市淡水區商工路173號","121.447965","25.1883066666667","6501000","淡水區"
"251009","575-R6","2018/07/20 20:39:36","新北市淡水區民權路187巷38號","121.460836666667","25.1335066666667","6501000","淡水區"
"251007","577-R6","2018/07/20 20:39:30","新北市淡水區新市一路三段188號","121.44875","25.1832333333333","6501000","淡水區"
"251003","673-BX","2018/07/20 20:39:34","新北市淡水區新民街152巷6弄22號","121.438751666667","25.1785016666667","6501000","淡水區"
"252002","178-VK","2018/07/20 20:39:21","新北市三芝區淡金路二段47-2號","121.503695","25.2605233333333","6502100","三芝區"
"252001","292-VK","2018/07/20 20:39:35","新北市三芝區育英街29-1號","121.501273333333","25.2574033333333","6502100","三芝區"
"242034","AAC-296","2018/07/20 20:39:35","新北市新莊區建中街133號","121.445241666667","25.0363233333333","6500500","新莊區"
"242058","986-R7","2018/07/20 20:39:32","新北市新莊區四維路149號","121.422623333333","25.022125","6500500","新莊區"
"242054","751-BX","2018/07/20 20:39:21","新北市新莊區西盛街323巷3號","121.428371666667","25.014665","6500500","新莊區"
"242027","615-BX","2018/07/20 20:39:24","新北市新莊區思源路183號","121.459941666667","25.04548","6500500","新莊區"
"242025","613-BX","2018/07/20 20:39:23","新北市新莊區化成路579巷2號","121.464336666667","25.0664916666667","6500500","新莊區"
"242029","612-BX","2018/07/20 20:39:35","新北市新莊區新泰路202號","121.447016666667","25.0384433333333","6500500","新莊區"
"242041","566-BX","2018/07/20 20:39:39","新北市新莊區天祥街13號","121.417343333333","25.027515","6500500","新莊區"
"242046","497-BY","2018/07/20 20:39:21","新北市新莊區裕民街47號","121.418876666667","25.024815","6500500","新莊區"
"242050","441-UM","2018/07/20 20:39:32","新北市新莊區西盛街256號","121.427985","25.01588","6500500","新莊區"
"242056","440-UM","2018/07/20 20:39:37","新北市新莊區瓊泰路80巷45號","121.445001666667","25.02915","6500500","新莊區"
"242037","415-TV","2018/07/20 20:39:23","新北市新莊區建福路5號","121.42607","25.029545","6500500","新莊區"
"242007","413-TV","2018/07/20 20:39:28","新北市新莊區思源路287巷2弄1號","121.459301666667","25.0483166666667","6500500","新莊區"
"242044","400-BY","2018/07/20 20:39:24","新北市新莊區龍安路80號","121.417553333333","25.0208516666667","6500500","新莊區"
"242023","362-BY","2018/07/20 20:39:33","新北市新莊區思源路123號","121.459845","25.0425616666667","6500500","新莊區"
"242060","353-BY","2018/07/20 20:39:35","新北市新莊區新樹路260-2號","121.432396666667","25.01522","6500500","新莊區"
"242009","132-UY","2018/07/20 20:39:35","新北市新莊區昌隆街67號","121.45706","25.0509716666667","6500500","新莊區"
"242039","133-UY","2018/07/20 20:39:34","新北市新莊區瓊林北路15號","121.439225","25.0221883333333","6500500","新莊區"
"242048","172-VK","2018/07/20 20:39:31","新北市新莊區中正路516-35號","121.432671666667","25.0321666666667","6500500","新莊區"
"242011","173-VK","2018/07/20 20:39:26","新北市新莊區中榮街104巷21弄1號","121.44691","25.0536683333333","6500500","新莊區"
"242017","175-VK","2018/07/20 20:39:35","新北市新莊區中平路84號","121.444921666667","25.044925","6500500","新莊區"
"242021","348-TH","2018/07/20 20:39:34","新北市新莊區公園路100號","121.450723333333","25.0398366666667","6500500","新莊區"
"242002","349-TH","2018/07/20 20:39:31","新北市新莊區明中街41巷1號","121.458018333333","25.0388883333333","6500500","新莊區"
"242019","350-TH","2018/07/20 20:39:31","新北市新莊區銘德街140號","121.454633333333","25.0428466666667","6500500","新莊區"
"242013","351-TH","2018/07/20 20:39:24","新北市新莊區中和街175巷11號","121.447198333333","25.0505483333333","6500500","新莊區"
"221008","489-VK","2018/07/20 20:39:29","新北市汐止區康寧街861巷5號","121.6453","25.0761433333333","6501100","汐止區"
"221036","130-UY","2018/07/20 20:39:27","新北市汐止區新昌路55號","121.663225","25.0687416666667","6501100","汐止區"
"221015","131-UY","2018/07/20 20:39:36","新北市汐止區建成路38號","121.664051666667","25.0727883333333","6501100","汐止區"
"221012","278-VK","2018/07/20 20:39:21","新北市汐止區汐萬路一段39號","121.655063333333","25.0690483333333","6501100","汐止區"
"221023","279-VK","2018/07/20 20:39:21","新北市汐止區明峰街13號","121.635101666667","25.071355","6501100","汐止區"
"221032","280-BY","2018/07/20 20:39:24","新北市汐止區橫科路221巷19-1號","121.621486666667","25.0495283333333","6501100","汐止區"
"221027","281-BY","2018/07/20 20:39:31","新北市汐止區大同路二段563-1號","121.66279","25.0699616666667","6501100","汐止區"
"221033","297-VK","2018/07/20 20:39:23","新北市汐止區合順街18巷8弄5號","121.620278333333","25.041905","6501100","汐止區"
"221029","298-VK","2018/07/20 20:39:25","新北市汐止區大同路一段421號","121.642586666667","25.06101","6501100","汐止區"
"221021","299-VK","2018/07/20 20:39:28","新北市汐止區水源路一段284號","121.654111666667","25.0582883333333","6501100","汐止區"
"221031","353-TW","2018/07/20 20:39:26","新北市汐止區工建路202號","121.63677","25.0625233333333","6501100","汐止區"
"221035","622-UM","2018/07/20 20:39:29","新北市汐止區長江街101-5號","121.658691666667","25.0732333333333","6501100","汐止區"
"221025","623-UM","2018/07/20 20:39:29","新北市汐止區水源路二段283巷1號","121.659161666667","25.0498783333333","6501100","汐止區"
"221038","646-BX","2018/07/20 20:39:26","新北市汐止區汐萬路一段222號","121.651626666667","25.0729383333333","6501100","汐止區"
"221002","707-TV","2018/07/20 20:39:38","新北市汐止區福德二路136號","121.630781666667","25.0653333333333","6501100","汐止區"
"221018","753-BX","2018/07/20 20:39:36","新北市汐止區中華街57巷2號","121.667873333333","25.0714066666667","6501100","汐止區"
"242032","281-VK","2018/07/20 20:39:34","新北市新莊區義豐街13號","121.441085","25.0347983333333","6500500","新莊區"
"220103","561-BX","2018/07/20 20:39:33","新北市板橋區漢生東路63巷26號","121.466976666667","25.0171633333333","6500100","板橋區"
"220070","AAC-253","2018/07/20 20:37:59","新北市五股區中直路15-2號","121.423645","25.1109516666667","6500100","板橋區"
