"lineid","car","time","location","longitude","latitude","cityid","cityname"
"248005","653-BX","2018/07/21 07:29:31","新北市五股區明德路12巷6號","121.433343333333","25.0718","6501500","五股區"
"232004","290-BY","2018/07/21 07:29:37","新北市坪林區下坑子口6-15號","121.711101666667","24.9433816666667","6502000","坪林區"
"232016","291-BY","2018/07/21 07:29:41","新北市坪林區仁里14-2號","121.688843333333","24.9287366666667","6502000","坪林區"
"232010","375-UM","2018/07/21 07:29:39","新北市坪林區苦苓腳2號","121.71386","24.9367416666667","6502000","坪林區"
"232009","758-BX","2018/07/21 07:29:35","新北市坪林區北宜路七段328號","121.696771666667","24.932545","6502000","坪林區"
"244005","248-BX","2018/07/21 07:29:41","新北市林口區頂福69-1號","121.335886666667","25.0855233333333","6501700","林口區"
"235001","611-BX","2018/07/21 07:29:33","新北市中和區圓通路367巷8號","121.49159","24.9891883333333","6500300","中和區"
"226005","5620-A6","2018/07/21 07:29:38","新北市平溪區白石里中埔127號","121.723188333333","25.022825","6502400","平溪區"
"226007","7418-A5","2018/07/21 07:20:15","新北市平溪區望古里灰4-2號","121.763486666667","25.0293383333333","6502400","平溪區"
"226003","AGD-0702","2018/07/21 07:29:34","新北市平溪區望古里望古坑1-2號","121.745663333333","25.0389666666667","6502400","平溪區"
"223006","022-BY","2018/07/21 07:29:35","新北市石碇區半路店2號","121.648091666667","24.9687166666667","6501900","石碇區"
"223002","KEA-2673","2018/07/21 07:29:45","新北市石碇區烏塗窟1號","121.65621","24.9756733333333","6501900","石碇區"
"223003","205-TH","2018/07/21 07:25:20","新北市石碇區蓬菜寮17號","121.649191666667","24.9721","6501900","石碇區"
"223008","406-TH","2018/07/21 07:29:44","新北市石碇區靜安路一段342號","121.699286666667","25.009535","6501900","石碇區"
"223001","592-UM","2018/07/21 07:29:36","新北市石碇區中楒子腳2-10號","121.638971666667","24.9717083333333","6501900","石碇區"
"223004","660-BX","2018/07/21 07:29:35","新北市石碇區八分寮31-3號","121.643501666667","25.0121416666667","6501900","石碇區"
"223007","661-BX","2018/07/21 07:29:36","新北市石碇區大溪墘2-3號","121.698345","25.009155","6501900","石碇區"
"223005","677-TV","2018/07/21 07:29:42","新北市石碇區八分寮31-3號","121.644058333333","25.0122266666667","6501900","石碇區"
"227006","030-BX","2018/07/21 07:29:31","新北市雙溪區新基里自強路5號","121.866316666667","25.0390483333333","6502500","雙溪區"
"252004","249-BX","2018/07/21 07:29:49","新北市三芝區興華里楓子林55-1號","121.500801666667","25.2141233333333","6502100","三芝區"
"252007","AAC-283","2018/07/21 07:29:35","新北市三芝區古庄里古庄110-2號","121.495911666667","25.2620733333333","6502100","三芝區"
"237001","159-UY","2018/07/21 07:29:37","新北市三峽區隆恩街230號","121.358448333333","24.9414333333333","6500900","三峽區"
"236011","165-UM","2018/07/21 07:29:39","新北市板橋區信義路279巷1號","121.462098333333","24.989465","6501300","土城區"
"236002","339-SR","2018/07/21 07:29:33","新北市土城區承天路114號","121.449803333333","24.9493716666667","6501300","土城區"
