"lineid","car","time","location","longitude","latitude","cityid","cityname"
"234054","KEA-2590","2018/10/02 08:05:50","台北市內湖區安康路226巷2號","121.602908333333","25.06393","6500400","永和區"
"248005","653-BX","2018/10/02 08:19:08","新北市五股區明德路10號","121.433366666667","25.071775","6501500","五股區"
"244002","248-BX","2018/10/02 08:19:13","新北市林口區下福里11鄰137號","121.295195","25.1196533333333","6501700","林口區"
"222004","289-BY","2018/10/02 08:13:51","新北市深坑區昇高坑路50-1號","121.629533333333","24.9951266666667","6501800","深坑區"
"231007","189-VK","2018/10/02 08:19:01","新北市新店區新潭路一段52號","121.523883333333","24.9409366666667","6500600","新店區"
"231009","192-VK","2018/10/02 08:18:59","新北市新店區北宜路一段123-2號","121.540666666667","24.9533866666667","6500600","新店區"
"235001","611-BX","2018/10/02 08:19:00","新北市中和區錦和路350-1號","121.490678333333","24.9935366666667","6500300","中和區"
"235001","157-BY","2018/10/02 08:19:13","新北市中和區圓通路435巷2-11號","121.487561666667","24.9866833333333","6500300","中和區"
"226005","5620-A6","2018/10/02 08:19:03","新北市平溪區南山里南山坪106號","121.781876666667","25.0428883333333","6502400","平溪區"
"226002","7418-A5","2018/10/02 08:19:00","新北市平溪區靜安路三段152號","121.774713333333","25.0383116666667","6502400","平溪區"
"226006","AGD-0702","2018/10/02 08:19:01","新北市平溪區十分里十分街238號","121.778151666667","25.044165","6502400","平溪區"
"223006","022-BY","2018/10/02 08:19:14","新北市石碇區靜安路一段108號","121.64853","25.0081583333333","6501900","石碇區"
"223002","KEA-2673","2018/10/02 08:19:13","新北市石碇區崩山33-5號","121.678373333333","24.96284","6501900","石碇區"
"223003","205-TH","2018/10/02 08:19:10","新北市石碇區小粗坑(格頭里)1號","121.651626666667","24.952335","6501900","石碇區"
"223008","406-TH","2018/10/02 08:19:13","新北市石碇區靜安路一段197號","121.672671666667","25.0083033333333","6501900","石碇區"
"223004","437-BY","2018/10/02 08:19:00","新北市石碇區石崁1號","121.652201666667","24.9998633333333","6501900","石碇區"
"223001","592-UM","2018/10/02 08:18:57","新北市石碇區小粗坑(格頭里)1號","121.651563333333","24.9522866666667","6501900","石碇區"
"223007","661-BX","2018/10/02 08:19:03","新北市石碇區靜安路一段218號","121.672721666667","25.0074516666667","6501900","石碇區"
"223005","677-TV","2018/10/02 08:19:09","新北市石碇區石崁1號","121.651971666667","25.00025","6501900","石碇區"
"224007","275-VK","2018/10/02 08:19:06","新北市瑞芳區大寮路114-1號","121.78016","25.09798","6501200","瑞芳區"
"227006","282-VK","2018/10/02 08:19:06","新北市雙溪區牡丹里下坑7號","121.850868333333","25.0553366666667","6502500","雙溪區"
"252005","073-UM","2018/10/02 08:19:00","新北市三芝區中正路三段3號","121.503025","25.2542033333333","6502100","三芝區"
"252004","249-BX","2018/10/02 08:19:15","新北市三芝區興華里車埕62號","121.49871","25.1968933333333","6502100","三芝區"
"252007","AAC-283","2018/10/02 08:19:04","新北市三芝區後厝里大片頭66號","121.465241666667","25.2441333333333","6502100","三芝區"
"237001","159-UY","2018/10/02 08:19:03","新北市三峽區學勤路22號","121.37395","24.9456816666667","6500900","三峽區"
"242001","233-RS","2018/10/02 08:19:06","新北市板橋區大觀路三段36巷131號","121.435291666667","24.9996833333333","6500500","新莊區"
