"lineid","car","time","location","longitude","latitude","cityid","cityname"
"234044","148-BY","2018/10/02 12:58:50","新北市永和區得和路373巷16弄1號","121.525111666667","25.0003216666667","6500400","永和區"
"234005","207-UY","2018/10/02 12:58:47","新北市永和區永和路二段95號","121.514875","25.011525","6500400","永和區"
"234078","298-R6","2018/10/02 12:58:47","新北市永和區永貞路39巷13號","121.522336666667","25.0063933333333","6500400","永和區"
"234036","336-UY","2018/10/02 12:58:35","新北市中和區秀朗路三段38號","121.526518333333","24.9959583333333","6500400","永和區"
"234062","337-UY","2018/10/02 12:58:45","新北市永和區秀朗路一段140號","121.518003333333","25.003475","6500400","永和區"
"234084","338-UY","2018/10/02 12:58:40","新北市永和區永寧街121號","121.518015","25.0056866666667","6500400","永和區"
"234068","552-UM","2018/10/02 12:58:37","新北市永和區中興街84巷1號","121.518626666667","25.0119066666667","6500400","永和區"
"234015","745-BX","2018/10/02 12:58:51","新北市永和區永和路二段297號","121.516093333333","25.0159666666667","6500400","永和區"
"234028","746-BX","2018/10/02 12:58:49","新北市永和區秀朗路二段268號","121.52608","24.9982833333333","6500400","永和區"
"234052","KEA-2590","2018/10/02 12:58:37","新北市永和區竹林路66巷15-7號","121.51836","25.0132983333333","6500400","永和區"
"234012","KEA-2591","2018/10/02 12:58:44","新北市永和區信義路17巷9弄2號","121.513815","25.01149","6500400","永和區"
"234060","AAD-866","2018/10/02 12:58:45","新北市永和區福和路299號","121.516415","25.0073316666667","6500400","永和區"
"234066","748-BX","2018/10/02 12:58:48","新北市永和區永和路一段1號","121.512985","25.0052533333333","6500400","永和區"
"234040","862-TW","2018/10/02 12:58:37","新北市永和區永貞路304號","121.511953333333","25.0047983333333","6500400","永和區"
"234048","863-TW","2018/10/02 12:58:47","新北市永和區文化路192巷8弄1號","121.510946666667","25.0164633333333","6500400","永和區"
"234025","9371-KE","2018/10/02 12:58:36","新北市永和區水源街2巷24號","121.512085","25.00572","6500400","永和區"
"234010","9373-KE","2018/10/02 12:58:40","新北市永和區文化路113巷19號","121.513171666667","25.0140016666667","6500400","永和區"
"248017","225-UY","2018/10/02 12:58:44","新北市五股區中興路二段83巷26-3號","121.460043333333","25.0754566666667","6501500","五股區"
"234022","9380-KE","2018/10/02 12:58:43","新北市永和區竹林路75巷15-1號","121.519658333333","25.01362","6500400","永和區"
"234076","969-R7","2018/10/02 12:58:44","新北市永和區民享街9號","121.515255","24.99544","6500400","永和區"
"234001","AAC-295","2018/10/02 12:58:51","新北市永和區永平路9號","121.513408333333","25.0087283333333","6500400","永和區"
"244002","248-BX","2018/10/02 12:58:45","新北市林口區中山路250號","121.386041666667","25.0794983333333","6501700","林口區"
"231028","001-UM","2018/10/02 12:58:45","新北市新店區安華路28-1號","121.51955","24.9609833333333","6500600","新店區"
"231005","106-UY","2018/10/02 12:58:47","新北市新店區安華路28-1號","121.519641666667","24.9608266666667","6500600","新店區"
"231010","107-UY","2018/10/02 12:58:47","新北市新店區安一路一段1-1號","121.519566666667","24.961405","6500600","新店區"
"231020","110-UY","2018/10/02 12:58:49","新北市新店區安一路一段1-1號","121.51956","24.961115","6500600","新店區"
"231012","187-VK","2018/10/02 12:58:34","新北市新店區安一路一段1-1號","121.51954","24.9611933333333","6500600","新店區"
"231031","188-VK","2018/10/02 12:58:49","新北市新店區安一路一段1-1號","121.519395","24.961265","6500600","新店區"
"231003","268-BY","2018/10/02 12:58:34","新北市新店區安華路28-1號","121.519405","24.9606633333333","6500600","新店區"
"231018","278-BY","2018/10/02 12:58:53","新北市新店區安一路一段1-1號","121.519773333333","24.9610883333333","6500600","新店區"
"231015","AAD-862","2018/10/02 12:58:49","新北市新店區安一路一段1-1號","121.51975","24.9611533333333","6500600","新店區"
"231037","4716-K9","2018/10/02 12:58:42","新北市新店區安一路一段1-1號","121.519446666667","24.9611183333333","6500600","新店區"
"231036","512-UM","2018/10/02 12:58:37","新北市新店區安一路一段1-1號","121.51941","24.9612233333333","6500600","新店區"
"231006","617-UM","2018/10/02 12:58:43","新北市新店區安華路28-1號","121.519468333333","24.9609083333333","6500600","新店區"
"231030","619-UM","2018/10/02 12:58:45","新北市新店區安華路28-1號","121.519535","24.9609783333333","6500600","新店區"
"231035","719-UM","2018/10/02 12:58:43","新北市新店區安一路一段1-1號","121.51951","24.9612433333333","6500600","新店區"
"231023","719-UY","2018/10/02 12:58:46","新北市新店區安一路一段1-1號","121.519456666667","24.96111","6500600","新店區"
"231029","897-TW","2018/10/02 12:58:52","新北市新店區安華路28-1號","121.51957","24.9608783333333","6500600","新店區"
"231004","899-TW","2018/10/02 12:58:31","新北市新店區安華路28-1號","121.519451666667","24.9608516666667","6500600","新店區"
"231024","AKT-0513","2018/10/02 12:58:38","新北市新店區安華路28-1號","121.519455","24.9606483333333","6500600","新店區"
"235028","005-UY","2018/10/02 12:58:35","新北市中和區員山路36巷16-3號","121.485","24.9914566666667","6500300","中和區"
"235027","006-UY","2018/10/02 12:58:44","新北市中和區員山路36巷16-3號","121.485023333333","24.99133","6500300","中和區"
"235029","098-UM","2018/10/02 12:58:45","新北市中和區景平路997巷2號","121.49563","25.0056583333333","6500300","中和區"
"235022","151-BY","2018/10/02 12:58:37","新北市中和區錦和路400號","121.491031666667","24.990065","6500300","中和區"
"235002","185-VK","2018/10/02 12:58:46","新北市中和區成功路56號","121.526005","24.9923516666667","6500300","中和區"
"235031","255-BX","2018/10/02 12:58:46","新北市中和區中山路二段550號","121.483961666667","25.0053166666667","6500300","中和區"
"235034","558-UM","2018/10/02 12:58:46","新北市中和區員山路36巷16-2號","121.485136666667","24.9918783333333","6500300","中和區"
"235001","611-BX","2018/10/02 12:58:50","新北市中和區中山路三段136巷29號","121.473631666667","25.0077733333333","6500300","中和區"
"235018","640-BX","2018/10/02 12:58:42","新北市中和區員山路36巷16-4號","121.485078333333","24.9920633333333","6500300","中和區"
"235035","783-BX","2018/10/02 12:58:50","新北市中和區連城路469巷3號","121.483613333333","24.9957983333333","6500300","中和區"
"235026","800-TS","2018/10/02 12:58:44","新北市中和區連城路190號","121.492621666667","24.9970116666667","6500300","中和區"
"235016","805-TS","2018/10/02 12:58:44","新北市中和區員山路36巷16號","121.484408333333","24.9915683333333","6500300","中和區"
"235015","157-BY","2018/10/02 12:58:36","新北市中和區員山路36巷16-8號","121.485516666667","24.9924816666667","6500300","中和區"
"235001","AAC-213","2018/10/02 12:58:49","新北市中和區中正路277號","121.495231666667","24.9938733333333","6500300","中和區"
"228004","212-TW","2018/10/02 12:58:51","新北市貢寮區吉林里內寮街10-1號","121.88733","24.9890066666667","6502600","貢寮區"
"228005","828-UM","2018/10/02 12:58:46","新北市貢寮區福隆里東興街31-1號","121.952405","25.0207266666667","6502600","貢寮區"
"207002","749-BX","2018/10/02 12:58:48","新北市萬里區雙興里大坪路37-4號","121.629115","25.1695516666667","6502800","萬里區"
"207001","662-BX","2018/10/02 12:58:52","新北市萬里區萬里里獅頭路23號","121.693235","25.1783","6502800","萬里區"
"252005","AAC-283","2018/10/02 12:58:42","新北市三芝區忠孝街152號","121.50615","25.2585","6502100","三芝區"
"221010","269-BY","2018/10/02 12:58:49","新北市汐止區忠三街8號","121.624711666667","25.0784583333333","6501100","汐止區"
"221032","280-BY","2018/10/02 12:58:41","新北市汐止區建成路57巷22號","121.662298333333","25.0726566666667","6501100","汐止區"
"235025","KEA-2875","2018/10/02 12:58:48","新北市中和區員山路36巷16-2號","121.485165","24.9918016666667","6500300","中和區"
