"lineid","car","time","location","longitude","latitude","cityid","cityname"
"234044","148-BY","2018/10/02 13:38:50","新北市永和區永元路95巷4號","121.52253","25.00201","6500400","永和區"
"234005","207-UY","2018/10/02 13:38:47","新北市永和區永和路二段35號","121.514388333333","25.0104983333333","6500400","永和區"
"234078","298-R6","2018/10/02 13:38:50","新北市永和區國中路104巷8弄19號","121.525321666667","25.00642","6500400","永和區"
"234036","336-UY","2018/10/02 13:38:47","新北市永和區民樂街39巷13號","121.528278333333","25.000425","6500400","永和區"
"234062","337-UY","2018/10/02 13:38:45","新北市永和區秀朗路一段192巷6弄14號","121.519095","25.002265","6500400","永和區"
"234084","338-UY","2018/10/02 13:38:48","新北市永和區永亨路127號","121.524598333333","25.0040783333333","6500400","永和區"
"234068","552-UM","2018/10/02 13:38:34","新北市永和區永和路二段237-1號","121.515546666667","25.01446","6500400","永和區"
"234015","745-BX","2018/10/02 13:38:51","新北市永和區永和路二段425巷75弄6號","121.513291666667","25.0169283333333","6500400","永和區"
"234028","746-BX","2018/10/02 13:38:49","新北市永和區民權路29巷1號","121.520308333333","24.9978283333333","6500400","永和區"
"234052","KEA-2590","2018/10/02 13:38:37","新北市永和區復興街91號","121.517773333333","25.014125","6500400","永和區"
"234012","KEA-2591","2018/10/02 13:38:44","新北市永和區仁愛路230號","121.50862","25.0118066666667","6500400","永和區"
"234060","AAD-866","2018/10/02 13:38:39","新北市永和區中正路446號","121.517495","25.0028533333333","6500400","永和區"
"234066","748-BX","2018/10/02 13:38:51","新北市永和區永貞路406巷28號","121.509733333333","25.007985","6500400","永和區"
"234040","862-TW","2018/10/02 13:38:37","新北市永和區中和路449號","121.50983","25.001295","6500400","永和區"
"234048","863-TW","2018/10/02 13:38:47","新北市永和區保安路62號","121.510006666667","25.0164816666667","6500400","永和區"
"234025","9371-KE","2018/10/02 13:38:36","新北市永和區自由街50號","121.513808333333","25.0062266666667","6500400","永和區"
"234010","9373-KE","2018/10/02 13:38:46","新北市永和區保福路二段11號","121.510811666667","25.0109283333333","6500400","永和區"
"248017","225-UY","2018/10/02 13:38:44","新北市五股區民義路二段58號","121.406391666667","25.1077966666667","6501500","五股區"
"234022","9380-KE","2018/10/02 13:38:43","新北市永和區中正路702巷8號","121.516398333333","25.01031","6500400","永和區"
"234076","969-R7","2018/10/02 13:38:44","新北市永和區民權路58巷3號","121.519665","24.9982933333333","6500400","永和區"
"234072","AAC-211","2018/10/02 13:38:41","新北市永和區竹林路213巷39號","121.523221666667","25.0091533333333","6500400","永和區"
"234001","AAC-295","2018/10/02 13:38:51","新北市永和區福和路353號","121.514731666667","25.0072883333333","6500400","永和區"
"244002","248-BX","2018/10/02 13:38:45","新北市林口區南勢六街18號","121.357126666667","25.070625","6501700","林口區"
"231028","001-UM","2018/10/02 13:38:45","新北市新店區安康路一段302-3號","121.517718333333","24.964085","6500600","新店區"
"231002","002-UM","2018/10/02 13:38:49","新北市新店區溪園路403號","121.523955","24.9781433333333","6500600","新店區"
"231027","0293-UT","2018/10/02 13:38:54","新北市新店區能仁街12-2號","121.54057","24.9555133333333","6500600","新店區"
"231001","047-UY","2018/10/02 13:38:41","新北市新店區中正路438號","121.534153333333","24.978305","6500600","新店區"
"231005","106-UY","2018/10/02 13:38:47","新北市新店區中興路三段88號","121.545788333333","24.978105","6500600","新店區"
"231010","107-UY","2018/10/02 13:38:47","新北市新店區中正路307巷2號","121.536476666667","24.974535","6500600","新店區"
"231020","110-UY","2018/10/02 13:38:49","新北市新店區永興路88-1號","121.544028333333","24.9336783333333","6500600","新店區"
"231012","187-VK","2018/10/02 13:38:34","新北市新店區德正街24號","121.543926666667","24.9721166666667","6500600","新店區"
"231032","188-VK","2018/10/02 13:38:49","新北市新店區安華路16號","121.51721","24.957835","6500600","新店區"
"231026","256-BX","2018/10/02 13:38:43","新北市新店區中正路236號","121.539716666667","24.9730216666667","6500600","新店區"
"231003","268-BY","2018/10/02 13:38:54","新北市新店區中正路69號","121.543563333333","24.9701966666667","6500600","新店區"
"231018","278-BY","2018/10/02 13:38:33","新北市新店區百忍街11號","121.534696666667","24.9754383333333","6500600","新店區"
"231015","AAD-862","2018/10/02 13:38:49","新北市新店區竹林路28號","121.551823333333","24.9513833333333","6500600","新店區"
"231038","3712-VJ","2018/10/02 13:38:38","新北市新店區安華路28-1號","121.519316666667","24.9606783333333","6500600","新店區"
"231037","4716-K9","2018/10/02 13:38:42","新北市新店區薏仁坑路47-1號","121.494153333333","24.9640566666667","6500600","新店區"
"231025","4715-K9","2018/10/02 13:38:38","新北市新店區中央五街37號","121.528616666667","24.97511","6500600","新店區"
"231036","512-UM","2018/10/02 13:38:37","新北市新店區安祥路147巷31號","121.476003333333","24.9566733333333","6500600","新店區"
"231013","513-UM","2018/10/02 13:38:50","新北市新店區中正路454-5號","121.534443333333","24.9790466666667","6500600","新店區"
"231034","616-UM","2018/10/02 13:38:46","新北市新店區車子路117號","121.505395","24.9517883333333","6500600","新店區"
"231006","617-UM","2018/10/02 13:38:46","新北市新店區光明街1-1號","121.538116666667","24.95917","6500600","新店區"
"231030","619-UM","2018/10/02 13:38:47","新北市新店區安康路一段355-10號","121.520818333333","24.96386","6500600","新店區"
"231035","719-UM","2018/10/02 13:38:50","新北市新店區安忠路38號","121.513208333333","24.9595833333333","6500600","新店區"
"231023","719-UY","2018/10/02 13:38:46","新北市新店區新店路185號","121.537121666667","24.95607","6500600","新店區"
"231029","897-TW","2018/10/02 13:38:52","新北市新店區安康路二段239號","121.50814","24.9585816666667","6500600","新店區"
"231004","899-TW","2018/10/02 13:38:31","新北市新店區北新路一段229號","121.54064","24.96544","6500600","新店區"
"231024","AKT-0513","2018/10/02 13:38:38","新北市新店區北新路一段271巷38號","121.539768333333","24.967275","6500600","新店區"
"235030","003-UY","2018/10/02 13:38:53","新北市中和區水源路39號","121.504625","25.003595","6500300","中和區"
"235028","005-UY","2018/10/02 13:38:35","新北市中和區連城路77號","121.497295","25.0001933333333","6500300","中和區"
"235027","006-UY","2018/10/02 13:38:44","新北市中和區連城路347巷16弄8-3號","121.487943333333","24.9950833333333","6500300","中和區"
"235020","096-UM","2018/10/02 13:38:39","新北市中和區員山路466巷21弄54號","121.48098","25.0075983333333","6500300","中和區"
"235003","097-UM","2018/10/02 13:38:48","新北市中和區大勇街25巷21號","121.515545","24.99381","6500300","中和區"
"235029","098-UM","2018/10/02 13:38:45","新北市中和區中山路二段2巷81弄1號","121.501031666667","25.007495","6500300","中和區"
"235022","151-BY","2018/10/02 13:38:37","新北市中和區員山路24-1號","121.483758333333","24.9854933333333","6500300","中和區"
"235019","183-VK","2018/10/02 13:38:39","新北市中和區國光街102巷25號","121.471211666667","25.0007033333333","6500300","中和區"
"235002","185-VK","2018/10/02 13:38:46","新北市中和區大勇街60巷31號","121.518965","24.9947416666667","6500300","中和區"
"235013","186-VK","2018/10/02 13:38:53","新北市中和區明義街11巷12弄2號","121.503715","24.9946733333333","6500300","中和區"
"235031","255-BX","2018/10/02 13:38:46","新北市中和區新生街220巷1弄1號","121.483463333333","24.9984466666667","6500300","中和區"
"235036","301-VK","2018/10/02 13:38:36","新北市中和區連城路207號","121.494625","24.997905","6500300","中和區"
"235006","KEA-2878","2018/10/02 13:38:44","新北市中和區成功路97巷7號","121.52654","24.9920883333333","6500300","中和區"
"235014","4979-A6","2018/10/02 13:38:50","新北市中和區景新街496巷28弄6號","121.513185","24.9859","6500300","中和區"
"235033","4980-A6","2018/10/02 13:38:50","新北市中和區連城路99巷72號","121.497338333333","24.9982633333333","6500300","中和區"
"235034","558-UM","2018/10/02 13:38:46","新北市中和區景平路584號","121.501196666667","24.9958216666667","6500300","中和區"
"235009","565-BX","2018/10/02 13:38:52","新北市中和區南山路236巷34-8號","121.50461","24.9882566666667","6500300","中和區"
"235018","640-BX","2018/10/02 13:38:42","新北市中和區民享街32巷20號","121.472838333333","25.003175","6500300","中和區"
"235011","732-UM","2018/10/02 13:38:41","新北市中和區南山路320巷10弄21號","121.506746666667","24.9867116666667","6500300","中和區"
"235035","783-BX","2018/10/02 13:38:50","新北市中和區立德街57號","121.487898333333","25.0076966666667","6500300","中和區"
"235026","800-TS","2018/10/02 13:38:44","新北市中和區中山路二段312巷23號","121.49574","25.0033466666667","6500300","中和區"
"235021","801-TS","2018/10/02 13:38:52","新北市中和區民安街43號","121.479871666667","25.00024","6500300","中和區"
"235005","802-TS","2018/10/02 13:38:40","新北市中和區中和路400巷29號","121.512021666667","25.0021466666667","6500300","中和區"
"235016","805-TS","2018/10/02 13:38:44","新北市中和區興南路三段52巷1-3號","121.494243333333","24.9759183333333","6500300","中和區"
"235017","900-TW","2018/10/02 13:38:45","新北市土城區延壽路55巷1號","121.469823333333","24.9921866666667","6500300","中和區"
"235015","157-BY","2018/10/02 13:38:36","新北市中和區華新街143巷106弄7號","121.506225","24.9789216666667","6500300","中和區"
"235001","AAC-213","2018/10/02 13:38:49","新北市中和區景德街52號","121.517611666667","24.991525","6500300","中和區"
"235023","AAC-215","2018/10/02 13:38:44","新北市中和區中正路589巷15號","121.485645","24.9936866666667","6500300","中和區"
"220013","072-UY","2018/10/02 13:38:36","新北市板橋區漢生東路280號","121.470381666667","25.0099383333333","6500100","板橋區"
"220034","073-UY","2018/10/02 13:38:52","新北市板橋區南雅西路二段192巷3號","121.452098333333","25.01444","6500100","板橋區"
"220017","AAD-861","2018/10/02 13:38:46","新北市板橋區華東街1-10號","121.448385","24.9949666666667","6500100","板橋區"
"247009","056-VK","2018/10/02 13:38:40","新北市五股區中興路三段2巷10號","121.449178333333","25.08084","6501400","蘆洲區"
"247003","002-UY","2018/10/02 13:38:51","新北市五股區中興路二段182巷50號","121.456198333333","25.0817333333333","6501400","蘆洲區"
"247021","001-UY","2018/10/02 13:38:42","新北市五股區中興路三段2巷10號","121.449343333333","25.0808983333333","6501400","蘆洲區"
"235007","251-BX","2018/10/02 13:38:41","新北市中和區景平路129號","121.514883333333","24.9920783333333","6500300","中和區"
"228004","212-TW","2018/10/02 13:36:31","新北市貢寮區龍崗里石壁坑街30-1號","121.910628333333","24.999845","6502600","貢寮區"
"228005","828-UM","2018/10/02 13:38:46","新北市貢寮區美豐里文秀坑5-3號","121.903326666667","25.05158","6502600","貢寮區"
"207002","749-BX","2018/10/02 13:38:48","新北市萬里區崁腳里崁腳路166號","121.64513","25.1558583333333","6502800","萬里區"
"207001","662-BX","2018/10/02 13:38:51","新北市萬里區大鵬里萬里加投18-3號","121.649681666667","25.2086116666667","6502800","萬里區"
"252005","AAC-283","2018/10/02 13:38:42","新北市三芝區圓山里二坪頂47號","121.538891666667","25.2430266666667","6502100","三芝區"
"236074","166-UM","2018/10/02 13:38:42","新北市土城區城林路6巷80號","121.438758333333","24.9796366666667","6501300","土城區"
"236032","271-VK","2018/10/02 13:38:36","新北市土城區城林路6巷80號","121.43854","24.9798033333333","6501300","土城區"
"236017","401-BY","2018/10/02 13:38:53","新北市土城區城林路6巷80號","121.43855","24.9798633333333","6501300","土城區"
"236045","913-UM","2018/10/02 13:38:50","新北市土城區城林路6巷80號","121.43852","24.9796983333333","6501300","土城區"
"236060","915-UM","2018/10/02 13:38:53","新北市土城區城林路6巷80號","121.438493333333","24.9797583333333","6501300","土城區"
"221010","269-BY","2018/10/02 13:38:49","新北市汐止區長青路210巷190號","121.616168333333","25.1130533333333","6501100","汐止區"
"221032","280-BY","2018/10/02 13:38:41","新北市汐止區仁愛路27號","121.65931","25.0637","6501100","汐止區"
"220027","145-BY","2018/10/02 13:38:47","新北市板橋區林園街54號","121.45391","25.01066","6500100","板橋區"
"220028","200-UY","2018/10/02 13:38:39","新北市板橋區大觀路二段431-1號","121.44147","24.9950716666667","6500100","板橋區"
"220030","610-BX","2018/10/02 13:38:43","新北市板橋區大觀路三段50巷47號","121.432816666667","24.9958733333333","6500100","板橋區"
"220004","276-BY","2018/10/02 13:38:49","新北市板橋區四川路二段140巷16弄28號","121.44862","24.9943916666667","6500100","板橋區"
"220020","277-BY","2018/10/02 13:38:46","新北市板橋區大觀路二段265巷7-7號","121.444091666667","24.9945816666667","6500100","板橋區"
"220019","283-VK","2018/10/02 13:38:35","新北市土城區四川路16號","121.455458333333","24.9960483333333","6500100","板橋區"
"220043","285-UM","2018/10/02 13:38:36","新北市板橋區民生路二段161巷1號","121.470071666667","25.0199183333333","6500100","板橋區"
"220031","286-VK","2018/10/02 13:38:50","新北市板橋區大觀路288號","121.449661666667","24.9982216666667","6500100","板橋區"
"220029","287-VK","2018/10/02 13:38:49","新北市板橋區大觀路二段153巷46弄1號","121.4485","24.9986933333333","6500100","板橋區"
"220039","288-VK","2018/10/02 13:38:50","新北市板橋區民生路二段120號","121.47085","25.0196833333333","6500100","板橋區"
"220009","293-UM","2018/10/02 13:38:46","新北市板橋區民生路二段120號","121.470395","25.01956","6500100","板橋區"
"220016","295-UM","2018/10/02 13:38:50","新北市板橋區民生路二段120號","121.470585","25.0196983333333","6500100","板橋區"
"220032","296-UM","2018/10/02 13:38:45","新北市板橋區板城路421號","121.44806","24.99641","6500100","板橋區"
"220023","303-R5","2018/10/02 13:38:42","新北市板橋區華東街328號","121.452683333333","25.0032183333333","6500100","板橋區"
"220010","305-R5","2018/10/02 13:38:44","新北市板橋區民生路二段120號","121.470458333333","25.0195616666667","6500100","板橋區"
"220047","317-R6","2018/10/02 13:38:41","新北市板橋區民生路二段161巷1號","121.470206666667","25.0199116666667","6500100","板橋區"
"220012","486-VK","2018/10/02 13:38:54","新北市板橋區民生路二段36-1號","121.472321666667","25.0169","6500100","板橋區"
"220104","560-BX","2018/10/02 13:38:47","新北市板橋區南雅西路二段145巷10號","121.45148","25.01196","6500100","板橋區"
"220011","609-BX","2018/10/02 13:38:39","新北市板橋區民生路二段177號","121.469841666667","25.0202816666667","6500100","板橋區"
"220005","686-BX","2018/10/02 13:38:42","新北市板橋區華東街1-9號","121.44821","24.9949433333333","6500100","板橋區"
"220025","687-BX","2018/10/02 13:38:51","新北市板橋區沙崙街2-5號","121.43105","24.9944183333333","6500100","板橋區"
"220002","741-BX","2018/10/02 13:38:49","新北市板橋區板城路421號","121.448158333333","24.9957133333333","6500100","板橋區"
"220003","827-TW","2018/10/02 13:38:32","新北市板橋區華東街1-8號","121.447631666667","24.9949616666667","6500100","板橋區"
"220045","831-TW","2018/10/02 13:36:29","新北市板橋區民生路二段161巷1號","121.47028","25.0198816666667","6500100","板橋區"
"220037","833-TW","2018/10/02 13:38:50","新北市板橋區民生路二段120號","121.470421666667","25.0195583333333","6500100","板橋區"
"220022","895-R6","2018/10/02 13:38:49","新北市板橋區南雅南路一段60-1號","121.455475","25.0054133333333","6500100","板橋區"
"235032","KEA-2873","2018/10/02 13:38:40","新北市中和區中正路211巷13弄7號","121.497176666667","24.9931566666667","6500300","中和區"
"235025","KEA-2875","2018/10/02 13:38:48","新北市中和區民享街92巷3號","121.474363333333","24.9997683333333","6500300","中和區"
"235024","KEA-2876","2018/10/02 13:38:40","新北市中和區中山路二段461號","121.483705","25.00494","6500300","中和區"
