"lineid","car","time","location","longitude","latitude","cityid","cityname"
"234012","KEA-2591","2018/10/02 14:48:44","新北市新店區薏仁坑路自強巷1號","121.497726666667","24.9576733333333","6500400","永和區"
"234040","862-TW","2018/10/02 14:48:37","新北市新店區安德街148巷31號","121.50567","24.9603833333333","6500400","永和區"
"234048","863-TW","2018/10/02 14:48:46","新北市新店區安和路三段4巷3號","121.51851","24.9809833333333","6500400","永和區"
"234025","9371-KE","2018/10/02 14:48:36","新北市永和區中和路465號","121.509951666667","25.00177","6500400","永和區"
"248017","225-UY","2018/10/02 14:48:44","新北市五股區外寮路13-1號","121.424798333333","25.0812416666667","6501500","五股區"
"244002","248-BX","2018/10/02 14:48:25","新北市林口區竹林路267號","121.389565","25.080885","6501700","林口區"
"231028","001-UM","2018/10/02 14:48:44","新北市新店區安德街90號","121.50958","24.96116","6500600","新店區"
"231002","002-UM","2018/10/02 14:48:49","新北市新店區民權路96號","121.536573333333","24.9831033333333","6500600","新店區"
"231027","0293-UT","2018/10/02 14:48:54","新北市新店區中央二街62號","121.52647","24.9742716666667","6500600","新店區"
"231001","047-UY","2018/10/02 14:48:41","新北市新店區三民路125號","121.534643333333","24.97241","6500600","新店區"
"231005","106-UY","2018/10/02 14:48:47","新北市新店區復興路2號","121.53251","24.988295","6500600","新店區"
"231020","110-UY","2018/10/02 14:48:49","新北市新店區桂山路37號","121.562861666667","24.9045666666667","6500600","新店區"
"231012","187-VK","2018/10/02 14:48:34","新北市新店區寶橋路162號","121.549081666667","24.9771033333333","6500600","新店區"
"231026","256-BX","2018/10/02 14:48:50","新北市新店區安一路一段1-1號","121.519736666667","24.9617683333333","6500600","新店區"
"231003","268-BY","2018/10/02 14:48:34","新北市新店區中興路二段186-2號","121.548038333333","24.97263","6500600","新店區"
"231018","278-BY","2018/10/02 14:48:53","新北市新店區中央六街5號","121.530346666667","24.9744933333333","6500600","新店區"
"231015","AAD-862","2018/10/02 14:48:49","新北市新店區北宜路三段132號","121.583298333333","24.9501483333333","6500600","新店區"
"231038","3712-VJ","2018/10/02 14:48:38","新北市新店區安華路28-1號","121.519816666667","24.9609","6500600","新店區"
"231037","4716-K9","2018/10/02 14:48:42","新北市新店區安德街148巷31號","121.506003333333","24.960545","6500600","新店區"
"231025","4715-K9","2018/10/02 14:48:38","新北市新店區民族路100號","121.539185","24.9781633333333","6500600","新店區"
"231036","512-UM","2018/10/02 14:48:37","新北市新店區安祥路104巷6弄36號","121.483128333333","24.963","6500600","新店區"
"231013","513-UM","2018/10/02 14:48:50","新北市新店區北新路二段64號","121.542858333333","24.97221","6500600","新店區"
"231034","616-UM","2018/10/02 14:48:36","新北市新店區玫瑰路4-1號","121.493561666667","24.9514316666667","6500600","新店區"
"231006","617-UM","2018/10/02 14:48:43","新北市新店區北宜路一段107-2號","121.539471666667","24.955105","6500600","新店區"
"231030","619-UM","2018/10/02 14:48:45","新北市新店區安民街354號","121.516766666667","24.9757633333333","6500600","新店區"
"231035","719-UM","2018/10/02 14:48:34","新北市新店區安利街28號","121.51915","24.9747166666667","6500600","新店區"
"231023","719-UY","2018/10/02 14:48:46","新北市新店區檳榔路150號","121.544343333333","24.9615183333333","6500600","新店區"
"231029","897-TW","2018/10/02 14:48:51","新北市新店區錦秀路5號","121.479371666667","24.944865","6500600","新店區"
"231004","899-TW","2018/10/02 14:48:52","新北市新店區建國路133號","121.539301666667","24.9781716666667","6500600","新店區"
"231024","AKT-0513","2018/10/02 14:48:38","新北市新店區中華路83巷17號","121.53873","24.9681316666667","6500600","新店區"
"235030","003-UY","2018/10/02 14:48:53","新北市中和區南工路26號","121.505611666667","25.0008716666667","6500300","中和區"
"235027","006-UY","2018/10/02 14:48:44","新北市中和區連城路263巷11弄2號","121.492505","24.9951983333333","6500300","中和區"
"235020","096-UM","2018/10/02 14:48:39","新北市中和區中山路三段61號","121.476678333333","25.00578","6500300","中和區"
"235003","097-UM","2018/10/02 14:48:39","新北市中和區宜安路18巷11號","121.51403","24.99624","6500300","中和區"
"235029","098-UM","2018/10/02 14:48:44","新北市中和區永和路106號","121.49658","25.00565","6500300","中和區"
"235040","150-BY","2018/10/02 14:48:36","新北市中和區安平路59號","121.509653333333","24.994955","6500300","中和區"
"235022","151-BY","2018/10/02 14:48:42","新北市中和區員山路148巷29號","121.482215","24.99716","6500300","中和區"
"235002","185-VK","2018/10/02 14:48:46","新北市中和區自強路2號","121.52029","24.99613","6500300","中和區"
"235013","186-VK","2018/10/02 14:48:52","新北市中和區中正路60號","121.501465","24.9937883333333","6500300","中和區"
"235031","255-BX","2018/10/02 14:48:45","新北市中和區新生街233巷2號","121.48409","24.9991383333333","6500300","中和區"
"235008","293-VK","2018/10/02 14:48:51","新北市中和區南山路160號","121.504515","24.9918","6500300","中和區"
"235036","301-VK","2018/10/02 14:48:36","新北市中和區中山路二段3巷22弄20號","121.506008333333","25.0046133333333","6500300","中和區"
"235006","KEA-2878","2018/10/02 14:48:43","新北市新店區安興路112號","121.515096666667","24.9773216666667","6500300","中和區"
"235014","4979-A6","2018/10/02 14:48:51","新北市中和區和平街164巷4號","121.505955","24.99237","6500300","中和區"
"235034","558-UM","2018/10/02 14:48:46","新北市中和區圓通路119號","121.499258333333","24.9962966666667","6500300","中和區"
"235018","640-BX","2018/10/02 14:48:42","新北市中和區莒光路207-8號","121.47037","24.9962816666667","6500300","中和區"
"235011","732-UM","2018/10/02 14:48:41","新北市中和區和平街74號","121.50776","24.9911333333333","6500300","中和區"
"235010","733-UM","2018/10/02 14:48:52","新北市中和區仁愛街43號","121.511038333333","24.9883883333333","6500300","中和區"
"235035","783-BX","2018/10/02 14:48:50","新北市中和區建康路89號","121.487428333333","25.0002316666667","6500300","中和區"
"235026","800-TS","2018/10/02 14:48:43","新北市中和區中山路二段504號","121.486646666667","25.0050066666667","6500300","中和區"
"235005","802-TS","2018/10/02 14:48:40","新北市中和區中和路262號","121.508323333333","24.9994883333333","6500300","中和區"
"235016","805-TS","2018/10/02 14:48:44","新北市中和區華新街95號","121.508651666667","24.9830316666667","6500300","中和區"
"235012","896-TW","2018/10/02 14:48:45","新北市中和區忠孝街122-1號","121.512185","24.985825","6500300","中和區"
"235017","900-TW","2018/10/02 14:48:45","新北市中和區國光街173號","121.46804","25.0014783333333","6500300","中和區"
"235015","157-BY","2018/10/02 14:48:36","新北市中和區景安路247巷13號","121.504698333333","24.990625","6500300","中和區"
"235001","AAC-213","2018/10/02 14:48:49","新北市中和區秀朗路三段171號","121.524475","24.9916116666667","6500300","中和區"
"235023","AAC-215","2018/10/02 14:48:44","新北市中和區圓通路305巷5弄1號","121.493623333333","24.990355","6500300","中和區"
"220013","072-UY","2018/10/02 14:48:56","新北市板橋區海山路27號","121.467655","25.0090833333333","6500100","板橋區"
"220105","075-UY","2018/10/02 14:48:43","新北市板橋區民治街61巷24號","121.480538333333","25.033375","6500100","板橋區"
"220017","AAD-861","2018/10/02 14:48:46","新北市板橋區貴興路60號","121.45669","25.0030683333333","6500100","板橋區"
"247001","893-R6","2018/10/02 14:48:53","新北市蘆洲區永康街2巷6號","121.45937","25.0861566666667","6501400","蘆洲區"
"247023","500-BY","2018/10/02 14:48:41","新北市蘆洲區中山二路282號","121.468958333333","25.0779883333333","6501400","蘆洲區"
"247004","002-UY","2018/10/02 14:47:54","新北市五股區中興路三段2巷10號","121.449155","25.0809683333333","6501400","蘆洲區"
"235007","251-BX","2018/10/02 14:48:41","新北市中和區安樂路37號","121.511935","24.9930916666667","6500300","中和區"
"228004","212-TW","2018/10/02 14:48:51","新北市貢寮區福隆里裕隆街5號","121.946145","25.015935","6502600","貢寮區"
"228005","828-UM","2018/10/02 14:48:46","新北市貢寮區美豐里丹裡街54號","121.906086666667","25.0594216666667","6502600","貢寮區"
"207002","749-BX","2018/10/02 14:48:48","新北市萬里區崁腳里崁腳路73號","121.647598333333","25.1595383333333","6502800","萬里區"
"207001","662-BX","2018/10/02 14:48:51","新北市萬里區雙興里豐稟路32號","121.645416666667","25.18048","6502800","萬里區"
"252005","AAC-283","2018/10/02 14:48:42","新北市三芝區埔坪里埔頭坑116號","121.517123333333","25.24527","6502100","三芝區"
"236065","105-UM","2018/10/02 14:48:52","新北市土城區明德路二段99巷2弄2號","121.450336666667","24.9810766666667","6501300","土城區"
"236074","166-UM","2018/10/02 14:48:42","新北市土城區中央路四段69號","121.417518333333","24.957935","6501300","土城區"
"236029","253-BX","2018/10/02 14:48:39","新北市土城區忠義路26巷10號","121.4398","24.9699216666667","6501300","土城區"
"236024","269-VK","2018/10/02 14:48:48","新北市土城區慶安街54號","121.440981666667","24.9731716666667","6501300","土城區"
"236013","270-VK","2018/10/02 14:48:51","新北市土城區金城路二段356號","121.461495","24.9850183333333","6501300","土城區"
"236017","401-BY","2018/10/02 14:48:33","新北市土城區延吉街194號","121.467668333333","24.9851116666667","6501300","土城區"
"236040","752-BX","2018/10/02 14:48:39","新北市土城區裕民路145號","121.451876666667","24.9862366666667","6501300","土城區"
"236057","912-UM","2018/10/02 14:48:36","新北市土城區金城路一段131號","121.445026666667","24.97377","6501300","土城區"
"236045","913-UM","2018/10/02 14:48:50","新北市土城區青雲路83號","121.459311666667","24.9860066666667","6501300","土城區"
"236060","915-UM","2018/10/02 14:48:51","新北市土城區金城路三段207巷8弄9號","121.470145","24.9904","6501300","土城區"
"236054","AAC-216","2018/10/02 14:48:43","新北市土城區裕民路217號","121.45386","24.9840533333333","6501300","土城區"
"221010","269-BY","2018/10/02 14:48:49","新北市汐止區八連路一段86巷2號","121.64496","25.0805566666667","6501100","汐止區"
"220027","145-BY","2018/10/02 14:48:47","新北市板橋區中正路135巷22號","121.45523","25.0154333333333","6500100","板橋區"
"220028","200-UY","2018/10/02 14:48:54","新北市板橋區大觀路二段169巷2號","121.445373333333","25.0002066666667","6500100","板橋區"
"220030","610-BX","2018/10/02 14:48:42","新北市板橋區溪崑二街21號","121.42868","24.9913566666667","6500100","板橋區"
"220050","245-BX","2018/10/02 14:48:51","新北市板橋區縣民大道三段97巷6號","121.47599","25.0223483333333","6500100","板橋區"
"220052","257-TC","2018/10/02 14:48:51","新北市板橋區陽明街29巷29號","121.46395","25.0224566666667","6500100","板橋區"
"220040","267-BY","2018/10/02 14:48:38","新北市板橋區民治街81巷15號","121.480356666667","25.03221","6500100","板橋區"
"220020","277-BY","2018/10/02 14:48:47","新北市板橋區篤行路二段1巷3號","121.432288333333","24.9930133333333","6500100","板橋區"
"220019","283-VK","2018/10/02 14:48:35","新北市中和區和平路200巷25號","121.464891666667","24.9948083333333","6500100","板橋區"
"220043","285-UM","2018/10/02 14:48:56","新北市板橋區長江路一段150號","121.460936666667","25.0302533333333","6500100","板橋區"
"220001","285-VK","2018/10/02 14:48:53","新北市板橋區中山路二段60巷1弄23號","121.475016666667","25.01579","6500100","板橋區"
"220031","286-VK","2018/10/02 14:48:51","新北市板橋區僑中二街10巷20號","121.446213333333","25.01106","6500100","板橋區"
"220029","287-VK","2018/10/02 14:48:49","新北市板橋區僑中一街80巷14弄2號","121.44824","25.01345","6500100","板橋區"
"220039","288-VK","2018/10/02 14:48:50","新北市板橋區新海路109巷1弄2號","121.460728333333","25.0223983333333","6500100","板橋區"
"220009","293-UM","2018/10/02 14:48:46","新北市板橋區觀光街7號","121.471633333333","25.0157933333333","6500100","板橋區"
"220016","295-UM","2018/10/02 14:48:50","新北市板橋區光復街177號","121.484933333333","25.0209","6500100","板橋區"
"220032","296-UM","2018/10/02 14:48:44","新北市板橋區溪崑二街112巷34號","121.425745","24.989295","6500100","板橋區"
"220046","299-UM","2018/10/02 14:48:43","新北市板橋區漢生西路60號","121.463115","25.0188666666667","6500100","板橋區"
"220023","303-R5","2018/10/02 14:48:42","新北市板橋區金華街10巷48弄79-3號","121.459893333333","25.0203933333333","6500100","板橋區"
"220010","305-R5","2018/10/02 14:48:44","新北市板橋區中山路二段416巷58號","121.48295","25.018965","6500100","板橋區"
"220041","307-R5","2018/10/02 14:48:33","新北市板橋區四維路259巷44號","121.461356666667","25.027195","6500100","板橋區"
"220047","317-R6","2018/10/02 14:48:49","新北市板橋區漢生西路165巷10號","121.462581666667","25.0233033333333","6500100","板橋區"
"220012","486-VK","2018/10/02 14:48:57","新北市板橋區實踐路173號","121.464455","25.003625","6500100","板橋區"
"220038","487-VK","2018/10/02 14:48:45","新北市板橋區龍泉街137號","121.45784","25.0238433333333","6500100","板橋區"
"220011","609-BX","2018/10/02 14:48:42","新北市板橋區林森街3巷1弄6號","121.482625","25.0236116666667","6500100","板橋區"
"220005","686-BX","2018/10/02 14:48:42","新北市板橋區信義路165號","121.458628333333","24.9923","6500100","板橋區"
"220025","687-BX","2018/10/02 14:48:42","新北市板橋區僑中二街2號","121.447471666667","25.0112983333333","6500100","板橋區"
"220042","689-BX","2018/10/02 14:48:49","新北市板橋區長江路二段59號","121.464563333333","25.0314816666667","6500100","板橋區"
"220002","741-BX","2018/10/02 14:48:49","新北市板橋區忠孝路忠義巷16弄1號","121.465951666667","25.003735","6500100","板橋區"
"220051","KEA-2699","2018/10/02 14:48:39","新北市板橋區仁化街3-1號","121.47462","25.0317233333333","6500100","板橋區"
"220003","827-TW","2018/10/02 14:48:52","新北市板橋區仁愛路76巷3弄2號","121.460636666667","24.999065","6500100","板橋區"
"220014","830-TW","2018/10/02 14:48:44","新北市板橋區長安街210-3號","121.474695","25.0118166666667","6500100","板橋區"
"220045","831-TW","2018/10/02 14:48:48","新北市板橋區莒光路16巷30號","121.469406666667","25.02392","6500100","板橋區"
"220037","833-TW","2018/10/02 14:48:53","新北市板橋區仁化街124號","121.477093333333","25.0325833333333","6500100","板橋區"
"220022","895-R6","2018/10/02 14:48:49","新北市板橋區府後街1巷8號","121.459346666667","25.0109283333333","6500100","板橋區"
"220021","985-R7","2018/10/02 14:48:49","新北市板橋區南雅西路二段116號","121.452115","25.0122916666667","6500100","板橋區"
"220018","AAC-253","2018/10/02 14:48:37","新北市板橋區成都街101號","121.463451666667","25.005295","6500100","板橋區"
"235032","KEA-2873","2018/10/02 14:48:40","新北市中和區福祥路125號","121.498781666667","25.006795","6500300","中和區"
"235024","KEA-2876","2018/10/02 14:48:29","新北市中和區新生街16巷7號","121.482831666667","25.0043066666667","6500300","中和區"
