"lineid","car","time","location","longitude","latitude","cityid","cityname"
"234086","338-UY","2018/10/02 15:58:40","新北市永和區福和路1號","121.52643","25.0097533333333","6500400","永和區"
"231046","107-UY","2018/10/02 15:58:46","新北市新店區安康路一段86號","121.528035","24.9619133333333","6500600","新店區"
"231020","110-UY","2018/10/02 15:58:49","新北市新店區新烏路一段85巷6-6號","121.549756666667","24.9427616666667","6500600","新店區"
"231012","187-VK","2018/10/02 15:58:55","新北市新店區民族路178號","121.537115","24.9762783333333","6500600","新店區"
"231003","268-BY","2018/10/02 15:58:54","新北市新店區寶興路60巷3號","121.54989","24.9717883333333","6500600","新店區"
"231018","278-BY","2018/10/02 15:58:53","新北市新店區中正路663巷7弄15號","121.532861666667","24.9900633333333","6500600","新店區"
"231015","AAD-862","2018/10/02 15:58:49","新北市新店區中正路284巷4弄3號","121.538471666667","24.9747483333333","6500600","新店區"
"231037","4716-K9","2018/10/02 15:58:42","新北市新店區吉安街14號","121.516725","24.9658266666667","6500600","新店區"
"231013","513-UM","2018/10/02 15:58:50","新北市新店區安光路16號","121.513713333333","24.9648083333333","6500600","新店區"
"231034","616-UM","2018/10/02 15:58:36","新北市新店區如意街73號","121.4943","24.947185","6500600","新店區"
"231030","619-UM","2018/10/02 15:58:54","新北市新店區永平街10號","121.517145","24.98357","6500600","新店區"
"231035","719-UM","2018/10/02 15:57:28","新北市新店區安和路二段192-1號","121.518615","24.9746366666667","6500600","新店區"
"231023","719-UY","2018/10/02 15:58:46","新北市新店區安康路二段78號","121.514223333333","24.9634583333333","6500600","新店區"
"241011","013-R5","2018/10/02 15:58:42","新北市三重區雙園街20號","121.497166666667","25.0682266666667","6500200","三重區"
"241028","022-UY","2018/10/02 15:58:47","新北市三重區大同南路122巷9號","121.497111666667","25.0585133333333","6500200","三重區"
"241008","059-VK","2018/10/02 15:58:46","新北市三重區重新路四段121號","121.485078333333","25.0523983333333","6500200","三重區"
"241022","060-VK","2018/10/02 15:58:37","新北市三重區中正北路176巷6號","121.4831","25.0664333333333","6500200","三重區"
"241015","062-VK","2018/10/02 15:58:39","新北市三重區重新路四段121號","121.48481","25.0525016666667","6500200","三重區"
"241017","063-VK","2018/10/02 15:58:46","新北市三重區大仁街48巷6號","121.491298333333","25.0644383333333","6500200","三重區"
"241024","065-VK","2018/10/02 15:58:46","新北市三重區力行路一段38號","121.485858333333","25.0672466666667","6500200","三重區"
"241026","066-VK","2018/10/02 15:58:39","新北市三重區正義南路60-6號","121.498371666667","25.0601083333333","6500200","三重區"
"241002","090-VK","2018/10/02 15:58:42","新北市三重區河邊北街100巷1號","121.504116666667","25.0705966666667","6500200","三重區"
"241005","262-UM","2018/10/02 15:58:42","新北市三重區自強路四段32-2號","121.489","25.07702","6500200","三重區"
"241003","265-UM","2018/10/02 15:58:36","新北市三重區自強路五段102號","121.496743333333","25.0835683333333","6500200","三重區"
"241016","266-UM","2018/10/02 15:58:45","新北市三重區重新路四段121號","121.4848","25.052585","6500200","三重區"
"241018","268-UM","2018/10/02 15:58:56","新北市三重區中正北路27號","121.491613333333","25.0625383333333","6500200","三重區"
"241032","269-UM","2018/10/02 15:58:55","新北市三重區三陽路100巷3弄13號","121.483046666667","25.0581616666667","6500200","三重區"
"241013","270-UM","2018/10/02 15:58:56","新北市三重區三和路二段228號","121.49748","25.069705","6500200","三重區"
"241025","271-UM","2018/10/02 15:58:43","新北市三重區三民街148號","121.482566666667","25.06536","6500200","三重區"
"241007","398-BY","2018/10/02 15:58:42","新北市三重區慈愛街10號","121.484533333333","25.0784","6500200","三重區"
"241004","475-VK","2018/10/02 15:58:40","新北市三重區河邊北街102號","121.50412","25.0708316666667","6500200","三重區"
"241020","478-VK","2018/10/02 15:58:39","新北市三重區車路頭街4巷23號","121.483318333333","25.0701216666667","6500200","三重區"
"241030","480-VK","2018/10/02 15:58:54","新北市三重區重新路四段121號","121.484798333333","25.05251","6500200","三重區"
"241014","543-UM","2018/10/02 15:58:53","新北市三重區重新路四段121號","121.484578333333","25.052045","6500200","三重區"
"241023","545-UM","2018/10/02 15:58:47","新北市三重區中正北路119號","121.483311666667","25.066975","6500200","三重區"
"241019","KEA-2593","2018/10/02 15:58:43","新北市三重區重陽路三段101號","121.490488333333","25.068295","6500200","三重區"
"241006","AAD-863","2018/10/02 15:58:36","新北市三重區車路頭街135-1號","121.48427","25.0761683333333","6500200","三重區"
"241012","941-UM","2018/10/02 15:58:43","新北市三重區文化北路118巷36號","121.49769","25.0662516666667","6500200","三重區"
"241029","942-UM","2018/10/02 15:58:48","新北市三重區大同南路212巷9號","121.497196666667","25.0565016666667","6500200","三重區"
"241033","AAC-255","2018/10/02 15:58:47","新北市三重區重新路五段447號","121.474346666667","25.047295","6500200","三重區"
"235026","800-TS","2018/10/02 15:58:43","新北市中和區橋和路128號","121.493235","25.006175","6500300","中和區"
"224007","275-VK","2018/10/02 15:58:51","新北市瑞芳區楓子瀨路2-2號","121.774818333333","25.1044983333333","6501200","瑞芳區"
"227003","642-TC","2018/10/02 15:58:43","新北市雙溪區平林里外平林62號","121.84437","25.0349466666667","6502500","雙溪區"
"227009","400-TW","2018/10/02 15:58:48","新北市雙溪區三港里雙澳路26號","121.869588333333","25.0483233333333","6502500","雙溪區"
"236057","912-UM","2018/10/02 15:58:36","新北市土城區大安路126號","121.433883333333","24.9696483333333","6501300","土城區"
