"lineid","car","time","location","longitude","latitude","cityid","cityname"
"249005","172-UM","2018/10/02 16:48:52","新北市八里區大堀湖1-5號","121.422913333333","25.154805","6502300","八里區"
"249004","303-UY","2018/10/02 16:48:37","新北市八里區博物館路202巷38號","121.405408333333","25.1596566666667","6502300","八里區"
"249003","593-UM","2018/10/02 16:48:46","新北市八里區中路88號","121.403605","25.153915","6502300","八里區"
"244023","069-UM","2018/10/02 16:48:53","新北市林口區粉寮路二段88巷100-12號","121.409713333333","25.0902","6501700","林口區"
"244025","837-TS","2018/10/02 16:48:38","新北市林口區粉寮路二段88巷100-12號","121.409678333333","25.0902383333333","6501700","林口區"
"231046","107-UY","2018/10/02 16:48:46","新北市新店區灣潭路15-2號","121.542511666667","24.9423783333333","6500600","新店區"
"241011","013-R5","2018/10/02 16:48:42","新北市三重區公園街9號","121.499476666667","25.07276","6500200","三重區"
"241028","022-UY","2018/10/02 16:48:47","新北市三重區光興街91號","121.49739","25.059975","6500200","三重區"
"241008","059-VK","2018/10/02 16:48:46","新北市三重區永福街179巷23號","121.478065","25.0749516666667","6500200","三重區"
"241022","060-VK","2018/10/02 16:48:56","新北市三重區中華路111巷22號","121.48438","25.06352","6500200","三重區"
"241031","061-VK","2018/10/02 16:48:41","新北市三重區過圳街42-1號","121.4883","25.05981","6500200","三重區"
"241015","062-VK","2018/10/02 16:48:39","新北市三重區文化北路41-5號","121.498998333333","25.0654516666667","6500200","三重區"
"241017","063-VK","2018/10/02 16:48:46","新北市三重區國隆路8巷51號","121.49236","25.0633766666667","6500200","三重區"
"241024","065-VK","2018/10/02 16:48:45","新北市三重區中正北路317巷16號","121.475003333333","25.07291","6500200","三重區"
"241026","066-VK","2018/10/02 16:48:59","新北市三重區文化南路10巷5號","121.500511666667","25.0620666666667","6500200","三重區"
"241002","090-VK","2018/10/02 16:48:42","新北市三重區仁義街209號","121.496845","25.081725","6500200","三重區"
"251014","742-BX","2018/10/02 16:48:39","新北市淡水區淡金路四段478號","121.452421666667","25.2239516666667","6501000","淡水區"
"241005","262-UM","2018/10/02 16:48:42","新北市三重區仁華街80巷15號","121.484738333333","25.0836","6500200","三重區"
"241003","265-UM","2018/10/02 16:48:36","新北市三重區五華街71巷2號","121.492513333333","25.08303","6500200","三重區"
"241016","266-UM","2018/10/02 16:48:45","新北市三重區大同北路115巷19號","121.493811666667","25.064695","6500200","三重區"
"241009","267-UM","2018/10/02 16:48:54","新北市三重區三和路四段203巷277號","121.487866666667","25.0811166666667","6500200","三重區"
"241018","268-UM","2018/10/02 16:48:56","新北市三重區安慶街149巷17號","121.494283333333","25.069335","6500200","三重區"
"241032","269-UM","2018/10/02 16:48:55","新北市三重區重陽路一段120巷40號","121.485191666667","25.0600766666667","6500200","三重區"
"241013","270-UM","2018/10/02 16:48:50","新北市三重區仁愛街66號","121.495748333333","25.0731916666667","6500200","三重區"
"241025","271-UM","2018/10/02 16:48:43","新北市三重區中正北路530巷19號","121.47203","25.07053","6500200","三重區"
"241007","398-BY","2018/10/02 16:48:42","新北市三重區三和路四段181巷134號","121.485435","25.0798133333333","6500200","三重區"
"241004","475-VK","2018/10/02 16:48:40","新北市三重區仁愛街397巷48號","121.491948333333","25.0814383333333","6500200","三重區"
"241020","478-VK","2018/10/02 16:48:59","新北市三重區忠孝路二段51號","121.4857","25.071065","6500200","三重區"
"241030","480-VK","2018/10/02 16:48:54","新北市三重區新興路7號","121.492466666667","25.053195","6500200","三重區"
"241014","543-UM","2018/10/02 16:48:53","新北市三重區龍濱路64號","121.502571666667","25.0692333333333","6500200","三重區"
"241023","545-UM","2018/10/02 16:48:47","新北市三重區新北大道一段206巷16號","121.482518333333","25.0621883333333","6500200","三重區"
"241001","547-UM","2018/10/02 16:48:38","新北市三重區仁政街56號","121.492938333333","25.0770316666667","6500200","三重區"
"241019","KEA-2593","2018/10/02 16:48:42","新北市三重區力行路一段163號","121.484646666667","25.0693283333333","6500200","三重區"
"241006","AAD-863","2018/10/02 16:48:56","新北市三重區力行路二段182-3號","121.483448333333","25.077535","6500200","三重區"
"241012","941-UM","2018/10/02 16:48:43","新北市三重區仁興街11巷60號","121.501148333333","25.0745716666667","6500200","三重區"
"241029","942-UM","2018/10/02 16:48:44","新北市三重區新興路37號","121.491908333333","25.053565","6500200","三重區"
"241033","AAC-255","2018/10/02 16:48:47","新北市三重區新北大道二段137號","121.466031666667","25.0611183333333","6500200","三重區"
"235026","800-TS","2018/10/02 16:48:43","新北市中和區中正路434號","121.491248333333","24.9941233333333","6500300","中和區"
"247016","546-UM","2018/10/02 16:48:53","新北市蘆洲區中正路71號","121.470476666667","25.0827616666667","6501400","蘆洲區"
"247008","336-TH","2018/10/02 16:48:50","新北市蘆洲區中山一路212號","121.473213333333","25.0805866666667","6501400","蘆洲區"
"247020","057-VK","2018/10/02 16:48:42","新北市蘆洲區民族路422巷9弄2號","121.474011666667","25.0922233333333","6501400","蘆洲區"
"247010","056-VK","2018/10/02 16:48:42","新北市蘆洲區中正路520巷30-20號","121.471933333333","25.0979","6501400","蘆洲區"
"247004","002-UY","2018/10/02 16:48:55","新北市蘆洲區長榮路201號","121.461038333333","25.0847483333333","6501400","蘆洲區"
"247022","001-UY","2018/10/02 16:48:42","新北市蘆洲區中正路516巷5號","121.461093333333","25.0977266666667","6501400","蘆洲區"
"228002","663-BX","2018/10/02 16:48:54","新北市貢寮區貢寮里長泰路24-2號","121.903586666667","25.0239483333333","6502600","貢寮區"
"228003","828-UM","2018/10/02 16:48:49","新北市貢寮區貢寮里朝陽街1-2號","121.91238","25.0213083333333","6502600","貢寮區"
"224006","676-BX","2018/10/02 16:48:38","新北市瑞芳區大寮路356-1號","121.784956666667","25.1033433333333","6501200","瑞芳區"
"224008","285-BY","2018/10/02 16:48:41","新北市瑞芳區大寮路356-1號","121.784845","25.10332","6501200","瑞芳區"
"224007","275-VK","2018/10/02 16:48:51","新北市瑞芳區中央路48巷9號","121.761593333333","25.1029866666667","6501200","瑞芳區"
"224009","273-VK","2018/10/02 16:48:39","新北市瑞芳區三爪子坑路118-9號","121.80693","25.1051783333333","6501200","瑞芳區"
"224005","271-BY","2018/10/02 16:48:47","新北市瑞芳區洞頂路155-7號","121.861486666667","25.1219083333333","6501200","瑞芳區"
"227003","642-TC","2018/10/02 16:48:43","新北市雙溪區外柑里外柑腳71號","121.807168333333","25.0176183333333","6502500","雙溪區"
"227009","400-TW","2018/10/02 16:48:48","新北市雙溪區牡丹里五分11號","121.865298333333","25.0477383333333","6502500","雙溪區"
"251013","KEA-2871","2018/10/02 16:48:46","新北市淡水區泉洲厝22號","121.490588333333","25.1924966666667","6501000","淡水區"
"251008","179-VK","2018/10/02 16:48:41","新北市淡水區樹梅坑9號","121.47278","25.14269","6501000","淡水區"
"251015","180-VK","2018/10/02 16:48:44","新北市淡水區忠愛街6號","121.460743333333","25.1715816666667","6501000","淡水區"
"251012","441-VK","2018/10/02 16:48:50","新北市淡水區中正路二段31號","121.419713333333","25.1815416666667","6501000","淡水區"
"251006","561-UM","2018/10/02 16:48:58","新北市淡水區中正路一段66號","121.425271666667","25.1770216666667","6501000","淡水區"
"251016","575-R6","2018/10/02 16:48:46","新北市淡水區北新路一段129-1號","121.457371666667","25.1820183333333","6501000","淡水區"
"251007","577-R6","2018/10/02 16:48:59","新北市淡水區中正路一段66號","121.425306666667","25.1770316666667","6501000","淡水區"
"251011","650-BX","2018/10/02 16:48:49","新北市淡水區中正路二段31號","121.419676666667","25.1818516666667","6501000","淡水區"
"252002","178-VK","2018/10/02 16:48:43","新北市三芝區茂長里陳厝坑12-1號","121.514348333333","25.2553766666667","6502100","三芝區"
"252001","292-VK","2018/10/02 16:48:47","新北市三芝區淡金路二段89號","121.503846666667","25.2607916666667","6502100","三芝區"
"242056","751-BX","2018/10/02 16:48:49","新北市新莊區新泰路255巷83號","121.442308333333","25.0387116666667","6500500","新莊區"
"242029","705-TV","2018/10/02 16:48:57","新北市新莊區新泰路255巷83號","121.442188333333","25.0388983333333","6500500","新莊區"
"242048","497-BY","2018/10/02 16:48:49","新北市新莊區新泰路357巷3弄57號","121.442285","25.0394283333333","6500500","新莊區"
"242023","362-BY","2018/10/02 16:48:44","新北市新莊區新泰路357巷3弄57號","121.441968333333","25.0391166666667","6500500","新莊區"
"242019","175-VK","2018/10/02 16:48:55","新北市新莊區三和路12-21號","121.441973333333","25.03876","6500500","新莊區"
"239007","AAC-297","2018/10/02 16:48:57","新北市鶯歌區二甲路13-16號","121.344883333333","24.9350933333333","6500800","鶯歌區"
