"lineid","car","time","location","longitude","latitude","cityid","cityname"
"234026","9371-KE","2018/10/02 18:05:22","新北市永和區水源街5號","121.512318333333","25.0048866666667","6500400","永和區"
"249005","172-UM","2018/10/02 18:05:12","新北市八里區荖阡坑路15號","121.401575","25.1399483333333","6502300","八里區"
"249001","173-UM","2018/10/02 18:05:16","新北市八里區龍米路二段36號","121.448486666667","25.1401066666667","6502300","八里區"
"249004","303-UY","2018/10/02 18:05:16","新北市八里區龍米路二段159-2號","121.439218333333","25.1539666666667","6502300","八里區"
"249002","305-UY","2018/10/02 18:05:28","新北市八里區龍米路一段356巷46號","121.452115","25.1303116666667","6502300","八里區"
"249003","593-UM","2018/10/02 18:05:25","新北市八里區中華路二段165巷19弄26號","121.410406666667","25.1517283333333","6502300","八里區"
"248014","025-BX","2018/10/02 18:05:19","新北市五股區新五路二段258號","121.440875","25.082345","6501500","五股區"
"248016","026-BX","2018/10/02 18:05:11","新北市五股區中興路三段163號","121.449718333333","25.0804316666667","6501500","五股區"
"248006","077-UY","2018/10/02 18:05:27","新北市五股區中興路二段128-8號","121.45922","25.078175","6501500","五股區"
"248008","095-VK","2018/10/02 18:05:20","新北市五股區更洲路60號","121.456983333333","25.0796416666667","6501500","五股區"
"248020","225-UY","2018/10/02 18:05:29","新北市五股區中興路二段182巷3號","121.45682","25.0784033333333","6501500","五股區"
"248012","247-BX","2018/10/02 18:05:27","新北市五股區中興路二段182巷3號","121.456828333333","25.0783116666667","6501500","五股區"
"248004","677-BX","2018/10/02 18:05:23","新北市五股區中興路三段160號","121.445271666667","25.08095","6501500","五股區"
"248002","678-BX","2018/10/02 18:05:26","新北市五股區中興路三段163號","121.449408333333","25.0804316666667","6501500","五股區"
"248010","682-TV","2018/10/02 18:05:25","新北市五股區新五路二段258號","121.440945","25.0823516666667","6501500","五股區"
"244023","069-UM","2018/10/02 18:05:13","新北市林口區東湖路105巷75號","121.384728333333","25.0716133333333","6501700","林口區"
"244007","080-UY","2018/10/02 18:05:21","新北市林口區林口路124巷10弄1號","121.389073333333","25.08188","6501700","林口區"
"244019","403-UM","2018/10/02 18:05:27","新北市林口區文化一路一段124號","121.3747","25.07231","6501700","林口區"
"244013","KEA-2802","2018/10/02 18:05:25","新北市林口區中山路26號","121.39599","25.078385","6501700","林口區"
"244017","485-VK","2018/10/02 18:05:29","新北市林口區忠孝路502號","121.370616666667","25.070035","6501700","林口區"
"244009","656-BX","2018/10/02 18:05:23","新北市林口區佳林路82號","121.385686666667","25.0803616666667","6501700","林口區"
"244011","701-TV","2018/10/02 18:05:09","新北市林口區中正路70號","121.394756666667","25.077395","6501700","林口區"
"244025","837-TS","2018/10/02 18:05:18","新北市林口區文化北路一段192-100號","121.357466666667","25.0702366666667","6501700","林口區"
"244021","838-TS","2018/10/02 18:05:12","新北市林口區中正路13號","121.39698","25.0774283333333","6501700","林口區"
"243013","AAD-798","2018/10/02 18:05:21","新北市泰山區犁頭窠18號","121.421603333333","25.0505366666667","6501600","泰山區"
"243016","KEA-2801","2018/10/02 17:49:04","新北市泰山區犁頭窠3-1號","121.422313333333","25.0605833333333","6501600","泰山區"
"222003","436-BY","2018/10/02 18:05:16","新北市深坑區阿柔洋55-2號","121.60987","24.9960866666667","6501800","深坑區"
"222002","659-BX","2018/10/02 18:05:24","新北市深坑區文化街52號","121.61902","25.0015566666667","6501800","深坑區"
"231059","001-UM","2018/10/02 18:05:29","新北市新店區安一路一段1-1號","121.519408333333","24.96102","6500600","新店區"
"231041","002-UM","2018/10/02 18:05:30","新北市新店區安華路28-1號","121.519765","24.960855","6500600","新店區"
"231040","047-UY","2018/10/02 18:05:14","新北市新店區安華路28-1號","121.519291666667","24.960805","6500600","新店區"
"231044","106-UY","2018/10/02 18:05:16","新北市新店區安華路28-1號","121.519716666667","24.960615","6500600","新店區"
"231046","107-UY","2018/10/02 18:05:26","新北市新店區直潭七街60號","121.532288333333","24.9397883333333","6500600","新店區"
"231048","187-VK","2018/10/02 18:05:23","新北市新店區安一路一段1-1號","121.519563333333","24.9611833333333","6500600","新店區"
"231062","188-VK","2018/10/02 18:05:20","新北市新店區安一路一段1-1號","121.519261666667","24.9613783333333","6500600","新店區"
"231057","256-BX","2018/10/02 18:05:20","新北市新店區安一路一段1-1號","121.519638333333","24.9611083333333","6500600","新店區"
"231042","268-BY","2018/10/02 18:05:29","新北市新店區安華路1-1號","121.519378333333","24.9605416666667","6500600","新店區"
"231050","AAD-862","2018/10/02 18:05:23","新北市新店區安華路28-1號","121.520073333333","24.9609933333333","6500600","新店區"
"231058","3713-VJ","2018/10/02 18:05:27","新北市新店區安華路28-1號","121.519216666667","24.9606666666667","6500600","新店區"
"231066","4716-K9","2018/10/02 18:05:16","新北市新店區安一路一段1-1號","121.519255","24.961175","6500600","新店區"
"231056","4715-K9","2018/10/02 18:05:17","新北市新店區安華路1-1號","121.519463333333","24.9603683333333","6500600","新店區"
"231067","4772-VM","2018/10/02 18:05:25","新北市新店區安華路1-1號","121.519203333333","24.960425","6500600","新店區"
"231065","512-UM","2018/10/02 18:05:25","新北市新店區安一路一段1-1號","121.519291666667","24.9611466666667","6500600","新店區"
"231049","513-UM","2018/10/02 18:05:15","新北市新店區安一路一段1-1號","121.519663333333","24.9611283333333","6500600","新店區"
"231061","619-UM","2018/10/02 18:05:25","新北市新店區安華路28-1號","121.51942","24.9607933333333","6500600","新店區"
"231054","719-UY","2018/10/02 18:05:13","新北市新店區安一路一段1-1號","121.5198","24.9612883333333","6500600","新店區"
"231060","897-TW","2018/10/02 18:05:26","新北市新店區安華路28-1號","121.519711666667","24.9609033333333","6500600","新店區"
"231055","AKT-0513","2018/10/02 18:05:28","新北市新店區安華路1-1號","121.519426666667","24.9603983333333","6500600","新店區"
"251014","742-BX","2018/10/02 18:05:19","新北市淡水區南平11-3號","121.48616","25.2218383333333","6501000","淡水區"
"241018","268-UM","2018/10/02 18:05:15","新北市八里區荖阡坑路15-66號","121.398461666667","25.1406116666667","6500200","三重區"
"241032","269-UM","2018/10/02 18:05:14","新北市八里區荖阡坑路7-2號","121.398375","25.14132","6500200","三重區"
"241033","AAC-255","2018/10/02 18:05:27","新北市三重區中興北街42巷9號","121.469621666667","25.04931","6500200","三重區"
"235066","003-UY","2018/10/02 18:05:11","新北市中和區中正路254號","121.495551666667","24.9939466666667","6500300","中和區"
"235064","005-UY","2018/10/02 18:05:25","新北市中和區錦和路350-1號","121.490556666667","24.993555","6500300","中和區"
"235063","006-UY","2018/10/02 18:05:28","新北市中和區員山路36巷16-3號","121.48512","24.99134","6500300","中和區"
"235056","096-UM","2018/10/02 18:05:08","新北市中和區員山路36巷13號","121.48438","24.9914066666667","6500300","中和區"
"235039","097-UM","2018/10/02 18:05:14","新北市中和區和城路一段271巷1號","121.485476666667","24.99175","6500300","中和區"
"235065","098-UM","2018/10/02 18:05:24","新北市中和區中山路二段2巷45弄28號","121.501898333333","25.0066766666667","6500300","中和區"
"235040","150-BY","2018/10/02 18:05:26","新北市中和區和城路一段271巷1號","121.485405","24.9916866666667","6500300","中和區"
"235058","151-BY","2018/10/02 18:05:29","新北市中和區圓通路367巷33弄10號","121.494543333333","24.9850516666667","6500300","中和區"
"235038","185-VK","2018/10/02 18:05:22","新北市中和區景平路410號","121.508383333333","24.9932133333333","6500300","中和區"
"235072","301-VK","2018/10/02 18:05:11","新北市中和區員山路36巷12號","121.483936666667","24.9907433333333","6500300","中和區"
"235042","KEA-2878","2018/10/02 18:05:22","新北市中和區景平路420號","121.507806666667","24.9931866666667","6500300","中和區"
"247012","KEA-2869","2018/10/02 18:05:26","新北市蘆洲區民族路123號","121.479696666667","25.0871266666667","6501400","蘆洲區"
"235050","4979-A6","2018/10/02 18:05:28","新北市中和區員山路36巷16-3號","121.485031666667","24.9913383333333","6500300","中和區"
"235069","4980-A6","2018/10/02 18:05:25","新北市中和區錦和路216號","121.49028","24.9940883333333","6500300","中和區"
"235070","558-UM","2018/10/02 18:05:21","新北市中和區中正路281-3號","121.494645","24.9939033333333","6500300","中和區"
"235045","565-BX","2018/10/02 18:05:15","新北市中和區中正路637巷52弄1號","121.485408333333","24.993445","6500300","中和區"
"235054","640-BX","2018/10/02 18:05:22","新北市中和區連城路569巷9弄22號","121.479841666667","24.9935116666667","6500300","中和區"
"235047","732-UM","2018/10/02 18:05:20","新北市中和區錦和路350-1號","121.490463333333","24.9935466666667","6500300","中和區"
"235062","800-TS","2018/10/02 18:05:16","新北市中和區中正路637巷60弄61號","121.485476666667","24.9930666666667","6500300","中和區"
"235057","801-TS","2018/10/02 18:05:15","新北市中和區員山路36巷12號","121.484033333333","24.9905783333333","6500300","中和區"
"235052","805-TS","2018/10/02 18:05:17","新北市中和區中正路571巷2弄1號","121.486483333333","24.9935883333333","6500300","中和區"
"235053","900-TW","2018/10/02 18:05:14","新北市中和區員山路36巷16-3號","121.484978333333","24.9916166666667","6500300","中和區"
"235051","157-BY","2018/10/02 18:05:23","新北市中和區中正路173號","121.497743333333","24.9935216666667","6500300","中和區"
"235037","AAC-213","2018/10/02 18:05:17","新北市中和區景平路426號","121.507455","24.993195","6500300","中和區"
"226004","205-ST","2018/10/02 18:05:28","新北市平溪區菁桐里菁桐街116號","121.724495","25.0239983333333","6502400","平溪區"
"235043","251-BX","2018/10/02 18:05:13","新北市中和區員山路36巷16-3號","121.485058333333","24.9913833333333","6500300","中和區"
"228001","212-TW","2018/10/02 18:05:24","新北市貢寮區真理里新港街26巷55弄2-1號","121.927378333333","25.0528833333333","6502600","貢寮區"
"228002","663-BX","2018/10/02 18:05:14","新北市貢寮區福連里香蘭街29-1號","121.985428333333","25.02081","6502600","貢寮區"
"228003","828-UM","2018/10/02 18:05:09","新北市貢寮區真理里美艷山街6-2號","121.928871666667","25.0607133333333","6502600","貢寮區"
"224010","AGQ-8101","2018/10/02 18:02:21","新北市瑞芳區崙頂路2號","121.846523333333","25.1072016666667","6501200","瑞芳區"
"224006","676-BX","2018/10/02 18:05:18","新北市瑞芳區中山路225號","121.800426666667","25.106835","6501200","瑞芳區"
"224002","639-TC","2018/10/02 18:05:16","新北市瑞芳區三爪子坑路48號","121.81062","25.1057833333333","6501200","瑞芳區"
"224008","285-BY","2018/10/02 18:05:21","新北市瑞芳區員山子路23號","121.821388333333","25.1030216666667","6501200","瑞芳區"
"224007","275-VK","2018/10/02 18:05:11","新北市瑞芳區四腳亭埔路16號","121.77798","25.10234","6501200","瑞芳區"
"224009","273-VK","2018/10/02 18:05:19","新北市瑞芳區金光路117號","121.853355","25.1061566666667","6501200","瑞芳區"
"224005","271-BY","2018/10/02 18:05:20","新北市瑞芳區深澳路189-8號","121.821036666667","25.1343016666667","6501200","瑞芳區"
"227003","642-TC","2018/10/02 18:05:23","新北市雙溪區共和里東榮街27號","121.866025","25.033655","6502500","雙溪區"
"253006","032-BX","2018/10/02 18:05:23","新北市石門區大丘田12號","121.54767","25.2827066666667","6502200","石門區"
"253005","295-VK","2018/10/02 18:05:12","新北市石門區中央路16-19號","121.567868333333","25.2905983333333","6502200","石門區"
"222001","KEA-2212","2018/10/02 18:05:20","新北市深坑區北深路二段222號","121.612096666667","25.0014616666667","6501800","深坑區"
"208002","KEA-2872","2018/10/02 18:05:17","新北市金山區三界壇路99巷15號","121.620403333333","25.2276716666667","6502700","金山區"
"208003","665-BX","2018/10/02 18:05:24","新北市金山區磺港里磺港路33號","121.64906","25.2291283333333","6502700","金山區"
"208001","761-BX","2018/10/02 18:05:09","新北市金山區磺港里磺港路126號","121.645456666667","25.22561","6502700","金山區"
"251005","010-UM","2018/10/02 18:05:18","新北市淡水區學府路123號","121.450498333333","25.17298","6501000","淡水區"
"251001","011-UM","2018/10/02 18:05:13","新北市淡水區自立路12巷1號","121.463375","25.1288783333333","6501000","淡水區"
"251002","012-UM","2018/10/02 18:05:20","新北市淡水區中正東路一段2號","121.452053333333","25.1630683333333","6501000","淡水區"
"251013","KEA-2871","2018/10/02 18:05:26","新北市淡水區泉洲厝31號","121.479541666667","25.1910716666667","6501000","淡水區"
"251008","179-VK","2018/10/02 18:05:21","新北市淡水區中正東路二段5巷1號","121.45858","25.159065","6501000","淡水區"
"251015","180-VK","2018/10/02 18:05:24","新北市淡水區興福寮88巷1號","121.485386666667","25.16496","6501000","淡水區"
"251010","413-VK","2018/10/02 18:05:10","新北市淡水區淡海路88號","121.422966666667","25.181645","6501000","淡水區"
"251012","441-VK","2018/10/02 18:05:26","新北市淡水區北新路三段112號","121.486563333333","25.1881883333333","6501000","淡水區"
"251004","443-VK","2018/10/02 18:05:15","新北市淡水區民權路187巷76號","121.461428333333","25.134505","6501000","淡水區"
"251006","561-UM","2018/10/02 18:05:18","新北市淡水區真理街3巷15-1號","121.437308333333","25.1755416666667","6501000","淡水區"
"251016","575-R6","2018/10/02 18:05:26","新北市淡水區淡金路三段46巷15號","121.448666666667","25.1995133333333","6501000","淡水區"
"251007","577-R6","2018/10/02 18:05:19","新北市淡水區民權路39號","121.459676666667","25.1408633333333","6501000","淡水區"
"251011","650-BX","2018/10/02 18:05:09","新北市淡水區三空泉9-1號","121.474481666667","25.1630316666667","6501000","淡水區"
"251003","673-BX","2018/10/02 18:05:22","新北市淡水區大忠街79-6號","121.445721666667","25.177325","6501000","淡水區"
"207003","681-TV","2018/10/02 18:05:27","新北市萬里區野柳里港西路6號","121.685185","25.20335","6502800","萬里區"
"207004","225-TW","2018/10/02 18:05:20","新北市萬里區中幅里中福路68-1號","121.678358333333","25.1715233333333","6502800","萬里區"
"252002","178-VK","2018/10/02 18:05:23","新北市三芝區中山路二段39號","121.502928333333","25.2551666666667","6502100","三芝區"
"252003","249-BX","2018/10/02 18:05:27","新北市三芝區埔坪里埔頭坑41號","121.50465","25.2636066666667","6502100","三芝區"
"252001","292-VK","2018/10/02 18:05:27","新北市三芝區中興街二段2號","121.498416666667","25.2566233333333","6502100","三芝區"
"237007","153-BY","2018/10/02 18:05:21","新北市三峽區中正路二段134號","121.366145","24.9166466666667","6500900","三峽區"
"237009","210-TH","2018/10/02 18:05:19","新北市三峽區復興路303巷1弄8號","121.365821666667","24.9382933333333","6500900","三峽區"
"237013","252-BX","2018/10/02 18:05:22","新北市三峽區長泰街55號","121.37743","24.9328833333333","6500900","三峽區"
"237012","275-BY","2018/10/02 18:05:20","新北市三峽區民生街1巷3-17號","121.377875","24.9363966666667","6500900","三峽區"
"237008","302-VK","2018/10/02 18:05:09","新北市三峽區白雞33-5號","121.375238333333","24.9123716666667","6500900","三峽區"
"237014","433-BY","2018/10/02 18:05:13","新北市三峽區和平街109號","121.370413333333","24.938225","6500900","三峽區"
"237006","5529-G3","2018/10/02 18:05:15","新北市三峽區介壽路二段138巷1弄110號","121.397901666667","24.9308466666667","6500900","三峽區"
"237011","KEA-2596","2018/10/02 18:05:18","新北市三峽區光明路39-1號","121.374631666667","24.9298833333333","6500900","三峽區"
"237016","649-BX","2018/10/02 18:05:15","新北市三峽區紫微路66-2號","121.415313333333","24.9179716666667","6500900","三峽區"
"237010","706-TV","2018/10/02 18:05:10","新北市三峽區民權街193號","121.367713333333","24.929105","6500900","三峽區"
"237005","AKY-6261","2018/10/02 18:05:19","新北市三峽區和平街91-2號","121.370095","24.937695","6500900","三峽區"
"236070","105-UM","2018/10/02 18:05:21","新北市土城區石門路44號","121.457636666667","24.963965","6501300","土城區"
"236079","166-UM","2018/10/02 18:05:12","新北市土城區永寧路32巷10弄24號","121.428541666667","24.9617183333333","6501300","土城區"
"236030","253-BX","2018/10/02 18:05:29","新北市土城區城林路6巷80號","121.438625","24.9796466666667","6501300","土城區"
"236026","269-VK","2018/10/02 18:05:15","新北市土城區承天路18號","121.439406666667","24.9635216666667","6501300","土城區"
"236014","270-VK","2018/10/02 18:05:16","新北市土城區中華路二段2號","121.43933","24.9796083333333","6501300","土城區"
"236038","271-VK","2018/10/02 18:05:13","新北市土城區中正路13號","121.44299","24.97524","6501300","土城區"
"236021","401-BY","2018/10/02 18:05:26","新北市土城區城林路6巷80號","121.438511666667","24.9795666666667","6501300","土城區"
"236042","752-BX","2018/10/02 18:05:17","新北市土城區城林路6巷80號","121.438463333333","24.9797733333333","6501300","土城區"
"236059","912-UM","2018/10/02 18:05:15","新北市土城區中央路四段56-5號","121.420076666667","24.9603583333333","6501300","土城區"
"236049","913-UM","2018/10/02 18:04:57","新北市土城區中正路82號","121.445175","24.9756566666667","6501300","土城區"
"236063","915-UM","2018/10/02 18:05:13","新北市土城區員福街54號","121.440315","24.9791616666667","6501300","土城區"
"236055","AAC-216","2018/10/02 18:05:17","新北市土城區中華路二段92號","121.438263333333","24.974765","6501300","土城區"
"242037","AAC-296","2018/10/02 18:05:14","新北市新莊區建福路71號","121.426901666667","25.0269266666667","6500500","新莊區"
"242058","986-R7","2018/10/02 18:05:18","新北市新莊區新北大道七段241號","121.412991666667","25.02965","6500500","新莊區"
"242056","751-BX","2018/10/02 18:05:29","新北市新莊區豐年街124巷6弄1號","121.445946666667","25.02981","6500500","新莊區"
"242029","705-TV","2018/10/02 18:05:17","新北市新莊區中平路92巷6號","121.445123333333","25.0454216666667","6500500","新莊區"
"242027","615-BX","2018/10/02 18:05:25","新北市新莊區幸福路43號","121.457955","25.0493716666667","6500500","新莊區"
"242025","613-BX","2018/10/02 18:05:28","新北市新莊區五權一路58號","121.458288333333","25.06612","6500500","新莊區"
"242044","566-BX","2018/10/02 18:05:16","新北市新莊區中正路力行巷1弄1號","121.417125","25.0262333333333","6500500","新莊區"
"242054","441-UM","2018/10/02 18:05:24","新北市新莊區民安西路329號","121.427645","25.011015","6500500","新莊區"
"242002","440-UM","2018/10/02 18:05:13","新北市新莊區新莊路16號","121.458966666667","25.037545","6500500","新莊區"
"242009","413-TV","2018/10/02 18:05:18","新北市新莊區昌平街53號","121.454748333333","25.052885","6500500","新莊區"
"242046","400-BY","2018/10/02 18:05:23","新北市新莊區福營路197號","121.43109","25.0304466666667","6500500","新莊區"
"242061","353-BY","2018/10/02 18:05:25","新北市新莊區新樹路399號","121.432788333333","25.0155833333333","6500500","新莊區"
"242011","132-UY","2018/10/02 18:05:13","新北市新莊區中信街94巷12號","121.44847","25.0536033333333","6500500","新莊區"
"242042","133-UY","2018/10/02 18:05:22","新北市泰山區壽山路46號","121.42038","25.029155","6500500","新莊區"
"242051","172-VK","2018/10/02 18:04:46","新北市新莊區民本街25巷17號","121.429096666667","25.0194983333333","6500500","新莊區"
"242032","348-TH","2018/10/02 18:05:21","新北市新莊區新泰路277巷61號","121.443303333333","25.0400483333333","6500500","新莊區"
"242021","350-TH","2018/10/02 18:05:17","新北市新莊區中華路一段63巷42號","121.449945","25.0392266666667","6500500","新莊區"
"242015","351-TH","2018/10/02 18:05:27","新北市新莊區中平路132巷5號","121.445525","25.0467516666667","6500500","新莊區"
"238015","755-BX","2018/10/02 18:05:22","新北市樹林區文德街3巷41號","121.417975","24.9917566666667","6500700","樹林區"
"238023","601-UM","2018/10/02 18:05:22","新北市樹林區龍興街31巷20號","121.403698333333","25.0160533333333","6500700","樹林區"
"238019","599-UM","2018/10/02 18:05:11","新北市樹林區忠孝街16號","121.423408333333","24.9824966666667","6500700","樹林區"
"238018","571-TV","2018/10/02 18:05:26","新北市樹林區樹新路217號","121.431046666667","25.0003516666667","6500700","樹林區"
"238024","5061-A6","2018/10/02 18:05:25","新北市樹林區大安路537巷10號","121.412731666667","24.984405","6500700","樹林區"
"238022","KEA-2213","2018/10/02 18:05:17","新北市樹林區太平路150巷39弄1號","121.417171666667","24.9770583333333","6500700","樹林區"
"238021","KEA-2539","2018/10/02 18:05:26","新北市樹林區柑園街一段367號","121.388705","24.9559633333333","6500700","樹林區"
"238025","303-VK","2018/10/02 18:05:20","新北市樹林區保安街二段179-1號","121.415248333333","25.0029883333333","6500700","樹林區"
"238017","283-BY","2018/10/02 18:05:20","新北市樹林區中正路644號","121.409865","25.0162083333333","6500700","樹林區"
"238014","282-BY","2018/10/02 18:05:15","新北市樹林區千歲街61巷40弄3號","121.4258","24.9987966666667","6500700","樹林區"
"238020","268-VK","2018/10/02 18:05:21","新北市樹林區三俊街199巷10-10號","121.420178333333","25.01656","6500700","樹林區"
"238026","172-UY","2018/10/02 18:05:20","新北市樹林區中山路三段54號","121.394018333333","24.97241","6500700","樹林區"
"238016","169-UY","2018/10/02 18:05:14","新北市樹林區啟智街137巷5號","121.417395","24.9881966666667","6500700","樹林區"
"239007","AAC-297","2018/10/02 18:05:17","新北市鶯歌區育英街69號","121.34727","24.9521316666667","6500800","鶯歌區"
"239006","891-R6","2018/10/02 18:05:11","新北市鶯歌區鶯桃路434號","121.332968333333","24.9645033333333","6500800","鶯歌區"
"239008","527-UM","2018/10/02 18:05:15","新北市鶯歌區國際一路179號","121.336278333333","24.9765233333333","6500800","鶯歌區"
"239005","526-UM","2018/10/02 18:05:13","新北市鶯歌區鶯桃路668巷69弄2號","121.329846666667","24.97179","6500800","鶯歌區"
"239001","417-VK","2018/10/02 18:05:20","新北市鶯歌區國中街89號","121.34196","24.9417383333333","6500800","鶯歌區"
"239003","360-BY","2018/10/02 18:05:14","新北市鶯歌區福安街32巷26號","121.33516","24.9636266666667","6500800","鶯歌區"
"239002","359-BY","2018/10/02 18:05:11","新北市鶯歌區中山路329巷16弄2號","121.344046666667","24.9565233333333","6500800","鶯歌區"
"239004","193-VK","2018/10/02 18:05:26","新北市鶯歌區尖山路166巷36-1號","121.344938333333","24.9491433333333","6500800","鶯歌區"
"221008","489-VK","2018/10/02 18:05:14","新北市汐止區康寧街315號","121.627091666667","25.067855","6501100","汐止區"
"221036","130-UY","2018/10/02 18:05:14","新北市汐止區大同路三段199號","121.67139","25.0772133333333","6501100","汐止區"
"221015","131-UY","2018/10/02 18:05:23","新北市汐止區鄉長路二段22號","121.668355","25.082695","6501100","汐止區"
"221010","269-BY","2018/10/02 18:05:29","新北市汐止區汐萬路二段273號","121.645936666667","25.0889416666667","6501100","汐止區"
"221012","278-VK","2018/10/02 18:05:22","新北市汐止區長興街二段50巷41弄2-1號","121.67502","25.0812166666667","6501100","汐止區"
"221023","279-VK","2018/10/02 18:05:18","新北市汐止區民族五街69號","121.628215","25.0703666666667","6501100","汐止區"
"221032","280-BY","2018/10/02 18:05:22","新北市汐止區橫科路73巷2-2號","121.619388333333","25.0506216666667","6501100","汐止區"
"221027","281-BY","2018/10/02 18:05:19","新北市汐止區大同路二段490巷3號","121.660586666667","25.0680116666667","6501100","汐止區"
"221029","298-VK","2018/10/02 18:05:24","新北市汐止區樟樹二路251巷46號","121.640398333333","25.06716","6501100","汐止區"
"221021","299-VK","2018/10/02 18:05:29","新北市汐止區復興路4號","121.655665","25.0647183333333","6501100","汐止區"
"221031","353-TW","2018/10/02 18:05:15","新北市汐止區中興路181號","121.630236666667","25.066805","6501100","汐止區"
"221035","622-UM","2018/10/02 18:05:24","新北市汐止區汐萬路一段81號","121.654598333333","25.0701416666667","6501100","汐止區"
"221025","623-UM","2018/10/02 18:05:10","新北市汐止區秀峰路135號","121.660241666667","25.0624883333333","6501100","汐止區"
"221038","646-BX","2018/10/02 18:05:19","新北市汐止區南興路83巷16號","121.653576666667","25.0591083333333","6501100","汐止區"
"221002","707-TV","2018/10/02 18:05:11","新北市汐止區福德一路256號","121.63351","25.0646666666667","6501100","汐止區"
"221018","753-BX","2018/10/02 18:05:19","新北市汐止區招商街19巷18號","121.667086666667","25.0681033333333","6501100","汐止區"
"242034","281-VK","2018/10/02 18:05:26","新北市新莊區中正路377巷10號","121.446273333333","25.0339833333333","6500500","新莊區"
"235068","KEA-2873","2018/10/02 18:05:02","新北市中和區員山路36巷16-3號","121.485148333333","24.9910866666667","6500300","中和區"
"235061","KEA-2875","2018/10/02 18:05:23","新北市中和區中正路637巷60弄61號","121.485398333333","24.993305","6500300","中和區"
