"lineid","car","time","location","longitude","latitude","cityid","cityname"
"234046","148-BY","2018/10/02 18:37:52","新北市永和區永元路68號","121.522563333333","25.001525","6500400","永和區"
"234007","207-UY","2018/10/02 18:37:45","新北市永和區環河西路二段185號","121.502278333333","25.0112033333333","6500400","永和區"
"234081","298-R6","2018/10/02 18:37:39","新北市永和區林森路81號","121.523906666667","25.00386","6500400","永和區"
"234086","338-UY","2018/10/02 18:37:55","新北市永和區中正路259號","121.51759","25.00045","6500400","永和區"
"234070","552-UM","2018/10/02 18:37:50","新北市永和區福和路1號","121.525585","25.0094366666667","6500400","永和區"
"234017","745-BX","2018/10/02 18:37:47","新北市永和區福和路1號","121.526428333333","25.0095716666667","6500400","永和區"
"234030","746-BX","2018/10/02 18:37:42","新北市永和區環河東路三段54號","121.526841666667","25.0062416666667","6500400","永和區"
"234013","KEA-2591","2018/10/02 18:37:58","新北市永和區保福路二段163巷2號","121.509346666667","25.0147783333333","6500400","永和區"
"234067","748-BX","2018/10/02 18:37:46","新北市永和區福和路26號","121.523975","25.0083633333333","6500400","永和區"
"234042","862-TW","2018/10/02 18:37:42","新北市永和區永貞路308號","121.511878333333","25.0048733333333","6500400","永和區"
"234026","9371-KE","2018/10/02 18:37:42","新北市永和區永貞路387號","121.508128333333","25.0086833333333","6500400","永和區"
"234011","9373-KE","2018/10/02 18:37:50","新北市永和區文化路9巷22弄24號","121.514718333333","25.0146283333333","6500400","永和區"
"249005","172-UM","2018/10/02 18:37:52","新北市八里區中華路三段228號","121.38879","25.12513","6502300","八里區"
"249001","173-UM","2018/10/02 18:37:56","新北市八里區龍米路一段360號","121.451525","25.13137","6502300","八里區"
"249004","303-UY","2018/10/02 18:37:56","新北市八里區大崁腳48-53號","121.424801666667","25.1594166666667","6502300","八里區"
"249002","305-UY","2018/10/02 18:37:48","新北市八里區龍形一街33巷6-1號","121.449218333333","25.12971","6502300","八里區"
"248014","025-BX","2018/10/02 18:37:59","新北市五股區明德路16號","121.433096666667","25.071415","6501500","五股區"
"248016","026-BX","2018/10/02 18:37:51","新北市五股區凌雲路一段133巷22號","121.449201666667","25.1016","6501500","五股區"
"248008","095-VK","2018/10/02 18:37:40","新北市五股區中興路一段140巷8號","121.465098333333","25.07428","6501500","五股區"
"248020","225-UY","2018/10/02 18:37:50","新北市五股區天乙路112號","121.446958333333","25.112235","6501500","五股區"
"248012","247-BX","2018/10/02 18:37:47","新北市五股區成泰路三段2巷1-20號","121.441251666667","25.086645","6501500","五股區"
"248004","677-BX","2018/10/02 18:37:43","新北市五股區民義路一段206號","121.430338333333","25.0891016666667","6501500","五股區"
"248002","678-BX","2018/10/02 18:37:46","新北市五股區西雲路171-1號","121.44704","25.0950533333333","6501500","五股區"
"248010","682-TV","2018/10/02 18:37:45","新北市五股區明德路27號","121.434561666667","25.0713583333333","6501500","五股區"
"234023","9380-KE","2018/10/02 18:37:41","新北市永和區福和路12巷2號","121.524406666667","25.00862","6500400","永和區"
"234077","969-R7","2018/10/02 18:38:00","新北市永和區中正路558號","121.517161666667","25.00575","6500400","永和區"
"244023","069-UM","2018/10/02 18:37:53","新北市林口區文化一路二段40號","121.380528333333","25.0770716666667","6501700","林口區"
"244007","080-UY","2018/10/02 18:37:41","新北市林口區中湖62號","121.384711666667","25.1008033333333","6501700","林口區"
"244019","403-UM","2018/10/02 18:37:46","新北市林口區忠孝路646巷14號","121.379071666667","25.067795","6501700","林口區"
"244013","KEA-2802","2018/10/02 18:37:45","新北市林口區中正路512號","121.381853333333","25.0770983333333","6501700","林口區"
"244017","485-VK","2018/10/02 18:37:49","新北市林口區文化二路一段22號","121.364685","25.0673316666667","6501700","林口區"
"244009","656-BX","2018/10/02 18:37:43","新北市林口區竹林路320巷2-1號","121.391088333333","25.0823833333333","6501700","林口區"
"244011","701-TV","2018/10/02 18:37:49","新北市林口區興林路17巷3弄2號","121.390215","25.077005","6501700","林口區"
"244025","837-TS","2018/10/02 18:37:58","新北市林口區南勢四街313號","121.356501666667","25.0746483333333","6501700","林口區"
"244021","838-TS","2018/10/02 18:37:52","新北市林口區粉寮路一段74號","121.397071666667","25.0790366666667","6501700","林口區"
"243013","AAD-798","2018/10/02 18:28:19","新北市泰山區明志路三段206巷3號","121.423315","25.037915","6501600","泰山區"
"243016","KEA-2801","2018/10/02 18:37:45","新北市泰山區犁頭窠3-1號","121.422096666667","25.06057","6501600","泰山區"
"243012","646-TV","2018/10/02 18:37:47","新北市泰山區泰林路二段115號","121.434388333333","25.0595333333333","6501600","泰山區"
"222003","436-BY","2018/10/02 18:37:56","新北市深坑區翠谷街41號","121.62677","25.00947","6501800","深坑區"
"222002","659-BX","2018/10/02 18:37:44","新北市深坑區雲鄉路2號","121.620948333333","24.9996316666667","6501800","深坑區"
"231059","001-UM","2018/10/02 18:37:49","新北市新店區安一路一段1-1號","121.519523333333","24.9611133333333","6500600","新店區"
"231041","002-UM","2018/10/02 18:37:49","新北市新店區安華路28-1號","121.519863333333","24.96076","6500600","新店區"
"231040","047-UY","2018/10/02 18:37:53","新北市新店區安華路28-1號","121.519133333333","24.9609383333333","6500600","新店區"
"231044","106-UY","2018/10/02 18:37:56","新北市新店區安華路28-1號","121.519681666667","24.9607166666667","6500600","新店區"
"231046","107-UY","2018/10/02 18:37:46","新北市新店區直潭二街1號","121.535518333333","24.9432016666667","6500600","新店區"
"231053","110-UY","2018/10/02 18:37:53","新北市新店區永興路23號","121.543938333333","24.9390966666667","6500600","新店區"
"231048","187-VK","2018/10/02 18:37:43","新北市新店區安一路一段1-1號","121.519536666667","24.9611516666667","6500600","新店區"
"231062","188-VK","2018/10/02 18:37:40","新北市新店區安一路一段1-1號","121.519371666667","24.96133","6500600","新店區"
"231064","189-VK","2018/10/02 18:37:54","新北市新店區安一路一段1-1號","121.519503333333","24.9611233333333","6500600","新店區"
"231057","256-BX","2018/10/02 18:37:41","新北市新店區新烏路一段127-1號","121.546865","24.9370066666667","6500600","新店區"
"231042","268-BY","2018/10/02 18:37:50","新北市新店區安華路28-1號","121.519445","24.9605983333333","6500600","新店區"
"231051","278-BY","2018/10/02 18:37:49","新北市新店區環河路84號","121.536971666667","24.9635566666667","6500600","新店區"
"231050","AAD-862","2018/10/02 18:37:43","新北市新店區安華路28-1號","121.519996666667","24.9610683333333","6500600","新店區"
"231058","3713-VJ","2018/10/02 18:37:47","新北市新店區新店路13號","121.540276666667","24.9528483333333","6500600","新店區"
"231066","4716-K9","2018/10/02 18:37:56","新北市新店區安一路一段1-1號","121.519355","24.9613783333333","6500600","新店區"
"231056","4715-K9","2018/10/02 18:37:57","新北市新店區民族路66號","121.539455","24.9782883333333","6500600","新店區"
"231067","4772-VM","2018/10/02 18:37:45","新北市新店區安華路28-1號","121.519215","24.960635","6500600","新店區"
"231065","512-UM","2018/10/02 18:37:45","新北市新店區安一路一段1-1號","121.519378333333","24.9612966666667","6500600","新店區"
"231049","513-UM","2018/10/02 18:37:55","新北市新店區安一路一段1-1號","121.519753333333","24.9610933333333","6500600","新店區"
"231063","616-UM","2018/10/02 18:37:54","新北市新店區安華路1-1號","121.519516666667","24.9603433333333","6500600","新店區"
"231045","617-UM","2018/10/02 18:37:55","新北市新店區安華路28-1號","121.519461666667","24.96093","6500600","新店區"
"231061","619-UM","2018/10/02 18:37:45","新北市新店區安華路28-1號","121.519533333333","24.96096","6500600","新店區"
"231054","719-UY","2018/10/02 18:37:53","新北市新店區安一路一段1-1號","121.51967","24.9613133333333","6500600","新店區"
"231060","897-TW","2018/10/02 18:37:46","新北市新店區安華路28-1號","121.519871666667","24.96062","6500600","新店區"
"231043","899-TW","2018/10/02 18:37:58","新北市新店區安華路28-1號","121.519161666667","24.9607766666667","6500600","新店區"
"231055","AKT-0513","2018/10/02 18:37:48","新北市新店區新生街55號","121.538815","24.9669266666667","6500600","新店區"
"251014","742-BX","2018/10/02 18:37:58","新北市淡水區崙頂12-8號","121.495565","25.2172216666667","6501000","淡水區"
"241032","269-UM","2018/10/02 18:28:36","新北市三重區重陽路一段120巷46號","121.485108333333","25.0601316666667","6500200","三重區"
"235066","003-UY","2018/10/02 18:37:52","新北市中和區水源路7巷4號","121.503983333333","25.003615","6500300","中和區"
"235064","005-UY","2018/10/02 18:37:45","新北市中和區連城路139巷14號","121.4961","24.998295","6500300","中和區"
"235063","006-UY","2018/10/02 18:37:51","新北市中和區連城路401號","121.486175","24.9959316666667","6500300","中和區"
"235056","096-UM","2018/10/02 18:37:48","新北市中和區員山路611巷5弄1號","121.477961666667","25.0112716666667","6500300","中和區"
"235039","097-UM","2018/10/02 18:37:54","新北市中和區安樂路129號","121.514086666667","24.996195","6500300","中和區"
"235065","098-UM","2018/10/02 18:37:44","新北市中和區中山路二段2巷45弄44號","121.50177","25.0062633333333","6500300","中和區"
"235040","150-BY","2018/10/02 18:37:46","新北市中和區安平路59號","121.509651666667","24.99512","6500300","中和區"
"235058","151-BY","2018/10/02 18:37:49","新北市中和區圓通路369巷30弄16號","121.489653333333","24.9851366666667","6500300","中和區"
"235055","183-VK","2018/10/02 18:37:52","新北市中和區民生街72號","121.468555","25.0048516666667","6500300","中和區"
"235038","185-VK","2018/10/02 18:37:42","新北市中和區立人街14巷11號","121.519386666667","24.9948716666667","6500300","中和區"
"235049","186-VK","2018/10/02 18:37:54","新北市中和區景安路125號","121.505765","24.9961166666667","6500300","中和區"
"235067","255-BX","2018/10/02 18:37:57","新北市中和區新生街32號","121.483156666667","25.0038416666667","6500300","中和區"
"235044","293-VK","2018/10/02 18:37:51","新北市中和區景安路220巷1弄2號","121.503275","24.9907783333333","6500300","中和區"
"235072","301-VK","2018/10/02 18:37:51","新北市中和區連城路101號","121.496431666667","24.9998483333333","6500300","中和區"
"235042","KEA-2878","2018/10/02 18:37:42","新北市中和區成功路51巷1號","121.52655","24.99297","6500300","中和區"
"247012","KEA-2869","2018/10/02 18:37:41","新北市林口區汕頭32號","121.366371666667","25.1346283333333","6501400","蘆洲區"
"235050","4979-A6","2018/10/02 18:37:49","新北市中和區景新街418巷22弄1號","121.512455","24.9880133333333","6500300","中和區"
"235069","4980-A6","2018/10/02 18:37:45","新北市中和區連城路99巷73號","121.497451666667","24.998345","6500300","中和區"
"235070","558-UM","2018/10/02 18:37:41","新北市中和區南華路30號","121.503386666667","24.9962133333333","6500300","中和區"
"235045","565-BX","2018/10/02 18:37:55","新北市中和區南山路236巷63弄1號","121.503841666667","24.9876133333333","6500300","中和區"
"235054","640-BX","2018/10/02 18:37:51","新北市中和區莒光路132號","121.472518333333","25.0014383333333","6500300","中和區"
"235047","732-UM","2018/10/02 18:38:00","新北市中和區南山路523-1號","121.5079","24.9872433333333","6500300","中和區"
"235046","733-UM","2018/10/02 18:37:42","新北市中和區興南路一段86號","121.509996666667","24.989375","6500300","中和區"
"235062","800-TS","2018/10/02 18:37:56","新北市中和區景平路726-2號","121.496675","25.003525","6500300","中和區"
"235057","801-TS","2018/10/02 18:37:55","新北市中和區員山路327巷38號","121.480583333333","25.0016983333333","6500300","中和區"
"235041","802-TS","2018/10/02 18:37:54","新北市中和區宜安路130號","121.509941666667","24.9982533333333","6500300","中和區"
"235052","805-TS","2018/10/02 18:37:57","新北市中和區興南路三段21號","121.496891666667","24.9792666666667","6500300","中和區"
"235048","896-TW","2018/10/02 18:37:42","新北市中和區南山路162號","121.50475","24.9916183333333","6500300","中和區"
"235053","900-TW","2018/10/02 18:37:54","新北市土城區延壽路55巷1號","121.46984","24.9921666666667","6500300","中和區"
"235051","157-BY","2018/10/02 18:37:43","新北市中和區華新街232巷39號","121.505468333333","24.9825216666667","6500300","中和區"
"235037","AAC-213","2018/10/02 18:37:57","新北市中和區景平路111巷55號","121.515393333333","24.9903216666667","6500300","中和區"
"220065","072-UY","2018/10/02 18:37:46","新北市板橋區民族路151巷52號","121.47009","25.00845","6500100","板橋區"
"220086","073-UY","2018/10/02 18:37:58","新北市板橋區南雅西路二段177號","121.451848333333","25.012555","6500100","板橋區"
"220069","AAD-861","2018/10/02 18:37:59","新北市板橋區華東街1-10號","121.448343333333","24.9950883333333","6500100","板橋區"
"226004","205-ST","2018/10/02 18:37:48","新北市平溪區石底里公園街18-3號","121.733391666667","25.0256966666667","6502400","平溪區"
"235043","251-BX","2018/10/02 18:37:53","新北市中和區景平路183號","121.511681666667","24.9925416666667","6500300","中和區"
"228001","212-TW","2018/10/02 18:37:43","新北市貢寮區仁理村研海街12-1號","121.923763333333","25.0516566666667","6502600","貢寮區"
"228002","663-BX","2018/10/02 18:37:54","新北市貢寮區福隆里東興街6-11號","121.950765","25.02108","6502600","貢寮區"
"228003","828-UM","2018/10/02 18:37:49","新北市貢寮區和美里龍洞街41號","121.912601666667","25.113245","6502600","貢寮區"
"224010","AGQ-8101","2018/10/02 18:36:41","新北市瑞芳區崙頂路41號","121.84477","25.10719","6501200","瑞芳區"
"224006","676-BX","2018/10/02 18:37:58","新北市瑞芳區明燈路三段97號","121.804213333333","25.10851","6501200","瑞芳區"
"224002","639-TC","2018/10/02 18:37:56","新北市瑞芳區三爪子坑路106巷1-11號","121.80798","25.1051516666667","6501200","瑞芳區"
"224008","285-BY","2018/10/02 18:37:45","新北市瑞芳區瑞芳街85號","121.806158333333","25.1096483333333","6501200","瑞芳區"
"224007","275-VK","2018/10/02 18:37:52","新北市瑞芳區大埔路89號","121.763718333333","25.10146","6501200","瑞芳區"
"224009","273-VK","2018/10/02 18:37:59","新北市瑞芳區祈堂路53-1號","121.859555","25.1110433333333","6501200","瑞芳區"
"224005","271-BY","2018/10/02 18:37:40","新北市瑞芳區永龍新村1號","121.819428333333","25.1196683333333","6501200","瑞芳區"
"227003","642-TC","2018/10/02 18:37:43","新北市雙溪區魚行里坤溪3-5號","121.876198333333","25.02085","6502500","雙溪區"
"227009","400-TW","2018/10/02 18:37:48","新北市雙溪區牡丹里下坑11號","121.851013333333","25.0561833333333","6502500","雙溪區"
"253006","032-BX","2018/10/02 18:37:44","新北市石門區崁子腳28-2號","121.540496666667","25.28981","6502200","石門區"
"253005","295-VK","2018/10/02 18:37:52","新北市石門區石門街47號","121.566473333333","25.2903733333333","6502200","石門區"
"222001","KEA-2212","2018/10/02 18:37:40","新北市深坑區北深路一段102號","121.635593333333","25.0107016666667","6501800","深坑區"
"208002","KEA-2872","2018/10/02 18:37:53","新北市金山區環金路52號","121.639263333333","25.21738","6502700","金山區"
"208003","665-BX","2018/10/02 18:37:44","新北市金山區中山路292號","121.634746666667","25.2245816666667","6502700","金山區"
"208001","761-BX","2018/10/02 18:37:49","新北市金山區文化一路13號","121.636228333333","25.2240666666667","6502700","金山區"
"251005","010-UM","2018/10/02 18:37:38","新北市淡水區中正路18巷6號","121.437631666667","25.1728016666667","6501000","淡水區"
"251001","011-UM","2018/10/02 18:37:53","新北市淡水區自強路166號","121.465535","25.13413","6501000","淡水區"
"251002","012-UM","2018/10/02 18:37:40","新北市淡水區中正東路一段3巷14弄1號","121.450965","25.1641716666667","6501000","淡水區"
"251013","KEA-2871","2018/10/02 18:37:46","新北市淡水區椿子林2號","121.486286666667","25.2040616666667","6501000","淡水區"
"251008","179-VK","2018/10/02 18:37:41","新北市淡水區北投子68-2號","121.454253333333","25.181565","6501000","淡水區"
"251015","180-VK","2018/10/02 18:37:44","新北市淡水區樹林口54號","121.484831666667","25.1629883333333","6501000","淡水區"
"251010","413-VK","2018/10/02 18:37:50","新北市淡水區沙崙路141號","121.423255","25.182915","6501000","淡水區"
"251012","441-VK","2018/10/02 18:37:50","新北市淡水區北新路121號","121.448985","25.178665","6501000","淡水區"
"251004","443-VK","2018/10/02 18:37:55","新北市淡水區竹林路120號","121.462671666667","25.1433516666667","6501000","淡水區"
"251006","561-UM","2018/10/02 18:37:58","新北市淡水區中山北路三段51號","121.444181666667","25.1909016666667","6501000","淡水區"
"251016","575-R6","2018/10/02 18:37:46","新北市淡水區下圭柔山75號","121.444071666667","25.2055133333333","6501000","淡水區"
"251007","577-R6","2018/10/02 18:37:59","新北市淡水區中正東路二段143巷2弄1號","121.460578333333","25.147285","6501000","淡水區"
"251011","650-BX","2018/10/02 18:37:49","新北市淡水區鄧公路19-1號","121.450453333333","25.1699983333333","6501000","淡水區"
"251003","673-BX","2018/10/02 18:37:42","新北市淡水區北新路69巷26號","121.446728333333","25.18006","6501000","淡水區"
"207003","681-TV","2018/10/02 18:37:47","新北市萬里區野柳里港西路48號","121.680983333333","25.2030683333333","6502800","萬里區"
"207004","225-TW","2018/10/02 18:37:40","新北市萬里區萬里里獅頭路12-4號","121.693496666667","25.1796366666667","6502800","萬里區"
"252002","178-VK","2018/10/02 18:38:00","新北市三芝區民生街54巷16號","121.504023333333","25.2552116666667","6502100","三芝區"
"252003","249-BX","2018/10/02 18:37:47","新北市三芝區後厝里土地公坑54-17號","121.465771666667","25.2495383333333","6502100","三芝區"
"252001","292-VK","2018/10/02 18:37:50","新北市三芝區長勤街102號","121.500085","25.2544733333333","6502100","三芝區"
"237007","153-BY","2018/10/02 18:37:41","新北市三峽區中正路三段238號","121.341895","24.90247","6500900","三峽區"
"237009","210-TH","2018/10/02 18:37:39","新北市三峽區大同路286巷3號","121.364236666667","24.9252733333333","6500900","三峽區"
"237013","252-BX","2018/10/02 18:37:42","新北市三峽區光明路69巷25號","121.376581666667","24.929185","6500900","三峽區"
"237012","275-BY","2018/10/02 18:37:59","新北市三峽區三樹路340號","121.383983333333","24.9433266666667","6500900","三峽區"
"237008","302-VK","2018/10/02 18:37:49","新北市三峽區白雞115-16號","121.400856666667","24.9060683333333","6500900","三峽區"
"237014","433-BY","2018/10/02 18:37:53","新北市三峽區復興路339號","121.364321666667","24.9388566666667","6500900","三峽區"
"237006","5529-G3","2018/10/02 18:37:55","新北市三峽區溪東路315巷67號","121.412008333333","24.93092","6500900","三峽區"
"237011","KEA-2596","2018/10/02 18:37:58","新北市三峽區溪東路436號","121.41605","24.92776","6500900","三峽區"
"237016","649-BX","2018/10/02 18:37:55","新北市三峽區竹崙路94號","121.432948333333","24.915355","6500900","三峽區"
"237010","706-TV","2018/10/02 18:37:50","新北市三峽區復興路485號","121.361315","24.9384483333333","6500900","三峽區"
"237005","AKY-6261","2018/10/02 18:37:57","新北市三峽區新興街14號","121.37261","24.935685","6500900","三峽區"
"236070","105-UM","2018/10/02 18:37:40","新北市土城區永豐路157巷29弄6-1號","121.468385","24.981475","6501300","土城區"
"236079","166-UM","2018/10/02 18:37:55","新北市土城區中央路四段38號","121.420763333333","24.9608066666667","6501300","土城區"
"236030","253-BX","2018/10/02 18:37:50","新北市土城區福仁街54號","121.4396","24.974885","6501300","土城區"
"236026","269-VK","2018/10/02 18:37:55","新北市土城區忠義路49號","121.440408333333","24.9691216666667","6501300","土城區"
"236014","270-VK","2018/10/02 18:37:56","新北市土城區青雲路183巷11弄1號","121.459823333333","24.9829483333333","6501300","土城區"
"236038","271-VK","2018/10/02 18:37:53","新北市土城區明德路一段313巷28號","121.459631666667","24.9760983333333","6501300","土城區"
"236021","401-BY","2018/10/02 18:37:46","新北市土城區延吉街242號","121.466638333333","24.984635","6501300","土城區"
"236042","752-BX","2018/10/02 18:37:57","新北市土城區學成路108巷8-2號","121.450223333333","24.989645","6501300","土城區"
"236059","912-UM","2018/10/02 18:37:55","新北市土城區中央路三段205號","121.429996666667","24.9647266666667","6501300","土城區"
"236049","913-UM","2018/10/02 18:38:01","新北市土城區明德路一段54號","121.46542","24.9836983333333","6501300","土城區"
"236063","915-UM","2018/10/02 18:37:53","新北市土城區延和路177巷11弄11號","121.469438333333","24.9909316666667","6501300","土城區"
"236055","AAC-216","2018/10/02 18:37:59","新北市土城區中華路一段45號","121.445803333333","24.988395","6501300","土城區"
"242058","986-R7","2018/10/02 18:37:58","新北市新莊區中正路889-8號","121.41506","25.0235783333333","6500500","新莊區"
"242025","613-BX","2018/10/02 18:37:48","新北市新莊區中原路399號","121.442071666667","25.0535033333333","6500500","新莊區"
"242054","441-UM","2018/10/02 18:37:45","新北市樹林區環河路2號","121.428273333333","24.9792066666667","6500500","新莊區"
"242046","400-BY","2018/10/02 18:37:43","新北市新莊區民安路16-29號","121.422438333333","25.02798","6500500","新莊區"
"242061","353-BY","2018/10/02 18:37:46","新北市新莊區富國路176巷9號","121.424316666667","25.023875","6500500","新莊區"
"242015","351-TH","2018/10/02 18:32:09","新北市新莊區新泰路357巷3弄57號","121.442041666667","25.0394783333333","6500500","新莊區"
"238015","755-BX","2018/10/02 18:37:42","新北市樹林區備內街121號","121.405918333333","24.9894266666667","6500700","樹林區"
"238023","601-UM","2018/10/02 18:37:42","新北市樹林區三福街114號","121.406565","25.0163333333333","6500700","樹林區"
"238019","599-UM","2018/10/02 18:37:51","新北市樹林區中華路190號","121.41191","24.98053","6500700","樹林區"
"238018","571-TV","2018/10/02 18:37:48","新北市樹林區樹新路109號","121.428126666667","24.995895","6500700","樹林區"
"238024","5061-A6","2018/10/02 18:37:45","新北市樹林區太順街79巷5號","121.417111666667","24.978135","6500700","樹林區"
"238025","303-VK","2018/10/02 18:37:58","新北市樹林區中山路三段22號","121.395585","24.9729383333333","6500700","樹林區"
"238017","283-BY","2018/10/02 18:37:50","新北市樹林區光興街50號","121.409846666667","25.002735","6500700","樹林區"
"238014","282-BY","2018/10/02 18:37:55","新北市樹林區大安路111巷41號","121.423303333333","24.9976066666667","6500700","樹林區"
"238020","268-VK","2018/10/02 18:38:01","新北市樹林區俊興街277號","121.418441666667","25.0181666666667","6500700","樹林區"
"238026","172-UY","2018/10/02 18:38:00","新北市樹林區育德街78-1號","121.388106666667","24.9682516666667","6500700","樹林區"
"238016","169-UY","2018/10/02 18:37:50","新北市樹林區文化街23號","121.419325","24.9875616666667","6500700","樹林區"
"239007","AAC-297","2018/10/02 18:37:57","新北市鶯歌區中正一路430-1號","121.361521666667","24.95711","6500800","鶯歌區"
"239006","891-R6","2018/10/02 18:37:51","新北市鶯歌區鶯桃路296巷55弄24號","121.336308333333","24.96182","6500800","鶯歌區"
"239008","527-UM","2018/10/02 18:37:55","新北市鶯歌區國際一路179號","121.3363","24.9764966666667","6500800","鶯歌區"
"239005","526-UM","2018/10/02 18:37:53","新北市鶯歌區鳳吉一街32號","121.325826666667","24.9736466666667","6500800","鶯歌區"
"239001","417-VK","2018/10/02 18:37:40","新北市鶯歌區中正二路190號","121.340643333333","24.94762","6500800","鶯歌區"
"239003","360-BY","2018/10/02 18:37:54","新北市鶯歌區鶯桃路550號","121.33102","24.9673883333333","6500800","鶯歌區"
"239002","359-BY","2018/10/02 18:37:51","新北市鶯歌區中山路315號","121.344048333333","24.9569383333333","6500800","鶯歌區"
"239004","193-VK","2018/10/02 18:37:46","新北市鶯歌區中正三路247巷67弄8號","121.334258333333","24.9363916666667","6500800","鶯歌區"
"221008","489-VK","2018/10/02 18:37:53","新北市汐止區康寧街901號","121.651423333333","25.07503","6501100","汐止區"
"221036","130-UY","2018/10/02 18:38:01","新北市汐止區水碓街59號","121.665136666667","25.0689416666667","6501100","汐止區"
"221015","131-UY","2018/10/02 18:37:43","新北市汐止區鄉長路二段4號","121.66882","25.0806733333333","6501100","汐止區"
"221010","269-BY","2018/10/02 18:37:49","新北市汐止區汐萬路三段246號","121.643386666667","25.096335","6501100","汐止區"
"221012","278-VK","2018/10/02 18:37:42","新北市汐止區長興街一段46號","121.670413333333","25.0791666666667","6501100","汐止區"
"221023","279-VK","2018/10/02 18:37:58","新北市汐止區康寧街571號","121.634775","25.0695783333333","6501100","汐止區"
"221032","280-BY","2018/10/02 18:37:42","新北市汐止區民權街二段131號","121.618025","25.0456166666667","6501100","汐止區"
"221027","281-BY","2018/10/02 18:37:53","新北市汐止區汐萬路一段182號","121.65231","25.07191","6501100","汐止區"
"221029","298-VK","2018/10/02 18:37:44","新北市汐止區樟樹一路131號","121.642078333333","25.06506","6501100","汐止區"
"221021","299-VK","2018/10/02 18:37:49","新北市汐止區新台五路一段234號","121.656935","25.063395","6501100","汐止區"
"221031","353-TW","2018/10/02 18:37:55","新北市汐止區中興路108號","121.633421666667","25.0635133333333","6501100","汐止區"
"221035","622-UM","2018/10/02 18:37:47","新北市汐止區大同路二段258號","121.654473333333","25.0660283333333","6501100","汐止區"
"221025","623-UM","2018/10/02 18:37:50","新北市汐止區仁愛路119巷11號","121.662328333333","25.0640083333333","6501100","汐止區"
"221038","646-BX","2018/10/02 18:37:39","新北市汐止區汐萬路一段310號","121.650373333333","25.0747933333333","6501100","汐止區"
"221002","707-TV","2018/10/02 18:37:51","新北市汐止區中興路25號","121.63692","25.05964","6501100","汐止區"
"221018","753-BX","2018/10/02 18:37:59","新北市汐止區茄苳路277號","121.672323333333","25.0678733333333","6501100","汐止區"
"220079","145-BY","2018/10/02 18:37:42","新北市板橋區大觀路一段31號","121.449783333333","25.0085033333333","6500100","板橋區"
"220080","200-UY","2018/10/02 18:37:57","新北市板橋區大觀路二段265巷130弄32號","121.440965","24.9965083333333","6500100","板橋區"
"220082","610-BX","2018/10/02 18:37:44","新北市板橋區大觀路二段443-2號","121.439655","24.995125","6500100","板橋區"
"220103","257-TC","2018/10/02 18:37:39","新北市板橋區民生路二段161巷5號","121.470216666667","25.0197016666667","6500100","板橋區"
"220056","276-BY","2018/10/02 18:37:51","新北市板橋區四川路二段140巷16弄28號","121.448645","24.9943983333333","6500100","板橋區"
"220072","277-BY","2018/10/02 18:37:54","新北市板橋區大觀路二段443-2號","121.440495","24.9950766666667","6500100","板橋區"
"220071","283-VK","2018/10/02 18:37:41","新北市板橋區四川路二段橋頭6號","121.448265","24.9940066666667","6500100","板橋區"
"220083","286-VK","2018/10/02 18:37:44","新北市板橋區南雅南路二段144巷60號","121.450283333333","24.997385","6500100","板橋區"
"220081","287-VK","2018/10/02 18:37:45","新北市板橋區大觀路二段153巷39弄1號","121.446991666667","25.00049","6500100","板橋區"
"220084","296-UM","2018/10/02 18:37:49","新北市板橋區大觀路二段266號","121.448871666667","24.9972383333333","6500100","板橋區"
"220097","299-UM","2018/10/02 18:37:47","新北市板橋區民生路二段161巷5號","121.470156666667","25.019705","6500100","板橋區"
"220075","303-R5","2018/10/02 18:37:56","新北市板橋區南雅南路二段120-2號","121.452355","24.9999766666667","6500100","板橋區"
"220062","305-R5","2018/10/02 18:37:48","新北市板橋區民生路二段120號","121.470371666667","25.0197483333333","6500100","板橋區"
"220064","486-VK","2018/10/02 18:37:55","新北市板橋區館前西路6號","121.458833333333","25.007675","6500100","板橋區"
"220035","560-BX","2018/10/02 18:37:43","新北市板橋區南雅西路二段145巷10號","121.451605","25.0119166666667","6500100","板橋區"
"220057","686-BX","2018/10/02 18:37:49","新北市板橋區華東街1-9號","121.44823","24.9948766666667","6500100","板橋區"
"220077","687-BX","2018/10/02 18:37:52","新北市板橋區大觀路二段443-2號","121.44101","24.9955216666667","6500100","板橋區"
"220054","741-BX","2018/10/02 18:37:42","新北市板橋區南雅南路二段120-2號","121.452368333333","24.99981","6500100","板橋區"
"220055","827-TW","2018/10/02 18:37:49","新北市板橋區南雅南路二段120號","121.452308333333","24.9995966666667","6500100","板橋區"
"220067","830-TW","2018/10/02 18:37:54","新北市板橋區民生路二段161巷3號","121.470163333333","25.0197633333333","6500100","板橋區"
"220074","895-R6","2018/10/02 18:37:40","新北市板橋區南雅南路二段146號","121.451631666667","24.9962233333333","6500100","板橋區"
"220073","985-R7","2018/10/02 18:37:54","新北市板橋區南雅南路二段11-18號","121.454523333333","25.0015916666667","6500100","板橋區"
"220070","AAC-253","2018/10/02 18:37:44","新北市板橋區華東街1-9號","121.448256666667","24.9948666666667","6500100","板橋區"
"235068","KEA-2873","2018/10/02 18:37:31","新北市中和區中正路269號","121.495816666667","24.993565","6500300","中和區"
"235061","KEA-2875","2018/10/02 18:37:55","新北市中和區民享街92巷6號","121.474703333333","24.9999433333333","6500300","中和區"
"235060","KEA-2876","2018/10/02 18:37:55","新北市中和區中山路二段656號","121.480566666667","25.0058683333333","6500300","中和區"
