"lineid","car","time","location","longitude","latitude","cityid","cityname"
"234007","207-UY","2018/10/02 20:19:45","新北市永和區環河西路二段229巷1號","121.501295","25.0099816666667","6500400","永和區"
"234081","298-R6","2018/10/02 20:19:58","新北市永和區福和路7巷10弄7號","121.524828333333","25.0075633333333","6500400","永和區"
"234038","336-UY","2018/10/02 20:19:52","新北市永和區成功路一段93巷11-1號","121.527661666667","25.002745","6500400","永和區"
"234064","337-UY","2018/10/02 20:20:01","新北市永和區得和路110號","121.518285","25.0000283333333","6500400","永和區"
"234086","338-UY","2018/10/02 20:20:00","新北市永和區永和路二段49號","121.514593333333","25.0107416666667","6500400","永和區"
"234070","552-UM","2018/10/02 20:19:50","新北市永和區福和路261號","121.517908333333","25.007255","6500400","永和區"
"234017","745-BX","2018/10/02 20:19:47","新北市永和區仁愛路39號","121.514065","25.0133483333333","6500400","永和區"
"234030","746-BX","2018/10/02 20:20:02","新北市中和區自強路10號","121.520265","24.9959233333333","6500400","永和區"
"234054","KEA-2590","2018/10/02 20:20:00","新北市永和區光復街2巷18號","121.51721","25.016635","6500400","永和區"
"234013","KEA-2591","2018/10/02 20:19:58","新北市永和區仁愛路282巷16號","121.503061666667","25.0088816666667","6500400","永和區"
"234061","AAD-866","2018/10/02 20:19:53","新北市永和區安樂路146-1號","121.514175","25.0004383333333","6500400","永和區"
"234067","748-BX","2018/10/02 20:20:03","新北市永和區保平路246-1號","121.509078333333","25.0052666666667","6500400","永和區"
"234042","862-TW","2018/10/02 20:19:42","新北市中和區中安街168號","121.510823333333","24.9998783333333","6500400","永和區"
"234050","863-TW","2018/10/02 20:19:55","新北市永和區環河西路二段7-9號","121.509045","25.0168416666667","6500400","永和區"
"249005","172-UM","2018/10/02 20:19:51","新北市八里區下罟子5-2號","121.387046666667","25.141545","6502300","八里區"
"249001","173-UM","2018/10/02 20:19:47","新北市八里區中華路二段538號","121.399025","25.1451","6502300","八里區"
"249004","303-UY","2018/10/02 20:19:44","新北市八里區中山路一段129巷19-1號","121.414023333333","25.1586916666667","6502300","八里區"
"249002","305-UY","2018/10/02 20:19:55","新北市八里區龍米路一段267號","121.44951","25.137915","6502300","八里區"
"249003","593-UM","2018/10/02 20:19:47","新北市八里區訊塘路25號","121.397651666667","25.145375","6502300","八里區"
"248014","025-BX","2018/10/02 20:19:57","新北市八里區商港路12號","121.396958333333","25.1445666666667","6501500","五股區"
"248016","026-BX","2018/10/02 20:19:51","新北市五股區天乙路34號","121.448468333333","25.1035116666667","6501500","五股區"
"248012","247-BX","2018/10/02 20:19:47","新北市五股區六合街19號","121.431135","25.088615","6501500","五股區"
"248002","678-BX","2018/10/02 20:19:46","新北市五股區成泰路三段165號","121.445201666667","25.0918266666667","6501500","五股區"
"248010","682-TV","2018/10/02 20:19:45","新北市泰山區新五路一段137號","121.439423333333","25.0637083333333","6501500","五股區"
"234023","9380-KE","2018/10/02 20:19:41","新北市永和區復興街7號","121.515853333333","25.0129116666667","6500400","永和區"
"234077","969-R7","2018/10/02 20:19:59","新北市永和區民享街16號","121.515373333333","24.9952266666667","6500400","永和區"
"234074","AAC-211","2018/10/02 20:19:58","新北市永和區豫溪街197號","121.52318","25.0098233333333","6500400","永和區"
"234003","AAC-295","2018/10/02 20:20:02","新北市永和區永和路一段127號","121.513971666667","25.0085266666667","6500400","永和區"
"243013","AAD-798","2018/10/02 20:19:49","新北市泰山區新民路14巷1號","121.426636666667","25.04461","6501600","泰山區"
"243009","297-R6","2018/10/02 20:19:58","新北市泰山區明志路一段227號","121.432441666667","25.0611216666667","6501600","泰山區"
"243016","KEA-2801","2018/10/02 20:19:45","新北市泰山區明志路三段10號","121.42474","25.0433683333333","6501600","泰山區"
"243015","421-VK","2018/10/02 20:19:52","新北市泰山區仁德路125號","121.43264","25.0561233333333","6501600","泰山區"
"243011","KEA-2215","2018/10/02 20:19:46","新北市泰山區壽山路134巷18號","121.41834","25.0310566666667","6501600","泰山區"
"243010","KEA-2216","2018/10/02 20:19:55","新北市泰山區明志路二段254巷7號","121.426163333333","25.0477516666667","6501600","泰山區"
"243012","646-TV","2018/10/02 20:19:46","新北市泰山區楓江路121號","121.439068333333","25.06457","6501600","泰山區"
"243014","680-BX","2018/10/02 20:19:47","新北市泰山區泰林路二段455號","121.425613333333","25.0640616666667","6501600","泰山區"
"222003","436-BY","2018/10/02 20:19:59","新北市深坑區文化街88號","121.617515","25.001935","6501800","深坑區"
"222002","659-BX","2018/10/02 20:19:52","新北市深坑區萬福路75巷25號","121.599016666667","25.0096683333333","6501800","深坑區"
"231059","001-UM","2018/10/02 20:19:49","新北市新店區安德街80號","121.510091666667","24.961475","6500600","新店區"
"231041","002-UM","2018/10/02 20:19:49","新北市新店區民權路41號","121.540441666667","24.9828416666667","6500600","新店區"
"231040","047-UY","2018/10/02 20:19:53","新北市新店區中正路115號","121.54219","24.97111","6500600","新店區"
"231044","106-UY","2018/10/02 20:19:56","新北市新店區北新路三段55-1號","121.541723333333","24.9808366666667","6500600","新店區"
"231053","110-UY","2018/10/02 20:19:53","新北市新店區新烏路三段88號","121.55366","24.9038366666667","6500600","新店區"
"231048","187-VK","2018/10/02 20:19:43","新北市新店區寶橋路98號","121.546871666667","24.9759483333333","6500600","新店區"
"231062","188-VK","2018/10/02 20:20:00","新北市新店區安康路二段46號","121.51545","24.9637616666667","6500600","新店區"
"231064","189-VK","2018/10/02 20:19:54","新北市新店區安業街67巷22號","121.518993333333","24.9760816666667","6500600","新店區"
"231057","256-BX","2018/10/02 20:19:51","新北市新店區花園十二路1號","121.55478","24.9347683333333","6500600","新店區"
"231042","268-BY","2018/10/02 20:19:50","新北市新店區中興路二段190號","121.548233333333","24.9731316666667","6500600","新店區"
"231051","278-BY","2018/10/02 20:19:49","新北市新店區中央六街105號","121.525686666667","24.977235","6500600","新店區"
"231050","AAD-862","2018/10/02 20:19:43","新北市新店區博愛街15號","121.541091666667","24.9734433333333","6500600","新店區"
"231066","4716-K9","2018/10/02 20:19:56","新北市新店區安興路32號","121.515598333333","24.9701266666667","6500600","新店區"
"231056","4715-K9","2018/10/02 20:19:56","新北市新店區中正路302巷10號","121.537935","24.9750716666667","6500600","新店區"
"231067","4772-VM","2018/10/02 20:19:45","新北市新店區安康路一段30號","121.531736666667","24.961065","6500600","新店區"
"231065","512-UM","2018/10/02 20:19:45","新北市新店區安祥路106巷20號","121.478023333333","24.9623083333333","6500600","新店區"
"231049","513-UM","2018/10/02 20:19:55","新北市新店區北新路一段321號","121.541645","24.9682183333333","6500600","新店區"
"231063","616-UM","2018/10/02 20:19:54","新北市新店區薏仁坑路自強巷6號","121.49674","24.9584483333333","6500600","新店區"
"231045","617-UM","2018/10/02 20:19:55","新北市新店區新坡一街82號","121.547688333333","24.9624066666667","6500600","新店區"
"231061","619-UM","2018/10/02 20:19:45","新北市新店區安興路33-1號","121.515861666667","24.9704916666667","6500600","新店區"
"231068","718-UY","2018/10/02 20:19:53","新北市新店區寶安街21號","121.542","24.9820916666667","6500600","新店區"
"231054","719-UY","2018/10/02 20:19:53","新北市新店區檳榔路109號","121.544438333333","24.96167","6500600","新店區"
"231060","897-TW","2018/10/02 20:19:46","新北市新店區錦秀路11巷12號","121.480921666667","24.9443033333333","6500600","新店區"
"231043","899-TW","2018/10/02 20:19:58","新北市新店區建國路133號","121.539358333333","24.978185","6500600","新店區"
"231055","AKT-0513","2018/10/02 20:19:48","新北市新店區北新路一段91號","121.538831666667","24.9618883333333","6500600","新店區"
"241011","013-R5","2018/10/02 20:19:45","新北市三重區龍門路193號","121.499635","25.073185","6500200","三重區"
"241028","022-UY","2018/10/02 20:20:01","新北市三重區大同南路162號","121.496663333333","25.0575366666667","6500200","三重區"
"241008","059-VK","2018/10/02 20:19:52","新北市三重區永福街160號","121.480543333333","25.0744766666667","6500200","三重區"
"241022","060-VK","2018/10/02 20:19:55","新北市三重區新北大道一段32號","121.488241666667","25.0614766666667","6500200","三重區"
"241031","061-VK","2018/10/02 20:20:01","新北市三重區三寧街15號","121.489403333333","25.0597933333333","6500200","三重區"
"241015","062-VK","2018/10/02 20:20:00","新北市三重區重新路一段128號","121.50027","25.06284","6500200","三重區"
"241017","063-VK","2018/10/02 20:19:46","新北市三重區自強路一段153號","121.493645","25.0669833333333","6500200","三重區"
"241024","065-VK","2018/10/02 20:19:45","新北市三重區忠孝路三段23號","121.481296666667","25.067435","6500200","三重區"
"241026","066-VK","2018/10/02 20:19:45","新北市三重區中央南路63-1號","121.501325","25.0611816666667","6500200","三重區"
"241002","090-VK","2018/10/02 20:19:42","新北市三重區仁義街101巷2號","121.497601666667","25.0801116666667","6500200","三重區"
"251014","742-BX","2018/10/02 20:19:58","新北市淡水區石頭厝1號","121.458711666667","25.2355366666667","6501000","淡水區"
"241005","262-UM","2018/10/02 20:20:01","新北市三重區碧華街211-1號","121.488488333333","25.0826716666667","6500200","三重區"
"241003","265-UM","2018/10/02 20:20:01","新北市三重區富華街41號","121.490735","25.083215","6500200","三重區"
"241016","266-UM","2018/10/02 20:19:45","新北市三重區大同北路54巷1號","121.494223333333","25.0635416666667","6500200","三重區"
"241009","267-UM","2018/10/02 20:19:54","新北市三重區三和路四段382巷52號","121.48083","25.07831","6500200","三重區"
"241018","268-UM","2018/10/02 20:19:55","新北市三重區自強路一段155-1號","121.493523333333","25.067185","6500200","三重區"
"241032","269-UM","2018/10/02 20:19:50","新北市三重區捷運路19巷8弄13號","121.484405","25.057305","6500200","三重區"
"241013","270-UM","2018/10/02 20:19:44","新北市三重區三和路三段157號","121.491915","25.0737966666667","6500200","三重區"
"241007","398-BY","2018/10/02 20:19:42","新北市三重區溪尾街108巷42-1號","121.48778","25.0782633333333","6500200","三重區"
"241035","KEA-2210","2018/10/02 20:19:54","新北市三重區正義北路33巷25號","121.498365","25.0638","6500200","三重區"
"241004","475-VK","2018/10/02 20:19:59","新北市三重區仁愛街370號","121.491351666667","25.08055","6500200","三重區"
"241020","478-VK","2018/10/02 20:20:00","新北市三重區三和路三段172-1號","121.492365","25.0730566666667","6500200","三重區"
"241030","480-VK","2018/10/02 20:19:54","新北市三重區環河南路254巷61號","121.487838333333","25.0523683333333","6500200","三重區"
"241014","543-UM","2018/10/02 20:19:58","新北市三重區龍濱路285號","121.500963333333","25.0734","6500200","三重區"
"241023","545-UM","2018/10/02 20:19:46","新北市三重區忠孝路三段84巷1號","121.480268333333","25.0646416666667","6500200","三重區"
"241001","547-UM","2018/10/02 20:19:41","新北市三重區溪尾街42號","121.490976666667","25.0768633333333","6500200","三重區"
"241019","KEA-2593","2018/10/02 20:19:49","新北市三重區忠孝路一段66號","121.4902","25.07173","6500200","三重區"
"241006","AAD-863","2018/10/02 20:19:55","新北市三重區車路頭街139巷14號","121.484278333333","25.0762716666667","6500200","三重區"
"241012","941-UM","2018/10/02 20:19:42","新北市三重區河邊北街379號","121.501846666667","25.076475","6500200","三重區"
"241029","942-UM","2018/10/02 20:20:02","新北市三重區重安街98號","121.49259","25.0559616666667","6500200","三重區"
"241033","AAC-255","2018/10/02 20:19:58","新北市三重區五谷王北街50巷8號","121.475745","25.051435","6500200","三重區"
"235066","003-UY","2018/10/02 20:19:51","新北市中和區保平路340巷2號","121.506666666667","25.00439","6500300","中和區"
"235039","097-UM","2018/10/02 20:19:54","新北市中和區大勇街27巷16號","121.516703333333","24.9939366666667","6500300","中和區"
"235065","098-UM","2018/10/02 20:19:44","新北市中和區永和路128巷9號","121.497561666667","25.00701","6500300","中和區"
"247012","KEA-2869","2018/10/02 20:19:59","新北市蘆洲區中興街36號","121.481166666667","25.0871066666667","6501400","蘆洲區"
"235050","4979-A6","2018/10/02 20:19:48","新北市中和區景平路464巷2弄1-4號","121.505833333333","24.9939583333333","6500300","中和區"
"235069","4980-A6","2018/10/02 20:19:45","新北市中和區圓通路198巷2弄3號","121.496221666667","24.99467","6500300","中和區"
"235054","640-BX","2018/10/02 20:20:02","新北市樹林區學府路600號","121.384983333333","24.951305","6500300","中和區"
"235037","AAC-213","2018/10/02 20:19:57","新北市中和區秀朗路三段103號","121.52646","24.994735","6500300","中和區"
"235059","AAC-215","2018/10/02 20:20:01","新北市中和區圓通路447號","121.485198333333","24.9867","6500300","中和區"
"247002","893-R6","2018/10/02 20:20:01","新北市蘆洲區長安街313巷6弄12號","121.456801666667","25.0865516666667","6501400","蘆洲區"
"247016","546-UM","2018/10/02 20:19:47","新北市蘆洲區光華路132巷37號","121.465743333333","25.08372","6501400","蘆洲區"
"247024","500-BY","2018/10/02 20:19:52","新北市蘆洲區光明路106巷17號","121.463823333333","25.08743","6501400","蘆洲區"
"247014","339-TH","2018/10/02 20:20:00","新北市蘆洲區成功路60號","121.472506666667","25.0803883333333","6501400","蘆洲區"
"247006","337-TH","2018/10/02 20:19:48","新北市蘆洲區九芎街140號","121.464893333333","25.0789216666667","6501400","蘆洲區"
"247008","336-TH","2018/10/02 20:19:47","新北市蘆洲區集賢路223號","121.482515","25.0862616666667","6501400","蘆洲區"
"247020","057-VK","2018/10/02 20:19:56","新北市蘆洲區仁愛街57號","121.471845","25.0933","6501400","蘆洲區"
"247010","056-VK","2018/10/02 20:19:45","新北市蘆洲區信義路273號","121.478858333333","25.08505","6501400","蘆洲區"
"247018","007-UY","2018/10/02 20:19:57","新北市蘆洲區民族路255巷12號","121.476276666667","25.0896983333333","6501400","蘆洲區"
"247004","002-UY","2018/10/02 20:19:54","新北市蘆洲區長安街220巷32號","121.459471666667","25.0850833333333","6501400","蘆洲區"
"247022","001-UY","2018/10/02 20:19:54","新北市蘆洲區三民路222號","121.468726666667","25.0892166666667","6501400","蘆洲區"
"224010","AGQ-8101","2018/10/02 20:19:41","新北市瑞芳區基山街4-1號","121.845091666667","25.1096783333333","6501200","瑞芳區"
"222001","KEA-2212","2018/10/02 20:20:00","新北市深坑區北深路三段243巷6號","121.59925","25.004035","6501800","深坑區"
"251009","008-UM","2018/10/02 20:19:43","新北市淡水區中正路30號","121.444098333333","25.1691216666667","6501000","淡水區"
"251001","011-UM","2018/10/02 20:19:53","新北市淡水區新市二路四段265號","121.445793333333","25.19253","6501000","淡水區"
"251002","012-UM","2018/10/02 20:20:00","新北市淡水區中正路188號","121.440145","25.1699666666667","6501000","淡水區"
"251013","KEA-2871","2018/10/02 20:19:46","新北市淡水區相公山2號","121.474818333333","25.2065333333333","6501000","淡水區"
"251008","179-VK","2018/10/02 20:19:59","新北市淡水區淡海路150巷17號","121.422243333333","25.1842066666667","6501000","淡水區"
"251015","180-VK","2018/10/02 20:19:44","新北市淡水區淡金路四段542巷17號","121.452738333333","25.2270966666667","6501000","淡水區"
"251010","413-VK","2018/10/02 20:19:49","新北市淡水區新民街一段136號","121.42761","25.189015","6501000","淡水區"
"251012","441-VK","2018/10/02 20:19:49","新北市淡水區淡金路三段436號","121.450623333333","25.2133616666667","6501000","淡水區"
"251004","443-VK","2018/10/02 20:19:55","新北市淡水區竹林路120號","121.462676666667","25.14435","6501000","淡水區"
"251006","561-UM","2018/10/02 20:19:58","新北市淡水區北新路169巷12號","121.449631666667","25.180265","6501000","淡水區"
"251016","575-R6","2018/10/02 20:19:41","新北市淡水區新埔子8號","121.44954","25.228255","6501000","淡水區"
"251003","673-BX","2018/10/02 20:20:02","新北市淡水區中山北路一段217號","121.444443333333","25.179345","6501000","淡水區"
"207004","225-TW","2018/10/02 20:20:00","新北市萬里區北基里孝七街6號","121.68315","25.175865","6502800","萬里區"
"252002","178-VK","2018/10/02 20:19:43","新北市三芝區中正路一段43號","121.503286666667","25.2582133333333","6502100","三芝區"
"252001","292-VK","2018/10/02 20:19:47","新北市三芝區中山路一段12號","121.500565","25.2582666666667","6502100","三芝區"
"237006","5529-G3","2018/10/02 20:19:55","新北市三峽區嘉添1-3號","121.367756666667","24.9118083333333","6500900","三峽區"
"237016","649-BX","2018/10/02 20:19:55","新北市三峽區介壽路二段138巷1弄13-1號","121.396293333333","24.93387","6500900","三峽區"
"236070","105-UM","2018/10/02 20:20:00","新北市土城區福安街40號","121.419088333333","24.9647516666667","6501300","土城區"
"236079","166-UM","2018/10/02 20:19:51","新北市土城區福安街28號","121.41969","24.9649733333333","6501300","土城區"
"236030","253-BX","2018/10/02 20:19:49","新北市土城區學成路108巷13弄11號","121.449578333333","24.9900916666667","6501300","土城區"
"236026","269-VK","2018/10/02 20:19:55","新北市土城區中央路一段211巷6弄5號","121.44632","24.98614","6501300","土城區"
"236014","270-VK","2018/10/02 20:19:56","新北市板橋區信義路26巷20號","121.456098333333","24.9949016666667","6501300","土城區"
"236042","752-BX","2018/10/02 20:19:57","新北市土城區中華路一段41-1號","121.445928333333","24.988725","6501300","土城區"
"236059","912-UM","2018/10/02 20:19:55","新北市土城區大安路101-5號","121.433538333333","24.96856","6501300","土城區"
"242037","AAC-296","2018/10/02 20:19:57","新北市新莊區後港一路56巷24弄9號","121.426241666667","25.0251716666667","6500500","新莊區"
"242058","986-R7","2018/10/02 20:19:46","新北市新莊區龍安路266巷34號","121.421495","25.0185933333333","6500500","新莊區"
"242056","751-BX","2018/10/02 20:20:03","新北市新莊區豐年街28巷25號","121.445388333333","25.0323","6500500","新莊區"
"242029","705-TV","2018/10/02 20:19:47","新北市新莊區中華路二段203號","121.452293333333","25.0527216666667","6500500","新莊區"
"242027","615-BX","2018/10/02 20:20:02","新北市新莊區幸福路540號","121.455426666667","25.0493833333333","6500500","新莊區"
"242025","613-BX","2018/10/02 20:19:58","新北市新莊區五工一路80巷23號","121.46116","25.0667216666667","6500500","新莊區"
"242044","566-BX","2018/10/02 20:19:53","新北市新莊區中正路新建巷28弄71號","121.413748333333","25.021105","6500500","新莊區"
"242048","497-BY","2018/10/02 20:19:48","新北市新莊區龍安路252號","121.421118333333","25.0195916666667","6500500","新莊區"
"242054","441-UM","2018/10/02 20:19:58","新北市新莊區西盛街382巷1號","121.427573333333","25.01298","6500500","新莊區"
"242002","440-UM","2018/10/02 20:19:53","新北市新莊區化成路31號","121.465156666667","25.0439566666667","6500500","新莊區"
"242039","415-TV","2018/10/02 20:19:58","新北市新莊區成功街30號","121.424786666667","25.0204666666667","6500500","新莊區"
"242009","413-TV","2018/10/02 20:19:52","新北市新莊區昌盛街65巷2弄12號","121.455433333333","25.050335","6500500","新莊區"
"242046","400-BY","2018/10/02 20:19:43","新北市新莊區中正路新生巷10號","121.416825","25.0239066666667","6500500","新莊區"
"242023","362-BY","2018/10/02 20:19:58","新北市新莊區化成路852號","121.464775","25.0605666666667","6500500","新莊區"
"242061","353-BY","2018/10/02 20:19:53","新北市新莊區新樹路226號","121.433596666667","25.019805","6500500","新莊區"
"242042","133-UY","2018/10/02 20:19:55","新北市新莊區天祥街63號","121.416266666667","25.0290833333333","6500500","新莊區"
"242051","172-VK","2018/10/02 20:19:45","新北市新莊區民安西路240號","121.425995","25.0141216666667","6500500","新莊區"
"242013","173-VK","2018/10/02 20:19:56","新北市新莊區中和街186巷2弄2號","121.447661666667","25.0496816666667","6500500","新莊區"
"242019","175-VK","2018/10/02 20:19:54","新北市新莊區銘德街5號","121.459195","25.0437133333333","6500500","新莊區"
"242017","346-TH","2018/10/02 20:19:46","新北市新莊區中港二街133號","121.448375","25.04562","6500500","新莊區"
"242032","348-TH","2018/10/02 20:19:48","新北市新莊區中正路418號","121.44107","25.0337833333333","6500500","新莊區"
"242005","349-TH","2018/10/02 20:19:58","新北市新莊區頭前路15巷16號","121.467721666667","25.051695","6500500","新莊區"
"242021","350-TH","2018/10/02 20:19:57","新北市新莊區和興街27號","121.447178333333","25.0394566666667","6500500","新莊區"
"242015","351-TH","2018/10/02 20:20:02","新北市新莊區永樂街237巷2號","121.446333333333","25.0443266666667","6500500","新莊區"
"221008","489-VK","2018/10/02 20:19:53","新北市汐止區康寧街381號","121.629031666667","25.0678133333333","6501100","汐止區"
"221036","130-UY","2018/10/02 20:19:53","新北市汐止區福安街57巷1號","121.663795","25.0637583333333","6501100","汐止區"
"221015","131-UY","2018/10/02 20:19:43","新北市汐止區建成路142巷19弄9號","121.662028333333","25.0736933333333","6501100","汐止區"
"221010","269-BY","2018/10/02 20:19:55","新北市汐止區八連路二段439號","121.628466666667","25.10385","6501100","汐止區"
"221012","278-VK","2018/10/02 20:19:42","新北市汐止區保新街283號","121.692708333333","25.0683116666667","6501100","汐止區"
"221023","279-VK","2018/10/02 20:19:58","新北市汐止區湖東街5巷10號","121.633828333333","25.072855","6501100","汐止區"
"221032","280-BY","2018/10/02 20:20:02","新北市汐止區民權街二段36號","121.619413333333","25.0496033333333","6501100","汐止區"
"221027","281-BY","2018/10/02 20:19:53","新北市汐止區大同路二段353號","121.656945","25.06726","6501100","汐止區"
"221029","298-VK","2018/10/02 20:19:43","新北市汐止區樟樹一路99巷7弄3號","121.641143333333","25.0635366666667","6501100","汐止區"
"221021","299-VK","2018/10/02 20:19:49","新北市汐止區水源路一段284號","121.654283333333","25.058285","6501100","汐止區"
"221031","353-TW","2018/10/02 20:19:55","新北市汐止區中興路150巷13號","121.632945","25.0650716666667","6501100","汐止區"
"221035","622-UM","2018/10/02 20:19:43","新北市汐止區長江街101-5號","121.658651666667","25.0732433333333","6501100","汐止區"
"221025","623-UM","2018/10/02 20:19:50","新北市汐止區水源路二段34號","121.654908333333","25.05727","6501100","汐止區"
"221038","646-BX","2018/10/02 20:19:59","新北市汐止區忠孝東路406號","121.665881666667","25.0711","6501100","汐止區"
"221002","707-TV","2018/10/02 20:19:51","新北市汐止區福德一路86巷10號","121.637841666667","25.068805","6501100","汐止區"
"221018","753-BX","2018/10/02 20:19:59","新北市汐止區茄安路14號","121.673083333333","25.06789","6501100","汐止區"
"220101","245-BX","2018/10/02 20:19:53","新北市三重區重新路五段326巷25-1號","121.47959","25.0428616666667","6500100","板橋區"
"220103","257-TC","2018/10/02 20:20:03","新北市板橋區陽明街23巷8弄15號","121.465558333333","25.0206683333333","6500100","板橋區"
"220083","286-VK","2018/10/02 20:20:04","新北市板橋區大觀路一段38巷156弄166號","121.444056666667","25.0092766666667","6500100","板橋區"
"220081","287-VK","2018/10/02 20:19:45","新北市板橋區僑中一街80巷5弄3號","121.447595","25.0125016666667","6500100","板橋區"
"220061","293-UM","2018/10/02 20:19:48","新北市板橋區四川路一段286巷6號","121.45835","25.0009916666667","6500100","板橋區"
"220097","299-UM","2018/10/02 20:19:47","新北市板橋區文化路一段101巷11號","121.460711666667","25.0146066666667","6500100","板橋區"
"242034","281-VK","2018/10/02 20:19:55","新北市新莊區新泰路199巷8號","121.446578333333","25.0380683333333","6500500","新莊區"
"220092","307-R5","2018/10/02 20:19:46","新北市板橋區長江路二段35號","121.46334","25.0332683333333","6500100","板橋區"
"220089","487-VK","2018/10/02 20:19:46","新北市板橋區四維路137巷17號","121.464265","25.0249566666667","6500100","板橋區"
"242007","280-VK","2018/10/02 20:19:50","新北市新莊區福壽街90號","121.458313333333","25.049945","6500500","新莊區"
"220102","KEA-2699","2018/10/02 20:19:58","新北市板橋區文化路一段243號","121.464215","25.01786","6500100","板橋區"
"220055","827-TW","2018/10/02 20:19:49","新北市板橋區仁愛路23號","121.45889","24.9994316666667","6500100","板橋區"
"220070","AAC-253","2018/10/02 20:19:44","新北市板橋區四川路二段245巷3號","121.450528333333","24.99345","6500100","板橋區"
"235068","KEA-2873","2018/10/02 20:20:01","新北市中和區勝利路35巷1弄25號","121.49984","25.0077733333333","6500300","中和區"
