"lineid","car","time","location","longitude","latitude","cityid","cityname"
"248005","653-BX","2018/05/17 07:49:23","新北市五股區明德路12巷3號","121.433321666667","25.0718266666667","6501500","五股區"
"232001","290-BY","2018/05/17 07:49:25","新北市坪林區下坑子口16號","121.710811666667","24.947335","6502000","坪林區"
"232014","291-BY","2018/05/17 07:49:27","新北市坪林區九芎根2-1號","121.668711666667","24.888375","6502000","坪林區"
"232010","375-UM","2018/05/17 07:38:28","新北市坪林區厚德岡坑3號","121.731098333333","24.9403866666667","6502000","坪林區"
"232007","758-BX","2018/05/17 07:49:30","新北市坪林區魚堀49-1號","121.701265","24.931495","6502000","坪林區"
"244003","248-BX","2018/05/17 07:49:33","新北市林口區頂福里34號","121.354453333333","25.09851","6501700","林口區"
"244018","403-UM","2018/05/17 07:49:27","新北市林口區粉寮69號","121.405055","25.0908033333333","6501700","林口區"
"222006","289-BY","2018/05/17 07:49:30","新北市深坑區文化街98號","121.617098333333","25.0019066666667","6501800","深坑區"
"235001","611-BX","2018/05/17 07:49:25","新北市中和區圓通路367巷4號","121.491473333333","24.989375","6500300","中和區"
"226005","5620-A6","2018/05/17 07:49:42","新北市平溪區嶺腳里中華街25號","121.739606666667","25.02521","6502400","平溪區"
"226007","7418-A5","2018/05/17 07:49:37","新北市平溪區平湖里大厝37-3號","121.780656666667","25.02785","6502400","平溪區"
"226003","AGD-0702","2018/05/17 07:40:15","新北市平溪區嶺腳里嶺腳寮83-2號","121.750683333333","25.03514","6502400","平溪區"
"223006","022-BY","2018/05/17 07:49:26","新北市石碇區靜安路一段33號","121.642613333333","25.0119733333333","6501900","石碇區"
"223002","KEA-2673","2018/05/17 07:49:25","新北市石碇區北宜路五段濕水子巷11號","121.637335","24.9433866666667","6501900","石碇區"
"223001","205-TH","2018/05/17 07:48:02","新北市石碇區四分子5號","121.664491666667","24.9630433333333","6501900","石碇區"
"223008","406-TH","2018/05/17 07:25:58","新北市石碇區靜安路一段337號","121.698861666667","25.014625","6501900","石碇區"
"223001","592-UM","2018/05/17 07:49:28","新北市石碇區四分子6號","121.664825","24.9611033333333","6501900","石碇區"
"223004","660-BX","2018/05/17 07:49:34","新北市石碇區楓子林34號","121.642136666667","25.0102566666667","6501900","石碇區"
"223007","661-BX","2018/05/17 07:46:11","新北市石碇區靜安路一段337號","121.69889","25.0145016666667","6501900","石碇區"
"223005","677-TV","2018/05/17 07:49:27","新北市石碇區靜安路一段14號","121.642076666667","25.0113616666667","6501900","石碇區"
"227007","282-VK","2018/05/17 07:49:15","新北市雙溪區雙溪里太平路56號","121.864908333333","25.03561","6502500","雙溪區"
"252004","249-BX","2018/05/17 07:49:34","新北市三芝區店子里菜公坑78號","121.508766666667","25.203865","6502100","三芝區"
"252007","AAC-283","2018/05/17 07:49:30","新北市三芝區後厝里芝麻五街28號","121.47485","25.24522","6502100","三芝區"
"237001","159-UY","2018/05/17 07:49:37","新北市三峽區學成路256號","121.375168333333","24.9422583333333","6500900","三峽區"
"236009","165-UM","2018/05/17 07:49:28","新北市土城區金城路三段269號","121.472471666667","24.9902783333333","6501300","土城區"
"236003","339-SR","2018/05/17 07:49:29","新北市土城區南天母路121號","121.448273333333","24.9507283333333","6501300","土城區"
"242033","AAC-296","2018/05/17 07:49:22","新北市新莊區中正路384號","121.442168333333","25.0343333333333","6500500","新莊區"
"242057","986-R7","2018/05/17 07:49:32","新北市新莊區中正路384號","121.441953333333","25.0348083333333","6500500","新莊區"
"242052","751-BX","2018/05/17 07:49:27","新北市新莊區環河路636-7號","121.436683333333","25.0108083333333","6500500","新莊區"
"242026","615-BX","2018/05/17 07:49:27","新北市新莊區中港路302號","121.45273","25.044855","6500500","新莊區"
"242024","613-BX","2018/05/17 07:49:33","新北市新莊區中港一街157號","121.447496666667","25.0449033333333","6500500","新莊區"
"242028","612-BX","2018/05/17 07:49:32","新北市新莊區中和街145號","121.447335","25.0491216666667","6500500","新莊區"
"242040","566-BX","2018/05/17 07:49:36","新北市新莊區中正路481號","121.441385","25.03376","6500500","新莊區"
"242045","497-BY","2018/05/17 07:49:41","新北市新莊區新樹路45號","121.44021","25.0320883333333","6500500","新莊區"
"242049","441-UM","2018/05/17 07:49:36","新北市新莊區瓊林南路33-9號","121.435993333333","25.0178183333333","6500500","新莊區"
"242055","440-UM","2018/05/17 07:49:20","新北市新莊區中正路473-1號","121.441955","25.0332983333333","6500500","新莊區"
"242035","415-TV","2018/05/17 07:49:36","新北市新莊區中正路400號","121.441923333333","25.0344383333333","6500500","新莊區"
"242006","413-TV","2018/05/17 07:49:39","新北市新莊區中和街59號","121.447291666667","25.04678","6500500","新莊區"
"242022","362-BY","2018/05/17 07:49:38","新北市新莊區中港路280號","121.453018333333","25.044105","6500500","新莊區"
"242059","353-BY","2018/05/17 07:49:34","新北市泰山區磚雅厝3號","121.442038333333","25.0418383333333","6500500","新莊區"
"242008","132-UY","2018/05/17 07:49:31","新北市新莊區中和街110號","121.44758","25.0469983333333","6500500","新莊區"
"242038","133-UY","2018/05/17 07:49:29","新北市新莊區新樹路168號","121.434858333333","25.0223716666667","6500500","新莊區"
"242030","135-UY","2018/05/17 07:49:21","新北市新莊區三和路12-19號","121.442271666667","25.0377316666667","6500500","新莊區"
"242047","172-VK","2018/05/17 07:49:27","新北市新莊區福營路363號","121.423966666667","25.02779","6500500","新莊區"
"242016","175-VK","2018/05/17 07:49:31","新北市新莊區中港一街161號","121.447166666667","25.0449183333333","6500500","新莊區"
"242003","176-VK","2018/05/17 07:49:23","新北市新莊區新泰路500號","121.442425","25.045895","6500500","新莊區"
"242014","346-TH","2018/05/17 07:49:36","新北市新莊區新泰路500號","121.442421666667","25.0460316666667","6500500","新莊區"
"242043","349-TH","2018/05/17 07:49:31","新北市新莊區民安路31號","121.423281666667","25.0275533333333","6500500","新莊區"
"242018","350-TH","2018/05/17 07:49:31","新北市新莊區中環路二段392-1號","121.442366666667","25.0455833333333","6500500","新莊區"
"242001","KEA-2550","2018/05/17 07:49:28","新北市新莊區新泰路225號","121.446496666667","25.039235","6500500","新莊區"
"220018","282-UM","2018/05/17 07:49:24","新北市板橋區府中路11號","121.459781666667","25.0095966666667","6500100","板橋區"
"242012","281-VK","2018/05/17 07:49:31","新北市新莊區新泰路484號","121.442475","25.0456316666667","6500500","新莊區"
