"lineid","car","time","location","longitude","latitude","cityid","cityname"
"248005","653-BX","2018/04/17 08:12:24","新北市五股區明德路12巷6號","121.433365","25.0718266666667","6501500","五股區"
"244002","248-BX","2018/04/17 08:19:17","新北市林口區下福里99-99號","121.285898333333","25.1157883333333","6501700","林口區"
"222004","289-BY","2018/04/17 08:19:04","新北市深坑區昇高坑路51-1號","121.629605","24.994045","6501800","深坑區"
"231007","189-VK","2018/04/17 08:19:29","新北市新店區新潭路一段78-1號","121.525073333333","24.939895","6500600","新店區"
"231009","192-VK","2018/04/17 08:19:31","新北市新店區北宜路一段39巷16弄12號","121.539471666667","24.9579133333333","6500600","新店區"
"235001","611-BX","2018/04/17 08:19:12","新北市中和區連城路469巷37號","121.48352","24.9945183333333","6500300","中和區"
"226005","5620-A6","2018/04/17 08:19:30","新北市平溪區南山里南山坪99號","121.778725","25.042785","6502400","平溪區"
"226002","7418-A5","2018/04/17 08:19:27","新北市平溪區東勢里芊蓁林2號","121.752153333333","25.0202616666667","6502400","平溪區"
"226006","AGD-0702","2018/04/17 08:19:14","新北市平溪區十分里十分街271-2號","121.779053333333","25.0448266666667","6502400","平溪區"
"223006","022-BY","2018/04/17 08:19:18","新北市深坑區文山路一段8號","121.644503333333","25.00869","6501900","石碇區"
"223001","205-TH","2018/04/17 08:19:06","新北市石碇區北宜路六段十三股巷3號","121.6473","24.9442366666667","6501900","石碇區"
"223008","406-TH","2018/04/17 08:19:16","新北市石碇區十八重溪6號","121.678011666667","25.0112666666667","6501900","石碇區"
"223004","660-BX","2018/04/17 08:19:16","新北市石碇區碇坪路一段92號","121.658103333333","24.9913766666667","6501900","石碇區"
"223007","661-BX","2018/04/17 08:19:15","新北市石碇區十八重溪6號","121.678023333333","25.01129","6501900","石碇區"
"223005","677-TV","2018/04/17 08:19:25","新北市石碇區碇坪路一段92號","121.658058333333","24.9913733333333","6501900","石碇區"
"227006","282-VK","2018/04/17 08:19:17","新北市雙溪區牡丹里下坑11號","121.851008333333","25.0562433333333","6502500","雙溪區"
"252004","249-BX","2018/04/17 08:19:22","新北市三芝區興華里車埕59號","121.498671666667","25.1969333333333","6502100","三芝區"
"252007","AAC-283","2018/04/17 08:19:17","新北市三芝區後厝里大片頭76號","121.459341666667","25.24614","6502100","三芝區"
"237001","159-UY","2018/04/17 08:19:20","新北市三峽區大義路251號","121.377663333333","24.9460816666667","6500900","三峽區"
"236008","165-UM","2018/04/17 08:19:31","新北市土城區清水路32巷9號","121.455893333333","24.9810016666667","6501300","土城區"
"236002","339-SR","2018/04/17 08:19:17","新北市土城區中州路10號","121.414765","24.9571983333333","6501300","土城區"
"236006","498-BY","2018/04/17 08:19:22","新北市土城區大暖路116號","121.42258","24.957415","6501300","土城區"
"220070","282-UM","2018/04/17 08:19:18","新北市樹林區中山路三段214號","121.38003","24.9678266666667","6500100","板橋區"
