"lineid","car","time","location","longitude","latitude","cityid","cityname"
"248005","653-BX","2018/04/17 08:12:24","新北市五股區明德路12巷6號","121.433365","25.0718266666667","6501500","五股區"
"244002","248-BX","2018/04/17 08:29:17","新北市林口區下福里135-2號","121.295431666667","25.1198733333333","6501700","林口區"
"222004","289-BY","2018/04/17 08:28:04","新北市深坑區文山路二段30巷31號","121.615595","24.9986616666667","6501800","深坑區"
"231007","189-VK","2018/04/17 08:29:12","新北市新店區小坑二路2巷1號","121.531718333333","24.9158266666667","6500600","新店區"
"231009","192-VK","2018/04/17 08:29:11","新北市新店區新烏路一段100-2號","121.545936666667","24.9371433333333","6500600","新店區"
"235001","611-BX","2018/04/17 08:29:32","新北市中和區員山路314巷7弄8號","121.482033333333","25.003185","6500300","中和區"
"226005","5620-A6","2018/04/17 08:29:04","新北市平溪區南山里六分11號","121.797646666667","25.049825","6502400","平溪區"
"226002","7418-A5","2018/04/17 08:29:27","新北市平溪區東勢里芊蓁林67號","121.750075","25.0058033333333","6502400","平溪區"
"226006","AGD-0702","2018/04/17 08:29:14","新北市平溪區十分里十分街239號","121.778108333333","25.0442216666667","6502400","平溪區"
"223006","022-BY","2018/04/17 08:29:19","新北市石碇區八分寮47-1號","121.643111666667","25.013695","6501900","石碇區"
"223001","205-TH","2018/04/17 08:29:26","新北市石碇區北宜路六段塗潭巷18號","121.650275","24.93305","6501900","石碇區"
"223008","406-TH","2018/04/17 08:29:16","新北市石碇區碇南路二段松柏崎巷36-1號","121.679025","25.0230016666667","6501900","石碇區"
"223004","660-BX","2018/04/17 08:29:16","新北市石碇區崩山3-3號","121.674866666667","24.973535","6501900","石碇區"
"223007","661-BX","2018/04/17 08:29:15","新北市石碇區碇南路二段鹿窟巷2號","121.674681666667","25.029345","6501900","石碇區"
"223005","677-TV","2018/04/17 08:29:25","新北市石碇區崩山22號","121.677183333333","24.97197","6501900","石碇區"
"227006","282-VK","2018/04/17 08:29:17","新北市雙溪區平林里竹寮坑10號","121.843371666667","25.0437966666667","6502500","雙溪區"
"227012","030-BX","2018/04/17 08:29:21","新北市雙溪區平林里外平林78號","121.841163333333","25.0345116666667","6502500","雙溪區"
"252004","249-BX","2018/04/17 08:29:22","新北市三芝區興華里楓子林45-7號","121.501233333333","25.2046116666667","6502100","三芝區"
"252007","AAC-283","2018/04/17 08:29:17","新北市三芝區蘭陽街13-1號","121.473546666667","25.2424616666667","6502100","三芝區"
"237001","159-UY","2018/04/17 08:29:20","新北市三峽區三樹路199號","121.378226666667","24.9420133333333","6500900","三峽區"
"236008","165-UM","2018/04/17 08:29:20","新北市土城區金城路二段46巷19號","121.4541","24.97385","6501300","土城區"
"236002","339-SR","2018/04/17 08:29:17","新北市土城區中央路三段281巷9-2號","121.426565","24.962925","6501300","土城區"
"236006","498-BY","2018/04/17 08:29:22","新北市土城區中央路四段37巷25號","121.424306666667","24.961095","6501300","土城區"
"220070","282-UM","2018/04/17 08:29:18","新北市樹林區八德街495-3號","121.40152","24.96928","6500100","板橋區"
