"lineid","car","time","location","longitude","latitude","cityid","cityname"
"248005","653-BX","2018/04/17 09:49:15","新北市五股區成泰路一段235號","121.436188333333","25.0792583333333","6501500","五股區"
"222004","289-BY","2018/04/17 09:47:02","新北市深坑區昇高坑路50-1號","121.629478333333","24.9961916666667","6501800","深坑區"
"231007","189-VK","2018/04/17 09:49:29","新北市新店區新潭路三段215巷25號","121.508126666667","24.9040666666667","6500600","新店區"
"231009","192-VK","2018/04/17 09:41:48","新北市新店區平廣路一段256號","121.507848333333","24.8882983333333","6500600","新店區"
"223001","205-TH","2018/04/17 09:49:26","新北市石碇區內楒仔腳1號","121.632565","24.9700833333333","6501900","石碇區"
"223001","592-UM","2018/04/17 09:49:18","新北市石碇區小粗坑(潭邊里)2-1號","121.671516666667","24.9825483333333","6501900","石碇區"
"223004","660-BX","2018/04/17 09:37:01","新北市石碇區小粗坑(潭邊里)9-2號","121.678433333333","24.9854483333333","6501900","石碇區"
"227006","282-VK","2018/04/17 09:49:16","新北市雙溪區長源里柑腳46號","121.797841666667","25.00959","6502500","雙溪區"
"227012","030-BX","2018/04/17 09:49:21","新北市雙溪區泰平里烏山路17號","121.797011666667","24.9501083333333","6502500","雙溪區"
"252004","249-BX","2018/04/17 09:49:22","新北市三芝區圓山里石曹子坑66-2號","121.520801666667","25.2152216666667","6502100","三芝區"
"252007","AAC-283","2018/04/17 09:49:17","新北市三芝區光復街1號","121.518561666667","25.2635416666667","6502100","三芝區"
"237001","159-UY","2018/04/17 09:49:20","新北市三峽區學勤路117號","121.375576666667","24.9466283333333","6500900","三峽區"
"236006","498-BY","2018/04/17 09:49:22","新北市土城區中華路二段243號","121.437591666667","24.972495","6501300","土城區"
