"lineid","car","time","location","longitude","latitude","cityid","cityname"
"248005","653-BX","2018/04/17 10:19:15","新北市五股區中興路二段63巷17號","121.460341666667","25.0755416666667","6501500","五股區"
"231007","189-VK","2018/04/17 10:19:09","新北市新店區新潭路三段215巷25號","121.508051666667","24.9040483333333","6500600","新店區"
"231009","192-VK","2018/04/17 10:19:11","新北市新店區小坑一路21-1號","121.531188333333","24.913285","6500600","新店區"
"227006","282-VK","2018/04/17 10:19:16","新北市雙溪區外柑里田寮5號","121.805766666667","25.0161066666667","6502500","雙溪區"
"227012","030-BX","2018/04/17 10:19:25","新北市雙溪區泰平里料角坑40號","121.793265","24.9595","6502500","雙溪區"
"252007","AAC-283","2018/04/17 10:19:17","新北市三芝區新庄里番社后29-1號","121.501405","25.2715233333333","6502100","三芝區"
"237001","159-UY","2018/04/17 10:19:20","新北市三峽區國學街26號","121.373163333333","24.942045","6500900","三峽區"
