"lineid","car","time","location","longitude","latitude","cityid","cityname"
"234044","148-BY","2018/04/17 13:49:17","新北市永和區永利路248號","121.524215","25.0027383333333","6500400","永和區"
"234068","149-BY","2018/04/17 13:49:29","新北市永和區竹林路77號","121.519433333333","25.012695","6500400","永和區"
"234005","207-UY","2018/04/17 13:49:22","新北市中和區中和路464號","121.51237","25.0039416666667","6500400","永和區"
"234078","298-R6","2018/04/17 13:49:24","新北市永和區永亨路112號","121.523725","25.00439","6500400","永和區"
"234036","336-UY","2018/04/17 13:49:26","新北市永和區成功路二段131號","121.526668333333","24.998285","6500400","永和區"
"234062","337-UY","2018/04/17 13:49:20","新北市永和區中正路368巷18號","121.518413333333","25.00081","6500400","永和區"
"234084","338-UY","2018/04/17 13:49:31","新北市永和區中正路562號","121.517348333333","25.0059816666667","6500400","永和區"
"234066","553-UM","2018/04/17 13:49:26","新北市永和區中山路一段255巷22號","121.508498333333","25.00716","6500400","永和區"
"234015","745-BX","2018/04/17 13:49:32","新北市永和區文化路57號","121.51416","25.0150533333333","6500400","永和區"
"234028","746-BX","2018/04/17 13:49:27","新北市永和區民生路69號","121.522716666667","24.9972616666667","6500400","永和區"
"234052","KEA-2590","2018/04/17 13:49:29","新北市永和區竹林路73號","121.51901","25.01324","6500400","永和區"
"234012","KEA-2591","2018/04/17 13:49:18","新北市永和區保生路55號","121.504711666667","25.010635","6500400","永和區"
"234060","AAD-866","2018/04/17 13:49:30","新北市永和區中正路191號","121.517083333333","24.9992966666667","6500400","永和區"
"234040","862-TW","2018/04/17 13:49:28","新北市永和區中和路389巷15號","121.508016666667","25.001115","6500400","永和區"
"234048","863-TW","2018/04/17 13:49:27","新北市永和區保安路79號","121.508613333333","25.0148116666667","6500400","永和區"
"234025","9371-KE","2018/04/17 13:49:25","新北市永和區自由街47號","121.514036666667","25.005895","6500400","永和區"
"234010","9373-KE","2018/04/17 13:49:19","新北市永和區仁愛路266號","121.504195","25.0085566666667","6500400","永和區"
"248017","225-UY","2018/04/17 13:49:16","新北市五股區民義路二段22巷35-1號","121.424108333333","25.1009366666667","6501500","五股區"
"234022","9380-KE","2018/04/17 13:49:16","新北市永和區復興街16巷5號","121.515768333333","25.0125333333333","6500400","永和區"
"234076","969-R7","2018/04/17 13:49:22","新北市永和區民權路36巷6號","121.51977","24.9989366666667","6500400","永和區"
"234072","AAC-211","2018/04/17 13:49:26","新北市永和區豫溪街189巷5號","121.52254","25.0103383333333","6500400","永和區"
"234001","AAC-295","2018/04/17 13:49:16","新北市永和區永和路一段107號","121.513895","25.0079716666667","6500400","永和區"
"244002","248-BX","2018/04/17 13:49:18","新北市林口區竹林路269號","121.389556666667","25.0809583333333","6501700","林口區"
"231002","002-UM","2018/04/17 13:49:27","新北市新店區溪園路247號","121.525183333333","24.9831166666667","6500600","新店區"
"231027","0293-UT","2018/04/17 13:49:21","新北市新店區中興路一段24-2號","121.53852","24.9583116666667","6500600","新店區"
"231028","046-UY","2018/04/17 13:49:28","新北市新店區安和路二段216號","121.517781666667","24.9755116666667","6500600","新店區"
"231001","047-UY","2018/04/17 13:49:29","新北市新店區三民路62號","121.53512","24.9721633333333","6500600","新店區"
"231005","106-UY","2018/04/17 13:49:28","新北市新店區寶中路121-1號","121.5496","24.97946","6500600","新店區"
"231035","110-UY","2018/04/17 13:49:18","新北市新店區安忠路57巷5-6號","121.513301666667","24.9587766666667","6500600","新店區"
"231012","187-VK","2018/04/17 13:49:30","新北市新店區德正街29號","121.544616666667","24.9713416666667","6500600","新店區"
"231010","188-VK","2018/04/17 13:49:16","新北市新店區平等街48巷10號","121.535771666667","24.9731133333333","6500600","新店區"
"231023","KEA-2219","2018/04/17 13:49:11","新北市新店區文中路16號","121.537886666667","24.9570033333333","6500600","新店區"
"231026","256-BX","2018/04/17 13:49:17","新北市新店區福園街8-1號","121.532928333333","24.9729183333333","6500600","新店區"
"231018","278-BY","2018/04/17 13:49:24","新北市新店區中正路399巷17號","121.534013333333","24.97671","6500600","新店區"
"231015","AAD-862","2018/04/17 13:49:21","新北市新店區北宜路二段82巷9弄1號","121.553735","24.9525433333333","6500600","新店區"
"231038","3712-VJ","2018/04/17 13:49:25","新北市新店區安康路一段321巷5-1號","121.522126666667","24.962605","6500600","新店區"
"231037","4716-K9","2018/04/17 13:49:17","新北市新店區安康路二段416號","121.49661","24.9552383333333","6500600","新店區"
"231025","4715-K9","2018/04/17 13:49:18","新北市新店區中央六街58號","121.527918333333","24.975835","6500600","新店區"
"231036","512-UM","2018/04/17 13:49:16","新北市新店區安祥路110巷29號","121.473548333333","24.9565183333333","6500600","新店區"
"231013","513-UM","2018/04/17 13:49:21","新北市新店區二十張路25巷18弄27號","121.539326666667","24.9812783333333","6500600","新店區"
"231006","617-UM","2018/04/17 13:49:21","新北市新店區北宜路一段260號","121.54575","24.9527966666667","6500600","新店區"
"231029","618-UM","2018/04/17 13:49:29","新北市新店區安康路二段119-1號","121.51251","24.9614766666667","6500600","新店區"
"231030","619-UM","2018/04/17 13:49:17","新北市新店區安康路一段20號","121.531086666667","24.96105","6500600","新店區"
"231034","641-BX","2018/04/17 13:49:14","新北市新店區達觀路16號","121.503156666667","24.94068","6500600","新店區"
"231003","645-TV","2018/04/17 13:49:18","新北市新店區檳榔路35巷1號","121.542796666667","24.963895","6500600","新店區"
"231020","719-UY","2018/04/17 13:49:14","新北市新店區新烏路二段50巷1號","121.54736","24.9278083333333","6500600","新店區"
"231032","720-UM","2018/04/17 13:49:19","新北市新店區莒光路44巷21弄11-6號","121.518473333333","24.9522866666667","6500600","新店區"
"231004","899-TW","2018/04/17 13:49:18","新北市新店區寶橋路132號","121.547406666667","24.9760416666667","6500600","新店區"
"231024","AKT-0513","2018/04/17 13:49:12","新北市新店區北新路一段271巷3號","121.540655","24.966685","6500600","新店區"
"235028","005-UY","2018/04/17 13:49:16","新北市中和區景平路545巷9號","121.498106666667","24.99906","6500300","中和區"
"235027","006-UY","2018/04/17 13:49:14","新北市中和區錦和路97號","121.49003","24.995545","6500300","中和區"
"235020","096-UM","2018/04/17 13:49:29","新北市中和區新民街94巷18號","121.481465","25.0092816666667","6500300","中和區"
"235003","097-UM","2018/04/17 13:49:21","新北市中和區大勇街29巷23弄1號","121.515493333333","24.994675","6500300","中和區"
"235029","098-UM","2018/04/17 13:49:17","新北市中和區勝利路35巷9弄22號","121.500048333333","25.0074233333333","6500300","中和區"
"235004","150-BY","2018/04/17 13:48:43","新北市中和區宜安路120號","121.510248333333","24.99811","6500300","中和區"
"235022","151-BY","2018/04/17 13:49:17","新北市中和區連城路518巷8號","121.476586666667","24.9924616666667","6500300","中和區"
"235019","183-VK","2018/04/17 13:49:28","新北市中和區德光路75號","121.469403333333","25.00373","6500300","中和區"
"235002","185-VK","2018/04/17 13:49:20","新北市中和區立人街24-4號","121.518903333333","24.9942","6500300","中和區"
"235013","186-VK","2018/04/17 13:49:32","新北市中和區景安路177巷27號","121.506613333333","24.9945683333333","6500300","中和區"
"235031","255-BX","2018/04/17 13:49:25","新北市中和區新生街220巷4號","121.483078333333","24.9985083333333","6500300","中和區"
"235008","293-VK","2018/04/17 13:49:31","新北市中和區中興街113號","121.499891666667","24.9921416666667","6500300","中和區"
"235036","301-VK","2018/04/17 13:49:17","新北市中和區中山路二段31號","121.504773333333","25.00522","6500300","中和區"
"235007","352-BY","2018/04/17 13:49:18","新北市中和區秀朗路三段70巷6號","121.526271666667","24.9946233333333","6500300","中和區"
"235032","377-QA","2018/04/17 13:48:34","新北市中和區中正路192號","121.497593333333","24.994025","6500300","中和區"
"235025","378-QA","2018/04/17 13:49:13","新北市中和區民享街49巷3號","121.474563333333","25.0028566666667","6500300","中和區"
"235024","269-TV","2018/04/17 13:49:30","新北市中和區中山路三段162號","121.473053333333","25.00637","6500300","中和區"
"235014","4979-A6","2018/04/17 13:49:14","新北市中和區忠孝街62巷5號","121.512701666667","24.9835616666667","6500300","中和區"
"235006","551-UM","2018/04/17 13:49:19","新北市中和區成功路41巷1號","121.526328333333","24.9932083333333","6500300","中和區"
"235034","558-UM","2018/04/17 13:49:24","新北市中和區南山路9號","121.502138333333","24.9993466666667","6500300","中和區"
"235009","565-BX","2018/04/17 13:49:19","新北市中和區景安路192號","121.504318333333","24.99176","6500300","中和區"
"235018","640-BX","2018/04/17 13:49:21","新北市中和區自治街30號","121.474921666667","25.003285","6500300","中和區"
"235011","732-UM","2018/04/17 13:49:24","新北市中和區興南路二段34巷55號","121.504976666667","24.9864316666667","6500300","中和區"
"235010","733-UM","2018/04/17 13:49:24","新北市中和區仁愛街36巷45號","121.511406666667","24.9865016666667","6500300","中和區"
"235035","783-BX","2018/04/17 13:49:19","新北市中和區立德街26巷5弄17號","121.489773333333","25.007765","6500300","中和區"
"235026","800-TS","2018/04/17 13:46:45","新北市中和區中山路二段332巷15號","121.494126666667","25.002895","6500300","中和區"
"235021","801-TS","2018/04/17 13:49:27","新北市中和區民安街25巷11號","121.480531666667","25.0002883333333","6500300","中和區"
"235016","805-TS","2018/04/17 13:49:15","新北市中和區興南路二段399巷86號","121.500168333333","24.9783666666667","6500300","中和區"
"235012","896-TW","2018/04/17 13:49:17","新北市中和區南山路240-6號","121.507263333333","24.9894983333333","6500300","中和區"
"235017","900-TW","2018/04/17 13:49:22","新北市中和區民德路290巷42號","121.46649","24.9960416666667","6500300","中和區"
"235030","911-UM","2018/04/17 13:49:23","新北市中和區中山路二段131巷19號","121.503338333333","25.0025716666667","6500300","中和區"
"235015","157-BY","2018/04/17 13:49:27","新北市中和區忠孝街29號","121.510538333333","24.983035","6500300","中和區"
"235001","AAC-213","2018/04/17 13:49:33","新北市中和區秀朗路三段128巷13號","121.524443333333","24.9933316666667","6500300","中和區"
"235023","AAC-215","2018/04/17 13:49:27","新北市中和區圓通路391-5號","121.489798333333","24.989135","6500300","中和區"
"220016","013-TV","2018/04/17 13:49:24","新北市板橋區民生路二段89-6號","121.470635","25.019365","6500100","板橋區"
"220004","015-TV","2018/04/17 13:49:33","新北市土城區四川路27號","121.455018333333","24.995785","6500100","板橋區"
"220013","072-UY","2018/04/17 13:49:15","新北市板橋區漢生東路282號","121.471258333333","25.0089816666667","6500100","板橋區"
"220034","073-UY","2018/04/17 13:49:21","新北市板橋區大智街14號","121.455973333333","25.014895","6500100","板橋區"
"220105","075-UY","2018/04/17 13:49:11","新北市板橋區民生路二段161巷3號","121.470205","25.01977","6500100","板橋區"
"220017","AAD-861","2018/04/17 13:49:18","新北市板橋區華東街268號","121.452536666667","25.00081","6500100","板橋區"
"247003","336-TH","2018/04/17 13:49:16","新北市蘆洲區中山二路256號","121.469268333333","25.07894","6501400","蘆洲區"
"247007","056-VK","2018/04/17 13:49:25","新北市蘆洲區集賢路269巷4-1號","121.481463333333","25.083605","6501400","蘆洲區"
"247015","007-UY","2018/04/17 13:49:27","新北市蘆洲區中正路108號","121.469578333333","25.08454","6501400","蘆洲區"
"235005","251-BX","2018/04/17 13:49:29","新北市中和區永貞路280號","121.513125","25.0039266666667","6500300","中和區"
"228004","212-TW","2018/04/17 13:39:55","新北市貢寮區龍崗里嵩陽街17號","121.907378333333","25.0089633333333","6502600","貢寮區"
"228005","828-UM","2018/04/17 13:49:02","新北市雙溪區三港里雙澳路100號","121.889043333333","25.05682","6502600","貢寮區"
"207001","662-BX","2018/04/17 13:49:13","新北市萬里區磺潭里清水18-2號","121.63902","25.19897","6502800","萬里區"
"252005","AAC-283","2018/04/17 13:49:19","新北市三芝區圓山里二坪頂78號","121.541786666667","25.2459683333333","6502100","三芝區"
"236065","105-UM","2018/04/17 13:49:22","新北市土城區城林路6巷80號","121.43858","24.9797366666667","6501300","土城區"
"236040","107-UM","2018/04/17 13:49:20","新北市土城區城林路6巷80號","121.438675","24.9797516666667","6501300","土城區"
"236074","166-UM","2018/04/17 13:45:56","新北市土城區中央路二段280號","121.440703333333","24.97413","6501300","土城區"
"236029","253-BX","2018/04/17 13:49:21","新北市土城區城林路6巷80號","121.438513333333","24.9797416666667","6501300","土城區"
"236013","270-VK","2018/04/17 13:49:26","新北市土城區城林路6巷80號","121.438576666667","24.979625","6501300","土城區"
"236032","271-VK","2018/04/17 13:49:21","新北市土城區城林路6巷80號","121.438581666667","24.979685","6501300","土城區"
"236017","401-BY","2018/04/17 13:49:30","新北市土城區城林路6巷80號","121.438608333333","24.9797366666667","6501300","土城區"
"236006","498-BY","2018/04/17 13:49:31","新北市土城區中央路一段365巷30弄2號","121.446426666667","24.9800233333333","6501300","土城區"
"236060","752-BX","2018/04/17 13:49:23","新北市土城區城林路6巷80號","121.438568333333","24.9797166666667","6501300","土城區"
"236057","912-UM","2018/04/17 13:49:29","新北市土城區城林路6巷80號","121.438243333333","24.9795583333333","6501300","土城區"
"236054","AAC-216","2018/04/17 13:49:29","新北市土城區城林路6巷80號","121.438651666667","24.97975","6501300","土城區"
"220027","145-BY","2018/04/17 13:49:24","新北市板橋區民權路202巷2弄1號","121.459521666667","25.0141816666667","6500100","板橋區"
"220028","200-UY","2018/04/17 13:49:24","新北市板橋區大觀路二段265巷66弄24號","121.441698333333","24.9971733333333","6500100","板橋區"
"220030","610-BX","2018/04/17 13:49:28","新北市板橋區篤行路三段49號","121.42811","24.9861416666667","6500100","板橋區"
"220052","257-TC","2018/04/17 13:49:11","新北市板橋區民生路二段120號","121.47041","25.01979","6500100","板橋區"
"220037","267-BY","2018/04/17 13:49:26","新北市板橋區民生路二段161巷1號","121.470061666667","25.020065","6500100","板橋區"
"220020","277-BY","2018/04/17 13:49:14","新北市板橋區大觀路三段59巷15號","121.434251666667","24.9953883333333","6500100","板橋區"
"220019","283-VK","2018/04/17 13:49:21","新北市板橋區忠孝路196巷45號","121.465561666667","25.0015683333333","6500100","板橋區"
"220043","285-UM","2018/04/17 13:49:23","新北市板橋區民生路二段161巷1號","121.470056666667","25.0198516666667","6500100","板橋區"
"220001","285-VK","2018/04/17 13:49:19","新北市板橋區民生路二段123號","121.47065","25.0186616666667","6500100","板橋區"
"220031","286-VK","2018/04/17 13:49:29","新北市板橋區僑中二街88巷21號","121.445243333333","25.0095516666667","6500100","板橋區"
"220029","287-VK","2018/04/17 13:49:18","新北市板橋區南雅西路二段126號","121.452028333333","25.01256","6500100","板橋區"
"220039","288-VK","2018/04/17 13:49:19","新北市板橋區民生路二段120號","121.470476666667","25.0196083333333","6500100","板橋區"
"220009","293-UM","2018/04/17 13:49:14","新北市板橋區太和街5巷2號","121.473615","25.0201383333333","6500100","板橋區"
"220023","303-R5","2018/04/17 13:49:26","新北市板橋區南雅西路一段174巷3號","121.452956666667","25.0077483333333","6500100","板橋區"
"220010","305-R5","2018/04/17 13:49:18","新北市板橋區觀光街2-1號","121.472383333333","25.01539","6500100","板橋區"
"220041","307-R5","2018/04/17 13:49:22","新北市板橋區民生路二段120號","121.470503333333","25.0198633333333","6500100","板橋區"
"220047","317-R6","2018/04/17 13:49:15","新北市板橋區民生路二段120號","121.470403333333","25.0197616666667","6500100","板橋區"
"220012","486-VK","2018/04/17 13:49:18","新北市板橋區民生路二段36-1號","121.472171666667","25.016745","6500100","板橋區"
"220104","560-BX","2018/04/17 13:49:30","新北市板橋區中正路275巷62弄19號","121.453868333333","25.0185983333333","6500100","板橋區"
"220032","568-UM","2018/04/17 13:49:27","新北市板橋區大觀路二段156巷29號","121.441323333333","24.9996083333333","6500100","板橋區"
"220011","609-BX","2018/04/17 13:49:23","新北市板橋區民生路二段121號","121.4708","25.018555","6500100","板橋區"
"220040","637-BX","2018/04/17 13:49:27","新北市板橋區民生路二段161巷1號","121.46996","25.0200583333333","6500100","板橋區"
"220005","686-BX","2018/04/17 13:49:27","新北市板橋區南雅南路二段118號","121.452425","25.0002733333333","6500100","板橋區"
"220042","689-BX","2018/04/17 13:49:11","新北市板橋區民生路二段120號","121.47043","25.0201616666667","6500100","板橋區"
"220002","741-BX","2018/04/17 13:49:22","新北市板橋區重慶路12巷16號","121.460128333333","25.0074516666667","6500100","板橋區"
"220051","KEA-2699","2018/04/17 13:49:28","新北市板橋區民生路二段161巷1號","121.4702","25.0200216666667","6500100","板橋區"
"220018","806-UM","2018/04/17 13:49:26","新北市板橋區館前西路46巷2號","121.459005","25.0071316666667","6500100","板橋區"
"220003","827-TW","2018/04/17 13:49:22","新北市板橋區縣民大道二段1號","121.462301666667","25.0117666666667","6500100","板橋區"
"220014","830-TW","2018/04/17 13:49:08","新北市板橋區民生路二段120號","121.470518333333","25.02008","6500100","板橋區"
"220022","895-R6","2018/04/17 13:49:13","新北市板橋區府中路30號","121.458661666667","25.0095266666667","6500100","板橋區"
"220021","985-R7","2018/04/17 13:49:25","新北市板橋區府中路67號","121.458135","25.009385","6500100","板橋區"
"220025","AAC-253","2018/04/17 13:49:22","新北市板橋區大觀路三段59巷17弄6-1號","121.436398333333","24.99532","6500100","板橋區"
