"lineid","car","time","location","longitude","latitude","cityid","cityname"
"234005","207-UY","2018/04/17 14:49:22","新北市新店區安康路二段320巷15弄2號","121.504715","24.9599466666667","6500400","永和區"
"234025","9371-KE","2018/04/17 14:49:25","新北市永和區雙和街52巷1號","121.509025","25.00321","6500400","永和區"
"248017","225-UY","2018/04/17 14:30:16","新北市五股區外寮路6-1號","121.425243333333","25.0753266666667","6501500","五股區"
"244002","248-BX","2018/04/17 14:49:18","新北市林口區竹林路265號","121.38963","25.0807833333333","6501700","林口區"
"231002","002-UM","2018/04/17 14:49:27","新北市新店區民權路46-3號","121.539903333333","24.9829916666667","6500600","新店區"
"231027","0293-UT","2018/04/17 14:49:21","新北市新店區中央路95巷4號","121.531515","24.9749383333333","6500600","新店區"
"231028","046-UY","2018/04/17 14:49:18","新北市新店區安德街116巷36號","121.50853","24.9613","6500600","新店區"
"231001","047-UY","2018/04/17 14:49:29","新北市新店區三民路131號","121.534458333333","24.9724683333333","6500600","新店區"
"231005","106-UY","2018/04/17 14:49:28","新北市新店區復興路2號","121.532445","24.988285","6500600","新店區"
"231035","110-UY","2018/04/17 14:49:19","新北市新店區安樂街12號","121.520773333333","24.97345","6500600","新店區"
"231012","187-VK","2018/04/17 14:49:30","新北市新店區寶橋路77號","121.545861666667","24.975455","6500600","新店區"
"231023","KEA-2219","2018/04/17 14:49:31","新北市新店區檳榔路109號","121.544445","24.9616616666667","6500600","新店區"
"231026","256-BX","2018/04/17 14:49:15","新北市新店區安康路一段226-2號","121.523335","24.9636666666667","6500600","新店區"
"231018","278-BY","2018/04/17 14:49:24","新北市新店區中央六街7號","121.53023","24.974485","6500600","新店區"
"231015","AAD-862","2018/04/17 14:49:21","新北市新店區北宜路三段168號","121.586363333333","24.9517783333333","6500600","新店區"
"231038","3712-VJ","2018/04/17 14:49:22","新北市新店區安華路28-1號","121.519593333333","24.9610283333333","6500600","新店區"
"231037","4716-K9","2018/04/17 14:49:17","新北市新店區柴埕路60巷15-3號","121.508025","24.9655733333333","6500600","新店區"
"231025","4715-K9","2018/04/17 14:49:18","新北市新店區建國路133號","121.53927","24.9781766666667","6500600","新店區"
"231036","512-UM","2018/04/17 14:49:16","新北市新店區安祥路104巷6弄36號","121.483076666667","24.9630083333333","6500600","新店區"
"231013","513-UM","2018/04/17 14:49:21","新北市新店區北新路二段35號","121.542691666667","24.97253","6500600","新店區"
"231006","617-UM","2018/04/17 14:49:21","新北市新店區北宜路一段109巷2-1號","121.539871666667","24.9548283333333","6500600","新店區"
"231029","618-UM","2018/04/17 14:49:29","新北市新店區錦秀路5號","121.479458333333","24.9448733333333","6500600","新店區"
"231030","619-UM","2018/04/17 14:49:17","新北市新店區安民街337號","121.51724","24.974875","6500600","新店區"
"231034","641-BX","2018/04/17 14:49:14","新北市新店區玫瑰路4-1號","121.493573333333","24.9514466666667","6500600","新店區"
"231003","645-TV","2018/04/17 14:49:25","新北市新店區中興路二段43號","121.546348333333","24.97014","6500600","新店區"
"231039","718-UY","2018/04/17 14:49:27","新北市新店區安康路一段355號","121.519915","24.9637966666667","6500600","新店區"
"231020","719-UY","2018/04/17 14:49:14","新北市新店區永福路54-2號","121.558151666667","24.9287483333333","6500600","新店區"
"231004","899-TW","2018/04/17 14:49:18","新北市新店區自立街1號","121.538876666667","24.9779333333333","6500600","新店區"
"231024","AKT-0513","2018/04/17 14:49:32","新北市新店區力行路12號","121.539405","24.9646466666667","6500600","新店區"
"235027","006-UY","2018/04/17 14:49:34","新北市中和區連城路188巷2-3號","121.492875","24.9970833333333","6500300","中和區"
"235020","096-UM","2018/04/17 14:49:29","新北市中和區中山路三段114巷65號","121.475706666667","25.007955","6500300","中和區"
"235003","097-UM","2018/04/17 14:49:21","新北市中和區安平路204號","121.513456666667","24.9995866666667","6500300","中和區"
"235029","098-UM","2018/04/17 14:49:25","新北市中和區永和路39巷20號","121.497245","25.0053216666667","6500300","中和區"
"235004","150-BY","2018/04/17 14:49:23","新北市中和區安平路59號","121.509693333333","24.9949883333333","6500300","中和區"
"235022","151-BY","2018/04/17 14:49:17","新北市中和區員山路150號","121.481301666667","24.9971966666667","6500300","中和區"
"235019","183-VK","2018/04/17 14:49:28","新北市中和區民德路21號","121.46883","25.0027533333333","6500300","中和區"
"235013","186-VK","2018/04/17 14:49:32","新北市中和區中正路2號","121.503248333333","24.9939483333333","6500300","中和區"
"235031","255-BX","2018/04/17 14:49:25","新北市中和區中正路751巷3弄4號","121.484303333333","24.999675","6500300","中和區"
"235008","293-VK","2018/04/17 14:49:31","新北市中和區景安路211號","121.504623333333","24.9917266666667","6500300","中和區"
"235036","301-VK","2018/04/17 14:49:17","新北市中和區連城路160-1號","121.494073333333","24.9981383333333","6500300","中和區"
"235007","352-BY","2018/04/17 14:49:17","新北市中和區安和路9號","121.511508333333","24.9936383333333","6500300","中和區"
"235032","377-QA","2018/04/17 14:49:14","新北市中和區勝利路35巷1弄3號","121.499123333333","25.007505","6500300","中和區"
"235024","269-TV","2018/04/17 14:49:30","新北市中和區新生街122號","121.483538333333","25.0013633333333","6500300","中和區"
"235014","4979-A6","2018/04/17 14:49:34","新北市中和區景平路241巷82弄38號","121.50637","24.992595","6500300","中和區"
"235034","558-UM","2018/04/17 14:49:24","新北市中和區連勝街40號","121.498061666667","24.99761","6500300","中和區"
"235018","640-BX","2018/04/17 14:49:20","新北市中和區莒光路207號","121.469591666667","24.9955133333333","6500300","中和區"
"235010","733-UM","2018/04/17 14:49:24","新北市中和區仁愛街4號","121.510546666667","24.9892566666667","6500300","中和區"
"235035","783-BX","2018/04/17 14:49:19","新北市中和區建康路39號","121.486395","25.0002116666667","6500300","中和區"
"235026","800-TS","2018/04/17 14:49:25","新北市中和區中山路二段352號","121.492816666667","25.0025866666667","6500300","中和區"
"235016","805-TS","2018/04/17 14:49:15","新北市中和區華新街144巷9號","121.507518333333","24.9831816666667","6500300","中和區"
"235012","896-TW","2018/04/17 14:49:17","新北市中和區忠孝街1巷2-1號","121.509201666667","24.9831283333333","6500300","中和區"
"235017","900-TW","2018/04/17 14:49:22","新北市中和區國光街140號","121.46837","25.0013533333333","6500300","中和區"
"235030","911-UM","2018/04/17 14:49:23","新北市中和區南工路80號","121.506796666667","25.0023116666667","6500300","中和區"
"235015","157-BY","2018/04/17 14:49:13","新北市中和區復興路301巷16號","121.501333333333","24.989595","6500300","中和區"
"235001","AAC-213","2018/04/17 14:49:13","新北市中和區秀朗路三段173-2號","121.524478333333","24.9913283333333","6500300","中和區"
"235023","AAC-215","2018/04/17 14:49:27","新北市中和區圓通路335巷3弄20號","121.49352","24.9901716666667","6500300","中和區"
"220016","013-TV","2018/04/17 14:49:26","新北市板橋區光復街172巷2弄1號","121.485321666667","25.0193466666667","6500100","板橋區"
"220004","015-TV","2018/04/17 14:49:33","新北市板橋區四川路二段140巷16弄13號","121.448686666667","24.9937183333333","6500100","板橋區"
"220013","072-UY","2018/04/17 14:49:24","新北市板橋區長安街18號","121.466945","25.00882","6500100","板橋區"
"220034","073-UY","2018/04/17 14:49:21","新北市板橋區南雅西路二段7巷25號","121.451898333333","25.00952","6500100","板橋區"
"220105","075-UY","2018/04/17 14:49:31","新北市板橋區文化路二段608巷64號","121.480131666667","25.0341016666667","6500100","板橋區"
"220017","AAD-861","2018/04/17 14:49:31","新北市板橋區大明街20巷19弄20號","121.457935","25.0032833333333","6500100","板橋區"
"247013","546-UM","2018/04/17 14:49:28","新北市蘆洲區中山二路68號","121.473456666667","25.0821966666667","6501400","蘆洲區"
"247005","336-TH","2018/04/17 14:49:16","新北市五股區中興路三段5號","121.450535","25.0794583333333","6501400","蘆洲區"
"247015","007-UY","2018/04/17 14:49:27","新北市蘆洲區和平路178號","121.466373333333","25.0814066666667","6501400","蘆洲區"
"247001","002-UY","2018/04/17 14:49:17","新北市蘆洲區永康街2巷10號","121.459238333333","25.0862816666667","6501400","蘆洲區"
"235005","251-BX","2018/04/17 14:49:29","新北市中和區安平路100號","121.511541666667","24.99725","6500300","中和區"
"228004","212-TW","2018/04/17 14:49:15","新北市貢寮區福隆里裕隆街5號","121.946161666667","25.01598","6502600","貢寮區"
"228005","828-UM","2018/04/17 14:49:22","新北市貢寮區美豐里丹裡街69號","121.906176666667","25.0577483333333","6502600","貢寮區"
"207002","749-BX","2018/04/17 14:30:47","新北市萬里區崁腳里內崁路9號","121.644431666667","25.15922","6502800","萬里區"
"207001","662-BX","2018/04/17 14:47:13","新北市萬里區雙興里豐稟路8號","121.646488333333","25.18252","6502800","萬里區"
"252005","AAC-283","2018/04/17 14:49:19","新北市三芝區埔坪里埔頭坑78號","121.509173333333","25.2544033333333","6502100","三芝區"
"236065","105-UM","2018/04/17 14:49:22","新北市土城區金城路二段374號","121.46272","24.9855466666667","6501300","土城區"
"236040","107-UM","2018/04/17 14:49:20","新北市土城區裕民路136巷8弄1號","121.450631666667","24.985115","6501300","土城區"
"236074","166-UM","2018/04/17 14:49:33","新北市土城區中央路四段125巷2弄28號","121.416305","24.9567866666667","6501300","土城區"
"236029","253-BX","2018/04/17 14:49:21","新北市土城區忠義路26巷25號","121.439555","24.969595","6501300","土城區"
"236024","269-VK","2018/04/17 14:49:26","新北市土城區慶安街46號","121.441221666667","24.9732916666667","6501300","土城區"
"236013","270-VK","2018/04/17 14:49:26","新北市土城區金城路二段356號","121.461476666667","24.9851183333333","6501300","土城區"
"236032","271-VK","2018/04/17 14:49:21","新北市土城區青仁路51號","121.461538333333","24.9796233333333","6501300","土城區"
"236017","401-BY","2018/04/17 14:49:30","新北市土城區德峰街39號","121.467388333333","24.9856666666667","6501300","土城區"
"236060","752-BX","2018/04/17 14:49:24","新北市土城區金城路三段207巷8弄2號","121.470126666667","24.990125","6501300","土城區"
"236057","912-UM","2018/04/17 14:49:29","新北市土城區忠義路47號","121.440391666667","24.9692616666667","6501300","土城區"
"236045","913-UM","2018/04/17 14:49:19","新北市土城區青雲路18號","121.460038333333","24.9888683333333","6501300","土城區"
"236054","AAC-216","2018/04/17 14:49:29","新北市土城區裕民路189號","121.453586666667","24.984365","6501300","土城區"
"220027","145-BY","2018/04/17 14:49:24","新北市板橋區南雅西路二段108-1號","121.452295","25.0120766666667","6500100","板橋區"
"220028","200-UY","2018/04/17 14:49:31","新北市板橋區大觀路二段169巷16號","121.446035","24.99986","6500100","板橋區"
"220030","610-BX","2018/04/17 14:49:29","新北市板橋區存德街1號","121.429703333333","24.9921333333333","6500100","板橋區"
"220050","245-BX","2018/04/17 14:49:31","新北市板橋區縣民大道三段79巷14號","121.475248333333","25.0221766666667","6500100","板橋區"
"220052","257-TC","2018/04/17 14:49:31","新北市板橋區陽明街29巷3號","121.46523","25.0216666666667","6500100","板橋區"
"220037","267-BY","2018/04/17 14:49:25","新北市板橋區文聖街61號","121.476815","25.0310483333333","6500100","板橋區"
"220020","277-BY","2018/04/17 14:49:34","新北市板橋區金門街151巷3弄1號","121.432966666667","24.9904883333333","6500100","板橋區"
"220019","283-VK","2018/04/17 14:49:21","新北市板橋區五權街32巷11號","121.464528333333","24.992925","6500100","板橋區"
"220043","285-UM","2018/04/17 14:49:22","新北市板橋區長江路一段121號","121.460093333333","25.0299416666667","6500100","板橋區"
"220001","285-VK","2018/04/17 14:49:19","新北市板橋區民享街27號","121.475395","25.0146766666667","6500100","板橋區"
"220031","286-VK","2018/04/17 14:49:21","新北市板橋區僑中二街48巷14號","121.445725","25.0104283333333","6500100","板橋區"
"220029","287-VK","2018/04/17 14:49:18","新北市板橋區大觀路一段28巷101號","121.45002","25.0119916666667","6500100","板橋區"
"220039","288-VK","2018/04/17 14:49:19","新北市板橋區英士路199號","121.458663333333","25.023575","6500100","板橋區"
"220009","293-UM","2018/04/17 14:49:33","新北市板橋區民生路二段107號","121.47131","25.0179916666667","6500100","板橋區"
"220023","303-R5","2018/04/17 14:49:27","新北市板橋區金華街10巷13號","121.456301666667","25.02012","6500100","板橋區"
"220010","305-R5","2018/04/17 14:49:20","新北市板橋區光復街31巷7號","121.481781666667","25.0191633333333","6500100","板橋區"
"220041","307-R5","2018/04/17 14:49:22","新北市板橋區四維路259巷22號","121.462298333333","25.02769","6500100","板橋區"
"220047","317-R6","2018/04/17 14:49:31","新北市板橋區龍泉街55巷24號","121.457703333333","25.0252566666667","6500100","板橋區"
"220012","486-VK","2018/04/17 14:49:34","新北市板橋區實踐路82號","121.463866666667","25.0053483333333","6500100","板橋區"
"220104","560-BX","2018/04/17 14:49:30","新北市板橋區新生街37號","121.456761666667","25.0211316666667","6500100","板橋區"
"220032","568-UM","2018/04/17 14:49:25","新北市板橋區溪崑二街134號","121.425926666667","24.987835","6500100","板橋區"
"220011","609-BX","2018/04/17 14:49:28","新北市板橋區中山路二段531巷17弄9號","121.482568333333","25.0220066666667","6500100","板橋區"
"220040","637-BX","2018/04/17 14:49:27","新北市板橋區懷德街133號","121.479196666667","25.0304783333333","6500100","板橋區"
"220005","686-BX","2018/04/17 14:49:26","新北市板橋區廣權路1號","121.460351666667","24.9912","6500100","板橋區"
"220042","689-BX","2018/04/17 14:49:31","新北市板橋區長江路二段73號","121.464993333333","25.0314833333333","6500100","板橋區"
"220002","741-BX","2018/04/17 14:49:22","新北市板橋區實踐路93巷9-2號","121.464578333333","25.00549","6500100","板橋區"
"220051","KEA-2699","2018/04/17 14:49:31","新北市板橋區文化路二段410巷19號","121.474713333333","25.0309233333333","6500100","板橋區"
"220018","806-UM","2018/04/17 14:49:28","新北市板橋區成都街9號","121.460348333333","25.0048883333333","6500100","板橋區"
"220003","827-TW","2018/04/17 14:49:21","新北市板橋區仁愛路86巷13弄1號","121.461075","24.99897","6500100","板橋區"
"220014","830-TW","2018/04/17 14:49:28","新北市板橋區民生路一段21號","121.474965","25.0114516666667","6500100","板橋區"
"220045","831-TW","2018/04/17 14:49:15","新北市板橋區莊敬路175號","121.470965","25.0237183333333","6500100","板橋區"
"220038","833-TW","2018/04/17 14:49:21","新北市板橋區龍泉街114號","121.456898333333","25.024415","6500100","板橋區"
"220022","895-R6","2018/04/17 14:49:13","新北市板橋區明德街12號","121.460048333333","25.0104566666667","6500100","板橋區"
"220021","985-R7","2018/04/17 14:49:25","新北市板橋區南雅西路二段20號","121.453061666667","25.009515","6500100","板橋區"
"220046","AAC-210","2018/04/17 14:49:27","新北市板橋區漢生西路73號","121.462753333333","25.0186983333333","6500100","板橋區"
"220025","AAC-253","2018/04/17 14:49:31","新北市板橋區僑中一街102巷7弄20號","121.44611","25.012985","6500100","板橋區"
