"lineid","car","time","location","longitude","latitude","cityid","cityname"
"231002","002-UM","2018/04/17 15:19:27","新北市新店區中正路700巷1號","121.533893333333","24.9912583333333","6500600","新店區"
"231028","046-UY","2018/04/17 15:19:22","新北市新店區僑愛二路1號","121.499831666667","24.9451566666667","6500600","新店區"
"231001","047-UY","2018/04/17 15:19:29","新北市新店區北新路一段269號","121.541028333333","24.966565","6500600","新店區"
"231005","106-UY","2018/04/17 15:19:28","新北市新店區建國路249號","121.537496666667","24.982525","6500600","新店區"
"231035","110-UY","2018/04/17 15:19:18","新北市新店區安興路105號","121.51498","24.9777733333333","6500600","新店區"
"231012","187-VK","2018/04/17 15:19:30","新北市新店區中興路三段324號","121.542091666667","24.9862583333333","6500600","新店區"
"231023","KEA-2219","2018/04/17 15:19:31","新北市新店區行政街28巷2號","121.542771666667","24.9656283333333","6500600","新店區"
"231026","256-BX","2018/04/17 15:19:15","新北市新店區中正路247巷27弄1號","121.538433333333","24.9723733333333","6500600","新店區"
"231018","278-BY","2018/04/17 15:19:24","新北市新店區中央八街94號","121.526641666667","24.9776016666667","6500600","新店區"
"231015","AAD-862","2018/04/17 15:19:21","新北市新店區明山路45號","121.563863333333","24.955925","6500600","新店區"
"231038","3712-VJ","2018/04/17 15:19:22","新北市新店區安華路28-1號","121.519683333333","24.9609116666667","6500600","新店區"
"231037","4716-K9","2018/04/17 15:19:17","新北市新店區安民街365巷1弄8號","121.516341666667","24.975035","6500600","新店區"
"231025","4715-K9","2018/04/17 15:19:18","新北市新店區環河路105-12號","121.531875","24.9700383333333","6500600","新店區"
"231036","512-UM","2018/04/17 15:19:16","新北市新店區安祥路69巷31號","121.481765","24.9606983333333","6500600","新店區"
"231006","617-UM","2018/04/17 15:19:21","新北市新店區北新路一段105號","121.539135","24.9622433333333","6500600","新店區"
"231029","618-UM","2018/04/17 15:19:29","新北市新店區安康路三段738號","121.473916666667","24.9420116666667","6500600","新店區"
"231034","641-BX","2018/04/17 15:19:14","新北市新店區如意街2巷1號","121.495693333333","24.9495083333333","6500600","新店區"
"231003","645-TV","2018/04/17 15:19:18","新北市新店區寶橋路238號","121.551578333333","24.978945","6500600","新店區"
"231039","718-UY","2018/04/17 15:19:27","新北市新店區寶元路一段61號","121.54221","24.9858733333333","6500600","新店區"
"231020","719-UY","2018/04/17 15:19:35","新北市新店區湖興路49號","121.562645","24.9338233333333","6500600","新店區"
"231032","720-UM","2018/04/17 15:19:18","新北市新店區安泰路125-1號","121.48736","24.9403133333333","6500600","新店區"
"231004","899-TW","2018/04/17 15:19:18","新北市新店區建國路29號","121.540238333333","24.9740883333333","6500600","新店區"
"231024","AKT-0513","2018/04/17 15:19:12","新北市新店區北新路一段309號","121.541393333333","24.96786","6500600","新店區"
"241013","270-UM","2018/04/17 15:19:23","新北市三重區重新路四段121號","121.484826666667","25.0526316666667","6500200","三重區"
"241033","AAC-255","2018/04/17 15:19:17","新北市三重區重新路四段121號","121.48475","25.0522816666667","6500200","三重區"
"235007","352-BY","2018/04/17 15:19:17","新北市中和區中正路155號","121.498828333333","24.9933633333333","6500300","中和區"
"235014","4979-A6","2018/04/17 15:19:14","新北市中和區景安路84號","121.505515","24.9961933333333","6500300","中和區"
"235012","896-TW","2018/04/17 15:19:17","新北市中和區景新街379號","121.512338333333","24.9903433333333","6500300","中和區"
"235030","911-UM","2018/04/17 15:19:23","新北市中和區中山路二段3巷22弄19號","121.50601","25.0044533333333","6500300","中和區"
"235001","AAC-213","2018/04/17 15:19:13","新北市三重區重新路五段326巷25-1號","121.478801666667","25.044385","6500300","中和區"
"235023","AAC-215","2018/04/17 15:19:27","新北市中和區圓通路320-1號","121.485306666667","24.98781","6500300","中和區"
"220013","072-UY","2018/04/17 15:19:15","新北市樹林區中山路三段210-2號","121.380965","24.9660216666667","6500100","板橋區"
"247008","056-VK","2018/04/17 15:02:09","新北市五股區中興路三段163號","121.449278333333","25.0808983333333","6501400","蘆洲區"
"207002","749-BX","2018/04/17 15:19:27","新北市萬里區崁腳里內中福路2-1號","121.669225","25.16542","6502800","萬里區"
"207001","662-BX","2018/04/17 15:19:33","新北市萬里區大鵬里萬里加投9號","121.652148333333","25.2080316666667","6502800","萬里區"
"236065","105-UM","2018/04/17 15:19:22","新北市土城區裕民路185巷36弄10號","121.454351666667","24.9845583333333","6501300","土城區"
"236040","107-UM","2018/04/17 15:19:20","新北市土城區學府路一段98巷15號","121.455673333333","24.98854","6501300","土城區"
"236074","166-UM","2018/04/17 15:19:13","新北市土城區溪頭路77號","121.411435","24.95421","6501300","土城區"
"236029","253-BX","2018/04/17 15:19:21","新北市土城區中華路一段211號","121.442638333333","24.9846066666667","6501300","土城區"
"236024","269-VK","2018/04/17 15:19:21","新北市土城區學府路二段259號","121.44516","24.977415","6501300","土城區"
"236013","270-VK","2018/04/17 15:19:26","新北市土城區廣福街74巷43號","121.457955","24.9902066666667","6501300","土城區"
"236032","271-VK","2018/04/17 15:19:23","新北市土城區國際路43號","121.46619","24.9791016666667","6501300","土城區"
"236017","401-BY","2018/04/17 15:19:30","新北市土城區金城路三段200-5號","121.4689","24.987465","6501300","土城區"
"236060","752-BX","2018/04/17 15:17:43","新北市土城區延平街33巷12號","121.467381666667","24.9917633333333","6501300","土城區"
"236057","912-UM","2018/04/17 15:19:29","新北市土城區中央路二段231號","121.440355","24.9724483333333","6501300","土城區"
"236045","913-UM","2018/04/17 15:19:19","新北市土城區明德路一段137號","121.465181666667","24.9803616666667","6501300","土城區"
"236054","AAC-216","2018/04/17 15:19:29","新北市土城區青雲路33號","121.46035","24.98833","6501300","土城區"
"220050","245-BX","2018/04/17 15:19:26","新北市板橋區漢生東路83巷1號","121.466415","25.0159666666667","6500100","板橋區"
"220052","257-TC","2018/04/17 15:19:31","新北市板橋區漢生西路20號","121.463728333333","25.0181283333333","6500100","板橋區"
"220031","286-VK","2018/04/17 15:19:29","新北市板橋區僑中二街116巷17號","121.444908333333","25.00649","6500100","板橋區"
"220042","689-BX","2018/04/17 15:19:31","新北市板橋區新海路416號","121.458456666667","25.0272566666667","6500100","板橋區"
"220051","KEA-2699","2018/04/17 15:19:28","新北市板橋區文化路一段90號","121.464455","25.0176433333333","6500100","板橋區"
"220014","830-TW","2018/04/17 15:19:28","新北市板橋區民生路二段161巷1號","121.469996666667","25.0200433333333","6500100","板橋區"
"220038","833-TW","2018/04/17 15:19:21","新北市板橋區四維路133號","121.4651","25.0252683333333","6500100","板橋區"
