"lineid","car","time","location","longitude","latitude","cityid","cityname"
"231028","046-UY","2018/04/17 15:39:18","新北市新店區僑信路8號","121.499695","24.9526883333333","6500600","新店區"
"231005","106-UY","2018/04/17 15:39:28","新北市新店區中正路374號","121.534951666667","24.9765133333333","6500600","新店區"
"231035","110-UY","2018/04/17 15:39:18","新北市新店區安興路56號","121.516525","24.9749483333333","6500600","新店區"
"231012","187-VK","2018/04/17 15:39:30","新北市新店區文化路85號","121.545248333333","24.9827733333333","6500600","新店區"
"231023","KEA-2219","2018/04/17 15:39:31","新北市新店區中興路一段278號","121.545408333333","24.9683033333333","6500600","新店區"
"231026","256-BX","2018/04/17 15:39:15","新北市新店區三民路75巷1弄2號","121.535761666667","24.9711683333333","6500600","新店區"
"231018","278-BY","2018/04/17 15:39:24","新北市新店區民生路156巷117號","121.526848333333","24.9825683333333","6500600","新店區"
"231015","AAD-862","2018/04/17 15:39:21","新北市新店區北宜路二段51號","121.548968333333","24.9514683333333","6500600","新店區"
"231038","3712-VJ","2018/04/17 15:39:22","新北市新店區安康路二段16巷35弄2號","121.51664","24.9654466666667","6500600","新店區"
"231037","4716-K9","2018/04/17 15:39:17","新北市新店區安民街341-1號","121.516875","24.9749183333333","6500600","新店區"
"231036","512-UM","2018/04/17 15:39:16","新北市新店區薏仁坑路自強巷6號","121.496696666667","24.9584883333333","6500600","新店區"
"231013","513-UM","2018/04/17 15:39:33","新北市新店區永業路81巷1弄9號","121.53011","24.9499083333333","6500600","新店區"
"231029","618-UM","2018/04/17 15:39:22","新北市新店區安康路二段383號","121.495016666667","24.95464","6500600","新店區"
"231030","619-UM","2018/04/17 15:39:33","新北市新店區新和街116巷3號","121.521326666667","24.9863033333333","6500600","新店區"
"231034","641-BX","2018/04/17 15:39:34","新北市新店區如意街81號","121.494691666667","24.9471083333333","6500600","新店區"
"231003","645-TV","2018/04/17 15:39:18","新北市新店區中興路二段239號","121.547341666667","24.9756083333333","6500600","新店區"
"231039","718-UY","2018/04/17 15:39:27","新北市新店區寶元路二段39號","121.547","24.9813816666667","6500600","新店區"
"231020","719-UY","2018/04/17 15:39:14","新北市新店區新烏路一段87巷3號","121.54613","24.94196","6500600","新店區"
"231032","720-UM","2018/04/17 15:39:19","新北市新店區雙城路212號","121.497098333333","24.941665","6500600","新店區"
"231004","899-TW","2018/04/17 15:39:18","新北市新店區民族路108號","121.538156666667","24.9773883333333","6500600","新店區"
"241011","013-R5","2018/04/17 15:39:19","新北市三重區龍濱路285號","121.501045","25.0734783333333","6500200","三重區"
"241015","062-VK","2018/04/17 15:39:29","新北市三重區重新路四段121號","121.485158333333","25.05207","6500200","三重區"
"241017","063-VK","2018/04/17 15:39:19","新北市三重區重新路三段180號","121.490445","25.0591033333333","6500200","三重區"
"241026","066-VK","2018/04/17 15:39:20","新北市三重區重新路四段121號","121.48503","25.0522433333333","6500200","三重區"
"241013","270-UM","2018/04/17 15:39:23","新北市三重區正義北路291號","121.494858333333","25.0705633333333","6500200","三重區"
"241007","398-BY","2018/04/17 15:39:22","新北市三重區重新路四段121號","121.485243333333","25.0520416666667","6500200","三重區"
"241006","462-BY","2018/04/17 15:39:25","新北市三重區重新路四段121號","121.484785","25.05209","6500200","三重區"
"241014","543-UM","2018/04/17 15:39:16","新北市三重區重新路四段121號","121.485118333333","25.0520933333333","6500200","三重區"
"241023","545-UM","2018/04/17 15:39:26","新北市三重區重新路四段121號","121.484756666667","25.05255","6500200","三重區"
"241029","942-UM","2018/04/17 15:39:17","新北市三重區中正南路252巷5號","121.493466666667","25.05268","6500200","三重區"
"241033","AAC-255","2018/04/17 15:39:17","新北市三重區重新路五段326巷12號","121.478698333333","25.0465466666667","6500200","三重區"
"235046","733-UM","2018/04/17 15:22:54","新北市中和區員山路36巷13號","121.484198333333","24.990845","6500300","中和區"
"235026","800-TS","2018/04/17 15:39:24","新北市中和區建八路6號","121.486303333333","24.9980783333333","6500300","中和區"
"235023","AAC-215","2018/04/17 15:39:27","新北市中和區員山路31-8號","121.48079","24.9876933333333","6500300","中和區"
"227003","642-TC","2018/04/17 15:39:30","新北市雙溪區平林里梅竹蹊3號","121.862311666667","25.0388116666667","6502500","雙溪區"
"222001","KEA-2212","2018/04/17 15:31:09","新北市深坑區深坑街95號","121.614481666667","25.0010733333333","6501800","深坑區"
"236065","105-UM","2018/04/17 15:39:22","新北市土城區中央路三段130-4號","121.434503333333","24.9658483333333","6501300","土城區"
"236074","166-UM","2018/04/17 15:39:33","新北市土城區中山路6號","121.412661666667","24.9607066666667","6501300","土城區"
"236029","253-BX","2018/04/17 15:39:23","新北市土城區學成路128巷9號","121.449388333333","24.9899383333333","6501300","土城區"
"236024","269-VK","2018/04/17 15:39:23","新北市土城區裕生路67巷2弄1號","121.447465","24.984615","6501300","土城區"
"236013","270-VK","2018/04/17 15:39:31","新北市土城區四川路2號","121.455756666667","24.9962616666667","6501300","土城區"
"236017","401-BY","2018/04/17 15:39:30","新北市土城區延吉街111巷2號","121.471526666667","24.9863533333333","6501300","土城區"
"236057","912-UM","2018/04/17 15:39:29","新北市土城區中央路一段186-4號","121.445468333333","24.986205","6501300","土城區"
"236045","913-UM","2018/04/17 15:39:19","新北市土城區金城路三段205-1號","121.470401666667","24.9892783333333","6501300","土城區"
"236054","AAC-216","2018/04/17 15:39:29","新北市土城區學成路128巷9號","121.449438333333","24.989885","6501300","土城區"
