"lineid","car","time","location","longitude","latitude","cityid","cityname"
"234026","9371-KE","2018/04/17 16:28:23","新北市永和區福和路1號","121.526473333333","25.0099783333333","6500400","永和區"
"249005","172-UM","2018/04/17 16:39:24","新北市八里區博物館路15號","121.415368333333","25.1637366666667","6502300","八里區"
"231046","188-VK","2018/04/17 16:39:17","新北市新店區灣潭路15-2號","121.542373333333","24.943425","6500600","新店區"
"241011","013-R5","2018/04/17 16:39:19","新北市三重區仁愛街39號","121.496636666667","25.07164","6500200","三重區"
"241028","022-UY","2018/04/17 16:39:25","新北市三重區中正南路48號","121.493955","25.0599733333333","6500200","三重區"
"241008","059-VK","2018/04/17 16:39:32","新北市三重區永安北路一段27巷36號","121.477571666667","25.0755633333333","6500200","三重區"
"241009","060-VK","2018/04/17 16:39:28","新北市三重區仁美街100號","121.485661666667","25.0804683333333","6500200","三重區"
"241031","061-VK","2018/04/17 16:39:18","新北市三重區重新路四段41巷24號","121.48737","25.0583283333333","6500200","三重區"
"241015","062-VK","2018/04/17 16:39:29","新北市三重區文化北路41-1號","121.498906666667","25.0652416666667","6500200","三重區"
"241017","063-VK","2018/04/17 16:39:19","新北市三重區中正北路25巷25弄3號","121.493261666667","25.06262","6500200","三重區"
"241024","065-VK","2018/04/17 16:39:24","新北市三重區中正北路315巷6弄68號","121.476471666667","25.0725766666667","6500200","三重區"
"241026","066-VK","2018/04/17 16:39:20","新北市三重區福德南路53號","121.50292","25.061725","6500200","三重區"
"241002","090-VK","2018/04/17 16:39:30","新北市三重區仁義街239號","121.496361666667","25.0825533333333","6500200","三重區"
"241003","091-VK","2018/04/17 16:39:33","新北市三重區五華街71巷50號","121.493455","25.0833983333333","6500200","三重區"
"241005","262-UM","2018/04/17 16:39:16","新北市三重區仁華街116-1號","121.486026666667","25.0831216666667","6500200","三重區"
"241016","265-UM","2018/04/17 16:39:34","新北市三重區大智街1-1號","121.494711666667","25.0649166666667","6500200","三重區"
"241018","268-UM","2018/04/17 16:39:21","新北市三重區正義北路338巷50號","121.493033333333","25.0702466666667","6500200","三重區"
"241032","269-UM","2018/04/17 16:39:29","新北市三重區新北大道一段91號","121.484803333333","25.061325","6500200","三重區"
"241013","270-UM","2018/04/17 16:39:23","新北市三重區仁愛街75號","121.496216666667","25.0730133333333","6500200","三重區"
"241025","271-UM","2018/04/17 16:39:16","新北市三重區中正北路428巷13號","121.474526666667","25.070135","6500200","三重區"
"241007","398-BY","2018/04/17 16:39:22","新北市三重區三和路四段167巷94號","121.485558333333","25.0796183333333","6500200","三重區"
"241006","462-BY","2018/04/17 16:39:25","新北市三重區力行路二段160號","121.482635","25.0765483333333","6500200","三重區"
"241004","475-VK","2018/04/17 16:39:19","新北市三重區五福街19號","121.49259","25.0813983333333","6500200","三重區"
"241020","478-VK","2018/04/17 16:39:22","新北市三重區後竹圍街205巷25號","121.484781666667","25.0723716666667","6500200","三重區"
"241030","480-VK","2018/04/17 16:39:24","新北市三重區環河南路286號","121.488935","25.0489433333333","6500200","三重區"
"241014","543-UM","2018/04/17 16:39:16","新北市三重區龍濱路40號","121.502726666667","25.0683816666667","6500200","三重區"
"241023","545-UM","2018/04/17 16:39:26","新北市三重區忠孝路三段50巷43號","121.482845","25.0643833333333","6500200","三重區"
"241001","547-UM","2018/04/17 16:39:27","新北市三重區仁政街84號","121.492556666667","25.0777683333333","6500200","三重區"
"241019","KEA-2593","2018/04/17 16:39:16","新北市三重區力行路一段23巷11號","121.488655","25.0675816666667","6500200","三重區"
"241022","887-TS","2018/04/17 16:39:28","新北市三重區三民街89號","121.485475","25.0631283333333","6500200","三重區"
"241012","941-UM","2018/04/17 16:39:27","新北市三重區仁興街3巷22號","121.500381666667","25.074065","6500200","三重區"
"241029","942-UM","2018/04/17 16:39:17","新北市三重區集美街112巷13號","121.489451666667","25.054135","6500200","三重區"
"241033","AAC-255","2018/04/17 16:39:17","新北市三重區光復路二段56號","121.471958333333","25.0556933333333","6500200","三重區"
"247008","056-VK","2018/04/17 16:39:32","新北市蘆洲區永安南路二段240號","121.460283333333","25.0797766666667","6501400","蘆洲區"
"247016","007-UY","2018/04/17 16:39:23","新北市蘆洲區中正路507號","121.460946666667","25.0973533333333","6501400","蘆洲區"
"224006","676-BX","2018/04/17 16:39:20","新北市瑞芳區大寮路356-1號","121.784981666667","25.103295","6501200","瑞芳區"
"224008","285-BY","2018/04/17 16:39:26","新北市瑞芳區傑魚坑路183號","121.788523333333","25.1083633333333","6501200","瑞芳區"
"224007","275-VK","2018/04/17 16:39:21","新北市瑞芳區月眉路7號","121.760265","25.1060133333333","6501200","瑞芳區"
"224005","271-BY","2018/04/17 16:39:15","新北市瑞芳區洞頂路132-1號","121.862126666667","25.123455","6501200","瑞芳區"
"227003","642-TC","2018/04/17 16:39:30","新北市雙溪區外柑里外柑腳9號","121.813891666667","25.0198866666667","6502500","雙溪區"
"227009","400-TW","2018/04/17 16:39:17","新北市雙溪區牡丹里中正路76號","121.864065","25.0445766666667","6502500","雙溪區"
"251013","179-VK","2018/04/17 16:39:23","新北市淡水區泉洲厝32號","121.489946666667","25.192585","6501000","淡水區"
"251008","181-VK","2018/04/17 16:39:25","台北市北投區中央北路四段30巷160號","121.474145","25.140495","6501000","淡水區"
"251015","182-VK","2018/04/17 16:39:15","新北市淡水區鄧公路35巷2號","121.451471666667","25.1712233333333","6501000","淡水區"
"251016","442-VK","2018/04/17 16:39:25","新北市淡水區北新路115號","121.448581666667","25.1786083333333","6501000","淡水區"
"251007","577-R6","2018/04/17 16:39:30","新北市淡水區中正路二段31號","121.419545","25.1816216666667","6501000","淡水區"
"252002","178-VK","2018/04/17 16:39:20","新北市三芝區芝柏路29號","121.511843333333","25.255705","6502100","三芝區"
"252001","292-VK","2018/04/17 16:39:32","新北市三芝區埔坪里埔頭坑57號","121.507878333333","25.26461","6502100","三芝區"
