"lineid","car","time","location","longitude","latitude","cityid","cityname"
"249005","172-UM","2018/04/17 16:59:24","新北市八里區渡船頭3-17號","121.434253333333","25.1524316666667","6502300","八里區"
"249001","173-UM","2018/04/17 16:59:29","新北市八里區中山路三段106號","121.391455","25.1424233333333","6502300","八里區"
"249004","303-UY","2018/04/17 16:59:16","新北市八里區挖子尾街40號","121.415673333333","25.1659733333333","6502300","八里區"
"249003","593-UM","2018/04/17 16:59:24","新北市八里區中山路二段289號","121.401495","25.148685","6502300","八里區"
"244007","080-UY","2018/04/17 16:59:35","新北市林口區中湖43-18號","121.382571666667","25.0918466666667","6501700","林口區"
"244023","483-VK","2018/04/17 16:59:29","新北市林口區粉寮69號","121.404696666667","25.09075","6501700","林口區"
"244021","838-TS","2018/04/17 16:59:26","新北市林口區粉寮69號","121.404825","25.0908283333333","6501700","林口區"
"231046","188-VK","2018/04/17 16:59:17","新北市新店區新潭路一段61號","121.526005","24.942305","6500600","新店區"
"241011","013-R5","2018/04/17 16:59:19","新北市三重區仁愛街53巷72號","121.497958333333","25.0724633333333","6500200","三重區"
"241028","022-UY","2018/04/17 16:59:25","新北市三重區中正南路50號","121.49395","25.0598966666667","6500200","三重區"
"241008","059-VK","2018/04/17 16:59:32","新北市三重區永福街179巷25號","121.478048333333","25.0748983333333","6500200","三重區"
"241009","060-VK","2018/04/17 16:59:28","新北市三重區三和路四段215巷40號","121.483141666667","25.080155","6500200","三重區"
"241031","061-VK","2018/04/17 16:59:18","新北市三重區三寧街50號","121.490115","25.060355","6500200","三重區"
"241015","062-VK","2018/04/17 16:59:31","新北市三重區福德北路82號","121.501651666667","25.0663966666667","6500200","三重區"
"241017","063-VK","2018/04/17 16:59:19","新北市三重區大仁街3巷19號","121.49224","25.063795","6500200","三重區"
"241024","065-VK","2018/04/17 16:59:24","新北市三重區國道路一段58巷20號","121.481115","25.0720483333333","6500200","三重區"
"241026","066-VK","2018/04/17 16:59:20","新北市三重區文化南路42號","121.500351666667","25.060235","6500200","三重區"
"241002","090-VK","2018/04/17 16:59:30","新北市三重區仁義街126號","121.4976","25.0802116666667","6500200","三重區"
"241003","091-VK","2018/04/17 16:59:19","新北市三重區集賢路87-1號","121.4936","25.0868416666667","6500200","三重區"
"241005","262-UM","2018/04/17 16:59:36","新北市三重區碧華街112巷14號","121.484328333333","25.0822383333333","6500200","三重區"
"241016","265-UM","2018/04/17 16:59:14","新北市三重區大同北路121巷2號","121.493686666667","25.0641616666667","6500200","三重區"
"241018","268-UM","2018/04/17 16:59:21","新北市三重區六張街126巷2弄12號","121.492308333333","25.06945","6500200","三重區"
"241032","269-UM","2018/04/17 16:59:29","新北市三重區重陽路一段130巷16號","121.486033333333","25.06032","6500200","三重區"
"241013","270-UM","2018/04/17 16:59:23","新北市三重區仁福街64巷2號","121.49761","25.0745516666667","6500200","三重區"
"241025","271-UM","2018/04/17 16:59:16","新北市三重區中正北路508巷5號","121.472628333333","25.0713966666667","6500200","三重區"
"241007","398-BY","2018/04/17 16:59:22","新北市三重區三和路四段145巷195號","121.488411666667","25.0792783333333","6500200","三重區"
"241006","462-BY","2018/04/17 16:59:25","新北市三重區車路頭街119號","121.484288333333","25.0753266666667","6500200","三重區"
"241004","475-VK","2018/04/17 16:59:19","新北市三重區五華街104巷1號","121.492413333333","25.0825016666667","6500200","三重區"
"241020","478-VK","2018/04/17 16:59:22","新北市三重區後竹圍街175巷20號","121.485643333333","25.0727516666667","6500200","三重區"
"241030","480-VK","2018/04/17 16:59:24","新北市三重區昌隆街57號","121.491135","25.0511983333333","6500200","三重區"
"241014","543-UM","2018/04/17 16:59:16","新北市三重區三和路二段173巷149號","121.501206666667","25.0707533333333","6500200","三重區"
"241023","545-UM","2018/04/17 16:59:26","新北市三重區忠孝路三段99巷4號","121.48015","25.0642883333333","6500200","三重區"
"241001","547-UM","2018/04/17 16:59:22","新北市三重區仁愛街245巷30號","121.494226666667","25.0784833333333","6500200","三重區"
"241019","KEA-2593","2018/04/17 16:59:36","新北市三重區三張街104號","121.487906666667","25.069925","6500200","三重區"
"241022","887-TS","2018/04/17 16:59:30","新北市三重區中華路88號","121.483496666667","25.06287","6500200","三重區"
"241012","941-UM","2018/04/17 16:59:27","新北市三重區仁和街183號","121.500215","25.0748533333333","6500200","三重區"
"241029","942-UM","2018/04/17 16:59:17","新北市三重區環河南路220-8號","121.493333333333","25.0526833333333","6500200","三重區"
"241033","AAC-255","2018/04/17 16:59:17","新北市三重區中興北街271號","121.46921","25.06067","6500200","三重區"
"247024","893-R6","2018/04/17 16:59:31","新北市蘆洲區長興路245號","121.46048","25.0874566666667","6501400","蘆洲區"
"247014","546-UM","2018/04/17 16:59:24","新北市蘆洲區三民路81-5號","121.474388333333","25.0838716666667","6501400","蘆洲區"
"247022","500-BY","2018/04/17 16:59:17","新北市蘆洲區三民路128巷81號","121.468586666667","25.0920766666667","6501400","蘆洲區"
"247010","341-TH","2018/04/17 16:59:34","新北市蘆洲區信義路158號","121.479435","25.0835666666667","6501400","蘆洲區"
"247004","337-TH","2018/04/17 16:59:30","新北市蘆洲區長安街110號","121.461011666667","25.081615","6501400","蘆洲區"
"247006","336-TH","2018/04/17 16:59:27","新北市蘆洲區永安南路二段242號","121.460366666667","25.0799966666667","6501400","蘆洲區"
"247018","057-VK","2018/04/17 16:59:31","新北市蘆洲區民族路229號","121.477456666667","25.0897866666667","6501400","蘆洲區"
"247008","056-VK","2018/04/17 16:59:32","新北市蘆洲區民生街2巷5號","121.475636666667","25.0795433333333","6501400","蘆洲區"
"247016","007-UY","2018/04/17 16:59:27","新北市蘆洲區正和街18號","121.470046666667","25.0824","6501400","蘆洲區"
"247020","001-UY","2018/04/17 16:59:33","新北市蘆洲區民族路422巷84-1號","121.473615","25.0938266666667","6501400","蘆洲區"
"228001","212-TW","2018/04/17 16:59:26","新北市貢寮區貢寮里朝陽街1-2號","121.912175","25.0212733333333","6502600","貢寮區"
"228002","663-BX","2018/04/17 16:59:34","新北市貢寮區貢寮里朝陽街54號","121.910371666667","25.0216966666667","6502600","貢寮區"
"228003","828-UM","2018/04/17 16:59:24","新北市貢寮區福隆里興隆街24-1號","121.944355","25.0166133333333","6502600","貢寮區"
"224006","676-BX","2018/04/17 16:59:20","新北市瑞芳區大寮路356-1號","121.784933333333","25.1032666666667","6501200","瑞芳區"
"224008","285-BY","2018/04/17 16:59:26","新北市瑞芳區明燈路一段15號","121.824121666667","25.1071483333333","6501200","瑞芳區"
"224007","275-VK","2018/04/17 16:59:21","新北市瑞芳區楓子瀨路54-1號","121.768726666667","25.1038483333333","6501200","瑞芳區"
"224009","273-VK","2018/04/17 16:59:32","新北市瑞芳區明燈路一段1號","121.827106666667","25.1095033333333","6501200","瑞芳區"
"224005","271-BY","2018/04/17 16:59:15","新北市瑞芳區哩咾路1號","121.878836666667","25.1223966666667","6501200","瑞芳區"
"227003","642-TC","2018/04/17 16:59:30","新北市雙溪區長源里柑腳41-2號","121.802026666667","25.0127516666667","6502500","雙溪區"
"227009","400-TW","2018/04/17 16:59:17","新北市雙溪區牡丹里聖南50-1號","121.85508","25.0548483333333","6502500","雙溪區"
"251004","009-UM","2018/04/17 16:59:30","新北市淡水區中正路二段31號","121.419455","25.1819783333333","6501000","淡水區"
"251005","010-UM","2018/04/17 16:59:14","新北市淡水區中正路二段31號","121.419333333333","25.1817266666667","6501000","淡水區"
"251013","179-VK","2018/04/17 16:59:23","新北市淡水區泉洲厝32號","121.489296666667","25.1925716666667","6501000","淡水區"
"251014","180-VK","2018/04/17 16:59:18","新北市淡水區淡金路四段472巷24號","121.452926666667","25.223975","6501000","淡水區"
"251008","181-VK","2018/04/17 16:59:25","新北市淡水區樹梅坑9號","121.472725","25.1426933333333","6501000","淡水區"
"251015","182-VK","2018/04/17 16:59:34","新北市淡水區忠愛街9-1號","121.457048333333","25.1743433333333","6501000","淡水區"
"251010","413-VK","2018/04/17 16:59:26","新北市淡水區沙崙路172號","121.424246666667","25.1836133333333","6501000","淡水區"
"251012","441-VK","2018/04/17 16:59:33","新北市淡水區淡海路100號","121.422813333333","25.1825016666667","6501000","淡水區"
"251016","442-VK","2018/04/17 16:59:25","新北市淡水區瓦坑8-2號","121.477985","25.1831333333333","6501000","淡水區"
"251009","575-R6","2018/04/17 16:59:25","新北市淡水區中正路314號","121.437051666667","25.1725216666667","6501000","淡水區"
"251007","577-R6","2018/04/17 16:59:30","新北市淡水區中正東路二段51-3號","121.459333333333","25.15586","6501000","淡水區"
"251011","650-BX","2018/04/17 16:59:35","新北市淡水區中山路1-1號","121.444335","25.16954","6501000","淡水區"
"252002","178-VK","2018/04/17 16:59:20","新北市三芝區忠孝街173號","121.505415","25.2613816666667","6502100","三芝區"
"252001","292-VK","2018/04/17 16:59:32","新北市三芝區淡金路二段76-1號","121.503881666667","25.26092","6502100","三芝區"
"242054","751-BX","2018/04/17 16:59:14","新北市新莊區新泰路357巷3弄57號","121.442188333333","25.0393533333333","6500500","新莊區"
"242027","615-BX","2018/04/17 16:59:29","新北市新莊區新泰路255巷83號","121.442321666667","25.0389466666667","6500500","新莊區"
"242029","612-BX","2018/04/17 16:59:36","新北市新莊區新泰路255巷83號","121.44236","25.03923","6500500","新莊區"
"242042","566-BX","2018/04/17 16:59:19","新北市新莊區新泰路357巷3弄57號","121.442261666667","25.0392133333333","6500500","新莊區"
"242046","497-BY","2018/04/17 16:59:26","新北市新莊區新泰路357巷3弄57號","121.442306666667","25.039465","6500500","新莊區"
"242037","415-TV","2018/04/17 16:59:21","新北市新莊區新泰路357巷3弄57號","121.442263333333","25.039505","6500500","新莊區"
"242044","400-BY","2018/04/17 16:59:23","新北市新莊區新泰路357巷3弄57號","121.442256666667","25.0394966666667","6500500","新莊區"
"242023","362-BY","2018/04/17 16:59:26","新北市新莊區三和路12-21號","121.441983333333","25.0388033333333","6500500","新莊區"
"242017","175-VK","2018/04/17 16:59:23","新北市新莊區三和路12-21號","121.441945","25.038815","6500500","新莊區"
"242005","176-VK","2018/04/17 16:59:28","新北市新莊區三和路12-21號","121.441866666667","25.0388433333333","6500500","新莊區"
"242021","348-TH","2018/04/17 16:59:34","新北市新莊區新泰路357巷3弄53號","121.442258333333","25.0398766666667","6500500","新莊區"
"242013","351-TH","2018/04/17 16:59:25","新北市新莊區新泰路357巷3弄57號","121.442161666667","25.03967","6500500","新莊區"
"238018","571-TV","2018/04/17 16:59:21","新北市樹林區育德街78-1號","121.388206666667","24.9681166666667","6500700","樹林區"
"238017","283-BY","2018/04/17 16:59:31","新北市樹林區育德街78號","121.3875","24.9683766666667","6500700","樹林區"
"238014","282-BY","2018/04/17 16:59:20","新北市樹林區育德街78-1號","121.38765","24.9681583333333","6500700","樹林區"
"239006","891-R6","2018/04/17 16:59:31","新北市鶯歌區二甲路12-2號","121.345618333333","24.9350533333333","6500800","鶯歌區"
"239002","359-BY","2018/04/17 16:59:24","新北市鶯歌區二甲路12-2號","121.346153333333","24.9348783333333","6500800","鶯歌區"
