"lineid","car","time","location","longitude","latitude","cityid","cityname"
"234026","9371-KE","2018/04/17 17:39:30","新北市永和區豫溪街76-1號","121.517505","25.0099283333333","6500400","永和區"
"249005","172-UM","2018/04/17 17:39:24","新北市八里區荖阡坑路34號","121.40278","25.12973","6502300","八里區"
"249001","173-UM","2018/04/17 17:39:28","新北市八里區龍米路二段159-2號","121.439316666667","25.1539216666667","6502300","八里區"
"249004","303-UY","2018/04/17 17:39:16","新北市八里區賢二街41號","121.418985","25.15775","6502300","八里區"
"249003","593-UM","2018/04/17 17:39:24","新北市八里區中山路二段205號","121.403951666667","25.1495916666667","6502300","八里區"
"232011","375-UM","2018/04/17 17:39:26","新北市坪林區北宜路八段99號","121.706011666667","24.9348766666667","6502000","坪林區"
"244013","069-UM","2018/04/17 17:39:29","新北市林口區中正路555號","121.381148333333","25.0768466666667","6501700","林口區"
"244007","080-UY","2018/04/17 17:39:34","新北市林口區林口路217號","121.387188333333","25.0831116666667","6501700","林口區"
"244019","403-UM","2018/04/17 17:39:36","新北市林口區文化一路一段83巷14弄92號","121.372775","25.07162","6501700","林口區"
"244023","483-VK","2018/04/17 17:39:29","新北市林口區興林路152巷18號","121.387996666667","25.0715333333333","6501700","林口區"
"244009","656-BX","2018/04/17 17:39:28","新北市林口區中北三街350號","121.383335","25.0844883333333","6501700","林口區"
"244011","701-TV","2018/04/17 17:39:30","新北市林口區佳林路154號","121.384161666667","25.07708","6501700","林口區"
"244025","837-TS","2018/04/17 17:39:37","新北市林口區文化三路一段385號","121.365778333333","25.0731583333333","6501700","林口區"
"244021","838-TS","2018/04/17 17:39:26","新北市林口區仁愛路一段22號","121.397536666667","25.075335","6501700","林口區"
"222002","659-BX","2018/04/17 17:39:24","新北市深坑區深南路1號","121.622041666667","25.0050466666667","6501800","深坑區"
"231046","188-VK","2018/04/17 17:39:17","新北市新店區直潭路92號","121.530898333333","24.937585","6500600","新店區"
"241024","065-VK","2018/04/17 17:39:24","新北市三重區大勇街82巷15弄30號","121.481173333333","25.071985","6500200","三重區"
"241026","066-VK","2018/04/17 17:39:20","新北市三重區正義南路60-6號","121.49851","25.0601466666667","6500200","三重區"
"241005","262-UM","2018/04/17 17:39:36","新北市三重區仁愛街519號","121.487208333333","25.08218","6500200","三重區"
"241016","265-UM","2018/04/17 17:39:34","新北市三重區重新路二段21號","121.497955","25.0624766666667","6500200","三重區"
"241007","398-BY","2018/04/17 17:39:22","新北市三重區中正北路317巷38號","121.47626","25.07353","6500200","三重區"
"241014","543-UM","2018/04/17 17:39:36","新北市三重區龍濱路118號","121.502188333333","25.0704533333333","6500200","三重區"
"241023","545-UM","2018/04/17 17:39:26","新北市三重區中華路109號","121.48362","25.0635166666667","6500200","三重區"
"241012","941-UM","2018/04/17 17:39:27","新北市三重區河邊北街379-1號","121.501691666667","25.0764716666667","6500200","三重區"
"241033","AAC-255","2018/04/17 17:39:17","新北市三重區光復路一段49號","121.472156666667","25.0487566666667","6500200","三重區"
"235061","378-QA","2018/04/17 17:09:50","新北市中和區員山路36巷16-2號","121.485218333333","24.991725","6500300","中和區"
"235046","733-UM","2018/04/17 17:39:19","新北市中和區員山路36巷13號","121.484143333333","24.990855","6500300","中和區"
"247024","893-R6","2018/04/17 17:39:31","新北市蘆洲區長樂路125-1號","121.462088333333","25.0880766666667","6501400","蘆洲區"
"247014","546-UM","2018/04/17 17:39:24","新北市蘆洲區中山二路109號","121.472443333333","25.0817516666667","6501400","蘆洲區"
"247022","500-BY","2018/04/17 17:39:17","新北市蘆洲區三民路283號","121.467136666667","25.0898816666667","6501400","蘆洲區"
"247010","341-TH","2018/04/17 17:39:17","新北市蘆洲區中山一路72號","121.478923333333","25.0811066666667","6501400","蘆洲區"
"247012","339-TH","2018/04/17 17:39:23","新北市蘆洲區民權路28號","121.476535","25.086015","6501400","蘆洲區"
"247004","337-TH","2018/04/17 17:39:30","新北市蘆洲區中原路3號","121.461448333333","25.0835566666667","6501400","蘆洲區"
"247006","336-TH","2018/04/17 17:39:27","新北市蘆洲區長安街23巷3號","121.463805","25.07875","6501400","蘆洲區"
"247018","057-VK","2018/04/17 17:39:31","新北市蘆洲區民權路61巷6號","121.4734","25.0879283333333","6501400","蘆洲區"
"247008","056-VK","2018/04/17 17:39:32","新北市蘆洲區和平路29巷15號","121.472086666667","25.0784616666667","6501400","蘆洲區"
"247016","007-UY","2018/04/17 17:39:23","新北市蘆洲區光華路68號","121.468058333333","25.0828433333333","6501400","蘆洲區"
"247002","002-UY","2018/04/17 17:39:19","新北市蘆洲區永平街36號","121.458431666667","25.0911366666667","6501400","蘆洲區"
"247020","001-UY","2018/04/17 17:39:33","新北市蘆洲區民族路464-1號","121.471838333333","25.0917566666667","6501400","蘆洲區"
"228001","212-TW","2018/04/17 17:39:26","新北市貢寮區仁理村仁愛路95-1號","121.927688333333","25.0554416666667","6502600","貢寮區"
"228002","663-BX","2018/04/17 17:39:34","新北市貢寮區福隆里外隆林街15號","121.958875","25.003585","6502600","貢寮區"
"228003","828-UM","2018/04/17 17:39:24","新北市貢寮區真理里延平街27號","121.924505","25.055015","6502600","貢寮區"
"224010","AGQ-8101","2018/04/17 17:39:28","新北市瑞芳區岳王路1巷64號","121.806105","25.1109483333333","6501200","瑞芳區"
"224006","676-BX","2018/04/17 17:39:20","新北市瑞芳區傑魚坑路12-1號","121.794643333333","25.1104816666667","6501200","瑞芳區"
"224008","285-BY","2018/04/17 17:39:26","新北市瑞芳區明燈路一段18巷6-1號","121.822813333333","25.107595","6501200","瑞芳區"
"224007","275-VK","2018/04/17 17:19:31","新北市瑞芳區大寮路356-1號","121.784595","25.1031566666667","6501200","瑞芳區"
"224009","273-VK","2018/04/17 17:39:36","新北市瑞芳區山尖路215-1號","121.84884","25.1124466666667","6501200","瑞芳區"
"224005","271-BY","2018/04/17 17:39:15","新北市瑞芳區海濱路8-6號","121.831641666667","25.1261683333333","6501200","瑞芳區"
"227003","642-TC","2018/04/17 17:39:30","新北市雙溪區三貂里定福路1-6號","121.849441666667","25.0634916666667","6502500","雙溪區"
"208002","KEA-2872","2018/04/17 17:39:25","新北市金山區磺清路121號","121.639731666667","25.2282116666667","6502700","金山區"
"251004","009-UM","2018/04/17 17:39:30","新北市淡水區中正東路二段163號","121.459306666667","25.14477","6501000","淡水區"
"251005","010-UM","2018/04/17 17:39:34","新北市淡水區鄧公路33巷16號","121.45194","25.1709033333333","6501000","淡水區"
"251002","012-UM","2018/04/17 17:39:25","新北市淡水區清水街246號","121.440403333333","25.1721333333333","6501000","淡水區"
"251013","179-VK","2018/04/17 17:39:23","新北市淡水區演戲埔腳2號","121.474508333333","25.1924866666667","6501000","淡水區"
"251014","180-VK","2018/04/17 17:39:18","新北市淡水區公埔子15-1號","121.47919","25.2266883333333","6501000","淡水區"
"251008","181-VK","2018/04/17 17:39:24","新北市淡水區八勢路一段123巷10號","121.466553333333","25.1570766666667","6501000","淡水區"
"251015","182-VK","2018/04/17 17:39:34","新北市淡水區興福寮88巷1-10號","121.487171666667","25.166115","6501000","淡水區"
"251010","413-VK","2018/04/17 17:39:25","新北市淡水區淡海路280巷97號","121.419561666667","25.1887166666667","6501000","淡水區"
"251012","441-VK","2018/04/17 17:39:33","新北市淡水區北新路200巷8號","121.451768333333","25.1796633333333","6501000","淡水區"
"251016","442-VK","2018/04/17 17:39:24","新北市淡水區埤島75號","121.454505","25.1945316666667","6501000","淡水區"
"251006","561-UM","2018/04/17 17:39:23","新北市淡水區大信街11-1號","121.441728333333","25.1764133333333","6501000","淡水區"
"251009","575-R6","2018/04/17 17:39:25","新北市淡水區中正路28號","121.444321666667","25.1691016666667","6501000","淡水區"
"251007","577-R6","2018/04/17 17:39:30","新北市淡水區民生路52巷43號","121.463471666667","25.13795","6501000","淡水區"
"251011","650-BX","2018/04/17 17:39:33","新北市淡水區小坪頂13-3號","121.486591666667","25.1561433333333","6501000","淡水區"
"251003","673-BX","2018/04/17 17:39:26","新北市淡水區中山北路一段59號","121.441813333333","25.1756483333333","6501000","淡水區"
"207003","550-UM","2018/04/17 17:39:18","新北市萬里區野柳里東澳路64-1號","121.692421666667","25.2006166666667","6502800","萬里區"
"207004","225-TW","2018/04/17 17:39:20","新北市萬里區中幅里中福路8-1號","121.68573","25.1649366666667","6502800","萬里區"
"252002","178-VK","2018/04/17 17:39:20","新北市三芝區中正路二段11號","121.504515","25.2555666666667","6502100","三芝區"
"252001","292-VK","2018/04/17 17:39:32","新北市三芝區淡金路一段87號","121.502248333333","25.2589683333333","6502100","三芝區"
"237011","572-TV","2018/04/17 17:39:31","新北市三峽區中山路98號","121.366453333333","24.9354333333333","6500900","三峽區"
"237012","275-BY","2018/04/17 17:39:18","新北市三峽區中山路459巷163-3號","121.3488","24.9331683333333","6500900","三峽區"
"237008","302-VK","2018/04/17 17:39:28","新北市三峽區中山路281號","121.361968333333","24.93756","6500900","三峽區"
"236070","105-UM","2018/04/17 17:39:25","新北市土城區城林路6巷80號","121.438446666667","24.9797283333333","6501300","土城區"
"236079","166-UM","2018/04/17 17:39:27","新北市土城區城林路6巷80號","121.438411666667","24.9797516666667","6501300","土城區"
"236030","253-BX","2018/04/17 17:39:20","新北市土城區城林路6巷80號","121.438586666667","24.9795366666667","6501300","土城區"
"236014","270-VK","2018/04/17 17:39:35","新北市土城區城林路6巷80號","121.43852","24.9795766666667","6501300","土城區"
"242058","986-R7","2018/04/17 17:39:34","新北市新莊區中正路574號","121.427523333333","25.0305016666667","6500500","新莊區"
"242054","751-BX","2018/04/17 17:39:34","新北市新莊區新樹路699巷1號","121.432353333333","25.0021966666667","6500500","新莊區"
"242027","615-BX","2018/04/17 17:39:29","新北市新莊區福壽街111號","121.457873333333","25.0510416666667","6500500","新莊區"
"242025","613-BX","2018/04/17 17:39:21","新北市新莊區思源路86號","121.460365","25.0451383333333","6500500","新莊區"
"242029","612-BX","2018/04/17 17:39:25","新北市新莊區復興路一段171號","121.451221666667","25.04335","6500500","新莊區"
"242042","566-BX","2018/04/17 17:39:19","新北市新莊區中正路514巷15號","121.433058333333","25.032975","6500500","新莊區"
"242046","497-BY","2018/04/17 17:39:26","新北市新莊區建國一路21號","121.43387","25.0315533333333","6500500","新莊區"
"242051","441-UM","2018/04/17 17:39:22","新北市新莊區西盛街189號","121.42893","25.0171233333333","6500500","新莊區"
"242056","440-UM","2018/04/17 17:39:16","新北市新莊區泰豐街21號","121.448316666667","25.0318166666667","6500500","新莊區"
"242037","415-TV","2018/04/17 17:39:21","新北市新莊區後港一路188號","121.432273333333","25.02815","6500500","新莊區"
"242007","413-TV","2018/04/17 17:39:21","新北市新莊區福樂街118巷2號","121.457285","25.04803","6500500","新莊區"
"242044","400-BY","2018/04/17 17:39:23","新北市新莊區富國路65巷10號","121.419921666667","25.026505","6500500","新莊區"
"242023","362-BY","2018/04/17 17:39:26","新北市新莊區公園路129-5號","121.457378333333","25.040805","6500500","新莊區"
"242061","353-BY","2018/04/17 17:39:30","新北市新莊區瓊林南路103巷8弄19號","121.435228333333","25.01159","6500500","新莊區"
"242039","133-UY","2018/04/17 17:39:25","新北市新莊區民安路322號","121.429028333333","25.0220066666667","6500500","新莊區"
"242048","172-VK","2018/04/17 17:39:23","新北市新莊區萬安街161號","121.420263333333","25.0212183333333","6500500","新莊區"
"242011","173-VK","2018/04/17 17:38:46","新北市新莊區中港路601號","121.451345","25.05304","6500500","新莊區"
"242017","175-VK","2018/04/17 17:39:23","新北市新莊區復興路一段149巷21弄13號","121.449543333333","25.0440133333333","6500500","新莊區"
"242005","176-VK","2018/04/17 17:39:28","新北市新莊區自立街200號","121.456678333333","25.04543","6500500","新莊區"
"242015","346-TH","2018/04/17 17:39:18","新北市新莊區新泰路345號","121.444755","25.0420083333333","6500500","新莊區"
"242019","347-TH","2018/04/17 17:39:25","新北市新莊區中港路151號","121.45492","25.0409283333333","6500500","新莊區"
"242021","348-TH","2018/04/17 17:39:34","新北市新莊區中華路一段130號","121.452553333333","25.040995","6500500","新莊區"
"242034","349-TH","2018/04/17 17:39:31","新北市新莊區新莊路532號","121.445623333333","25.0329233333333","6500500","新莊區"
"242013","351-TH","2018/04/17 17:39:25","新北市新莊區中誠街97號","121.449938333333","25.047735","6500500","新莊區"
"238015","755-BX","2018/04/17 17:39:31","新北市樹林區啟智街34號","121.420748333333","24.9932333333333","6500700","樹林區"
"238023","601-UM","2018/04/17 17:39:19","新北市樹林區三福街114號","121.406511666667","25.01631","6500700","樹林區"
"238019","599-UM","2018/04/17 17:39:33","新北市樹林區太順街5巷1號","121.420188333333","24.9800566666667","6500700","樹林區"
"238018","571-TV","2018/04/17 17:39:21","新北市樹林區鎮前街124號","121.42492","24.9909916666667","6500700","樹林區"
"238024","5061-A6","2018/04/17 17:39:19","新北市樹林區太平路277號","121.419131666667","24.972885","6500700","樹林區"
"238022","KEA-2213","2018/04/17 17:39:27","新北市樹林區中華路187巷1號","121.420566666667","24.9814016666667","6500700","樹林區"
"238021","KEA-2539","2018/04/17 17:39:30","新北市樹林區柑園街一段236號","121.392253333333","24.95633","6500700","樹林區"
"238025","303-VK","2018/04/17 17:39:32","新北市樹林區保安街二段209號","121.413456666667","25.003965","6500700","樹林區"
"238017","283-BY","2018/04/17 17:39:31","新北市樹林區中正路421-1號","121.41653","25.008165","6500700","樹林區"
"238014","282-BY","2018/04/17 17:39:20","新北市樹林區保安街一段358號","121.417703333333","24.998365","6500700","樹林區"
"238020","268-VK","2018/04/17 17:39:25","新北市樹林區俊英街166巷9號","121.427001666667","25.0072433333333","6500700","樹林區"
"238026","172-UY","2018/04/17 17:39:13","新北市樹林區新興街19巷36弄2號","121.402256666667","24.9735","6500700","樹林區"
"238016","169-UY","2018/04/17 17:39:23","新北市樹林區育英街137號","121.419643333333","24.9893516666667","6500700","樹林區"
"239007","AAC-297","2018/04/17 17:39:33","新北市鶯歌區鶯桃路182巷20號","121.337413333333","24.956145","6500800","鶯歌區"
"239006","891-R6","2018/04/17 17:39:31","新北市鶯歌區永和街34巷10弄4號","121.333316666667","24.9671983333333","6500800","鶯歌區"
"239008","527-UM","2018/04/17 17:39:19","新北市鶯歌區大湖路732巷45號","121.333406666667","24.9781483333333","6500800","鶯歌區"
"239005","526-UM","2018/04/17 17:39:26","新北市鶯歌區福隆二街7號","121.325325","24.9720516666667","6500800","鶯歌區"
"239001","417-VK","2018/04/17 17:39:32","新北市鶯歌區中正三路256-1號","121.32966","24.9363966666667","6500800","鶯歌區"
"239003","360-BY","2018/04/17 17:39:22","新北市鶯歌區鶯桃路206巷51號","121.338046666667","24.96019","6500800","鶯歌區"
"239002","359-BY","2018/04/17 17:39:24","新北市鶯歌區育德街11號","121.344536666667","24.9552066666667","6500800","鶯歌區"
"239004","193-VK","2018/04/17 17:39:33","新北市鶯歌區三鶯路5號","121.356728333333","24.9408866666667","6500800","鶯歌區"
"221008","489-VK","2018/04/17 17:39:20","新北市汐止區康寧街901號","121.651368333333","25.075035","6501100","汐止區"
"221010","269-BY","2018/04/17 17:39:16","新北市汐止區汐萬路一段418巷39號","121.650958333333","25.0788366666667","6501100","汐止區"
"221023","279-VK","2018/04/17 17:39:35","新北市汐止區康寧街901號","121.651681666667","25.0748766666667","6501100","汐止區"
"221032","280-BY","2018/04/17 17:39:22","新北市汐止區汐萬路一段333巷23號","121.648863333333","25.0760683333333","6501100","汐止區"
"221025","623-UM","2018/04/17 17:39:26","新北市汐止區汐萬路一段312號","121.650458333333","25.0753566666667","6501100","汐止區"
"221033","647-BX","2018/04/17 17:39:01","新北市汐止區林森街132巷6弄6號","121.624603333333","25.0404233333333","6501100","汐止區"
"242002","KEA-2550","2018/04/17 17:39:32","新北市新莊區新莊路337號","121.452368333333","25.034095","6500500","新莊區"
"242009","281-VK","2018/04/17 17:39:36","新北市新莊區昌明街14巷10號","121.457371666667","25.0532566666667","6500500","新莊區"
"242032","280-VK","2018/04/17 17:39:33","新北市新莊區新泰路368號","121.444256666667","25.0429583333333","6500500","新莊區"
"220018","806-UM","2018/04/17 17:39:24","新北市板橋區華東街1-9號","121.448251666667","24.9948616666667","6500100","板橋區"
