"lineid","car","time","location","longitude","latitude","cityid","cityname"
"234026","9371-KE","2018/04/17 17:49:30","新北市永和區永平路167號","121.510701666667","25.008945","6500400","永和區"
"234011","9373-KE","2018/04/17 17:45:09","新北市永和區福和路1號","121.525751666667","25.0092316666667","6500400","永和區"
"249005","172-UM","2018/04/17 17:49:24","新北市八里區荖阡坑路41-6號","121.402341666667","25.13212","6502300","八里區"
"249001","173-UM","2018/04/17 17:49:29","新北市八里區龍米路二段135號","121.444771666667","25.1479733333333","6502300","八里區"
"249004","303-UY","2018/04/17 17:49:16","新北市八里區中華路一段81巷29號","121.419551666667","25.1541016666667","6502300","八里區"
"249003","593-UM","2018/04/17 17:49:24","新北市八里區中山路二段125號","121.405466666667","25.1518583333333","6502300","八里區"
"248008","095-VK","2018/04/17 17:49:32","新北市五股區中興路二段37巷28號","121.46016","25.0750633333333","6501500","五股區"
"232011","375-UM","2018/04/17 17:49:26","新北市坪林區水柳腳39號","121.709605","24.9350716666667","6502000","坪林區"
"244013","069-UM","2018/04/17 17:49:29","新北市林口區中正路505巷5號","121.383338333333","25.077245","6501700","林口區"
"244007","080-UY","2018/04/17 17:49:15","新北市林口區竹林路155號","121.38878","25.0798233333333","6501700","林口區"
"244019","403-UM","2018/04/17 17:49:16","新北市林口區忠孝路555號","121.372506666667","25.0684666666667","6501700","林口區"
"244023","483-VK","2018/04/17 17:49:29","新北市林口區東湖路62號","121.387388333333","25.0740233333333","6501700","林口區"
"244009","656-BX","2018/04/17 17:49:28","新北市林口區林口路297巷11號","121.385585","25.08459","6501700","林口區"
"244011","701-TV","2018/04/17 17:49:30","新北市林口區佳林路253號","121.382936666667","25.076115","6501700","林口區"
"244025","837-TS","2018/04/17 17:49:17","新北市林口區忠孝三路61號","121.360036666667","25.0696383333333","6501700","林口區"
"244021","838-TS","2018/04/17 17:49:26","新北市林口區仁愛路一段83巷38號","121.39767","25.07061","6501700","林口區"
"222003","436-BY","2018/04/17 17:49:29","新北市深坑區阿柔洋60-1號","121.608591666667","24.998495","6501800","深坑區"
"222002","659-BX","2018/04/17 17:49:24","新北市深坑區平埔街22巷17弄1號","121.61492","25.0008583333333","6501800","深坑區"
"231046","188-VK","2018/04/17 17:49:28","新北市新店區下石厝路2號","121.531868333333","24.92766","6500600","新店區"
"241024","065-VK","2018/04/17 17:49:24","新北市三重區力行路二段11號","121.482251666667","25.0722366666667","6500200","三重區"
"241026","066-VK","2018/04/17 17:49:20","新北市三重區正義南路60-6號","121.498508333333","25.0601316666667","6500200","三重區"
"241016","265-UM","2018/04/17 17:49:34","新北市三重區新北大道一段7號","121.489726666667","25.061545","6500200","三重區"
"241033","AAC-255","2018/04/17 17:49:17","新北市三重區光復路一段1號","121.4721","25.0468866666667","6500200","三重區"
"235065","098-UM","2018/04/17 17:49:25","新北市中和區員山路36巷16-3號","121.485118333333","24.99114","6500300","中和區"
"235046","733-UM","2018/04/17 17:49:19","新北市中和區員山路36巷13號","121.484135","24.9908733333333","6500300","中和區"
"247024","893-R6","2018/04/17 17:49:31","新北市蘆洲區光榮路61巷20號","121.461076666667","25.088905","6501400","蘆洲區"
"247014","546-UM","2018/04/17 17:49:24","新北市蘆洲區保和街69巷16號","121.469626666667","25.0854366666667","6501400","蘆洲區"
"247022","500-BY","2018/04/17 17:49:17","新北市蘆洲區中正路312號","121.46465","25.090755","6501400","蘆洲區"
"247010","341-TH","2018/04/17 17:49:18","新北市蘆洲區民族路48號","121.476866666667","25.084535","6501400","蘆洲區"
"247012","339-TH","2018/04/17 17:49:20","新北市蘆洲區復興路103號","121.476815","25.0877066666667","6501400","蘆洲區"
"247006","336-TH","2018/04/17 17:49:27","新北市蘆洲區九芎街126號","121.46516","25.079195","6501400","蘆洲區"
"247018","057-VK","2018/04/17 17:48:11","新北市蘆洲區復興路227巷2弄4號","121.480128333333","25.090065","6501400","蘆洲區"
"247008","056-VK","2018/04/17 17:49:32","新北市蘆洲區信義路30號","121.474281666667","25.07929","6501400","蘆洲區"
"247016","007-UY","2018/04/17 17:49:23","新北市蘆洲區中正路185巷25弄21號","121.467286666667","25.083965","6501400","蘆洲區"
"247002","002-UY","2018/04/17 17:49:19","新北市蘆洲區永平街32巷21弄14號","121.458635","25.0919883333333","6501400","蘆洲區"
"247020","001-UY","2018/04/17 17:49:33","新北市蘆洲區民義街73號","121.473241666667","25.0901033333333","6501400","蘆洲區"
"228001","212-TW","2018/04/17 17:49:26","新北市貢寮區仁理村仁愛路95-1號","121.927648333333","25.0554716666667","6502600","貢寮區"
"228002","663-BX","2018/04/17 17:49:34","新北市貢寮區福隆里龜壽谷街26號","121.952543333333","25.0089316666667","6502600","貢寮區"
"228003","828-UM","2018/04/17 17:49:24","新北市貢寮區真理里美艷山街6-2號","121.92886","25.060715","6502600","貢寮區"
"224010","AGQ-8101","2018/04/17 17:49:28","新北市瑞芳區濱二路31號","121.835523333333","25.11091","6501200","瑞芳區"
"224006","676-BX","2018/04/17 17:49:32","新北市瑞芳區傑魚坑路95-1號","121.79239","25.110435","6501200","瑞芳區"
"224008","285-BY","2018/04/17 17:49:26","新北市瑞芳區明燈路一段75號","121.820141666667","25.107005","6501200","瑞芳區"
"224007","275-VK","2018/04/17 17:19:31","新北市瑞芳區大寮路356-1號","121.784595","25.1031566666667","6501200","瑞芳區"
"224009","273-VK","2018/04/17 17:49:16","新北市瑞芳區新山路14號","121.85236","25.11129","6501200","瑞芳區"
"224005","271-BY","2018/04/17 17:49:35","新北市瑞芳區瑞芳街32-8號","121.822931666667","25.1210133333333","6501200","瑞芳區"
"227003","642-TC","2018/04/17 17:42:02","新北市雙溪區三貂里定福路1-2號","121.850756666667","25.0633816666667","6502500","雙溪區"
"253006","295-VK","2018/04/17 17:49:25","新北市石門區中央路16-19號","121.567741666667","25.2903333333333","6502200","石門區"
"222001","KEA-2212","2018/04/17 17:49:24","新北市深坑區文山路三段110號","121.608605","24.99925","6501800","深坑區"
"208002","KEA-2872","2018/04/17 17:49:25","新北市金山區磺清路121號","121.63978","25.22823","6502700","金山區"
"208003","665-BX","2018/04/17 17:49:21","新北市金山區磺清路135號","121.63934","25.2274566666667","6502700","金山區"
"251004","009-UM","2018/04/17 17:48:51","新北市淡水區民權一街17巷16號","121.45947","25.13656","6501000","淡水區"
"251005","010-UM","2018/04/17 17:49:34","新北市淡水區學府路102巷10號","121.450658333333","25.1718233333333","6501000","淡水區"
"251002","012-UM","2018/04/17 17:49:25","新北市淡水區清水街56巷1號","121.444078333333","25.1702033333333","6501000","淡水區"
"251013","179-VK","2018/04/17 17:49:23","新北市淡水區泉洲厝31號","121.479548333333","25.1910816666667","6501000","淡水區"
"251014","180-VK","2018/04/17 17:49:18","新北市淡水區公埔子16-6號","121.481006666667","25.22458","6501000","淡水區"
"251008","181-VK","2018/04/17 17:49:24","新北市淡水區八勢路一段48號","121.465786666667","25.15492","6501000","淡水區"
"251015","182-VK","2018/04/17 17:49:34","新北市淡水區興福寮18-2號","121.49496","25.1646116666667","6501000","淡水區"
"251010","413-VK","2018/04/17 17:49:25","新北市淡水區中正路二段96號","121.417801666667","25.1854383333333","6501000","淡水區"
"251012","441-VK","2018/04/17 17:49:33","新北市淡水區北新路二段77-5號","121.480608333333","25.1854683333333","6501000","淡水區"
"251016","442-VK","2018/04/17 17:49:24","新北市淡水區埤島39-15號","121.452768333333","25.195875","6501000","淡水區"
"251006","561-UM","2018/04/17 17:49:23","新北市淡水區中山北路一段45巷17號","121.440918333333","25.1758316666667","6501000","淡水區"
"251009","575-R6","2018/04/17 17:49:25","新北市淡水區長興街65號","121.444326666667","25.1721183333333","6501000","淡水區"
"251007","577-R6","2018/04/17 17:49:30","新北市淡水區竹林路151號","121.462683333333","25.142805","6501000","淡水區"
"251011","650-BX","2018/04/17 17:48:13","新北市淡水區吳(仔)厝34號","121.479456666667","25.1492916666667","6501000","淡水區"
"251003","673-BX","2018/04/17 17:49:26","新北市淡水區大忠街5巷2號","121.443095","25.17635","6501000","淡水區"
"207003","550-UM","2018/04/17 17:49:18","新北市萬里區野柳里東澳路66號","121.692681666667","25.2009166666667","6502800","萬里區"
"207004","225-TW","2018/04/17 17:49:32","新北市萬里區萬里里瑪鋉頂街61號","121.688201666667","25.1805466666667","6502800","萬里區"
"252002","178-VK","2018/04/17 17:49:20","新北市三芝區民生街30號","121.503638333333","25.2566116666667","6502100","三芝區"
"252001","292-VK","2018/04/17 17:49:32","新北市三芝區中興街一段12號","121.497473333333","25.2592083333333","6502100","三芝區"
"237004","KEA-2597","2018/04/17 17:49:23","新北市三峽區中山路333-7號","121.359415","24.937475","6500900","三峽區"
"237011","572-TV","2018/04/17 17:49:21","新北市三峽區光明路100-6號","121.375983333333","24.9279","6500900","三峽區"
"237009","210-TH","2018/04/17 17:49:29","新北市三峽區大勇路17號","121.367296666667","24.93675","6500900","三峽區"
"237013","252-BX","2018/04/17 17:49:27","新北市三峽區愛國路33-9號","121.374858333333","24.9328333333333","6500900","三峽區"
"237012","275-BY","2018/04/17 17:49:30","新北市三峽區民生街117號","121.37373","24.935295","6500900","三峽區"
"237008","302-VK","2018/04/17 17:49:28","新北市三峽區中園街185號","121.367056666667","24.921425","6500900","三峽區"
"237014","433-BY","2018/04/17 17:49:35","新北市三峽區文化路120巷20號","121.371228333333","24.9369633333333","6500900","三峽區"
"237006","5529-G3","2018/04/17 17:49:26","新北市三峽區介壽路二段38巷22號","121.391668333333","24.9345583333333","6500900","三峽區"
"237005","AKY-6261","2018/04/17 17:49:22","新北市三峽區中山路459巷137號","121.35026","24.933925","6500900","三峽區"
"236070","105-UM","2018/04/17 17:49:25","新北市土城區青雲路322巷20號","121.457513333333","24.9756166666667","6501300","土城區"
"236042","107-UM","2018/04/17 17:49:36","新北市土城區城林路6巷80號","121.4387","24.979665","6501300","土城區"
"236079","166-UM","2018/04/17 17:49:27","新北市土城區中央路三段183號","121.431265","24.9653","6501300","土城區"
"236030","253-BX","2018/04/17 17:49:20","新北市土城區城林路6巷80號","121.438586666667","24.9795366666667","6501300","土城區"
"236026","269-VK","2018/04/17 17:49:29","新北市土城區城林路6巷80號","121.43852","24.9795783333333","6501300","土城區"
"236014","270-VK","2018/04/17 17:49:35","新北市土城區城林路6巷80號","121.438508333333","24.97958","6501300","土城區"
"236038","271-VK","2018/04/17 17:49:17","新北市土城區城林路6巷80號","121.438528333333","24.9797883333333","6501300","土城區"
"236063","752-BX","2018/04/17 17:49:29","新北市土城區城林路6巷80號","121.438428333333","24.97962","6501300","土城區"
"236059","912-UM","2018/04/17 17:49:21","新北市土城區中華路二段120號","121.437865","24.973855","6501300","土城區"
"236049","913-UM","2018/04/17 17:49:26","新北市土城區城林路6巷80號","121.438703333333","24.9796533333333","6501300","土城區"
"236055","AAC-216","2018/04/17 17:49:21","新北市土城區城林路6巷80號","121.438558333333","24.9796916666667","6501300","土城區"
"242058","986-R7","2018/04/17 17:49:34","新北市新莊區中正路700-14號","121.418396666667","25.0275416666667","6500500","新莊區"
"242054","751-BX","2018/04/17 17:49:34","新北市新莊區民安西路468-1號","121.431673333333","25.0078633333333","6500500","新莊區"
"242027","615-BX","2018/04/17 17:49:29","新北市新莊區福壽街208號","121.458068333333","25.0538666666667","6500500","新莊區"
"242025","613-BX","2018/04/17 17:49:21","新北市三重區新北大道二段37號","121.470955","25.0612433333333","6500500","新莊區"
"242029","612-BX","2018/04/17 17:49:36","新北市新莊區復興路一段29號","121.446333333333","25.0417933333333","6500500","新莊區"
"242042","566-BX","2018/04/17 17:49:19","新北市泰山區貴陽街29號","121.422161666667","25.03318","6500500","新莊區"
"242046","497-BY","2018/04/17 17:49:26","新北市新莊區福營路125巷17號","121.433581666667","25.03101","6500500","新莊區"
"242051","441-UM","2018/04/17 17:49:22","新北市新莊區西盛街311巷21號","121.4289","25.015245","6500500","新莊區"
"242056","440-UM","2018/04/17 17:49:36","新北市新莊區瓊林路38巷39號","121.446515","25.0303533333333","6500500","新莊區"
"242037","415-TV","2018/04/17 17:49:21","新北市新莊區建福路69巷30號","121.428205","25.0272683333333","6500500","新莊區"
"242007","413-TV","2018/04/17 17:49:21","新北市新莊區福樂街132巷1號","121.456713333333","25.0482333333333","6500500","新莊區"
"242044","400-BY","2018/04/17 17:49:23","新北市新莊區中正路855巷2號","121.419663333333","25.0277516666667","6500500","新莊區"
"242023","362-BY","2018/04/17 17:49:26","新北市新莊區福樂街35號","121.457713333333","25.04691","6500500","新莊區"
"242061","353-BY","2018/04/17 17:49:30","新北市新莊區瓊林南路210號","121.433971666667","25.0062683333333","6500500","新莊區"
"242039","133-UY","2018/04/17 17:49:25","新北市新莊區富國路204號","121.424911666667","25.0242116666667","6500500","新莊區"
"242048","172-VK","2018/04/17 17:49:23","新北市新莊區萬安街60巷2號","121.420871666667","25.02362","6500500","新莊區"
"242011","173-VK","2018/04/17 17:49:31","新北市新莊區中港路728號","121.450555","25.0577333333333","6500500","新莊區"
"242017","175-VK","2018/04/17 17:49:23","新北市新莊區永安街62號","121.45114","25.0446833333333","6500500","新莊區"
"242005","176-VK","2018/04/17 17:49:28","新北市新莊區福樂街54號","121.457933333333","25.0460333333333","6500500","新莊區"
"242015","346-TH","2018/04/17 17:49:18","新北市新莊區新泰路502巷42弄13號","121.444243333333","25.0461783333333","6500500","新莊區"
"242019","347-TH","2018/04/17 17:49:24","新北市新莊區中港路277號","121.453376666667","25.0437083333333","6500500","新莊區"
"242021","348-TH","2018/04/17 17:49:34","新北市新莊區永寧街32巷2號","121.452878333333","25.039225","6500500","新莊區"
"242034","349-TH","2018/04/17 17:49:32","新北市新莊區新樹路13號","121.440843333333","25.0328466666667","6500500","新莊區"
"242013","351-TH","2018/04/17 17:49:25","新北市新莊區中誠街171號","121.44812","25.047365","6500500","新莊區"
"238015","755-BX","2018/04/17 17:49:31","新北市樹林區長壽街25巷8號","121.420438333333","24.9946666666667","6500700","樹林區"
"238023","601-UM","2018/04/17 17:49:29","桃園市龜山區龍興街12巷9號","121.402053333333","25.0161383333333","6500700","樹林區"
"238019","599-UM","2018/04/17 17:49:33","新北市樹林區太平路235-1號","121.418858333333","24.9740516666667","6500700","樹林區"
"238018","571-TV","2018/04/17 17:49:21","新北市樹林區博愛街132號","121.426478333333","24.99132","6500700","樹林區"
"238022","KEA-2213","2018/04/17 17:49:27","新北市樹林區太順街62巷4號","121.417765","24.97947","6500700","樹林區"
"238021","KEA-2539","2018/04/17 17:49:27","新北市樹林區柑園街一段123號","121.401136666667","24.9597033333333","6500700","樹林區"
"238025","303-VK","2018/04/17 17:49:32","新北市樹林區三俊街43號","121.412551666667","25.0156333333333","6500700","樹林區"
"238017","283-BY","2018/04/17 17:49:31","新北市樹林區三德街30巷3號","121.414578333333","25.0130916666667","6500700","樹林區"
"238014","282-BY","2018/04/17 17:49:36","新北市樹林區大安路179號","121.421285","24.996255","6500700","樹林區"
"238020","268-VK","2018/04/17 17:49:25","新北市樹林區三俊街250號","121.421373333333","25.0149766666667","6500700","樹林區"
"238026","172-UY","2018/04/17 17:49:33","新北市樹林區中洲街51巷2號","121.396778333333","24.9711033333333","6500700","樹林區"
"238016","169-UY","2018/04/17 17:49:37","新北市樹林區復興路308巷1弄4號","121.41641","24.9872383333333","6500700","樹林區"
"239007","AAC-297","2018/04/17 17:49:33","新北市鶯歌區永利街36號","121.339418333333","24.954455","6500800","鶯歌區"
"239006","891-R6","2018/04/17 17:49:31","新北市鶯歌區鳳鳴路29號","121.33375","24.96531","6500800","鶯歌區"
"239008","527-UM","2018/04/17 17:49:19","新北市鶯歌區香賓街7巷17號","121.336103333333","24.9792866666667","6500800","鶯歌區"
"239005","526-UM","2018/04/17 17:49:26","新北市鶯歌區鳳吉五街33號","121.327376666667","24.9728483333333","6500800","鶯歌區"
"239001","417-VK","2018/04/17 17:49:32","新北市鶯歌區中正三路387號","121.326823333333","24.9344633333333","6500800","鶯歌區"
"239003","360-BY","2018/04/17 17:49:22","新北市鶯歌區永吉街46巷43號","121.33449","24.9576416666667","6500800","鶯歌區"
"239002","359-BY","2018/04/17 17:49:24","新北市鶯歌區國華路43號","121.342833333333","24.955335","6500800","鶯歌區"
"239004","193-VK","2018/04/17 17:49:33","新北市鶯歌區尖山路22號","121.351873333333","24.950475","6500800","鶯歌區"
"221008","489-VK","2018/04/17 17:49:20","新北市汐止區康寧街901號","121.651375","25.0750666666667","6501100","汐止區"
"221036","130-UY","2018/04/17 17:49:19","新北市汐止區長江街256巷1號","121.664858333333","25.080055","6501100","汐止區"
"221015","131-UY","2018/04/17 17:49:30","新北市汐止區長江街244號","121.663151666667","25.0790533333333","6501100","汐止區"
"221010","269-BY","2018/04/17 17:49:16","新北市汐止區汐萬路二段124號","121.64815","25.0851","6501100","汐止區"
"221012","278-VK","2018/04/17 17:49:35","新北市汐止區吉祥街27巷14號","121.667031666667","25.0813166666667","6501100","汐止區"
"221023","279-VK","2018/04/17 17:49:35","新北市汐止區民族二街9號","121.634931666667","25.0708566666667","6501100","汐止區"
"221032","280-BY","2018/04/17 17:49:22","新北市汐止區大同路一段119號","121.630488333333","25.054625","6501100","汐止區"
"221027","281-BY","2018/04/17 17:49:23","新北市汐止區康寧街901號","121.650935","25.075215","6501100","汐止區"
"221029","298-VK","2018/04/17 17:49:22","新北市汐止區康寧街901號","121.651686666667","25.0749416666667","6501100","汐止區"
"221021","299-VK","2018/04/17 17:49:27","新北市汐止區水源路一段22號","121.657113333333","25.0665233333333","6501100","汐止區"
"221031","353-TW","2018/04/17 17:49:32","新北市汐止區工建路202號","121.636838333333","25.0626416666667","6501100","汐止區"
"221035","622-UM","2018/04/17 17:49:20","新北市汐止區汐萬路一段140號","121.653268333333","25.0711783333333","6501100","汐止區"
"221025","623-UM","2018/04/17 17:49:26","新北市汐止區仁愛路1號","121.658535","25.0642483333333","6501100","汐止區"
"221038","646-BX","2018/04/17 17:49:25","新北市汐止區大同路二段187巷17號","121.651726666667","25.065195","6501100","汐止區"
"221033","647-BX","2018/04/17 17:39:01","新北市汐止區林森街132巷6弄6號","121.624603333333","25.0404233333333","6501100","汐止區"
"221002","707-TV","2018/04/17 17:49:28","新北市汐止區康寧街901號","121.651493333333","25.0749483333333","6501100","汐止區"
"221018","753-BX","2018/04/17 17:49:19","新北市汐止區忠孝東路339巷10號","121.664175","25.070255","6501100","汐止區"
"242002","KEA-2550","2018/04/17 17:49:27","新北市新莊區景德路174號","121.450263333333","25.034155","6500500","新莊區"
"242009","281-VK","2018/04/17 17:49:36","新北市新莊區昌明街48號","121.456","25.0522283333333","6500500","新莊區"
"242032","280-VK","2018/04/17 17:49:33","新北市新莊區新泰路357巷3弄31號","121.442278333333","25.040525","6500500","新莊區"
"220018","806-UM","2018/04/17 17:49:24","新北市板橋區華東街1-9號","121.448245","24.9948466666667","6500100","板橋區"
