"lineid","car","time","location","longitude","latitude","cityid","cityname"
"234026","9371-KE","2018/04/17 18:09:29","新北市永和區永和路一段72巷4號","121.513443333333","25.0060966666667","6500400","永和區"
"234011","9373-KE","2018/04/17 18:09:21","新北市永和區福和路1號","121.525601666667","25.00936","6500400","永和區"
"249005","172-UM","2018/04/17 18:09:24","新北市八里區荖阡坑路15號","121.401743333333","25.139895","6502300","八里區"
"249001","173-UM","2018/04/17 18:09:28","新北市八里區龍米路二段35號","121.448431666667","25.14004","6502300","八里區"
"249004","303-UY","2018/04/17 18:09:16","新北市八里區龍米路二段148號","121.437103333333","25.1559416666667","6502300","八里區"
"249003","593-UM","2018/04/17 18:09:24","新北市八里區中華路二段165巷19弄15號","121.409708333333","25.1513583333333","6502300","八里區"
"248014","025-BX","2018/04/17 18:09:33","新北市五股區成泰路一段189巷34號","121.433526666667","25.0763966666667","6501500","五股區"
"248006","077-UY","2018/04/17 18:09:30","新北市五股區中興路二段81號","121.4608","25.0772083333333","6501500","五股區"
"248008","095-VK","2018/04/17 18:09:32","新北市五股區中興路二段182巷15弄13號","121.457145","25.0812766666667","6501500","五股區"
"248020","225-UY","2018/04/17 18:09:20","新北市五股區成泰路三段544-1號","121.454273333333","25.1023533333333","6501500","五股區"
"248010","272-BY","2018/04/17 18:09:37","新北市五股區成泰路一段229-1號","121.434191666667","25.07764","6501500","五股區"
"248002","678-BX","2018/04/17 18:09:23","新北市五股區中興路三段166號","121.445078333333","25.08104","6501500","五股區"
"248004","682-TV","2018/04/17 18:09:36","新北市五股區工商路30號","121.439436666667","25.08352","6501500","五股區"
"232011","375-UM","2018/04/17 18:09:26","新北市坪林區坪雙路一段31號","121.71169","24.9424216666667","6502000","坪林區"
"244013","069-UM","2018/04/17 18:09:29","新北市林口區中山路23號","121.395813333333","25.0782533333333","6501700","林口區"
"244007","080-UY","2018/04/17 18:09:34","新北市林口區林口路113巷6弄1號","121.388698333333","25.0806166666667","6501700","林口區"
"244019","403-UM","2018/04/17 18:09:36","新北市林口區文化一路一段126號","121.375476666667","25.0725966666667","6501700","林口區"
"244023","483-VK","2018/04/17 18:09:29","新北市林口區仁愛路二段159號","121.382231666667","25.073775","6501700","林口區"
"244017","485-VK","2018/04/17 18:09:25","新北市林口區文化一路一段57-2號","121.370993333333","25.0698733333333","6501700","林口區"
"244009","656-BX","2018/04/17 18:09:28","新北市林口區佳林路82-1號","121.385681666667","25.0802983333333","6501700","林口區"
"244011","701-TV","2018/04/17 18:09:30","新北市林口區中正路36號","121.39556","25.0774833333333","6501700","林口區"
"244025","837-TS","2018/04/17 18:09:17","新北市林口區文化北路一段299巷36號","121.358868333333","25.0725266666667","6501700","林口區"
"244021","838-TS","2018/04/17 18:09:06","新北市林口區自強七街28號","121.399773333333","25.0759333333333","6501700","林口區"
"222003","436-BY","2018/04/17 18:09:29","新北市深坑區阿柔洋47號","121.61224","24.99766","6501800","深坑區"
"222002","659-BX","2018/04/17 18:09:24","新北市深坑區文化街42號","121.619096666667","25.00157","6501800","深坑區"
"231041","002-UM","2018/04/17 18:09:33","新北市新店區安華路28-1號","121.519745","24.960745","6500600","新店區"
"231059","046-UY","2018/04/17 18:09:23","新北市新店區安華路28-1號","121.519545","24.960785","6500600","新店區"
"231040","047-UY","2018/04/17 18:09:25","新北市新店區安華路28-1號","121.519203333333","24.9608633333333","6500600","新店區"
"231044","106-UY","2018/04/17 18:09:34","新北市新店區安華路28-1號","121.519613333333","24.96076","6500600","新店區"
"231048","187-VK","2018/04/17 18:09:18","新北市新店區安華路28-1號","121.519586666667","24.96111","6500600","新店區"
"231046","188-VK","2018/04/17 18:09:17","新北市新店區直潭七街60號","121.532241666667","24.9399133333333","6500600","新店區"
"231057","256-BX","2018/04/17 18:09:37","新北市新店區安華路28-1號","121.519693333333","24.9611566666667","6500600","新店區"
"231051","278-BY","2018/04/17 18:09:18","新北市新店區安華路28-1號","121.519708333333","24.9611366666667","6500600","新店區"
"231066","4716-K9","2018/04/17 18:09:22","新北市新店區安華路28-1號","121.519118333333","24.9612366666667","6500600","新店區"
"231056","4715-K9","2018/04/17 18:09:23","新北市新店區安華路1-1號","121.519241666667","24.960475","6500600","新店區"
"231067","4772-VM","2018/04/17 18:09:22","新北市新店區安華路1-1號","121.519263333333","24.9605466666667","6500600","新店區"
"231065","512-UM","2018/04/17 18:09:32","新北市新店區安華路28-1號","121.51936","24.9612966666667","6500600","新店區"
"231049","513-UM","2018/04/17 18:09:35","新北市新店區安華路28-1號","121.519588333333","24.961065","6500600","新店區"
"231045","617-UM","2018/04/17 18:09:34","新北市新店區安華路28-1號","121.51948","24.9608566666667","6500600","新店區"
"231061","619-UM","2018/04/17 18:09:25","新北市新店區安華路28-1號","121.51961","24.9609233333333","6500600","新店區"
"231063","641-BX","2018/04/17 18:09:20","新北市新店區安華路1-1號","121.519606666667","24.96046","6500600","新店區"
"231042","645-TV","2018/04/17 18:09:25","新北市新店區安華路28-1號","121.519358333333","24.9606016666667","6500600","新店區"
"231053","719-UY","2018/04/17 18:09:30","新北市新店區安華路28-1號","121.519476666667","24.9611383333333","6500600","新店區"
"231062","720-UM","2018/04/17 18:09:22","新北市新店區安華路28-1號","121.519275","24.9611666666667","6500600","新店區"
"231043","899-TW","2018/04/17 18:09:21","新北市新店區安華路28-1號","121.519086666667","24.9609833333333","6500600","新店區"
"231055","AKT-0513","2018/04/17 18:09:31","新北市新店區安華路28-1號","121.519495","24.9606433333333","6500600","新店區"
"241024","065-VK","2018/04/17 18:09:24","新北市三重區中正北路235號","121.475835","25.0707466666667","6500200","三重區"
"241033","AAC-255","2018/04/17 18:09:17","新北市三重區中興北街56-1號","121.46906","25.05129","6500200","三重區"
"235064","005-UY","2018/04/17 18:09:18","新北市中和區中正路161巷2號","121.498556666667","24.9934983333333","6500300","中和區"
"235063","006-UY","2018/04/17 18:09:19","新北市中和區員山路36巷16-3號","121.485081666667","24.9912316666667","6500300","中和區"
"235056","096-UM","2018/04/17 18:09:27","新北市中和區中正路637巷60弄61號","121.485411666667","24.9932433333333","6500300","中和區"
"235065","098-UM","2018/04/17 18:09:25","新北市中和區中山路二段2巷45弄12號","121.501995","25.0066416666667","6500300","中和區"
"235040","150-BY","2018/04/17 18:08:03","新北市中和區員山路36巷16-2號","121.48537","24.991705","6500300","中和區"
"235058","151-BY","2018/04/17 18:09:25","新北市中和區圓通路367巷33弄15號","121.49526","24.985085","6500300","中和區"
"235038","185-VK","2018/04/17 18:09:35","新北市中和區大智街2號","121.519938333333","24.9919166666667","6500300","中和區"
"235072","301-VK","2018/04/17 18:09:25","新北市中和區員山路36巷13號","121.483948333333","24.9911316666667","6500300","中和區"
"235061","378-QA","2018/04/17 18:09:30","新北市中和區連城路506號","121.477531666667","24.992105","6500300","中和區"
"235050","4979-A6","2018/04/17 18:09:22","新北市中和區中正路637巷52弄1號","121.48544","24.9934083333333","6500300","中和區"
"235042","551-UM","2018/04/17 18:09:22","新北市中和區景平路253號","121.50876","24.9928816666667","6500300","中和區"
"235070","558-UM","2018/04/17 18:09:30","新北市中和區中正路305號","121.492403333333","24.99388","6500300","中和區"
"235045","565-BX","2018/04/17 18:09:19","新北市中和區錦和路350-1號","121.490495","24.9935833333333","6500300","中和區"
"235054","640-BX","2018/04/17 18:09:21","新北市土城區延壽路111巷2-1號","121.469148333333","24.9937383333333","6500300","中和區"
"235047","732-UM","2018/04/17 18:09:20","新北市中和區中正路273號","121.495711666667","24.9936783333333","6500300","中和區"
"235046","733-UM","2018/04/17 18:09:19","新北市中和區員山路36巷13號","121.484161666667","24.9908983333333","6500300","中和區"
"235062","800-TS","2018/04/17 18:09:19","新北市中和區中山路二段538號","121.485201666667","25.005115","6500300","中和區"
"235052","805-TS","2018/04/17 18:09:29","新北市中和區中正路637巷52弄1號","121.48542","24.9933966666667","6500300","中和區"
"235053","900-TW","2018/04/17 18:09:27","新北市中和區員山路36巷16-2號","121.485246666667","24.9914","6500300","中和區"
"235066","911-UM","2018/04/17 18:09:25","新北市中和區圓通路156號","121.497918333333","24.9956166666667","6500300","中和區"
"235051","157-BY","2018/04/17 18:09:38","新北市中和區南山路150號","121.504238333333","24.9921766666667","6500300","中和區"
"235037","AAC-213","2018/04/17 18:09:19","新北市中和區景平路257號","121.508565","24.9929483333333","6500300","中和區"
"247010","341-TH","2018/04/17 18:09:37","新北市蘆洲區中山二路240-1號","121.469445","25.0793616666667","6501400","蘆洲區"
"247016","007-UY","2018/04/17 18:09:22","新北市蘆洲區長安街307號","121.458015","25.0852916666667","6501400","蘆洲區"
"226004","205-ST","2018/04/17 18:09:32","新北市平溪區白石里白石腳3號","121.722126666667","25.0215416666667","6502400","平溪區"
"228001","212-TW","2018/04/17 18:09:26","新北市貢寮區真理里新港街26巷55弄2-1號","121.927398333333","25.0528716666667","6502600","貢寮區"
"228002","663-BX","2018/04/17 18:09:34","新北市貢寮區福連里福興街39-3號","121.994021666667","25.0135216666667","6502600","貢寮區"
"228003","828-UM","2018/04/17 18:09:25","新北市貢寮區真理里美艷山街6-2號","121.928861666667","25.060715","6502600","貢寮區"
"224010","AGQ-8101","2018/04/17 17:54:28","新北市瑞芳區金光路334號","121.84829","25.10962","6501200","瑞芳區"
"224006","676-BX","2018/04/17 18:09:20","新北市瑞芳區中正路2號","121.809318333333","25.1070883333333","6501200","瑞芳區"
"224002","639-TC","2018/04/17 18:09:29","新北市瑞芳區三爪子坑路64-32號","121.8089","25.1057566666667","6501200","瑞芳區"
"224008","285-BY","2018/04/17 18:09:26","新北市瑞芳區員山子路23號","121.821345","25.1030183333333","6501200","瑞芳區"
"224007","275-VK","2018/04/17 18:09:21","新北市瑞芳區四腳亭坑路3-1號","121.776976666667","25.1093966666667","6501200","瑞芳區"
"224009","273-VK","2018/04/17 18:09:16","新北市瑞芳區金光路115號","121.853615","25.1062683333333","6501200","瑞芳區"
"224005","271-BY","2018/04/17 18:09:35","新北市瑞芳區建基路二段78-1號","121.814701666667","25.12909","6501200","瑞芳區"
"227003","642-TC","2018/04/17 18:09:29","新北市雙溪區共和里東榮街31號","121.866168333333","25.0335683333333","6502500","雙溪區"
"253005","032-BX","2018/04/17 18:09:25","新北市石門區中央路46號","121.568158333333","25.2929583333333","6502200","石門區"
"253006","295-VK","2018/04/17 18:09:25","新北市石門區老梅路52巷21號","121.546308333333","25.2885616666667","6502200","石門區"
"222001","KEA-2212","2018/04/17 18:09:24","新北市深坑區北深路二段188號","121.614015","25.00224","6501800","深坑區"
"208002","KEA-2872","2018/04/17 18:09:36","新北市金山區三界壇路99巷1號","121.622416666667","25.229115","6502700","金山區"
"208003","665-BX","2018/04/17 18:09:21","新北市金山區民生路84號","121.648358333333","25.2237766666667","6502700","金山區"
"208001","761-BX","2018/04/17 18:09:34","新北市金山區磺港里磺港路61號","121.647581666667","25.2272783333333","6502700","金山區"
"251004","009-UM","2018/04/17 18:09:30","新北市淡水區民族路110巷9號","121.46197","25.135415","6501000","淡水區"
"251005","010-UM","2018/04/17 18:09:34","新北市淡水區水源街一段139號","121.44719","25.171885","6501000","淡水區"
"251002","012-UM","2018/04/17 18:09:25","新北市淡水區中正東路一段87-2號","121.453018333333","25.1618266666667","6501000","淡水區"
"251013","179-VK","2018/04/17 18:09:27","新北市淡水區竹圍子10號","121.476058333333","25.19451","6501000","淡水區"
"251014","180-VK","2018/04/17 18:09:18","新北市淡水區南平15號","121.487948333333","25.2195933333333","6501000","淡水區"
"251008","181-VK","2018/04/17 18:09:24","新北市淡水區淡金路16巷60弄1號","121.459616666667","25.1609116666667","6501000","淡水區"
"251015","182-VK","2018/04/17 18:09:34","新北市淡水區興福寮88巷1號","121.485403333333","25.1649166666667","6501000","淡水區"
"251010","413-VK","2018/04/17 18:09:25","新北市淡水區中正路二段50巷10號","121.419875","25.1832983333333","6501000","淡水區"
"251012","441-VK","2018/04/17 18:09:33","新北市淡水區泉洲厝13號","121.488331666667","25.190065","6501000","淡水區"
"251016","442-VK","2018/04/17 18:09:24","新北市淡水區下圭柔山18號","121.45363","25.2027316666667","6501000","淡水區"
"251001","559-UM","2018/04/17 18:09:25","新北市淡水區自立路8-2號","121.462796666667","25.1296466666667","6501000","淡水區"
"251006","561-UM","2018/04/17 18:09:23","新北市淡水區新民街74號","121.4386","25.1763483333333","6501000","淡水區"
"251009","575-R6","2018/04/17 18:09:25","新北市淡水區大忠街43號","121.444476666667","25.176365","6501000","淡水區"
"251007","577-R6","2018/04/17 18:09:30","新北市淡水區中正東路二段143巷2弄1號","121.460688333333","25.1474183333333","6501000","淡水區"
"251011","650-BX","2018/04/17 18:09:33","新北市淡水區三空泉9-1號","121.474493333333","25.163045","6501000","淡水區"
"251003","673-BX","2018/04/17 18:09:26","新北市淡水區北新路182巷43號","121.448235","25.177385","6501000","淡水區"
"207003","550-UM","2018/04/17 18:09:38","新北市萬里區野柳里港西路74號","121.685726666667","25.2050583333333","6502800","萬里區"
"207004","225-TW","2018/04/17 18:09:20","新北市萬里區中幅里中福路106號","121.676466666667","25.16948","6502800","萬里區"
"252002","178-VK","2018/04/17 18:09:20","新北市三芝區中山路二段35號","121.502901666667","25.25519","6502100","三芝區"
"252003","249-BX","2018/04/17 18:09:34","新北市三芝區埔頭里埔頭37號","121.498495","25.260305","6502100","三芝區"
"252001","292-VK","2018/04/17 18:09:32","新北市三芝區中興街二段2號","121.498355","25.2566683333333","6502100","三芝區"
"237004","KEA-2597","2018/04/17 18:09:23","新北市三峽區大埔路359號","121.3713","24.89554","6500900","三峽區"
"237007","153-BY","2018/04/17 18:09:25","新北市三峽區中正路二段370巷75號","121.364383333333","24.9114","6500900","三峽區"
"237011","572-TV","2018/04/17 18:09:21","新北市三峽區溪東路92號","121.40289","24.9341","6500900","三峽區"
"237009","210-TH","2018/04/17 18:09:29","新北市三峽區大仁路53號","121.36537","24.9374383333333","6500900","三峽區"
"237013","252-BX","2018/04/17 18:09:32","新北市三峽區長泰街16號","121.378813333333","24.931145","6500900","三峽區"
"237012","275-BY","2018/04/17 18:09:18","新北市三峽區民生街19巷7弄47號","121.377638333333","24.9355716666667","6500900","三峽區"
"237008","302-VK","2018/04/17 18:09:28","新北市三峽區白雞42-3號","121.379386666667","24.9112933333333","6500900","三峽區"
"237014","433-BY","2018/04/17 18:09:35","新北市三峽區復興路80巷18號","121.37365","24.9378","6500900","三峽區"
"237006","5529-G3","2018/04/17 18:09:26","新北市三峽區溪東路148號","121.405226666667","24.9331216666667","6500900","三峽區"
"237005","AKY-6261","2018/04/17 18:09:21","新北市三峽區和平街24-3號","121.370263333333","24.93637","6500900","三峽區"
"236070","105-UM","2018/04/17 18:09:25","新北市土城區青雲路575號","121.459105","24.971905","6501300","土城區"
"236042","107-UM","2018/04/17 18:09:36","新北市土城區城林路6巷80號","121.438721666667","24.9796633333333","6501300","土城區"
"236079","166-UM","2018/04/17 18:09:27","新北市土城區永寧路29號","121.430468333333","24.9632383333333","6501300","土城區"
"236030","253-BX","2018/04/17 18:09:20","新北市土城區城林路6巷80號","121.438586666667","24.9795366666667","6501300","土城區"
"236026","269-VK","2018/04/17 18:09:29","新北市土城區承天路18號","121.439163333333","24.9634116666667","6501300","土城區"
"236014","270-VK","2018/04/17 18:09:35","新北市土城區學府路一段159號","121.453155","24.98589","6501300","土城區"
"236038","271-VK","2018/04/17 18:09:17","新北市土城區青雲路322巷2弄3號","121.458385","24.9771666666667","6501300","土城區"
"236021","401-BY","2018/04/17 18:09:25","新北市土城區城林路6巷80號","121.438743333333","24.9796883333333","6501300","土城區"
"236063","752-BX","2018/04/17 18:09:31","新北市土城區中正路33號","121.443726666667","24.97539","6501300","土城區"
"236059","912-UM","2018/04/17 18:09:21","新北市土城區中央路四段196-1號","121.416263333333","24.95765","6501300","土城區"
"236049","913-UM","2018/04/17 18:09:26","新北市土城區金城路二段8-1號","121.449051666667","24.9771366666667","6501300","土城區"
"236055","AAC-216","2018/04/17 18:09:21","新北市土城區中華路二段131號","121.438876666667","24.9764716666667","6501300","土城區"
"242058","986-R7","2018/04/17 18:09:35","新北市新莊區壽山路49-1號","121.414316666667","25.030605","6500500","新莊區"
"242054","751-BX","2018/04/17 18:09:34","新北市新莊區民安西路321號","121.427443333333","25.01119","6500500","新莊區"
"242027","615-BX","2018/04/17 18:09:29","新北市新莊區幸福路561號","121.454355","25.0491833333333","6500500","新莊區"
"242025","613-BX","2018/04/17 18:09:36","新北市新莊區五權一路120號","121.460326666667","25.068205","6500500","新莊區"
"242029","612-BX","2018/04/17 18:09:17","新北市新莊區中平路194號","121.444578333333","25.0482683333333","6500500","新莊區"
"242042","566-BX","2018/04/17 18:09:19","新北市新莊區天祥街120巷3弄2號","121.41482","25.0304433333333","6500500","新莊區"
"242046","497-BY","2018/04/17 18:09:26","新北市新莊區福營路226號","121.427258333333","25.0293633333333","6500500","新莊區"
"242051","441-UM","2018/04/17 18:09:32","新北市新莊區民本街29巷21號","121.429038333333","25.01894","6500500","新莊區"
"242056","440-UM","2018/04/17 18:09:36","新北市新莊區豐年街豐1巷26號","121.44747","25.03119","6500500","新莊區"
"242037","415-TV","2018/04/17 18:09:21","新北市新莊區後港一路63號","121.426468333333","25.026575","6500500","新莊區"
"242007","413-TV","2018/04/17 18:09:21","新北市新莊區自強街23巷3號","121.45439","25.0463083333333","6500500","新莊區"
"242044","400-BY","2018/04/17 18:09:23","新北市新莊區中正路730-2號","121.414728333333","25.02394","6500500","新莊區"
"242023","362-BY","2018/04/17 18:09:26","新北市泰山區泰林路一段2-1號","121.441928333333","25.0479033333333","6500500","新莊區"
"242061","353-BY","2018/04/17 18:09:35","新北市新莊區新樹路255號","121.434831666667","25.02195","6500500","新莊區"
"242039","133-UY","2018/04/17 18:09:25","新北市新莊區民安西路38巷4號","121.4271","25.0209733333333","6500500","新莊區"
"242048","172-VK","2018/04/17 18:09:23","新北市新莊區富國路111號","121.423431666667","25.0249433333333","6500500","新莊區"
"242011","173-VK","2018/04/17 18:09:21","新北市新莊區中信街88號","121.44794","25.0533533333333","6500500","新莊區"
"242017","175-VK","2018/04/17 18:09:23","新北市新莊區中港路307號","121.452723333333","25.0446916666667","6500500","新莊區"
"242005","176-VK","2018/04/17 18:09:28","新北市新莊區中華路二段45巷5號","121.453005","25.0465333333333","6500500","新莊區"
"242015","346-TH","2018/04/17 18:09:38","新北市新莊區中平路152巷11號","121.445481666667","25.0473583333333","6500500","新莊區"
"242019","347-TH","2018/04/17 18:09:24","新北市新莊區民樂街15巷2號","121.457665","25.0401433333333","6500500","新莊區"
"242021","348-TH","2018/04/17 18:09:34","新北市新莊區新興街45巷1號","121.450585","25.0390183333333","6500500","新莊區"
"242034","349-TH","2018/04/17 18:09:32","新北市新莊區景德路261號","121.44816","25.0336016666667","6500500","新莊區"
"242013","351-TH","2018/04/17 18:09:25","新北市新莊區中正路400號","121.441933333333","25.0342266666667","6500500","新莊區"
"238015","755-BX","2018/04/17 18:09:31","新北市樹林區大安路493號","121.414295","24.986695","6500700","樹林區"
"238023","601-UM","2018/04/17 18:09:19","新北市樹林區龍興街31巷27號","121.403918333333","25.0161583333333","6500700","樹林區"
"238019","599-UM","2018/04/17 18:09:33","新北市樹林區國凱街140巷25號","121.424213333333","24.9797133333333","6500700","樹林區"
"238018","571-TV","2018/04/17 18:09:21","新北市板橋區大觀路三段160巷48號","121.429485","24.994235","6500700","樹林區"
"238024","5061-A6","2018/04/17 18:09:19","新北市樹林區保安街一段294巷40號","121.42105","24.9978733333333","6500700","樹林區"
"238022","KEA-2213","2018/04/17 18:09:27","新北市樹林區太平路174巷14號","121.417953333333","24.976815","6500700","樹林區"
"238021","KEA-2539","2018/04/17 18:09:26","新北市樹林區柑園街一段351號","121.39011","24.956345","6500700","樹林區"
"238025","303-VK","2018/04/17 18:09:32","新北市樹林區保安街二段241號","121.413105","25.0047033333333","6500700","樹林區"
"238017","283-BY","2018/04/17 18:09:31","新北市樹林區中正路660號","121.409718333333","25.0166033333333","6500700","樹林區"
"238014","282-BY","2018/04/17 18:09:33","新北市樹林區潭興街107巷1弄13號","121.424831666667","24.9986683333333","6500700","樹林區"
"238020","268-VK","2018/04/17 18:09:32","新北市樹林區三龍街115號","121.417475","25.0182366666667","6500700","樹林區"
"238026","172-UY","2018/04/17 18:09:33","新北市樹林區佳園路一段50號","121.39281","24.9706966666667","6500700","樹林區"
"238016","169-UY","2018/04/17 18:09:23","新北市樹林區中山路一段233號","121.420893333333","24.9869083333333","6500700","樹林區"
"239007","AAC-297","2018/04/17 18:09:33","新北市鶯歌區尖山埔路102號","121.34731","24.9511433333333","6500800","鶯歌區"
"239006","891-R6","2018/04/17 18:09:31","新北市鶯歌區鶯桃路377號","121.33375","24.9632216666667","6500800","鶯歌區"
"239008","527-UM","2018/04/17 18:09:19","新北市鶯歌區國際一路179號","121.33624","24.9764766666667","6500800","鶯歌區"
"239005","526-UM","2018/04/17 18:09:26","新北市鶯歌區鶯桃路668巷74-1號","121.329715","24.9715133333333","6500800","鶯歌區"
"239001","417-VK","2018/04/17 18:09:32","新北市鶯歌區中正三路福德巷2弄2號","121.3395","24.9414766666667","6500800","鶯歌區"
"239003","360-BY","2018/04/17 18:09:21","新北市鶯歌區福安街7巷1-1號","121.33477","24.9646083333333","6500800","鶯歌區"
"239002","359-BY","2018/04/17 18:09:24","新北市鶯歌區國慶街73號","121.34998","24.9551133333333","6500800","鶯歌區"
"239004","193-VK","2018/04/17 18:09:33","新北市鶯歌區尖山路168巷4號","121.344993333333","24.9483133333333","6500800","鶯歌區"
"221008","489-VK","2018/04/17 18:09:20","新北市汐止區康寧街308號","121.626566666667","25.0672166666667","6501100","汐止區"
"221036","130-UY","2018/04/17 18:09:19","新北市汐止區大同路三段141號","121.669266666667","25.0777366666667","6501100","汐止區"
"221015","131-UY","2018/04/17 18:09:27","新北市汐止區鄉長路二段40巷1號","121.667603333333","25.08358","6501100","汐止區"
"221010","269-BY","2018/04/17 18:09:36","新北市汐止區祥雲街12號","121.646115","25.0898483333333","6501100","汐止區"
"221012","278-VK","2018/04/17 18:09:35","新北市汐止區保一街35巷16號","121.674458333333","25.080805","6501100","汐止區"
"221023","279-VK","2018/04/17 18:09:35","新北市汐止區民族五街93號","121.627391666667","25.0695033333333","6501100","汐止區"
"221032","280-BY","2018/04/17 18:09:22","新北市汐止區橫科路59號","121.618575","25.0509233333333","6501100","汐止區"
"221027","281-BY","2018/04/17 18:09:37","新北市汐止區中正路7號","121.663213333333","25.0699983333333","6501100","汐止區"
"221029","298-VK","2018/04/17 18:09:22","新北市汐止區樟樹二路134號","121.6399","25.0656483333333","6501100","汐止區"
"221021","299-VK","2018/04/17 18:09:27","新北市汐止區龍安路202巷39號","121.652293333333","25.063625","6501100","汐止區"
"221031","353-TW","2018/04/17 18:09:32","新北市汐止區中興路158-1號","121.632265","25.06515","6501100","汐止區"
"221035","622-UM","2018/04/17 18:09:20","新北市汐止區大同路二段207號","121.652623333333","25.064415","6501100","汐止區"
"221025","623-UM","2018/04/17 18:09:26","新北市汐止區秀峰路151巷1號","121.660866666667","25.061955","6501100","汐止區"
"221038","646-BX","2018/04/17 18:09:25","新北市汐止區秀峰路160號","121.660333333333","25.062145","6501100","汐止區"
"221033","647-BX","2018/04/17 18:09:21","新北市汐止區宜興街20巷22號","121.622111666667","25.0408316666667","6501100","汐止區"
"221002","707-TV","2018/04/17 18:09:28","新北市汐止區福德一路208號","121.634595","25.06527","6501100","汐止區"
"221018","753-BX","2018/04/17 18:09:19","新北市汐止區忠孝東路363號","121.66558","25.070775","6501100","汐止區"
"242002","KEA-2550","2018/04/17 18:09:27","新北市新莊區新莊路24號","121.458501666667","25.0372933333333","6500500","新莊區"
"242009","281-VK","2018/04/17 18:09:16","新北市新莊區中華路二段212號","121.45274","25.0523233333333","6500500","新莊區"
"242032","280-VK","2018/04/17 18:09:33","新北市新莊區新泰路277巷11號","121.445205","25.0401766666667","6500500","新莊區"
"220018","806-UM","2018/04/17 18:09:24","新北市板橋區華東街1-9號","121.448245","24.99486","6500100","板橋區"
