"lineid","car","time","location","longitude","latitude","cityid","cityname"
"234046","148-BY","2018/04/17 18:39:23","新北市永和區林森路80號","121.523463333333","25.003745","6500400","永和區"
"234081","298-R6","2018/04/17 18:39:26","新北市永和區林森路77號","121.524023333333","25.0037616666667","6500400","永和區"
"234086","338-UY","2018/04/17 18:39:36","新北市中和區安平路30號","121.509558333333","24.99475","6500400","永和區"
"234067","553-UM","2018/04/17 18:39:31","新北市永和區安樂路250-2號","121.514486666667","25.00371","6500400","永和區"
"234017","745-BX","2018/04/17 18:39:32","新北市永和區福和路1號","121.526463333333","25.009655","6500400","永和區"
"234030","746-BX","2018/04/17 18:39:27","新北市永和區得和路321號","121.523395","24.99955","6500400","永和區"
"234013","KEA-2591","2018/04/17 18:39:27","新北市永和區信義路14-1號","121.5144","25.01204","6500400","永和區"
"234061","AAD-866","2018/04/17 18:39:35","新北市永和區環河東路二段102號","121.524573333333","25.0105166666667","6500400","永和區"
"234042","862-TW","2018/04/17 18:39:32","新北市永和區永貞路308號","121.511903333333","25.0049066666667","6500400","永和區"
"234050","863-TW","2018/04/17 18:39:20","新北市永和區福和路1號","121.526463333333","25.0098566666667","6500400","永和區"
"234026","9371-KE","2018/04/17 18:39:29","新北市永和區保平路93巷3號","121.511811666667","25.00664","6500400","永和區"
"234011","9373-KE","2018/04/17 18:39:34","新北市永和區文化路9巷22弄9號","121.515038333333","25.0145466666667","6500400","永和區"
"249005","172-UM","2018/04/17 18:39:29","新北市八里區中華路三段200號","121.388683333333","25.125715","6502300","八里區"
"249001","173-UM","2018/04/17 18:39:28","新北市八里區龍米路一段360號","121.451543333333","25.1313766666667","6502300","八里區"
"249004","303-UY","2018/04/17 18:39:16","新北市八里區忠四街3號","121.42482","25.1594783333333","6502300","八里區"
"248014","025-BX","2018/04/17 18:39:33","新北市五股區民義路一段1號","121.437455","25.08324","6501500","五股區"
"248016","026-BX","2018/04/17 18:39:33","新北市五股區凌雲路一段149巷13-1號","121.448618333333","25.100865","6501500","五股區"
"248008","095-VK","2018/04/17 18:39:32","新北市五股區中興路一段150巷6號","121.464651666667","25.0742033333333","6501500","五股區"
"248020","225-UY","2018/04/17 18:39:00","新北市五股區孝義路118號","121.441083333333","25.1208866666667","6501500","五股區"
"248012","247-BX","2018/04/17 18:39:29","新北市五股區成泰路三段2巷1-20號","121.441266666667","25.0866366666667","6501500","五股區"
"248010","272-BY","2018/04/17 18:39:17","新北市五股區水碓三路120號","121.431795","25.0735633333333","6501500","五股區"
"248002","678-BX","2018/04/17 18:39:23","新北市五股區西雲路199號","121.448028333333","25.09615","6501500","五股區"
"248004","682-TV","2018/04/17 18:39:23","新北市五股區民義路一段206號","121.430348333333","25.0890666666667","6501500","五股區"
"234023","9380-KE","2018/04/17 18:39:26","新北市永和區福和路8巷3號","121.52485","25.0091266666667","6500400","永和區"
"234077","969-R7","2018/04/17 18:39:34","新北市永和區中正路279號","121.517568333333","25.00101","6500400","永和區"
"244013","069-UM","2018/04/17 18:39:29","新北市林口區佳林路157號","121.385231666667","25.07918","6501700","林口區"
"244007","080-UY","2018/04/17 18:39:34","新北市林口區太平嶺26-2號","121.376323333333","25.11677","6501700","林口區"
"244019","403-UM","2018/04/17 18:39:36","新北市林口區忠孝路622巷1弄2號","121.377846666667","25.067695","6501700","林口區"
"244023","483-VK","2018/04/17 18:39:29","新北市林口區文化二路二段110巷10號","121.379803333333","25.0814366666667","6501700","林口區"
"244017","485-VK","2018/04/17 18:39:25","新北市林口區文化二路一段156號","121.368365","25.0714683333333","6501700","林口區"
"244009","656-BX","2018/04/17 18:39:28","新北市林口區竹林路278巷1號","121.39049","25.081665","6501700","林口區"
"244011","701-TV","2018/04/17 18:39:29","新北市林口區新寮1-84號","121.39273","25.0768066666667","6501700","林口區"
"244025","837-TS","2018/04/17 18:39:37","新北市林口區南勢五街22號","121.356808333333","25.0752733333333","6501700","林口區"
"244021","838-TS","2018/04/17 18:39:26","新北市林口區工六路40-2號","121.398901666667","25.078325","6501700","林口區"
"243012","AAD-798","2018/04/17 18:39:21","新北市泰山區福興三街13號","121.434433333333","25.057805","6501600","泰山區"
"243015","380-SR","2018/04/17 18:37:18","新北市泰山區犁頭窠12鄰3號","121.4222","25.0600183333333","6501600","泰山區"
"222003","436-BY","2018/04/17 18:39:29","新北市深坑區翠谷街27號","121.626765","25.00887","6501800","深坑區"
"222002","659-BX","2018/04/17 18:39:24","新北市深坑區雲鄉路1號","121.620975","24.9996583333333","6501800","深坑區"
"231041","002-UM","2018/04/17 18:39:32","新北市新店區安華路28-1號","121.519655","24.96081","6500600","新店區"
"231059","046-UY","2018/04/17 18:39:23","新北市新店區安華路28-1號","121.51955","24.9607816666667","6500600","新店區"
"231040","047-UY","2018/04/17 18:39:24","新北市新店區安華路28-1號","121.519431666667","24.9609166666667","6500600","新店區"
"231044","106-UY","2018/04/17 18:39:34","新北市新店區北新路一段91號","121.53877","24.961745","6500600","新店區"
"231064","110-UY","2018/04/17 18:39:25","新北市新店區安華路28-1號","121.519321666667","24.961295","6500600","新店區"
"231048","187-VK","2018/04/17 18:39:38","新北市新店區安康路一段355-3號","121.519823333333","24.9625783333333","6500600","新店區"
"231046","188-VK","2018/04/17 18:39:17","新北市新店區直潭二街1號","121.53552","24.943195","6500600","新店區"
"231054","KEA-2219","2018/04/17 18:39:20","新北市新店區安華路28-1號","121.519806666667","24.9611983333333","6500600","新店區"
"231057","256-BX","2018/04/17 18:39:17","新北市新店區新烏路一段205-2號","121.547463333333","24.9327633333333","6500600","新店區"
"231051","278-BY","2018/04/17 18:39:17","新北市新店區中央路206號","121.5303","24.9740166666667","6500600","新店區"
"231050","AAD-862","2018/04/17 18:39:16","新北市新店區安華路28-1號","121.519991666667","24.9611383333333","6500600","新店區"
"231058","3713-VJ","2018/04/17 18:39:31","新北市新店區北宜路一段168號","121.540405","24.9529266666667","6500600","新店區"
"231066","4716-K9","2018/04/17 18:39:22","新北市新店區安華路28-1號","121.519315","24.9612283333333","6500600","新店區"
"231056","4715-K9","2018/04/17 18:39:23","新北市新店區自立街18號","121.538793333333","24.9782383333333","6500600","新店區"
"231067","4772-VM","2018/04/17 18:39:23","新北市新店區安康路一段94-2號","121.527835","24.962115","6500600","新店區"
"231065","512-UM","2018/04/17 18:39:32","新北市新店區安華路28-1號","121.519371666667","24.9610583333333","6500600","新店區"
"231049","513-UM","2018/04/17 18:39:35","新北市新店區安華路28-1號","121.519618333333","24.9610966666667","6500600","新店區"
"231045","617-UM","2018/04/17 18:39:37","新北市新店區安華路28-1號","121.519493333333","24.9609266666667","6500600","新店區"
"231061","619-UM","2018/04/17 18:39:25","新北市新店區安華路28-1號","121.519503333333","24.9607216666667","6500600","新店區"
"231063","641-BX","2018/04/17 18:39:20","新北市新店區安華路28-1號","121.51962","24.9605883333333","6500600","新店區"
"231042","645-TV","2018/04/17 18:39:25","新北市新店區安華路28-1號","121.519361666667","24.96063","6500600","新店區"
"231053","719-UY","2018/04/17 18:39:30","新北市新店區永興路17號","121.54418","24.9393116666667","6500600","新店區"
"231062","720-UM","2018/04/17 18:39:22","新北市新店區安華路28-1號","121.519293333333","24.9612866666667","6500600","新店區"
"231043","899-TW","2018/04/17 18:39:21","新北市新店區安華路28-1號","121.519256666667","24.9608833333333","6500600","新店區"
"231055","AKT-0513","2018/04/17 18:39:31","新北市新店區中華路47巷2弄2號","121.53967","24.967685","6500600","新店區"
"241024","065-VK","2018/04/17 18:39:24","新北市板橋區溪城路90-2號","121.429275","24.980075","6500200","三重區"
"235064","005-UY","2018/04/17 18:39:18","新北市中和區連城路127巷31號","121.49745","24.9975183333333","6500300","中和區"
"235063","006-UY","2018/04/17 18:39:19","新北市中和區連城路347巷4弄6-1號","121.487955","24.9955816666667","6500300","中和區"
"235056","096-UM","2018/04/17 18:39:27","新北市中和區員山路611巷1號","121.477868333333","25.0112583333333","6500300","中和區"
"235039","097-UM","2018/04/17 18:39:33","新北市永和區中正路65號","121.51456","24.9967416666667","6500300","中和區"
"235065","098-UM","2018/04/17 18:39:25","新北市中和區莊敬路49巷27號","121.501511666667","25.0061416666667","6500300","中和區"
"235040","150-BY","2018/04/17 18:39:03","新北市中和區宜安路56號","121.511821666667","24.996765","6500300","中和區"
"235058","151-BY","2018/04/17 18:39:25","新北市中和區圓通路437-3號","121.485521666667","24.9870066666667","6500300","中和區"
"235055","183-VK","2018/04/17 18:39:35","新北市板橋區民族路276巷48號","121.469038333333","25.0055566666667","6500300","中和區"
"235038","185-VK","2018/04/17 18:39:35","新北市中和區立人街8號","121.51963","24.9941816666667","6500300","中和區"
"235049","186-VK","2018/04/17 18:39:36","新北市中和區景平路490號","121.504741666667","24.9936433333333","6500300","中和區"
"235067","255-BX","2018/04/17 18:39:30","新北市中和區連城路469巷20號","121.483576666667","24.995085","6500300","中和區"
"235044","293-VK","2018/04/17 18:39:17","新北市中和區復興路265號","121.502768333333","24.9903633333333","6500300","中和區"
"235072","301-VK","2018/04/17 18:39:25","新北市中和區中山路二段132號","121.502283333333","25.0034066666667","6500300","中和區"
"235043","352-BY","2018/04/17 18:39:33","新北市中和區景平路182號","121.516186666667","24.9920333333333","6500300","中和區"
"235068","377-QA","2018/04/17 18:39:28","新北市中和區中正路140號","121.49925","24.993845","6500300","中和區"
"235061","378-QA","2018/04/17 18:39:38","新北市中和區民享街92巷23號","121.47374","24.99949","6500300","中和區"
"235060","269-TV","2018/04/17 18:39:21","新北市中和區中山路二段479號","121.48303","25.0048883333333","6500300","中和區"
"235050","4979-A6","2018/04/17 18:39:22","新北市中和區忠孝街119號","121.512445","24.988165","6500300","中和區"
"235042","551-UM","2018/04/17 18:39:22","新北市中和區成功路97巷18弄7號","121.526898333333","24.9914916666667","6500300","中和區"
"235070","558-UM","2018/04/17 18:39:31","新北市中和區南華路41號","121.503696666667","24.9965233333333","6500300","中和區"
"235045","565-BX","2018/04/17 18:39:39","新北市中和區南山路236巷63弄17號","121.504308333333","24.987885","6500300","中和區"
"235054","640-BX","2018/04/17 18:39:21","新北市中和區民享街32巷9號","121.473335","25.0031666666667","6500300","中和區"
"235047","732-UM","2018/04/17 18:39:20","新北市中和區南山路320巷10弄11號","121.506893333333","24.9866366666667","6500300","中和區"
"235046","733-UM","2018/04/17 18:39:19","新北市中和區忠孝街128號","121.51209","24.98649","6500300","中和區"
"235062","800-TS","2018/04/17 18:38:58","新北市中和區景平路703巷2弄5號","121.49581","25.0037266666667","6500300","中和區"
"235057","801-TS","2018/04/17 18:39:17","新北市中和區民安街2巷18號","121.480221666667","25.001695","6500300","中和區"
"235052","805-TS","2018/04/17 18:39:29","新北市中和區興南路三段63號","121.493026666667","24.975015","6500300","中和區"
"235048","896-TW","2018/04/17 18:39:36","新北市中和區南山路401號","121.506783333333","24.9899783333333","6500300","中和區"
"235053","900-TW","2018/04/17 18:39:27","新北市中和區民德路264號","121.467943333333","24.99671","6500300","中和區"
"235066","911-UM","2018/04/17 18:39:25","新北市中和區水源路34巷2號","121.50486","25.0035216666667","6500300","中和區"
"235051","157-BY","2018/04/17 18:39:37","新北市中和區華新街143巷106弄32號","121.50623","24.978645","6500300","中和區"
"235037","AAC-213","2018/04/17 18:39:38","新北市中和區景德街93號","121.51594","24.9913683333333","6500300","中和區"
"235059","AAC-215","2018/04/17 18:39:34","新北市中和區錦和路350-1號","121.490548333333","24.9935283333333","6500300","中和區"
"220068","013-TV","2018/04/17 18:39:18","新北市板橋區民生路二段161巷9號","121.470306666667","25.0196766666667","6500100","板橋區"
"220056","015-TV","2018/04/17 18:39:19","新北市板橋區四川路二段241號","121.450713333333","24.99378","6500100","板橋區"
"220065","072-UY","2018/04/17 18:39:31","新北市板橋區區運路45號","121.466508333333","25.0104183333333","6500100","板橋區"
"220086","073-UY","2018/04/17 18:39:27","新北市板橋區南雅西路二段192巷1弄31號","121.452488333333","25.0153683333333","6500100","板橋區"
"247010","341-TH","2018/04/17 18:39:37","新北市八里區下罟子30-35號","121.367885","25.135195","6501400","蘆洲區"
"226004","205-ST","2018/04/17 18:39:32","新北市平溪區平溪里三坑路49-1號","121.732716666667","25.0327316666667","6502400","平溪區"
"235041","251-BX","2018/04/17 18:39:22","新北市中和區宜安路160號","121.50919","24.9988016666667","6500300","中和區"
"228001","212-TW","2018/04/17 18:39:26","新北市貢寮區仁理村研海街12-1號","121.923843333333","25.051695","6502600","貢寮區"
"228002","663-BX","2018/04/17 18:39:34","新北市貢寮區福隆里東興街6-12號","121.951781666667","25.0208316666667","6502600","貢寮區"
"228003","828-UM","2018/04/17 18:39:24","新北市貢寮區和美里龍洞街36號","121.916003333333","25.1115966666667","6502600","貢寮區"
"224006","676-BX","2018/04/17 18:39:20","新北市瑞芳區明燈路三段150號","121.803915","25.10859","6501200","瑞芳區"
"224002","639-TC","2018/04/17 18:39:29","新北市瑞芳區三爪子坑路32巷124號","121.809071666667","25.1065066666667","6501200","瑞芳區"
"224008","285-BY","2018/04/17 18:39:26","新北市瑞芳區瑞芳街17號","121.806651666667","25.1097566666667","6501200","瑞芳區"
"224007","275-VK","2018/04/17 18:39:23","新北市瑞芳區大埔路115巷18號","121.762865","25.10129","6501200","瑞芳區"
"224009","273-VK","2018/04/17 18:39:16","新北市瑞芳區祈堂路105號","121.859045","25.10941","6501200","瑞芳區"
"224005","271-BY","2018/04/17 18:39:35","新北市瑞芳區瑞濱路87號","121.820715","25.1210116666667","6501200","瑞芳區"
"227003","642-TC","2018/04/17 18:39:34","新北市雙溪區魚行里坤溪3-5號","121.875895","25.0210933333333","6502500","雙溪區"
"227009","400-TW","2018/04/17 18:39:22","新北市雙溪區牡丹里下坑11號","121.851015","25.05617","6502500","雙溪區"
"253005","032-BX","2018/04/17 18:39:25","新北市石門區中山路62號","121.567055","25.2907183333333","6502200","石門區"
"253006","295-VK","2018/04/17 18:39:25","新北市石門區崁子腳1-1號","121.531855","25.2880733333333","6502200","石門區"
"222001","KEA-2212","2018/04/17 18:39:24","新北市深坑區北深路一段82號","121.636311666667","25.0106016666667","6501800","深坑區"
"208002","KEA-2872","2018/04/17 18:39:25","新北市金山區龜子山路15-10號","121.638355","25.21821","6502700","金山區"
"208003","665-BX","2018/04/17 18:39:21","新北市金山區中山路393號","121.633421666667","25.2252333333333","6502700","金山區"
"208001","761-BX","2018/04/17 18:39:34","新北市金山區文化三路46號","121.635011666667","25.2251683333333","6502700","金山區"
"251002","012-UM","2018/04/17 18:39:25","新北市淡水區中正東路一段3巷14弄3號","121.451018333333","25.164265","6501000","淡水區"
"251013","179-VK","2018/04/17 18:39:23","新北市淡水區雲廣坑6-1號","121.474311666667","25.21478","6501000","淡水區"
"251014","180-VK","2018/04/17 18:39:38","新北市淡水區崙頂12-8號","121.495571666667","25.217235","6501000","淡水區"
"251008","181-VK","2018/04/17 18:39:24","新北市淡水區北投子72號","121.453441666667","25.18251","6501000","淡水區"
"251015","182-VK","2018/04/17 18:39:34","新北市淡水區興福寮66巷18號","121.486608333333","25.1622283333333","6501000","淡水區"
"251010","413-VK","2018/04/17 18:39:25","新北市淡水區沙崙路141號","121.423251666667","25.1829283333333","6501000","淡水區"
"251012","441-VK","2018/04/17 18:39:32","新北市淡水區北新路117號","121.44894","25.17861","6501000","淡水區"
"251016","442-VK","2018/04/17 18:39:24","新北市淡水區下圭柔山76-13號","121.445111666667","25.2055616666667","6501000","淡水區"
"251001","559-UM","2018/04/17 18:39:25","新北市淡水區自強路415巷2號","121.465496666667","25.1342466666667","6501000","淡水區"
"251006","561-UM","2018/04/17 18:39:23","新北市淡水區崁頂36-6號","121.439351666667","25.1939066666667","6501000","淡水區"
"251009","575-R6","2018/04/17 18:39:25","新北市淡水區中山北路一段281-6號","121.444691666667","25.1818433333333","6501000","淡水區"
"251011","650-BX","2018/04/17 18:39:33","新北市淡水區鄧公路34號","121.457625","25.1689","6501000","淡水區"
"251003","673-BX","2018/04/17 18:39:26","新北市淡水區北新路69巷26號","121.44683","25.180045","6501000","淡水區"
"207003","550-UM","2018/04/17 18:39:38","新北市萬里區大鵬里頂社2-1號","121.66037","25.2071266666667","6502800","萬里區"
"207004","225-TW","2018/04/17 18:39:20","新北市萬里區萬里里獅頭路7號","121.691975","25.178335","6502800","萬里區"
"252002","178-VK","2018/04/17 18:39:20","新北市三芝區民生街64巷7號","121.5035","25.255265","6502100","三芝區"
"252003","249-BX","2018/04/17 18:39:34","新北市三芝區後厝里土地公坑73-5號","121.46046","25.2474466666667","6502100","三芝區"
"252001","292-VK","2018/04/17 18:39:32","新北市三芝區中興街二段260號","121.501456666667","25.2532383333333","6502100","三芝區"
"237004","KEA-2597","2018/04/17 18:39:23","新北市三峽區插角217-1號","121.414805","24.86847","6500900","三峽區"
"237007","153-BY","2018/04/17 18:39:25","新北市三峽區柑樹路2巷98號","121.361746666667","24.9043","6500900","三峽區"
"237011","572-TV","2018/04/17 18:39:21","新北市三峽區介壽路三段231-1號","121.404531666667","24.9458666666667","6500900","三峽區"
"237009","210-TH","2018/04/17 18:39:29","新北市三峽區弘園街37號","121.367121666667","24.9276716666667","6500900","三峽區"
"237013","252-BX","2018/04/17 18:39:22","新北市三峽區光明路69巷25號","121.376726666667","24.9292466666667","6500900","三峽區"
"237012","275-BY","2018/04/17 18:39:38","新北市三峽區三樹路340號","121.38396","24.9433383333333","6500900","三峽區"
"237008","302-VK","2018/04/17 18:39:28","新北市三峽區白雞62-3號","121.388171666667","24.9123466666667","6500900","三峽區"
"237014","433-BY","2018/04/17 18:39:16","新北市三峽區復興路465-1號","121.361831666667","24.93861","6500900","三峽區"
"237006","5529-G3","2018/04/17 18:39:26","新北市三峽區溪東路211巷31弄11號","121.405428333333","24.9343183333333","6500900","三峽區"
"237005","AKY-6261","2018/04/17 18:39:21","新北市三峽區民生街104巷3-1號","121.373591666667","24.935995","6500900","三峽區"
"236070","105-UM","2018/04/17 18:39:25","新北市土城區永豐路157巷29弄6-1號","121.468363333333","24.9814766666667","6501300","土城區"
"236042","107-UM","2018/04/17 18:39:36","新北市土城區裕民路55巷15號","121.449491666667","24.9888683333333","6501300","土城區"
"236079","166-UM","2018/04/17 18:39:33","新北市土城區中央路四段52巷32號","121.419636666667","24.960875","6501300","土城區"
"236030","253-BX","2018/04/17 18:39:20","新北市土城區慶利街35號","121.438856666667","24.9744383333333","6501300","土城區"
"236026","269-VK","2018/04/17 18:39:29","新北市土城區忠義路51號","121.440448333333","24.96898","6501300","土城區"
"236014","270-VK","2018/04/17 18:39:35","新北市土城區清水路207巷11號","121.459991666667","24.982345","6501300","土城區"
"236038","271-VK","2018/04/17 18:39:37","新北市土城區明德路一段313巷11弄6號","121.460216666667","24.9758483333333","6501300","土城區"
"236021","401-BY","2018/04/17 18:39:37","新北市土城區延吉街262號","121.466095","24.9844583333333","6501300","土城區"
"236063","752-BX","2018/04/17 18:39:37","新北市土城區延壽路55巷9弄4號","121.469548333333","24.99158","6501300","土城區"
"236059","912-UM","2018/04/17 18:39:21","新北市土城區中央路三段235巷1號","121.428883333333","24.9642433333333","6501300","土城區"
"236049","913-UM","2018/04/17 18:39:26","新北市土城區明德路一段137-4號","121.4653","24.9805933333333","6501300","土城區"
"236055","AAC-216","2018/04/17 18:39:21","新北市土城區裕民路2號","121.446718333333","24.989215","6501300","土城區"
"242058","986-R7","2018/04/17 18:39:34","新北市新莊區中正路889-1號","121.415496666667","25.0238233333333","6500500","新莊區"
"242054","751-BX","2018/04/17 18:39:34","新北市樹林區樹新路120巷13號","121.430465","24.9969466666667","6500500","新莊區"
"242025","613-BX","2018/04/17 18:39:21","新北市新莊區立信一街35號","121.44204","25.0492183333333","6500500","新莊區"
"238015","755-BX","2018/04/17 18:39:31","新北市樹林區備內街121號","121.40601","24.9894133333333","6500700","樹林區"
"238023","601-UM","2018/04/17 18:39:19","新北市樹林區三福街114號","121.406493333333","25.0163333333333","6500700","樹林區"
"238019","599-UM","2018/04/17 18:39:18","新北市樹林區東陽街3號","121.412745","24.9822183333333","6500700","樹林區"
"238018","571-TV","2018/04/17 18:39:21","新北市樹林區樹新路135號","121.428331666667","24.9961966666667","6500700","樹林區"
"238024","5061-A6","2018/04/17 18:39:28","新北市樹林區太順街49巷18號","121.418123333333","24.9785216666667","6500700","樹林區"
"238022","KEA-2213","2018/04/17 18:39:27","新北市樹林區中華路393號","121.41136","24.98044","6500700","樹林區"
"238025","303-VK","2018/04/17 18:39:32","新北市樹林區中山路三段22號","121.395646666667","24.9729283333333","6500700","樹林區"
"238017","283-BY","2018/04/17 18:39:31","新北市樹林區光興街44號","121.409863333333","25.0028083333333","6500700","樹林區"
"238014","282-BY","2018/04/17 18:39:19","新北市樹林區大安路111巷41號","121.423348333333","24.9976316666667","6500700","樹林區"
"238020","268-VK","2018/04/17 18:39:25","新北市樹林區俊安街19號","121.419785","25.0137933333333","6500700","樹林區"
"238026","172-UY","2018/04/17 18:39:33","新北市樹林區育德街78-1號","121.387578333333","24.9680416666667","6500700","樹林區"
"238016","169-UY","2018/04/17 18:39:23","新北市樹林區文化街23號","121.419311666667","24.9875916666667","6500700","樹林區"
"239007","AAC-297","2018/04/17 18:39:33","新北市鶯歌區中正一路461-2號","121.363208333333","24.9566466666667","6500800","鶯歌區"
"239006","891-R6","2018/04/17 18:39:31","新北市鶯歌區鶯桃路296巷57號","121.33592","24.96132","6500800","鶯歌區"
"239008","527-UM","2018/04/17 18:39:39","新北市鶯歌區國際一路179號","121.336261666667","24.9764783333333","6500800","鶯歌區"
"239005","526-UM","2018/04/17 18:39:26","新北市鶯歌區鳳吉一街79號","121.32689","24.9742133333333","6500800","鶯歌區"
"239001","417-VK","2018/04/17 18:39:32","新北市鶯歌區中正二路192號","121.33954","24.9432266666667","6500800","鶯歌區"
"239003","360-BY","2018/04/17 18:39:21","新北市鶯歌區永和街148號","121.335501666667","24.9699966666667","6500800","鶯歌區"
"239002","359-BY","2018/04/17 18:39:24","新北市鶯歌區中山路162號","121.349303333333","24.9570366666667","6500800","鶯歌區"
"239004","193-VK","2018/04/17 18:39:33","新北市鶯歌區中正三路156巷28號","121.331741666667","24.942375","6500800","鶯歌區"
"221008","489-VK","2018/04/17 18:30:00","新北市汐止區康寧街901號","121.65139","25.074975","6501100","汐止區"
"221036","130-UY","2018/04/17 18:39:19","新北市汐止區忠孝東路338號","121.665133333333","25.069505","6501100","汐止區"
"221015","131-UY","2018/04/17 18:39:27","新北市汐止區吉祥街12巷12號","121.668915","25.0803683333333","6501100","汐止區"
"221010","269-BY","2018/04/17 18:39:36","新北市汐止區祥雲街1號","121.645495","25.089745","6501100","汐止區"
"221012","278-VK","2018/04/17 18:39:34","新北市汐止區汐萬路一段155號","121.653175","25.0710666666667","6501100","汐止區"
"221023","279-VK","2018/04/17 18:39:35","新北市汐止區連峰街1巷1號","121.647098333333","25.07608","6501100","汐止區"
"221032","280-BY","2018/04/17 18:39:22","新北市汐止區福山街56巷19號","121.618011666667","25.0456283333333","6501100","汐止區"
"221027","281-BY","2018/04/17 18:39:23","新北市汐止區汐萬路一段165號","121.65302","25.0710566666667","6501100","汐止區"
"221029","298-VK","2018/04/17 18:39:22","新北市汐止區樟樹一路150號","121.642193333333","25.06518","6501100","汐止區"
"221031","353-TW","2018/04/17 18:39:31","新北市汐止區福德一路274號","121.63215","25.0639783333333","6501100","汐止區"
"221035","622-UM","2018/04/17 18:39:20","新北市汐止區大同路二段339號","121.656376666667","25.0670483333333","6501100","汐止區"
"221025","623-UM","2018/04/17 18:39:26","新北市汐止區仁愛路119巷15號","121.662221666667","25.0640916666667","6501100","汐止區"
"221038","646-BX","2018/04/17 18:39:25","新北市汐止區康寧街901號","121.650736666667","25.0753066666667","6501100","汐止區"
"221033","647-BX","2018/04/17 18:39:21","新北市汐止區南勢街3號","121.6273","25.0374716666667","6501100","汐止區"
"221002","707-TV","2018/04/17 18:39:28","新北市汐止區中興路23號","121.636933333333","25.0595966666667","6501100","汐止區"
"221018","753-BX","2018/04/17 18:39:19","新北市汐止區茄苳路301號","121.673231666667","25.066985","6501100","汐止區"
"220079","145-BY","2018/04/17 18:39:40","新北市板橋區館前西路162號","121.45267","25.00854","6500100","板橋區"
"220080","200-UY","2018/04/17 18:39:27","新北市板橋區大觀路二段265巷130弄32號","121.440971666667","24.9966316666667","6500100","板橋區"
"220082","610-BX","2018/04/17 18:39:28","新北市板橋區大觀路三段52號","121.432281666667","24.9959233333333","6500100","板橋區"
"220103","257-TC","2018/04/17 18:39:20","新北市板橋區民生路二段161巷5號","121.470245","25.0197333333333","6500100","板橋區"
"220072","277-BY","2018/04/17 18:39:36","新北市板橋區大觀路三段59巷17弄6-1號","121.435993333333","24.9955116666667","6500100","板橋區"
"220071","283-VK","2018/04/17 18:39:22","新北市板橋區華東街1-9號","121.448038333333","24.9949116666667","6500100","板橋區"
"220094","285-UM","2018/04/17 18:39:30","新北市板橋區民生路二段161巷1號","121.470005","25.0199016666667","6500100","板橋區"
"220053","285-VK","2018/04/17 18:39:29","新北市板橋區民生路二段120號","121.470306666667","25.0198416666667","6500100","板橋區"
"220083","286-VK","2018/04/17 18:39:21","新北市板橋區大觀路二段153巷46弄1號","121.4485","24.99865","6500100","板橋區"
"220081","287-VK","2018/04/17 18:39:34","新北市板橋區大觀路二段153巷53號","121.447215","25.0009833333333","6500100","板橋區"
"242009","281-VK","2018/04/17 18:39:16","新北市板橋區溪城路90-2號","121.428811666667","24.979675","6500500","新莊區"
"220075","303-R5","2018/04/17 18:39:26","新北市板橋區華東街300號","121.452793333333","25.0026416666667","6500100","板橋區"
"220062","305-R5","2018/04/17 18:39:29","新北市板橋區民生路二段120號","121.470368333333","25.0196916666667","6500100","板橋區"
"220064","486-VK","2018/04/17 18:39:20","新北市板橋區中山路一段3-3號","121.459346666667","25.008265","6500100","板橋區"
"220035","560-BX","2018/04/17 18:39:26","新北市板橋區南雅西路二段145巷10號","121.45152","25.0120133333333","6500100","板橋區"
"220084","568-UM","2018/04/17 18:39:35","新北市板橋區大觀路二段力行1巷3弄2號","121.445616666667","24.99904","6500100","板橋區"
"220057","686-BX","2018/04/17 18:39:27","新北市板橋區華東街1-9號","121.448215","24.99493","6500100","板橋區"
"220054","741-BX","2018/04/17 18:39:25","新北市板橋區華東街1-9號","121.448085","24.9949066666667","6500100","板橋區"
"220070","806-UM","2018/04/17 18:39:20","新北市板橋區華東街1-9號","121.448248333333","24.9949266666667","6500100","板橋區"
"220055","827-TW","2018/04/17 18:39:30","新北市板橋區華東街1-9號","121.448146666667","24.9949033333333","6500100","板橋區"
"220074","895-R6","2018/04/17 18:39:31","新北市板橋區南雅南路二段1-1號","121.454788333333","25.003845","6500100","板橋區"
"220073","985-R7","2018/04/17 18:39:20","新北市板橋區館前西路21號","121.458611666667","25.0068683333333","6500100","板橋區"
"220077","AAC-253","2018/04/17 18:39:35","新北市板橋區大觀路二段156巷99號","121.441035","25.0010883333333","6500100","板橋區"
