"lineid","car","time","location","longitude","latitude","cityid","cityname"
"234046","148-BY","2018/04/17 18:49:36","新北市永和區秀朗路二段126巷28號","121.524698333333","25.0010083333333","6500400","永和區"
"234070","149-BY","2018/04/17 18:49:27","新北市永和區竹林路96巷2號","121.519325","25.0121716666667","6500400","永和區"
"234005","207-UY","2018/04/17 18:49:31","新北市永和區文化路164號","121.51216","25.0153883333333","6500400","永和區"
"234081","298-R6","2018/04/17 18:49:27","新北市永和區永利路81巷1號","121.521415","25.0038633333333","6500400","永和區"
"234038","336-UY","2018/04/17 18:49:20","新北市永和區豫溪街217巷1號","121.52491","25.0092283333333","6500400","永和區"
"234064","337-UY","2018/04/17 18:49:32","新北市永和區福和路1號","121.525621666667","25.0095616666667","6500400","永和區"
"234086","338-UY","2018/04/17 18:49:36","新北市永和區中正路73號","121.514973333333","24.996815","6500400","永和區"
"234067","553-UM","2018/04/17 18:49:31","新北市永和區中和路625號","121.512945","25.0049416666667","6500400","永和區"
"234017","745-BX","2018/04/17 18:49:32","新北市永和區忠孝街26巷27弄1號","121.515208333333","25.0169866666667","6500400","永和區"
"234030","746-BX","2018/04/17 18:49:27","新北市永和區得和路321號","121.523423333333","24.9995866666667","6500400","永和區"
"234054","KEA-2590","2018/04/17 18:49:37","新北市永和區環河西路二段113號","121.506151666667","25.0146983333333","6500400","永和區"
"234013","KEA-2591","2018/04/17 18:49:32","新北市永和區仁愛路202巷34號","121.508985","25.01317","6500400","永和區"
"234061","AAD-866","2018/04/17 18:49:35","新北市永和區福和路309巷1號","121.5163","25.0069933333333","6500400","永和區"
"234042","862-TW","2018/04/17 18:49:32","新北市永和區永貞路308號","121.511825","25.00487","6500400","永和區"
"234050","863-TW","2018/04/17 18:49:20","新北市永和區福和路1號","121.52628","25.0097166666667","6500400","永和區"
"234026","9371-KE","2018/04/17 18:49:29","新北市永和區自由街58號","121.513801666667","25.0059416666667","6500400","永和區"
"234011","9373-KE","2018/04/17 18:49:21","新北市永和區文化路124號","121.513075","25.0153033333333","6500400","永和區"
"249005","172-UM","2018/04/17 18:49:24","新北市八里區長道坑17號","121.396346666667","25.1156783333333","6502300","八里區"
"249001","173-UM","2018/04/17 18:49:28","新北市八里區龍米路二段36-3號","121.448321666667","25.140415","6502300","八里區"
"249004","303-UY","2018/04/17 18:49:36","新北市八里區忠孝路423號","121.414571666667","25.1614466666667","6502300","八里區"
"248016","026-BX","2018/04/17 18:49:33","新北市五股區凌雲路一段133巷27-3號","121.448635","25.100885","6501500","五股區"
"248006","077-UY","2018/04/17 18:49:30","新北市五股區四維路1巷1號","121.46712","25.0700216666667","6501500","五股區"
"248008","095-VK","2018/04/17 18:49:32","新北市五股區中興路一段151巷1弄2號","121.465055","25.0731033333333","6501500","五股區"
"248020","225-UY","2018/04/17 18:49:20","新北市五股區凌雲路三段41-2號","121.430268333333","25.1177683333333","6501500","五股區"
"248012","247-BX","2018/04/17 18:49:29","新北市五股區工商路16號","121.439571666667","25.0832366666667","6501500","五股區"
"248010","272-BY","2018/04/17 18:49:17","新北市五股區水碓五路81號","121.429981666667","25.0719483333333","6501500","五股區"
"248002","678-BX","2018/04/17 18:49:22","新北市五股區成泰路三段437號","121.449875","25.0978533333333","6501500","五股區"
"248004","682-TV","2018/04/17 18:49:23","新北市五股區民義路二段22巷2號","121.420266666667","25.0968683333333","6501500","五股區"
"234023","9380-KE","2018/04/17 18:49:26","新北市永和區竹林路119巷22弄11號","121.521821666667","25.0115266666667","6500400","永和區"
"234077","969-R7","2018/04/17 18:49:34","新北市永和區中正路42巷13號","121.513846666667","24.994075","6500400","永和區"
"234074","AAC-211","2018/04/17 18:49:26","新北市永和區福和路1號","121.526213333333","25.0098016666667","6500400","永和區"
"234003","AAC-295","2018/04/17 18:49:36","新北市永和區中正路708號","121.516051666667","25.0098916666667","6500400","永和區"
"244013","069-UM","2018/04/17 18:49:29","新北市林口區仁愛路二段201-1號","121.377858333333","25.074735","6501700","林口區"
"244007","080-UY","2018/04/17 18:49:35","新北市林口區太平嶺30-1號","121.374865","25.1216066666667","6501700","林口區"
"244019","403-UM","2018/04/17 18:49:36","新北市林口區忠孝路627號","121.379713333333","25.06939","6501700","林口區"
"244023","483-VK","2018/04/17 18:49:29","新北市林口區民權路102號","121.373238333333","25.0827283333333","6501700","林口區"
"244017","485-VK","2018/04/17 18:49:25","新北市林口區文化二路一段20巷50-2號","121.365161666667","25.06635","6501700","林口區"
"244009","656-BX","2018/04/17 18:49:28","新北市林口區竹林路358巷11號","121.392348333333","25.0841383333333","6501700","林口區"
"244011","701-TV","2018/04/17 18:49:29","新北市林口區仁愛路一段285巷38號","121.395523333333","25.07503","6501700","林口區"
"244025","837-TS","2018/04/17 18:49:36","新北市林口區南勢里57-3號","121.360191666667","25.077945","6501700","林口區"
"244021","838-TS","2018/04/17 18:49:26","新北市林口區自強二街1-4號","121.397256666667","25.0785433333333","6501700","林口區"
"243012","AAD-798","2018/04/17 18:49:21","新北市泰山區福興三街13號","121.434426666667","25.0578166666667","6501600","泰山區"
"243015","380-SR","2018/04/17 18:49:39","新北市泰山區泰林路二段370號","121.428546666667","25.063875","6501600","泰山區"
"243014","421-VK","2018/04/17 18:49:33","新北市泰山區犁頭窠3-1號","121.42219","25.0605583333333","6501600","泰山區"
"243016","680-BX","2018/04/17 18:49:28","新北市泰山區明志路一段514號","121.430275","25.0540816666667","6501600","泰山區"
"222003","436-BY","2018/04/17 18:49:29","新北市深坑區北深路一段300號","121.62432","25.0057766666667","6501800","深坑區"
"222002","659-BX","2018/04/17 18:49:24","新北市深坑區文山路一段69號","121.627006666667","25.0018766666667","6501800","深坑區"
"231041","002-UM","2018/04/17 18:49:32","新北市新店區安華路28-1號","121.519785","24.960705","6500600","新店區"
"231059","046-UY","2018/04/17 18:49:23","新北市新店區安華路28-1號","121.519533333333","24.9608","6500600","新店區"
"231040","047-UY","2018/04/17 18:49:24","新北市新店區中央路85號","121.532248333333","24.9764916666667","6500600","新店區"
"231044","106-UY","2018/04/17 18:49:34","新北市新店區寶中路72號","121.547805","24.980605","6500600","新店區"
"231064","110-UY","2018/04/17 18:49:25","新北市新店區安華路28-1號","121.519143333333","24.9611783333333","6500600","新店區"
"231048","187-VK","2018/04/17 18:49:18","新北市新店區北新路一段72號","121.541448333333","24.967305","6500600","新店區"
"231046","188-VK","2018/04/17 18:49:37","新北市新店區直潭路65號","121.532586666667","24.9422416666667","6500600","新店區"
"231054","KEA-2219","2018/04/17 18:49:20","新北市新店區安華路28-1號","121.519825","24.961465","6500600","新店區"
"231051","278-BY","2018/04/17 18:49:38","新北市新店區中央路67號","121.532506666667","24.9769883333333","6500600","新店區"
"231050","AAD-862","2018/04/17 18:49:36","新北市新店區安康路一段69號","121.53027","24.9610716666667","6500600","新店區"
"231058","3713-VJ","2018/04/17 18:49:31","新北市新店區中興路一段266-6號","121.545055","24.967675","6500600","新店區"
"231066","4716-K9","2018/04/17 18:49:22","新北市新店區安豐路22巷1號","121.501411666667","24.9560983333333","6500600","新店區"
"231056","4715-K9","2018/04/17 18:49:23","新北市新店區建國路150號","121.538771666667","24.9792183333333","6500600","新店區"
"231067","4772-VM","2018/04/17 18:49:23","新北市新店區安康路一段281巷29號","121.523826666667","24.9622816666667","6500600","新店區"
"231065","512-UM","2018/04/17 18:49:32","新北市新店區車子路18-1號","121.50593","24.95461","6500600","新店區"
"231049","513-UM","2018/04/17 18:49:35","新北市新店區中央路177-3號","121.535358333333","24.9693716666667","6500600","新店區"
"231045","617-UM","2018/04/17 18:49:38","新北市新店區秀山路68號","121.530916666667","24.960975","6500600","新店區"
"231061","619-UM","2018/04/17 18:49:25","新北市新店區安華路28-1號","121.51948","24.9607783333333","6500600","新店區"
"231063","641-BX","2018/04/17 18:49:20","新北市新店區安華路28-1號","121.51955","24.9605933333333","6500600","新店區"
"231042","645-TV","2018/04/17 18:49:25","新北市新店區北新路一段91號","121.538715","24.9617183333333","6500600","新店區"
"231053","719-UY","2018/04/17 18:49:30","新北市新店區新烏路一段106號","121.545525","24.93652","6500600","新店區"
"231062","720-UM","2018/04/17 18:49:22","新北市新店區安華路28-1號","121.519315","24.961265","6500600","新店區"
"231043","899-TW","2018/04/17 18:49:21","新北市新店區安康路一段235-1號","121.52513","24.96327","6500600","新店區"
"231055","AKT-0513","2018/04/17 18:49:31","新北市新店區北新路一段271巷9號","121.540478333333","24.966735","6500600","新店區"
"241024","065-VK","2018/04/17 18:49:24","新北市樹林區八德街435號","121.406116666667","24.9694","6500200","三重區"
"235064","005-UY","2018/04/17 18:49:38","新北市中和區連城路75巷6弄1號","121.49818","24.99876","6500300","中和區"
"235063","006-UY","2018/04/17 18:49:19","新北市中和區連城路357號","121.487831666667","24.99625","6500300","中和區"
"235056","096-UM","2018/04/17 18:49:27","新北市中和區員山路516號","121.478965","25.0094366666667","6500300","中和區"
"235039","097-UM","2018/04/17 18:49:33","新北市中和區安樂路143巷9弄2號","121.513796666667","24.9969033333333","6500300","中和區"
"235065","098-UM","2018/04/17 18:49:25","新北市中和區中山路二段2巷21-2號","121.503435","25.0069983333333","6500300","中和區"
"235040","150-BY","2018/04/17 18:49:23","新北市中和區宜安路35號","121.51227","24.9960933333333","6500300","中和區"
"235058","151-BY","2018/04/17 18:49:25","新北市中和區連城路530號","121.475826666667","24.99159","6500300","中和區"
"235055","183-VK","2018/04/17 18:49:35","新北市中和區民生街55號","121.469583333333","25.0050333333333","6500300","中和區"
"235038","185-VK","2018/04/17 18:49:15","新北市中和區立人街12號","121.519345","24.994205","6500300","中和區"
"235049","186-VK","2018/04/17 18:49:36","新北市中和區景安路132巷33號","121.50375","24.99448","6500300","中和區"
"235067","255-BX","2018/04/17 18:49:30","新北市中和區新生街1號","121.483155","25.0047466666667","6500300","中和區"
"235044","293-VK","2018/04/17 18:49:17","新北市中和區中興街119號","121.499908333333","24.9919183333333","6500300","中和區"
"235072","301-VK","2018/04/17 18:49:25","新北市中和區中山路二段119號","121.50282","25.00362","6500300","中和區"
"235043","352-BY","2018/04/17 18:49:33","新北市中和區成功路139號","121.525761666667","24.99034","6500300","中和區"
"235068","377-QA","2018/04/17 18:49:28","新北市中和區中正路211巷38號","121.497703333333","24.9926833333333","6500300","中和區"
"235061","378-QA","2018/04/17 18:49:30","新北市中和區民享街47號","121.474033333333","25.002815","6500300","中和區"
"235060","269-TV","2018/04/17 18:49:20","新北市中和區中山路三段158號","121.473166666667","25.0063133333333","6500300","中和區"
"235050","4979-A6","2018/04/17 18:49:22","新北市中和區忠孝街79號","121.512168333333","24.9851066666667","6500300","中和區"
"235042","551-UM","2018/04/17 18:49:22","新北市中和區秀朗路三段135巷7弄2號","121.525306666667","24.9918483333333","6500300","中和區"
"235070","558-UM","2018/04/17 18:49:30","新北市中和區南山路14號","121.502006666667","24.9985466666667","6500300","中和區"
"235045","565-BX","2018/04/17 18:49:19","新北市中和區景安路213號","121.504416666667","24.9916416666667","6500300","中和區"
"235054","640-BX","2018/04/17 18:49:21","新北市中和區自治街1號","121.474818333333","25.0033616666667","6500300","中和區"
"235047","732-UM","2018/04/17 18:49:20","新北市中和區興南路二段34巷55弄1號","121.50485","24.9862433333333","6500300","中和區"
"235046","733-UM","2018/04/17 18:49:19","新北市中和區仁愛街36巷45號","121.511328333333","24.9865933333333","6500300","中和區"
"235062","800-TS","2018/04/17 18:49:39","新北市中和區中山路二段330號","121.494883333333","25.002335","6500300","中和區"
"235057","801-TS","2018/04/17 18:49:37","新北市中和區民安街25巷11號","121.480533333333","25.000285","6500300","中和區"
"235052","805-TS","2018/04/17 18:49:29","新北市中和區興南路二段399巷98弄48號","121.498906666667","24.9767766666667","6500300","中和區"
"235048","896-TW","2018/04/17 18:49:36","新北市中和區華新街45號","121.507776666667","24.9846183333333","6500300","中和區"
"235053","900-TW","2018/04/17 18:49:27","新北市中和區民德路290巷19號","121.466486666667","24.9959183333333","6500300","中和區"
"235066","911-UM","2018/04/17 18:49:25","新北市中和區水源路18巷5號","121.504046666667","25.0030983333333","6500300","中和區"
"235051","157-BY","2018/04/17 18:49:17","新北市中和區忠孝街1號","121.508835","24.982995","6500300","中和區"
"235037","AAC-213","2018/04/17 18:49:19","新北市中和區秀朗路三段175巷2號","121.524465","24.991225","6500300","中和區"
"235059","AAC-215","2018/04/17 18:49:34","新北市中和區圓通路391-7號","121.489713333333","24.9889983333333","6500300","中和區"
"220068","013-TV","2018/04/17 18:49:38","新北市板橋區民生路二段89-6號","121.47062","25.0188033333333","6500100","板橋區"
"220056","015-TV","2018/04/17 18:49:19","新北市板橋區信義路55號","121.457251666667","24.9957683333333","6500100","板橋區"
"220065","072-UY","2018/04/17 18:49:31","新北市板橋區民族路247巷5弄42號","121.470196666667","25.0084416666667","6500100","板橋區"
"220086","073-UY","2018/04/17 18:49:27","新北市板橋區大智街62號","121.454158333333","25.0154166666667","6500100","板橋區"
"220106","075-UY","2018/04/17 18:49:29","新北市板橋區民生路二段161巷5號","121.470223333333","25.01976","6500100","板橋區"
"220069","AAD-861","2018/04/17 18:49:23","新北市板橋區大華街11號","121.458955","25.0061766666667","6500100","板橋區"
"247010","341-TH","2018/04/17 18:49:17","新北市八里區荖阡坑路34-1號","121.400438333333","25.13129","6501400","蘆洲區"
"226004","205-ST","2018/04/17 18:49:32","新北市平溪區靜安路二段382號","121.738301666667","25.024565","6502400","平溪區"
"235041","251-BX","2018/04/17 18:49:22","新北市中和區宜安路118巷24號","121.511053333333","24.99865","6500300","中和區"
"228001","212-TW","2018/04/17 18:49:26","新北市貢寮區仁理村研海街12-1號","121.923873333333","25.0515766666667","6502600","貢寮區"
"228002","663-BX","2018/04/17 18:49:34","新北市貢寮區福隆里東興街6-11號","121.950715","25.0210616666667","6502600","貢寮區"
"228003","828-UM","2018/04/17 18:49:24","新北市貢寮區和美里龍洞街42號","121.913323333333","25.1126083333333","6502600","貢寮區"
"224006","676-BX","2018/04/17 18:49:20","新北市瑞芳區中正路63-1號","121.806131666667","25.1073816666667","6501200","瑞芳區"
"224002","639-TC","2018/04/17 18:49:30","新北市瑞芳區靜安路四段50號","121.792235","25.10174","6501200","瑞芳區"
"224008","285-BY","2018/04/17 18:49:26","新北市瑞芳區逢甲路325號","121.801018333333","25.1118166666667","6501200","瑞芳區"
"224007","275-VK","2018/04/17 18:49:28","新北市瑞芳區大埔路273號","121.762021666667","25.1006216666667","6501200","瑞芳區"
"224009","273-VK","2018/04/17 18:49:36","新北市瑞芳區祈堂路8號","121.858995","25.11311","6501200","瑞芳區"
"224005","271-BY","2018/04/17 18:49:15","新北市瑞芳區海濱路157-2號","121.828596666667","25.1212966666667","6501200","瑞芳區"
"227003","642-TC","2018/04/17 18:49:29","新北市雙溪區平林里梅竹蹊28號","121.861661666667","25.0360083333333","6502500","雙溪區"
"227009","400-TW","2018/04/17 18:49:22","新北市雙溪區牡丹里聖南14號","121.85883","25.0527333333333","6502500","雙溪區"
"253005","032-BX","2018/04/17 18:49:25","新北市石門區中山路19號","121.56604","25.290295","6502200","石門區"
"253006","295-VK","2018/04/17 18:49:25","新北市石門區下員坑16號","121.510978333333","25.28348","6502200","石門區"
"222001","KEA-2212","2018/04/17 18:49:23","新北市深坑區松柏街30巷1號","121.638733333333","25.01124","6501800","深坑區"
"208002","KEA-2872","2018/04/17 18:49:25","新北市金山區信義路62號","121.63571","25.2189433333333","6502700","金山區"
"208003","665-BX","2018/04/17 18:49:35","新北市金山區中山路351號","121.634833333333","25.2243916666667","6502700","金山區"
"208001","761-BX","2018/04/17 18:49:34","新北市金山區文化三路66巷1號","121.634151666667","25.2256833333333","6502700","金山區"
"251002","012-UM","2018/04/17 18:49:25","新北市淡水區學府路75號","121.448453333333","25.1698833333333","6501000","淡水區"
"251013","179-VK","2018/04/17 18:49:35","新北市淡水區頂田寮路951號","121.485288333333","25.2134033333333","6501000","淡水區"
"251014","180-VK","2018/04/17 18:49:18","新北市淡水區崙頂3號","121.490381666667","25.2239983333333","6501000","淡水區"
"251015","182-VK","2018/04/17 18:49:34","新北市淡水區興福寮100號","121.487458333333","25.1645183333333","6501000","淡水區"
"251010","413-VK","2018/04/17 18:49:25","新北市淡水區沙崙路11號","121.42113","25.1812916666667","6501000","淡水區"
"251012","441-VK","2018/04/17 18:49:32","新北市淡水區新興街7號","121.443703333333","25.1804966666667","6501000","淡水區"
"251016","442-VK","2018/04/17 18:49:24","新北市淡水區下圭柔山71-3號","121.44704","25.20616","6501000","淡水區"
"251001","559-UM","2018/04/17 18:49:28","新北市淡水區自強路277號","121.462445","25.1283616666667","6501000","淡水區"
"251006","561-UM","2018/04/17 18:49:23","新北市淡水區下圭柔山91-3號","121.430926666667","25.2096483333333","6501000","淡水區"
"251009","575-R6","2018/04/17 18:49:24","新北市淡水區重建街103號","121.439965","25.1727283333333","6501000","淡水區"
"251011","650-BX","2018/04/17 18:49:33","新北市淡水區學府路18號","121.447603333333","25.1680316666667","6501000","淡水區"
"251003","673-BX","2018/04/17 18:49:26","新北市淡水區北新路65號","121.446171666667","25.17832","6501000","淡水區"
"207003","550-UM","2018/04/17 18:49:18","新北市萬里區大鵬里頂社24-5號","121.658375","25.208765","6502800","萬里區"
"207004","225-TW","2018/04/17 18:49:20","新北市萬里區萬里里獅頭路23號","121.693236666667","25.178225","6502800","萬里區"
"252002","178-VK","2018/04/17 18:49:40","新北市三芝區中正路一段112號","121.504843333333","25.2563333333333","6502100","三芝區"
"252003","249-BX","2018/04/17 18:49:34","新北市三芝區後厝里大片頭108號","121.458526666667","25.242835","6502100","三芝區"
"252001","292-VK","2018/04/17 18:49:32","新北市三芝區中正路三段9號","121.502901666667","25.25395","6502100","三芝區"
"237004","KEA-2597","2018/04/17 18:49:23","新北市三峽區有木153-1號","121.44613","24.8458083333333","6500900","三峽區"
"237007","153-BY","2018/04/17 18:49:25","新北市三峽區大埔路136號","121.367775","24.9038183333333","6500900","三峽區"
"237011","572-TV","2018/04/17 18:49:21","新北市三峽區介壽路二段91-3號","121.39166","24.9354233333333","6500900","三峽區"
"237013","252-BX","2018/04/17 18:49:22","新北市三峽區光明路69巷25號","121.376683333333","24.9292516666667","6500900","三峽區"
"237012","275-BY","2018/04/17 18:49:18","新北市三峽區三樹路340號","121.383945","24.9433366666667","6500900","三峽區"
"237008","302-VK","2018/04/17 18:49:28","新北市三峽區白雞28-1號","121.370355","24.9121766666667","6500900","三峽區"
"237014","433-BY","2018/04/17 18:49:35","新北市三峽區隆恩街176號","121.36235","24.9427233333333","6500900","三峽區"
"237006","5529-G3","2018/04/17 18:49:26","新北市三峽區溪東路233巷47弄2號","121.410655","24.9346683333333","6500900","三峽區"
"237005","AKY-6261","2018/04/17 18:49:21","新北市三峽區中山路107巷70號","121.363596666667","24.9355666666667","6500900","三峽區"
"236070","105-UM","2018/04/17 18:49:34","新北市土城區延和路21巷23號","121.463801666667","24.988945","6501300","土城區"
"236042","107-UM","2018/04/17 18:49:16","新北市土城區裕民路114巷29號","121.450236666667","24.9856016666667","6501300","土城區"
"236079","166-UM","2018/04/17 18:49:35","新北市土城區中央路四段67巷60號","121.418025","24.9565683333333","6501300","土城區"
"236030","253-BX","2018/04/17 18:49:20","新北市土城區忠義路26巷10號","121.439886666667","24.969875","6501300","土城區"
"236026","269-VK","2018/04/17 18:49:31","新北市土城區興城路66號","121.4412","24.9722466666667","6501300","土城區"
"236014","270-VK","2018/04/17 18:49:35","新北市土城區金城路二段362號","121.462198333333","24.98525","6501300","土城區"
"236038","271-VK","2018/04/17 18:49:17","新北市土城區明德路一段219號","121.463163333333","24.978505","6501300","土城區"
"236021","401-BY","2018/04/17 18:49:30","新北市土城區延吉街253巷3號","121.467693333333","24.984625","6501300","土城區"
"236063","752-BX","2018/04/17 18:49:31","新北市土城區金城路三段207巷8弄23號","121.470481666667","24.9908716666667","6501300","土城區"
"236059","912-UM","2018/04/17 18:49:21","新北市土城區金城路一段86號","121.444793333333","24.9734716666667","6501300","土城區"
"236049","913-UM","2018/04/17 18:49:33","新北市土城區廣福街68巷18弄1號","121.459476666667","24.9904766666667","6501300","土城區"
"236055","AAC-216","2018/04/17 18:49:21","新北市土城區裕民路222號","121.453585","24.9842533333333","6501300","土城區"
"238023","601-UM","2018/04/17 18:49:19","桃園市龜山區萬壽路一段253號","121.404283333333","25.0173616666667","6500700","樹林區"
"238019","599-UM","2018/04/17 18:49:18","新北市樹林區鎮前街425巷2弄6號","121.413686666667","24.982575","6500700","樹林區"
"238018","571-TV","2018/04/17 18:49:21","新北市樹林區鎮前街165號","121.422263333333","24.9870983333333","6500700","樹林區"
"238024","5061-A6","2018/04/17 18:49:19","新北市樹林區八德街500號","121.399966666667","24.9702583333333","6500700","樹林區"
"238022","KEA-2213","2018/04/17 18:49:27","新北市樹林區東順街24號","121.411871666667","24.9785316666667","6500700","樹林區"
"238025","303-VK","2018/04/17 18:49:32","新北市樹林區中山路三段22號","121.395613333333","24.9729516666667","6500700","樹林區"
"238017","283-BY","2018/04/17 18:49:31","新北市樹林區光興街50號","121.40985","25.0027166666667","6500700","樹林區"
"238014","282-BY","2018/04/17 18:49:19","新北市樹林區大安路111巷41號","121.423336666667","24.9976283333333","6500700","樹林區"
"238020","268-VK","2018/04/17 18:49:25","新北市樹林區俊英街83巷1號","121.425805","25.0080116666667","6500700","樹林區"
"238026","172-UY","2018/04/17 18:49:33","新北市樹林區信和街126-1號","121.387638333333","24.9735016666667","6500700","樹林區"
"238016","169-UY","2018/04/17 18:49:23","新北市樹林區文化街27號","121.41916","24.9874483333333","6500700","樹林區"
"239007","AAC-297","2018/04/17 18:49:33","新北市鶯歌區成功街20巷17號","121.359173333333","24.95772","6500800","鶯歌區"
"239006","891-R6","2018/04/17 18:49:31","新北市鶯歌區鶯桃路296巷84弄16號","121.337071666667","24.961525","6500800","鶯歌區"
"239008","527-UM","2018/04/17 18:49:18","新北市鶯歌區國際二路60號","121.335241666667","24.9759666666667","6500800","鶯歌區"
"239005","526-UM","2018/04/17 18:49:26","新北市鶯歌區大湖路361巷22號","121.330385","24.978155","6500800","鶯歌區"
"239001","417-VK","2018/04/17 18:49:32","新北市鶯歌區永明街13號","121.338261666667","24.9551666666667","6500800","鶯歌區"
"239003","360-BY","2018/04/17 18:49:21","新北市鶯歌區鶯桃路658巷49-2號","121.330841666667","24.9702516666667","6500800","鶯歌區"
"239002","359-BY","2018/04/17 18:49:24","新北市鶯歌區中正一路226-1號","121.353813333333","24.95694","6500800","鶯歌區"
"239004","193-VK","2018/04/17 18:49:33","新北市鶯歌區中正三路230巷26號","121.329921666667","24.9399466666667","6500800","鶯歌區"
"221008","489-VK","2018/04/17 18:30:00","新北市汐止區康寧街901號","121.65139","25.074975","6501100","汐止區"
"221036","130-UY","2018/04/17 18:49:21","新北市汐止區水碓街13號","121.664206666667","25.069815","6501100","汐止區"
"221015","131-UY","2018/04/17 18:49:27","新北市汐止區鄉長路一段37號","121.665393333333","25.0749216666667","6501100","汐止區"
"221010","269-BY","2018/04/17 18:49:16","新北市汐止區康寧街901號","121.651576666667","25.074935","6501100","汐止區"
"221012","278-VK","2018/04/17 18:49:34","新北市汐止區康寧街901號","121.650806666667","25.0752866666667","6501100","汐止區"
"221023","279-VK","2018/04/17 18:49:35","新北市汐止區康寧街901號","121.650933333333","25.075185","6501100","汐止區"
"221032","280-BY","2018/04/17 18:49:33","新北市汐止區民權街二段79號","121.61925","25.0481516666667","6501100","汐止區"
"221027","281-BY","2018/04/17 18:49:23","新北市汐止區康寧街901號","121.651485","25.07497","6501100","汐止區"
"221029","298-VK","2018/04/17 18:49:22","新北市汐止區工建路58號","121.640766666667","25.0627283333333","6501100","汐止區"
"221031","353-TW","2018/04/17 18:49:31","新北市汐止區福德一路300巷43號","121.63032","25.064505","6501100","汐止區"
"221035","622-UM","2018/04/17 18:49:20","新北市汐止區汐萬路一段273號","121.650418333333","25.0745433333333","6501100","汐止區"
"221025","623-UM","2018/04/17 18:49:26","新北市汐止區仁愛路32號","121.660351666667","25.0628083333333","6501100","汐止區"
"221038","646-BX","2018/04/17 18:49:25","新北市汐止區康寧街901號","121.650746666667","25.07538","6501100","汐止區"
"221033","647-BX","2018/04/17 18:49:21","新北市汐止區南勢街1巷2號","121.626958333333","25.0374666666667","6501100","汐止區"
"221002","707-TV","2018/04/17 18:49:28","新北市汐止區大同路一段149號","121.632036666667","25.05605","6501100","汐止區"
"221018","753-BX","2018/04/17 18:49:19","新北市汐止區汐萬路一段39號","121.655206666667","25.0689066666667","6501100","汐止區"
"220079","145-BY","2018/04/17 18:49:40","新北市板橋區民權路202巷7弄28號","121.458938333333","25.0150366666667","6500100","板橋區"
"220080","200-UY","2018/04/17 18:49:27","新北市板橋區大觀路二段265巷60弄55號","121.4413","24.9977816666667","6500100","板橋區"
"220082","610-BX","2018/04/17 18:49:28","新北市板橋區篤行路三段99號","121.426266666667","24.9846666666667","6500100","板橋區"
"220101","245-BX","2018/04/17 18:49:30","新北市板橋區民生路二段161巷1號","121.470141666667","25.0198866666667","6500100","板橋區"
"220103","257-TC","2018/04/17 18:49:20","新北市板橋區民生路二段161巷5號","121.470241666667","25.019725","6500100","板橋區"
"220072","277-BY","2018/04/17 18:49:36","新北市板橋區大觀路三段36巷24弄3號","121.434076666667","24.9963183333333","6500100","板橋區"
"220071","283-VK","2018/04/17 18:49:29","新北市板橋區忠孝路176巷7號","121.464761666667","25.0018666666667","6500100","板橋區"
"220094","285-UM","2018/04/17 18:49:30","新北市板橋區民生路二段161巷3號","121.470048333333","25.0197683333333","6500100","板橋區"
"220053","285-VK","2018/04/17 18:49:29","新北市板橋區民生路二段121號","121.47074","25.018355","6500100","板橋區"
"220083","286-VK","2018/04/17 18:49:21","新北市板橋區僑中二街124巷2號","121.445435","25.0053566666667","6500100","板橋區"
"220081","287-VK","2018/04/17 18:49:34","新北市板橋區光華街13巷9號","121.453778333333","25.0114116666667","6500100","板橋區"
"220090","288-VK","2018/04/17 18:49:39","新北市板橋區民生路二段161巷9號","121.470301666667","25.0196666666667","6500100","板橋區"
"220061","293-UM","2018/04/17 18:49:32","新北市板橋區民生路二段121號","121.470913333333","25.01831","6500100","板橋區"
"242009","281-VK","2018/04/17 18:49:36","新北市樹林區中山路三段210-2號","121.380718333333","24.9662733333333","6500500","新莊區"
"220075","303-R5","2018/04/17 18:49:26","新北市板橋區南雅東路100巷2號","121.454015","25.0075483333333","6500100","板橋區"
"220062","305-R5","2018/04/17 18:49:29","新北市板橋區民生路二段103號","121.471298333333","25.017815","6500100","板橋區"
"220092","307-R5","2018/04/17 18:49:16","新北市板橋區民生路二段161巷7號","121.470271666667","25.0197083333333","6500100","板橋區"
"220098","317-R6","2018/04/17 18:49:25","新北市板橋區民生路二段120號","121.47055","25.01958","6500100","板橋區"
"220064","486-VK","2018/04/17 18:49:20","新北市板橋區民生路二段36-1號","121.472185","25.01669","6500100","板橋區"
"220035","560-BX","2018/04/17 18:49:26","新北市板橋區中正路325巷3弄4號","121.453748333333","25.0188683333333","6500100","板橋區"
"220084","568-UM","2018/04/17 18:49:35","新北市板橋區大觀路二段150巷21-1號","121.441601666667","24.999395","6500100","板橋區"
"220063","609-BX","2018/04/17 18:49:22","新北市板橋區介壽街113號","121.470383333333","25.0186933333333","6500100","板橋區"
"220091","637-BX","2018/04/17 18:48:57","新北市板橋區民生路二段161巷1號","121.46997","25.0199333333333","6500100","板橋區"
"220057","686-BX","2018/04/17 18:49:27","新北市板橋區南雅南路二段4巷24號","121.453426666667","25.0037116666667","6500100","板橋區"
"220093","689-BX","2018/04/17 18:49:22","新北市板橋區民生路二段161巷1號","121.470141666667","25.020185","6500100","板橋區"
"220054","741-BX","2018/04/17 18:49:25","新北市板橋區館前西路4-1號","121.459175","25.00709","6500100","板橋區"
"220102","KEA-2699","2018/04/17 18:49:26","新北市板橋區民生路二段89-6號","121.470553333333","25.0193966666667","6500100","板橋區"
"220070","806-UM","2018/04/17 18:49:20","新北市板橋區館前西路11號","121.459005","25.007","6500100","板橋區"
"220055","827-TW","2018/04/17 18:49:30","新北市板橋區縣民大道一段308號","121.461445","25.0107416666667","6500100","板橋區"
"220067","830-TW","2018/04/17 18:49:17","新北市板橋區民生路二段89-6號","121.470675","25.0192766666667","6500100","板橋區"
"220074","895-R6","2018/04/17 18:49:31","新北市板橋區南雅西路二段4號","121.453595","25.009","6500100","板橋區"
"220073","985-R7","2018/04/17 18:49:20","新北市板橋區林園街54號","121.453926666667","25.0107333333333","6500100","板橋區"
"220097","AAC-210","2018/04/17 18:48:24","新北市板橋區中山路二段89巷14弄5號","121.474371666667","25.0165666666667","6500100","板橋區"
"220077","AAC-253","2018/04/17 18:49:37","新北市板橋區龍興街99巷1號","121.444261666667","25.0029","6500100","板橋區"
