"lineid","car","time","location","longitude","latitude","cityid","cityname"
"234046","148-BY","2018/04/17 19:19:24","新北市永和區得和路375號","121.524703333333","24.999465","6500400","永和區"
"234070","149-BY","2018/04/17 19:19:33","新北市永和區豫溪街74巷7弄2號","121.517165","25.00962","6500400","永和區"
"234007","207-UY","2018/04/17 19:19:31","新北市永和區中山路一段322-1號","121.506516666667","25.0068316666667","6500400","永和區"
"234081","298-R6","2018/04/17 19:19:26","新北市永和區福和路7巷12弄1-1號","121.525488333333","25.0074","6500400","永和區"
"234038","336-UY","2018/04/17 19:19:34","新北市永和區民樂街55巷2號","121.527566666667","24.9983716666667","6500400","永和區"
"234064","337-UY","2018/04/17 19:19:32","新北市永和區永元路17巷6弄2號","121.521336666667","25.0006516666667","6500400","永和區"
"234086","338-UY","2018/04/17 19:19:36","新北市永和區永利路85-1號","121.521501666667","25.0033683333333","6500400","永和區"
"234067","553-UM","2018/04/17 19:19:31","新北市永和區保平路50巷6號","121.511243333333","25.0073966666667","6500400","永和區"
"234017","745-BX","2018/04/17 19:19:32","新北市永和區文化路144巷19弄20號","121.512125","25.016815","6500400","永和區"
"234030","746-BX","2018/04/17 19:19:27","新北市永和區厚德街87號","121.524058333333","24.9987783333333","6500400","永和區"
"234054","KEA-2590","2018/04/17 19:19:35","新北市永和區中興街68巷1號","121.517723333333","25.0118","6500400","永和區"
"234013","KEA-2591","2018/04/17 19:19:27","新北市永和區仁愛路137號","121.51159","25.0129333333333","6500400","永和區"
"234061","AAD-866","2018/04/17 19:19:35","新北市永和區秀朗路一段120號","121.517048333333","25.0036133333333","6500400","永和區"
"234042","862-TW","2018/04/17 19:19:32","新北市永和區保平路151巷3號","121.510151666667","25.00559","6500400","永和區"
"234050","863-TW","2018/04/17 19:19:31","新北市永和區仁愛路104巷10號","121.51214","25.0137133333333","6500400","永和區"
"234026","9371-KE","2018/04/17 19:19:29","新北市永和區安樂路144巷24號","121.515071666667","24.9996583333333","6500400","永和區"
"234011","9373-KE","2018/04/17 19:19:23","新北市永和區保福路二段23巷5號","121.51053","25.0111866666667","6500400","永和區"
"249005","172-UM","2018/04/17 19:19:23","新北市八里區中華路三段170-1號","121.392143333333","25.130515","6502300","八里區"
"249001","173-UM","2018/04/17 19:19:28","新北市八里區文昌路112號","121.409688333333","25.1577566666667","6502300","八里區"
"248020","225-UY","2018/04/17 19:01:50","新北市五股區凌雲路三段69號","121.425343333333","25.12499","6501500","五股區"
"248012","247-BX","2018/04/17 19:19:29","新北市五股區中興路四段48巷11號","121.438535","25.0835133333333","6501500","五股區"
"248010","272-BY","2018/04/17 19:19:17","新北市五股區水碓一路23號","121.430645","25.0713016666667","6501500","五股區"
"248002","678-BX","2018/04/17 19:19:23","新北市五股區凌雲路一段158巷14-1號","121.447816666667","25.103535","6501500","五股區"
"248004","682-TV","2018/04/17 19:19:23","新北市五股區五福路64號","121.433113333333","25.0898216666667","6501500","五股區"
"234023","9380-KE","2018/04/17 19:19:26","新北市永和區竹林路124巷11號","121.519255","25.0112266666667","6500400","永和區"
"234077","969-R7","2018/04/17 19:19:34","新北市永和區民治街72巷10號","121.518081666667","24.9984916666667","6500400","永和區"
"234074","AAC-211","2018/04/17 19:19:26","新北市永和區竹林路44號","121.517621666667","25.0143216666667","6500400","永和區"
"234003","AAC-295","2018/04/17 19:19:36","新北市永和區中山路一段122號","121.51056","25.0101916666667","6500400","永和區"
"244013","069-UM","2018/04/17 19:19:29","新北市林口區文化一路一段126號","121.375625","25.0721","6501700","林口區"
"244007","080-UY","2018/04/17 19:19:34","新北市八里區長道坑34號","121.399111666667","25.091195","6501700","林口區"
"244019","403-UM","2018/04/17 19:19:36","新北市林口區忠孝路597號","121.37768","25.06865","6501700","林口區"
"244023","483-VK","2018/04/17 19:19:29","新北市林口區民富街88號","121.370213333333","25.074665","6501700","林口區"
"244017","485-VK","2018/04/17 19:19:25","新北市林口區嘉溪雅坑5-4號","121.346811666667","25.0997616666667","6501700","林口區"
"244011","701-TV","2018/04/17 19:19:29","新北市林口區湖南里10鄰93號","121.375321666667","25.09005","6501700","林口區"
"244021","838-TS","2018/04/17 19:19:26","新北市八里區中華路三段89-3號","121.393508333333","25.1394466666667","6501700","林口區"
"243012","AAD-798","2018/04/17 19:19:21","新北市泰山區仁愛路98號","121.433356666667","25.0551433333333","6501600","泰山區"
"243011","297-R6","2018/04/17 19:19:25","新北市泰山區中央路11巷1號","121.42627","25.0428683333333","6501600","泰山區"
"243015","380-SR","2018/04/17 19:19:39","新北市泰山區公園路67號","121.426348333333","25.05528","6501600","泰山區"
"243014","421-VK","2018/04/17 19:19:33","新北市泰山區泰林路二段241號","121.432051666667","25.0621416666667","6501600","泰山區"
"243010","KEA-2215","2018/04/17 19:19:24","新北市泰山區明志路一段494號","121.430295","25.0545916666667","6501600","泰山區"
"243009","KEA-2216","2018/04/17 19:19:25","新北市泰山區和平街2號","121.434076666667","25.0645766666667","6501600","泰山區"
"243013","646-TV","2018/04/17 19:19:26","新北市泰山區明志路三段145巷6弄2號","121.42557","25.0397316666667","6501600","泰山區"
"243016","680-BX","2018/04/17 19:19:07","新北市泰山區明志路3段87-1號","121.425241666667","25.0413833333333","6501600","泰山區"
"222003","436-BY","2018/04/17 19:19:29","新北市深坑區深南路204號","121.626638333333","25.0160066666667","6501800","深坑區"
"222002","659-BX","2018/04/17 19:19:24","新北市深坑區北深路一段177號","121.632533333333","25.0109133333333","6501800","深坑區"
"231041","002-UM","2018/04/17 19:19:32","新北市新店區溪園路245-6號","121.525428333333","24.983295","6500600","新店區"
"231059","046-UY","2018/04/17 19:19:23","新北市新店區安和路二段218-1號","121.517933333333","24.97525","6500600","新店區"
"231040","047-UY","2018/04/17 19:19:25","新北市新店區中華路147號","121.538093333333","24.9704383333333","6500600","新店區"
"231044","106-UY","2018/04/17 19:19:34","新北市新店區中興路三段295號","121.542311666667","24.9850966666667","6500600","新店區"
"231064","110-UY","2018/04/17 19:19:25","新北市新店區安忠路57巷26弄2號","121.51299","24.9588333333333","6500600","新店區"
"231048","187-VK","2018/04/17 19:19:18","新北市新店區中興路二段57巷24號","121.545521666667","24.971015","6500600","新店區"
"231046","188-VK","2018/04/17 19:19:17","新北市新店區華城路36巷1-1號","121.528418333333","24.9553083333333","6500600","新店區"
"231054","KEA-2219","2018/04/17 19:19:20","新北市新店區國校路45-1號","121.5379","24.9550183333333","6500600","新店區"
"231051","278-BY","2018/04/17 19:19:38","新北市新店區中央路69號","121.53232","24.9769466666667","6500600","新店區"
"231050","AAD-862","2018/04/17 19:19:36","新北市新店區竹林路63號","121.552965","24.9512416666667","6500600","新店區"
"231058","3713-VJ","2018/04/17 19:19:31","新北市新店區北新路二段226號","121.542793333333","24.9772433333333","6500600","新店區"
"231066","4716-K9","2018/04/17 19:19:22","新北市新店區安康路三段355巷24號","121.484898333333","24.949725","6500600","新店區"
"231056","4715-K9","2018/04/17 19:19:23","新北市新店區溪園路401號","121.523811666667","24.978045","6500600","新店區"
"231065","512-UM","2018/04/17 19:19:32","新北市新店區安祥路108巷53號","121.474351666667","24.9571783333333","6500600","新店區"
"231049","513-UM","2018/04/17 19:19:34","新北市新店區明德路66號","121.541603333333","24.9796216666667","6500600","新店區"
"231045","617-UM","2018/04/17 19:19:18","新北市新店區北宜路一段270號","121.546036666667","24.9526983333333","6500600","新店區"
"231060","618-UM","2018/04/17 19:19:39","新北市新店區安康路二段128號","121.512671666667","24.9623933333333","6500600","新店區"
"231061","619-UM","2018/04/17 19:19:25","新北市新店區安康路一段94號","121.52776","24.9622033333333","6500600","新店區"
"231063","641-BX","2018/04/17 19:19:35","新北市新店區達觀路14巷1號","121.50363","24.9410733333333","6500600","新店區"
"231042","645-TV","2018/04/17 19:19:25","新北市新店區光明街138巷22號","121.540216666667","24.9607983333333","6500600","新店區"
"231053","719-UY","2018/04/17 19:19:30","新北市新店區櫻花街190號","121.548023333333","24.9198833333333","6500600","新店區"
"231062","720-UM","2018/04/17 19:19:22","新北市新店區安康路一段229號","121.52556","24.9630883333333","6500600","新店區"
"231043","899-TW","2018/04/17 19:19:31","新北市新店區北新路二段108號","121.542966666667","24.9743683333333","6500600","新店區"
"231055","AKT-0513","2018/04/17 19:19:31","新北市新店區安康路二段320巷15弄2號","121.503578333333","24.95948","6500600","新店區"
"241009","060-VK","2018/04/17 19:19:38","新北市三重區溪尾街218巷42號","121.486376666667","25.0809216666667","6500200","三重區"
"241031","061-VK","2018/04/17 19:19:17","新北市三重區重新路四段242-1號","121.485753333333","25.0537433333333","6500200","三重區"
"241017","063-VK","2018/04/17 19:19:39","新北市三重區大同北路172巷2號","121.491831666667","25.0655333333333","6500200","三重區"
"241024","065-VK","2018/04/17 19:19:24","新北市新莊區中正路61巷6號","121.462111666667","25.0382333333333","6500200","三重區"
"241026","066-VK","2018/04/17 19:19:19","新北市三重區中正南路187號","121.493633333333","25.0551","6500200","三重區"
"241032","269-UM","2018/04/17 19:19:24","新北市三重區新生街93-4號","121.483568333333","25.0594116666667","6500200","三重區"
"241007","398-BY","2018/04/17 19:19:22","新北市三重區慈愛街45號","121.485848333333","25.0790366666667","6500200","三重區"
"241035","KEA-2210","2018/04/17 19:19:21","新北市三重區新北大道一段7號","121.489833333333","25.0612483333333","6500200","三重區"
"241006","462-BY","2018/04/17 19:19:26","新北市三重區車路頭街149-2號","121.483791666667","25.0767616666667","6500200","三重區"
"241020","478-VK","2018/04/17 19:19:22","新北市三重區永德街1號","121.489731666667","25.0724516666667","6500200","三重區"
"241030","480-VK","2018/04/17 19:19:24","新北市三重區新興路40號","121.491483333333","25.0533116666667","6500200","三重區"
"241022","887-TS","2018/04/17 19:19:28","新北市三重區重陽路二段72號","121.487205","25.064175","6500200","三重區"
"241029","942-UM","2018/04/17 19:19:36","新北市三重區重安街33號","121.491135","25.056855","6500200","三重區"
"235064","005-UY","2018/04/17 19:19:38","新北市中和區泰和街38巷24號","121.498666666667","25.001075","6500300","中和區"
"235063","006-UY","2018/04/17 19:19:39","新北市中和區中正路628號","121.485458333333","24.9958466666667","6500300","中和區"
"235056","096-UM","2018/04/17 19:19:27","新北市中和區中正路1171號","121.481375","25.0093133333333","6500300","中和區"
"235039","097-UM","2018/04/17 19:19:33","新北市中和區景平路64巷10號","121.522383333333","24.9912383333333","6500300","中和區"
"235065","098-UM","2018/04/17 19:19:25","新北市中和區中山路二段2巷3弄1號","121.504896666667","25.0061166666667","6500300","中和區"
"235040","150-BY","2018/04/17 19:19:23","新北市中和區保健路56號","121.510566666667","24.996785","6500300","中和區"
"235058","151-BY","2018/04/17 19:19:25","新北市中和區連城路469巷79弄2號","121.483491666667","24.9937933333333","6500300","中和區"
"235055","183-VK","2018/04/17 19:19:35","新北市中和區德光路33號","121.470621666667","25.0041333333333","6500300","中和區"
"235038","185-VK","2018/04/17 19:19:35","新北市中和區大仁街10巷48號","121.51939","24.99242","6500300","中和區"
"235049","186-VK","2018/04/17 19:19:16","新北市中和區景新街235號","121.508108333333","24.994515","6500300","中和區"
"235067","255-BX","2018/04/17 19:19:30","新北市中和區新生街193巷1號","121.483983333333","25.0003066666667","6500300","中和區"
"235044","293-VK","2018/04/17 19:19:37","新北市中和區中興街230巷12號","121.499761666667","24.98851","6500300","中和區"
"235072","301-VK","2018/04/17 19:19:25","新北市中和區連城路263巷4弄4號","121.49164","24.9958166666667","6500300","中和區"
"235043","352-BY","2018/04/17 19:19:33","新北市中和區景平路245-1號","121.508968333333","24.9929766666667","6500300","中和區"
"235068","377-QA","2018/04/17 19:19:29","新北市中和區景平路545巷1弄11號","121.498743333333","24.9989683333333","6500300","中和區"
"235061","378-QA","2018/04/17 19:19:30","新北市中和區連城路424號","121.48013","24.995155","6500300","中和區"
"235060","269-TV","2018/04/17 19:19:20","新北市中和區員山路433號","121.480845","25.0037566666667","6500300","中和區"
"235050","4979-A6","2018/04/17 19:19:22","新北市中和區景安路208巷20號","121.503116666667","24.99152","6500300","中和區"
"235042","551-UM","2018/04/17 19:19:22","新北市永和區民有街65號","121.517858333333","24.995855","6500300","中和區"
"235070","558-UM","2018/04/17 19:19:30","新北市中和區連城路47-3號","121.497926666667","25.001655","6500300","中和區"
"235045","565-BX","2018/04/17 19:19:19","新北市中和區景新街423巷35弄9號","121.51401","24.99007","6500300","中和區"
"235054","640-BX","2018/04/17 19:19:34","新北市中和區國光街107巷2弄28號","121.469605","24.999285","6500300","中和區"
"235047","732-UM","2018/04/17 19:19:21","新北市中和區和平街54巷3弄2號","121.508743333333","24.9912","6500300","中和區"
"235046","733-UM","2018/04/17 19:19:39","新北市中和區忠孝街2巷8-5號","121.510361666667","24.9818","6500300","中和區"
"235071","783-BX","2018/04/17 19:19:23","新北市中和區中正路637巷52弄1號","121.485573333333","24.9941016666667","6500300","中和區"
"235057","801-TS","2018/04/17 19:19:37","新北市中和區員山路423巷9號","121.480535","25.0031166666667","6500300","中和區"
"235052","805-TS","2018/04/17 19:19:30","新北市中和區華新街143巷13弄2號","121.5067","24.9808716666667","6500300","中和區"
"235048","896-TW","2018/04/17 19:19:38","新北市中和區信義街113號","121.5122","24.9869533333333","6500300","中和區"
"235053","900-TW","2018/04/17 19:19:27","新北市中和區民德路224號","121.468188333333","24.9977083333333","6500300","中和區"
"235066","911-UM","2018/04/17 19:19:25","新北市中和區中和路159號","121.502765","24.999825","6500300","中和區"
"235051","157-BY","2018/04/17 19:19:37","新北市中和區和平街36號","121.50919","24.9905666666667","6500300","中和區"
"235037","AAC-213","2018/04/17 19:19:38","新北市中和區自立路15巷12號","121.523738333333","24.9957833333333","6500300","中和區"
"235059","AAC-215","2018/04/17 19:19:33","新北市中和區錦和路195巷1弄2號","121.491138333333","24.9908466666667","6500300","中和區"
"220068","013-TV","2018/04/17 19:19:38","新北市板橋區三民路一段1巷49-1號","121.480848333333","25.0248316666667","6500100","板橋區"
"220056","015-TV","2018/04/17 19:19:19","新北市板橋區干城路10號","121.459675","24.9940583333333","6500100","板橋區"
"220065","072-UY","2018/04/17 19:19:31","新北市板橋區國泰街80號","121.467255","25.00667","6500100","板橋區"
"220086","073-UY","2018/04/17 19:19:27","新北市板橋區中正路216巷22號","121.456758333333","25.0186683333333","6500100","板橋區"
"220106","075-UY","2018/04/17 19:19:29","新北市板橋區長江路二段280-8號","121.470016666667","25.03289","6500100","板橋區"
"220069","AAD-861","2018/04/17 19:19:23","新北市板橋區大明街20巷29弄20號","121.457611666667","25.003545","6500100","板橋區"
"247010","341-TH","2018/04/17 19:02:40","新北市五股區中興路三段163號","121.449358333333","25.0808483333333","6501400","蘆洲區"
"247016","007-UY","2018/04/17 18:59:23","新北市五股區中興路三段163號","121.449163333333","25.0808233333333","6501400","蘆洲區"
"226004","205-ST","2018/04/17 19:19:31","新北市平溪區靜安路三段392巷3號","121.784018333333","25.0494533333333","6502400","平溪區"
"235041","251-BX","2018/04/17 19:19:22","新北市中和區景安路7號","121.507996666667","24.999145","6500300","中和區"
"228001","212-TW","2018/04/17 19:19:26","新北市貢寮區真理里新港街10號","121.925523333333","25.0543966666667","6502600","貢寮區"
"228002","663-BX","2018/04/17 19:19:34","新北市貢寮區龍門里復興街8-1號","121.926678333333","25.026615","6502600","貢寮區"
"228003","828-UM","2018/04/17 19:19:24","新北市貢寮區和美里和美街19-2號","121.912776666667","25.0826233333333","6502600","貢寮區"
"224006","676-BX","2018/04/17 19:19:38","新北市瑞芳區中山路157號","121.8022","25.10648","6501200","瑞芳區"
"224008","285-BY","2018/04/17 19:19:26","新北市瑞芳區一坑路285號","121.801193333333","25.1085183333333","6501200","瑞芳區"
"224005","271-BY","2018/04/17 19:19:35","新北市瑞芳區員山子路13-1號","121.822513333333","25.1023166666667","6501200","瑞芳區"
"227003","642-TC","2018/04/17 19:19:29","新北市雙溪區平林里梅竹蹊66-1號","121.860168333333","25.03581","6502500","雙溪區"
"227009","400-TW","2018/04/17 19:19:22","新北市雙溪區新基里新基北街40號","121.868505","25.03801","6502500","雙溪區"
"253005","032-BX","2018/04/17 19:19:25","新北市石門區阿里荖41-1號","121.605895","25.282235","6502200","石門區"
"253006","295-VK","2018/04/17 19:19:25","新北市石門區楓林17-6號","121.53692","25.29245","6502200","石門區"
"222001","KEA-2212","2018/04/17 19:19:23","新北市深坑區北深路二段103號","121.617475","25.0034433333333","6501800","深坑區"
"208002","KEA-2872","2018/04/17 19:19:25","新北市金山區中正路112號","121.632735","25.2217916666667","6502700","金山區"
"208003","665-BX","2018/04/17 19:19:20","新北市金山區忠孝一路56號","121.637533333333","25.2204133333333","6502700","金山區"
"208001","761-BX","2018/04/17 19:19:34","新北市金山區民生路69號","121.64013","25.21973","6502700","金山區"
"251005","010-UM","2018/04/17 19:19:34","新北市淡水區水源街一段31號","121.443285","25.1725266666667","6501000","淡水區"
"251013","179-VK","2018/04/17 19:19:23","新北市淡水區安子內12號","121.481533333333","25.219095","6501000","淡水區"
"251014","180-VK","2018/04/17 19:19:38","新北市淡水區小中寮19-7號","121.484743333333","25.229625","6501000","淡水區"
"251015","182-VK","2018/04/17 19:19:35","新北市淡水區山子邊16巷4號","121.485605","25.1822466666667","6501000","淡水區"
"251010","413-VK","2018/04/17 19:19:25","新北市淡水區沙崙路27號","121.421531666667","25.181565","6501000","淡水區"
"251012","441-VK","2018/04/17 19:19:32","新北市淡水區中山北路三段164號","121.445675","25.196595","6501000","淡水區"
"251016","442-VK","2018/04/17 19:19:24","新北市淡水區下圭柔山119-51號","121.450716666667","25.2084766666667","6501000","淡水區"
"251001","559-UM","2018/04/17 19:19:25","新北市淡水區民權路231號","121.460635","25.1293366666667","6501000","淡水區"
"251006","561-UM","2018/04/17 19:19:23","新北市淡水區大信街33號","121.442033333333","25.1773566666667","6501000","淡水區"
"251009","575-R6","2018/04/17 19:19:24","新北市淡水區北新路31號","121.445165","25.1777733333333","6501000","淡水區"
"251007","577-R6","2018/04/17 19:19:30","新北市淡水區民生路117巷15號","121.464878333333","25.1392533333333","6501000","淡水區"
"251003","673-BX","2018/04/17 19:19:26","新北市淡水區中山路189號","121.441331666667","25.1743516666667","6501000","淡水區"
"207003","550-UM","2018/04/17 19:19:38","新北市萬里區大鵬里萬里加投79-3號","121.647378333333","25.2123066666667","6502800","萬里區"
"207004","225-TW","2018/04/17 19:19:20","新北市萬里區萬里里成功新村44號","121.687708333333","25.1746116666667","6502800","萬里區"
"252002","178-VK","2018/04/17 19:19:20","新北市三芝區淡金路二段18-1號","121.50269","25.25949","6502100","三芝區"
"252001","292-VK","2018/04/17 19:19:32","新北市三芝區長勤街9巷11弄1號","121.501716666667","25.25474","6502100","三芝區"
"237004","KEA-2597","2018/04/17 19:19:23","新北市三峽區有木206號","121.439145","24.8514533333333","6500900","三峽區"
"237007","153-BY","2018/04/17 19:19:25","新北市三峽區二鬮路138號","121.359793333333","24.9078516666667","6500900","三峽區"
"237009","210-TH","2018/04/17 19:19:29","新北市三峽區和平街2-1號","121.370396666667","24.9354666666667","6500900","三峽區"
"237013","252-BX","2018/04/17 19:19:22","新北市三峽區光明路75巷2號","121.377188333333","24.9278083333333","6500900","三峽區"
"237012","275-BY","2018/04/17 19:19:18","新北市三峽區三樹路222巷236弄23號","121.391398333333","24.9430316666667","6500900","三峽區"
"237008","302-VK","2018/04/17 19:19:28","新北市三峽區大同路154號","121.373118333333","24.9267533333333","6500900","三峽區"
"237014","433-BY","2018/04/17 19:19:35","新北市三峽區中山路63巷12號","121.36692","24.9342966666667","6500900","三峽區"
"237006","5529-G3","2018/04/17 19:19:26","新北市三峽區中正路一段336巷15弄2號","121.369955","24.9249666666667","6500900","三峽區"
"237005","AKY-6261","2018/04/17 19:19:21","新北市鶯歌區三鶯路5號","121.356855","24.9406766666667","6500900","三峽區"
"236070","105-UM","2018/04/17 19:19:25","新北市土城區學成路157號","121.448211666667","24.989225","6501300","土城區"
"236079","166-UM","2018/04/17 19:19:27","新北市土城區中央路四段256號","121.414853333333","24.9570883333333","6501300","土城區"
"236026","269-VK","2018/04/17 19:19:29","新北市土城區中央路二段89號","121.442543333333","24.9780383333333","6501300","土城區"
"236014","270-VK","2018/04/17 19:19:35","新北市土城區廣福街68巷20號","121.458428333333","24.99026","6501300","土城區"
"236021","401-BY","2018/04/17 19:19:25","新北市土城區峰廷街3號","121.46908","24.987345","6501300","土城區"
"236059","912-UM","2018/04/17 19:19:22","新北市土城區中央路二段231號","121.440325","24.9724416666667","6501300","土城區"
"236049","913-UM","2018/04/17 19:19:26","新北市土城區明德路一段398-1號","121.453658333333","24.9790833333333","6501300","土城區"
"238015","755-BX","2018/04/17 19:19:29","新北市樹林區備內街1巷31號","121.41258","24.9863166666667","6500700","樹林區"
"238023","601-UM","2018/04/17 19:19:39","新北市樹林區三興路35號","121.396148333333","25.0146883333333","6500700","樹林區"
"238019","599-UM","2018/04/17 19:19:39","新北市樹林區大同街24巷4號","121.417925","24.9828933333333","6500700","樹林區"
"238018","571-TV","2018/04/17 19:19:21","新北市樹林區太平路101號","121.419153333333","24.9810833333333","6500700","樹林區"
"238024","5061-A6","2018/04/17 19:19:39","新北市樹林區福德街47號","121.39953","24.9748116666667","6500700","樹林區"
"238022","KEA-2213","2018/04/17 19:19:27","新北市樹林區中華路307號","121.41651","24.9800366666667","6500700","樹林區"
"238021","KEA-2539","2018/04/17 19:19:35","新北市鶯歌區三鶯路135-1號","121.36138","24.9456166666667","6500700","樹林區"
"238025","303-VK","2018/04/17 19:19:32","新北市樹林區中華路190-6號","121.410001666667","24.980505","6500700","樹林區"
"238017","283-BY","2018/04/17 19:19:31","新北市樹林區光興街77-9號","121.410366666667","25.0027616666667","6500700","樹林區"
"238014","282-BY","2018/04/17 19:19:19","新北市樹林區中正路22-1號","121.42772","24.9994716666667","6500700","樹林區"
"238020","268-VK","2018/04/17 19:19:25","新北市樹林區俊英街121巷17號","121.423821666667","25.010085","6500700","樹林區"
"238026","172-UY","2018/04/17 19:19:33","新北市樹林區佳園路二段157號","121.39009","24.9571116666667","6500700","樹林區"
"238016","169-UY","2018/04/17 19:19:23","新北市樹林區復興路395號","121.414875","24.9845783333333","6500700","樹林區"
"239007","AAC-297","2018/04/17 19:15:53","新北市鶯歌區中山路185號","121.347408333333","24.95687","6500800","鶯歌區"
"239006","891-R6","2018/04/17 19:19:31","新北市鶯歌區建國路496號","121.341348333333","24.9510983333333","6500800","鶯歌區"
"239001","417-VK","2018/04/17 19:19:32","新北市鶯歌區建國路463號","121.339348333333","24.9519916666667","6500800","鶯歌區"
"239003","360-BY","2018/04/17 19:19:21","新北市鶯歌區建國路280號","121.34646","24.9533116666667","6500800","鶯歌區"
"239002","359-BY","2018/04/17 19:19:24","新北市鶯歌區大湖路185巷22號","121.342661666667","24.9704916666667","6500800","鶯歌區"
"239004","193-VK","2018/04/17 19:19:33","新北市鶯歌區二甲路33號","121.34046","24.93728","6500800","鶯歌區"
"221008","489-VK","2018/04/17 19:19:21","新北市汐止區康寧街306號","121.626486666667","25.0672083333333","6501100","汐止區"
"221036","130-UY","2018/04/17 19:11:30","新北市汐止區汐萬路一段256巷1號","121.651713333333","25.0748783333333","6501100","汐止區"
"221015","131-UY","2018/04/17 19:19:27","新北市汐止區康寧街901號","121.651606666667","25.0749516666667","6501100","汐止區"
"221010","269-BY","2018/04/17 19:19:36","新北市汐止區康寧街901號","121.65137","25.0750416666667","6501100","汐止區"
"221012","278-VK","2018/04/17 19:19:35","新北市汐止區汐萬路一段273號","121.65055","25.0744533333333","6501100","汐止區"
"221023","279-VK","2018/04/17 18:51:09","新北市汐止區康寧街901號","121.650928333333","25.0751833333333","6501100","汐止區"
"221027","281-BY","2018/04/17 19:19:23","新北市汐止區康寧街901號","121.651421666667","25.0749566666667","6501100","汐止區"
"221029","298-VK","2018/04/17 19:19:22","新北市汐止區康寧街901號","121.651578333333","25.0749033333333","6501100","汐止區"
"221031","353-TW","2018/04/17 19:19:31","新北市汐止區康寧街901號","121.650858333333","25.0752583333333","6501100","汐止區"
"221025","623-UM","2018/04/17 19:19:26","新北市汐止區康寧街901號","121.651665","25.0748616666667","6501100","汐止區"
"221038","646-BX","2018/04/17 19:19:25","新北市汐止區康寧街901號","121.650705","25.0752716666667","6501100","汐止區"
"221033","647-BX","2018/04/17 19:19:21","新北市汐止區南勢街1巷1號","121.627056666667","25.0374366666667","6501100","汐止區"
"221002","707-TV","2018/04/17 19:19:28","新北市汐止區大同路一段323號","121.638071666667","25.0591466666667","6501100","汐止區"
"220079","145-BY","2018/04/17 19:19:20","新北市板橋區民權路202巷19弄2號","121.460573333333","25.0171","6500100","板橋區"
"220080","200-UY","2018/04/17 19:19:07","新北市板橋區大觀路二段19巷100號","121.449611666667","25.002745","6500100","板橋區"
"220082","610-BX","2018/04/17 19:19:28","新北市板橋區金門街299號","121.430038333333","24.98654","6500100","板橋區"
"220101","245-BX","2018/04/17 19:19:30","新北市板橋區莊敬路39號","121.473548333333","25.0272316666667","6500100","板橋區"
"220103","257-TC","2018/04/17 19:19:31","新北市板橋區文化路一段188巷7弄13號","121.467668333333","25.0198883333333","6500100","板橋區"
"220088","267-BY","2018/04/17 19:19:30","新北市板橋區雙十路二段59號","121.476461666667","25.0265216666667","6500100","板橋區"
"220072","277-BY","2018/04/17 19:19:36","新北市板橋區篤行路二段161巷22-2號","121.429923333333","24.98728","6500100","板橋區"
"220071","283-VK","2018/04/17 19:19:22","新北市板橋區大豐街118號","121.461188333333","25.0011966666667","6500100","板橋區"
"220094","285-UM","2018/04/17 19:19:30","新北市板橋區吳鳳路21巷2號","121.466945","25.031185","6500100","板橋區"
"220053","285-VK","2018/04/17 19:19:37","新北市板橋區富山街53巷2號","121.477543333333","25.02184","6500100","板橋區"
"220083","286-VK","2018/04/17 19:19:34","新北市板橋區大觀路二段174巷166弄16號","121.442433333333","25.0030166666667","6500100","板橋區"
"220081","287-VK","2018/04/17 19:19:34","新北市板橋區南雅西路一段51號","121.453688333333","25.004875","6500100","板橋區"
"220090","288-VK","2018/04/17 19:19:39","新北市板橋區長江路一段106巷13弄35號","121.461363333333","25.02982","6500100","板橋區"
"220061","293-UM","2018/04/17 19:19:32","新北市板橋區中山路二段318巷20弄34號","121.481186666667","25.0187166666667","6500100","板橋區"
"220075","303-R5","2018/04/17 19:19:26","新北市板橋區中正路275巷93號","121.451578333333","25.01851","6500100","板橋區"
"220062","305-R5","2018/04/17 19:19:29","新北市板橋區三民路二段居仁巷1弄55-1號","121.481263333333","25.0139666666667","6500100","板橋區"
"220092","307-R5","2018/04/17 19:19:36","新北市板橋區光武街36巷14號","121.467921666667","25.0261883333333","6500100","板橋區"
"220098","317-R6","2018/04/17 19:19:13","新北市板橋區民有街89巷4號","121.464455","25.0275616666667","6500100","板橋區"
"220064","486-VK","2018/04/17 19:19:33","新北市板橋區中山路一段30號","121.460481666667","25.00851","6500100","板橋區"
"220035","560-BX","2018/04/17 19:19:27","新北市板橋區中正路433巷17號","121.453546666667","25.0234916666667","6500100","板橋區"
"220084","568-UM","2018/04/17 19:19:35","新北市板橋區滿平街136巷8弄11號","121.427356666667","24.9875533333333","6500100","板橋區"
"220063","609-BX","2018/04/17 19:19:22","新北市板橋區三民路二段15號","121.479285","25.0183366666667","6500100","板橋區"
"220091","637-BX","2018/04/17 19:19:37","新北市板橋區大同街52號","121.478813333333","25.027585","6500100","板橋區"
"220057","686-BX","2018/04/17 19:19:27","新北市板橋區廣權路117號","121.465178333333","24.993025","6500100","板橋區"
"220093","689-BX","2018/04/17 19:19:22","新北市板橋區文化路一段160號","121.465533333333","25.019245","6500100","板橋區"
"220054","741-BX","2018/04/17 19:19:37","新北市板橋區重慶路155巷25號","121.463163333333","25.0040766666667","6500100","板橋區"
"220102","KEA-2699","2018/04/17 19:19:26","新北市板橋區文聖街205巷4號","121.48014","25.0265","6500100","板橋區"
"220070","806-UM","2018/04/17 19:19:20","新北市板橋區四川路一段162號","121.45992","25.0032616666667","6500100","板橋區"
"220055","827-TW","2018/04/17 19:19:30","新北市板橋區實踐路65巷6-7號","121.464486666667","25.006515","6500100","板橋區"
"220067","830-TW","2018/04/17 19:19:17","新北市板橋區長安街138巷1弄172號","121.474355","25.0105033333333","6500100","板橋區"
"220096","831-TW","2018/04/17 19:19:33","新北市板橋區大同街14-4號","121.47745","25.0269883333333","6500100","板橋區"
"220089","833-TW","2018/04/17 19:19:37","新北市板橋區文化路一段357號","121.46692","25.0210766666667","6500100","板橋區"
"220074","895-R6","2018/04/17 19:19:31","新北市板橋區民權路182號","121.459178333333","25.0133966666667","6500100","板橋區"
"220073","985-R7","2018/04/17 19:19:39","新北市板橋區新生街16號","121.455581666667","25.0209733333333","6500100","板橋區"
"220097","AAC-210","2018/04/17 19:19:35","新北市板橋區幸福路60巷49號","121.460385","25.0213233333333","6500100","板橋區"
"220077","AAC-253","2018/04/17 19:19:35","新北市板橋區僑中二街90巷1號","121.446388333333","25.0090733333333","6500100","板橋區"
