"lineid","car","time","location","longitude","latitude","cityid","cityname"
"234046","148-BY","2018/04/17 19:29:43","新北市永和區秀朗路二段239號","121.526411666667","24.9998916666667","6500400","永和區"
"234070","149-BY","2018/04/17 19:29:47","新北市永和區竹林路187號","121.520543333333","25.0095916666667","6500400","永和區"
"234007","207-UY","2018/04/17 19:29:31","新北市永和區永和路二段8號","121.514565","25.0101316666667","6500400","永和區"
"234081","298-R6","2018/04/17 19:29:46","新北市永和區環河東路三段40號","121.526595","25.0066566666667","6500400","永和區"
"234038","336-UY","2018/04/17 19:29:41","新北市永和區成功路二段47巷11號","121.527446666667","25.0002283333333","6500400","永和區"
"234064","337-UY","2018/04/17 19:29:32","新北市永和區中正路368巷1弄88號","121.520513333333","25.0006883333333","6500400","永和區"
"234086","338-UY","2018/04/17 19:29:36","新北市永和區林森路29巷2號","121.52616","25.0051233333333","6500400","永和區"
"234067","553-UM","2018/04/17 19:29:31","新北市永和區保平路115號","121.510793333333","25.0065833333333","6500400","永和區"
"234017","745-BX","2018/04/17 19:29:32","新北市永和區環河西路一段61號","121.513425","25.0180983333333","6500400","永和區"
"234030","746-BX","2018/04/17 19:29:47","新北市永和區得和路330號","121.523283333333","24.9993433333333","6500400","永和區"
"234054","KEA-2590","2018/04/17 19:29:37","新北市永和區復興街38號","121.516316666667","25.0130233333333","6500400","永和區"
"234013","KEA-2591","2018/04/17 19:29:27","新北市永和區永和路二段28號","121.514811666667","25.0104233333333","6500400","永和區"
"234061","AAD-866","2018/04/17 19:29:35","新北市永和區中正路570號","121.51713","25.0062366666667","6500400","永和區"
"234042","862-TW","2018/04/17 19:29:32","新北市永和區水源街39巷12號","121.510548333333","25.0037883333333","6500400","永和區"
"234050","863-TW","2018/04/17 19:29:40","新北市永和區信義路104號","121.512325","25.013995","6500400","永和區"
"234026","9371-KE","2018/04/17 19:29:29","新北市永和區安樂路92號","121.51429","24.9989216666667","6500400","永和區"
"234011","9373-KE","2018/04/17 19:29:44","新北市永和區保福路二段125號","121.509906666667","25.01373","6500400","永和區"
"248014","025-BX","2018/04/17 19:29:47","新北市五股區民義路一段157-22號","121.431051666667","25.08677","6501500","五股區"
"248008","095-VK","2018/04/17 19:29:32","新北市五股區中興路一段97號","121.466646666667","25.072965","6501500","五股區"
"248020","225-UY","2018/04/17 19:29:36","新北市五股區凌雲路三段45-2號","121.427823333333","25.120735","6501500","五股區"
"248012","247-BX","2018/04/17 19:29:29","新北市五股區成泰路二段97號","121.43792","25.08436","6501500","五股區"
"248010","272-BY","2018/04/17 19:29:37","新北市五股區水碓一路23號","121.430701666667","25.07131","6501500","五股區"
"248002","678-BX","2018/04/17 19:29:43","新北市五股區凌雲路一段158巷15號","121.447831666667","25.1036083333333","6501500","五股區"
"248004","682-TV","2018/04/17 19:29:43","新北市五股區五福路47號","121.433128333333","25.089655","6501500","五股區"
"234023","9380-KE","2018/04/17 19:29:46","新北市永和區竹林路91巷21弄11號","121.520815","25.012495","6500400","永和區"
"234077","969-R7","2018/04/17 19:29:37","新北市永和區民族街43巷16號","121.519351666667","24.9983066666667","6500400","永和區"
"234074","AAC-211","2018/04/17 19:29:46","新北市永和區環河東路一段122號","121.520571666667","25.0156616666667","6500400","永和區"
"234003","AAC-295","2018/04/17 19:29:36","新北市永和區福和路376號","121.514303333333","25.0077283333333","6500400","永和區"
"244019","403-UM","2018/04/17 19:29:36","新北市林口區四維路110-2號","121.377113333333","25.0784533333333","6501700","林口區"
"244023","483-VK","2018/04/17 19:29:29","新北市林口區文化三路二段1-1號","121.372878333333","25.07844","6501700","林口區"
"244011","701-TV","2018/04/17 19:29:29","新北市林口區嘉寶里42號","121.333868333333","25.1226066666667","6501700","林口區"
"244021","838-TS","2018/04/17 19:29:46","新北市林口區粉寮路二段14號","121.401603333333","25.0852483333333","6501700","林口區"
"243012","AAD-798","2018/04/17 19:29:41","新北市泰山區明志路一段501巷19號","121.431393333333","25.0545883333333","6501600","泰山區"
"243011","297-R6","2018/04/17 19:29:45","新北市泰山區貴子路19-1號","121.427973333333","25.0408966666667","6501600","泰山區"
"243015","380-SR","2018/04/17 19:29:39","新北市泰山區明志路二段101號","121.428416666667","25.051735","6501600","泰山區"
"243014","421-VK","2018/04/17 19:29:33","新北市泰山區中港西路422號","121.433771666667","25.0539216666667","6501600","泰山區"
"243010","KEA-2215","2018/04/17 19:29:45","新北市泰山區民生路17巷34號","121.429351666667","25.0517416666667","6501600","泰山區"
"243009","KEA-2216","2018/04/17 19:29:45","新北市泰山區半山雅5號","121.431258333333","25.0674633333333","6501600","泰山區"
"243013","646-TV","2018/04/17 19:29:44","新北市泰山區貴子路36巷10號","121.42581","25.0414383333333","6501600","泰山區"
"243016","680-BX","2018/04/17 19:29:48","新北市泰山區工專路46號","121.423088333333","25.0401133333333","6501600","泰山區"
"222003","436-BY","2018/04/17 19:29:49","新北市深坑區深南路51-1號","121.621325","25.009765","6501800","深坑區"
"222002","659-BX","2018/04/17 19:29:44","新北市深坑區北深路一段177號","121.632531666667","25.0109033333333","6501800","深坑區"
"231041","002-UM","2018/04/17 19:29:33","新北市新店區中正路547號","121.533756666667","24.9877616666667","6500600","新店區"
"231059","046-UY","2018/04/17 19:29:43","新北市新店區安和路三段7號","121.51815","24.9805666666667","6500600","新店區"
"231040","047-UY","2018/04/17 19:29:45","新北市新店區北新路一段259號","121.540896666667","24.9662716666667","6500600","新店區"
"231044","106-UY","2018/04/17 19:29:34","新北市新店區中興路三段136號","121.54487","24.9800666666667","6500600","新店區"
"231064","110-UY","2018/04/17 19:29:45","新北市新店區安康路二段85巷32號","121.513896666667","24.9619166666667","6500600","新店區"
"231048","187-VK","2018/04/17 19:29:38","新北市新店區五峰路140號","121.544885","24.965715","6500600","新店區"
"231046","188-VK","2018/04/17 19:29:38","新北市新店區光明街145號","121.539345","24.9622333333333","6500600","新店區"
"231054","KEA-2219","2018/04/17 19:29:40","新北市新店區文中路45號","121.539633333333","24.95674","6500600","新店區"
"231057","256-BX","2018/04/17 19:29:40","新北市新店區花園一路三段47號","121.550356666667","24.932965","6500600","新店區"
"231051","278-BY","2018/04/17 19:29:38","新北市新店區中央五街23號","121.529318333333","24.9746366666667","6500600","新店區"
"231050","AAD-862","2018/04/17 19:29:36","新北市新店區竹林路90號","121.554228333333","24.9501216666667","6500600","新店區"
"231058","3713-VJ","2018/04/17 19:29:31","新北市新店區寶橋路85巷35號","121.545206666667","24.9761866666667","6500600","新店區"
"231066","4716-K9","2018/04/17 19:29:48","新北市新店區安康路三段137號","121.489636666667","24.9515316666667","6500600","新店區"
"231067","4772-VM","2018/04/17 19:29:43","新北市新店區秀山路53號","121.530705","24.9605533333333","6500600","新店區"
"231065","512-UM","2018/04/17 19:29:32","新北市新店區安祥路109巷3弄17號","121.478448333333","24.9612116666667","6500600","新店區"
"231049","513-UM","2018/04/17 19:29:34","新北市新店區北新路三段65巷34弄27號","121.539978333333","24.9818983333333","6500600","新店區"
"231045","617-UM","2018/04/17 19:29:38","新北市新店區北宜路二段213號","121.553245","24.9532983333333","6500600","新店區"
"231060","618-UM","2018/04/17 19:29:39","新北市新店區安康路二段55號","121.51429","24.9632583333333","6500600","新店區"
"231061","619-UM","2018/04/17 19:29:46","新北市新店區安康路一段219號","121.525818333333","24.9630216666667","6500600","新店區"
"231063","641-BX","2018/04/17 19:29:40","新北市新店區達觀路16號","121.503211666667","24.9406316666667","6500600","新店區"
"231042","645-TV","2018/04/17 19:29:45","新北市新店區中興路一段24號","121.538695","24.9581716666667","6500600","新店區"
"231053","719-UY","2018/04/17 19:29:50","新北市新店區新烏路二段194號","121.54789","24.9173466666667","6500600","新店區"
"231062","720-UM","2018/04/17 19:29:42","新北市新店區莒光路61巷2號","121.523785","24.957945","6500600","新店區"
"231043","899-TW","2018/04/17 19:29:41","新北市新店區北新路二段200號","121.542983333333","24.9768433333333","6500600","新店區"
"231055","AKT-0513","2018/04/17 19:29:31","新北市新店區中華路83巷67號","121.538281666667","24.967175","6500600","新店區"
"241028","022-UY","2018/04/17 19:29:45","新北市三重區中寮街76號","121.493103333333","25.0582533333333","6500200","三重區"
"241008","059-VK","2018/04/17 19:29:39","新北市三重區永福街111巷35弄13號","121.47747","25.0769083333333","6500200","三重區"
"241009","060-VK","2018/04/17 19:29:38","新北市三重區溪尾街242巷80號","121.485896666667","25.0812566666667","6500200","三重區"
"241031","061-VK","2018/04/17 19:29:37","新北市三重區集美街65-1號","121.48847","25.0541683333333","6500200","三重區"
"241017","063-VK","2018/04/17 19:29:39","新北市三重區中正北路25巷2號","121.49326","25.0627083333333","6500200","三重區"
"241024","065-VK","2018/04/17 19:29:44","新北市三重區中正北路165巷2號","121.478615","25.0696383333333","6500200","三重區"
"241026","066-VK","2018/04/17 19:29:39","新北市三重區文化南路47巷30號","121.499115","25.0609416666667","6500200","三重區"
"241032","269-UM","2018/04/17 19:29:44","新北市三重區三陽路38號","121.485245","25.0586216666667","6500200","三重區"
"241013","270-UM","2018/04/17 19:29:43","新北市三重區仁愛街129巷3號","121.49566","25.0750483333333","6500200","三重區"
"241025","271-UM","2018/04/17 19:29:48","新北市三重區頂崁街210巷36號","121.475773333333","25.0679083333333","6500200","三重區"
"241007","398-BY","2018/04/17 19:29:42","新北市三重區溪尾街124-1號","121.489536666667","25.07948","6500200","三重區"
"241035","KEA-2210","2018/04/17 19:29:41","新北市三重區信義西街1巷3號","121.498113333333","25.0650033333333","6500200","三重區"
"241006","462-BY","2018/04/17 19:29:46","新北市三重區後竹圍街175巷33號","121.485751666667","25.073315","6500200","三重區"
"241020","478-VK","2018/04/17 19:29:42","新北市三重區三和路四段20巷10號","121.4906","25.0738333333333","6500200","三重區"
"241030","480-VK","2018/04/17 19:29:44","新北市三重區成功路41巷13號","121.490315","25.0515616666667","6500200","三重區"
"241022","887-TS","2018/04/17 19:29:48","新北市三重區三民街173號","121.483261666667","25.0649466666667","6500200","三重區"
"241029","942-UM","2018/04/17 19:29:36","新北市三重區中正南路216號","121.493831666667","25.055135","6500200","三重區"
"235064","005-UY","2018/04/17 19:29:38","新北市中和區南山路81巷60號","121.504013333333","24.998","6500300","中和區"
"235063","006-UY","2018/04/17 19:29:39","新北市中和區連城路249巷20號","121.493926666667","24.9961916666667","6500300","中和區"
"235056","096-UM","2018/04/17 19:29:47","新北市中和區中山路三段41號","121.477213333333","25.0053216666667","6500300","中和區"
"235039","097-UM","2018/04/17 19:29:33","新北市中和區秀峰街91號","121.52118","24.99028","6500300","中和區"
"235065","098-UM","2018/04/17 19:29:45","新北市中和區中山路二段2巷13弄13號","121.50345","25.00648","6500300","中和區"
"235040","150-BY","2018/04/17 19:29:43","新北市中和區保健路10巷23弄1號","121.507876666667","24.9966866666667","6500300","中和區"
"235058","151-BY","2018/04/17 19:29:45","新北市中和區連城路322號","121.4834","24.9960033333333","6500300","中和區"
"235055","183-VK","2018/04/17 19:29:35","新北市中和區莒光路120巷54號","121.471648333333","25.0010383333333","6500300","中和區"
"235038","185-VK","2018/04/17 19:29:35","新北市中和區自立路29巷8號","121.522618333333","24.99578","6500300","中和區"
"235049","186-VK","2018/04/17 19:29:36","新北市中和區景新街285巷24號","121.51077","24.9936816666667","6500300","中和區"
"235067","255-BX","2018/04/17 19:29:30","新北市中和區中正路803號","121.484811666667","25.00121","6500300","中和區"
"235044","293-VK","2018/04/17 19:29:37","新北市中和區景安路196號","121.50423","24.9915433333333","6500300","中和區"
"235072","301-VK","2018/04/17 19:29:45","新北市中和區連城路265巷10弄2號","121.49166","24.9954066666667","6500300","中和區"
"235043","352-BY","2018/04/17 19:29:33","新北市中和區景新街145號","121.506405","24.9966116666667","6500300","中和區"
"235068","377-QA","2018/04/17 19:29:28","新北市中和區連勝街57巷25號","121.498408333333","24.99656","6500300","中和區"
"235061","378-QA","2018/04/17 19:29:50","新北市中和區民利街61巷13號","121.478918333333","24.9981066666667","6500300","中和區"
"235060","269-TV","2018/04/17 19:29:41","新北市中和區中山路二段523巷58號","121.482353333333","25.0027766666667","6500300","中和區"
"235050","4979-A6","2018/04/17 19:29:42","新北市中和區中正路456號","121.49072","24.994125","6500300","中和區"
"235042","551-UM","2018/04/17 19:29:42","新北市中和區中安街226號","121.512205","24.9986933333333","6500300","中和區"
"235070","558-UM","2018/04/17 19:29:50","新北市中和區中和路80號","121.501095","25.0006533333333","6500300","中和區"
"235045","565-BX","2018/04/17 19:29:39","新北市中和區景新街399巷2號","121.512793333333","24.9897533333333","6500300","中和區"
"235054","640-BX","2018/04/17 19:29:41","新北市中和區國光街112巷22弄3號","121.469813333333","25.0023566666667","6500300","中和區"
"235047","732-UM","2018/04/17 19:29:40","新北市中和區景平路241巷64弄8號","121.507758333333","24.9925733333333","6500300","中和區"
"235046","733-UM","2018/04/17 19:29:39","新北市中和區忠孝街37巷67號","121.51057","24.9848","6500300","中和區"
"235071","783-BX","2018/04/17 19:29:46","新北市中和區連城路469巷21弄22號","121.484128333333","24.9949966666667","6500300","中和區"
"235057","801-TS","2018/04/17 19:29:37","新北市中和區中山路三段13號","121.479631666667","25.0059866666667","6500300","中和區"
"235052","805-TS","2018/04/17 19:29:29","新北市中和區華新街143巷67弄1號","121.506758333333","24.9789033333333","6500300","中和區"
"235048","896-TW","2018/04/17 19:29:36","新北市中和區四維街37巷2號","121.512361666667","24.9867383333333","6500300","中和區"
"235053","900-TW","2018/04/17 19:29:47","新北市中和區華順街30巷7號","121.467381666667","24.999225","6500300","中和區"
"235066","911-UM","2018/04/17 19:29:45","新北市中和區景新街48號","121.50378","24.99926","6500300","中和區"
"235051","157-BY","2018/04/17 19:29:37","新北市中和區景新街134號","121.505258333333","24.9979866666667","6500300","中和區"
"235037","AAC-213","2018/04/17 19:29:38","新北市中和區秀朗路三段10巷14弄16號","121.524958333333","24.9966183333333","6500300","中和區"
"235059","AAC-215","2018/04/17 19:29:33","新北市中和區圓通路252巷19號","121.49299","24.9916766666667","6500300","中和區"
"220068","013-TV","2018/04/17 19:29:38","新北市板橋區翠華街6巷85號","121.482131666667","25.02544","6500100","板橋區"
"220056","015-TV","2018/04/17 19:29:40","新北市板橋區信義路1巷26弄30號","121.458323333333","24.9965733333333","6500100","板橋區"
"220065","072-UY","2018/04/17 19:29:31","新北市板橋區國泰街111巷17號","121.466211666667","25.005885","6500100","板橋區"
"220086","073-UY","2018/04/17 19:29:46","新北市板橋區中正路170號","121.45643","25.017175","6500100","板橋區"
"220106","075-UY","2018/04/17 19:29:45","新北市板橋區江寧路三段117號","121.473215","25.0330233333333","6500100","板橋區"
"220069","AAD-861","2018/04/17 19:29:43","新北市板橋區稚暉街13號","121.456398333333","25.0043666666667","6500100","板橋區"
"247010","341-TH","2018/04/17 19:29:35","新北市五股區中興路三段163號","121.449391666667","25.0805433333333","6501400","蘆洲區"
"247008","056-VK","2018/04/17 19:29:34","新北市蘆洲區永安南路二段54號","121.46568","25.0777283333333","6501400","蘆洲區"
"247016","007-UY","2018/04/17 19:29:34","新北市五股區中興路三段163號","121.449281666667","25.0805983333333","6501400","蘆洲區"
"226004","205-ST","2018/04/17 19:29:32","新北市平溪區十分里十分街66巷2號","121.775786666667","25.0421166666667","6502400","平溪區"
"235041","251-BX","2018/04/17 19:29:42","新北市中和區中和路320號","121.509741666667","25.0006183333333","6500300","中和區"
"228001","212-TW","2018/04/17 19:29:45","新北市貢寮區真理里延平街68號","121.925375","25.05744","6502600","貢寮區"
"228002","663-BX","2018/04/17 19:29:34","新北市貢寮區龍門里龍門街78號","121.931016666667","25.0265783333333","6502600","貢寮區"
"228003","828-UM","2018/04/17 19:29:44","新北市貢寮區和美里和美街23-1號","121.913105","25.0826566666667","6502600","貢寮區"
"224006","676-BX","2018/04/17 19:29:40","新北市瑞芳區傑魚坑路311-1號","121.793868333333","25.1061416666667","6501200","瑞芳區"
"227003","642-TC","2018/04/17 19:29:29","新北市雙溪區雙溪里光復街20號","121.865141666667","25.0354733333333","6502500","雙溪區"
"227009","400-TW","2018/04/17 19:29:42","新北市雙溪區新基里新基北街43號","121.86816","25.0397016666667","6502500","雙溪區"
"253005","032-BX","2018/04/17 19:29:44","新北市石門區小坑9號","121.59436","25.2884433333333","6502200","石門區"
"253006","295-VK","2018/04/17 19:29:44","新北市石門區尖子鹿76號","121.573261666667","25.29723","6502200","石門區"
"222001","KEA-2212","2018/04/17 19:29:43","新北市深坑區北深路二段121號","121.616588333333","25.0031166666667","6501800","深坑區"
"208002","KEA-2872","2018/04/17 19:29:45","新北市金山區仁愛路78巷2號","121.63463","25.2215766666667","6502700","金山區"
"208003","665-BX","2018/04/17 19:29:41","新北市金山區忠孝一路107號","121.635998333333","25.2216333333333","6502700","金山區"
"208001","761-BX","2018/04/17 19:29:34","新北市金山區南勢85號","121.624921666667","25.2199766666667","6502700","金山區"
"251005","010-UM","2018/04/17 19:29:34","新北市淡水區水源街一段71巷13號","121.444436666667","25.173","6501000","淡水區"
"251013","179-VK","2018/04/17 19:29:43","新北市淡水區大牛稠6號","121.469883333333","25.2180183333333","6501000","淡水區"
"251014","180-VK","2018/04/17 19:29:38","新北市淡水區小中寮19-7號","121.484716666667","25.2296966666667","6501000","淡水區"
"251008","181-VK","2018/04/17 19:29:44","新北市淡水區中正路一段102號","121.423971666667","25.1777933333333","6501000","淡水區"
"251015","182-VK","2018/04/17 19:29:34","新北市淡水區山子頂22-1號","121.492475","25.1899683333333","6501000","淡水區"
"251010","413-VK","2018/04/17 19:29:45","新北市淡水區中正路二段395號","121.42587","25.1908483333333","6501000","淡水區"
"251012","441-VK","2018/04/17 19:29:32","新北市淡水區中山北路三段164號","121.445663333333","25.1966","6501000","淡水區"
"251016","442-VK","2018/04/17 19:29:44","新北市淡水區下圭柔山119-51號","121.450703333333","25.2084466666667","6501000","淡水區"
"251001","559-UM","2018/04/17 19:29:45","新北市淡水區民權路139-1號","121.459841666667","25.13653","6501000","淡水區"
"251006","561-UM","2018/04/17 19:29:43","新北市淡水區大義街30-1號","121.442588333333","25.1783433333333","6501000","淡水區"
"251009","575-R6","2018/04/17 19:29:45","新北市淡水區北新路32號","121.445235","25.1777233333333","6501000","淡水區"
"251007","577-R6","2018/04/17 19:29:30","新北市淡水區坪頂路46號","121.457721666667","25.1622916666667","6501000","淡水區"
"251011","650-BX","2018/04/17 19:29:48","新北市淡水區中正東路二段161巷11弄22號","121.460708333333","25.1456266666667","6501000","淡水區"
"251003","673-BX","2018/04/17 19:29:46","新北市淡水區中山北路二段375號","121.444211666667","25.1873883333333","6501000","淡水區"
"207003","550-UM","2018/04/17 19:29:38","新北市萬里區大鵬里萬里加投267號","121.644608333333","25.2162266666667","6502800","萬里區"
"207004","225-TW","2018/04/17 19:29:40","新北市萬里區萬里里瑪鋉路121號","121.68901","25.1779983333333","6502800","萬里區"
"252002","178-VK","2018/04/17 19:29:40","新北市三芝區淡金路二段18-1號","121.502688333333","25.2594933333333","6502100","三芝區"
"252001","292-VK","2018/04/17 19:29:32","新北市三芝區長勤街54-1號","121.500096666667","25.25561","6502100","三芝區"
"237004","KEA-2597","2018/04/17 19:29:43","新北市三峽區有木206號","121.439105","24.8514766666667","6500900","三峽區"
"237007","153-BY","2018/04/17 19:29:45","新北市三峽區二鬮路136巷20弄47號","121.357413333333","24.9099483333333","6500900","三峽區"
"237009","210-TH","2018/04/17 19:29:29","新北市三峽區民權街153-1號","121.368398333333","24.9312333333333","6500900","三峽區"
"237013","252-BX","2018/04/17 19:29:42","新北市三峽區介壽路一段269號","121.380131666667","24.93026","6500900","三峽區"
"237012","275-BY","2018/04/17 19:29:38","新北市三峽區三樹路60號","121.377746666667","24.93824","6500900","三峽區"
"237008","302-VK","2018/04/17 19:29:47","新北市三峽區永安街121-1號","121.373975","24.9285216666667","6500900","三峽區"
"237014","433-BY","2018/04/17 19:29:35","新北市三峽區嘉添1-3號","121.368013333333","24.9117716666667","6500900","三峽區"
"237006","5529-G3","2018/04/17 19:29:46","新北市三峽區中正路一段336巷15弄2號","121.369953333333","24.9249716666667","6500900","三峽區"
"237005","AKY-6261","2018/04/17 19:29:41","新北市三峽區復興路367巷1弄1號","121.363645","24.9382416666667","6500900","三峽區"
"236070","105-UM","2018/04/17 19:29:45","新北市土城區學府路一段143巷16號","121.454016666667","24.9856133333333","6501300","土城區"
"236079","166-UM","2018/04/17 19:29:33","新北市土城區中州路27巷25號","121.413256666667","24.95717","6501300","土城區"
"236026","269-VK","2018/04/17 19:29:49","新北市土城區中央路二段61巷28號","121.443438333333","24.9788183333333","6501300","土城區"
"236021","401-BY","2018/04/17 19:29:45","新北市土城區峰廷街3號","121.469085","24.9873283333333","6501300","土城區"
"236049","913-UM","2018/04/17 19:29:46","新北市土城區清水路186號","121.460195","24.98175","6501300","土城區"
"242023","362-BY","2018/04/17 19:29:37","新北市新莊區新泰路255巷83號","121.442261666667","25.038805","6500500","新莊區"
"238015","755-BX","2018/04/17 19:29:29","新北市樹林區復興路227號","121.419946666667","24.99092","6500700","樹林區"
"238023","601-UM","2018/04/17 19:29:39","新北市樹林區三福街29號","121.408603333333","25.016505","6500700","樹林區"
"238019","599-UM","2018/04/17 19:29:38","新北市樹林區中華路190-6號","121.410691666667","24.9806416666667","6500700","樹林區"
"238018","571-TV","2018/04/17 19:29:41","新北市樹林區環河路10號","121.427131666667","24.9782983333333","6500700","樹林區"
"238024","5061-A6","2018/04/17 19:29:40","新北市樹林區山佳街19號","121.393786666667","24.9727833333333","6500700","樹林區"
"238022","KEA-2213","2018/04/17 19:29:47","新北市樹林區名園街11號","121.41923","24.9795616666667","6500700","樹林區"
"238021","KEA-2539","2018/04/17 19:29:35","新北市樹林區柑園街二段203巷16號","121.37691","24.95119","6500700","樹林區"
"238025","303-VK","2018/04/17 19:29:46","新北市樹林區保安二街27號","121.424881666667","24.9936766666667","6500700","樹林區"
"238017","283-BY","2018/04/17 19:29:31","新北市樹林區保安街二段167巷15號","121.414355","25.0028116666667","6500700","樹林區"
"238014","282-BY","2018/04/17 19:29:47","新北市樹林區保安二街40巷35號","121.425866666667","24.9948916666667","6500700","樹林區"
"238020","268-VK","2018/04/17 19:29:45","新北市樹林區俊英街83巷1號","121.42577","25.00805","6500700","樹林區"
"238026","172-UY","2018/04/17 19:29:33","新北市樹林區佳園路三段36號","121.387831666667","24.9536516666667","6500700","樹林區"
"238016","169-UY","2018/04/17 19:29:43","新北市樹林區中山路二段122號","121.413361666667","24.98328","6500700","樹林區"
"239007","AAC-297","2018/04/17 19:15:53","新北市鶯歌區中山路185號","121.347408333333","24.95687","6500800","鶯歌區"
"239006","891-R6","2018/04/17 19:29:31","新北市鶯歌區永昌街17號","121.342911666667","24.949805","6500800","鶯歌區"
"239001","417-VK","2018/04/17 19:29:32","新北市鶯歌區正義新村11號","121.342966666667","24.949345","6500800","鶯歌區"
"239003","360-BY","2018/04/17 19:29:41","新北市鶯歌區中正一路113-1號","121.369566666667","24.957925","6500800","鶯歌區"
"239002","359-BY","2018/04/17 19:29:44","新北市鶯歌區中山路300號","121.34294","24.956975","6500800","鶯歌區"
"239004","193-VK","2018/04/17 19:29:33","新北市鶯歌區二甲路佳美巷31號","121.337928333333","24.9336066666667","6500800","鶯歌區"
"221008","489-VK","2018/04/17 19:29:41","新北市汐止區康寧街145號","121.621881666667","25.0665633333333","6501100","汐止區"
"221036","130-UY","2018/04/17 19:11:30","新北市汐止區汐萬路一段256巷1號","121.651713333333","25.0748783333333","6501100","汐止區"
"221015","131-UY","2018/04/17 19:29:47","新北市汐止區康寧街901號","121.651545","25.07506","6501100","汐止區"
"221010","269-BY","2018/04/17 19:29:36","新北市汐止區連峰街3巷1號","121.6466","25.0764466666667","6501100","汐止區"
"221012","278-VK","2018/04/17 19:29:47","新北市汐止區大同路三段174號","121.674036666667","25.0750466666667","6501100","汐止區"
"221023","279-VK","2018/04/17 19:29:47","新北市汐止區康寧街753巷2弄22號","121.640155","25.074525","6501100","汐止區"
"221027","281-BY","2018/04/17 19:29:43","新北市汐止區忠孝東路9號","121.65829","25.06595","6501100","汐止區"
"221029","298-VK","2018/04/17 19:29:42","新北市汐止區康寧街901號","121.65149","25.074905","6501100","汐止區"
"221031","353-TW","2018/04/17 19:29:31","新北市汐止區康寧街901號","121.6508","25.075215","6501100","汐止區"
"221025","623-UM","2018/04/17 19:29:45","新北市汐止區秀峰路57號","121.659846666667","25.064945","6501100","汐止區"
"221038","646-BX","2018/04/17 19:29:45","新北市汐止區大同路二段430號","121.65914","25.0671916666667","6501100","汐止區"
"221033","647-BX","2018/04/17 19:29:41","新北市汐止區南勢街1巷1號","121.627065","25.037425","6501100","汐止區"
"221002","707-TV","2018/04/17 19:29:48","新北市汐止區中興路17號","121.63699","25.0594033333333","6501100","汐止區"
"220079","145-BY","2018/04/17 19:29:40","新北市板橋區建國街21號","121.457916666667","25.0170733333333","6500100","板橋區"
"220080","200-UY","2018/04/17 19:29:47","新北市板橋區大觀路二段19巷124-8號","121.450558333333","25.0024533333333","6500100","板橋區"
"220082","610-BX","2018/04/17 19:29:48","新北市板橋區篤行路一段30號","121.431863333333","24.99408","6500100","板橋區"
"220101","245-BX","2018/04/17 19:29:30","新北市板橋區縣民大道三段133巷30號","121.477293333333","25.024005","6500100","板橋區"
"220103","257-TC","2018/04/17 19:29:40","新北市板橋區文化路一段266號","121.466856666667","25.0207433333333","6500100","板橋區"
"220088","267-BY","2018/04/17 19:29:30","新北市板橋區雙十路二段157號","121.474513333333","25.0283033333333","6500100","板橋區"
"220072","277-BY","2018/04/17 19:29:36","新北市板橋區金門街253巷10弄5號","121.432976666667","24.98831","6500100","板橋區"
"220071","283-VK","2018/04/17 19:29:43","新北市板橋區忠孝路24巷22號","121.460246666667","25.0009616666667","6500100","板橋區"
"220094","285-UM","2018/04/17 19:29:36","新北市板橋區吳鳳路50巷2號","121.468068333333","25.0304816666667","6500100","板橋區"
"220053","285-VK","2018/04/17 19:29:49","新北市板橋區富山街53巷1弄54號","121.477961666667","25.0205383333333","6500100","板橋區"
"220083","286-VK","2018/04/17 19:29:41","新北市板橋區大觀路二段174巷210號","121.44233","25.0041766666667","6500100","板橋區"
"220081","287-VK","2018/04/17 19:29:34","新北市板橋區大觀路一段75巷26號","121.448168333333","25.0042666666667","6500100","板橋區"
"220090","288-VK","2018/04/17 19:29:39","新北市板橋區長江路一段106巷18弄7號","121.460011666667","25.0284516666667","6500100","板橋區"
"220061","293-UM","2018/04/17 19:29:32","新北市板橋區中山路二段211巷1號","121.476415","25.0172966666667","6500100","板橋區"
"220075","303-R5","2018/04/17 19:29:46","新北市板橋區中正路253巷45號","121.453355","25.01739","6500100","板橋區"
"220062","305-R5","2018/04/17 19:29:31","新北市板橋區三民路二段153巷2弄12-5號","121.479558333333","25.0144316666667","6500100","板橋區"
"220092","307-R5","2018/04/17 19:29:36","新北市板橋區松江街7號","121.46894","25.0261916666667","6500100","板橋區"
"220098","317-R6","2018/04/17 19:29:45","新北市板橋區民生路三段263巷2弄14號","121.463738333333","25.0297916666667","6500100","板橋區"
"220064","486-VK","2018/04/17 19:29:48","新北市板橋區中山路一段127號","121.46226","25.0104033333333","6500100","板橋區"
"242032","280-VK","2018/04/17 19:29:45","新北市新莊區新泰路225巷24號","121.445211666667","25.039135","6500500","新莊區"
"220035","560-BX","2018/04/17 19:29:45","新北市板橋區中正路375巷18號","121.454081666667","25.02084","6500100","板橋區"
"220084","568-UM","2018/04/17 19:29:46","新北市板橋區滿平街84巷120弄23號","121.42633","24.98561","6500100","板橋區"
"220063","609-BX","2018/04/17 19:29:44","新北市板橋區三民路一段31巷87弄1號","121.481536666667","25.0233766666667","6500100","板橋區"
"220091","637-BX","2018/04/17 19:29:37","新北市板橋區文聖街135巷29號","121.479076666667","25.02906","6500100","板橋區"
"220057","686-BX","2018/04/17 19:29:27","新北市板橋區和平路64號","121.46116","24.99446","6500100","板橋區"
"220093","689-BX","2018/04/17 19:29:42","新北市板橋區英士路49號","121.46112","25.0246916666667","6500100","板橋區"
"220054","741-BX","2018/04/17 19:29:45","新北市板橋區忠孝路86號","121.461368333333","25.0020483333333","6500100","板橋區"
"220102","KEA-2699","2018/04/17 19:29:46","新北市板橋區雙十路二段112號","121.474626666667","25.0287816666667","6500100","板橋區"
"220070","806-UM","2018/04/17 19:29:40","新北市板橋區民族路193號","121.468886666667","25.00745","6500100","板橋區"
"220055","827-TW","2018/04/17 19:29:50","新北市板橋區重慶路290巷22弄3號","121.462246666667","24.9991016666667","6500100","板橋區"
"220067","830-TW","2018/04/17 19:29:37","新北市板橋區漢生東路313巷13號","121.472355","25.00832","6500100","板橋區"
"220096","831-TW","2018/04/17 19:29:45","新北市板橋區大同街35巷37號","121.4766","25.0273516666667","6500100","板橋區"
"220089","833-TW","2018/04/17 19:29:32","新北市板橋區民權路174號","121.45956","25.01327","6500100","板橋區"
"220074","895-R6","2018/04/17 19:29:40","新北市板橋區福德街39號","121.45611","25.0086066666667","6500100","板橋區"
"220073","985-R7","2018/04/17 19:29:39","新北市板橋區國光路33號","121.457281666667","25.0176133333333","6500100","板橋區"
"220097","AAC-210","2018/04/17 19:29:44","新北市板橋區漢生西路145號","121.463008333333","25.02179","6500100","板橋區"
"220077","AAC-253","2018/04/17 19:29:50","新北市板橋區僑中二街126巷2號","121.44537","25.0052","6500100","板橋區"
