"lineid","car","time","location","longitude","latitude","cityid","cityname"
"234046","148-BY","2018/04/17 20:09:43","新北市永和區得和路342號","121.523675","24.9993366666667","6500400","永和區"
"234070","149-BY","2018/04/17 20:09:45","新北市永和區福和路185號","121.519863333333","25.007425","6500400","永和區"
"234007","207-UY","2018/04/17 20:09:31","新北市永和區仁愛路295號","121.505141666667","25.0090583333333","6500400","永和區"
"234081","298-R6","2018/04/17 20:09:45","新北市永和區國中路144號","121.523188333333","25.0069966666667","6500400","永和區"
"234038","336-UY","2018/04/17 20:09:41","新北市永和區成功路一段47巷8號","121.527463333333","25.00405","6500400","永和區"
"234064","337-UY","2018/04/17 20:09:32","新北市永和區秀朗路二段46號","121.521463333333","25.0023483333333","6500400","永和區"
"234086","338-UY","2018/04/17 20:09:36","新北市永和區中正路660-1號","121.51683","25.0086916666667","6500400","永和區"
"234067","553-UM","2018/04/17 20:09:33","新北市永和區保平路214巷8弄1號","121.509446666667","25.00631","6500400","永和區"
"234017","745-BX","2018/04/17 20:09:32","新北市永和區文化路111號","121.512793333333","25.0152683333333","6500400","永和區"
"234030","746-BX","2018/04/17 20:09:47","新北市永和區民權路49巷5弄37號","121.521855","24.99789","6500400","永和區"
"234054","KEA-2590","2018/04/17 20:09:35","新北市永和區博愛街15號","121.517196666667","25.0158383333333","6500400","永和區"
"234013","KEA-2591","2018/04/17 20:09:48","新北市永和區永貞路413號","121.507478333333","25.0092916666667","6500400","永和區"
"234061","AAD-866","2018/04/17 20:09:35","新北市永和區中正路283巷84號","121.515508333333","24.9988283333333","6500400","永和區"
"234042","862-TW","2018/04/17 20:09:39","新北市永和區雙和街60號","121.509098333333","25.0033716666667","6500400","永和區"
"234050","863-TW","2018/04/17 20:09:40","新北市永和區環河西路二段151號","121.505598333333","25.013975","6500400","永和區"
"234026","9371-KE","2018/04/17 20:09:49","新北市永和區仁愛路352巷114號","121.500373333333","25.0082783333333","6500400","永和區"
"234011","9373-KE","2018/04/17 20:09:41","新北市永和區仁愛路352巷112弄12號","121.501223333333","25.008545","6500400","永和區"
"249005","172-UM","2018/04/17 20:09:44","新北市八里區下罟子57-28號","121.387696666667","25.1374116666667","6502300","八里區"
"249001","173-UM","2018/04/17 20:09:41","新北市八里區中華路二段312號","121.403733333333","25.148405","6502300","八里區"
"249004","303-UY","2018/04/17 20:09:42","新北市八里區中山路一段398巷52-2號","121.411225","25.1589666666667","6502300","八里區"
"249002","305-UY","2018/04/17 20:09:35","新北市五股區成泰路四段40號","121.4557","25.1097733333333","6502300","八里區"
"249003","593-UM","2018/04/17 20:09:42","新北市八里區中山路二段540巷9弄10號","121.396746666667","25.1469866666667","6502300","八里區"
"248014","025-BX","2018/04/17 20:09:39","新北市五股區成泰路三段436號","121.451956666667","25.0990283333333","6501500","五股區"
"248016","026-BX","2018/04/17 20:09:46","新北市五股區凌雲路一段158巷50弄19號","121.447816666667","25.1043966666667","6501500","五股區"
"248008","095-VK","2018/04/17 20:09:32","新北市三重區中正北路560巷37弄19號","121.469883333333","25.0708416666667","6501500","五股區"
"248020","225-UY","2018/04/17 20:09:36","新北市五股區凌雲路二段14號","121.445591666667","25.102475","6501500","五股區"
"248012","247-BX","2018/04/17 20:09:29","新北市五股區六合街118號","121.430251666667","25.0907966666667","6501500","五股區"
"248010","272-BY","2018/04/17 20:09:37","新北市五股區成泰路一段7巷66號","121.4326","25.0678166666667","6501500","五股區"
"248002","678-BX","2018/04/17 20:09:42","新北市五股區成泰路三段280號","121.447408333333","25.0940733333333","6501500","五股區"
"248004","682-TV","2018/04/17 20:09:43","新北市五股區成泰路一段72-1號","121.43559","25.0699916666667","6501500","五股區"
"234023","9380-KE","2018/04/17 20:09:46","新北市永和區中正路702巷11號","121.516311666667","25.0104333333333","6500400","永和區"
"234077","969-R7","2018/04/17 20:09:34","新北市永和區民光街22巷2號","121.516051666667","24.995715","6500400","永和區"
"234074","AAC-211","2018/04/17 20:09:46","新北市永和區豫溪街134號","121.520961666667","25.0103483333333","6500400","永和區"
"234003","AAC-295","2018/04/17 20:09:36","新北市永和區中正路620號","121.517098333333","25.00785","6500400","永和區"
"243012","AAD-798","2018/04/17 20:09:41","新北市泰山區楓江路48號","121.435378333333","25.0625383333333","6501600","泰山區"
"243011","297-R6","2018/04/17 20:09:45","新北市新莊區丹鳳街34號","121.4216","25.0295283333333","6501600","泰山區"
"243015","380-SR","2018/04/17 20:09:38","新北市泰山區明志路一段431號","121.430676666667","25.056485","6501600","泰山區"
"243014","421-VK","2018/04/17 20:09:33","新北市泰山區明志路一段24號","121.43355","25.0655383333333","6501600","泰山區"
"243010","KEA-2215","2018/04/17 20:09:44","新北市泰山區明志路二段136巷11號","121.426475","25.051395","6501600","泰山區"
"243009","KEA-2216","2018/04/17 20:09:45","新北市泰山區泰林路二段116巷1弄1號","121.434775","25.0593833333333","6501600","泰山區"
"243013","646-TV","2018/04/17 20:09:49","新北市泰山區民國街27號","121.425868333333","25.043635","6501600","泰山區"
"243016","680-BX","2018/04/17 20:09:48","新北市泰山區貴陽街14號","121.421788333333","25.0330566666667","6501600","泰山區"
"222003","436-BY","2018/04/17 20:09:36","新北市深坑區埔新街67號","121.62013","25.00229","6501800","深坑區"
"222002","659-BX","2018/04/17 20:09:44","新北市深坑區北深路三段176號","121.60222","25.003885","6501800","深坑區"
"231041","002-UM","2018/04/17 20:09:32","新北市新店區中正路468號","121.533966666667","24.9793883333333","6500600","新店區"
"231059","046-UY","2018/04/17 20:09:43","新北市新店區安成街35號","121.509808333333","24.9612266666667","6500600","新店區"
"231040","047-UY","2018/04/17 20:09:45","新北市新店區中正路110號","121.542976666667","24.9706166666667","6500600","新店區"
"231044","106-UY","2018/04/17 20:09:34","新北市新店區寶慶街66號","121.541993333333","24.986775","6500600","新店區"
"231064","110-UY","2018/04/17 20:09:45","新北市新店區安康路二段118-9號","121.512996666667","24.963675","6500600","新店區"
"231048","187-VK","2018/04/17 20:09:38","新北市新店區寶橋路59-1號","121.545068333333","24.9751116666667","6500600","新店區"
"231054","KEA-2219","2018/04/17 20:09:40","新北市新店區檳榔路21號","121.541551666667","24.9638116666667","6500600","新店區"
"231057","256-BX","2018/04/17 20:09:40","新北市新店區花園一路一段2號","121.553125","24.9324033333333","6500600","新店區"
"231051","278-BY","2018/04/17 20:09:37","新北市新店區中央路151號","121.5297","24.9724366666667","6500600","新店區"
"231050","AAD-862","2018/04/17 20:09:36","新北市新店區北新路一段335號","121.541818333333","24.9686416666667","6500600","新店區"
"231066","4716-K9","2018/04/17 20:09:42","新北市新店區安德街60巷21號","121.51036","24.96343","6500600","新店區"
"231056","4715-K9","2018/04/17 20:09:43","新北市新店區北新路二段29巷3弄1號","121.542221666667","24.973","6500600","新店區"
"231067","4772-VM","2018/04/17 20:09:43","新北市新店區溪洲路8巷54號","121.533335","24.9622433333333","6500600","新店區"
"231065","512-UM","2018/04/17 20:09:32","新北市新店區安祥路106巷202號","121.474303333333","24.9603666666667","6500600","新店區"
"231049","513-UM","2018/04/17 20:09:34","新北市新店區北新路二段97巷10弄2號","121.542273333333","24.9744683333333","6500600","新店區"
"231045","617-UM","2018/04/17 20:09:38","新北市新店區北宜路一段146號","121.54021","24.9540083333333","6500600","新店區"
"231060","618-UM","2018/04/17 20:09:39","新北市新店區安康路三段273號","121.486256666667","24.9517083333333","6500600","新店區"
"231061","619-UM","2018/04/17 20:09:46","新北市新店區安民街380號","121.516388333333","24.9765716666667","6500600","新店區"
"231063","641-BX","2018/04/17 20:09:40","新北市新店區黎明路54巷2號","121.50235","24.94837","6500600","新店區"
"231042","645-TV","2018/04/17 20:09:45","新北市新店區中興路一段308號","121.546533333333","24.969935","6500600","新店區"
"231068","718-UY","2018/04/17 20:09:36","新北市新店區中興路三段88號","121.54525","24.9788266666667","6500600","新店區"
"231053","719-UY","2018/04/17 20:09:50","新北市新店區新烏路三段290巷7號","121.548621666667","24.8974283333333","6500600","新店區"
"231062","720-UM","2018/04/17 20:09:42","新北市新店區安康路一段228號","121.5232","24.9636433333333","6500600","新店區"
"231043","899-TW","2018/04/17 20:09:41","新北市新店區民族路213號","121.536923333333","24.976035","6500600","新店區"
"231055","AKT-0513","2018/04/17 20:09:31","新北市新店區北新路一段297巷29號","121.540508333333","24.9681466666667","6500600","新店區"
"241011","013-R5","2018/04/17 20:09:47","新北市三重區龍濱路285號","121.501188333333","25.0733666666667","6500200","三重區"
"241028","022-UY","2018/04/17 20:09:46","新北市三重區仁化街147號","121.494696666667","25.0573033333333","6500200","三重區"
"241008","059-VK","2018/04/17 20:09:39","新北市三重區永福街197巷9號","121.479101666667","25.0743983333333","6500200","三重區"
"241009","060-VK","2018/04/17 20:09:41","新北市三重區永安北路一段89號","121.478285","25.077675","6500200","三重區"
"241031","061-VK","2018/04/17 20:09:37","新北市三重區過圳街9-1號","121.48877","25.06013","6500200","三重區"
"241015","062-VK","2018/04/17 20:09:41","新北市三重區福德北路30號","121.50219","25.0650583333333","6500200","三重區"
"241017","063-VK","2018/04/17 20:09:39","新北市三重區長壽西街173號","121.492551666667","25.0665233333333","6500200","三重區"
"241024","065-VK","2018/04/17 20:09:44","新北市三重區力行路一段178巷14號","121.481478333333","25.0713583333333","6500200","三重區"
"241026","066-VK","2018/04/17 20:09:39","新北市三重區福德南路65巷1號","121.502415","25.0605533333333","6500200","三重區"
"241002","090-VK","2018/04/17 20:09:30","新北市三重區仁忠街31號","121.495926666667","25.0820216666667","6500200","三重區"
"241003","091-VK","2018/04/17 20:09:38","新北市三重區富華街18號","121.489636666667","25.0824566666667","6500200","三重區"
"241005","262-UM","2018/04/17 20:09:36","新北市三重區溪尾街327號","121.488458333333","25.0848666666667","6500200","三重區"
"241016","265-UM","2018/04/17 20:09:29","新北市三重區中正北路25巷2號","121.493313333333","25.06272","6500200","三重區"
"241018","268-UM","2018/04/17 20:09:45","新北市三重區正義北路256巷71號","121.49431","25.0680866666667","6500200","三重區"
"241032","269-UM","2018/04/17 20:09:44","新北市三重區捷運路65號","121.483426666667","25.0556516666667","6500200","三重區"
"241013","270-UM","2018/04/17 20:09:44","新北市三重區三和路三段139巷40號","121.494135","25.0741366666667","6500200","三重區"
"241025","271-UM","2018/04/17 20:09:46","新北市三重區中正北路416號","121.47526","25.0707233333333","6500200","三重區"
"241007","398-BY","2018/04/17 20:09:42","新北市三重區三和路四段111-34號","121.486483333333","25.0775066666667","6500200","三重區"
"241035","KEA-2210","2018/04/17 20:09:41","新北市三重區平安街57號","121.49777","25.0641316666667","6500200","三重區"
"241006","462-BY","2018/04/17 20:09:45","新北市三重區力行路二段49-1號","121.482016666667","25.074255","6500200","三重區"
"241004","475-VK","2018/04/17 20:09:34","新北市三重區自強路四段84號","121.490786666667","25.0792033333333","6500200","三重區"
"241020","478-VK","2018/04/17 20:09:42","新北市三重區三和路三段186-2號","121.491911666667","25.073425","6500200","三重區"
"241030","480-VK","2018/04/17 20:09:44","新北市三重區成功路145巷33號","121.487681666667","25.0531533333333","6500200","三重區"
"241014","543-UM","2018/04/17 20:09:36","新北市三重區長樂街90號","121.501371666667","25.0696033333333","6500200","三重區"
"241023","545-UM","2018/04/17 20:09:46","新北市三重區頂崁街220巷2號","121.47698","25.0681366666667","6500200","三重區"
"241001","547-UM","2018/04/17 20:09:41","新北市三重區溪尾街26號","121.490946666667","25.0764333333333","6500200","三重區"
"241019","KEA-2593","2018/04/17 20:09:35","新北市三重區自強路二段33巷28號","121.490253333333","25.06976","6500200","三重區"
"241022","887-TS","2018/04/17 20:09:28","新北市三重區新北大道一段66號","121.487271666667","25.0614366666667","6500200","三重區"
"241012","941-UM","2018/04/17 20:09:46","新北市三重區仁愛街125巷34號","121.497911666667","25.0759333333333","6500200","三重區"
"241029","942-UM","2018/04/17 20:09:36","新北市三重區光明路32巷26號","121.491963333333","25.0587516666667","6500200","三重區"
"235039","097-UM","2018/04/17 20:09:33","新北市中和區景平路278巷16弄24號","121.514446666667","24.9937366666667","6500300","中和區"
"235065","098-UM","2018/04/17 20:09:44","新北市中和區永和路90巷2弄8-2號","121.497586666667","25.0055633333333","6500300","中和區"
"235040","150-BY","2018/04/17 20:08:03","新北市中和區宜安路119巷16號","121.50981","24.9976033333333","6500300","中和區"
"235068","377-QA","2018/04/17 20:09:48","新北市中和區福祥路136號","121.49878","25.007015","6500300","中和區"
"235050","4979-A6","2018/04/17 20:09:42","新北市中和區安樂路3號","121.511423333333","24.9919833333333","6500300","中和區"
"235070","558-UM","2018/04/17 20:09:50","新北市中和區中正路426號","121.491658333333","24.994115","6500300","中和區"
"235066","911-UM","2018/04/17 20:09:45","新北市中和區保平路231號","121.508015","25.0041416666667","6500300","中和區"
"235051","157-BY","2018/04/17 20:09:37","新北市中和區景安路220巷20號","121.502735","24.9914216666667","6500300","中和區"
"235037","AAC-213","2018/04/17 20:09:38","新北市中和區秀朗路三段128巷1弄15號","121.523775","24.9915283333333","6500300","中和區"
"235059","AAC-215","2018/04/17 20:09:33","新北市中和區圓通路335巷33弄15號","121.493106666667","24.9891","6500300","中和區"
"220068","013-TV","2018/04/17 20:09:44","新北市板橋區中山路二段348號","121.481401666667","25.019985","6500100","板橋區"
"220065","072-UY","2018/04/17 20:09:31","新北市板橋區板城路407號","121.44674","24.9955316666667","6500100","板橋區"
"247024","893-R6","2018/04/17 20:09:42","新北市蘆洲區光榮路118號","121.464716666667","25.08875","6501400","蘆洲區"
"247014","546-UM","2018/04/17 20:09:44","新北市蘆洲區中山二路247號","121.470306666667","25.0795583333333","6501400","蘆洲區"
"247022","500-BY","2018/04/17 20:09:47","新北市蘆洲區三民路173號","121.471041666667","25.0873116666667","6501400","蘆洲區"
"247010","341-TH","2018/04/17 20:09:35","新北市蘆洲區中山一路74巷55號","121.479851666667","25.0816483333333","6501400","蘆洲區"
"247012","339-TH","2018/04/17 20:09:32","新北市蘆洲區民族路191號","121.478693333333","25.0889866666667","6501400","蘆洲區"
"247004","337-TH","2018/04/17 20:09:37","新北市蘆洲區長安街285巷26號","121.456941666667","25.0840333333333","6501400","蘆洲區"
"247006","336-TH","2018/04/17 20:09:33","新北市蘆洲區中山二路300巷1號","121.46851","25.0767283333333","6501400","蘆洲區"
"247018","057-VK","2018/04/17 20:09:11","新北市蘆洲區民族路336巷28號","121.477483333333","25.0910916666667","6501400","蘆洲區"
"247008","056-VK","2018/04/17 20:09:33","新北市蘆洲區中山一路195號","121.47442","25.0811333333333","6501400","蘆洲區"
"247016","007-UY","2018/04/17 20:09:34","新北市蘆洲區光華路135號","121.466301666667","25.0822733333333","6501400","蘆洲區"
"247002","002-UY","2018/04/17 20:09:46","新北市蘆洲區永康街54號","121.45917","25.08616","6501400","蘆洲區"
"247020","001-UY","2018/04/17 20:09:47","新北市蘆洲區民權路106巷5弄7號","121.474135","25.0891483333333","6501400","蘆洲區"
"228003","828-UM","2018/04/17 20:09:44","新北市貢寮區仁理村研海街20號","121.928323333333","25.03796","6502600","貢寮區"
"222001","KEA-2212","2018/04/17 20:09:43","新北市深坑區北深路三段191號","121.60121","25.00373","6501800","深坑區"
"208002","KEA-2872","2018/04/17 20:09:45","新北市金山區環金路462號","121.630185","25.2247316666667","6502700","金山區"
"208003","665-BX","2018/04/17 20:09:44","新北市金山區香園6號","121.63427","25.24754","6502700","金山區"
"251002","012-UM","2018/04/17 20:09:45","新北市淡水區中正路199號","121.437901666667","25.1716266666667","6501000","淡水區"
"251013","179-VK","2018/04/17 20:09:49","新北市淡水區奎柔山路752巷65號","121.474098333333","25.20414","6501000","淡水區"
"251014","180-VK","2018/04/17 20:09:38","新北市淡水區石頭厝1號","121.458733333333","25.2355466666667","6501000","淡水區"
"251008","181-VK","2018/04/17 20:09:44","新北市淡水區淡海路72巷30弄14號","121.424888333333","25.1825333333333","6501000","淡水區"
"251015","182-VK","2018/04/17 20:09:34","新北市淡水區埤島3-20號","121.44702","25.1914616666667","6501000","淡水區"
"251010","413-VK","2018/04/17 20:09:45","新北市淡水區新市二路二段8號","121.424801666667","25.1965133333333","6501000","淡水區"
"251012","441-VK","2018/04/17 20:09:48","新北市淡水區淡金路三段216號","121.448936666667","25.20467","6501000","淡水區"
"251016","442-VK","2018/04/17 20:09:47","新北市淡水區番子田18-10號","121.455903333333","25.2300266666667","6501000","淡水區"
"251006","561-UM","2018/04/17 20:09:43","新北市淡水區北新路141巷29號","121.448178333333","25.1796233333333","6501000","淡水區"
"251009","575-R6","2018/04/17 20:09:45","新北市淡水區中山路101號","121.441928333333","25.1706733333333","6501000","淡水區"
"251003","673-BX","2018/04/17 20:09:46","新北市淡水區新市一路二段250號","121.443876666667","25.1829466666667","6501000","淡水區"
"207003","550-UM","2018/04/17 20:09:38","新北市萬里區大鵬里萬里加投180號","121.642976666667","25.215815","6502800","萬里區"
"207004","225-TW","2018/04/17 20:09:40","新北市萬里區北基里大勇路15號","121.681976666667","25.1766866666667","6502800","萬里區"
"252002","178-VK","2018/04/17 20:09:39","新北市三芝區中正路一段72號","121.503968333333","25.25772","6502100","三芝區"
"252001","292-VK","2018/04/17 20:09:32","新北市三芝區公正街9號","121.499721666667","25.2575216666667","6502100","三芝區"
"237012","275-BY","2018/04/17 20:09:38","新北市三峽區中華路73號","121.371878333333","24.9300833333333","6500900","三峽區"
"237006","5529-G3","2018/04/17 20:09:46","新北市三峽區中正路二段299巷35號","121.36705","24.9112516666667","6500900","三峽區"
"237005","AKY-6261","2018/04/17 20:09:41","新北市三峽區三樹路98巷74弄91號","121.385071666667","24.93844","6500900","三峽區"
"236070","105-UM","2018/04/17 20:09:45","新北市土城區中央路三段180號","121.430841666667","24.9650733333333","6501300","土城區"
"236042","107-UM","2018/04/17 20:09:35","新北市土城區學成路22巷4號","121.453483333333","24.98723","6501300","土城區"
"236079","166-UM","2018/04/17 20:09:48","新北市土城區福安街30號","121.41956","24.96489","6501300","土城區"
"236030","253-BX","2018/04/17 20:09:40","新北市土城區中央路一段141號","121.44676","24.98797","6501300","土城區"
"236026","269-VK","2018/04/17 20:09:49","新北市土城區裕生路85號","121.44699","24.98409","6501300","土城區"
"236014","270-VK","2018/04/17 20:09:35","新北市土城區廣興街39號","121.454953333333","24.991635","6501300","土城區"
"236038","271-VK","2018/04/17 20:09:37","新北市土城區延吉街353巷4號","121.464598333333","24.983705","6501300","土城區"
"236021","401-BY","2018/04/17 20:09:44","新北市土城區和城路二段255巷140號","121.476223333333","24.9879816666667","6501300","土城區"
"236063","752-BX","2018/04/17 20:09:44","新北市土城區延和路12巷15號","121.464583333333","24.9874616666667","6501300","土城區"
"236059","912-UM","2018/04/17 20:09:41","新北市土城區中央路二段154號","121.441975","24.9767066666667","6501300","土城區"
"236049","913-UM","2018/04/17 20:09:46","新北市土城區清水路259號","121.463055","24.98445","6501300","土城區"
"236055","AAC-216","2018/04/17 20:09:41","新北市土城區中華路一段172號","121.441341666667","24.9829616666667","6501300","土城區"
"242058","986-R7","2018/04/17 20:09:34","新北市新莊區八德街131號","121.423893333333","25.0203466666667","6500500","新莊區"
"242054","751-BX","2018/04/17 20:09:34","新北市新莊區西盛街395巷22弄6號","121.428313333333","25.012825","6500500","新莊區"
"242027","615-BX","2018/04/17 20:09:50","新北市新莊區幸福路803號","121.44614","25.0490583333333","6500500","新莊區"
"242025","613-BX","2018/04/17 19:48:27","新北市新莊區五權一路12巷21弄6號","121.45786","25.0644866666667","6500500","新莊區"
"242029","612-BX","2018/04/17 20:09:46","新北市新莊區中原路257號","121.448726666667","25.054355","6500500","新莊區"
"242042","566-BX","2018/04/17 20:09:39","新北市新莊區青山路一段199-1號","121.397865","25.03157","6500500","新莊區"
"242046","497-BY","2018/04/17 20:09:46","新北市新莊區裕民街103巷16號","121.418966666667","25.0228683333333","6500500","新莊區"
"242051","441-UM","2018/04/17 20:09:42","新北市新莊區民安西路170號","121.425943333333","25.01603","6500500","新莊區"
"242056","440-UM","2018/04/17 20:09:32","新北市新莊區新莊路649巷15弄32號","121.445476666667","25.0314583333333","6500500","新莊區"
"242037","415-TV","2018/04/17 20:09:41","新北市新莊區建安街9巷6號","121.42909","25.0265816666667","6500500","新莊區"
"242007","413-TV","2018/04/17 20:09:37","新北市新莊區福壽街142巷38號","121.45918","25.0518916666667","6500500","新莊區"
"242044","400-BY","2018/04/17 20:09:39","新北市新莊區中正路895-46號","121.412141666667","25.0213216666667","6500500","新莊區"
"242023","362-BY","2018/04/17 20:09:37","新北市新莊區化成路319號","121.465926666667","25.05578","6500500","新莊區"
"242061","353-BY","2018/04/17 20:09:31","新北市新莊區瓊林路瓊英巷3號","121.443758333333","25.0273283333333","6500500","新莊區"
"242039","133-UY","2018/04/17 20:09:45","新北市新莊區民安西路113-1號","121.426796666667","25.0181883333333","6500500","新莊區"
"242048","172-VK","2018/04/17 20:09:23","新北市新莊區四維路182巷4號","121.422036666667","25.0217716666667","6500500","新莊區"
"242011","173-VK","2018/04/17 19:45:00","新北市新莊區三和路12-21號","121.442001666667","25.03883","6500500","新莊區"
"242017","175-VK","2018/04/17 20:09:45","新北市新莊區中港路397號","121.451746666667","25.046875","6500500","新莊區"
"242005","176-VK","2018/04/17 20:09:42","新北市新莊區頭興街3巷2號","121.463153333333","25.05356","6500500","新莊區"
"242015","346-TH","2018/04/17 20:09:37","新北市新莊區中平路26巷66號","121.447793333333","25.04352","6500500","新莊區"
"242019","347-TH","2018/04/17 20:09:34","新北市新莊區民樂街66號","121.458253333333","25.0421666666667","6500500","新莊區"
"242021","348-TH","2018/04/17 20:09:45","新北市新莊區中興街27號","121.449211666667","25.036545","6500500","新莊區"
"242034","349-TH","2018/04/17 20:09:45","新北市新莊區中正路318巷15號","121.44622","25.0359416666667","6500500","新莊區"
"242013","351-TH","2018/04/17 20:09:40","新北市新莊區幸福路710巷1弄2號","121.449831666667","25.0495366666667","6500500","新莊區"
"238023","601-UM","2018/04/17 20:09:39","新北市樹林區中山路三段343號","121.390283333333","24.9709216666667","6500700","樹林區"
"238021","KEA-2539","2018/04/17 20:09:35","新北市樹林區田尾街208號","121.398248333333","24.9476016666667","6500700","樹林區"
"238014","282-BY","2018/04/17 20:09:39","新北市樹林區中山路三段210-2號","121.38132","24.9656833333333","6500700","樹林區"
"221008","489-VK","2018/04/17 20:09:40","台北市內湖區康樂街87號","121.618781666667","25.0696016666667","6501100","汐止區"
"221036","130-UY","2018/04/17 20:09:46","新北市汐止區新台五路二段102號","121.662606666667","25.0659766666667","6501100","汐止區"
"221015","131-UY","2018/04/17 20:09:26","新北市汐止區建成路21號","121.664251666667","25.0725333333333","6501100","汐止區"
"221010","269-BY","2018/04/17 20:09:36","新北市汐止區八連路二段36巷14號","121.636111666667","25.0948383333333","6501100","汐止區"
"221012","278-VK","2018/04/17 20:09:34","新北市汐止區汐平路二段66號","121.698691666667","25.060975","6501100","汐止區"
"221023","279-VK","2018/04/17 20:09:47","新北市汐止區明峰街298巷2弄2號","121.625313333333","25.0680533333333","6501100","汐止區"
"221032","280-BY","2018/04/17 20:09:42","新北市汐止區弘道街8巷3弄1號","121.617053333333","25.0481766666667","6501100","汐止區"
"221027","281-BY","2018/04/17 20:09:43","新北市汐止區民生街6號","121.66017","25.068945","6501100","汐止區"
"221029","298-VK","2018/04/17 20:09:42","新北市汐止區樟樹一路119巷10弄3號","121.641133333333","25.0645583333333","6501100","汐止區"
"221021","299-VK","2018/04/17 20:09:47","新北市汐止區水源路一段242號","121.654131666667","25.0602516666667","6501100","汐止區"
"221031","353-TW","2018/04/17 20:09:31","新北市汐止區原興路77號","121.631861666667","25.0663216666667","6501100","汐止區"
"221035","622-UM","2018/04/17 20:09:39","新北市汐止區長江街101-5號","121.658646666667","25.0731966666667","6501100","汐止區"
"221025","623-UM","2018/04/17 20:09:45","新北市汐止區水源路一段233號","121.654266666667","25.060535","6501100","汐止區"
"221038","646-BX","2018/04/17 20:09:45","新北市汐止區大同路三段34號","121.666921666667","25.07643","6501100","汐止區"
"221033","647-BX","2018/04/17 20:09:41","新北市汐止區東勢街201巷104號","121.633488333333","25.04292","6501100","汐止區"
"221002","707-TV","2018/04/17 20:09:48","新北市汐止區工建路332號","121.633491666667","25.05967","6501100","汐止區"
"221018","753-BX","2018/04/17 20:09:38","新北市汐止區茄苳路306號","121.673271666667","25.066755","6501100","汐止區"
"220080","200-UY","2018/04/17 20:09:47","新北市板橋區大觀路二段179巷32號","121.446118333333","24.9994983333333","6500100","板橋區"
"242002","KEA-2550","2018/04/17 20:09:46","新北市新莊區中正路145-17號","121.458338333333","25.0376216666667","6500500","新莊區"
"220101","245-BX","2018/04/17 20:09:49","新北市板橋區雙十路二段47巷2弄33號","121.474981666667","25.0267566666667","6500100","板橋區"
"220103","257-TC","2018/04/17 20:09:40","新北市板橋區陽明街86號","121.464343333333","25.0228283333333","6500100","板橋區"
"220088","267-BY","2018/04/17 20:09:50","新北市板橋區民治街84號","121.479381666667","25.0321716666667","6500100","板橋區"
"220071","283-VK","2018/04/17 20:09:42","新北市板橋區廣權路31-1號","121.462458333333","24.99156","6500100","板橋區"
"220083","286-VK","2018/04/17 20:09:41","新北市板橋區僑中二街92巷11號","121.445686666667","25.0089433333333","6500100","板橋區"
"220081","287-VK","2018/04/17 20:09:34","新北市板橋區僑中一街80巷5弄19號","121.446875","25.0125816666667","6500100","板橋區"
"220061","293-UM","2018/04/17 20:09:32","新北市板橋區中山路一段279號","121.4696","25.0138233333333","6500100","板橋區"
"242009","281-VK","2018/04/17 20:09:47","新北市新莊區昌盛街35巷2弄1號","121.454131666667","25.0504066666667","6500500","新莊區"
"220092","307-R5","2018/04/17 20:09:36","新北市板橋區光正街45巷25號","121.461711666667","25.01617","6500100","板橋區"
"220098","317-R6","2018/04/17 20:09:45","新北市板橋區新海路72巷71號","121.461406666667","25.0234066666667","6500100","板橋區"
"242032","280-VK","2018/04/17 20:09:45","新北市新莊區中正路449號","121.44311","25.0340833333333","6500500","新莊區"
"220093","689-BX","2018/04/17 20:09:42","新北市板橋區長江路二段43號","121.464286666667","25.031275","6500100","板橋區"
"220102","KEA-2699","2018/04/17 20:09:45","新北市板橋區民治街126巷3號","121.477761666667","25.0312166666667","6500100","板橋區"
"220070","806-UM","2018/04/17 20:09:40","新北市板橋區四川路二段245巷17號","121.451123333333","24.9930783333333","6500100","板橋區"
"220055","827-TW","2018/04/17 20:09:50","新北市板橋區仁愛路75號","121.460958333333","24.9997333333333","6500100","板橋區"
"220067","830-TW","2018/04/17 20:09:37","新北市板橋區中山路一段206巷77號","121.471863333333","25.013215","6500100","板橋區"
"220089","833-TW","2018/04/17 20:09:46","新北市板橋區互助街22號","121.462671666667","25.0273333333333","6500100","板橋區"
"220097","AAC-210","2018/04/17 20:09:44","新北市板橋區光正街9巷2弄4號","121.462683333333","25.0168683333333","6500100","板橋區"
