"lineid","car","time","location","longitude","latitude","cityid","cityname"
"234070","149-BY","2018/04/17 20:19:47","新北市永和區福和路263巷25號","121.518055","25.0062516666667","6500400","永和區"
"234007","207-UY","2018/04/17 20:19:31","新北市永和區環河西路二段217巷5號","121.501585","25.0099366666667","6500400","永和區"
"234081","298-R6","2018/04/17 20:19:46","新北市永和區福和路57巷14弄2號","121.5228","25.007145","6500400","永和區"
"234038","336-UY","2018/04/17 20:19:41","新北市永和區成功路一段108號","121.526868333333","25.0027566666667","6500400","永和區"
"234064","337-UY","2018/04/17 20:19:32","新北市永和區得和路120號","121.518665","25.0001416666667","6500400","永和區"
"234086","338-UY","2018/04/17 20:19:36","新北市永和區永和路二段207號","121.515408333333","25.0135766666667","6500400","永和區"
"234067","553-UM","2018/04/17 20:19:31","新北市永和區保平路268巷11號","121.508368333333","25.0054483333333","6500400","永和區"
"234017","745-BX","2018/04/17 20:19:32","新北市永和區仁愛路37號","121.514075","25.01334","6500400","永和區"
"234030","746-BX","2018/04/17 20:19:47","新北市中和區自強路20號","121.52023","24.9955416666667","6500400","永和區"
"234054","KEA-2590","2018/04/17 20:19:35","新北市永和區光復街2巷16弄1號","121.517126666667","25.0163633333333","6500400","永和區"
"234013","KEA-2591","2018/04/17 20:19:48","新北市永和區仁愛路282巷6號","121.503503333333","25.0084683333333","6500400","永和區"
"234061","AAD-866","2018/04/17 20:19:44","新北市中和區安平路222號","121.514025","25.0002166666667","6500400","永和區"
"234042","862-TW","2018/04/17 20:19:37","新北市永和區中和路463號","121.510016666667","25.0016083333333","6500400","永和區"
"234050","863-TW","2018/04/17 20:19:40","新北市永和區新生路2-7號","121.509431666667","25.0169033333333","6500400","永和區"
"234026","9371-KE","2018/04/17 20:19:29","新北市永和區保生路55-1號","121.504531666667","25.01089","6500400","永和區"
"234011","9373-KE","2018/04/17 20:19:41","新北市永和區仁愛路352巷122弄13號","121.500696666667","25.0088883333333","6500400","永和區"
"249005","172-UM","2018/04/17 20:19:44","新北市八里區下罟子1-14號","121.389536666667","25.14197","6502300","八里區"
"249001","173-UM","2018/04/17 20:19:41","新北市八里區中華路二段341-10號","121.399086666667","25.144935","6502300","八里區"
"249004","303-UY","2018/04/17 20:19:50","新北市八里區中山路一段129巷20號","121.413708333333","25.1587133333333","6502300","八里區"
"249002","305-UY","2018/04/17 20:19:35","新北市八里區龍米路一段470號","121.45034","25.1351316666667","6502300","八里區"
"249003","593-UM","2018/04/17 20:19:42","新北市八里區中山路二段447巷20號","121.397158333333","25.145205","6502300","八里區"
"248016","026-BX","2018/04/17 20:19:46","新北市五股區天乙路34號","121.448401666667","25.1034866666667","6501500","五股區"
"248012","247-BX","2018/04/17 20:19:28","新北市五股區民義路一段212號","121.430571666667","25.0893683333333","6501500","五股區"
"248010","272-BY","2018/04/17 20:19:37","新北市泰山區新五路一段123號","121.440268333333","25.0622483333333","6501500","五股區"
"248002","678-BX","2018/04/17 20:19:42","新北市五股區成泰路三段101-1號","121.443988333333","25.0902933333333","6501500","五股區"
"248004","682-TV","2018/04/17 20:19:43","新北市五股區成泰路二段106號","121.437673333333","25.08293","6501500","五股區"
"234023","9380-KE","2018/04/17 20:19:48","新北市永和區復興街2巷2號","121.515651666667","25.0126783333333","6500400","永和區"
"234074","AAC-211","2018/04/17 20:19:46","新北市永和區豫溪街156號","121.522943333333","25.00977","6500400","永和區"
"234003","AAC-295","2018/04/17 20:19:36","新北市永和區大新街14號","121.51498","25.0084766666667","6500400","永和區"
"243012","AAD-798","2018/04/17 20:19:47","新北市泰山區楓江路148號","121.440103333333","25.0654616666667","6501600","泰山區"
"243011","297-R6","2018/04/17 20:19:45","新北市泰山區德安街24號","121.418486666667","25.03142","6501600","泰山區"
"243015","380-SR","2018/04/17 20:19:38","新北市泰山區泰林路二段115號","121.434415","25.0594616666667","6501600","泰山區"
"243014","421-VK","2018/04/17 20:19:41","新北市泰山區泰林路二段420號","121.427105","25.0643083333333","6501600","泰山區"
"243010","KEA-2215","2018/04/17 20:19:44","新北市泰山區明志路二段254巷12號","121.426215","25.0477916666667","6501600","泰山區"
"243009","KEA-2216","2018/04/17 20:19:45","新北市泰山區泰林路二段306巷12號","121.431168333333","25.06358","6501600","泰山區"
"243013","646-TV","2018/04/17 20:19:49","新北市泰山區中央路5巷46號","121.428508333333","25.04271","6501600","泰山區"
"243016","680-BX","2018/04/17 20:19:37","新北市泰山區明志路三段277號","121.422933333333","25.0366266666667","6501600","泰山區"
"222003","436-BY","2018/04/17 20:19:36","新北市深坑區文化街43號","121.617533333333","25.0018483333333","6501800","深坑區"
"222002","659-BX","2018/04/17 20:19:44","新北市深坑區萬福路75巷48號","121.598266666667","25.0098816666667","6501800","深坑區"
"231041","002-UM","2018/04/17 20:19:32","新北市新店區民權路44-1號","121.540288333333","24.9829833333333","6500600","新店區"
"231059","046-UY","2018/04/17 20:19:44","新北市新店區安成街35號","121.509808333333","24.9611016666667","6500600","新店區"
"231040","047-UY","2018/04/17 20:19:45","新北市新店區三民路21巷1號","121.539046666667","24.9713716666667","6500600","新店區"
"231044","106-UY","2018/04/17 20:19:34","新北市新店區北新路三段91號","121.541448333333","24.98177","6500600","新店區"
"231064","110-UY","2018/04/17 20:19:45","新北市新店區安利街32號","121.5188","24.975275","6500600","新店區"
"231048","187-VK","2018/04/17 20:19:38","新北市新店區寶橋路132號","121.547298333333","24.97615","6500600","新店區"
"231054","KEA-2219","2018/04/17 20:19:40","新北市新店區檳榔路109號","121.54444","24.9616566666667","6500600","新店區"
"231057","256-BX","2018/04/17 20:19:51","新北市新店區花園五路二段27號","121.554631666667","24.934825","6500600","新店區"
"231051","278-BY","2018/04/17 20:19:38","新北市新店區中央六街54號","121.528053333333","24.9756883333333","6500600","新店區"
"231050","AAD-862","2018/04/17 20:19:36","新北市新店區博愛街6巷1號","121.541095","24.9732933333333","6500600","新店區"
"231058","3713-VJ","2018/04/17 20:19:31","新北市新店區中正路347號","121.535416666667","24.9758183333333","6500600","新店區"
"231066","4716-K9","2018/04/17 20:19:42","新北市新店區安興路96-3號","121.514791666667","24.9766033333333","6500600","新店區"
"231056","4715-K9","2018/04/17 20:19:43","新北市新店區中正路328巷14號","121.537431666667","24.9754716666667","6500600","新店區"
"231067","4772-VM","2018/04/17 20:19:43","新北市新店區安康路一段266巷4號","121.520163333333","24.9639633333333","6500600","新店區"
"231065","512-UM","2018/04/17 20:19:32","新北市新店區安祥路104巷6弄22號","121.48213","24.9625166666667","6500600","新店區"
"231049","513-UM","2018/04/17 20:19:34","新北市新店區北新路一段128-3號","121.54217","24.9699616666667","6500600","新店區"
"231045","617-UM","2018/04/17 20:19:38","新北市新店區新坡一街85號","121.548946666667","24.9645033333333","6500600","新店區"
"231060","618-UM","2018/04/17 20:19:39","新北市新店區錦秀路11巷96弄7號","121.480011666667","24.94195","6500600","新店區"
"231061","619-UM","2018/04/17 20:19:46","新北市新店區安興路49號","121.5164","24.9716283333333","6500600","新店區"
"231063","641-BX","2018/04/17 20:19:40","新北市新店區安康路二段320巷15弄2號","121.504323333333","24.95981","6500600","新店區"
"231042","645-TV","2018/04/17 20:19:45","新北市新店區中興路二段192號","121.548341666667","24.973445","6500600","新店區"
"231068","718-UY","2018/04/17 20:19:42","新北市新店區民權路17號","121.542143333333","24.982795","6500600","新店區"
"231053","719-UY","2018/04/17 20:19:50","新北市新店區新烏路三段3號","121.55244","24.906155","6500600","新店區"
"231062","720-UM","2018/04/17 20:19:22","新北市新店區安泰路7巷16號","121.485645","24.9509733333333","6500600","新店區"
"231043","899-TW","2018/04/17 20:19:41","新北市新店區建國路133號","121.539426666667","24.9782683333333","6500600","新店區"
"231055","AKT-0513","2018/04/17 20:19:31","新北市新店區北新路一段123號","121.539345","24.9625016666667","6500600","新店區"
"241011","013-R5","2018/04/17 20:19:46","新北市三重區龍門路181號","121.499288333333","25.0731416666667","6500200","三重區"
"241028","022-UY","2018/04/17 20:19:45","新北市三重區大同南路103號","121.49621","25.058745","6500200","三重區"
"241008","059-VK","2018/04/17 20:19:39","新北市三重區永福街233號","121.48054","25.0743633333333","6500200","三重區"
"241009","060-VK","2018/04/17 20:19:38","新北市三重區三和路四段382巷40弄2號","121.481495","25.0784966666667","6500200","三重區"
"241031","061-VK","2018/04/17 20:19:43","新北市三重區三寧街15號","121.489488333333","25.059855","6500200","三重區"
"241015","062-VK","2018/04/17 20:19:41","新北市三重區重新路一段128號","121.500303333333","25.06287","6500200","三重區"
"241017","063-VK","2018/04/17 20:19:39","新北市三重區自強路一段290號","121.491443333333","25.068295","6500200","三重區"
"241024","065-VK","2018/04/17 20:19:44","新北市三重區中正北路272號","121.480955","25.0684983333333","6500200","三重區"
"241026","066-VK","2018/04/17 20:19:39","新北市三重區福德南路9巷1-1號","121.50259","25.0635583333333","6500200","三重區"
"241002","090-VK","2018/04/17 20:19:30","新北市三重區仁義街101巷16號","121.498441666667","25.0804383333333","6500200","三重區"
"241003","091-VK","2018/04/17 20:19:38","新北市三重區富華街102號","121.491325","25.0836483333333","6500200","三重區"
"241005","262-UM","2018/04/17 20:19:36","新北市三重區分子尾街94號","121.488801666667","25.0825433333333","6500200","三重區"
"241016","265-UM","2018/04/17 20:19:49","新北市三重區大同北路54巷1號","121.49427","25.0636133333333","6500200","三重區"
"241018","268-UM","2018/04/17 20:19:45","新北市三重區雙園街99號","121.493763333333","25.067325","6500200","三重區"
"241032","269-UM","2018/04/17 20:19:44","新北市三重區捷運路19巷8弄17號","121.484241666667","25.0572966666667","6500200","三重區"
"241013","270-UM","2018/04/17 20:19:43","新北市三重區三和路三段167巷1號","121.49202","25.074095","6500200","三重區"
"241025","271-UM","2018/04/17 20:19:28","新北市三重區自由街16號","121.479723333333","25.066375","6500200","三重區"
"241007","398-BY","2018/04/17 20:19:42","新北市三重區溪尾街108巷61號","121.487431666667","25.0782266666667","6500200","三重區"
"241035","KEA-2210","2018/04/17 20:19:41","新北市三重區正義北路33巷20號","121.49818","25.063865","6500200","三重區"
"241004","475-VK","2018/04/17 20:19:34","新北市三重區自強路四段108號","121.491491666667","25.079955","6500200","三重區"
"241020","478-VK","2018/04/17 20:19:42","新北市三重區三和路三段170巷9號","121.492246666667","25.0729816666667","6500200","三重區"
"241030","480-VK","2018/04/17 20:19:44","新北市三重區環河南路254巷53號","121.488058333333","25.0522683333333","6500200","三重區"
"241014","543-UM","2018/04/17 20:19:36","新北市三重區長榮路75號","121.502545","25.0691133333333","6500200","三重區"
"241023","545-UM","2018/04/17 20:19:46","新北市三重區忠孝路三段99巷11號","121.47997","25.0646033333333","6500200","三重區"
"241001","547-UM","2018/04/17 20:19:32","新北市三重區溪尾街38號","121.490723333333","25.0768383333333","6500200","三重區"
"241019","KEA-2593","2018/04/17 20:19:35","新北市三重區忠孝路一段68號","121.490326666667","25.0720016666667","6500200","三重區"
"241022","887-TS","2018/04/17 20:19:31","新北市三重區市前街14號","121.489126666667","25.062395","6500200","三重區"
"241012","941-UM","2018/04/17 20:19:46","新北市三重區河邊北街379-1號","121.501761666667","25.0764883333333","6500200","三重區"
"241029","942-UM","2018/04/17 20:19:36","新北市三重區集美街225號","121.492018333333","25.0552083333333","6500200","三重區"
"235039","097-UM","2018/04/17 20:19:33","新北市中和區大勇街25巷9弄1號","121.51678","24.9932416666667","6500300","中和區"
"235065","098-UM","2018/04/17 20:19:44","新北市中和區橋和路294號","121.496771666667","25.00682","6500300","中和區"
"235040","150-BY","2018/04/17 20:18:43","新北市中和區安樂路68號","121.512276666667","24.9934666666667","6500300","中和區"
"235050","4979-A6","2018/04/17 20:19:41","新北市中和區景安路177巷10號","121.50581","24.9939716666667","6500300","中和區"
"235026","800-TS","2018/04/17 20:19:39","新北市中和區員山路36巷20號","121.484831666667","24.9902916666667","6500300","中和區"
"235066","911-UM","2018/04/17 20:19:45","新北市中和區保平路275號","121.50726","25.00394","6500300","中和區"
"235059","AAC-215","2018/04/17 20:19:33","新北市中和區員山路30-2號","121.483215","24.9879016666667","6500300","中和區"
"247024","893-R6","2018/04/17 20:19:42","新北市蘆洲區光榮路120巷8弄53號","121.463978333333","25.08745","6501400","蘆洲區"
"247014","546-UM","2018/04/17 20:19:44","新北市蘆洲區中正路1號","121.471623333333","25.0815683333333","6501400","蘆洲區"
"247022","500-BY","2018/04/17 20:19:49","新北市蘆洲區民族路451號","121.467405","25.088745","6501400","蘆洲區"
"247010","341-TH","2018/04/17 20:19:35","新北市蘆洲區信義路188巷19號","121.47997","25.0845516666667","6501400","蘆洲區"
"247012","339-TH","2018/04/17 20:19:48","新北市蘆洲區中興街38號","121.481291666667","25.0871866666667","6501400","蘆洲區"
"247004","337-TH","2018/04/17 20:19:37","新北市蘆洲區長安街299巷9號","121.457495","25.08461","6501400","蘆洲區"
"247006","336-TH","2018/04/17 20:19:33","新北市蘆洲區九芎街136號","121.465103333333","25.07898","6501400","蘆洲區"
"247018","057-VK","2018/04/17 20:19:31","新北市蘆洲區民族路317號","121.474403333333","25.0913666666667","6501400","蘆洲區"
"247008","056-VK","2018/04/17 20:19:33","新北市蘆洲區集賢路227號","121.482458333333","25.0861","6501400","蘆洲區"
"247016","007-UY","2018/04/17 20:19:34","新北市蘆洲區光華路132巷39號","121.465806666667","25.083755","6501400","蘆洲區"
"247002","002-UY","2018/04/17 20:19:46","新北市蘆洲區長安街331巷40號","121.455675","25.0866516666667","6501400","蘆洲區"
"228003","828-UM","2018/04/17 20:19:44","新北市貢寮區仁理村研海街20號","121.928218333333","25.0380283333333","6502600","貢寮區"
"222001","KEA-2212","2018/04/17 20:19:43","新北市深坑區北深路三段229號","121.599985","25.0041566666667","6501800","深坑區"
"251002","012-UM","2018/04/17 20:19:45","新北市淡水區中正路27號","121.44254","25.169615","6501000","淡水區"
"251013","179-VK","2018/04/17 20:19:43","新北市淡水區奎柔山路576號","121.468","25.2050766666667","6501000","淡水區"
"251014","180-VK","2018/04/17 20:19:38","新北市淡水區石頭厝1號","121.458728333333","25.2355416666667","6501000","淡水區"
"251008","181-VK","2018/04/17 20:19:44","新北市淡水區淡海路180巷22號","121.42155","25.18458","6501000","淡水區"
"251015","182-VK","2018/04/17 20:19:34","新北市淡水區淡金路四段546-2號","121.4523","25.2270616666667","6501000","淡水區"
"251010","413-VK","2018/04/17 20:19:45","新北市淡水區新民街一段134號","121.427603333333","25.1888333333333","6501000","淡水區"
"251012","441-VK","2018/04/17 20:19:32","新北市淡水區下圭柔山431-1號","121.449795","25.210265","6501000","淡水區"
"251016","442-VK","2018/04/17 20:19:47","新北市淡水區淡金路五段20號","121.453055","25.2324016666667","6501000","淡水區"
"251006","561-UM","2018/04/17 20:19:43","新北市淡水區淡金路一段571號","121.452735","25.18058","6501000","淡水區"
"251009","575-R6","2018/04/17 20:19:40","新北市淡水區中正路一段29-1號","121.45203","25.1631883333333","6501000","淡水區"
"251011","650-BX","2018/04/17 20:19:44","新北市淡水區下圭柔山91-4號","121.429741666667","25.20888","6501000","淡水區"
"251003","673-BX","2018/04/17 20:19:46","新北市淡水區中山北路一段153號","121.44323","25.1773883333333","6501000","淡水區"
"207004","225-TW","2018/04/17 20:19:40","新北市萬里區北基里大仁路5號","121.682121666667","25.1753133333333","6502800","萬里區"
"252002","178-VK","2018/04/17 20:19:39","新北市三芝區中正路一段35號","121.503073333333","25.2584133333333","6502100","三芝區"
"252001","292-VK","2018/04/17 20:19:32","新北市三芝區中山路一段31號","121.500545","25.25804","6502100","三芝區"
"237006","5529-G3","2018/04/17 20:19:46","新北市三峽區嘉添1號","121.368365","24.911895","6500900","三峽區"
"236070","105-UM","2018/04/17 20:19:45","新北市土城區中山路91號","121.432033333333","24.9700133333333","6501300","土城區"
"236030","253-BX","2018/04/17 20:19:40","新北市土城區學成路128巷11號","121.44953","24.99007","6501300","土城區"
"236026","269-VK","2018/04/17 20:19:36","新北市土城區裕生路88號","121.447105","24.9851166666667","6501300","土城區"
"236014","270-VK","2018/04/17 20:19:35","新北市土城區廣明街90巷21號","121.455336666667","24.9945633333333","6501300","土城區"
"236059","912-UM","2018/04/17 20:19:43","新北市土城區中央路三段130-4號","121.434358333333","24.9658033333333","6501300","土城區"
"242058","986-R7","2018/04/17 20:19:33","新北市新莊區龍安路266巷3號","121.421678333333","25.0191","6500500","新莊區"
"242054","751-BX","2018/04/17 20:19:34","新北市新莊區民安西路261巷12號","121.42673","25.0129783333333","6500500","新莊區"
"242027","615-BX","2018/04/17 20:19:30","新北市新莊區幸福路572號","121.454171666667","25.0493283333333","6500500","新莊區"
"242029","612-BX","2018/04/17 20:19:49","新北市新莊區中華路二段188號","121.4532","25.0515066666667","6500500","新莊區"
"242042","566-BX","2018/04/17 20:19:39","新北市新莊區壽山路79號","121.409143333333","25.0328133333333","6500500","新莊區"
"242046","497-BY","2018/04/17 20:19:46","新北市新莊區中正路新生巷17號","121.416795","25.0238516666667","6500500","新莊區"
"242051","441-UM","2018/04/17 20:19:42","新北市新莊區民安西路240號","121.425888333333","25.0141483333333","6500500","新莊區"
"242056","440-UM","2018/04/17 20:19:35","新北市新莊區豐年街28巷22號","121.445246666667","25.0323816666667","6500500","新莊區"
"242037","415-TV","2018/04/17 20:19:41","新北市新莊區後港一路56巷24弄1號","121.426678333333","25.0252583333333","6500500","新莊區"
"242007","413-TV","2018/04/17 20:19:37","新北市新莊區福壽街124巷16號","121.458708333333","25.051275","6500500","新莊區"
"242044","400-BY","2018/04/17 20:19:39","新北市新莊區中正路新建巷28弄10號","121.413946666667","25.02161","6500500","新莊區"
"242023","362-BY","2018/04/17 20:19:36","新北市新莊區化成路439號","121.464673333333","25.0605983333333","6500500","新莊區"
"242061","353-BY","2018/04/17 20:19:31","新北市新莊區新樹路172號","121.434625","25.0217966666667","6500500","新莊區"
"242039","133-UY","2018/04/17 20:19:45","新北市新莊區成功街54號","121.42451","25.01982","6500500","新莊區"
"242048","172-VK","2018/04/17 20:19:43","新北市新莊區龍安路252-1號","121.421016666667","25.0196","6500500","新莊區"
"242017","175-VK","2018/04/17 20:19:45","新北市新莊區中港一街95號","121.44922","25.0452516666667","6500500","新莊區"
"242005","176-VK","2018/04/17 20:19:48","新北市新莊區頭前路38號","121.46739","25.0524866666667","6500500","新莊區"
"242015","346-TH","2018/04/17 20:19:49","新北市新莊區永樂街247號","121.44583","25.0443116666667","6500500","新莊區"
"242019","347-TH","2018/04/17 20:19:34","新北市新莊區復興路二段185號","121.459021666667","25.044595","6500500","新莊區"
"242021","348-TH","2018/04/17 20:19:45","新北市新莊區和興街49號","121.446485","25.040645","6500500","新莊區"
"242034","349-TH","2018/04/17 20:19:31","新北市新莊區仁愛街54巷12號","121.445051666667","25.0371116666667","6500500","新莊區"
"242013","351-TH","2018/04/17 20:19:45","新北市新莊區中和街155巷2號","121.447166666667","25.0497766666667","6500500","新莊區"
"238014","282-BY","2018/04/17 20:19:39","新北市樹林區育德街78-1號","121.387515","24.968265","6500700","樹林區"
"221008","489-VK","2018/04/17 20:19:40","新北市汐止區康寧街355號","121.628256666667","25.0676233333333","6501100","汐止區"
"221036","130-UY","2018/04/17 20:19:46","新北市汐止區福安街57巷6號","121.664093333333","25.06395","6501100","汐止區"
"221015","131-UY","2018/04/17 20:19:47","新北市汐止區建成路142巷19弄7號","121.662106666667","25.073905","6501100","汐止區"
"221010","269-BY","2018/04/17 20:19:16","新北市汐止區八連路二段610巷17號","121.624941666667","25.1118716666667","6501100","汐止區"
"221012","278-VK","2018/04/17 20:19:34","新北市汐止區保新街159號","121.688468333333","25.0690216666667","6501100","汐止區"
"221023","279-VK","2018/04/17 20:19:47","新北市汐止區湖東街5巷21號","121.634415","25.0732166666667","6501100","汐止區"
"221032","280-BY","2018/04/17 20:19:43","新北市汐止區橫科路52巷9弄5號","121.619498333333","25.05014","6501100","汐止區"
"221027","281-BY","2018/04/17 20:19:42","新北市汐止區水源路一段3號","121.657195","25.06723","6501100","汐止區"
"221029","298-VK","2018/04/17 20:19:42","新北市汐止區工建路98號","121.639581666667","25.0635116666667","6501100","汐止區"
"221021","299-VK","2018/04/17 20:19:47","新北市汐止區水源路一段284號","121.65416","25.05824","6501100","汐止區"
"221031","353-TW","2018/04/17 20:19:31","新北市汐止區中興路150巷13號","121.632896666667","25.0649866666667","6501100","汐止區"
"221035","622-UM","2018/04/17 20:19:39","新北市汐止區長江街101-5號","121.658875","25.0730866666667","6501100","汐止區"
"221025","623-UM","2018/04/17 20:19:45","新北市汐止區水源路二段72巷6弄5號","121.655651666667","25.0556633333333","6501100","汐止區"
"221038","646-BX","2018/04/17 20:19:45","新北市汐止區忠孝東路442號","121.666053333333","25.0724833333333","6501100","汐止區"
"221033","647-BX","2018/04/17 20:18:41","新北市汐止區東勢街201巷23號","121.634408333333","25.0433633333333","6501100","汐止區"
"221002","707-TV","2018/04/17 20:19:48","新北市汐止區福德二路21號","121.63546","25.0684166666667","6501100","汐止區"
"221018","753-BX","2018/04/17 20:19:38","新北市汐止區茄苳路250巷1號","121.671533333333","25.068205","6501100","汐止區"
"242002","KEA-2550","2018/04/17 20:19:47","新北市新莊區化成路7號","121.46478","25.04289","6500500","新莊區"
"220101","245-BX","2018/04/17 20:19:30","新北市板橋區萬板路476號","121.479861666667","25.02602","6500100","板橋區"
"220103","257-TC","2018/04/17 20:19:40","新北市板橋區新海路97號","121.461453333333","25.0222916666667","6500100","板橋區"
"220083","286-VK","2018/04/17 20:19:47","新北市板橋區僑中二街102巷29號","121.444915","25.008355","6500100","板橋區"
"220061","293-UM","2018/04/17 20:19:32","新北市板橋區四川路一段274巷13號","121.457986666667","25.00148","6500100","板橋區"
"242009","281-VK","2018/04/17 20:19:27","新北市新莊區昌平街11號","121.454901666667","25.0517933333333","6500500","新莊區"
"220092","307-R5","2018/04/17 20:19:36","新北市板橋區民權路99號","121.459491666667","25.0131616666667","6500100","板橋區"
"242032","280-VK","2018/04/17 20:19:45","新北市新莊區三和路15-3號","121.439461666667","25.0365983333333","6500500","新莊區"
"220102","KEA-2699","2018/04/17 20:19:45","新北市板橋區漢生東路21號","121.464915","25.0172583333333","6500100","板橋區"
"220070","806-UM","2018/04/17 20:19:40","新北市板橋區溪城路90-2號","121.429593333333","24.980365","6500100","板橋區"
"220055","827-TW","2018/04/17 20:19:31","新北市板橋區仁愛路22號","121.458743333333","24.999395","6500100","板橋區"
"220089","833-TW","2018/04/17 20:19:32","新北市板橋區四維路137巷19號","121.464171666667","25.0248233333333","6500100","板橋區"
"220097","AAC-210","2018/04/17 20:19:44","新北市板橋區文化路一段101巷15號","121.460913333333","25.0145033333333","6500100","板橋區"
