"lineid","car","time","location","longitude","latitude","cityid","cityname"
"234070","149-BY","2018/04/17 20:27:47","新北市永和區永寧街2號","121.520401666667","25.006475","6500400","永和區"
"234081","298-R6","2018/04/17 20:27:45","新北市永和區永貞路76號","121.520231666667","25.0051066666667","6500400","永和區"
"234038","336-UY","2018/04/17 20:27:45","新北市永和區民樂街39巷23號","121.528936666667","25.0007316666667","6500400","永和區"
"234064","337-UY","2018/04/17 20:27:47","新北市永和區中正路417號","121.517198333333","25.00476","6500400","永和區"
"234086","338-UY","2018/04/17 20:27:36","新北市永和區光復街26-1號","121.51654","25.017285","6500400","永和區"
"234067","553-UM","2018/04/17 20:27:31","新北市永和區保平路292巷21號","121.506808333333","25.0059566666667","6500400","永和區"
"234030","746-BX","2018/04/17 20:27:47","新北市永和區民族街81巷60號","121.520143333333","24.9965183333333","6500400","永和區"
"234054","KEA-2590","2018/04/17 20:27:35","新北市永和區光復街31-1號","121.516401666667","25.0178483333333","6500400","永和區"
"234061","AAD-866","2018/04/17 20:27:35","新北市永和區安樂路194巷6號","121.515663333333","25.0009833333333","6500400","永和區"
"234042","862-TW","2018/04/17 20:27:32","新北市永和區安樂路248-1號","121.514668333333","25.00331","6500400","永和區"
"234050","863-TW","2018/04/17 20:27:40","新北市永和區新生路114號","121.50703","25.0146483333333","6500400","永和區"
"249001","173-UM","2018/04/17 20:27:41","新北市八里區下罟子5-11號","121.386896666667","25.1423033333333","6502300","八里區"
"249004","303-UY","2018/04/17 20:27:42","新北市八里區中山路一段129巷31號","121.413996666667","25.1585083333333","6502300","八里區"
"249002","305-UY","2018/04/17 20:27:35","新北市八里區龍米路二段125巷23號","121.445845","25.14557","6502300","八里區"
"249003","593-UM","2018/04/17 20:27:22","新北市八里區華峰一街40號","121.398568333333","25.1464266666667","6502300","八里區"
"248002","678-BX","2018/04/17 20:27:43","新北市五股區新五路二段367號","121.444038333333","25.087915","6501500","五股區"
"248004","682-TV","2018/04/17 20:27:43","新北市五股區芳洲九路50號","121.447903333333","25.0885766666667","6501500","五股區"
"234023","9380-KE","2018/04/17 20:27:46","新北市永和區永和路二段259號","121.515941666667","25.0153616666667","6500400","永和區"
"234074","AAC-211","2018/04/17 20:27:46","新北市永和區竹林路201巷26弄7號","121.522568333333","25.0101366666667","6500400","永和區"
"234003","AAC-295","2018/04/17 20:27:36","新北市永和區中正路529號","121.516895","25.0077683333333","6500400","永和區"
"243012","AAD-798","2018/04/17 20:27:41","新北市泰山區明志路一段153號","121.43331","25.0624983333333","6501600","泰山區"
"243011","297-R6","2018/04/17 20:27:45","新北市泰山區新北大道六段313巷13弄7號","121.424595","25.0336383333333","6501600","泰山區"
"243015","380-SR","2018/04/17 20:27:38","新北市泰山區仁德路125號","121.432678333333","25.0560566666667","6501600","泰山區"
"243014","421-VK","2018/04/17 20:27:45","新北市泰山區泰林路二段567號","121.422435","25.0635333333333","6501600","泰山區"
"243010","KEA-2215","2018/04/17 20:27:48","新北市泰山區新生路31巷10號","121.427741666667","25.0460833333333","6501600","泰山區"
"243009","KEA-2216","2018/04/17 20:27:45","新北市泰山區忠孝街14-1號","121.42774","25.0650133333333","6501600","泰山區"
"243016","680-BX","2018/04/17 20:27:47","新北市泰山區明志路二段364號","121.425693333333","25.045045","6501600","泰山區"
"222003","436-BY","2018/04/17 20:27:36","新北市深坑區深坑街25號","121.616113333333","25.0023633333333","6501800","深坑區"
"222002","659-BX","2018/04/17 20:27:44","新北市深坑區萬福路69號","121.601768333333","25.0082816666667","6501800","深坑區"
"231041","002-UM","2018/04/17 20:27:48","新北市新店區中正路493-2號","121.533665","24.9829533333333","6500600","新店區"
"231059","046-UY","2018/04/17 20:27:43","新北市新店區安康路二段268號","121.50845","24.9588966666667","6500600","新店區"
"231040","047-UY","2018/04/17 20:27:46","新北市新店區中正路309號","121.536498333333","24.9750066666667","6500600","新店區"
"231044","106-UY","2018/04/17 20:27:37","新北市新店區建國路139號","121.539063333333","24.9785083333333","6500600","新店區"
"231064","110-UY","2018/04/17 20:27:45","新北市新店區新和街34號","121.519123333333","24.984745","6500600","新店區"
"231048","187-VK","2018/04/17 20:27:38","新北市新店區寶慶街58巷21-1號","121.541976666667","24.987295","6500600","新店區"
"231054","KEA-2219","2018/04/17 20:27:40","新北市新店區檳榔路150號","121.54428","24.961615","6500600","新店區"
"231057","256-BX","2018/04/17 20:27:40","新北市新店區花園五路二段3號","121.5536","24.934165","6500600","新店區"
"231051","278-BY","2018/04/17 20:27:38","新北市新店區中央七街115號","121.525466666667","24.9778866666667","6500600","新店區"
"231050","AAD-862","2018/04/17 20:27:36","新北市新店區建國路60巷5號","121.541238333333","24.9757216666667","6500600","新店區"
"231058","3713-VJ","2018/04/17 20:27:31","新北市新店區自由街19號","121.535141666667","24.97457","6500600","新店區"
"231066","4716-K9","2018/04/17 20:27:42","新北市新店區安民街339號","121.516935","24.974905","6500600","新店區"
"231056","4715-K9","2018/04/17 20:27:43","新北市新店區中正路309號","121.536633333333","24.9749166666667","6500600","新店區"
"231067","4772-VM","2018/04/17 20:27:43","新北市新店區安華路28-1號","121.51961","24.9608483333333","6500600","新店區"
"231065","512-UM","2018/04/17 20:27:32","新北市新店區安祥路102巷42弄41號","121.48545","24.9633733333333","6500600","新店區"
"231049","513-UM","2018/04/17 20:27:34","新北市新店區安康路一段24巷2號","121.532873333333","24.960425","6500600","新店區"
"231045","617-UM","2018/04/17 20:27:45","新北市新店區新坡一街2號","121.548398333333","24.96109","6500600","新店區"
"231060","618-UM","2018/04/17 20:27:39","新北市新店區錦秀路73號","121.478873333333","24.9420533333333","6500600","新店區"
"231061","619-UM","2018/04/17 20:27:46","新北市新店區安興路141號","121.516553333333","24.9793016666667","6500600","新店區"
"231063","641-BX","2018/04/17 20:27:40","新北市新店區安康路二段341巷1號","121.496915","24.95533","6500600","新店區"
"231042","645-TV","2018/04/17 20:27:45","新北市新店區寶橋路99號","121.547698333333","24.9765266666667","6500600","新店區"
"231068","718-UY","2018/04/17 20:27:36","新北市新店區民權路21號","121.541953333333","24.9827783333333","6500600","新店區"
"231053","719-UY","2018/04/17 20:27:30","新北市新店區松林路36號","121.54612","24.91071","6500600","新店區"
"231062","720-UM","2018/04/17 20:27:42","新北市新店區安泰路7巷16號","121.485641666667","24.950995","6500600","新店區"
"231043","899-TW","2018/04/17 20:27:43","新北市新店區建國路110號","121.539703333333","24.9780783333333","6500600","新店區"
"241011","013-R5","2018/04/17 20:27:46","新北市三重區龍門路27號","121.495583333333","25.07193","6500200","三重區"
"241028","022-UY","2018/04/17 20:27:45","新北市三重區光興街91號","121.497381666667","25.0599216666667","6500200","三重區"
"241008","059-VK","2018/04/17 20:27:39","新北市三重區永福街256號","121.484296666667","25.0748033333333","6500200","三重區"
"241009","060-VK","2018/04/17 20:27:38","新北市三重區永福街19號","121.481811666667","25.0782066666667","6500200","三重區"
"241031","061-VK","2018/04/17 20:27:37","新北市三重區三寧街18號","121.48945","25.0598466666667","6500200","三重區"
"241015","062-VK","2018/04/17 20:27:41","新北市三重區文化北路41號","121.49891","25.0652233333333","6500200","三重區"
"241017","063-VK","2018/04/17 20:27:39","新北市三重區自強路一段207號","121.4916","25.0684466666667","6500200","三重區"
"241024","065-VK","2018/04/17 20:27:44","新北市三重區忠孝路三段15巷18號","121.480835","25.06747","6500200","三重區"
"241026","066-VK","2018/04/17 20:27:39","新北市三重區環河南路23號","121.503565","25.06237","6500200","三重區"
"241002","090-VK","2018/04/17 20:27:50","新北市三重區仁義街190號","121.49669","25.08167","6500200","三重區"
"241003","091-VK","2018/04/17 20:27:38","新北市三重區富華街141號","121.49291","25.0847183333333","6500200","三重區"
"241005","262-UM","2018/04/17 20:27:36","新北市三重區碧華街328號","121.490198333333","25.0837716666667","6500200","三重區"
"241016","265-UM","2018/04/17 20:27:49","新北市三重區正義北路151號","121.496503333333","25.0669516666667","6500200","三重區"
"241018","268-UM","2018/04/17 20:27:45","新北市三重區正義北路220號","121.496156666667","25.0675333333333","6500200","三重區"
"241032","269-UM","2018/04/17 20:27:44","新北市三重區重陽路一段120巷48號","121.485008333333","25.06015","6500200","三重區"
"241013","270-UM","2018/04/17 20:27:43","新北市三重區溪尾街5巷46號","121.49322","25.074955","6500200","三重區"
"241025","271-UM","2018/04/17 20:27:48","新北市三重區頂崁街210巷27號","121.47575","25.0681616666667","6500200","三重區"
"241007","398-BY","2018/04/17 20:27:42","新北市三重區自強路四段46號","121.489451666667","25.0776216666667","6500200","三重區"
"241035","KEA-2210","2018/04/17 20:27:41","新北市三重區重新路二段32號","121.499023333333","25.06251","6500200","三重區"
"241004","475-VK","2018/04/17 20:27:34","新北市三重區溪尾街188號","121.48838","25.08085","6500200","三重區"
"241020","478-VK","2018/04/17 20:27:42","新北市三重區三和路三段170巷8弄25號","121.492528333333","25.0724183333333","6500200","三重區"
"241030","480-VK","2018/04/17 20:27:44","新北市三重區成功路62號","121.48857","25.05098","6500200","三重區"
"241014","543-UM","2018/04/17 20:27:36","新北市三重區長壽街120巷23號","121.502418333333","25.0692733333333","6500200","三重區"
"241023","545-UM","2018/04/17 20:27:46","新北市三重區自由街16號","121.479825","25.0664816666667","6500200","三重區"
"241001","547-UM","2018/04/17 20:27:32","新北市三重區福隆路31號","121.489983333333","25.0772433333333","6500200","三重區"
"241019","KEA-2593","2018/04/17 20:27:35","新北市三重區重陽路四段77號","121.492561666667","25.0708933333333","6500200","三重區"
"241022","887-TS","2018/04/17 20:27:48","新北市三重區新北大道一段46巷9弄16號","121.487231666667","25.0621483333333","6500200","三重區"
"241012","941-UM","2018/04/17 20:27:46","新北市三重區龍濱路287號","121.500795","25.073535","6500200","三重區"
"241029","942-UM","2018/04/17 20:27:36","新北市三重區集美街227號","121.492115","25.055175","6500200","三重區"
"235039","097-UM","2018/04/17 20:27:33","新北市中和區大勇街31巷13弄13號","121.517366666667","24.9939383333333","6500300","中和區"
"235065","098-UM","2018/04/17 20:27:44","新北市中和區福美路319號","121.496631666667","25.0046766666667","6500300","中和區"
"235040","150-BY","2018/04/17 20:27:23","新北市新店區安興路139號","121.516515","24.9795916666667","6500300","中和區"
"235050","4979-A6","2018/04/17 20:27:41","新北市中和區景新街162號","121.505643333333","24.9970716666667","6500300","中和區"
"235026","800-TS","2018/04/17 20:21:19","新北市中和區員山路36巷16-2號","121.485121666667","24.99177","6500300","中和區"
"235066","911-UM","2018/04/17 20:27:45","新北市中和區保平路362巷13號","121.505718333333","25.0038633333333","6500300","中和區"
"235059","AAC-215","2018/04/17 20:27:33","新北市中和區員山路32號","121.48112","24.9877083333333","6500300","中和區"
"247024","893-R6","2018/04/17 20:27:42","新北市蘆洲區長興路50巷41號","121.465026666667","25.084835","6501400","蘆洲區"
"247014","546-UM","2018/04/17 20:27:44","新北市蘆洲區中山一路284號","121.470911666667","25.0790383333333","6501400","蘆洲區"
"247022","500-BY","2018/04/17 20:27:47","新北市蘆洲區民族路447號","121.46763","25.0888","6501400","蘆洲區"
"247010","341-TH","2018/04/17 20:27:35","新北市蘆洲區信義路222巷40號","121.480973333333","25.0853866666667","6501400","蘆洲區"
"247012","339-TH","2018/04/17 20:27:32","新北市蘆洲區復興路189號","121.479211666667","25.0894416666667","6501400","蘆洲區"
"247004","337-TH","2018/04/17 20:27:37","新北市蘆洲區長安街222號","121.458095","25.0849533333333","6501400","蘆洲區"
"247006","336-TH","2018/04/17 20:27:33","新北市蘆洲區九芎街140號","121.46489","25.0787966666667","6501400","蘆洲區"
"247018","057-VK","2018/04/17 20:27:31","新北市蘆洲區民族路257巷17號","121.47508","25.090205","6501400","蘆洲區"
"247008","056-VK","2018/04/17 20:27:34","新北市蘆洲區永安北路二段76巷8號","121.483276666667","25.0850333333333","6501400","蘆洲區"
"247016","007-UY","2018/04/17 20:27:34","新北市蘆洲區和平路208號","121.465781666667","25.0822566666667","6501400","蘆洲區"
"247002","002-UY","2018/04/17 20:27:46","新北市蘆洲區長安街347巷32號","121.45555","25.0870733333333","6501400","蘆洲區"
"222001","KEA-2212","2018/04/17 20:27:43","新北市深坑區北深路三段329號","121.597235","25.005055","6501800","深坑區"
"251002","012-UM","2018/04/17 20:27:45","新北市淡水區中正路27號","121.442551666667","25.1696633333333","6501000","淡水區"
"251013","179-VK","2018/04/17 20:27:43","新北市淡水區奎柔山路413號","121.463593333333","25.2046316666667","6501000","淡水區"
"251014","180-VK","2018/04/17 20:27:38","新北市淡水區石頭厝8-7號","121.460445","25.2377833333333","6501000","淡水區"
"251008","181-VK","2018/04/17 20:27:44","新北市淡水區淡海路202號","121.420358333333","25.185515","6501000","淡水區"
"251010","413-VK","2018/04/17 20:27:45","新北市淡水區沙崙路181巷15號","121.423981666667","25.1843483333333","6501000","淡水區"
"251012","441-VK","2018/04/17 20:27:32","新北市淡水區頂田寮路182號","121.460806666667","25.2161983333333","6501000","淡水區"
"251016","442-VK","2018/04/17 20:27:47","新北市淡水區淡金路四段562號","121.45168","25.2276683333333","6501000","淡水區"
"251001","559-UM","2018/04/17 20:27:45","新北市淡水區中山北路二段165號","121.444311666667","25.1843533333333","6501000","淡水區"
"251006","561-UM","2018/04/17 20:27:43","新北市淡水區商工路350號","121.468378333333","25.1854133333333","6501000","淡水區"
"251011","650-BX","2018/04/17 20:27:44","新北市淡水區崁頂49-6號","121.438191666667","25.1976516666667","6501000","淡水區"
"251003","673-BX","2018/04/17 20:27:46","新北市淡水區新生街108巷2號","121.44017","25.1747766666667","6501000","淡水區"
"207004","225-TW","2018/04/17 20:27:40","新北市萬里區北基里忠四街20號","121.684563333333","25.1758233333333","6502800","萬里區"
"252002","178-VK","2018/04/17 20:27:39","新北市三芝區淡金路二段38-1號","121.50308","25.2600733333333","6502100","三芝區"
"252001","292-VK","2018/04/17 20:27:32","新北市三芝區中山路一段31號","121.500506666667","25.2580166666667","6502100","三芝區"
"236014","270-VK","2018/04/17 20:27:35","新北市土城區廣明街65號","121.454986666667","24.9936916666667","6501300","土城區"
"242058","986-R7","2018/04/17 20:27:33","新北市新莊區四維路196號","121.421796666667","25.0206033333333","6500500","新莊區"
"242054","751-BX","2018/04/17 20:27:34","新北市新莊區西盛街362巷15號","121.427163333333","25.013635","6500500","新莊區"
"242027","615-BX","2018/04/17 20:27:30","新北市新莊區幸福路10號","121.4592","25.0495816666667","6500500","新莊區"
"242029","612-BX","2018/04/17 20:27:29","新北市新莊區昌隆街3巷1弄2號","121.453811666667","25.0514266666667","6500500","新莊區"
"242042","566-BX","2018/04/17 20:27:39","新北市新莊區中正路694巷134號","121.415983333333","25.0302566666667","6500500","新莊區"
"242046","497-BY","2018/04/17 20:27:46","新北市新莊區中正路新雅巷2弄18號","121.417756666667","25.0249366666667","6500500","新莊區"
"242051","441-UM","2018/04/17 20:27:42","新北市新莊區民安西路252巷17號","121.425495","25.0132466666667","6500500","新莊區"
"242056","440-UM","2018/04/17 20:27:32","新北市新莊區新莊路711號","121.443716666667","25.0328683333333","6500500","新莊區"
"242037","415-TV","2018/04/17 20:27:41","新北市新莊區後港一路56巷12號","121.426461666667","25.0258333333333","6500500","新莊區"
"242007","413-TV","2018/04/17 20:27:37","新北市新莊區思源路287巷1弄25號","121.459405","25.0472966666667","6500500","新莊區"
"242044","400-BY","2018/04/17 20:27:39","新北市新莊區中正路新建巷11號","121.41403","25.02246","6500500","新莊區"
"242023","362-BY","2018/04/17 20:27:46","新北市新莊區化成路744號","121.465476666667","25.0574533333333","6500500","新莊區"
"242061","353-BY","2018/04/17 20:27:51","新北市新莊區民安路343號","121.43078","25.0229133333333","6500500","新莊區"
"242039","133-UY","2018/04/17 20:27:45","新北市新莊區民安西路32號","121.426956666667","25.0212366666667","6500500","新莊區"
"242048","172-VK","2018/04/17 20:27:43","新北市新莊區富國路84號","121.42025","25.02559","6500500","新莊區"
"242017","175-VK","2018/04/17 20:27:25","新北市新莊區中港二街94號","121.449291666667","25.045775","6500500","新莊區"
"242005","176-VK","2018/04/17 20:27:48","新北市新莊區化成路746巷3弄1號","121.465986666667","25.0577683333333","6500500","新莊區"
"242015","346-TH","2018/04/17 20:27:37","新北市新莊區中平路46巷16號","121.445435","25.04383","6500500","新莊區"
"242019","347-TH","2018/04/17 20:27:41","新北市新莊區民樂街83號","121.457805","25.043115","6500500","新莊區"
"242021","348-TH","2018/04/17 20:27:45","新北市新莊區公園路10巷2號","121.447798333333","25.03879","6500500","新莊區"
"242034","349-TH","2018/04/17 20:27:46","新北市新莊區新泰路188號","121.447198333333","25.03811","6500500","新莊區"
"242013","351-TH","2018/04/17 20:27:40","新北市新莊區中平路302巷14號","121.44532","25.052055","6500500","新莊區"
"238014","282-BY","2018/04/17 20:27:39","新北市樹林區育德街78-1號","121.387415","24.9682866666667","6500700","樹林區"
"221008","489-VK","2018/04/17 20:27:43","新北市汐止區康寧街543號","121.63425","25.0689933333333","6501100","汐止區"
"221036","130-UY","2018/04/17 20:27:26","新北市汐止區新台五路二段168號","121.664676666667","25.0668066666667","6501100","汐止區"
"221015","131-UY","2018/04/17 20:27:47","新北市汐止區建成路154號","121.661978333333","25.0735783333333","6501100","汐止區"
"221010","269-BY","2018/04/17 20:27:36","新北市汐止區八連路二段376-1號","121.629795","25.1014816666667","6501100","汐止區"
"221012","278-VK","2018/04/17 20:27:34","新北市汐止區大同路三段176號","121.67425","25.0748533333333","6501100","汐止區"
"221023","279-VK","2018/04/17 20:27:47","新北市汐止區湖東街19號","121.635693333333","25.0725216666667","6501100","汐止區"
"221032","280-BY","2018/04/17 20:27:42","新北市汐止區弘道街53巷12號","121.618698333333","25.0489066666667","6501100","汐止區"
"221027","281-BY","2018/04/17 20:27:42","新北市汐止區中正路239號","121.657661666667","25.0686683333333","6501100","汐止區"
"221029","298-VK","2018/04/17 20:27:42","新北市汐止區樟樹一路129巷32號","121.640506666667","25.0651066666667","6501100","汐止區"
"221021","299-VK","2018/04/17 20:27:47","新北市汐止區水源路一段282巷1號","121.654056666667","25.0580833333333","6501100","汐止區"
"221031","353-TW","2018/04/17 20:27:31","新北市汐止區中興路110巷14號","121.63396","25.06438","6501100","汐止區"
"221035","622-UM","2018/04/17 20:27:39","新北市汐止區長江街101-5號","121.65879","25.0729616666667","6501100","汐止區"
"221025","623-UM","2018/04/17 20:27:45","新北市汐止區水源路二段88巷1弄14號","121.656433333333","25.0554383333333","6501100","汐止區"
"221038","646-BX","2018/04/17 20:27:45","新北市汐止區水源路一段71號","121.657503333333","25.0652666666667","6501100","汐止區"
"221033","647-BX","2018/04/17 20:27:41","新北市汐止區林森街73巷5號","121.623556666667","25.0409333333333","6501100","汐止區"
"221002","707-TV","2018/04/17 20:27:48","新北市汐止區福德一路85號","121.638281666667","25.0685066666667","6501100","汐止區"
"221018","753-BX","2018/04/17 20:27:38","新北市汐止區茄苳路225巷11弄33號","121.670436666667","25.0700633333333","6501100","汐止區"
"242002","KEA-2550","2018/04/17 20:27:29","新北市新莊區中正路60號","121.461701666667","25.0397733333333","6500500","新莊區"
"220103","257-TC","2018/04/17 20:27:43","新北市板橋區漢生東路33巷52號","121.466338333333","25.017915","6500100","板橋區"
"220083","286-VK","2018/04/17 20:27:41","新北市板橋區僑中二街108巷27號","121.444616666667","25.0074733333333","6500100","板橋區"
"220061","293-UM","2018/04/17 20:27:32","新北市板橋區四川路一段318號","121.458316666667","25.0001933333333","6500100","板橋區"
"242009","281-VK","2018/04/17 20:27:47","新北市新莊區昌盛街65巷2弄11號","121.455485","25.050175","6500500","新莊區"
"242032","280-VK","2018/04/17 20:27:45","新北市新莊區三泰路24號","121.440353333333","25.0342683333333","6500500","新莊區"
"220089","833-TW","2018/04/17 20:27:32","新北市板橋區四維路325號","121.462706666667","25.029265","6500100","板橋區"
