"lineid","car","time","location","longitude","latitude","cityid","cityname"
"243003","297-R6","2018/04/17 21:15:53","新北市泰山區黎明路31號","121.421723333333","25.060725","6501600","泰山區"
"241005","262-UM","2018/04/17 21:39:36","新北市三重區碧華街50號","121.483451666667","25.0812416666667","6500200","三重區"
"235010","733-UM","2018/04/17 21:37:45","新北市中和區員山路36巷13號","121.484141666667","24.9908383333333","6500300","中和區"
"247010","341-TH","2018/04/17 21:39:35","新北市五股區新五路三段260號","121.448281666667","25.0909433333333","6501400","蘆洲區"
"247012","339-TH","2018/04/17 21:39:52","新北市八里區荖阡坑路22-5號","121.39883","25.134835","6501400","蘆洲區"
"251004","009-UM","2018/04/17 21:39:39","新北市淡水區民生路5號","121.460446666667","25.1378783333333","6501000","淡水區"
"251005","010-UM","2018/04/17 21:39:34","新北市淡水區水源街一段139號","121.44708","25.1719183333333","6501000","淡水區"
"251002","012-UM","2018/04/17 21:39:35","新北市淡水區學府路161號","121.445943333333","25.1742916666667","6501000","淡水區"
"251014","180-VK","2018/04/17 21:39:38","新北市淡水區淡金路四段507號","121.451563333333","25.2283466666667","6501000","淡水區"
"251008","181-VK","2018/04/17 21:39:44","新北市淡水區水源街二段86號","121.451458333333","25.17446","6501000","淡水區"
"251010","413-VK","2018/04/17 21:39:45","新北市淡水區沙崙路216巷19號","121.426205","25.1842266666667","6501000","淡水區"
"251012","441-VK","2018/04/17 21:39:32","新北市淡水區淡金路四段546號","121.451756666667","25.2270283333333","6501000","淡水區"
"251016","442-VK","2018/04/17 21:39:26","新北市淡水區淡金路三段28號","121.447846666667","25.1988966666667","6501000","淡水區"
"251001","559-UM","2018/04/17 21:39:45","新北市淡水區新市二路三段152號","121.435381666667","25.194215","6501000","淡水區"
"251006","561-UM","2018/04/17 21:39:42","新北市淡水區中正路11巷4號","121.438931666667","25.1701766666667","6501000","淡水區"
"251009","575-R6","2018/04/17 21:39:38","新北市淡水區民族路29巷1弄12號","121.463221666667","25.13738","6501000","淡水區"
"251011","650-BX","2018/04/17 21:39:44","新北市淡水區新民街322巷4號","121.43563","25.183765","6501000","淡水區"
"251003","673-BX","2018/04/17 21:39:36","新北市淡水區新春街89號","121.439041666667","25.1826966666667","6501000","淡水區"
