"lineid","car","time","location","longitude","latitude","cityid","cityname"
"247010","341-TH","2018/04/17 22:09:35","新北市五股區凌雲路三段24巷21-9號","121.433881666667","25.1074533333333","6501400","蘆洲區"
"247012","339-TH","2018/04/17 22:09:32","新北市五股區中興路三段5號","121.450471666667","25.0794316666667","6501400","蘆洲區"
"251004","009-UM","2018/04/17 22:09:19","新北市淡水區民族路33巷16-21號","121.462411666667","25.1360216666667","6501000","淡水區"
"251008","181-VK","2018/04/17 22:09:44","新北市淡水區學府路104號","121.449875","25.1718533333333","6501000","淡水區"
"251010","413-VK","2018/04/17 22:09:45","新北市淡水區沙崙路200號","121.424688333333","25.183925","6501000","淡水區"
"251007","577-R6","2018/04/17 22:09:52","新北市淡水區北新路188號","121.44978","25.178935","6501000","淡水區"
"251011","650-BX","2018/04/17 22:09:44","新北市淡水區水碓街7號","121.443171666667","25.1771283333333","6501000","淡水區"
