"lineid","car","time","location","longitude","latitude","cityid","cityname"
"248005","653-BX","2018/08/28 07:59:15","新北市五股區明德路12巷6號","121.433361666667","25.07185","6501500","五股區"
"244002","248-BX","2018/08/28 07:59:14","新北市林口區下福里46-1號","121.310791666667","25.113395","6501700","林口區"
"222004","289-BY","2018/08/28 07:59:07","新北市深坑區文山路二段30巷12號","121.615606666667","24.9991716666667","6501800","深坑區"
"231007","189-VK","2018/08/28 07:59:13","新北市新店區永業路121號","121.528416666667","24.9478883333333","6500600","新店區"
"231009","192-VK","2018/08/28 07:59:06","新北市新店區安一路一段1-1號","121.519046666667","24.96118","6500600","新店區"
"235001","611-BX","2018/08/28 07:59:05","新北市中和區圓通路367巷6號","121.491521666667","24.9892583333333","6500300","中和區"
"226005","5620-A6","2018/08/28 07:59:21","新北市平溪區石底里公園街18-3號","121.733496666667","25.0255616666667","6502400","平溪區"
"226002","7418-A5","2018/08/28 07:59:07","新北市平溪區靜安路三段386號","121.781668333333","25.0471233333333","6502400","平溪區"
"226006","AGD-0702","2018/08/28 07:59:17","新北市平溪區十分里十分街60號","121.775518333333","25.04182","6502400","平溪區"
"223006","022-BY","2018/08/28 07:59:15","新北市坪林區北宜路八段558號","121.717166666667","24.9094516666667","6501900","石碇區"
"223002","KEA-2673","2018/08/28 07:59:16","新北市石碇區月扇湖3-1號","121.659115","24.957275","6501900","石碇區"
"223003","205-TH","2018/08/28 07:54:40","新北市石碇區樟空子10-2號","121.666928333333","24.9621466666667","6501900","石碇區"
"223001","592-UM","2018/08/28 07:59:07","新北市石碇區橫坪1號","121.669351666667","24.9688933333333","6501900","石碇區"
"223004","660-BX","2018/08/28 07:59:12","新北市深坑區文山路一段8號","121.644726666667","25.0088533333333","6501900","石碇區"
"223005","677-TV","2018/08/28 07:59:02","新北市石碇區靜安路一段75號","121.65122","25.0073016666667","6501900","石碇區"
"227006","282-VK","2018/08/28 07:59:06","新北市雙溪區平林里梅竹蹊16號","121.861978333333","25.0359766666667","6502500","雙溪區"
"252004","249-BX","2018/08/28 07:59:04","新北市三芝區興華里車埕36-10號","121.505778333333","25.1931383333333","6502100","三芝區"
"252007","AAC-283","2018/08/28 07:59:05","新北市三芝區後厝里土地公坑63-1號","121.466238333333","25.2456533333333","6502100","三芝區"
"237001","159-UY","2018/08/28 07:59:04","新北市三峽區大學路86號","121.375951666667","24.9420766666667","6500900","三峽區"
"236008","165-UM","2018/08/28 07:59:08","新北市土城區永豐路192號","121.466191666667","24.9839833333333","6501300","土城區"
"236002","339-SR","2018/08/28 07:58:44","新北市土城區龍泉路66-1號","121.418981666667","24.94265","6501300","土城區"
