"lineid","car","time","location","longitude","latitude","cityid","cityname"
"248005","653-BX","2018/08/28 08:38:36","新北市五股區明德路12巷3號","121.433325","25.0718066666667","6501500","五股區"
"222004","289-BY","2018/08/28 08:38:47","新北市深坑區昇高坑路15號","121.624158333333","25.0006883333333","6501800","深坑區"
"231007","189-VK","2018/08/28 08:38:33","新北市新店區環湖路5號","121.532171666667","24.921245","6500600","新店區"
"231009","192-VK","2018/08/28 08:38:46","新北市新店區新烏路三段165巷62號","121.553838333333","24.901385","6500600","新店區"
"235001","611-BX","2018/08/28 08:38:45","新北市中和區民安街53-12號","121.479686666667","24.9993733333333","6500300","中和區"
"226005","5620-A6","2018/08/28 08:38:41","新北市平溪區南山里南山坪125號","121.786181666667","25.0455633333333","6502400","平溪區"
"226002","7418-A5","2018/08/28 08:38:47","新北市平溪區東勢里東勢格2-6號","121.742908333333","25.00607","6502400","平溪區"
"226006","AGD-0702","2018/08/28 08:38:38","新北市平溪區十分里十分街236號","121.778093333333","25.0440366666667","6502400","平溪區"
"223006","022-BY","2018/08/28 08:38:36","新北市石碇區楓子林30號","121.642293333333","25.0096716666667","6501900","石碇區"
"223003","205-TH","2018/08/28 08:38:40","新北市石碇區北宜路六段塗潭巷23號","121.650875","24.9340566666667","6501900","石碇區"
"223008","406-TH","2018/08/28 08:38:44","新北市石碇區碇南路二段松柏崎巷33-1號","121.677325","25.0216316666667","6501900","石碇區"
"223001","592-UM","2018/08/28 08:38:47","新北市石碇區北宜路六段塗潭巷23號","121.650961666667","24.934065","6501900","石碇區"
"223004","660-BX","2018/08/28 08:38:32","新北市石碇區崩山24-2號","121.67865","24.9678616666667","6501900","石碇區"
"223005","677-TV","2018/08/28 08:38:36","新北市石碇區崩山24-2號","121.678623333333","24.967835","6501900","石碇區"
"227006","282-VK","2018/08/28 08:38:47","新北市雙溪區上林里內平林66-1號","121.831046666667","25.0291083333333","6502500","雙溪區"
"252004","249-BX","2018/08/28 08:38:24","新北市三芝區興華里楓子林38號","121.49099","25.2076316666667","6502100","三芝區"
"252007","AAC-283","2018/08/28 08:38:45","新北市三芝區後厝里番子崙10號","121.488843333333","25.2385733333333","6502100","三芝區"
"237001","159-UY","2018/08/28 08:38:44","新北市樹林區學成路470號","121.378343333333","24.9446933333333","6500900","三峽區"
"236008","165-UM","2018/08/28 08:38:48","新北市土城區金城路二段46巷1-24號","121.453683333333","24.97547","6501300","土城區"
"236002","339-SR","2018/08/28 08:38:44","新北市土城區中央路三段185號","121.431128333333","24.9650566666667","6501300","土城區"
"236006","498-BY","2018/08/28 08:38:53","新北市土城區中央路三段249巷13號","121.428066666667","24.9635783333333","6501300","土城區"
