"lineid","car","time","location","longitude","latitude","cityid","cityname"
"248005","653-BX","2018/08/28 08:48:43","新北市五股區明德路10號","121.433418333333","25.0717616666667","6501500","五股區"
"222004","289-BY","2018/08/28 08:48:47","新北市深坑區王軍寮1-3號","121.62093","24.9857133333333","6501800","深坑區"
"231007","189-VK","2018/08/28 08:48:53","新北市新店區新潭路三段57號","121.50774","24.9127283333333","6500600","新店區"
"231009","192-VK","2018/08/28 08:48:46","新北市新店區新烏路三段寶島巷4號","121.550491666667","24.8986216666667","6500600","新店區"
"235001","611-BX","2018/08/28 08:48:45","新北市中和區莒光路84巷24號","121.471515","25.0023566666667","6500300","中和區"
"226005","5620-A6","2018/08/28 08:48:41","新北市平溪區十分里十分街132-1號","121.777285","25.04325","6502400","平溪區"
"226002","7418-A5","2018/08/28 08:41:27","新北市平溪區東勢里東勢格11號","121.735171666667","25.0027083333333","6502400","平溪區"
"226006","AGD-0702","2018/08/28 08:48:38","新北市平溪區十分里十分街236號","121.778233333333","25.0440483333333","6502400","平溪區"
"223006","022-BY","2018/08/28 08:48:36","新北市石碇區石碇東街87號","121.659695","24.990825","6501900","石碇區"
"223003","205-TH","2018/08/28 08:48:40","新北市石碇區北宜路六段柑腳巷2號","121.659571666667","24.93808","6501900","石碇區"
"223008","406-TH","2018/08/28 08:48:44","新北市石碇區光明路18-5號","121.68623","25.036865","6501900","石碇區"
"223001","592-UM","2018/08/28 08:48:47","新北市石碇區北宜路六段柑腳巷2號","121.659578333333","24.9380566666667","6501900","石碇區"
"223004","660-BX","2018/08/28 08:48:32","新北市石碇區碇坪路二段55號","121.684705","24.9708933333333","6501900","石碇區"
"223005","677-TV","2018/08/28 08:48:31","新北市石碇區碇坪路二段72號","121.684198333333","24.967165","6501900","石碇區"
"227006","282-VK","2018/08/28 08:48:47","新北市雙溪區上林里大瀨1號","121.830015","25.0251666666667","6502500","雙溪區"
"227012","030-BX","2018/08/28 08:44:48","新北市雙溪區泰平里料角坑32號","121.797698333333","24.973555","6502500","雙溪區"
"252004","249-BX","2018/08/28 08:48:46","新北市三芝區興華里田心子20-8號","121.493543333333","25.2012533333333","6502100","三芝區"
"252007","AAC-283","2018/08/28 08:48:45","新北市三芝區錫板里番婆林44號","121.493526666667","25.2371483333333","6502100","三芝區"
"237001","159-UY","2018/08/28 08:48:44","新北市三峽區學府路8號","121.371843333333","24.94752","6500900","三峽區"
"236008","165-UM","2018/08/28 08:48:48","新北市土城區金城路二段48號","121.451565","24.9790183333333","6501300","土城區"
"236002","339-SR","2018/08/28 08:48:44","新北市土城區中央路三段93號","121.437585","24.967725","6501300","土城區"
"236006","498-BY","2018/08/28 08:48:34","新北市土城區永和街62巷2-1號","121.435118333333","24.959495","6501300","土城區"
