"lineid","car","time","location","longitude","latitude","cityid","cityname"
"248005","653-BX","2018/08/28 09:08:43","新北市五股區水碓路24號","121.433366666667","25.072695","6501500","五股區"
"222004","289-BY","2018/08/28 09:08:47","新北市深坑區大崙尾8號","121.61422","24.979555","6501800","深坑區"
"231007","189-VK","2018/08/28 09:08:53","新北市新店區新潭路三段215巷25號","121.508186666667","24.904065","6500600","新店區"
"231009","192-VK","2018/08/28 09:08:46","新北市新店區廣興路60巷35號","121.542515","24.9165066666667","6500600","新店區"
"235001","611-BX","2018/08/28 09:08:45","新北市中和區民有街7-2號","121.475585","25.00561","6500300","中和區"
"223006","022-BY","2018/08/28 09:08:36","新北市石碇區小粗坑(潭邊里)9-1號","121.678626666667","24.9853283333333","6501900","石碇區"
"223003","205-TH","2018/08/28 09:08:40","新北市石碇區北宜路五段31號","121.630026666667","24.9535616666667","6501900","石碇區"
"223008","406-TH","2018/08/28 09:08:44","新北市石碇區靜安路一段231號","121.677938333333","25.0104583333333","6501900","石碇區"
"223001","592-UM","2018/08/28 09:08:47","新北市石碇區北宜路五段火燒樟巷11號","121.625748333333","24.9545216666667","6501900","石碇區"
"223004","660-BX","2018/08/28 09:08:52","新北市石碇區碇坪路二段9號","121.679651666667","24.9754916666667","6501900","石碇區"
"223005","677-TV","2018/08/28 09:08:51","新北市石碇區大崙2-1號","121.687256666667","24.9766216666667","6501900","石碇區"
"227006","282-VK","2018/08/28 09:08:47","新北市雙溪區長源里赤皮崙8號","121.794461666667","25.0191633333333","6502500","雙溪區"
"227012","030-BX","2018/08/28 09:08:48","新北市坪林區坪雙路二段162號","121.765796666667","24.9628316666667","6502500","雙溪區"
"252004","249-BX","2018/08/28 09:08:44","新北市三芝區興華里車埕72-14號","121.493473333333","25.1969416666667","6502100","三芝區"
"252007","AAC-283","2018/08/28 09:08:45","新北市三芝區後厝里陽住坑2號","121.484185","25.2485316666667","6502100","三芝區"
"237001","159-UY","2018/08/28 09:08:44","新北市鶯歌區中正一路阿四巷3號","121.370845","24.9593366666667","6500900","三峽區"
"236008","165-UM","2018/08/28 09:08:48","新北市土城區三民路65號","121.41949","24.9646","6501300","土城區"
"236002","339-SR","2018/08/28 09:08:44","新北市土城區學府路一段99巷10號","121.456823333333","24.986855","6501300","土城區"
"236006","498-BY","2018/08/28 09:08:33","新北市土城區承天路5號","121.436075","24.9660466666667","6501300","土城區"
