"lineid","car","time","location","longitude","latitude","cityid","cityname"
"248005","653-BX","2018/08/28 10:29:23","新北市五股區中興路二段57-6號","121.460461666667","25.07552","6501500","五股區"
"231007","189-VK","2018/08/28 10:29:21","新北市新店區新潭路三段121巷5號","121.50978","24.9110583333333","6500600","新店區"
"231009","192-VK","2018/08/28 10:29:06","新北市新店區小坑一路21-1號","121.53141","24.911705","6500600","新店區"
"227006","282-VK","2018/08/28 10:29:06","新北市雙溪區上林里大瀨75-1號","121.830806666667","25.0289333333333","6502500","雙溪區"
"237001","159-UY","2018/08/28 10:29:04","新北市三峽區大學路156號","121.373728333333","24.9457283333333","6500900","三峽區"
