"lineid","car","time","location","longitude","latitude","cityid","cityname"
"234040","862-TW","2018/08/28 12:08:43","新北市永和區福和路1號","121.526298333333","25.0097683333333","6500400","永和區"
"231009","192-VK","2018/08/28 12:08:46","新北市新店區新烏路一段127-1號","121.547035","24.9370166666667","6500600","新店區"
"235031","255-BX","2018/08/28 12:08:53","新北市中和區和城路一段271巷1號","121.485595","24.9918133333333","6500300","中和區"
"228004","212-TW","2018/08/28 12:07:58","新北市貢寮區貢寮里貢寮街25號","121.908265","25.0191916666667","6502600","貢寮區"
"228005","828-UM","2018/08/28 12:08:55","新北市貢寮區福隆里興隆街36號","121.940995","25.017435","6502600","貢寮區"
