"lineid","car","time","location","longitude","latitude","cityid","cityname"
"249005","172-UM","2018/08/28 16:39:28","新北市八里區大堀湖1-5號","121.422963333333","25.1549966666667","6502300","八里區"
"249003","593-UM","2018/08/28 16:39:14","新北市八里區中山路二段283號","121.401571666667","25.1486633333333","6502300","八里區"
"231046","107-UY","2018/08/28 16:39:14","新北市新店區灣潭路48-1號","121.543006666667","24.9445766666667","6500600","新店區"
"241011","013-R5","2018/08/28 16:39:29","新北市三重區仁愛街43巷5號","121.496951666667","25.0717433333333","6500200","三重區"
"241028","022-UY","2018/08/28 16:39:15","新北市三重區重新路三段90號","121.493048333333","25.060695","6500200","三重區"
"241008","059-VK","2018/08/28 16:39:29","新北市三重區永安北路一段17巷14號","121.47675","25.0751083333333","6500200","三重區"
"241022","060-VK","2018/08/28 16:39:27","新北市三重區三民街86號","121.485421666667","25.0626616666667","6500200","三重區"
"241031","061-VK","2018/08/28 16:39:19","新北市三重區重新路四段53號","121.487688333333","25.0575366666667","6500200","三重區"
"241015","062-VK","2018/08/28 16:39:13","新北市三重區文化北路41-1號","121.498856666667","25.0652166666667","6500200","三重區"
"241017","063-VK","2018/08/28 16:39:29","新北市三重區中正北路25巷11號","121.49279","25.0624133333333","6500200","三重區"
"241024","065-VK","2018/08/28 16:39:18","新北市三重區中正北路315巷6弄58號","121.475691666667","25.0724","6500200","三重區"
"241026","066-VK","2018/08/28 16:39:16","新北市三重區和平街57號","121.502001666667","25.0625716666667","6500200","三重區"
"241002","090-VK","2018/08/28 16:39:33","新北市三重區仁義街241巷20號","121.496805","25.0829133333333","6500200","三重區"
"241003","091-VK","2018/08/28 16:39:19","新北市三重區五華街110號","121.492328333333","25.082775","6500200","三重區"
"241016","266-UM","2018/08/28 16:39:33","新北市三重區大智街17號","121.494536666667","25.065285","6500200","三重區"
"241009","267-UM","2018/08/28 16:39:27","新北市三重區三和路四段203巷86號","121.484128333333","25.0800133333333","6500200","三重區"
"241018","268-UM","2018/08/28 16:39:21","新北市三重區六張街79號","121.493406666667","25.0701316666667","6500200","三重區"
"241032","269-UM","2018/08/28 16:39:23","新北市三重區新北大道一段117號","121.483521666667","25.0613666666667","6500200","三重區"
"241013","270-UM","2018/08/28 16:39:14","新北市三重區三和路三段101巷110號","121.497636666667","25.0733983333333","6500200","三重區"
"241025","271-UM","2018/08/28 16:39:15","新北市三重區中正北路430號","121.474665","25.071065","6500200","三重區"
"241007","398-BY","2018/08/28 16:39:17","新北市三重區三和路四段167巷59號","121.485661666667","25.079535","6500200","三重區"
"241004","475-VK","2018/08/28 16:39:15","新北市三重區五福街4號","121.493146666667","25.0816633333333","6500200","三重區"
"241020","478-VK","2018/08/28 16:39:25","新北市三重區後竹圍街205巷61號","121.484636666667","25.0729966666667","6500200","三重區"
"241030","480-VK","2018/08/28 16:39:21","新北市三重區環河南路286號","121.488903333333","25.04896","6500200","三重區"
"241014","543-UM","2018/08/28 16:39:28","新北市三重區龍濱路28號","121.502918333333","25.0680616666667","6500200","三重區"
"241023","545-UM","2018/08/28 16:39:20","新北市三重區忠孝路三段50巷45號","121.482901666667","25.0643566666667","6500200","三重區"
"241001","547-UM","2018/08/28 16:39:30","新北市三重區仁政街84號","121.492581666667","25.0776483333333","6500200","三重區"
"241019","KEA-2593","2018/08/28 16:39:28","新北市三重區力行路一段63號","121.487346666667","25.0674216666667","6500200","三重區"
"241006","AAD-863","2018/08/28 16:39:13","新北市三重區力行路二段91巷1弄16號","121.483223333333","25.075895","6500200","三重區"
"241005","887-TS","2018/08/28 16:39:12","新北市三重區碧華街246號","121.487576666667","25.0828033333333","6500200","三重區"
"241012","941-UM","2018/08/28 16:39:19","新北市三重區仁興街3巷6號","121.500095","25.0738983333333","6500200","三重區"
"241029","942-UM","2018/08/28 16:39:20","新北市三重區集美街112巷29號","121.49021","25.0542716666667","6500200","三重區"
"241033","AAC-255","2018/08/28 16:39:19","新北市三重區光復路二段74號","121.472105","25.0568083333333","6500200","三重區"
"235026","800-TS","2018/08/28 16:39:30","新北市中和區建八路123號","121.489713333333","24.9988533333333","6500300","中和區"
"247006","336-TH","2018/08/28 16:39:23","新北市五股區工商路8號","121.440975","25.0827233333333","6501400","蘆洲區"
"247008","053-VK","2018/08/28 16:39:13","新北市蘆洲區永安南路二段228號","121.460813333333","25.0793266666667","6501400","蘆洲區"
"228002","663-BX","2018/08/28 16:39:32","新北市貢寮區貢寮里朝陽街2號","121.912498333333","25.0215983333333","6502600","貢寮區"
"224008","285-BY","2018/08/28 16:39:32","新北市瑞芳區大寮路356-1號","121.784876666667","25.10318","6501200","瑞芳區"
"224007","275-VK","2018/08/28 16:39:16","新北市瑞芳區月眉路47號","121.760286666667","25.1098","6501200","瑞芳區"
"224005","271-BY","2018/08/28 16:39:15","新北市瑞芳區國中新村230號","121.861091666667","25.124385","6501200","瑞芳區"
"227003","642-TC","2018/08/28 16:39:25","新北市雙溪區外柑里土地公後5-1號","121.815853333333","25.0203416666667","6502500","雙溪區"
"227009","400-TW","2018/08/28 16:39:17","新北市雙溪區牡丹里中正路97號","121.861968333333","25.0471483333333","6502500","雙溪區"
"251013","KEA-2871","2018/08/28 16:39:09","新北市淡水區楓樹湖3-3號","121.496558333333","25.1865116666667","6501000","淡水區"
"251016","179-VK","2018/08/28 16:39:18","新北市淡水區新春街40號","121.437238333333","25.1815816666667","6501000","淡水區"
"251014","180-VK","2018/08/28 16:39:27","新北市淡水區淡金路四段478號","121.452441666667","25.2239283333333","6501000","淡水區"
"252002","178-VK","2018/08/28 16:39:11","新北市三芝區芝柏路95號","121.51088","25.2574083333333","6502100","三芝區"
"238020","268-VK","2018/08/28 16:39:23","新北市板橋區大觀路三段59巷57號","121.435191666667","24.9940716666667","6500700","樹林區"
