"lineid","car","time","location","longitude","latitude","cityid","cityname"
"249005","172-UM","2018/08/28 16:49:28","新北市八里區大堀湖2-3號","121.422523333333","25.1536733333333","6502300","八里區"
"249004","303-UY","2018/08/28 16:49:16","新北市八里區中山路二段210巷166號","121.404385","25.1567683333333","6502300","八里區"
"249002","305-UY","2018/08/28 16:49:25","新北市八里區牛寮埔31號","121.4299","25.1457316666667","6502300","八里區"
"249003","593-UM","2018/08/28 16:49:14","新北市八里區中山路二段289號","121.401568333333","25.148615","6502300","八里區"
"231046","107-UY","2018/08/28 16:49:34","新北市新店區灣潭路29-3號","121.540045","24.938705","6500600","新店區"
"241011","013-R5","2018/08/28 16:49:29","新北市三重區仁愛街53巷141號","121.499566666667","25.0726133333333","6500200","三重區"
"241028","022-UY","2018/08/28 16:49:15","新北市三重區光興街28號","121.497416666667","25.0598716666667","6500200","三重區"
"241008","059-VK","2018/08/28 16:49:28","新北市三重區永安北路一段11巷22號","121.477491666667","25.0748","6500200","三重區"
"241022","060-VK","2018/08/28 16:49:27","新北市三重區中華路97號","121.483518333333","25.0631466666667","6500200","三重區"
"241031","061-VK","2018/08/28 16:49:18","新北市三重區過圳街19號","121.488135","25.0602133333333","6500200","三重區"
"241015","062-VK","2018/08/28 16:49:33","新北市三重區長元西街1號","121.498801666667","25.0655266666667","6500200","三重區"
"241017","063-VK","2018/08/28 16:49:29","新北市三重區國隆路12巷3號","121.492841666667","25.063765","6500200","三重區"
"241024","065-VK","2018/08/28 16:49:18","新北市三重區中正北路317巷9號","121.474891666667","25.0728683333333","6500200","三重區"
"241026","066-VK","2018/08/28 16:49:16","新北市三重區文化南路10巷19號","121.500898333333","25.062125","6500200","三重區"
"241002","090-VK","2018/08/28 16:49:14","新北市三重區仁義街143巷40號","121.497965","25.0810433333333","6500200","三重區"
"241003","091-VK","2018/08/28 16:49:19","新北市三重區五華街71巷16號","121.492733333333","25.0831983333333","6500200","三重區"
"241016","266-UM","2018/08/28 16:49:13","新北市三重區大同北路117號","121.494143333333","25.064265","6500200","三重區"
"241009","267-UM","2018/08/28 16:49:07","新北市三重區溪尾街206號","121.488135","25.0812016666667","6500200","三重區"
"241018","268-UM","2018/08/28 16:49:21","新北市三重區安慶街149巷11號","121.49436","25.0691683333333","6500200","三重區"
"241032","269-UM","2018/08/28 16:49:23","新北市三重區重陽路一段120巷9號","121.48618","25.0601116666667","6500200","三重區"
"241013","270-UM","2018/08/28 16:49:14","新北市三重區仁愛街89號","121.495878333333","25.0734566666667","6500200","三重區"
"241025","271-UM","2018/08/28 16:49:15","新北市三重區中正北路530巷27號","121.472073333333","25.0701933333333","6500200","三重區"
"241007","398-BY","2018/08/28 16:49:14","新北市三重區三和路四段171號","121.482991666667","25.07884","6500200","三重區"
"241004","475-VK","2018/08/28 16:49:15","新北市三重區仁愛街397巷1號","121.491433333333","25.0810783333333","6500200","三重區"
"241020","478-VK","2018/08/28 16:49:25","新北市三重區忠孝路二段35號","121.485908333333","25.0711183333333","6500200","三重區"
"241030","480-VK","2018/08/28 16:49:21","新北市三重區新興路6號","121.492685","25.0529183333333","6500200","三重區"
"241014","543-UM","2018/08/28 16:49:28","新北市三重區長壽街120巷19弄9號","121.502458333333","25.0691733333333","6500200","三重區"
"241023","545-UM","2018/08/28 16:49:24","新北市三重區新北大道一段206巷13號","121.482513333333","25.0624466666667","6500200","三重區"
"241001","547-UM","2018/08/28 16:49:19","新北市三重區仁愛街188號","121.493725","25.0770033333333","6500200","三重區"
"241019","KEA-2593","2018/08/28 16:49:28","新北市三重區三張街149巷10弄5號","121.486183333333","25.0698333333333","6500200","三重區"
"241006","AAD-863","2018/08/28 16:49:14","新北市三重區車路頭街123號","121.48427","25.0754233333333","6500200","三重區"
"241005","887-TS","2018/08/28 16:49:12","新北市三重區仁華街80巷27號","121.484371666667","25.0839066666667","6500200","三重區"
"241012","941-UM","2018/08/28 16:49:19","新北市三重區仁興街11巷49號","121.50101","25.0744316666667","6500200","三重區"
"241029","942-UM","2018/08/28 16:49:20","新北市三重區集美街257號","121.492398333333","25.055655","6500200","三重區"
"241033","AAC-255","2018/08/28 16:49:19","新北市三重區新北大道二段139巷9號","121.46639","25.060855","6500200","三重區"
"235064","005-UY","2018/08/28 16:49:18","新北市中和區員山路36巷16-3號","121.485096666667","24.991525","6500300","中和區"
"235026","800-TS","2018/08/28 16:49:30","新北市中和區中正路571巷2弄11號","121.486176666667","24.9938233333333","6500300","中和區"
"247006","336-TH","2018/08/28 16:49:23","新北市蘆洲區長安街13號","121.463971666667","25.0789866666667","6501400","蘆洲區"
"247008","053-VK","2018/08/28 16:49:13","新北市蘆洲區中山一路176號","121.474186666667","25.08112","6501400","蘆洲區"
"228002","663-BX","2018/08/28 16:49:32","新北市貢寮區貢寮里長泰路28號","121.900838333333","25.0240983333333","6502600","貢寮區"
"228003","828-UM","2018/08/28 16:49:23","新北市貢寮區貢寮里朝陽街1-2號","121.91233","25.0213","6502600","貢寮區"
"224006","676-BX","2018/08/28 16:49:12","新北市瑞芳區大寮路356-1號","121.784826666667","25.1032016666667","6501200","瑞芳區"
"224008","285-BY","2018/08/28 16:49:12","新北市瑞芳區傑魚坑路126號","121.791798333333","25.1103116666667","6501200","瑞芳區"
"224007","275-VK","2018/08/28 16:49:16","新北市瑞芳區中央路48巷64號","121.760701666667","25.1033566666667","6501200","瑞芳區"
"224009","273-VK","2018/08/28 16:49:29","新北市瑞芳區三爪子坑路25號","121.81327","25.107995","6501200","瑞芳區"
"224005","271-BY","2018/08/28 16:49:12","新北市瑞芳區洞頂路116號","121.86121","25.123385","6501200","瑞芳區"
"227003","642-TC","2018/08/28 16:49:25","新北市雙溪區外柑里外柑腳71號","121.80713","25.0175783333333","6502500","雙溪區"
"227009","400-TW","2018/08/28 16:49:17","新北市雙溪區牡丹里五分10-1號","121.86635","25.047105","6502500","雙溪區"
"251005","010-UM","2018/08/28 16:49:22","新北市淡水區中正路二段31號","121.419175","25.1819316666667","6501000","淡水區"
"251013","KEA-2871","2018/08/28 16:49:29","新北市淡水區泉洲厝32號","121.489243333333","25.192645","6501000","淡水區"
"251016","179-VK","2018/08/28 16:49:18","新北市淡水區北新路一段606號","121.472546666667","25.18498","6501000","淡水區"
"251014","180-VK","2018/08/28 16:49:27","新北市淡水區淡金路四段478號","121.452433333333","25.2239266666667","6501000","淡水區"
"251015","181-VK","2018/08/28 16:49:24","新北市淡水區忠愛街5-2號","121.460715","25.17158","6501000","淡水區"
"251010","413-VK","2018/08/28 16:49:24","新北市淡水區中正路二段31號","121.419581666667","25.1814966666667","6501000","淡水區"
"251012","441-VK","2018/08/28 16:49:12","新北市淡水區中正路二段31號","121.419691666667","25.1815433333333","6501000","淡水區"
"251008","442-VK","2018/08/28 16:49:30","新北市淡水區樹梅坑20號","121.474466666667","25.1424133333333","6501000","淡水區"
"251011","650-BX","2018/08/28 16:49:15","新北市淡水區中正路二段31號","121.419248333333","25.1818133333333","6501000","淡水區"
"252002","178-VK","2018/08/28 16:49:31","新北市三芝區忠孝街68號","121.50586","25.256985","6502100","三芝區"
"252001","292-VK","2018/08/28 16:49:16","新北市三芝區淡金路二段76-1號","121.50391","25.260835","6502100","三芝區"
"242054","751-BX","2018/08/28 16:49:26","新北市新莊區新泰路357巷3弄57號","121.441853333333","25.039315","6500500","新莊區"
"242023","362-BY","2018/08/28 16:49:30","新北市新莊區新泰路255巷83號","121.442093333333","25.0388033333333","6500500","新莊區"
"242017","175-VK","2018/08/28 16:49:23","新北市新莊區三和路12-21號","121.44187","25.038645","6500500","新莊區"
"242021","348-TH","2018/08/28 16:49:25","新北市新莊區新泰路357巷3弄57號","121.442128333333","25.0396583333333","6500500","新莊區"
"238020","268-VK","2018/08/28 16:49:23","新北市樹林區中正路286-1號","121.415981666667","25.008895","6500700","樹林區"
"239007","AAC-297","2018/08/28 16:49:27","新北市鶯歌區二甲路13-16號","121.344956666667","24.93539","6500800","鶯歌區"
