"lineid","car","time","location","longitude","latitude","cityid","cityname"
"234026","9371-KE","2018/08/28 17:48:27","新北市永和區和平街109巷6號","121.510795","25.00969","6500400","永和區"
"234011","9373-KE","2018/08/28 17:43:19","新北市永和區福和路1號","121.525546666667","25.009435","6500400","永和區"
"249005","172-UM","2018/08/28 17:48:48","新北市八里區荖阡坑路34-2號","121.402491666667","25.1307366666667","6502300","八里區"
"249001","173-UM","2018/08/28 17:48:48","新北市八里區龍米路二段139號","121.44441","25.148715","6502300","八里區"
"249004","303-UY","2018/08/28 17:48:56","新北市八里區中華路一段81巷28號","121.419438333333","25.1547066666667","6502300","八里區"
"249002","305-UY","2018/08/28 17:48:44","新北市八里區龍形五街37巷3-1號","121.448848333333","25.1324516666667","6502300","八里區"
"249003","593-UM","2018/08/28 17:48:54","新北市八里區中山路二段125號","121.405431666667","25.151845","6502300","八里區"
"248004","677-BX","2018/08/28 17:48:47","新北市五股區中興路二段37巷26號","121.460318333333","25.0751016666667","6501500","五股區"
"248002","678-BX","2018/08/28 17:49:03","新北市五股區中興路二段57-6號","121.460401666667","25.0755883333333","6501500","五股區"
"232011","375-UM","2018/08/28 17:48:59","新北市坪林區北宜路八段152號","121.707113333333","24.9344266666667","6502000","坪林區"
"244007","080-UY","2018/08/28 17:48:47","新北市林口區中湖50-2號","121.383493333333","25.0916166666667","6501700","林口區"
"244019","403-UM","2018/08/28 17:49:00","新北市林口區忠孝路542巷11弄2號","121.373101666667","25.067","6501700","林口區"
"244013","KEA-2802","2018/08/28 17:48:44","新北市林口區中正路465號","121.384061666667","25.077685","6501700","林口區"
"244023","483-VK","2018/08/28 17:48:54","新北市林口區東湖路12巷62號","121.388465","25.07509","6501700","林口區"
"244017","485-VK","2018/08/28 17:48:56","新北市林口區文化二路一段260巷4號","121.37115","25.0733533333333","6501700","林口區"
"244009","656-BX","2018/08/28 17:48:57","新北市林口區林口路303號","121.385595","25.0851166666667","6501700","林口區"
"244011","657-BX","2018/08/28 17:49:02","新北市林口區中正路338號","121.38683","25.0777583333333","6501700","林口區"
"244025","837-TS","2018/08/28 17:49:04","新北市林口區文化三路一段125號","121.361428333333","25.069085","6501700","林口區"
"244021","838-TS","2018/08/28 17:49:01","新北市林口區仁愛路一段61巷17號","121.39762","25.0695816666667","6501700","林口區"
"222003","436-BY","2018/08/28 17:48:57","新北市深坑區文山路三段110號","121.608426666667","24.9990966666667","6501800","深坑區"
"222002","659-BX","2018/08/28 17:48:58","新北市深坑區平埔街22巷17弄1號","121.614908333333","25.000865","6501800","深坑區"
"231046","107-UY","2018/08/28 17:48:54","新北市新店區下石厝路2-1號","121.531646666667","24.9280333333333","6500600","新店區"
"231055","AKT-0513","2018/08/28 17:48:55","新北市新店區安華路1-1號","121.519305","24.96044","6500600","新店區"
"241024","065-VK","2018/08/28 17:48:58","新北市三重區車路頭街62巷35號","121.483318333333","25.0725683333333","6500200","三重區"
"241016","266-UM","2018/08/28 17:48:53","新北市三重區重新路二段146號","121.49576","25.06161","6500200","三重區"
"241033","AAC-255","2018/08/28 17:48:58","新北市三重區光復路一段9號","121.472151666667","25.04713","6500200","三重區"
"235064","005-UY","2018/08/28 17:48:58","新北市中和區員山路36巷16-2號","121.485208333333","24.9913783333333","6500300","中和區"
"235065","098-UM","2018/08/28 17:48:57","新北市中和區連城路469巷52號","121.483495","24.99437","6500300","中和區"
"235058","151-BY","2018/08/28 17:48:48","新北市中和區員山路36巷16-2號","121.485198333333","24.9916483333333","6500300","中和區"
"247010","KEA-2869","2018/08/28 17:48:56","新北市蘆洲區民族路38號","121.476565","25.0843816666667","6501400","蘆洲區"
"247024","893-R6","2018/08/28 17:48:52","新北市蘆洲區光榮路61巷22號","121.461243333333","25.08918","6501400","蘆洲區"
"247014","546-UM","2018/08/28 17:48:51","新北市蘆洲區保和街67號","121.46946","25.085905","6501400","蘆洲區"
"247022","500-BY","2018/08/28 17:49:00","新北市蘆洲區中正路384號","121.463301666667","25.093115","6501400","蘆洲區"
"247012","339-TH","2018/08/28 17:48:57","新北市蘆洲區復興路119號","121.477348333333","25.0882716666667","6501400","蘆洲區"
"247004","337-TH","2018/08/28 17:48:44","新北市蘆洲區永安南路二段352號","121.45623","25.083035","6501400","蘆洲區"
"247006","336-TH","2018/08/28 17:49:03","新北市蘆洲區九芎街144號","121.46449","25.0784983333333","6501400","蘆洲區"
"247018","057-VK","2018/08/28 17:49:02","新北市蘆洲區復興路227巷2弄13號","121.480551666667","25.09039","6501400","蘆洲區"
"247008","053-VK","2018/08/28 17:48:53","新北市蘆洲區中山一路212號","121.473188333333","25.0806133333333","6501400","蘆洲區"
"247016","007-UY","2018/08/28 17:48:57","新北市蘆洲區中正路185巷72號","121.466458333333","25.084415","6501400","蘆洲區"
"247002","002-UY","2018/08/28 17:48:47","新北市蘆洲區永平街32巷21弄31-2號","121.458","25.0922566666667","6501400","蘆洲區"
"247020","001-UY","2018/08/28 17:49:00","新北市蘆洲區民權路190-8號","121.472","25.0911683333333","6501400","蘆洲區"
"228001","212-TW","2018/08/28 17:48:48","新北市貢寮區仁理村仁愛路95-1號","121.927676666667","25.0554183333333","6502600","貢寮區"
"228002","663-BX","2018/08/28 17:48:52","新北市貢寮區福隆里龜壽谷街11-1號","121.953945","25.007085","6502600","貢寮區"
"228003","828-UM","2018/08/28 17:48:43","新北市貢寮區真理里延平街68號","121.92495","25.0575616666667","6502600","貢寮區"
"224006","676-BX","2018/08/28 17:48:52","新北市瑞芳區傑魚坑路183號","121.788451666667","25.1082933333333","6501200","瑞芳區"
"224008","285-BY","2018/08/28 17:48:52","新北市瑞芳區明燈路一段6號","121.823135","25.1074333333333","6501200","瑞芳區"
"224009","273-VK","2018/08/28 17:48:49","新北市瑞芳區山尖路110號","121.852213333333","25.113495","6501200","瑞芳區"
"224005","271-BY","2018/08/28 17:48:52","新北市瑞芳區瑞濱路22號","121.826798333333","25.12171","6501200","瑞芳區"
"227003","642-TC","2018/08/28 17:48:45","新北市雙溪區共和里東榮街42號","121.866058333333","25.0337483333333","6502500","雙溪區"
"253006","295-VK","2018/08/28 17:49:01","新北市石門區中央路6號","121.566615","25.2913216666667","6502200","石門區"
"208003","665-BX","2018/08/28 17:48:55","新北市金山區磺清路135號","121.639208333333","25.2276766666667","6502700","金山區"
"208001","761-BX","2018/08/28 17:49:00","新北市金山區磺清路135號","121.639263333333","25.2277033333333","6502700","金山區"
"251005","010-UM","2018/08/28 17:49:04","新北市淡水區學府路102巷2號","121.45043","25.1719383333333","6501000","淡水區"
"251002","012-UM","2018/08/28 17:48:55","新北市淡水區中山路62號","121.443801666667","25.17061","6501000","淡水區"
"251013","KEA-2871","2018/08/28 17:48:49","新北市淡水區口湖子1-3號","121.477803333333","25.1907483333333","6501000","淡水區"
"251016","179-VK","2018/08/28 17:48:58","新北市淡水區埤島39-15號","121.45271","25.1959033333333","6501000","淡水區"
"251014","180-VK","2018/08/28 17:48:47","新北市淡水區公埔子16-6號","121.481013333333","25.2245833333333","6501000","淡水區"
"251015","181-VK","2018/08/28 17:48:43","新北市淡水區興福寮32-3號","121.490331666667","25.1629266666667","6501000","淡水區"
"251010","413-VK","2018/08/28 17:48:44","新北市淡水區淡海路280巷33弄34-2號","121.418761666667","25.1886333333333","6501000","淡水區"
"251012","441-VK","2018/08/28 17:48:51","新北市淡水區北新路一段606號","121.472733333333","25.18498","6501000","淡水區"
"251008","442-VK","2018/08/28 17:48:50","新北市淡水區八勢路一段156號","121.468096666667","25.1564683333333","6501000","淡水區"
"251004","443-VK","2018/08/28 17:48:42","新北市淡水區民權一街17巷2號","121.458748333333","25.1365133333333","6501000","淡水區"
"251001","559-UM","2018/08/28 17:48:45","新北市淡水區民權路92巷35-1號","121.462166666667","25.12668","6501000","淡水區"
"251006","561-UM","2018/08/28 17:48:41","新北市淡水區大信街1巷1號","121.441233333333","25.1765466666667","6501000","淡水區"
"251009","575-R6","2018/08/28 17:49:02","新北市淡水區長興街51號","121.44416","25.171875","6501000","淡水區"
"251007","577-R6","2018/08/28 17:48:57","新北市淡水區民生路16巷1-2號","121.460931666667","25.1374216666667","6501000","淡水區"
"251011","650-BX","2018/08/28 17:46:55","新北市淡水區吳(仔)厝9-1號","121.479611666667","25.14665","6501000","淡水區"
"251003","673-BX","2018/08/28 17:48:50","新北市淡水區大忠街5巷2號","121.443193333333","25.1763716666667","6501000","淡水區"
"207003","550-UM","2018/08/28 17:48:50","新北市萬里區野柳里東澳路66號","121.69274","25.2009283333333","6502800","萬里區"
"207004","225-TW","2018/08/28 17:48:50","新北市萬里區萬里里公有市場18號","121.689215","25.1792666666667","6502800","萬里區"
"252002","178-VK","2018/08/28 17:48:51","新北市三芝區智成街62號","121.504506666667","25.2561283333333","6502100","三芝區"
"252001","292-VK","2018/08/28 17:48:55","新北市三芝區長安街119號","121.49793","25.25974","6502100","三芝區"
"237004","KEA-2597","2018/08/28 17:48:58","新北市三峽區中山路129號","121.36532","24.936055","6500900","三峽區"
"237009","210-TH","2018/08/28 17:48:48","新北市三峽區大勇路15號","121.367181666667","24.9367283333333","6500900","三峽區"
"237013","252-BX","2018/08/28 17:48:50","新北市三峽區介壽路一段109-3號","121.375825","24.9321516666667","6500900","三峽區"
"237012","275-BY","2018/08/28 17:48:48","新北市三峽區文化路66號","121.372283333333","24.9361883333333","6500900","三峽區"
"237014","433-BY","2018/08/28 17:48:51","新北市三峽區文化路120巷21弄2號","121.371048333333","24.936805","6500900","三峽區"
"237011","KEA-2596","2018/08/28 17:49:00","新北市三峽區大同路196-2號","121.370998333333","24.9270733333333","6500900","三峽區"
"237016","649-BX","2018/08/28 17:49:03","新北市三峽區白雞149-2號","121.400118333333","24.9055316666667","6500900","三峽區"
"237010","706-TV","2018/08/28 17:48:57","新北市三峽區文化路212-3號","121.368453333333","24.93595","6500900","三峽區"
"237005","AKY-6261","2018/08/28 17:48:50","新北市三峽區中山路459巷52-1號","121.356908333333","24.9361916666667","6500900","三峽區"
"236070","105-UM","2018/08/28 17:48:55","新北市土城區青雲路322巷12號","121.457731666667","24.9766683333333","6501300","土城區"
"236042","107-UM","2018/08/28 17:48:54","新北市土城區城林路6巷80號","121.43851","24.9797383333333","6501300","土城區"
"236079","166-UM","2018/08/28 17:49:03","新北市土城區中華路二段2號","121.439545","24.9792633333333","6501300","土城區"
"236026","269-VK","2018/08/28 17:48:49","新北市土城區城林路6巷80號","121.438461666667","24.9795983333333","6501300","土城區"
"236014","270-VK","2018/08/28 17:48:54","新北市土城區城林路6巷80號","121.438441666667","24.9795966666667","6501300","土城區"
"236038","271-VK","2018/08/28 17:48:52","新北市土城區城林路6巷80號","121.43853","24.979565","6501300","土城區"
"236021","401-BY","2018/08/28 17:48:49","新北市土城區城林路6巷80號","121.43882","24.97967","6501300","土城區"
"236059","912-UM","2018/08/28 17:48:51","新北市土城區城林路6巷80號","121.438671666667","24.9799766666667","6501300","土城區"
"236049","913-UM","2018/08/28 17:49:00","新北市土城區城林路6巷80號","121.438656666667","24.9797066666667","6501300","土城區"
"236063","915-UM","2018/08/28 17:49:03","新北市土城區城林路6巷80號","121.438696666667","24.9796466666667","6501300","土城區"
"236055","AAC-216","2018/08/28 17:49:01","新北市土城區城林路6巷80號","121.43843","24.9795666666667","6501300","土城區"
"242034","AAC-296","2018/08/28 17:48:46","新北市新莊區瓊泰路170號","121.443286666667","25.0328633333333","6500500","新莊區"
"242058","986-R7","2018/08/28 17:48:46","新北市新莊區中正路708號","121.416253333333","25.0246133333333","6500500","新莊區"
"242054","751-BX","2018/08/28 17:48:46","新北市新莊區新樹路587號","121.432888333333","25.006645","6500500","新莊區"
"242027","615-BX","2018/08/28 17:49:00","新北市新莊區福壽街165號","121.45804","25.053455","6500500","新莊區"
"242025","613-BX","2018/08/28 17:48:52","新北市新莊區化成路447號","121.464183333333","25.0610116666667","6500500","新莊區"
"242042","566-BX","2018/08/28 17:48:59","新北市新莊區中正路618號","121.423733333333","25.0293583333333","6500500","新莊區"
"242046","497-BY","2018/08/28 17:48:47","新北市新莊區福營路125巷28號","121.43365","25.0308883333333","6500500","新莊區"
"242051","441-UM","2018/08/28 17:48:59","新北市新莊區西盛街231巷1號","121.428256666667","25.01637","6500500","新莊區"
"242056","440-UM","2018/08/28 17:48:55","新北市新莊區瓊林路40巷27號","121.446658333333","25.03017","6500500","新莊區"
"242037","415-TV","2018/08/28 17:48:45","新北市新莊區建福路72號","121.426788333333","25.0267983333333","6500500","新莊區"
"242007","413-TV","2018/08/28 17:48:47","新北市新莊區福樂街132巷18號","121.456905","25.0486783333333","6500500","新莊區"
"242044","400-BY","2018/08/28 17:48:58","新北市新莊區中正路700-26號","121.417678333333","25.0266566666667","6500500","新莊區"
"242023","362-BY","2018/08/28 17:48:50","新北市新莊區福樂街40號","121.45782","25.0456983333333","6500500","新莊區"
"242061","353-BY","2018/08/28 17:48:48","新北市新莊區瓊林南路118-11號","121.434591666667","25.00887","6500500","新莊區"
"242039","133-UY","2018/08/28 17:48:47","新北市新莊區民安路182號","121.425351666667","25.0237916666667","6500500","新莊區"
"242032","135-UY","2018/08/28 17:48:57","新北市新莊區新泰路357巷3弄1號","121.442436666667","25.0411483333333","6500500","新莊區"
"242048","172-VK","2018/08/28 17:49:01","新北市新莊區萬安街60巷13號","121.42051","25.023285","6500500","新莊區"
"242017","175-VK","2018/08/28 17:49:03","新北市新莊區永安街80號","121.4508","25.04468","6500500","新莊區"
"242005","176-VK","2018/08/28 17:48:50","新北市新莊區自立街231號","121.458053333333","25.0454833333333","6500500","新莊區"
"242015","347-TH","2018/08/28 17:48:53","新北市新莊區新泰路380號","121.44415","25.043205","6500500","新莊區"
"242021","348-TH","2018/08/28 17:48:45","新北市新莊區永寧街34巷2號","121.452938333333","25.0394733333333","6500500","新莊區"
"242002","349-TH","2018/08/28 17:49:04","新北市新莊區景德路127號","121.451321666667","25.0342233333333","6500500","新莊區"
"242019","350-TH","2018/08/28 17:48:51","新北市新莊區中港路264號","121.45353","25.0436283333333","6500500","新莊區"
"238015","755-BX","2018/08/28 17:48:46","新北市樹林區長壽街80-5號","121.420721666667","24.9949283333333","6500700","樹林區"
"238023","601-UM","2018/08/28 17:49:03","新北市樹林區龍興街15號","121.403026666667","25.01644","6500700","樹林區"
"238019","599-UM","2018/08/28 17:48:56","新北市樹林區太元街37號","121.418688333333","24.9796066666667","6500700","樹林區"
"238018","571-TV","2018/08/28 17:48:51","新北市樹林區博愛街68號","121.426981666667","24.99249","6500700","樹林區"
"238024","5061-A6","2018/08/28 17:48:46","新北市樹林區環河路600-1號","121.403996666667","24.9693616666667","6500700","樹林區"
"238022","KEA-2213","2018/08/28 17:48:54","新北市樹林區太順街96巷16弄22號","121.416866666667","24.979535","6500700","樹林區"
"238021","KEA-2539","2018/08/28 17:48:46","新北市樹林區柑園街一段23-8號","121.404233333333","24.960255","6500700","樹林區"
"238025","303-VK","2018/08/28 17:48:56","新北市樹林區俊興街209-6號","121.417576666667","25.0145516666667","6500700","樹林區"
"238017","283-BY","2018/08/28 17:48:50","新北市樹林區三德街34-4號","121.415201666667","25.0131766666667","6500700","樹林區"
"238014","282-BY","2018/08/28 17:48:50","新北市樹林區大安路200號","121.420648333333","24.9961616666667","6500700","樹林區"
"238020","268-VK","2018/08/28 17:49:02","新北市樹林區俊英街107號","121.425116666667","25.0095466666667","6500700","樹林區"
"238026","172-UY","2018/08/28 17:49:03","新北市樹林區新興街21號","121.400318333333","24.9726283333333","6500700","樹林區"
"238016","169-UY","2018/08/28 17:48:49","新北市樹林區復興路302號","121.416993333333","24.98721","6500700","樹林區"
"239007","AAC-297","2018/08/28 17:48:47","新北市鶯歌區永利街18號","121.339111666667","24.9549516666667","6500800","鶯歌區"
"239006","891-R6","2018/08/28 17:48:55","新北市鶯歌區永和街115巷28號","121.333365","24.9691616666667","6500800","鶯歌區"
"239008","527-UM","2018/08/28 17:48:49","新北市鶯歌區大湖路718號","121.33288","24.9763866666667","6500800","鶯歌區"
"239005","526-UM","2018/08/28 17:49:03","新北市鶯歌區鳳吉四街10號","121.326536666667","24.97246","6500800","鶯歌區"
"239001","417-VK","2018/08/28 17:48:47","新北市鶯歌區中正三路369號","121.327261666667","24.9346033333333","6500800","鶯歌區"
"239003","360-BY","2018/08/28 17:48:47","新北市鶯歌區鶯桃路238號","121.336406666667","24.9594233333333","6500800","鶯歌區"
"239002","359-BY","2018/08/28 17:49:00","新北市鶯歌區國華路31號","121.34303","24.9557466666667","6500800","鶯歌區"
"239004","193-VK","2018/08/28 17:48:49","新北市鶯歌區文化路206號","121.35279","24.949505","6500800","鶯歌區"
"221008","489-VK","2018/08/28 17:48:51","新北市汐止區康寧街901號","121.651383333333","25.07512","6501100","汐止區"
"221036","130-UY","2018/08/28 17:48:49","新北市汐止區汐萬路一段266號","121.65095","25.073875","6501100","汐止區"
"221015","131-UY","2018/08/28 17:48:54","新北市汐止區長江街255巷6號","121.66404","25.0798266666667","6501100","汐止區"
"221010","269-BY","2018/08/28 17:48:49","新北市汐止區汐萬路二段122巷1號","121.648185","25.0856516666667","6501100","汐止區"
"221012","278-VK","2018/08/28 17:48:49","新北市汐止區汐萬路一段140號","121.653283333333","25.0711383333333","6501100","汐止區"
"221023","279-VK","2018/08/28 17:48:52","新北市汐止區民族一街16號","121.635001666667","25.0710183333333","6501100","汐止區"
"221032","280-BY","2018/08/28 17:48:57","新北市汐止區大同路一段215-1號","121.63377","25.0573566666667","6501100","汐止區"
"221027","281-BY","2018/08/28 17:48:52","新北市汐止區汐萬路一段312號","121.650458333333","25.0752733333333","6501100","汐止區"
"221029","298-VK","2018/08/28 17:48:56","新北市汐止區康寧街901號","121.651675","25.075135","6501100","汐止區"
"221021","299-VK","2018/08/28 17:48:58","新北市汐止區汐萬路一段37號","121.655565","25.0682566666667","6501100","汐止區"
"221031","353-TW","2018/08/28 17:48:54","新北市汐止區中興路33號","121.634711666667","25.0619733333333","6501100","汐止區"
"221002","129-UY","2018/08/28 17:49:02","新北市汐止區康寧街901號","121.651511666667","25.0750633333333","6501100","汐止區"
"221035","622-UM","2018/08/28 17:48:52","新北市汐止區汐萬路一段211巷15號","121.651346666667","25.071735","6501100","汐止區"
"221025","623-UM","2018/08/28 17:48:56","新北市汐止區大同路二段171號","121.651675","25.0650233333333","6501100","汐止區"
"221038","646-BX","2018/08/28 17:48:49","新北市汐止區汐萬路一段244-1號","121.6513","25.0733216666667","6501100","汐止區"
"221033","647-BX","2018/08/28 17:48:54","新北市汐止區橫科路322巷24弄6-1號","121.620833333333","25.0499733333333","6501100","汐止區"
"221018","753-BX","2018/08/28 17:48:49","新北市汐止區汐萬路一段81號","121.654561666667","25.0702416666667","6501100","汐止區"
"242013","281-VK","2018/08/28 17:48:44","新北市新莊區中泰街116號","121.448365","25.04651","6500500","新莊區"
"242011","280-VK","2018/08/28 17:48:47","新北市新莊區中港路684號","121.450751666667","25.0566766666667","6500500","新莊區"
