"lineid","car","time","location","longitude","latitude","cityid","cityname"
"234046","148-BY","2018/08/28 18:38:23","新北市永和區永元路95巷1號","121.522428333333","25.0017666666667","6500400","永和區"
"234081","298-R6","2018/08/28 18:38:24","新北市永和區林森路83號","121.523846666667","25.0038166666667","6500400","永和區"
"234086","338-UY","2018/08/28 18:38:28","新北市永和區福和路51號","121.523228333333","25.0080033333333","6500400","永和區"
"234007","695-BX","2018/08/28 18:38:13","新北市永和區環河西路二段185號","121.502316666667","25.0111933333333","6500400","永和區"
"234017","745-BX","2018/08/28 18:38:27","新北市永和區福和路1號","121.526263333333","25.0096916666667","6500400","永和區"
"234030","746-BX","2018/08/28 18:38:18","新北市永和區成功路二段79號","121.526761666667","24.9994433333333","6500400","永和區"
"234061","AAD-866","2018/08/28 18:38:32","新北市永和區福和路1號","121.525738333333","25.0095133333333","6500400","永和區"
"234013","847-RS","2018/08/28 18:38:32","新北市永和區保福路二段139號","121.509755","25.0140716666667","6500400","永和區"
"234050","863-TW","2018/08/28 18:38:25","新北市永和區福和路1號","121.526513333333","25.010075","6500400","永和區"
"234026","9371-KE","2018/08/28 18:38:27","新北市永和區永貞路415號","121.507438333333","25.0093783333333","6500400","永和區"
"234011","9373-KE","2018/08/28 18:38:32","新北市永和區文化路9巷22弄58號","121.513833333333","25.0144983333333","6500400","永和區"
"249005","172-UM","2018/08/28 18:38:28","新北市八里區中華路三段34-2號","121.388716666667","25.1255083333333","6502300","八里區"
"249001","173-UM","2018/08/28 18:38:28","新北市八里區龍米路一段366號","121.451545","25.1314983333333","6502300","八里區"
"249004","303-UY","2018/08/28 18:38:16","新北市八里區中山路一段10號","121.42322","25.1589883333333","6502300","八里區"
"249002","305-UY","2018/08/28 18:38:24","新北市八里區龍形一街18號","121.44965","25.1304616666667","6502300","八里區"
"248014","025-BX","2018/08/28 18:38:27","新北市五股區蓬萊路1-3號","121.434646666667","25.0796533333333","6501500","五股區"
"248016","026-BX","2018/08/28 18:38:19","新北市五股區凌雲路一段149巷7號","121.448993333333","25.1016483333333","6501500","五股區"
"248008","095-VK","2018/08/28 18:38:35","新北市五股區中興路一段150巷2號","121.464688333333","25.0741166666667","6501500","五股區"
"248020","225-UY","2018/08/28 18:38:26","新北市五股區孝義路47巷27-5號","121.447143333333","25.1112566666667","6501500","五股區"
"248012","247-BX","2018/08/28 18:38:15","新北市五股區御史路2號","121.4423","25.09023","6501500","五股區"
"248010","272-BY","2018/08/28 18:38:31","新北市五股區水碓一路14號","121.432453333333","25.0729666666667","6501500","五股區"
"248004","677-BX","2018/08/28 18:38:31","新北市五股區民義路一段210號","121.430333333333","25.089185","6501500","五股區"
"248002","678-BX","2018/08/28 18:38:23","新北市五股區西雲路207號","121.448665","25.0965833333333","6501500","五股區"
"234023","9380-KE","2018/08/28 18:38:20","新北市永和區福和路51號","121.523266666667","25.0079566666667","6500400","永和區"
"234077","969-R7","2018/08/28 18:38:29","新北市永和區中正路393號","121.517263333333","25.0040883333333","6500400","永和區"
"234067","AAC-212","2018/08/28 18:38:30","新北市永和區永貞路155號","121.515498333333","25.003965","6500400","永和區"
"244007","080-UY","2018/08/28 18:38:27","新北市林口區竹林路548號","121.387515","25.0844533333333","6501700","林口區"
"244019","403-UM","2018/08/28 18:38:20","新北市林口區忠孝路648號","121.379156666667","25.0685416666667","6501700","林口區"
"244013","KEA-2802","2018/08/28 18:38:24","新北市林口區中正路514巷25號","121.38201","25.0778566666667","6501700","林口區"
"244023","483-VK","2018/08/28 18:38:34","新北市林口區文化二路二段88巷11號","121.379493333333","25.08089","6501700","林口區"
"244017","485-VK","2018/08/28 18:38:16","新北市林口區文化二路一段62-6號","121.36546","25.068565","6501700","林口區"
"244009","656-BX","2018/08/28 18:38:17","新北市林口區文化一路二段285-1號","121.384976666667","25.084565","6501700","林口區"
"244011","657-BX","2018/08/28 18:38:22","新北市林口區興林路17巷5弄2號","121.390613333333","25.0770066666667","6501700","林口區"
"244025","837-TS","2018/08/28 18:38:13","新北市林口區南勢四街328號","121.357428333333","25.076205","6501700","林口區"
"244021","838-TS","2018/08/28 18:38:21","新北市林口區粉寮路一段64號","121.397011666667","25.078625","6501700","林口區"
"243013","AAD-798","2018/08/28 18:32:45","新北市泰山區明志路三段206巷3號","121.423298333333","25.0379283333333","6501600","泰山區"
"243016","KEA-2801","2018/08/28 18:38:23","新北市泰山區犁頭窠3-1號","121.422085","25.0605866666667","6501600","泰山區"
"243015","421-VK","2018/08/28 18:38:28","新北市泰山區黎明路31-1號","121.421501666667","25.06043","6501600","泰山區"
"222003","436-BY","2018/08/28 18:38:17","新北市深坑區翠谷街37巷1號","121.626551666667","25.00941","6501800","深坑區"
"222002","659-BX","2018/08/28 18:38:29","新北市深坑區雲鄉路3-1號","121.621251666667","24.9996266666667","6501800","深坑區"
"231041","002-UM","2018/08/28 18:38:27","新北市新店區安華路28-1號","121.519715","24.9608866666667","6500600","新店區"
"231059","046-UY","2018/08/28 18:38:26","新北市新店區安華路28-1號","121.519711666667","24.96093","6500600","新店區"
"231040","047-UY","2018/08/28 18:38:30","新北市新店區安華路28-1號","121.519195","24.9609166666667","6500600","新店區"
"231046","107-UY","2018/08/28 18:38:34","新北市新店區直潭二街1號","121.535501666667","24.9431966666667","6500600","新店區"
"231053","108-UY","2018/08/28 18:38:19","新北市新店區永興路10號","121.545411666667","24.9400716666667","6500600","新店區"
"231048","187-VK","2018/08/28 18:38:24","新北市新店區安一路一段1-1號","121.519681666667","24.9613283333333","6500600","新店區"
"231064","188-VK","2018/08/28 18:38:28","新北市新店區安一路一段1-1號","121.519345","24.9612883333333","6500600","新店區"
"231054","KEA-2219","2018/08/28 18:38:20","新北市新店區安一路一段1-1號","121.51997","24.9612516666667","6500600","新店區"
"231057","256-BX","2018/08/28 18:38:15","新北市新店區新烏路一段159-1號","121.547008333333","24.931935","6500600","新店區"
"231042","268-BY","2018/08/28 18:38:23","新北市新店區安華路28-1號","121.519476666667","24.9606733333333","6500600","新店區"
"231051","278-BY","2018/08/28 18:38:31","新北市新店區中央路137號","121.530288333333","24.9737083333333","6500600","新店區"
"231050","AAD-862","2018/08/28 18:38:21","新北市新店區安一路一段1-1號","121.520131666667","24.961265","6500600","新店區"
"231044","355-BY","2018/08/28 18:38:24","新北市新店區秀山路20號","121.532535","24.96038","6500600","新店區"
"231058","3713-VJ","2018/08/28 18:38:26","新北市新店區北宜路一段168號","121.540426666667","24.9529916666667","6500600","新店區"
"231066","4716-K9","2018/08/28 18:38:24","新北市新店區安一路一段1-1號","121.519441666667","24.9612616666667","6500600","新店區"
"231056","4715-K9","2018/08/28 18:38:21","新北市新店區建國路133號","121.539333333333","24.9782233333333","6500600","新店區"
"231067","4772-VM","2018/08/28 18:38:22","新北市新店區安華路1-1號","121.519138333333","24.9605816666667","6500600","新店區"
"231049","513-UM","2018/08/28 18:38:17","新北市新店區安一路一段1-1號","121.519803333333","24.9612466666667","6500600","新店區"
"231045","617-UM","2018/08/28 18:38:34","新北市新店區安華路28-1號","121.519526666667","24.9609633333333","6500600","新店區"
"231061","619-UM","2018/08/28 18:38:30","新北市新店區安華路28-1號","121.519591666667","24.96094","6500600","新店區"
"231063","641-BX","2018/08/28 18:38:25","新北市新店區安華路28-1號","121.519696666667","24.960665","6500600","新店區"
"231062","720-UM","2018/08/28 18:38:31","新北市新店區安一路一段1-1號","121.519093333333","24.9612166666667","6500600","新店區"
"231060","897-TW","2018/08/28 18:38:31","新北市新店區安華路28-1號","121.519411666667","24.9606566666667","6500600","新店區"
"231043","899-TW","2018/08/28 18:38:19","新北市新店區安一路一段1-1號","121.519128333333","24.96098","6500600","新店區"
"231055","AKT-0513","2018/08/28 18:38:21","新北市新店區中華路47巷2弄1號","121.53965","24.9674933333333","6500600","新店區"
"241035","462-BY","2018/08/28 18:38:34","新北市三重區重新路四段121號","121.484715","25.0521083333333","6500200","三重區"
"235066","003-UY","2018/08/28 18:38:21","新北市中和區水源路12號","121.503868333333","25.0035166666667","6500300","中和區"
"235064","005-UY","2018/08/28 18:38:18","新北市中和區連勝街26巷2號","121.498276666667","24.9980816666667","6500300","中和區"
"235063","006-UY","2018/08/28 18:38:29","新北市中和區連城路347巷4弄1-3號","121.488236666667","24.9955316666667","6500300","中和區"
"235056","096-UM","2018/08/28 18:38:29","新北市中和區員山路611巷5弄3號","121.478043333333","25.0112383333333","6500300","中和區"
"235039","097-UM","2018/08/28 18:38:25","新北市中和區宜安路2號","121.513746666667","24.99554","6500300","中和區"
"235065","098-UM","2018/08/28 18:38:17","新北市中和區莊敬路49巷27號","121.501515","25.0061766666667","6500300","中和區"
"235040","150-BY","2018/08/28 18:38:17","新北市中和區安平路100號","121.511648333333","24.9971466666667","6500300","中和區"
"235058","151-BY","2018/08/28 18:38:28","新北市中和區員山路98號","121.480893333333","24.994665","6500300","中和區"
"235055","183-VK","2018/08/28 18:38:29","新北市板橋區國泰街75巷53號","121.468678333333","25.0050816666667","6500300","中和區"
"235038","185-VK","2018/08/28 18:38:16","新北市中和區立人街14巷3號","121.51928","24.994665","6500300","中和區"
"235049","186-VK","2018/08/28 18:38:26","新北市中和區景平路480號","121.50499","24.9938716666667","6500300","中和區"
"235067","255-BX","2018/08/28 18:38:23","新北市中和區新生街3號","121.48317","25.0047433333333","6500300","中和區"
"235044","293-VK","2018/08/28 18:38:35","新北市中和區復興路259號","121.503005","24.9903366666667","6500300","中和區"
"235072","301-VK","2018/08/28 18:38:20","新北市中和區中山路二段193號","121.49999","25.0026766666667","6500300","中和區"
"235043","352-BY","2018/08/28 18:38:28","新北市中和區景平路165號","121.512315","24.99252","6500300","中和區"
"235042","KEA-2878","2018/08/28 18:38:27","新北市中和區成功路97巷5弄17號","121.526486666667","24.9922433333333","6500300","中和區"
"235050","4979-A6","2018/08/28 18:38:33","新北市中和區忠孝街124巷6號","121.51258","24.985985","6500300","中和區"
"235069","4980-A6","2018/08/28 18:38:33","新北市中和區連城路99巷59號","121.497293333333","24.99856","6500300","中和區"
"235070","558-UM","2018/08/28 18:38:30","新北市中和區景平路568號","121.502063333333","24.9954116666667","6500300","中和區"
"235045","565-BX","2018/08/28 18:38:31","新北市中和區南山路236巷36弄19號","121.503971666667","24.9879533333333","6500300","中和區"
"235054","640-BX","2018/08/28 18:38:34","新北市中和區莒光路68號","121.472271666667","25.0031616666667","6500300","中和區"
"235060","647-TV","2018/08/28 18:38:25","新北市中和區中山路二段499號","121.482398333333","25.0049766666667","6500300","中和區"
"235047","732-UM","2018/08/28 18:38:18","新北市中和區南山路320巷15號","121.507421666667","24.9863416666667","6500300","中和區"
"235071","783-BX","2018/08/28 18:38:19","新北市中和區員山路36巷16-3號","121.485191666667","24.9911983333333","6500300","中和區"
"235062","800-TS","2018/08/28 18:38:18","新北市中和區景平路726-4號","121.496793333333","25.00355","6500300","中和區"
"235057","801-TS","2018/08/28 18:38:34","新北市中和區員山路327巷17號","121.480611666667","25.0015916666667","6500300","中和區"
"235052","805-TS","2018/08/28 18:38:22","新北市中和區興南路三段35號","121.496966666667","24.9784066666667","6500300","中和區"
"235048","896-TW","2018/08/28 18:38:23","新北市中和區南山路158號","121.504415","24.9919466666667","6500300","中和區"
"235053","900-TW","2018/08/28 18:38:29","新北市中和區民享街482號","121.469405","24.9924266666667","6500300","中和區"
"235041","911-UM","2018/08/28 18:38:19","新北市中和區中安街132號","121.510845","25.0004433333333","6500300","中和區"
"235051","157-BY","2018/08/28 18:38:22","新北市中和區華新街143巷106弄20號","121.50602","24.9789583333333","6500300","中和區"
"235037","AAC-213","2018/08/28 18:38:18","新北市中和區景德街95-11號","121.515105","24.99119","6500300","中和區"
"235059","AAC-215","2018/08/28 18:38:35","新北市中和區錦和路204號","121.490401666667","24.9947916666667","6500300","中和區"
"220065","072-UY","2018/08/28 18:38:20","新北市板橋區四川路一段387號","121.457565","24.9989533333333","6500100","板橋區"
"220086","073-UY","2018/08/28 18:38:27","新北市板橋區南雅西路二段123巷10號","121.451778333333","25.0109166666667","6500100","板橋區"
"220069","AAD-861","2018/08/28 18:38:22","新北市板橋區華東街1-10號","121.448338333333","24.995095","6500100","板橋區"
"226004","205-ST","2018/08/28 18:38:21","新北市平溪區平溪里三坑路38號","121.734493333333","25.0327766666667","6502400","平溪區"
"228001","212-TW","2018/08/28 18:38:28","新北市貢寮區仁理村保健街71號","121.923676666667","25.051655","6502600","貢寮區"
"228002","663-BX","2018/08/28 18:38:32","新北市貢寮區福隆里東興街6-11號","121.95074","25.0210883333333","6502600","貢寮區"
"228003","828-UM","2018/08/28 18:38:23","新北市貢寮區和美里龍洞街40號","121.91519","25.1117016666667","6502600","貢寮區"
"224010","AGQ-8101","2018/08/28 18:38:25","新北市瑞芳區九份中山巷10號","121.843893333333","25.1076","6501200","瑞芳區"
"224006","676-BX","2018/08/28 18:38:32","新北市瑞芳區明燈路三段120號","121.804651666667","25.1084583333333","6501200","瑞芳區"
"224002","639-TC","2018/08/28 18:38:22","新北市瑞芳區東和路3號","121.804498333333","25.1061883333333","6501200","瑞芳區"
"224008","285-BY","2018/08/28 18:38:32","新北市瑞芳區岳王路17號","121.807293333333","25.1109466666667","6501200","瑞芳區"
"224007","275-VK","2018/08/28 18:38:16","新北市瑞芳區大埔路115巷24-1號","121.762881666667","25.1014633333333","6501200","瑞芳區"
"224009","273-VK","2018/08/28 18:38:29","新北市瑞芳區祈堂路40號","121.85889","25.1105366666667","6501200","瑞芳區"
"224005","271-BY","2018/08/28 18:38:32","新北市瑞芳區建基路一段33號","121.819235","25.1214","6501200","瑞芳區"
"227003","642-TC","2018/08/28 18:38:25","新北市雙溪區魚行里坤溪3-5號","121.876183333333","25.02086","6502500","雙溪區"
"227009","400-TW","2018/08/28 18:38:17","新北市雙溪區牡丹里下坑11號","121.851025","25.0561866666667","6502500","雙溪區"
"253005","032-BX","2018/08/28 18:38:21","新北市石門區石門街37號","121.56624","25.290515","6502200","石門區"
"253006","295-VK","2018/08/28 18:38:21","新北市石門區崁子腳28-5號","121.538723333333","25.289585","6502200","石門區"
"222001","KEA-2212","2018/08/28 18:38:27","新北市深坑區北深路一段102號","121.635633333333","25.01071","6501800","深坑區"
"208002","KEA-2872","2018/08/28 18:38:32","新北市金山區忠孝一路19巷17號","121.637301666667","25.2177483333333","6502700","金山區"
"208003","665-BX","2018/08/28 18:38:32","新北市金山區中山路403號","121.633131666667","25.225435","6502700","金山區"
"208001","761-BX","2018/08/28 18:38:20","新北市金山區文化三路36號","121.635548333333","25.2247533333333","6502700","金山區"
"251002","012-UM","2018/08/28 18:38:15","新北市淡水區中正東路一段3巷14弄1號","121.45096","25.16418","6501000","淡水區"
"251013","KEA-2871","2018/08/28 18:38:29","新北市淡水區小坑子頭6號","121.480895","25.2086933333333","6501000","淡水區"
"251016","179-VK","2018/08/28 18:38:17","新北市淡水區下圭柔山76-8號","121.441931666667","25.2053583333333","6501000","淡水區"
"251014","180-VK","2018/08/28 18:38:26","新北市淡水區崙頂12-8號","121.495626666667","25.2172433333333","6501000","淡水區"
"251015","181-VK","2018/08/28 18:38:24","新北市淡水區興福寮66巷579號","121.484333333333","25.163345","6501000","淡水區"
"251010","413-VK","2018/08/28 18:38:24","新北市淡水區沙崙路141號","121.423211666667","25.182995","6501000","淡水區"
"251012","441-VK","2018/08/28 18:38:31","新北市淡水區北新路117號","121.448885","25.1786233333333","6501000","淡水區"
"251008","442-VK","2018/08/28 18:38:30","新北市淡水區北投子87-3號","121.469323333333","25.1792766666667","6501000","淡水區"
"251004","443-VK","2018/08/28 18:38:25","新北市淡水區大同路2號","121.46156","25.1407983333333","6501000","淡水區"
"251001","559-UM","2018/08/28 18:38:25","新北市淡水區自強路415巷2號","121.465428333333","25.1343416666667","6501000","淡水區"
"251006","561-UM","2018/08/28 18:38:21","新北市淡水區新市二路四段58號","121.441703333333","25.19278","6501000","淡水區"
"251011","650-BX","2018/08/28 18:38:35","新北市淡水區鄧公路19-1號","121.450613333333","25.1697516666667","6501000","淡水區"
"251003","673-BX","2018/08/28 18:38:31","新北市淡水區北新路69巷26號","121.446766666667","25.18007","6501000","淡水區"
"207003","550-UM","2018/08/28 18:38:31","新北市萬里區野柳里八斗60-1號","121.669373333333","25.20294","6502800","萬里區"
"207004","225-TW","2018/08/28 18:38:35","新北市萬里區萬里里獅頭路7號","121.69183","25.17821","6502800","萬里區"
"252002","178-VK","2018/08/28 18:38:31","新北市三芝區民生街64巷11號","121.503661666667","25.255085","6502100","三芝區"
"252003","249-BX","2018/08/28 18:38:14","新北市三芝區後厝里土地公坑56號","121.463253333333","25.2486133333333","6502100","三芝區"
"252001","292-VK","2018/08/28 18:38:16","新北市三芝區埔頭里埔頭14號","121.500271666667","25.2543083333333","6502100","三芝區"
"237004","KEA-2597","2018/08/28 18:38:17","新北市三峽區插角112號","121.407993333333","24.8703116666667","6500900","三峽區"
"237007","153-BY","2018/08/28 18:38:29","新北市三峽區中正路二段463號","121.360961666667","24.90643","6500900","三峽區"
"237009","210-TH","2018/08/28 18:38:28","新北市三峽區大同路315號","121.363256666667","24.9245483333333","6500900","三峽區"
"237013","252-BX","2018/08/28 18:38:31","新北市三峽區光明路69巷25號","121.376668333333","24.9292866666667","6500900","三峽區"
"237012","275-BY","2018/08/28 18:38:28","新北市三峽區三樹路358號","121.383988333333","24.9433483333333","6500900","三峽區"
"237008","302-VK","2018/08/28 18:38:23","新北市三峽區白雞67-5號","121.399163333333","24.9113516666667","6500900","三峽區"
"237014","433-BY","2018/08/28 18:38:33","新北市三峽區大勇路1號","121.36709","24.9390533333333","6500900","三峽區"
"237011","KEA-2596","2018/08/28 18:38:20","新北市三峽區介壽路三段56號","121.395676666667","24.9374016666667","6500900","三峽區"
"237016","649-BX","2018/08/28 18:38:23","新北市三峽區竹崙路153號","121.43425","24.9072333333333","6500900","三峽區"
"237010","706-TV","2018/08/28 18:38:17","新北市三峽區復興路485號","121.36144","24.9384816666667","6500900","三峽區"
"237005","AKY-6261","2018/08/28 18:38:30","新北市三峽區民生街86號","121.374266666667","24.935755","6500900","三峽區"
"236070","105-UM","2018/08/28 18:38:35","新北市土城區永豐路157巷29弄6-1號","121.468343333333","24.9814833333333","6501300","土城區"
"236042","107-UM","2018/08/28 18:38:13","新北市土城區裕民路59號","121.44908","24.9877833333333","6501300","土城區"
"236079","166-UM","2018/08/28 18:38:23","新北市土城區中央路四段47號","121.422373333333","24.9615883333333","6501300","土城區"
"236030","253-BX","2018/08/28 18:38:13","新北市土城區中央路二段278巷9-2號","121.439988333333","24.97486","6501300","土城區"
"236026","269-VK","2018/08/28 18:38:29","新北市土城區千歲路28巷2-1號","121.44141","24.9687416666667","6501300","土城區"
"236014","270-VK","2018/08/28 18:38:03","新北市土城區立仁街34巷2號","121.460006666667","24.98285","6501300","土城區"
"236038","271-VK","2018/08/28 18:38:32","新北市土城區明德路一段291巷11弄20號","121.460951666667","24.976065","6501300","土城區"
"236021","401-BY","2018/08/28 18:38:29","新北市土城區明德路一段67號","121.46546","24.98429","6501300","土城區"
"236059","912-UM","2018/08/28 18:38:31","新北市土城區中央路三段231-9號","121.428373333333","24.964175","6501300","土城區"
"236049","913-UM","2018/08/28 18:38:33","新北市土城區明德路一段107號","121.465623333333","24.9823366666667","6501300","土城區"
"236063","915-UM","2018/08/28 18:38:24","新北市土城區延壽路13巷19號","121.469903333333","24.99136","6501300","土城區"
"236055","AAC-216","2018/08/28 18:38:28","新北市土城區裕民路24號","121.447743333333","24.9885966666667","6501300","土城區"
"242058","986-R7","2018/08/28 18:38:26","新北市新莊區中正路881-5號","121.41743","25.0255066666667","6500500","新莊區"
"242054","751-BX","2018/08/28 18:38:25","新北市新莊區新樹路308號","121.433298333333","25.0047566666667","6500500","新莊區"
"242025","613-BX","2018/08/28 18:38:29","新北市新莊區中平路265號","121.4448","25.0495116666667","6500500","新莊區"
"242051","441-UM","2018/08/28 18:38:19","新北市樹林區八德街584號","121.398881666667","24.9693083333333","6500500","新莊區"
"242061","353-BY","2018/08/28 18:38:27","新北市新莊區四維路11號","121.424093333333","25.024155","6500500","新莊區"
"242017","175-VK","2018/08/28 18:38:23","新北市新莊區三和路12-21號","121.44196","25.03869","6500500","新莊區"
"238023","601-UM","2018/08/28 18:38:23","新北市樹林區三福街114號","121.406481666667","25.01628","6500700","樹林區"
"238019","599-UM","2018/08/28 18:38:16","新北市樹林區中華路190-16號","121.411693333333","24.980635","6500700","樹林區"
"238018","571-TV","2018/08/28 18:38:31","新北市樹林區樹新路55號","121.427223333333","24.9948966666667","6500700","樹林區"
"238024","5061-A6","2018/08/28 18:38:26","新北市樹林區福順街31號","121.415641666667","24.9790683333333","6500700","樹林區"
"238025","303-VK","2018/08/28 18:38:16","新北市樹林區中山路三段22號","121.395633333333","24.9729483333333","6500700","樹林區"
"238017","283-BY","2018/08/28 18:38:30","新北市樹林區光興街44號","121.40988","25.002735","6500700","樹林區"
"238014","282-BY","2018/08/28 18:38:30","新北市樹林區大安路111巷11號","121.423093333333","24.99762","6500700","樹林區"
"238020","268-VK","2018/08/28 18:38:30","新北市樹林區三龍街21號","121.413233333333","25.0190483333333","6500700","樹林區"
"238026","172-UY","2018/08/28 18:38:23","新北市樹林區育德街78-1號","121.38844","24.968005","6500700","樹林區"
"238016","169-UY","2018/08/28 18:38:29","新北市樹林區文化街23號","121.419298333333","24.9876583333333","6500700","樹林區"
"239007","AAC-297","2018/08/28 18:38:26","新北市鶯歌區中正一路240號","121.35431","24.95704","6500800","鶯歌區"
"239006","891-R6","2018/08/28 18:38:15","新北市鶯歌區鶯桃路296巷55弄14號","121.336115","24.961695","6500800","鶯歌區"
"239008","527-UM","2018/08/28 18:38:29","新北市鶯歌區國際一路179號","121.336271666667","24.9765166666667","6500800","鶯歌區"
"239005","526-UM","2018/08/28 18:38:15","新北市鶯歌區鶯桃路668巷23號","121.329025","24.9702566666667","6500800","鶯歌區"
"239001","417-VK","2018/08/28 18:38:27","新北市鶯歌區鶯桃路96號","121.339528333333","24.9538216666667","6500800","鶯歌區"
"239003","360-BY","2018/08/28 18:38:27","新北市鶯歌區永和街45號","121.332551666667","24.967415","6500800","鶯歌區"
"239002","359-BY","2018/08/28 18:38:20","新北市鶯歌區中正一路187號","121.353436666667","24.9569466666667","6500800","鶯歌區"
"239004","193-VK","2018/08/28 18:38:29","新北市鶯歌區中正三路194巷42號","121.330888333333","24.94106","6500800","鶯歌區"
"221008","489-VK","2018/08/28 18:38:31","新北市汐止區康寧街901號","121.651341666667","25.0749933333333","6501100","汐止區"
"221036","130-UY","2018/08/28 18:38:29","新北市汐止區忠孝東路351-4號","121.665215","25.07014","6501100","汐止區"
"221015","131-UY","2018/08/28 18:38:13","新北市汐止區鄉長路二段18巷1號","121.66818","25.0818","6501100","汐止區"
"221010","269-BY","2018/08/28 18:38:29","新北市汐止區汐萬路三段74巷2號","121.644153333333","25.09538","6501100","汐止區"
"221012","278-VK","2018/08/28 18:38:29","新北市汐止區長江街190-1號","121.659968333333","25.0764733333333","6501100","汐止區"
"221023","279-VK","2018/08/28 18:38:32","新北市汐止區明峰街37號","121.633786666667","25.0713366666667","6501100","汐止區"
"221032","280-BY","2018/08/28 18:38:37","新北市汐止區民權街二段83號","121.619148333333","25.0477966666667","6501100","汐止區"
"221027","281-BY","2018/08/28 18:38:32","新北市汐止區大同路二段341-1號","121.656085","25.0672483333333","6501100","汐止區"
"221029","298-VK","2018/08/28 18:38:16","新北市汐止區樟樹一路131號","121.642071666667","25.0649516666667","6501100","汐止區"
"221021","299-VK","2018/08/28 18:38:18","新北市汐止區復興路70號","121.65714","25.0622","6501100","汐止區"
"221031","353-TW","2018/08/28 18:38:15","新北市汐止區福德一路274號","121.6321","25.06392","6501100","汐止區"
"221002","129-UY","2018/08/28 18:38:22","新北市汐止區中興路25號","121.6369","25.059625","6501100","汐止區"
"221035","622-UM","2018/08/28 18:38:32","新北市汐止區大同路126號","121.651286666667","25.0637916666667","6501100","汐止區"
"221025","623-UM","2018/08/28 18:38:36","新北市汐止區仁愛路124號","121.662966666667","25.063935","6501100","汐止區"
"221038","646-BX","2018/08/28 18:38:29","新北市汐止區汐萬路一段256巷1號","121.651775","25.0748716666667","6501100","汐止區"
"221033","647-BX","2018/08/28 18:38:34","新北市汐止區南勢街2號","121.627248333333","25.0373433333333","6501100","汐止區"
"221018","753-BX","2018/08/28 18:38:29","新北市汐止區茄苳路293號","121.672885","25.0674333333333","6501100","汐止區"
"220080","200-UY","2018/08/28 18:38:31","新北市板橋區大觀路二段419號","121.441058333333","24.995855","6500100","板橋區"
"220082","610-BX","2018/08/28 18:38:35","新北市板橋區大觀路三段26號","121.434181666667","24.9956966666667","6500100","板橋區"
"220056","276-BY","2018/08/28 18:38:33","新北市板橋區四川路二段橋頭6號","121.448348333333","24.9940716666667","6500100","板橋區"
"220072","277-BY","2018/08/28 18:38:27","新北市板橋區大觀路三段59巷17弄6-1號","121.435685","24.9955333333333","6500100","板橋區"
"220063","280-UM","2018/08/28 18:38:35","新北市板橋區民生路二段188號","121.46985","25.0204333333333","6500100","板橋區"
"220071","283-VK","2018/08/28 18:38:35","新北市板橋區四川路二段140巷6號","121.44965","24.9932183333333","6500100","板橋區"
"220094","285-UM","2018/08/28 18:38:25","新北市板橋區莊敬路220巷58號","121.47172","25.0207783333333","6500100","板橋區"
"220083","286-VK","2018/08/28 18:38:32","新北市板橋區大觀路二段153巷47號","121.447075","25.0007433333333","6500100","板橋區"
"220081","287-VK","2018/08/28 18:38:28","新北市板橋區大觀路二段17號","121.446801666667","25.0034066666667","6500100","板橋區"
"220061","295-UM","2018/08/28 18:38:17","新北市板橋區民生路二段120號","121.470333333333","25.019925","6500100","板橋區"
"220084","296-UM","2018/08/28 18:38:30","新北市板橋區華東街1-9號","121.448143333333","24.994975","6500100","板橋區"
"220062","299-UM","2018/08/28 18:38:23","新北市板橋區民生路二段161巷7號","121.470266666667","25.0197033333333","6500100","板橋區"
"220075","303-R5","2018/08/28 18:38:16","新北市板橋區大觀路二段28號","121.44669","25.0030016666667","6500100","板橋區"
"220064","486-VK","2018/08/28 18:38:31","新北市板橋區縣民大道一段114號","121.457266666667","25.006","6500100","板橋區"
"220057","686-BX","2018/08/28 18:38:28","新北市板橋區華東街1-9號","121.448223333333","24.994965","6500100","板橋區"
"220077","687-BX","2018/08/28 18:38:17","新北市板橋區大觀路二段385巷7號","121.441015","24.997455","6500100","板橋區"
"220054","741-BX","2018/08/28 18:38:25","新北市板橋區南雅南路二段120-11號","121.452065","24.9992816666667","6500100","板橋區"
"220055","827-TW","2018/08/28 18:38:29","新北市板橋區南雅南路二段122-6號","121.451463333333","24.9984933333333","6500100","板橋區"
"220074","895-R6","2018/08/28 18:38:16","新北市板橋區南雅南路二段11-2號","121.45417","25.00249","6500100","板橋區"
"220073","985-R7","2018/08/28 18:38:21","新北市板橋區南雅南路二段11-18號","121.454725","25.00143","6500100","板橋區"
"220070","AAC-253","2018/08/28 18:38:35","新北市板橋區華東街1-9號","121.448236666667","24.994855","6500100","板橋區"
"235068","KEA-2873","2018/08/28 18:38:04","新北市中和區中正路209號","121.497313333333","24.9936866666667","6500300","中和區"
"235061","KEA-2875","2018/08/28 18:38:23","新北市中和區民享街114巷21號","121.473741666667","24.99945","6500300","中和區"
