"lineid","car","time","location","longitude","latitude","cityid","cityname"
"231059","046-UY","2018/08/28 20:59:06","新北市新店區僑信路118號","121.500448333333","24.946455","6500600","新店區"
"231040","047-UY","2018/08/28 20:58:59","新北市新店區中正路153號","121.541318333333","24.97177","6500600","新店區"
"231053","108-UY","2018/08/28 20:58:58","新北市新店區環河路8號","121.538056666667","24.96171","6500600","新店區"
"231048","187-VK","2018/08/28 20:59:04","新北市新店區寶元路一段109號","121.545706666667","24.983105","6500600","新店區"
"231064","188-VK","2018/08/28 20:59:08","新北市新店區安民街251巷13號","121.516751666667","24.9730766666667","6500600","新店區"
"231054","KEA-2219","2018/08/28 20:59:00","新北市新店區大新街7巷1號","121.543131666667","24.9686316666667","6500600","新店區"
"231042","268-BY","2018/08/28 20:59:02","新北市新店區寶橋路98號","121.54709","24.975895","6500600","新店區"
"231051","278-BY","2018/08/28 20:58:51","新北市新店區中正路663巷1弄2號","121.532941666667","24.990025","6500600","新店區"
"231050","AAD-862","2018/08/28 20:59:00","新北市新店區三民路75巷4弄2號","121.535625","24.971","6500600","新店區"
"231058","3713-VJ","2018/08/28 20:59:06","新北市新店區安德街116巷38號","121.508273333333","24.96175","6500600","新店區"
"231066","4716-K9","2018/08/28 20:59:04","新北市新店區吉安街14號","121.516773333333","24.9657183333333","6500600","新店區"
"231067","4772-VM","2018/08/28 20:58:41","新北市新店區安康路二段46號","121.515391666667","24.96368","6500600","新店區"
"231065","512-UM","2018/08/28 20:58:58","新北市新店區安祥路69巷73號","121.482616666667","24.95961","6500600","新店區"
"231049","513-UM","2018/08/28 20:58:57","新北市新店區安光路10號","121.513803333333","24.9638283333333","6500600","新店區"
"231045","617-UM","2018/08/28 20:58:54","新北市新店區吉安街10號","121.516883333333","24.9657283333333","6500600","新店區"
"231061","619-UM","2018/08/28 20:58:50","新北市新店區新和街93巷8號","121.52087","24.986745","6500600","新店區"
"231063","641-BX","2018/08/28 20:59:05","新北市新店區玫瑰路58巷2號","121.495411666667","24.946825","6500600","新店區"
"231068","718-UY","2018/08/28 20:59:02","新北市新店區寶元路二段45號","121.547093333333","24.9813033333333","6500600","新店區"
"231062","720-UM","2018/08/28 20:58:51","新北市新店區裕合街253號","121.490233333333","24.94867","6500600","新店區"
"231060","897-TW","2018/08/28 20:58:51","新北市新店區安康路三段489號","121.482701666667","24.9492333333333","6500600","新店區"
"231043","899-TW","2018/08/28 20:58:59","新北市新店區中央路151號","121.529346666667","24.9723266666667","6500600","新店區"
"241011","013-R5","2018/08/28 20:58:49","新北市三重區秀江街117號","121.499728333333","25.07223","6500200","三重區"
"241028","022-UY","2018/08/28 20:58:54","新北市三重區重新路二段97號","121.495678333333","25.0616283333333","6500200","三重區"
"241008","059-VK","2018/08/28 20:59:08","新北市三重區車路頭街135-1號","121.48429","25.07613","6500200","三重區"
"241022","060-VK","2018/08/28 20:58:47","新北市三重區中正北路20巷12號","121.48797","25.062515","6500200","三重區"
"241031","061-VK","2018/08/28 20:58:59","新北市三重區重陽路一段113巷2弄2號","121.487533333333","25.0599166666667","6500200","三重區"
"241015","062-VK","2018/08/28 20:59:02","新北市三重區福德北路61號","121.502083333333","25.0654683333333","6500200","三重區"
"241017","063-VK","2018/08/28 20:58:49","新北市三重區自強路一段220巷1弄8號","121.493626666667","25.0662833333333","6500200","三重區"
"241024","065-VK","2018/08/28 20:58:58","新北市三重區國道路一段58巷16號","121.480845","25.072155","6500200","三重區"
"241026","066-VK","2018/08/28 20:58:51","新北市三重區文化南路21號","121.500165","25.0620166666667","6500200","三重區"
"241002","090-VK","2018/08/28 20:59:05","新北市三重區五華街7巷2號","121.495386666667","25.0801716666667","6500200","三重區"
"241003","091-VK","2018/08/28 20:58:50","新北市三重區仁義街250號","121.493848333333","25.0859633333333","6500200","三重區"
"241016","266-UM","2018/08/28 20:58:53","新北市三重區正義北路120號","121.496876666667","25.065475","6500200","三重區"
"241009","267-UM","2018/08/28 20:58:46","新北市三重區三和路四段324號","121.483855","25.0779983333333","6500200","三重區"
"241018","268-UM","2018/08/28 20:59:00","新北市三重區雙園街99號","121.493811666667","25.0673316666667","6500200","三重區"
"241032","269-UM","2018/08/28 20:59:04","新北市三重區三陽路112號","121.48305","25.0587883333333","6500200","三重區"
"241013","270-UM","2018/08/28 20:58:53","新北市三重區仁賢街6號","121.495648333333","25.07478","6500200","三重區"
"241025","271-UM","2018/08/28 20:59:03","新北市三重區貴陽街16號","121.483965","25.0618016666667","6500200","三重區"
"241007","398-BY","2018/08/28 20:58:53","新北市三重區慈愛街8號","121.484526666667","25.07839","6500200","三重區"
"241004","475-VK","2018/08/28 20:58:49","新北市三重區仁愛街420號","121.490373333333","25.0814183333333","6500200","三重區"
"241020","478-VK","2018/08/28 20:59:04","新北市三重區忠孝路二段35號","121.48597","25.071125","6500200","三重區"
"241030","480-VK","2018/08/28 20:59:00","新北市三重區中正南路252巷5號","121.49338","25.0525333333333","6500200","三重區"
"241014","543-UM","2018/08/28 20:58:47","新北市三重區長榮路75號","121.502558333333","25.069065","6500200","三重區"
"241023","545-UM","2018/08/28 20:59:01","新北市三重區洛陽街45巷15號","121.482366666667","25.0637616666667","6500200","三重區"
"241001","547-UM","2018/08/28 20:58:48","新北市三重區三和路四段128-1號","121.488848333333","25.0751666666667","6500200","三重區"
"241019","KEA-2593","2018/08/28 20:58:46","新北市三重區三張街104號","121.48791","25.0698966666667","6500200","三重區"
"241006","AAD-863","2018/08/28 20:58:53","新北市三重區永福街23號","121.481665","25.0781633333333","6500200","三重區"
"241005","887-TS","2018/08/28 20:58:51","新北市三重區五華街166號","121.489211666667","25.0859633333333","6500200","三重區"
"241012","941-UM","2018/08/28 20:58:59","新北市三重區仁信街27號","121.501311666667","25.07554","6500200","三重區"
"241029","942-UM","2018/08/28 20:58:50","新北市三重區正義南路111號","121.498275","25.0585383333333","6500200","三重區"
"241033","AAC-255","2018/08/28 20:58:48","新北市三重區光復路二段1號","121.472326666667","25.0532983333333","6500200","三重區"
"247010","KEA-2869","2018/08/28 20:58:47","新北市蘆洲區鷺江街76號","121.476963333333","25.08389","6501400","蘆洲區"
"235069","4980-A6","2018/08/28 20:58:53","新北市中和區連城路469巷33號","121.483538333333","24.9946083333333","6500300","中和區"
"247024","893-R6","2018/08/28 20:58:55","新北市蘆洲區長興路213號","121.461183333333","25.086385","6501400","蘆洲區"
"247014","546-UM","2018/08/28 20:58:55","新北市蘆洲區中山二路36巷19號","121.474115","25.08286","6501400","蘆洲區"
"247022","500-BY","2018/08/28 20:58:57","新北市蘆洲區中正路202號","121.466743333333","25.0883733333333","6501400","蘆洲區"
"247012","339-TH","2018/08/28 20:58:57","新北市蘆洲區民權路5號","121.47665","25.0857416666667","6501400","蘆洲區"
"247004","337-TH","2018/08/28 20:58:52","新北市蘆洲區永安南路二段268號","121.45865","25.0807166666667","6501400","蘆洲區"
"247006","336-TH","2018/08/28 20:58:51","新北市蘆洲區永安南路二段18號","121.467681666667","25.077195","6501400","蘆洲區"
"247018","057-VK","2018/08/28 20:59:02","新北市蘆洲區民權路120號","121.473501666667","25.0885433333333","6501400","蘆洲區"
"247008","053-VK","2018/08/28 20:59:03","新北市蘆洲區民生街76號","121.47288","25.0790683333333","6501400","蘆洲區"
"247016","007-UY","2018/08/28 20:58:47","新北市蘆洲區正和街78號","121.468481666667","25.0810083333333","6501400","蘆洲區"
"247020","001-UY","2018/08/28 20:59:02","新北市蘆洲區民族路371號","121.471208333333","25.0913083333333","6501400","蘆洲區"
"222001","KEA-2212","2018/08/28 20:59:06","新北市深坑區北深路三段25巷13-3號","121.608705","25.0002316666667","6501800","深坑區"
"251005","010-UM","2018/08/28 20:59:02","新北市淡水區學府路51巷2弄11號","121.447796666667","25.1698833333333","6501000","淡水區"
"251002","012-UM","2018/08/28 20:58:55","新北市淡水區英專路67號","121.445581666667","25.17112","6501000","淡水區"
"251013","KEA-2871","2018/08/28 20:58:49","新北市淡水區行忠路253號","121.45968","25.2002933333333","6501000","淡水區"
"251016","179-VK","2018/08/28 20:58:57","新北市淡水區牛埔子11-1號","121.450231666667","25.2184316666667","6501000","淡水區"
"251014","180-VK","2018/08/28 20:58:46","新北市淡水區溪口16號","121.455748333333","25.236525","6501000","淡水區"
"251015","181-VK","2018/08/28 20:59:03","新北市淡水區淡金路四段542巷17號","121.452743333333","25.2270783333333","6501000","淡水區"
"251010","413-VK","2018/08/28 20:59:04","新北市淡水區中正路一段118-3號","121.423826666667","25.1788966666667","6501000","淡水區"
"251012","441-VK","2018/08/28 20:59:02","新北市淡水區淡金路五段110號","121.456518333333","25.2366316666667","6501000","淡水區"
"251008","442-VK","2018/08/28 20:58:50","新北市淡水區下圭柔山90-8號","121.431655","25.2118133333333","6501000","淡水區"
"251001","559-UM","2018/08/28 20:59:05","新北市淡水區淡金路二段147號","121.449841666667","25.1827266666667","6501000","淡水區"
"251009","575-R6","2018/08/28 20:59:02","新北市淡水區民族路112巷70號","121.46174","25.13385","6501000","淡水區"
"251011","650-BX","2018/08/28 20:59:05","新北市淡水區新民街322巷1號","121.435261666667","25.18381","6501000","淡水區"
"251003","673-BX","2018/08/28 20:58:50","新北市淡水區新春街117號","121.441446666667","25.181985","6501000","淡水區"
"242051","441-UM","2018/08/28 20:58:59","新北市新莊區環漢路三段528巷18-1號","121.434388333333","25.0008716666667","6500500","新莊區"
"221032","280-BY","2018/08/28 20:58:57","新北市汐止區汐萬路一段256巷3號","121.65337","25.0744516666667","6501100","汐止區"
"221029","298-VK","2018/08/28 20:58:55","新北市汐止區康寧街901號","121.651658333333","25.0749033333333","6501100","汐止區"
