"lineid","car","time","location","longitude","latitude","cityid","cityname"
"248005","653-BX","2018/02/09 09:49:38","新北市五股區成泰路一段130號","121.43539","25.074685","6501500","五股區"
"222005","289-BY","2018/02/09 09:49:39","新北市深坑區昇高坑路34號","121.627755","24.999745","6501800","深坑區"
"231007","189-VK","2018/02/09 09:49:37","新北市新店區新潭路三段215巷25號","121.508125","24.9040916666667","6500600","新店區"
"231009","192-VK","2018/02/09 09:46:56","新北市新店區平廣路一段182-2號","121.51809","24.889665","6500600","新店區"
"223001","205-TH","2018/02/09 09:49:44","新北市石碇區北宜路五段66號","121.638351666667","24.9536616666667","6501900","石碇區"
"223004","660-BX","2018/02/09 09:49:39","新北市石碇區碇坪路二段31號","121.684251666667","24.9762616666667","6501900","石碇區"
"223005","677-TV","2018/02/09 09:49:36","新北市石碇區碇坪路二段35號","121.68483","24.9767183333333","6501900","石碇區"
"227005","282-VK","2018/02/09 09:48:48","新北市雙溪區泰平里溪尾寮1號","121.821068333333","24.9600316666667","6502500","雙溪區"
"236006","498-BY","2018/02/09 09:49:32","新北市土城區中央路二段223-17號","121.44053","24.9728483333333","6501300","土城區"
