"lineid","car","time","location","longitude","latitude","cityid","cityname"
"234044","148-BY","2018/02/09 12:39:15","新北市永和區永元路94號","121.522503333333","25.0016616666667","6500400","永和區"
"234005","207-UY","2018/02/09 12:39:33","新北市永和區福和路1號","121.526336666667","25.00976","6500400","永和區"
"234078","298-R6","2018/02/09 12:39:46","新北市永和區林森路85號","121.52379","25.003815","6500400","永和區"
"234036","336-UY","2018/02/09 12:39:39","新北市永和區福和路1號","121.526451666667","25.0099183333333","6500400","永和區"
"234084","338-UY","2018/02/09 12:39:39","新北市永和區永貞路99號","121.518133333333","25.0043966666667","6500400","永和區"
"234068","552-UM","2018/02/09 12:39:39","新北市永和區福和路1號","121.525408333333","25.009485","6500400","永和區"
"234015","745-BX","2018/02/09 12:39:49","新北市永和區福和路1號","121.526241666667","25.0096433333333","6500400","永和區"
"234028","746-BX","2018/02/09 12:39:43","新北市永和區成功路一段89號","121.526878333333","25.00291","6500400","永和區"
"234012","KEA-2591","2018/02/09 12:39:50","新北市永和區保安路35號","121.50983","25.01618","6500400","永和區"
"234060","AAD-866","2018/02/09 12:39:41","新北市永和區福和路1號","121.526055","25.0095533333333","6500400","永和區"
"234040","862-TW","2018/02/09 12:39:36","新北市永和區永貞路267號","121.511973333333","25.0047133333333","6500400","永和區"
"234048","863-TW","2018/02/09 12:39:39","新北市永和區環河西路一段95巷2-1號","121.512031666667","25.0177233333333","6500400","永和區"
"234022","9381-KE","2018/02/09 12:39:41","新北市永和區福和路1號","121.525895","25.0091783333333","6500400","永和區"
"234010","9373-KE","2018/02/09 12:39:45","新北市永和區保順路11號","121.504803333333","25.009565","6500400","永和區"
"234076","969-R7","2018/02/09 12:39:40","新北市永和區中正路151巷1-1號","121.51636","24.998255","6500400","永和區"
"234066","AAC-212","2018/02/09 12:39:31","新北市永和區福和路289號","121.517225","25.0072316666667","6500400","永和區"
"234001","AAC-295","2018/02/09 12:39:35","新北市永和區福和路1號","121.526486666667","25.0099183333333","6500400","永和區"
"231028","046-UY","2018/02/09 12:39:36","新北市新店區安華路28-1號","121.519695","24.9609183333333","6500600","新店區"
"231013","110-UY","2018/02/09 12:39:39","新北市新店區安華路28-1號","121.519278333333","24.9611833333333","6500600","新店區"
"231023","AAD-862","2018/02/09 12:39:37","新北市新店區安華路28-1號","121.520278333333","24.961085","6500600","新店區"
"231032","720-UM","2018/02/09 12:39:31","新北市新店區安康路一段355-3號","121.518955","24.9615666666667","6500600","新店區"
"235001","611-BX","2018/02/09 12:39:50","新北市中和區員山路489號","121.47998","25.0055733333333","6500300","中和區"
"207002","749-BX","2018/02/09 12:39:33","新北市萬里區雙興里太和路7-2號","121.65862","25.1739816666667","6502800","萬里區"
