"lineid","car","time","location","longitude","latitude","cityid","cityname"
"234044","148-BY","2018/02/09 13:59:35","新北市永和區成功路一段139號","121.526845","25.001505","6500400","永和區"
"234005","207-UY","2018/02/09 13:59:33","新北市中和區中和路300-1號","121.50889","24.9997983333333","6500400","永和區"
"234078","298-R6","2018/02/09 13:59:45","新北市永和區國中路8號","121.524256666667","25.0047466666667","6500400","永和區"
"234036","336-UY","2018/02/09 13:59:39","新北市永和區成功路二段90號","121.526581666667","24.9986033333333","6500400","永和區"
"234062","337-UY","2018/02/09 13:59:45","新北市永和區中正路412巷20弄32號","121.519096666667","25.0011766666667","6500400","永和區"
"234084","338-UY","2018/02/09 13:59:50","新北市永和區福和路71號","121.522605","25.0078883333333","6500400","永和區"
"234068","552-UM","2018/02/09 13:59:40","新北市永和區福和路224號","121.519135","25.0079516666667","6500400","永和區"
"234015","745-BX","2018/02/09 13:59:49","新北市永和區文化路28號","121.51516","25.015065","6500400","永和區"
"234028","746-BX","2018/02/09 13:59:49","新北市永和區民生路67巷56號","121.525491666667","24.9975016666667","6500400","永和區"
"234052","KEA-2590","2018/02/09 13:59:52","新北市永和區竹林路39巷42弄1號","121.520123333333","25.0152083333333","6500400","永和區"
"234012","KEA-2591","2018/02/09 13:59:50","新北市永和區保生路55號","121.504686666667","25.0105966666667","6500400","永和區"
"234060","AAD-866","2018/02/09 13:59:41","新北市永和區中正路151巷14號","121.515548333333","24.9988183333333","6500400","永和區"
"234040","862-TW","2018/02/09 13:59:48","新北市永和區雙和街17巷21號","121.508978333333","25.00128","6500400","永和區"
"234048","863-TW","2018/02/09 13:59:39","新北市永和區保安路250號","121.506346666667","25.0125266666667","6500400","永和區"
"234025","9371-KE","2018/02/09 13:59:50","新北市永和區安樂路467號","121.514325","25.0054983333333","6500400","永和區"
"234022","9381-KE","2018/02/09 13:59:41","新北市永和區永和路二段243號","121.515815","25.0148566666667","6500400","永和區"
"234010","9373-KE","2018/02/09 13:59:45","新北市永和區仁愛路352巷112弄12號","121.50113","25.00858","6500400","永和區"
"248019","225-UY","2018/02/09 13:59:36","新北市五股區凌雲路三段71-9號","121.423688333333","25.1247116666667","6501500","五股區"
"234076","969-R7","2018/02/09 13:59:39","新北市永和區民族街43巷6號","121.518713333333","24.9984283333333","6500400","永和區"
"234072","AAC-211","2018/02/09 13:59:44","新北市永和區豫溪街185號","121.52253","25.0103666666667","6500400","永和區"
"234066","AAC-212","2018/02/09 13:59:31","新北市永和區永貞路364-1號","121.510101666667","25.0066916666667","6500400","永和區"
"234001","AAC-295","2018/02/09 13:59:35","新北市永和區福和路303號","121.51634","25.0072916666667","6500400","永和區"
"244004","248-BX","2018/02/09 13:59:38","新北市林口區信義路378號","121.374478333333","25.082775","6501700","林口區"
"231002","002-UM","2018/02/09 13:59:41","新北市新店區復興路86號","121.533841666667","24.9882066666667","6500600","新店區"
"231058","0291-UT","2018/02/09 13:59:32","新北市新店區薏仁坑路自強巷6號","121.496483333333","24.9583083333333","6500600","新店區"
"231025","0293-UT","2018/02/09 13:59:48","新北市新店區中正路275巷28號","121.536916666667","24.9731366666667","6500600","新店區"
"231028","046-UY","2018/02/09 13:59:36","新北市新店區安和路三段157號","121.516423333333","24.9856616666667","6500600","新店區"
"231030","047-UY","2018/02/09 13:59:41","新北市新店區安興路7-1號","121.514986666667","24.9684933333333","6500600","新店區"
"231029","106-UY","2018/02/09 13:59:49","新北市新店區安康路二段81號","121.513595","24.962985","6500600","新店區"
"231018","107-UY","2018/02/09 13:59:49","新北市新店區中央路116號","121.531095","24.9751","6500600","新店區"
"231012","108-UY","2018/02/09 13:59:42","新北市新店區中興路一段282號","121.54583","24.96834","6500600","新店區"
"231013","110-UY","2018/02/09 13:59:39","新北市新店區明德路111號","121.541451666667","24.9794816666667","6500600","新店區"
"231022","187-VK","2018/02/09 13:59:33","新北市新店區自強路74巷8號","121.545281666667","24.9252433333333","6500600","新店區"
"231035","189-VK","2018/02/09 13:59:46","新北市新店區安康路二段1-5號","121.516951666667","24.9638666666667","6500600","新店區"
"231016","KEA-2219","2018/02/09 13:59:38","新北市新店區北宜路二段148號","121.557693333333","24.9536066666667","6500600","新店區"
"231026","256-BX","2018/02/09 13:59:43","新北市新店區環河路18號","121.537026666667","24.96163","6500600","新店區"
"231010","278-BY","2018/02/09 13:59:32","新北市新店區環河路22號","121.53692","24.9617633333333","6500600","新店區"
"231023","AAD-862","2018/02/09 13:59:37","新北市新店區文中路40號","121.539766666667","24.9565916666667","6500600","新店區"
"231027","3712-VJ","2018/02/09 13:59:38","新北市新店區北宜路一段7號","121.53836","24.95829","6500600","新店區"
"231024","4716-K9","2018/02/09 13:59:33","新北市新店區新生街10巷6號","121.540428333333","24.9663133333333","6500600","新店區"
"231038","4715-K9","2018/02/09 13:59:47","新北市新店區溪洲路121號","121.531158333333","24.962785","6500600","新店區"
"231003","616-UM","2018/02/09 13:59:52","新北市新店區北宜路一段3號","121.538516666667","24.9585516666667","6500600","新店區"
"231006","617-UM","2018/02/09 13:59:33","新北市新店區北宜路二段213號","121.553223333333","24.953345","6500600","新店區"
"231001","619-UM","2018/02/09 13:59:43","新北市新店區三民路24號","121.53709","24.9710116666667","6500600","新店區"
"231034","645-TV","2018/02/09 13:59:43","新北市新店區達觀路12號","121.504945","24.940465","6500600","新店區"
"231036","719-UY","2018/02/09 13:59:50","新北市新店區安祥路110巷30弄1號","121.473911666667","24.9565483333333","6500600","新店區"
"231032","720-UM","2018/02/09 13:59:52","新北市新店區太平路44號","121.533023333333","24.9592333333333","6500600","新店區"
"231005","897-TW","2018/02/09 13:59:47","新北市新店區中興路三段186號","121.54402","24.9814916666667","6500600","新店區"
"231004","899-TW","2018/02/09 13:59:51","新北市新店區北新路二段163號","121.542746666667","24.9762533333333","6500600","新店區"
"231037","AKT-0513","2018/02/09 13:59:33","新北市新店區安康路三段207巷15號","121.488385","24.9507633333333","6500600","新店區"
"235030","003-UY","2018/02/09 13:59:48","新北市中和區中山路二段131巷5弄16號","121.50334","25.0032483333333","6500300","中和區"
"235028","005-UY","2018/02/09 13:59:32","新北市中和區泰和街9號","121.499565","25.0003833333333","6500300","中和區"
"235027","006-UY","2018/02/09 13:59:40","新北市中和區錦和路216號","121.490298333333","24.994245","6500300","中和區"
"235024","031-BX","2018/02/09 13:59:51","新北市中和區中山路三段136號","121.473963333333","25.0061933333333","6500300","中和區"
"235020","096-UM","2018/02/09 13:59:44","新北市板橋區三民路二段202-29號","121.47888","25.0125316666667","6500300","中和區"
"235003","097-UM","2018/02/09 13:59:41","新北市中和區景平路64巷13弄22號","121.521451666667","24.9915266666667","6500300","中和區"
"235029","098-UM","2018/02/09 13:59:51","新北市中和區中山路二段2巷45弄2號","121.502383333333","25.0071066666667","6500300","中和區"
"235004","150-BY","2018/02/09 13:59:44","新北市中和區宜安路121號","121.509916666667","24.9978166666667","6500300","中和區"
"235022","151-BY","2018/02/09 13:59:51","新北市中和區連城路539號","121.480366666667","24.9948666666667","6500300","中和區"
"235019","183-VK","2018/02/09 13:59:45","新北市中和區中山路三段206號","121.471555","25.006475","6500300","中和區"
"235002","185-VK","2018/02/09 13:59:45","新北市中和區立人街46號","121.51774","24.994065","6500300","中和區"
"235013","186-VK","2018/02/09 13:59:47","新北市中和區明仁街10號","121.506088333333","24.9955033333333","6500300","中和區"
"235031","255-BX","2018/02/09 13:59:45","新北市中和區新生街220巷1弄9號","121.483335","24.9981216666667","6500300","中和區"
"235008","293-VK","2018/02/09 13:59:45","新北市中和區中興街180巷4號","121.498853333333","24.990485","6500300","中和區"
"235036","301-VK","2018/02/09 13:59:33","新北市中和區中山路二段68號","121.503818333333","25.0045383333333","6500300","中和區"
"235007","352-BY","2018/02/09 13:59:41","新北市中和區成功路5號","121.526508333333","24.994155","6500300","中和區"
"235032","377-QA","2018/02/09 13:59:45","新北市中和區圓通路162巷4號","121.496903333333","24.9952866666667","6500300","中和區"
"235025","378-QA","2018/02/09 13:59:46","新北市中和區民治街136號","121.47514","25.00203","6500300","中和區"
"235035","269-TV","2018/02/09 13:59:49","新北市中和區中山路二段486號","121.487648333333","25.0051166666667","6500300","中和區"
"235014","4979-A6","2018/02/09 13:59:41","新北市中和區華新街50巷7號","121.507655","24.98392","6500300","中和區"
"235033","4980-A6","2018/02/09 13:59:39","新北市中和區南山路52巷32號","121.50112","24.99726","6500300","中和區"
"235006","551-UM","2018/02/09 13:59:42","新北市中和區秀朗路三段50巷2弄8號","121.526111666667","24.9958883333333","6500300","中和區"
"235009","565-BX","2018/02/09 13:59:42","新北市中和區景新街467巷20弄7-5號","121.51437","24.9878533333333","6500300","中和區"
"235018","640-BX","2018/02/09 13:59:46","新北市中和區民享街2巷1號","121.473823333333","25.005765","6500300","中和區"
"235010","733-UM","2018/02/09 13:59:35","新北市中和區興南路一段135巷22弄12號","121.509111666667","24.9868016666667","6500300","中和區"
"235026","800-TS","2018/02/09 13:59:45","新北市中和區中山路二段340巷36號","121.493355","25.0037766666667","6500300","中和區"
"235021","801-TS","2018/02/09 13:59:46","新北市中和區民利街58巷1號","121.478886666667","24.9990216666667","6500300","中和區"
"235041","802-TS","2018/02/09 13:59:45","新北市中和區中安街50號","121.512846666667","25.0024816666667","6500300","中和區"
"235016","805-TS","2018/02/09 13:59:49","新北市中和區興南路二段341號","121.501721666667","24.981045","6500300","中和區"
"235012","896-TW","2018/02/09 13:59:53","新北市中和區華新街58號","121.50805","24.9839516666667","6500300","中和區"
"235017","900-TW","2018/02/09 13:59:36","新北市中和區和平路200巷33-3號","121.465253333333","24.9945633333333","6500300","中和區"
"235015","157-BY","2018/02/09 13:59:44","新北市中和區忠孝街106巷23號","121.513086666667","24.9844716666667","6500300","中和區"
"235001","AAC-213","2018/02/09 13:59:34","新北市中和區自立路99巷3號","121.522278333333","24.994845","6500300","中和區"
"235023","AAC-215","2018/02/09 13:59:41","新北市中和區圓通路367巷20弄29號","121.491321666667","24.9882566666667","6500300","中和區"
"220013","072-UY","2018/02/09 13:59:41","新北市板橋區民族路287巷10號","121.471168333333","25.0071383333333","6500100","板橋區"
"220034","073-UY","2018/02/09 13:59:38","新北市板橋區中正路245號","121.455855","25.0181966666667","6500100","板橋區"
"220105","075-UY","2018/02/09 13:59:39","新北市板橋區莊敬路66號","121.471695","25.0254333333333","6500100","板橋區"
"220017","AAD-861","2018/02/09 13:59:46","新北市板橋區華興街76號","121.457183333333","25.005055","6500100","板橋區"
"220046","120-SR","2018/02/09 13:59:48","新北市板橋區漢生西路9號","121.463825","25.0180033333333","6500100","板橋區"
"247019","500-BY","2018/02/09 13:59:47","新北市蘆洲區民族路422巷35號","121.473571666667","25.0935916666667","6501400","蘆洲區"
"247007","341-TH","2018/02/09 13:59:48","新北市蘆洲區集賢路269巷4-1號","121.481508333333","25.0835466666667","6501400","蘆洲區"
"247009","339-TH","2018/02/09 13:59:40","新北市蘆洲區中山一路74巷55號","121.479955","25.0813966666667","6501400","蘆洲區"
"247001","337-TH","2018/02/09 13:59:34","新北市蘆洲區永平街32巷74號","121.460506666667","25.0936516666667","6501400","蘆洲區"
"247003","336-TH","2018/02/09 13:59:50","新北市蘆洲區長榮路20號","121.463756666667","25.08231","6501400","蘆洲區"
"247017","335-TH","2018/02/09 13:59:38","新北市蘆洲區民族路255巷26號","121.47588","25.0890516666667","6501400","蘆洲區"
"247015","057-VK","2018/02/09 13:59:52","新北市蘆洲區光華路31號","121.469101666667","25.0831533333333","6501400","蘆洲區"
"247005","056-VK","2018/02/09 13:59:43","新北市蘆洲區永安南路二段50號","121.466096666667","25.0776616666667","6501400","蘆洲區"
"247013","007-UY","2018/02/09 13:59:51","新北市蘆洲區中正路102號","121.469598333333","25.084495","6501400","蘆洲區"
"208004","AAC-292","2018/02/09 13:59:35","新北市金山區中信北路41巷11號","121.595691666667","25.2084666666667","6502700","金山區"
"207002","749-BX","2018/02/09 13:59:33","新北市萬里區溪底里溪底路11號","121.613593333333","25.1472566666667","6502800","萬里區"
"207001","662-BX","2018/02/09 13:59:36","新北市萬里區磺潭里清水18號","121.637875","25.1976416666667","6502800","萬里區"
"236067","105-UM","2018/02/09 13:59:31","新北市土城區和平路53號","121.443706666667","24.9717466666667","6501300","土城區"
"236041","107-UM","2018/02/09 13:59:37","新北市土城區城林路6巷80號","121.438431666667","24.9796716666667","6501300","土城區"
"236077","166-UM","2018/02/09 13:59:50","新北市土城區永寧路32巷10弄21號","121.428988333333","24.9610116666667","6501300","土城區"
"236029","253-BX","2018/02/09 13:59:37","新北市土城區城林路6巷80號","121.438378333333","24.979755","6501300","土城區"
"236024","269-VK","2018/02/09 13:59:40","新北市土城區忠承路107號","121.437966666667","24.9643566666667","6501300","土城區"
"236013","270-VK","2018/02/09 13:59:36","新北市土城區中正路75號","121.44492","24.97571","6501300","土城區"
"236035","271-VK","2018/02/09 13:59:38","新北市土城區城林路6巷80號","121.438413333333","24.979755","6501300","土城區"
"236019","401-BY","2018/02/09 13:59:51","新北市土城區城林路6巷80號","121.43873","24.9797516666667","6501300","土城區"
"236006","498-BY","2018/02/09 13:59:47","新北市土城區中央路一段365巷30弄2號","121.446393333333","24.9800166666667","6501300","土城區"
"236057","912-UM","2018/02/09 13:59:42","新北市土城區大安路2號","121.432708333333","24.9654866666667","6501300","土城區"
"236046","913-UM","2018/02/09 13:59:30","新北市土城區城林路6巷80號","121.438466666667","24.9797266666667","6501300","土城區"
"236061","915-UM","2018/02/09 13:59:42","新北市土城區城林路6巷80號","121.438765","24.9797033333333","6501300","土城區"
"236054","AAC-216","2018/02/09 13:59:37","新北市土城區城林路6巷80號","121.438488333333","24.9797833333333","6501300","土城區"
"242046","172-VK","2018/02/09 13:59:46","新北市板橋區大觀路三段59巷17弄5-1號","121.43522","24.9950766666667","6500500","新莊區"
"220027","145-BY","2018/02/09 13:59:37","新北市板橋區民權路202巷9弄55號","121.458983333333","25.0157183333333","6500100","板橋區"
"220028","200-UY","2018/02/09 13:59:37","新北市板橋區大觀路二段265巷1弄14號","121.443556666667","24.9984466666667","6500100","板橋區"
"220030","610-BX","2018/02/09 13:59:44","新北市板橋區滿平街65號","121.427505","24.9892416666667","6500100","板橋區"
"220052","257-TC","2018/02/09 13:59:50","新北市板橋區民生路二段121號","121.470866666667","25.0184366666667","6500100","板橋區"
"220040","267-BY","2018/02/09 13:59:33","新北市板橋區雙十路二段47巷37號","121.474988333333","25.025405","6500100","板橋區"
"220004","276-BY","2018/02/09 13:59:44","新北市板橋區信義路115號","121.457701666667","24.9934033333333","6500100","板橋區"
"220020","277-BY","2018/02/09 13:59:41","新北市板橋區大觀路三段50巷103號","121.430828333333","24.9968183333333","6500100","板橋區"
"220050","280-UM","2018/02/09 13:59:46","新北市板橋區文化路二段182巷5弄2號","121.471755","25.0270366666667","6500100","板橋區"
"220019","283-VK","2018/02/09 13:59:51","新北市板橋區重慶路221號","121.463061666667","25.001045","6500100","板橋區"
"220043","285-UM","2018/02/09 13:59:50","新北市板橋區文化路二段31號","121.468766666667","25.024755","6500100","板橋區"
"220001","285-VK","2018/02/09 13:59:48","新北市板橋區中山路二段89巷39號","121.473686666667","25.0171066666667","6500100","板橋區"
"220031","286-VK","2018/02/09 13:59:47","新北市板橋區大觀路一段38巷156弄15號","121.44248","25.00535","6500100","板橋區"
"220029","287-VK","2018/02/09 13:59:34","新北市板橋區南雅西路二段135號","121.452348333333","25.0114066666667","6500100","板橋區"
"220039","288-VK","2018/02/09 13:59:36","新北市板橋區四維路177巷2弄1號","121.463958333333","25.0262283333333","6500100","板橋區"
"220009","293-UM","2018/02/09 13:59:47","新北市板橋區永豐街120巷2弄11號","121.47631","25.02027","6500100","板橋區"
"220016","295-UM","2018/02/09 13:59:31","新北市板橋區中山路二段443巷36號","121.480986666667","25.0212116666667","6500100","板橋區"
"220032","296-UM","2018/02/09 13:59:44","新北市板橋區大觀路二段174巷118弄2號","121.44241","25.0012066666667","6500100","板橋區"
"220023","303-R5","2018/02/09 13:59:35","新北市板橋區館前西路213巷7號","121.454481666667","25.0082883333333","6500100","板橋區"
"220010","305-R5","2018/02/09 13:59:38","新北市板橋區三民路二段245巷38號","121.480666666667","25.0125666666667","6500100","板橋區"
"220041","307-R5","2018/02/09 13:59:50","新北市板橋區文化路一段96號","121.464528333333","25.017925","6500100","板橋區"
"220047","317-R6","2018/02/09 13:59:53","新北市板橋區民有街33號","121.465791666667","25.0254816666667","6500100","板橋區"
"220012","486-VK","2018/02/09 13:59:41","新北市板橋區新站路28號","121.466805","25.014175","6500100","板橋區"
"220038","487-VK","2018/02/09 13:59:37","新北市板橋區文化路二段286號","121.471776666667","25.0292816666667","6500100","板橋區"
"220037","491-VK","2018/02/09 13:59:43","新北市板橋區文化路二段28號","121.469108333333","25.024805","6500100","板橋區"
"220104","560-BX","2018/02/09 13:59:49","新北市板橋區中正路341巷37號","121.453981666667","25.0197166666667","6500100","板橋區"
"220011","609-BX","2018/02/09 13:59:39","新北市板橋區中山路二段88號","121.475226666667","25.01635","6500100","板橋區"
"220005","686-BX","2018/02/09 13:59:49","新北市板橋區館前東路20號","121.46009","25.00711","6500100","板橋區"
"220025","687-BX","2018/02/09 13:59:48","新北市板橋區龍興街71巷53號","121.44157","25.002735","6500100","板橋區"
"220002","741-BX","2018/02/09 13:59:46","新北市板橋區後埔街79-1號","121.460713333333","25.005375","6500100","板橋區"
"220003","827-TW","2018/02/09 13:59:44","新北市板橋區中山路一段158巷12號","121.466155","25.0114966666667","6500100","板橋區"
"220014","829-TW","2018/02/09 13:59:37","新北市板橋區三民路二段正隆巷12弄22號","121.477541666667","25.013665","6500100","板橋區"
"220045","830-TW","2018/02/09 13:59:50","新北市板橋區莒光路114巷1-3號","121.47247","25.0237016666667","6500100","板橋區"
"220042","833-TW","2018/02/09 13:59:50","新北市板橋區民生路三段32-6號","121.467521666667","25.0248233333333","6500100","板橋區"
"220022","895-R6","2018/02/09 13:59:35","新北市板橋區南雅南路一段29號","121.456176666667","25.0065933333333","6500100","板橋區"
"220021","985-R7","2018/02/09 13:59:40","新北市板橋區林園街7-1號","121.454003333333","25.0091383333333","6500100","板橋區"
"220018","AAC-253","2018/02/09 13:59:37","新北市板橋區四川路一段206號","121.459516666667","25.0022183333333","6500100","板橋區"
