"lineid","car","time","location","longitude","latitude","cityid","cityname"
"231030","047-UY","2018/02/09 15:49:41","新北市新店區永安街3號","121.516711666667","24.9860483333333","6500600","新店區"
"231018","107-UY","2018/02/09 15:49:49","新北市新店區中正路663巷7弄15號","121.532926666667","24.99014","6500600","新店區"
"231012","108-UY","2018/02/09 15:49:44","新北市新店區寶強路3號","121.542821666667","24.9791233333333","6500600","新店區"
"231013","110-UY","2018/02/09 15:49:40","新北市新店區永業路81巷3弄11號","121.53021","24.949505","6500600","新店區"
"231022","187-VK","2018/02/09 15:49:53","新北市新店區北宜路一段83號","121.53851","24.9560983333333","6500600","新店區"
"231035","189-VK","2018/02/09 15:49:46","新北市新店區安興路96-1號","121.515243333333","24.9765116666667","6500600","新店區"
"231016","KEA-2219","2018/02/09 15:49:37","新北市新店區中華路83號","121.539445","24.9686","6500600","新店區"
"231026","256-BX","2018/02/09 15:49:43","新北市新店區中正路434號","121.534156666667","24.9782133333333","6500600","新店區"
"231046","278-BY","2018/02/09 15:49:51","新北市新店區安華路28-1號","121.519741666667","24.961125","6500600","新店區"
"231038","4715-K9","2018/02/09 15:49:47","新北市新店區安康路二段242巷2號","121.508965","24.9594683333333","6500600","新店區"
"231003","616-UM","2018/02/09 15:49:52","新北市新店區寶興路60巷3號","121.5499","24.9718466666667","6500600","新店區"
"231034","645-TV","2018/02/09 15:49:43","新北市新店區玫瑰路57巷1號","121.495818333333","24.946255","6500600","新店區"
"231032","720-UM","2018/02/09 15:49:52","新北市新店區雙城路60巷16弄27號","121.492198333333","24.9482116666667","6500600","新店區"
"241011","013-R5","2018/02/09 15:49:51","新北市三重區文化北路224-2號","121.497706666667","25.0691233333333","6500200","三重區"
"241028","022-UY","2018/02/09 15:49:36","新北市三重區中正南路5號","121.493485","25.0603883333333","6500200","三重區"
"241008","059-VK","2018/02/09 15:49:35","新北市三重區重新路四段121號","121.484905","25.05196","6500200","三重區"
"241015","062-VK","2018/02/09 15:49:43","新北市三重區重新路四段121號","121.485165","25.05202","6500200","三重區"
"241017","063-VK","2018/02/09 15:49:56","新北市三重區大仁街38號","121.491608333333","25.064315","6500200","三重區"
"241024","065-VK","2018/02/09 15:49:46","新北市三重區新北大道一段250號","121.479875","25.061305","6500200","三重區"
"241014","156-TC","2018/02/09 15:49:39","新北市三重區重新路四段121號","121.485088333333","25.0520166666667","6500200","三重區"
"241005","262-UM","2018/02/09 15:49:50","新北市三重區環河南路118號","121.498281666667","25.0556383333333","6500200","三重區"
"241018","265-UM","2018/02/09 15:49:54","新北市三重區重新路四段146號","121.48631","25.056375","6500200","三重區"
"241022","267-UM","2018/02/09 15:49:44","新北市三重區成功路108巷8號","121.48664","25.0508183333333","6500200","三重區"
"241013","270-UM","2018/02/09 15:49:43","新北市三重區三和路三段40號","121.496158333333","25.070795","6500200","三重區"
"241007","398-BY","2018/02/09 15:49:38","新北市三重區成功路108巷8號","121.48581","25.0503916666667","6500200","三重區"
"241023","545-UM","2018/02/09 15:49:55","新北市三重區忠孝路三段99巷27號","121.47924","25.0642733333333","6500200","三重區"
"241006","AAD-863","2018/02/09 15:49:49","新北市三重區重新路四段121號","121.484673333333","25.0521633333333","6500200","三重區"
"241003","887-TS","2018/02/09 15:49:52","新北市三重區福德南路59-4號","121.503041666667","25.0609483333333","6500200","三重區"
"241012","941-UM","2018/02/09 15:49:43","新北市三重區長壽街1號","121.498233333333","25.0675033333333","6500200","三重區"
"241029","942-UM","2018/02/09 15:49:39","新北市三重區大同南路242號","121.496946666667","25.0558933333333","6500200","三重區"
"241033","AAC-255","2018/02/09 15:49:37","新北市三重區光復路一段122號","121.472018333333","25.0518116666667","6500200","三重區"
"235036","301-VK","2018/02/09 15:49:53","新北市八里區中山路三段409號","121.368566666667","25.1349666666667","6500300","中和區"
"235014","4979-A6","2018/02/09 15:49:41","新北市中和區員山路36巷16-3號","121.484745","24.9909733333333","6500300","中和區"
"235033","4980-A6","2018/02/09 15:49:50","新北市中和區員山路359巷3號","121.481005","25.0018916666667","6500300","中和區"
"235046","733-UM","2018/02/09 15:29:13","新北市中和區員山路36巷13號","121.484131666667","24.99084","6500300","中和區"
"235023","AAC-215","2018/02/09 15:49:50","新北市中和區員山路37-9號","121.482316666667","24.9902483333333","6500300","中和區"
"220013","072-UY","2018/02/09 15:49:41","新北市樹林區中山路三段214號","121.379761666667","24.9678083333333","6500100","板橋區"
"247007","341-TH","2018/02/09 15:49:47","新北市五股區中興路三段2巷10號","121.448471666667","25.0812333333333","6501400","蘆洲區"
"224007","273-VK","2018/02/09 15:49:37","新北市瑞芳區大寮路14號","121.783758333333","25.099285","6501200","瑞芳區"
"227003","642-TC","2018/02/09 15:49:46","新北市雙溪區平林里外平林44號","121.852911666667","25.0363283333333","6502500","雙溪區"
"227011","400-TW","2018/02/09 15:49:50","新北市雙溪區新基里自強路15號","121.865456666667","25.039355","6502500","雙溪區"
"236067","105-UM","2018/02/09 15:49:50","新北市土城區大安路37-1號","121.432723333333","24.96618","6501300","土城區"
"236077","166-UM","2018/02/09 15:49:50","新北市土城區溪頭路106號","121.409131666667","24.950845","6501300","土城區"
"236013","270-VK","2018/02/09 15:49:36","新北市土城區廣明街83號","121.454793333333","24.994165","6501300","土城區"
"236019","401-BY","2018/02/09 15:49:51","新北市土城區延吉街67號","121.47213","24.9873816666667","6501300","土城區"
"236057","912-UM","2018/02/09 15:49:42","新北市土城區中央路一段269-6號","121.4448","24.984985","6501300","土城區"
"236046","913-UM","2018/02/09 15:49:50","新北市土城區金城路三段13號","121.464753333333","24.9862916666667","6501300","土城區"
"236054","AAC-216","2018/02/09 15:49:37","新北市土城區中華路一段236號","121.439833333333","24.9799216666667","6501300","土城區"
"220047","317-R6","2018/02/09 15:49:54","新北市五股區中直路31號","121.420346666667","25.1123416666667","6500100","板橋區"
"220038","487-VK","2018/02/09 15:49:36","新北市板橋區長江路二段155號","121.465713333333","25.034125","6500100","板橋區"
