"lineid","car","time","location","longitude","latitude","cityid","cityname"
"249005","172-UM","2018/02/09 16:39:55","新北市八里區忠八街59-1號","121.419361666667","25.16123","6502300","八里區"
"231046","278-BY","2018/02/09 16:39:51","新北市新店區灣潭路60-1號","121.539848333333","24.9422483333333","6500600","新店區"
"241011","013-R5","2018/02/09 16:39:51","新北市三重區仁愛街53巷33號","121.497413333333","25.0720716666667","6500200","三重區"
"241028","022-UY","2018/02/09 16:39:36","新北市三重區重新路三段86號","121.493145","25.0607166666667","6500200","三重區"
"241008","059-VK","2018/02/09 16:39:55","新北市三重區永安北路一段27巷24號","121.477298333333","25.0755516666667","6500200","三重區"
"241009","060-VK","2018/02/09 16:39:36","新北市三重區三和路四段203巷62號","121.483421666667","25.0798166666667","6500200","三重區"
"241031","061-VK","2018/02/09 16:39:37","新北市三重區重新路四段41巷26號","121.487303333333","25.0585166666667","6500200","三重區"
"241015","062-VK","2018/02/09 16:39:43","新北市三重區文化北路37號","121.498976666667","25.0650216666667","6500200","三重區"
"241017","063-VK","2018/02/09 16:39:36","新北市三重區中正北路25巷13號","121.492876666667","25.06247","6500200","三重區"
"241024","065-VK","2018/02/09 16:39:46","新北市三重區中正北路315巷6弄38號","121.476625","25.0723866666667","6500200","三重區"
"241026","066-VK","2018/02/09 16:39:54","新北市三重區福德南路56號","121.503206666667","25.0618283333333","6500200","三重區"
"241002","090-VK","2018/02/09 16:39:48","新北市三重區仁義街241巷15號","121.496776666667","25.0828233333333","6500200","三重區"
"241014","156-TC","2018/02/09 16:39:39","新北市三重區長安街120號","121.502876666667","25.0678916666667","6500200","三重區"
"241005","262-UM","2018/02/09 16:39:50","新北市三重區碧華街161號","121.486843333333","25.082275","6500200","三重區"
"241018","265-UM","2018/02/09 16:39:42","新北市三重區六張街79號","121.493406666667","25.0700833333333","6500200","三重區"
"241016","266-UM","2018/02/09 16:39:47","新北市三重區大智街13號","121.494623333333","25.065145","6500200","三重區"
"241022","267-UM","2018/02/09 16:39:44","新北市三重區三民街86號","121.485406666667","25.0626666666667","6500200","三重區"
"241032","269-UM","2018/02/09 16:39:52","新北市三重區過圳街75號","121.485033333333","25.0613683333333","6500200","三重區"
"241013","270-UM","2018/02/09 16:39:43","新北市三重區三和路三段101巷112號","121.497716666667","25.0734266666667","6500200","三重區"
"241025","271-UM","2018/02/09 16:39:43","新北市三重區中正北路428巷11號","121.474551666667","25.0702033333333","6500200","三重區"
"241007","398-BY","2018/02/09 16:39:38","新北市三重區三和路四段167巷82號","121.48509","25.079455","6500200","三重區"
"241020","413-TH","2018/02/09 16:39:50","新北市三重區車路頭街64號","121.484273333333","25.072705","6500200","三重區"
"241004","475-VK","2018/02/09 16:39:34","新北市三重區五華街64-1號","121.493553333333","25.08155","6500200","三重區"
"241030","480-VK","2018/02/09 16:39:36","新北市三重區環河南路286號","121.48901","25.04888","6500200","三重區"
"241023","545-UM","2018/02/09 16:39:55","新北市三重區忠孝路三段50巷98號","121.483506666667","25.06421","6500200","三重區"
"241001","547-UM","2018/02/09 16:39:51","新北市三重區仁愛街266號","121.492918333333","25.078245","6500200","三重區"
"241006","AAD-863","2018/02/09 16:39:49","新北市三重區車路頭街138-1號","121.483528333333","25.0756366666667","6500200","三重區"
"241003","887-TS","2018/02/09 16:39:52","新北市三重區五華街71巷44號","121.493295","25.08332","6500200","三重區"
"241012","941-UM","2018/02/09 16:39:43","新北市三重區仁興街3巷8號","121.500123333333","25.0739616666667","6500200","三重區"
"241029","942-UM","2018/02/09 16:39:38","新北市三重區集美街112巷13號","121.489433333333","25.0540916666667","6500200","三重區"
"241033","AAC-255","2018/02/09 16:39:57","新北市三重區光復路一段138-1號","121.472078333333","25.052725","6500200","三重區"
"235026","800-TS","2018/02/09 16:39:45","新北市中和區建八路134號","121.489251666667","24.9985466666667","6500300","中和區"
"247004","336-TH","2018/02/09 16:39:36","新北市五股區中興路三段5號","121.44887","25.080055","6501400","蘆洲區"
"228002","663-BX","2018/02/09 16:39:43","新北市貢寮區貢寮里朝陽街20號","121.911425","25.0216216666667","6502600","貢寮區"
"224006","676-BX","2018/02/09 16:39:50","新北市瑞芳區大寮路356-1號","121.784961666667","25.1033083333333","6501200","瑞芳區"
"224009","285-BY","2018/02/09 16:39:53","新北市瑞芳區傑魚坑路319號","121.78598","25.1040116666667","6501200","瑞芳區"
"224008","275-VK","2018/02/09 16:39:41","新北市瑞芳區逢甲路17號","121.809415","25.1084816666667","6501200","瑞芳區"
"224007","273-VK","2018/02/09 16:39:43","新北市瑞芳區中央路4號","121.761778333333","25.1039833333333","6501200","瑞芳區"
"224005","271-BY","2018/02/09 16:39:44","新北市瑞芳區洞頂路61號","121.861836666667","25.1202233333333","6501200","瑞芳區"
"227003","642-TC","2018/02/09 16:39:46","新北市雙溪區外柑里外柑腳58號","121.807925","25.017845","6502500","雙溪區"
"227011","400-TW","2018/02/09 16:39:50","新北市雙溪區牡丹里中正路63號","121.865875","25.0430916666667","6502500","雙溪區"
"251008","181-VK","2018/02/09 16:39:46","新北市淡水區民生路169號","121.47057","25.1427416666667","6501000","淡水區"
"251007","577-R6","2018/02/09 16:39:38","新北市淡水區中正路二段31號","121.419453333333","25.18142","6501000","淡水區"
"251011","650-BX","2018/02/09 16:39:38","新北市淡水區中正路二段31號","121.419351666667","25.1816783333333","6501000","淡水區"
"252002","178-VK","2018/02/09 16:39:43","新北市三芝區茂長里陳厝坑15號","121.516695","25.2548416666667","6502100","三芝區"
"252001","292-VK","2018/02/09 16:39:39","新北市三芝區埔坪里埔頭坑57號","121.507756666667","25.2646616666667","6502100","三芝區"
"242029","986-R7","2018/02/09 16:39:55","新北市新莊區新泰路357巷3弄57號","121.44217","25.039575","6500500","新莊區"
"238019","599-UM","2018/02/09 16:39:46","新北市樹林區育德街78號","121.387535","24.9684166666667","6500700","樹林區"
