"lineid","car","time","location","longitude","latitude","cityid","cityname"
"234046","148-BY","2018/02/09 18:39:21","新北市永和區永元路68號","121.522535","25.001545","6500400","永和區"
"234007","207-UY","2018/02/09 18:39:22","新北市永和區保福路三段24號","121.507995","25.0161816666667","6500400","永和區"
"234081","298-R6","2018/02/09 18:39:28","新北市永和區林森路20巷1號","121.525996666667","25.0053283333333","6500400","永和區"
"234086","338-UY","2018/02/09 18:39:14","新北市永和區福和路1號","121.525061666667","25.008925","6500400","永和區"
"234017","745-BX","2018/02/09 18:39:09","新北市永和區福和路1號","121.526303333333","25.0095283333333","6500400","永和區"
"234030","746-BX","2018/02/09 18:39:10","新北市永和區成功路一段54號","121.52699","25.003975","6500400","永和區"
"234013","KEA-2591","2018/02/09 18:39:20","新北市永和區保福路二段101號","121.510388333333","25.0131883333333","6500400","永和區"
"234042","862-TW","2018/02/09 18:39:14","新北市永和區福和路1號","121.525416666667","25.009585","6500400","永和區"
"234050","863-TW","2018/02/09 18:39:14","新北市永和區福和路1號","121.526401666667","25.00981","6500400","永和區"
"234026","9371-KE","2018/02/09 18:39:22","新北市永和區永貞路415號","121.507301666667","25.0093883333333","6500400","永和區"
"234011","9373-KE","2018/02/09 18:39:26","新北市永和區永和路二段231巷3號","121.514965","25.0139716666667","6500400","永和區"
"249005","172-UM","2018/02/09 18:39:15","新北市八里區中華路三段196號","121.38812","25.1255616666667","6502300","八里區"
"249001","173-UM","2018/02/09 18:39:10","新北市八里區龍米路一段402號","121.451185","25.13328","6502300","八里區"
"249004","303-UY","2018/02/09 18:39:27","新北市八里區龍米路三段60號","121.423646666667","25.158975","6502300","八里區"
"249002","305-UY","2018/02/09 18:39:13","新北市八里區龍形一街12巷8號","121.449871666667","25.1307466666667","6502300","八里區"
"248014","025-BX","2018/02/09 18:39:20","新北市五股區成泰路一段104號","121.435741666667","25.0716816666667","6501500","五股區"
"248016","026-BX","2018/02/09 18:39:25","新北市五股區凌雲路一段146號","121.44923","25.102415","6501500","五股區"
"248008","095-VK","2018/02/09 18:39:22","新北市五股區中興路一段150巷8號","121.464636666667","25.0742233333333","6501500","五股區"
"248018","225-UY","2018/02/09 18:39:20","新北市五股區民義路二段52巷5-6號","121.410776666667","25.1078616666667","6501500","五股區"
"248012","247-BX","2018/02/09 18:39:08","新北市五股區御史路45巷4號","121.442096666667","25.0932416666667","6501500","五股區"
"248010","272-BY","2018/02/09 18:39:27","新北市五股區水碓路11號","121.433651666667","25.0724166666667","6501500","五股區"
"248004","677-BX","2018/02/09 18:39:25","新北市五股區民義路一段152號","121.433115","25.0874283333333","6501500","五股區"
"248002","678-BX","2018/02/09 18:39:11","新北市五股區西雲路185巷1弄2號","121.447518333333","25.0956833333333","6501500","五股區"
"232011","375-UM","2018/02/09 18:39:11","新北市坪林區坪雙路一段43號","121.711706666667","24.9424583333333","6502000","坪林區"
"244013","069-UM","2018/02/09 18:39:18","新北市林口區文化一路二段190號","121.382805","25.080315","6501700","林口區"
"244007","080-UY","2018/02/09 18:39:26","新北市林口區湖北里8鄰2號","121.389138333333","25.09726","6501700","林口區"
"244019","402-UM","2018/02/09 18:39:17","新北市林口區忠孝路616巷26號","121.377251666667","25.0673466666667","6501700","林口區"
"244009","410-SL","2018/02/09 18:39:19","新北市林口區文林一街20號","121.377033333333","25.0858933333333","6501700","林口區"
"244023","483-VK","2018/02/09 18:39:16","新北市林口區信義路128號","121.38042","25.07948","6501700","林口區"
"244017","485-VK","2018/02/09 18:39:17","新北市林口區文化二路一段20巷25弄9號","121.365376666667","25.0671433333333","6501700","林口區"
"244011","701-TV","2018/02/09 18:39:24","新北市林口區興林路17巷3弄1號","121.39005","25.0769933333333","6501700","林口區"
"244025","837-TS","2018/02/09 18:39:26","新北市林口區南勢六街248-1號","121.355963333333","25.07495","6501700","林口區"
"244021","838-TS","2018/02/09 18:39:25","新北市林口區自強二街24號","121.398023333333","25.0779466666667","6501700","林口區"
"243012","539-UM","2018/02/09 18:39:18","新北市泰山區泰林路二段317號","121.429601666667","25.0632366666667","6501600","泰山區"
"243009","KEA-2216","2018/02/09 18:39:14","新北市泰山區黎明路31號","121.42164","25.0606166666667","6501600","泰山區"
"243013","646-TV","2018/02/09 18:39:26","新北市泰山區明志路三段206巷3號","121.423258333333","25.03791","6501600","泰山區"
"243016","680-BX","2018/02/09 18:39:13","新北市泰山區泰林路二段527號","121.42378","25.06366","6501600","泰山區"
"222003","436-BY","2018/02/09 18:39:16","新北市深坑區翠谷街55號","121.627561666667","25.00916","6501800","深坑區"
"222002","659-BX","2018/02/09 18:39:12","新北市深坑區雲鄉路2號","121.620965","24.99965","6501800","深坑區"
"231041","002-UM","2018/02/09 18:39:22","新北市新店區安華路28-1號","121.519681666667","24.9607966666667","6500600","新店區"
"231059","046-UY","2018/02/09 18:39:23","新北市新店區安華路28-1號","121.519515","24.9608266666667","6500600","新店區"
"231061","047-UY","2018/02/09 18:39:13","新北市新店區安華路28-1號","121.51932","24.9609066666667","6500600","新店區"
"231060","106-UY","2018/02/09 18:39:23","新北市新店區安華路28-1號","121.519653333333","24.9607866666667","6500600","新店區"
"231051","107-UY","2018/02/09 18:39:13","新北市新店區安康路一段139號","121.527755","24.9620016666667","6500600","新店區"
"231048","108-UY","2018/02/09 18:39:21","新北市新店區環河路29巷1號","121.53721","24.96138","6500600","新店區"
"231049","110-UY","2018/02/09 18:39:18","新北市新店區安康路一段94號","121.527698333333","24.9621183333333","6500600","新店區"
"231053","187-VK","2018/02/09 18:39:19","新北市新店區永興路38號","121.543336666667","24.9386016666667","6500600","新店區"
"231064","189-VK","2018/02/09 18:39:12","新北市新店區安華路28-1號","121.519383333333","24.96095","6500600","新店區"
"231050","KEA-2219","2018/02/09 18:39:16","新北市新店區安華路28-1號","121.519858333333","24.9612966666667","6500600","新店區"
"221015","KEA-2785","2018/02/09 18:39:15","新北市汐止區吉祥街1巷2號","121.667911666667","25.0799116666667","6501100","汐止區"
"231057","256-BX","2018/02/09 18:39:22","新北市新店區新烏路一段159-1號","121.546701666667","24.93221","6500600","新店區"
"231046","278-BY","2018/02/09 18:39:11","新北市新店區直潭二街1號","121.535531666667","24.9431683333333","6500600","新店區"
"231054","AAD-862","2018/02/09 18:39:22","新北市新店區安華路28-1號","121.519963333333","24.9611616666667","6500600","新店區"
"231058","3712-VJ","2018/02/09 18:39:18","新北市新店區北宜路一段170號","121.540603333333","24.95294","6500600","新店區"
"231056","3713-VJ","2018/02/09 18:36:12","新北市新店區二十張路66號","121.536625","24.9800683333333","6500600","新店區"
"231055","4716-K9","2018/02/09 18:39:12","新北市新店區中正路154巷4號","121.541841666667","24.9719516666667","6500600","新店區"
"231067","4772-VM","2018/02/09 18:39:12","新北市新店區安康路一段230-3號","121.522258333333","24.9637533333333","6500600","新店區"
"231042","616-UM","2018/02/09 18:39:14","新北市新店區安華路28-1號","121.519476666667","24.960535","6500600","新店區"
"231045","617-UM","2018/02/09 18:39:10","新北市新店區安華路28-1號","121.519418333333","24.960835","6500600","新店區"
"231040","619-UM","2018/02/09 18:39:23","新北市新店區安華路28-1號","121.519583333333","24.9609416666667","6500600","新店區"
"231063","645-TV","2018/02/09 18:39:10","新北市新店區安華路1-1號","121.519351666667","24.9605233333333","6500600","新店區"
"231065","719-UY","2018/02/09 18:39:14","新北市新店區安華路28-1號","121.519285","24.9613116666667","6500600","新店區"
"231062","720-UM","2018/02/09 18:39:24","新北市新店區安華路28-1號","121.519196666667","24.9610766666667","6500600","新店區"
"231044","897-TW","2018/02/09 18:39:11","新北市新店區安康路一段155-1號","121.527435","24.9622666666667","6500600","新店區"
"231043","899-TW","2018/02/09 18:39:13","新北市新店區安華路28-1號","121.519286666667","24.96083","6500600","新店區"
"231066","AKT-0513","2018/02/09 18:39:14","新北市新店區安華路1-1號","121.519448333333","24.96043","6500600","新店區"
"235066","003-UY","2018/02/09 18:39:08","新北市中和區水源路33號","121.504243333333","25.0036316666667","6500300","中和區"
"235064","005-UY","2018/02/09 18:39:27","新北市中和區連城路110號","121.496305","24.999765","6500300","中和區"
"235063","006-UY","2018/02/09 18:39:27","新北市中和區建一路198號","121.487603333333","24.996285","6500300","中和區"
"235060","031-BX","2018/02/09 18:39:09","新北市中和區中山路二段583號","121.480186666667","25.00579","6500300","中和區"
"235056","096-UM","2018/02/09 18:39:21","新北市中和區員山路611巷1號","121.477825","25.01132","6500300","中和區"
"235039","097-UM","2018/02/09 18:39:27","新北市永和區安樂路46號","121.514731666667","24.9970483333333","6500300","中和區"
"235065","098-UM","2018/02/09 18:39:10","新北市中和區莊敬路33巷38弄1號","121.500475","25.0064883333333","6500300","中和區"
"235040","150-BY","2018/02/09 18:39:12","新北市中和區保健路106巷69弄4號","121.511496666667","24.99456","6500300","中和區"
"235058","151-BY","2018/02/09 18:39:06","新北市中和區員山路36-1號","121.48221","24.9906916666667","6500300","中和區"
"235055","183-VK","2018/02/09 18:39:19","新北市中和區民生街93-2號","121.468565","25.0047483333333","6500300","中和區"
"235038","185-VK","2018/02/09 18:39:15","新北市中和區立人街14巷40弄2號","121.51906","24.9955783333333","6500300","中和區"
"235049","186-VK","2018/02/09 18:39:20","新北市中和區明義街11巷10弄1號","121.503838333333","24.99486","6500300","中和區"
"235067","255-BX","2018/02/09 18:39:21","新北市中和區新生街12號","121.483056666667","25.0044766666667","6500300","中和區"
"235044","293-VK","2018/02/09 18:39:15","新北市中和區復興路280巷6號","121.502356666667","24.9909183333333","6500300","中和區"
"235072","301-VK","2018/02/09 18:39:23","新北市中和區中山路二段195號","121.499925","25.0026416666667","6500300","中和區"
"235043","352-BY","2018/02/09 18:39:19","新北市中和區景平路111巷2號","121.516651666667","24.9918566666667","6500300","中和區"
"235068","377-QA","2018/02/09 18:39:26","新北市中和區中正路169號","121.497926666667","24.99359","6500300","中和區"
"235061","378-QA","2018/02/09 18:39:24","新北市中和區民享街88巷7號","121.474228333333","25.0005133333333","6500300","中和區"
"235050","4979-A6","2018/02/09 18:39:28","新北市中和區忠孝街124巷6號","121.512581666667","24.9859983333333","6500300","中和區"
"235069","4980-A6","2018/02/09 18:39:21","新北市中和區連城路101號","121.496551666667","24.9996433333333","6500300","中和區"
"235042","551-UM","2018/02/09 18:39:13","新北市中和區成功路97巷18弄13號","121.52701","24.9913","6500300","中和區"
"235070","558-UM","2018/02/09 18:39:19","新北市中和區南華路52號","121.504275","24.99681","6500300","中和區"
"235045","565-BX","2018/02/09 18:39:18","新北市中和區南山路236巷51-2號","121.504925","24.9880983333333","6500300","中和區"
"235054","640-BX","2018/02/09 18:39:14","新北市中和區民享街86巷23號","121.473243333333","25.0005183333333","6500300","中和區"
"235047","732-UM","2018/02/09 18:39:13","新北市中和區南山路320巷10弄1號","121.506896666667","24.98651","6500300","中和區"
"235046","733-UM","2018/02/09 18:39:18","新北市中和區仁愛街53號","121.511226666667","24.988015","6500300","中和區"
"235062","800-TS","2018/02/09 18:39:19","新北市中和區中山路二段312巷10弄2號","121.495613333333","25.0030333333333","6500300","中和區"
"235057","801-TS","2018/02/09 18:39:27","新北市中和區民安街42巷28號","121.479366666667","25.0009883333333","6500300","中和區"
"235041","802-TS","2018/02/09 18:39:16","新北市中和區宜安路150號","121.509361666667","24.9986333333333","6500300","中和區"
"235052","805-TS","2018/02/09 18:39:13","新北市中和區興南路三段62-3號","121.492876666667","24.9749083333333","6500300","中和區"
"235048","896-TW","2018/02/09 18:39:24","新北市中和區南山路325號","121.505153333333","24.99122","6500300","中和區"
"235053","900-TW","2018/02/09 18:39:23","新北市中和區莒光路222-8號","121.468965","24.9949133333333","6500300","中和區"
"235051","157-BY","2018/02/09 18:39:28","新北市中和區華新街143巷106弄5號","121.506053333333","24.97891","6500300","中和區"
"235037","AAC-213","2018/02/09 18:39:11","新北市中和區景平路111巷68號","121.515006666667","24.9903916666667","6500300","中和區"
"235059","AAC-215","2018/02/09 18:39:24","新北市中和區錦和路354巷3號","121.490425","24.99149","6500300","中和區"
"220065","072-UY","2018/02/09 18:39:09","新北市板橋區重慶路112號","121.461966666667","25.0049783333333","6500100","板橋區"
"220086","073-UY","2018/02/09 18:39:21","新北市板橋區南雅南路一段112號","121.454816666667","25.00406","6500100","板橋區"
"220069","AAD-861","2018/02/09 18:39:26","新北市板橋區華東街1-10號","121.448301666667","24.9950566666667","6500100","板橋區"
"226004","205-ST","2018/02/09 18:39:18","新北市平溪區靜安路二段280號","121.728556666667","25.0229933333333","6502400","平溪區"
"228002","663-BX","2018/02/09 18:39:23","新北市貢寮區福連里香蘭街11號","121.977985","25.0238116666667","6502600","貢寮區"
"228001","670-TC","2018/02/09 18:39:21","新北市貢寮區仁理村保健街73號","121.923711666667","25.0516883333333","6502600","貢寮區"
"228003","828-UM","2018/02/09 18:39:25","新北市貢寮區和美里龍洞街28-3號","121.917591666667","25.11169","6502600","貢寮區"
"224010","AGQ-8101","2018/02/09 18:39:14","新北市瑞芳區烏勢巷108號","121.846248333333","25.108715","6501200","瑞芳區"
"224006","676-BX","2018/02/09 18:39:10","新北市瑞芳區明燈路三段84號","121.80573","25.1083316666667","6501200","瑞芳區"
"224002","639-TC","2018/02/09 18:39:24","新北市瑞芳區三爪子坑路118號","121.806236666667","25.10541","6501200","瑞芳區"
"224009","285-BY","2018/02/09 18:39:13","新北市瑞芳區祈堂路239號","121.856291666667","25.1090566666667","6501200","瑞芳區"
"224008","275-VK","2018/02/09 18:39:21","新北市瑞芳區瑞芳街43號","121.80647","25.1094816666667","6501200","瑞芳區"
"224007","273-VK","2018/02/09 18:39:17","新北市瑞芳區大埔路93號","121.763731666667","25.10124","6501200","瑞芳區"
"224005","271-BY","2018/02/09 18:39:24","新北市瑞芳區瑞濱路139號","121.81971","25.1198466666667","6501200","瑞芳區"
"227003","642-TC","2018/02/09 18:39:26","新北市雙溪區魚行里坤溪3-5號","121.876031666667","25.0209866666667","6502500","雙溪區"
"227011","400-TW","2018/02/09 18:39:15","新北市雙溪區牡丹里牡丹216號","121.850728333333","25.05636","6502500","雙溪區"
"253005","032-BX","2018/02/09 18:39:09","新北市石門區石門街39號","121.566328333333","25.2904066666667","6502200","石門區"
"253006","295-VK","2018/02/09 18:39:07","新北市石門區楓林28-1號","121.54219","25.28931","6502200","石門區"
"222001","KEA-2212","2018/02/09 18:39:23","新北市深坑區北深路一段84號","121.636233333333","25.0105933333333","6501800","深坑區"
"208002","742-BX","2018/02/09 18:39:28","新北市金山區忠孝一路15巷11號","121.638388333333","25.21879","6502700","金山區"
"208003","665-BX","2018/02/09 18:39:16","新北市金山區中山路393號","121.633336666667","25.2251516666667","6502700","金山區"
"208001","761-BX","2018/02/09 18:39:13","新北市金山區文化三路7號","121.635088333333","25.2250366666667","6502700","金山區"
"251004","009-UM","2018/02/09 18:39:19","新北市淡水區八勢路50巷66號","121.462031666667","25.1498116666667","6501000","淡水區"
"251008","181-VK","2018/02/09 18:39:25","新北市淡水區北投子19-8號","121.453903333333","25.1839416666667","6501000","淡水區"
"251010","413-VK","2018/02/09 18:39:21","新北市淡水區沙崙路122號","121.423371666667","25.18266","6501000","淡水區"
"251012","441-VK","2018/02/09 18:39:24","新北市淡水區北新路117號","121.448968333333","25.1784983333333","6501000","淡水區"
"251001","559-UM","2018/02/09 18:39:20","新北市淡水區自強路415巷2號","121.465493333333","25.1343116666667","6501000","淡水區"
"251006","561-UM","2018/02/09 18:39:19","新北市淡水區崁頂37-11號","121.438683333333","25.1945366666667","6501000","淡水區"
"251007","577-R6","2018/02/09 18:39:18","新北市淡水區中正東路二段143巷2弄1號","121.460665","25.1473416666667","6501000","淡水區"
"251011","650-BX","2018/02/09 18:39:18","新北市淡水區鄧公路41號","121.457868333333","25.1688933333333","6501000","淡水區"
"251002","672-BX","2018/02/09 18:39:26","新北市淡水區中正東路一段3巷14弄1號","121.450781666667","25.16415","6501000","淡水區"
"251003","673-BX","2018/02/09 18:39:13","新北市淡水區北新路69巷26號","121.446815","25.1800566666667","6501000","淡水區"
"207003","550-UM","2018/02/09 18:39:16","新北市萬里區野柳里港東路61號","121.687566666667","25.2038016666667","6502800","萬里區"
"207004","225-TW","2018/02/09 18:39:06","新北市萬里區萬里里獅頭路12-4號","121.69276","25.1793066666667","6502800","萬里區"
"252002","178-VK","2018/02/09 18:39:23","新北市三芝區民生街31號","121.503646666667","25.2562916666667","6502100","三芝區"
"252001","292-VK","2018/02/09 18:39:14","新北市三芝區埔頭里埔頭14號","121.500651666667","25.253975","6502100","三芝區"
"252003","702-TV","2018/02/09 18:39:12","新北市三芝區後厝里土地公坑55號","121.4626","25.2483266666667","6502100","三芝區"
"237004","KEA-2597","2018/02/09 18:39:22","新北市三峽區有木2-2號","121.419008333333","24.8660216666667","6500900","三峽區"
"237007","153-BY","2018/02/09 18:39:22","新北市三峽區中正路二段578號","121.35946","24.9059333333333","6500900","三峽區"
"237009","210-TH","2018/02/09 18:39:15","新北市三峽區大同路286巷3號","121.364143333333","24.92526","6500900","三峽區"
"237013","252-BX","2018/02/09 18:39:09","新北市三峽區光明路69巷25號","121.376653333333","24.92931","6500900","三峽區"
"237012","275-BY","2018/02/09 18:39:17","新北市三峽區三樹路304號","121.381083333333","24.9439733333333","6500900","三峽區"
"237008","302-VK","2018/02/09 18:39:14","新北市三峽區白雞68-317號","121.392136666667","24.911455","6500900","三峽區"
"237014","433-BY","2018/02/09 18:39:15","新北市三峽區復興路480巷48號","121.360496666667","24.9400466666667","6500900","三峽區"
"237006","5529-G3","2018/02/09 18:39:24","新北市三峽區溪東路315巷3弄1號","121.4107","24.930805","6500900","三峽區"
"237011","KEA-2596","2018/02/09 18:39:19","新北市三峽區溪東路228號","121.408208333333","24.9318166666667","6500900","三峽區"
"237010","706-TV","2018/02/09 18:39:23","新北市三峽區復興路323號","121.36478","24.9387583333333","6500900","三峽區"
"237005","AKY-6261","2018/02/09 18:39:19","新北市三峽區秀川街82號","121.370675","24.9335683333333","6500900","三峽區"
"236072","105-UM","2018/02/09 18:39:23","新北市土城區永豐路157巷29弄1號","121.46874","24.9815766666667","6501300","土城區"
"236043","107-UM","2018/02/09 18:39:16","新北市土城區學成路108巷9號","121.450073333333","24.9895316666667","6501300","土城區"
"236079","166-UM","2018/02/09 18:39:26","新北市土城區中央路四段52巷36號","121.419945","24.9607883333333","6501300","土城區"
"236031","253-BX","2018/02/09 18:39:29","新北市土城區中華路二段187號","121.438598333333","24.974555","6501300","土城區"
"236026","269-VK","2018/02/09 18:39:23","新北市土城區忠義路49-1號","121.440525","24.9690866666667","6501300","土城區"
"236015","270-VK","2018/02/09 18:39:24","新北市土城區青雲路185號","121.459475","24.9826033333333","6501300","土城區"
"236039","271-VK","2018/02/09 18:39:08","新北市土城區明德路一段313巷3弄13號","121.460125","24.9765266666667","6501300","土城區"
"236022","401-BY","2018/02/09 18:39:29","新北市土城區延吉街253巷3號","121.467593333333","24.9846266666667","6501300","土城區"
"236059","912-UM","2018/02/09 18:39:23","新北市土城區中央路四段35號","121.423253333333","24.96199","6501300","土城區"
"236050","913-UM","2018/02/09 18:39:26","新北市土城區明德路一段24號","121.465101666667","24.9848816666667","6501300","土城區"
"236063","915-UM","2018/02/09 18:39:19","新北市土城區延壽路13巷19號","121.469931666667","24.9913716666667","6501300","土城區"
"236055","AAC-216","2018/02/09 18:39:09","新北市土城區裕民路2號","121.446603333333","24.989285","6501300","土城區"
"242060","362-BY","2018/02/09 18:39:17","新北市新莊區四維路97巷22號","121.424045","25.023275","6500500","新莊區"
"242058","353-BY","2018/02/09 18:39:23","新北市新莊區中正路891-16號","121.413005","25.022365","6500500","新莊區"
"242007","132-UY","2018/02/09 18:39:26","新北市泰山區泰林路一段2-1號","121.442356666667","25.0481116666667","6500500","新莊區"
"242056","349-TH","2018/02/09 18:39:04","新北市新莊區新莊路751巷82號","121.442271666667","25.0308383333333","6500500","新莊區"
"242011","351-TH","2018/02/09 18:39:18","新北市新莊區中榮街75-2號","121.445791666667","25.0528283333333","6500500","新莊區"
"238015","755-BX","2018/02/09 18:39:23","新北市樹林區中山路三段89號","121.40007","24.97488","6500700","樹林區"
"238023","601-UM","2018/02/09 18:39:29","新北市樹林區三福街114號","121.406453333333","25.0162183333333","6500700","樹林區"
"238018","571-TV","2018/02/09 18:39:05","新北市樹林區鎮前街6號","121.426358333333","24.9935883333333","6500700","樹林區"
"238024","5061-A6","2018/02/09 18:39:11","新北市樹林區太順街79巷16號","121.416928333333","24.9781","6500700","樹林區"
"238025","303-VK","2018/02/09 18:38:28","新北市樹林區大安路626號","121.411118333333","24.98265","6500700","樹林區"
"238017","283-BY","2018/02/09 18:39:25","新北市樹林區光興街50號","121.409816666667","25.0027383333333","6500700","樹林區"
"238014","282-BY","2018/02/09 18:39:08","新北市樹林區大安路111巷11號","121.423101666667","24.9975466666667","6500700","樹林區"
"238020","268-VK","2018/02/09 18:39:15","新北市樹林區中正路642巷19號","121.41151","25.0174816666667","6500700","樹林區"
"238026","172-UY","2018/02/09 18:39:19","新北市樹林區中山路三段206-1號","121.38498","24.9677183333333","6500700","樹林區"
"238016","169-UY","2018/02/09 18:39:11","新北市樹林區文化街15號","121.41968","24.987295","6500700","樹林區"
"239007","AAC-297","2018/02/09 18:39:19","新北市鶯歌區中正一路308號","121.356463333333","24.9569983333333","6500800","鶯歌區"
"239008","527-UM","2018/02/09 18:34:23","新北市鶯歌區國際一路14號","121.336188333333","24.976515","6500800","鶯歌區"
"239005","526-UM","2018/02/09 18:39:11","新北市鶯歌區鶯桃路670號","121.328826666667","24.9694683333333","6500800","鶯歌區"
"239001","417-VK","2018/02/09 18:39:13","新北市鶯歌區中正三路189號","121.335985","24.9391283333333","6500800","鶯歌區"
"239003","360-BY","2018/02/09 18:39:14","新北市鶯歌區永和街91巷1號","121.333213333333","24.9681333333333","6500800","鶯歌區"
"239004","193-VK","2018/02/09 18:39:26","新北市鶯歌區尖山路261號","121.34088","24.943565","6500800","鶯歌區"
"221008","489-VK","2018/02/09 18:39:17","新北市汐止區康寧街901號","121.651393333333","25.075085","6501100","汐止區"
"221036","130-UY","2018/02/09 18:39:17","新北市汐止區水碓街2號","121.663571666667","25.0698916666667","6501100","汐止區"
"221010","131-UY","2018/02/09 18:39:14","新北市汐止區瑞松街49巷6號","121.6454","25.1071133333333","6501100","汐止區"
"221012","278-VK","2018/02/09 18:39:26","新北市汐止區吉祥街27巷16號","121.66676","25.081205","6501100","汐止區"
"221023","279-VK","2018/02/09 18:39:24","新北市汐止區明峰街55號","121.633263333333","25.0712616666667","6501100","汐止區"
"221032","280-BY","2018/02/09 18:39:30","新北市汐止區民權街二段85號","121.619036666667","25.0476216666667","6501100","汐止區"
"221027","281-BY","2018/02/09 18:39:16","新北市汐止區和平街75號","121.661363333333","25.07067","6501100","汐止區"
"221002","297-VK","2018/02/09 18:39:19","新北市汐止區中興路25號","121.636878333333","25.0595533333333","6501100","汐止區"
"221029","298-VK","2018/02/09 18:39:20","新北市汐止區樟樹一路131號","121.642191666667","25.064945","6501100","汐止區"
"221021","299-VK","2018/02/09 18:39:15","新北市汐止區復興路53巷1號","121.656806666667","25.06269","6501100","汐止區"
"221031","353-TW","2018/02/09 18:39:11","新北市汐止區大同路一段312號","121.637305","25.0587816666667","6501100","汐止區"
"221035","622-UM","2018/02/09 18:39:10","新北市汐止區大同路二段33號","121.647705","25.0629966666667","6501100","汐止區"
"221025","623-UM","2018/02/09 18:39:15","新北市汐止區仁愛路119巷27號","121.661978333333","25.06455","6501100","汐止區"
"221038","646-BX","2018/02/09 18:39:14","新北市汐止區汐萬路一段244-1號","121.651226666667","25.0734816666667","6501100","汐止區"
"221033","647-BX","2018/02/09 18:39:24","新北市汐止區南勢街1巷2號","121.626968333333","25.0374483333333","6501100","汐止區"
"221018","753-BX","2018/02/09 18:39:22","新北市汐止區茄苳路265號","121.672185","25.0683066666667","6501100","汐止區"
"220079","145-BY","2018/02/09 18:39:19","新北市板橋區光華街1號","121.454243333333","25.01115","6500100","板橋區"
"220082","610-BX","2018/02/09 18:39:22","新北市板橋區大觀路三段52號","121.432451666667","24.9959683333333","6500100","板橋區"
"220056","276-BY","2018/02/09 18:39:25","新北市板橋區四川路二段243號","121.450328333333","24.9934516666667","6500100","板橋區"
"220071","283-VK","2018/02/09 18:39:22","新北市板橋區四川路二段253號","121.450293333333","24.99337","6500100","板橋區"
"220083","286-VK","2018/02/09 18:39:19","新北市板橋區大觀路二段153巷44弄11號","121.44696","24.9992266666667","6500100","板橋區"
"220081","287-VK","2018/02/09 18:39:17","新北市板橋區大觀路二段153巷44弄5號","121.446575","24.9993783333333","6500100","板橋區"
"220084","296-UM","2018/02/09 18:39:17","新北市板橋區大觀路二段153巷44弄11號","121.446811666667","24.9992583333333","6500100","板橋區"
"220075","303-R5","2018/02/09 18:39:13","新北市板橋區板城路271號","121.449803333333","24.9979933333333","6500100","板橋區"
"220064","486-VK","2018/02/09 18:39:21","新北市板橋區縣民大道二段82號","121.465468333333","25.0142133333333","6500100","板橋區"
"242044","280-VK","2018/02/09 18:39:22","新北市新莊區中正路新旺巷38號","121.416415","25.022435","6500500","新莊區"
"220035","560-BX","2018/02/09 18:39:21","新北市板橋區南雅西路二段145巷3號","121.451663333333","25.0115033333333","6500100","板橋區"
"220057","686-BX","2018/02/09 18:39:23","新北市板橋區華東街1-9號","121.44821","24.9948816666667","6500100","板橋區"
"220077","687-BX","2018/02/09 18:39:15","新北市板橋區大觀路二段435號","121.441941666667","24.9950083333333","6500100","板橋區"
"220054","741-BX","2018/02/09 18:39:13","新北市板橋區華東街1-9號","121.448116666667","24.9949266666667","6500100","板橋區"
"220055","827-TW","2018/02/09 18:39:09","新北市板橋區板城路407號","121.447436666667","24.995205","6500100","板橋區"
"220074","895-R6","2018/02/09 18:39:30","新北市板橋區南雅南路二段134號","121.452","24.9966","6500100","板橋區"
"220073","985-R7","2018/02/09 18:39:12","新北市板橋區貴興路114號","121.455091666667","25.00199","6500100","板橋區"
"220070","AAC-253","2018/02/09 18:39:20","新北市板橋區華東街1-9號","121.448275","24.99486","6500100","板橋區"
