"lineid","car","time","location","longitude","latitude","cityid","cityname"
"234064","337-UY","2018/02/09 20:39:24","新北市永和區永和路二段285號","121.516078333333","25.015835","6500400","永和區"
"234086","338-UY","2018/02/09 20:39:14","新北市永和區光復街30號","121.51658","25.0174283333333","6500400","永和區"
"234030","746-BX","2018/02/09 20:39:30","新北市中和區立人街18號","121.519113333333","24.9941916666667","6500400","永和區"
"234061","AAD-866","2018/02/09 20:39:20","新北市永和區中正路381號","121.517193333333","25.0036766666667","6500400","永和區"
"234023","9381-KE","2018/02/09 20:39:19","新北市永和區竹林路25巷12號","121.517818333333","25.0148866666667","6500400","永和區"
"249001","173-UM","2018/02/09 20:39:16","新北市八里區中山路三段382號","121.368613333333","25.1361916666667","6502300","八里區"
"249004","303-UY","2018/02/09 20:39:22","新北市八里區中山路一段157巷13號","121.413043333333","25.1583483333333","6502300","八里區"
"234074","AAC-211","2018/02/09 20:39:14","新北市永和區竹林路119巷22弄3號","121.521473333333","25.0115533333333","6500400","永和區"
"243011","297-R6","2018/02/09 20:39:06","新北市泰山區明志路三段121號","121.425055","25.0407416666667","6501600","泰山區"
"243010","KEA-2215","2018/02/09 20:39:23","新北市泰山區明志路二段23號","121.429863333333","25.0533216666667","6501600","泰山區"
"243016","680-BX","2018/02/09 20:39:33","新北市泰山區明志路二段310號","121.426373333333","25.04619","6501600","泰山區"
"222003","436-BY","2018/02/09 20:39:20","新北市深坑區深坑街135號","121.613461666667","25.0012666666667","6501800","深坑區"
"222002","659-BX","2018/02/09 20:39:32","新北市深坑區萬福路43號","121.599383333333","25.0068683333333","6501800","深坑區"
"231041","002-UM","2018/02/09 20:39:22","新北市新店區中正路700巷2號","121.534096666667","24.9908366666667","6500600","新店區"
"231059","046-UY","2018/02/09 20:39:33","新北市新店區僑愛一路1號","121.499811666667","24.9448983333333","6500600","新店區"
"231061","047-UY","2018/02/09 20:39:33","新北市新店區新和街54號","121.519755","24.9852633333333","6500600","新店區"
"231060","106-UY","2018/02/09 20:39:23","新北市新店區安康路三段742號","121.473766666667","24.94196","6500600","新店區"
"231051","107-UY","2018/02/09 20:39:13","新北市新店區中央六街3號","121.530398333333","24.9744583333333","6500600","新店區"
"231048","108-UY","2018/02/09 20:39:21","新北市新店區寶慶街76號","121.541575","24.9867183333333","6500600","新店區"
"231049","110-UY","2018/02/09 20:39:18","新北市新店區永業路81巷1弄17號","121.530673333333","24.9503116666667","6500600","新店區"
"231053","187-VK","2018/02/09 20:39:19","新北市新店區廣興路7-10號","121.545666666667","24.9117566666667","6500600","新店區"
"231064","189-VK","2018/02/09 20:39:32","新北市新店區安和路三段175號","121.51563","24.9863066666667","6500600","新店區"
"231050","KEA-2219","2018/02/09 20:39:16","新北市新店區建安街15巷1號","121.539768333333","24.9754233333333","6500600","新店區"
"221015","KEA-2785","2018/02/09 20:39:14","新北市汐止區建成路50號","121.663788333333","25.0729183333333","6501100","汐止區"
"231057","256-BX","2018/02/09 20:39:20","新北市新店區花園六路二段4號","121.554365","24.93347","6500600","新店區"
"231054","AAD-862","2018/02/09 20:39:24","新北市新店區行政街12巷1號","121.542855","24.9664516666667","6500600","新店區"
"231058","3712-VJ","2018/02/09 20:39:18","新北市新店區平等街35號","121.53656","24.9734266666667","6500600","新店區"
"231056","3713-VJ","2018/02/09 20:39:23","新北市新店區中正路487-3號","121.532896666667","24.9818933333333","6500600","新店區"
"231042","616-UM","2018/02/09 20:39:13","新北市新店區寶高路120巷1號","121.554653333333","24.9759933333333","6500600","新店區"
"231045","617-UM","2018/02/09 20:39:30","新北市新店區長春路100號","121.551453333333","24.9589116666667","6500600","新店區"
"231040","619-UM","2018/02/09 20:39:23","新北市新店區中正路261號","121.538801666667","24.97355","6500600","新店區"
"231063","645-TV","2018/02/09 20:39:29","新北市新店區玫瑰路4-1號","121.493571666667","24.9513983333333","6500600","新店區"
"231068","718-UY","2018/02/09 20:39:20","新北市新店區中興路三段330號","121.542166666667","24.9864766666667","6500600","新店區"
"231065","719-UY","2018/02/09 20:39:17","新北市新店區安祥路102巷121弄2號","121.486138333333","24.9645466666667","6500600","新店區"
"231062","720-UM","2018/02/09 20:39:24","新北市新店區雙城路4巷1號","121.491331666667","24.9508766666667","6500600","新店區"
"231044","897-TW","2018/02/09 20:39:11","新北市新店區建國路291巷1號","121.536955","24.9852816666667","6500600","新店區"
"231043","899-TW","2018/02/09 20:39:21","新北市新店區建國路8-2號","121.540045","24.9735683333333","6500600","新店區"
"231066","AKT-0513","2018/02/09 20:39:13","新北市新店區安興路105號","121.514743333333","24.9777216666667","6500600","新店區"
"241011","013-R5","2018/02/09 20:39:26","新北市三重區龍濱路221號","121.501923333333","25.0720333333333","6500200","三重區"
"241028","022-UY","2018/02/09 20:39:16","新北市三重區光興街89號","121.497428333333","25.0599583333333","6500200","三重區"
"241008","059-VK","2018/02/09 20:39:15","新北市三重區下竹圍街91號","121.481091666667","25.0748816666667","6500200","三重區"
"241009","060-VK","2018/02/09 20:39:16","新北市三重區碧華街55號","121.484696666667","25.0813016666667","6500200","三重區"
"241031","061-VK","2018/02/09 20:39:17","新北市三重區重陽路一段113巷1弄49號","121.488093333333","25.0585566666667","6500200","三重區"
"241015","062-VK","2018/02/09 20:39:19","新北市三重區雙園街1號","121.4978","25.0684466666667","6500200","三重區"
"241017","063-VK","2018/02/09 20:39:16","新北市三重區安慶街268號","121.490768333333","25.067675","6500200","三重區"
"241024","065-VK","2018/02/09 20:39:26","新北市三重區忠孝路三段15巷41號","121.480171666667","25.0681366666667","6500200","三重區"
"241026","066-VK","2018/02/09 20:39:14","新北市三重區文化南路7號","121.500015","25.0623733333333","6500200","三重區"
"241002","090-VK","2018/02/09 20:39:27","新北市三重區仁義街167巷28號","121.498045","25.0821066666667","6500200","三重區"
"241014","156-TC","2018/02/09 20:39:22","新北市三重區萬壽街16號","121.499461666667","25.069405","6500200","三重區"
"241005","262-UM","2018/02/09 20:39:09","新北市三重區集賢路87-1號","121.49395","25.0868833333333","6500200","三重區"
"241018","265-UM","2018/02/09 20:39:18","新北市三重區正義北路206號","121.496336666667","25.0673616666667","6500200","三重區"
"241016","266-UM","2018/02/09 20:39:27","新北市三重區長壽西街85號","121.495173333333","25.067","6500200","三重區"
"241022","267-UM","2018/02/09 20:39:30","新北市三重區新北大道一段46巷18弄3號","121.488208333333","25.06203","6500200","三重區"
"241032","269-UM","2018/02/09 20:39:17","新北市三重區重陽路一段120巷35號","121.485153333333","25.0602033333333","6500200","三重區"
"241013","270-UM","2018/02/09 20:39:27","新北市三重區仁賢街12-1號","121.495708333333","25.0749033333333","6500200","三重區"
"241025","271-UM","2018/02/09 20:39:12","新北市三重區頂崁街210巷28弄13號","121.475841666667","25.067005","6500200","三重區"
"241007","398-BY","2018/02/09 20:39:17","新北市三重區仁美街2號","121.48867","25.0770383333333","6500200","三重區"
"241020","413-TH","2018/02/09 20:39:10","新北市三重區三和路三段124號","121.49358","25.07241","6500200","三重區"
"241035","462-BY","2018/02/09 20:39:24","新北市三重區正義北路253號","121.495543333333","25.0696266666667","6500200","三重區"
"241004","475-VK","2018/02/09 20:39:20","新北市三重區仁愛街406巷3號","121.490706666667","25.0812166666667","6500200","三重區"
"241030","480-VK","2018/02/09 20:39:15","新北市三重區成功路73巷13號","121.489493333333","25.05196","6500200","三重區"
"241023","545-UM","2018/02/09 20:39:14","新北市三重區自由街33號","121.47923","25.0668066666667","6500200","三重區"
"241001","547-UM","2018/02/09 20:39:22","新北市三重區自強路三段110巷37號","121.485985","25.0745533333333","6500200","三重區"
"241019","KEA-2593","2018/02/09 20:39:20","新北市三重區重陽路四段126巷27號","121.491826666667","25.07104","6500200","三重區"
"241003","887-TS","2018/02/09 20:39:31","新北市三重區集賢路87-1號","121.493616666667","25.08682","6500200","三重區"
"241012","941-UM","2018/02/09 20:39:22","新北市三重區秀江街6號","121.502646666667","25.0730483333333","6500200","三重區"
"241029","942-UM","2018/02/09 20:39:24","新北市三重區集美街126巷25號","121.48994","25.0537666666667","6500200","三重區"
"241033","AAC-255","2018/02/09 20:39:27","新北市三重區光復路二段87巷31弄2號","121.474236666667","25.0578016666667","6500200","三重區"
"235050","4979-A6","2018/02/09 20:39:20","新北市中和區景新街129號","121.505803333333","24.9972533333333","6500300","中和區"
"235069","4980-A6","2018/02/09 20:35:41","新北市中和區連城路265巷14弄9號","121.491255","24.99466","6500300","中和區"
"235026","800-TS","2018/02/09 20:39:19","新北市中和區員山路36巷13號","121.48433","24.9908033333333","6500300","中和區"
"235059","AAC-215","2018/02/09 20:39:25","新北市中和區員山路57號","121.48086","24.9934016666667","6500300","中和區"
"247022","893-R6","2018/02/09 20:39:32","新北市蘆洲區中正路243巷7弄5號","121.467316666667","25.086235","6501400","蘆洲區"
"247012","546-UM","2018/02/09 20:39:11","新北市蘆洲區民族路236巷56號","121.481738333333","25.089005","6501400","蘆洲區"
"247020","500-BY","2018/02/09 20:39:32","新北市蘆洲區民族路424號","121.473836666667","25.091775","6501400","蘆洲區"
"247008","341-TH","2018/02/09 20:39:11","新北市蘆洲區重陽街42-1號","121.48116","25.0826083333333","6501400","蘆洲區"
"247010","339-TH","2018/02/09 20:39:15","新北市蘆洲區中山一路136號","121.476416666667","25.0817716666667","6501400","蘆洲區"
"247002","337-TH","2018/02/09 20:39:14","新北市蘆洲區長安街375巷25號","121.456053333333","25.0878666666667","6501400","蘆洲區"
"247004","336-TH","2018/02/09 20:39:21","新北市蘆洲區長安街297號","121.458136666667","25.08486","6501400","蘆洲區"
"247016","057-VK","2018/02/09 20:39:20","新北市蘆洲區中正路20號","121.471423333333","25.0821733333333","6501400","蘆洲區"
"247006","056-VK","2018/02/09 20:39:14","新北市蘆洲區和平路121巷8弄6號","121.466881666667","25.080055","6501400","蘆洲區"
"247014","007-UY","2018/02/09 20:39:25","新北市蘆洲區成功路77-1號","121.473108333333","25.0809833333333","6501400","蘆洲區"
"247024","002-UY","2018/02/09 20:39:15","新北市蘆洲區長樂路61號","121.462923333333","25.0863083333333","6501400","蘆洲區"
"222001","KEA-2212","2018/02/09 20:39:23","新北市深坑區北深路三段232號","121.600755","25.0041483333333","6501800","深坑區"
"251010","413-VK","2018/02/09 20:39:21","新北市淡水區沙崙路181巷15號","121.42394","25.18437","6501000","淡水區"
"251012","441-VK","2018/02/09 20:39:24","新北市淡水區興仁路108號","121.451716666667","25.2181916666667","6501000","淡水區"
"251001","559-UM","2018/02/09 20:39:29","新北市淡水區淡金路65號","121.456158333333","25.1615133333333","6501000","淡水區"
"251011","650-BX","2018/02/09 20:39:26","新北市淡水區新市一路一段361號","121.436293333333","25.186215","6501000","淡水區"
"251002","672-BX","2018/02/09 20:39:26","新北市淡水區中正路34-1號","121.4439","25.1693183333333","6501000","淡水區"
"251003","673-BX","2018/02/09 20:39:13","新北市淡水區新民街120巷21號","121.438336666667","25.178065","6501000","淡水區"
"252002","178-VK","2018/02/09 20:39:22","新北市三芝區淡金路二段47-2號","121.503716666667","25.2605816666667","6502100","三芝區"
"252001","292-VK","2018/02/09 20:39:14","新北市三芝區長安街55號","121.50114","25.25656","6502100","三芝區"
"242032","AAC-296","2018/02/09 20:39:25","新北市新莊區中正路508巷18-6號","121.438256666667","25.0349466666667","6500500","新莊區"
"242029","986-R7","2018/02/09 20:39:30","新北市新莊區中華路二段141號","121.453041666667","25.05088","6500500","新莊區"
"242025","615-BX","2018/02/09 20:39:17","新北市新莊區化成路579巷1號","121.464375","25.0661566666667","6500500","新莊區"
"242023","613-BX","2018/02/09 20:39:28","新北市新莊區化成路544號","121.4663","25.0535966666667","6500500","新莊區"
"242027","612-BX","2018/02/09 20:39:30","新北市新莊區思源路203號","121.459906666667","25.0457966666667","6500500","新莊區"
"242039","566-BX","2018/02/09 20:39:30","新北市新莊區民安路383號","121.431951666667","25.0230566666667","6500500","新莊區"
"242048","441-UM","2018/02/09 20:39:32","新北市新莊區中正路875號","121.418026666667","25.026905","6500500","新莊區"
"242054","440-UM","2018/02/09 20:39:27","新北市新莊區西盛街325號","121.428158333333","25.0147266666667","6500500","新莊區"
"242034","415-TV","2018/02/09 20:39:18","新北市新莊區中正路328號","121.44595","25.0347583333333","6500500","新莊區"
"242005","413-TV","2018/02/09 20:39:15","新北市新莊區化成路387號","121.465143333333","25.05841","6500500","新莊區"
"242041","400-BY","2018/02/09 20:39:27","新北市新莊區天祥街19巷6號","121.416958333333","25.027985","6500500","新莊區"
"242060","362-BY","2018/02/09 20:39:19","新北市新莊區新樹路258巷3號","121.432158333333","25.0155283333333","6500500","新莊區"
"242058","353-BY","2018/02/09 20:39:28","新北市新莊區四維路149號","121.422636666667","25.02213","6500500","新莊區"
"242007","132-UY","2018/02/09 20:39:14","新北市新莊區思源路287巷2弄20號","121.459433333333","25.0488333333333","6500500","新莊區"
"242037","133-UY","2018/02/09 20:39:22","新北市新莊區後港一路94巷2號","121.42772","25.026495","6500500","新莊區"
"242021","135-UY","2018/02/09 20:39:27","新北市新莊區公園路100號","121.450696666667","25.039925","6500500","新莊區"
"242046","172-VK","2018/02/09 20:39:12","新北市新莊區裕民街16號","121.4191","25.025615","6500500","新莊區"
"242009","173-VK","2018/02/09 20:39:27","新北市新莊區福壽街99巷6弄6號","121.457121666667","25.0506133333333","6500500","新莊區"
"242015","175-VK","2018/02/09 20:39:17","新北市新莊區中和街44號","121.44819","25.0442433333333","6500500","新莊區"
"242002","176-VK","2018/02/09 20:39:27","新北市新莊區中正路育農巷1號","121.456948333333","25.0382133333333","6500500","新莊區"
"242013","346-TH","2018/02/09 20:39:22","新北市新莊區中和街175巷15號","121.446923333333","25.050595","6500500","新莊區"
"242050","347-TH","2018/02/09 20:39:09","新北市新莊區民安西路189巷40號","121.42749","25.0152783333333","6500500","新莊區"
"242019","348-TH","2018/02/09 20:39:14","新北市新莊區銘德街123號","121.455156666667","25.043135","6500500","新莊區"
"242056","349-TH","2018/02/09 20:39:24","新北市新莊區瓊泰路105號","121.44335","25.030035","6500500","新莊區"
"242017","350-TH","2018/02/09 20:39:22","新北市新莊區中港三街110號","121.448268333333","25.04607","6500500","新莊區"
"242011","351-TH","2018/02/09 20:39:20","新北市新莊區中榮街122巷2號","121.446641666667","25.0531766666667","6500500","新莊區"
"221008","489-VK","2018/02/09 20:39:22","新北市汐止區康寧街706-2號","121.638498333333","25.073015","6501100","汐止區"
"221036","130-UY","2018/02/09 20:39:22","新北市汐止區忠孝東路255巷10號","121.662346666667","25.06785","6501100","汐止區"
"221023","279-VK","2018/02/09 20:39:24","新北市汐止區明峰街12-1號","121.635043333333","25.0714466666667","6501100","汐止區"
"221032","280-BY","2018/02/09 20:39:10","新北市汐止區橫科路221巷19-1號","121.621555","25.0495416666667","6501100","汐止區"
"221027","281-BY","2018/02/09 20:39:19","新北市汐止區大同路二段567號","121.662888333333","25.0699733333333","6501100","汐止區"
"221002","297-VK","2018/02/09 20:39:19","新北市汐止區福德二路132巷2號","121.63106","25.0652883333333","6501100","汐止區"
"221029","298-VK","2018/02/09 20:13:20","新北市汐止區樟樹一路99巷2弄9號","121.641316666667","25.0639216666667","6501100","汐止區"
"221021","299-VK","2018/02/09 20:39:15","新北市汐止區水源路一段284號","121.654205","25.05831","6501100","汐止區"
"221031","353-TW","2018/02/09 20:39:10","新北市汐止區中興路27巷21號","121.634088333333","25.060845","6501100","汐止區"
"221035","622-UM","2018/02/09 20:39:30","新北市汐止區長江街101-5號","121.658708333333","25.0732083333333","6501100","汐止區"
"221025","623-UM","2018/02/09 20:39:14","新北市汐止區水源路二段167號","121.657638333333","25.0541266666667","6501100","汐止區"
"221038","646-BX","2018/02/09 20:39:14","新北市汐止區新江北路30巷15號","121.65287","25.068955","6501100","汐止區"
"221033","647-BX","2018/02/09 20:39:23","台北市南港區合順街8巷7弄38號","121.620236666667","25.04186","6501100","汐止區"
"221018","753-BX","2018/02/09 20:39:23","新北市汐止區茄苳路119號","121.668036666667","25.0708783333333","6501100","汐止區"
"220103","257-TC","2018/02/09 20:39:20","新北市板橋區漢生東路73巷26號","121.467236666667","25.0169333333333","6500100","板橋區"
"220083","286-VK","2018/02/09 20:39:30","新北市板橋區僑中二街108巷11號","121.445231666667","25.0072333333333","6500100","板橋區"
"220081","287-VK","2018/02/09 20:39:17","新北市板橋區大觀路三段28號","121.434138333333","24.99573","6500100","板橋區"
"220061","293-UM","2018/02/09 20:39:13","新北市板橋區文華街12號","121.457838333333","25.0004916666667","6500100","板橋區"
"220089","487-VK","2018/02/09 20:39:21","新北市板橋區四維路365號","121.461928333333","25.030215","6500100","板橋區"
"242044","280-VK","2018/02/09 20:39:21","新北市新莊區龍安路60號","121.414988333333","25.0216583333333","6500500","新莊區"
"220070","AAC-253","2018/02/09 20:39:20","新北市樹林區中山路三段210-2號","121.381921666667","24.9657816666667","6500100","板橋區"
