"lineid","car","time","location","longitude","latitude","cityid","cityname"
"231059","046-UY","2018/02/09 21:19:22","新北市新店區薏仁坑路自強巷1號","121.49692","24.957675","6500600","新店區"
"231051","107-UY","2018/02/09 21:19:13","新北市新店區中正路700巷82號","121.535988333333","24.9932616666667","6500600","新店區"
"231050","KEA-2219","2018/02/09 21:19:16","新北市新店區中正路189巷14號","121.540163333333","24.9718466666667","6500600","新店區"
"231040","619-UM","2018/02/09 21:19:23","新北市新店區光明街306號","121.540525","24.9650316666667","6500600","新店區"
"231063","645-TV","2018/02/09 21:19:29","新北市新店區玫瑰路57巷28號","121.496721666667","24.94631","6500600","新店區"
"231066","AKT-0513","2018/02/09 21:19:13","新北市新店區安康路二段362號","121.50182","24.9574233333333","6500600","新店區"
"241011","013-R5","2018/02/09 21:19:26","新北市三重區龍濱路197號","121.501881666667","25.071355","6500200","三重區"
"241028","022-UY","2018/02/09 21:19:16","新北市三重區正義南路169號","121.498933333333","25.0575016666667","6500200","三重區"
"241008","059-VK","2018/02/09 21:19:15","新北市三重區自強路一段62號","121.497241666667","25.0667416666667","6500200","三重區"
"241009","060-VK","2018/02/09 21:19:16","新北市三重區忠孝路二段160號","121.482085","25.0678916666667","6500200","三重區"
"241031","061-VK","2018/02/09 21:19:17","新北市三重區重新路五段408巷19號","121.475736666667","25.0455783333333","6500200","三重區"
"241017","063-VK","2018/02/09 21:19:16","新北市三重區大同北路120巷1-4號","121.493031666667","25.0639816666667","6500200","三重區"
"241024","065-VK","2018/02/09 21:19:26","新北市三重區中正北路145巷14號","121.484113333333","25.06778","6500200","三重區"
"241026","066-VK","2018/02/09 21:19:14","新北市三重區大同南路220號","121.496791666667","25.05618","6500200","三重區"
"241002","090-VK","2018/02/09 21:19:27","新北市三重區自強路五段43號","121.494105","25.0815766666667","6500200","三重區"
"241014","156-TC","2018/02/09 21:19:30","新北市三重區介壽路39巷13號","121.49921","25.0699433333333","6500200","三重區"
"241005","262-UM","2018/02/09 21:19:30","新北市三重區仁安街9-1號","121.485215","25.0846366666667","6500200","三重區"
"241018","265-UM","2018/02/09 21:19:18","新北市三重區忠孝路一段183號","121.487241666667","25.0716016666667","6500200","三重區"
"241016","266-UM","2018/02/09 21:19:07","新北市三重區自強路一段99號","121.49578","25.0663633333333","6500200","三重區"
"241032","269-UM","2018/02/09 21:19:17","新北市三重區光復路二段152號","121.472203333333","25.0604433333333","6500200","三重區"
"241013","270-UM","2018/02/09 21:19:27","新北市三重區仁愛街81-1號","121.495855","25.0731433333333","6500200","三重區"
"241025","271-UM","2018/02/09 21:19:12","新北市三重區忠孝路三段40巷16弄10號","121.482283333333","25.0668266666667","6500200","三重區"
"241007","398-BY","2018/02/09 21:19:17","新北市三重區後竹圍街175巷33號","121.485495","25.0733666666667","6500200","三重區"
"241004","475-VK","2018/02/09 21:19:20","新北市三重區仁愛街423-1號","121.49044","25.081435","6500200","三重區"
"241030","480-VK","2018/02/09 21:19:15","新北市三重區五谷王北街161-1號","121.477528333333","25.054395","6500200","三重區"
"241023","545-UM","2018/02/09 21:19:14","新北市三重區中正北路176巷27號","121.482666666667","25.0660083333333","6500200","三重區"
"241001","547-UM","2018/02/09 21:19:27","新北市三重區仁愛街277號","121.492825","25.0788516666667","6500200","三重區"
"241019","KEA-2593","2018/02/09 21:19:21","新北市三重區重陽路三段138號","121.489206666667","25.0670066666667","6500200","三重區"
"241006","AAD-863","2018/02/09 21:19:29","新北市三重區新北大道一段7號","121.48984","25.0613633333333","6500200","三重區"
"241003","887-TS","2018/02/09 21:19:31","新北市三重區通華街1號","121.495531666667","25.0842716666667","6500200","三重區"
"241012","941-UM","2018/02/09 21:19:22","新北市三重區龍門路286號","121.502061666667","25.0741733333333","6500200","三重區"
"241033","AAC-255","2018/02/09 21:19:27","新北市三重區光復路二段126巷29號","121.470718333333","25.0588333333333","6500200","三重區"
"235026","800-TS","2018/02/09 21:05:21","新北市中和區員山路36巷16-3號","121.484926666667","24.99176","6500300","中和區"
"247022","893-R6","2018/02/09 21:19:32","新北市蘆洲區三民路243號","121.468945","25.0888766666667","6501400","蘆洲區"
"247012","546-UM","2018/02/09 21:19:30","新北市蘆洲區民族路236巷6號","121.480226666667","25.0885616666667","6501400","蘆洲區"
"247020","500-BY","2018/02/09 21:19:32","新北市蘆洲區仁愛街64號","121.471448333333","25.093855","6501400","蘆洲區"
"247008","341-TH","2018/02/09 21:19:12","新北市蘆洲區中山一路135巷8號","121.475755","25.0811133333333","6501400","蘆洲區"
"247010","339-TH","2018/02/09 21:19:15","新北市蘆洲區鷺江街16-1號","121.478871666667","25.0825883333333","6501400","蘆洲區"
"247002","337-TH","2018/02/09 21:19:14","新北市蘆洲區永樂街39號","121.45782","25.08835","6501400","蘆洲區"
"247004","336-TH","2018/02/09 21:19:21","新北市蘆洲區永安南路二段324號","121.456975","25.0827833333333","6501400","蘆洲區"
"247016","057-VK","2018/02/09 21:19:20","新北市蘆洲區中原路3號","121.461318333333","25.0834983333333","6501400","蘆洲區"
"247006","056-VK","2018/02/09 21:19:14","新北市蘆洲區長安街60號","121.462941666667","25.0798716666667","6501400","蘆洲區"
"247014","007-UY","2018/02/09 21:19:25","新北市蘆洲區保和街50-6號","121.469811666667","25.0863766666667","6501400","蘆洲區"
"247024","002-UY","2018/02/09 21:19:15","新北市蘆洲區光明路98號","121.46316","25.0880283333333","6501400","蘆洲區"
"247018","001-UY","2018/02/09 21:19:21","新北市蘆洲區復興路105巷11號","121.476413333333","25.08836","6501400","蘆洲區"
"251006","010-UM","2018/02/09 21:19:27","新北市淡水區中正路一段22巷6號","121.427831666667","25.1756816666667","6501000","淡水區"
"251008","181-VK","2018/02/09 21:19:25","新北市淡水區水源街二段222號","121.460038333333","25.1765133333333","6501000","淡水區"
"251010","413-VK","2018/02/09 21:19:21","新北市淡水區淡海路69巷26號","121.421875","25.1808566666667","6501000","淡水區"
"251012","441-VK","2018/02/09 21:19:23","新北市淡水區石頭埔8號","121.452648333333","25.2345783333333","6501000","淡水區"
"251005","443-VK","2018/02/09 21:19:33","新北市淡水區水源街一段122巷40號","121.446996666667","25.170485","6501000","淡水區"
"251001","559-UM","2018/02/09 21:19:20","新北市淡水區中山北路二段189巷6號","121.444091666667","25.1852766666667","6501000","淡水區"
"251011","650-BX","2018/02/09 21:19:26","新北市淡水區新民街120巷29號","121.438831666667","25.1788366666667","6501000","淡水區"
"251002","672-BX","2018/02/09 21:10:00","新北市淡水區英專路151號","121.448341666667","25.1748533333333","6501000","淡水區"
"251003","673-BX","2018/02/09 21:19:13","新北市淡水區新春街91巷23號","121.438856666667","25.18319","6501000","淡水區"
"242048","441-UM","2018/02/09 21:19:32","新北市樹林區中山路三段206-2號","121.383468333333","24.9667416666667","6500500","新莊區"
"220070","AAC-253","2018/02/09 21:19:20","新北市板橋區華東街1-9號","121.448273333333","24.994875","6500100","板橋區"
