"lineid","car","time","location","longitude","latitude","cityid","cityname"
"241017","063-VK","2018/02/09 21:49:15","新北市五股區凌雲路三段24巷7號","121.437651666667","25.1065216666667","6500200","三重區"
"241016","266-UM","2018/02/09 21:49:27","新北市五股區成泰路一段98巷77號","121.450478333333","25.0777316666667","6500200","三重區"
"235010","733-UM","2018/02/09 21:42:41","新北市中和區員山路36巷13號","121.484181666667","24.9907983333333","6500300","中和區"
"251004","009-UM","2018/02/09 21:49:28","新北市淡水區自強路201巷35號","121.462326666667","25.1267533333333","6501000","淡水區"
"251006","010-UM","2018/02/09 21:49:27","新北市淡水區中正路11巷3號","121.437808333333","25.17076","6501000","淡水區"
"251008","181-VK","2018/02/09 21:49:25","新北市淡水區學府路104號","121.449878333333","25.17179","6501000","淡水區"
"251010","413-VK","2018/02/09 21:49:21","新北市淡水區中正路二段211號","121.426188333333","25.1891266666667","6501000","淡水區"
"251012","441-VK","2018/02/09 21:49:24","新北市淡水區淡金路三段300號","121.448953333333","25.207695","6501000","淡水區"
"251005","443-VK","2018/02/09 21:49:33","新北市淡水區鄧公路30巷22號","121.453316666667","25.169785","6501000","淡水區"
"251001","559-UM","2018/02/09 21:49:20","新北市淡水區後洲路一段50號","121.428766666667","25.2001183333333","6501000","淡水區"
"251011","650-BX","2018/02/09 21:49:26","新北市淡水區新民街322巷5弄1-1號","121.43634","25.1829266666667","6501000","淡水區"
"251002","672-BX","2018/02/09 21:49:28","新北市淡水區大忠街125號","121.4475","25.1767766666667","6501000","淡水區"
"251003","673-BX","2018/02/09 21:49:33","新北市淡水區新春街92號","121.438915","25.1824333333333","6501000","淡水區"
"242048","441-UM","2018/02/09 21:49:12","新北市新莊區環河路658-8號","121.436396666667","25.00754","6500500","新莊區"
