"lineid","car","time","location","longitude","latitude","cityid","cityname"
"241017","063-VK","2018/02/09 21:59:15","新北市八里區中山路三段386號","121.368436666667","25.1359333333333","6500200","三重區"
"241016","266-UM","2018/02/09 21:59:27","新北市八里區商港路120號","121.392848333333","25.15006","6500200","三重區"
"235010","733-UM","2018/02/09 21:42:41","新北市中和區員山路36巷13號","121.484181666667","24.9907983333333","6500300","中和區"
"251004","009-UM","2018/02/09 21:59:28","新北市淡水區民權路213號","121.458546666667","25.1320566666667","6501000","淡水區"
"251008","181-VK","2018/02/09 21:59:25","新北市淡水區學府路104號","121.44981","25.1717466666667","6501000","淡水區"
"251010","413-VK","2018/02/09 21:59:21","新北市淡水區中正路二段211號","121.426191666667","25.18912","6501000","淡水區"
"251005","443-VK","2018/02/09 21:59:33","新北市淡水區鄧公路30巷1弄67號","121.454426666667","25.169545","6501000","淡水區"
"251007","577-R6","2018/02/09 21:59:18","新北市淡水區水源街二段177巷82號","121.452523333333","25.1773233333333","6501000","淡水區"
"251011","650-BX","2018/02/09 21:59:26","新北市淡水區水碓街7號","121.443181666667","25.17717","6501000","淡水區"
"251003","673-BX","2018/02/09 21:59:13","新北市淡水區新春街103-2號","121.440113333333","25.18208","6501000","淡水區"
"242048","441-UM","2018/02/09 21:59:31","新北市新莊區瓊林路118號","121.442338333333","25.0255416666667","6500500","新莊區"
