"lineid","car","time","location","longitude","latitude","cityid","cityname"
"241017","063-VK","2018/02/09 22:19:15","新北市八里區中華路三段7巷5號","121.397203333333","25.1440433333333","6500200","三重區"
"247003","336-TH","2018/02/09 22:12:38","新北市五股區中興路三段163號","121.449125","25.080955","6501400","蘆洲區"
"251004","009-UM","2018/02/09 22:19:28","新北市淡水區民族路33號","121.462318333333","25.13582","6501000","淡水區"
"251008","181-VK","2018/02/09 22:19:25","新北市淡水區學府路104號","121.449813333333","25.1717616666667","6501000","淡水區"
"251010","413-VK","2018/02/09 22:19:21","新北市淡水區沙崙路200號","121.424686666667","25.1838883333333","6501000","淡水區"
"251007","577-R6","2018/02/09 22:19:18","新北市淡水區北新路180號","121.449411666667","25.1787066666667","6501000","淡水區"
"251011","650-BX","2018/02/09 22:19:26","新北市淡水區水碓街7號","121.44319","25.1771716666667","6501000","淡水區"
