"lineid","car","time","location","longitude","latitude","cityid","cityname"
"241017","063-VK","2018/02/09 22:29:35","新北市五股區新五路三段19號","121.445633333333","25.0894666666667","6500200","三重區"
"247003","336-TH","2018/02/09 22:12:38","新北市五股區中興路三段163號","121.449125","25.080955","6501400","蘆洲區"
"251004","009-UM","2018/02/09 22:29:28","新北市淡水區民族路33號","121.462341666667","25.135805","6501000","淡水區"
"251008","181-VK","2018/02/09 22:29:25","新北市淡水區學府路104號","121.449815","25.17176","6501000","淡水區"
"251010","413-VK","2018/02/09 22:29:21","新北市淡水區沙崙路200號","121.424653333333","25.18387","6501000","淡水區"
"251007","577-R6","2018/02/09 22:29:18","新北市淡水區北新路180號","121.449486666667","25.1787216666667","6501000","淡水區"
