"lineid","car","time","location","longitude","latitude","cityid","cityname"
"248005","653-BX","2018/02/10 07:49:26","新北市五股區明德路12巷6號","121.433396666667","25.0718666666667","6501500","五股區"
"232010","375-UM","2018/02/10 07:49:36","新北市坪林區磨壁潭9號","121.722196666667","24.9384516666667","6502000","坪林區"
"244005","248-BX","2018/02/10 07:49:44","新北市林口區下福里2號","121.316983333333","25.1087816666667","6501700","林口區"
"231008","192-VK","2018/02/10 07:49:28","新北市新店區安華路28-1號","121.51918","24.9613783333333","6500600","新店區"
"226002","205-ST","2018/02/10 07:49:25","新北市平溪區平湖里大湖19-1號","121.78098","25.0235383333333","6502400","平溪區"
"226005","5620-A6","2018/02/10 07:49:32","新北市平溪區嶺腳里嶺腳寮53號","121.747871666667","25.0310333333333","6502400","平溪區"
"226003","AGD-0702","2018/02/10 07:49:28","新北市平溪區嶺腳里嶺腳寮58號","121.747791666667","25.0312816666667","6502400","平溪區"
"223006","022-BY","2018/02/10 07:49:26","新北市石碇區北宜路五段1號","121.624545","24.9536083333333","6501900","石碇區"
"223001","205-TH","2018/02/10 07:49:22","新北市石碇區蛇舌子8-8號","121.658166666667","24.9701483333333","6501900","石碇區"
"223008","406-TH","2018/02/10 07:49:28","新北市石碇區靜安路一段337號","121.698928333333","25.0146366666667","6501900","石碇區"
"223001","592-UM","2018/02/10 07:49:07","新北市石碇區蛇舌子8-8號","121.65801","24.9705383333333","6501900","石碇區"
"223004","660-BX","2018/02/10 07:49:35","新北市石碇區楓子林36-3號","121.642355","25.0095216666667","6501900","石碇區"
"223007","661-BX","2018/02/10 07:49:29","新北市石碇區靜安路一段355號","121.698775","25.0165483333333","6501900","石碇區"
"223005","677-TV","2018/02/10 07:49:29","新北市石碇區八分寮47號","121.642126666667","25.01379","6501900","石碇區"
"227006","282-VK","2018/02/10 07:49:39","新北市雙溪區雙溪里太平路54號","121.864821666667","25.0355133333333","6502500","雙溪區"
"252004","702-TV","2018/02/10 07:49:43","新北市三芝區店子里菜公坑78號","121.509153333333","25.2041283333333","6502100","三芝區"
"252007","AAC-283","2018/02/10 07:49:42","新北市三芝區後厝里芝麻一街1號","121.47433","25.2455116666667","6502100","三芝區"
"237001","159-UY","2018/02/10 07:49:29","新北市三峽區大學路77號","121.376126666667","24.941635","6500900","三峽區"
"236011","165-UM","2018/02/10 07:49:35","新北市土城區永豐路143號","121.46656","24.9835","6501300","土城區"
"236002","339-SR","2018/02/10 07:49:34","新北市土城區龍泉路80-1號","121.43562","24.9423783333333","6501300","土城區"
"220064","282-UM","2018/02/10 07:49:28","新北市板橋區南雅南路一段51號","121.456018333333","25.0061033333333","6500100","板橋區"
