"lineid","car","time","location","longitude","latitude","cityid","cityname"
"248005","653-BX","2018/01/23 08:39:16","新北市五股區明德路12巷6號","121.433385","25.0718633333333","6501500","五股區"
"222004","289-BY","2018/01/23 08:52:48","新北市深坑區大崙尾1-1號","121.615708333333","24.9753316666667","6501800","深坑區"
"231007","189-VK","2018/01/23 08:59:27","新北市新店區新潭路二段61號","121.521926666667","24.926235","6500600","新店區"
"231009","192-VK","2018/01/23 08:59:42","新北市新店區廣興路60巷8弄2號","121.5432","24.9133283333333","6500600","新店區"
"235001","611-BX","2018/01/23 08:59:43","新北市中和區華安街30巷2號","121.467066666667","24.99774","6500300","中和區"
"226005","5620-A6","2018/01/23 08:59:38","新北市平溪區望古里灰3-1號","121.754698333333","25.03028","6502400","平溪區"
"226002","7418-A5","2018/01/23 08:47:43","新北市平溪區東勢里東勢格12號","121.732671666667","25.000565","6502400","平溪區"
"226003","AGD-0702","2018/01/23 08:59:33","新北市平溪區靜安路二段540巷13號","121.746721666667","25.026405","6502400","平溪區"
"223002","198-BX","2018/01/23 08:59:42","新北市石碇區八分寮45-2號","121.641278333333","25.0124766666667","6501900","石碇區"
"223001","205-TH","2018/01/23 08:59:40","新北市石碇區北宜路五段66號","121.638345","24.9536683333333","6501900","石碇區"
"223001","437-BY","2018/01/23 08:59:35","新北市石碇區北宜路五段63號","121.637211666667","24.95409","6501900","石碇區"
"223004","660-BX","2018/01/23 08:59:38","新北市石碇區磨石坑36-8號","121.690976666667","24.96564","6501900","石碇區"
"223005","677-TV","2018/01/23 08:59:32","新北市石碇區磨石坑39-3號","121.687943333333","24.9657316666667","6501900","石碇區"
"227006","282-VK","2018/01/23 08:59:45","新北市雙溪區上林里內平林115號","121.826055","25.02654","6502500","雙溪區"
"252004","249-BX","2018/01/23 08:59:46","新北市三芝區興華里田心子31號","121.488831666667","25.2004566666667","6502100","三芝區"
"252007","AAC-283","2018/01/23 08:59:39","新北市三芝區後厝里北勢子42-8號","121.473855","25.2519683333333","6502100","三芝區"
"237001","159-UY","2018/01/23 08:59:38","新北市三峽區大學路192號","121.372481666667","24.9466183333333","6500900","三峽區"
"236008","165-UM","2018/01/23 08:59:33","新北市土城區千歲路3巷6弄26號","121.442015","24.9703216666667","6501300","土城區"
"236002","339-SR","2018/01/23 08:59:36","新北市土城區明德路二段68-2號","121.447546666667","24.9833033333333","6501300","土城區"
"236006","498-BY","2018/01/23 08:59:48","新北市土城區承天路7號","121.436151666667","24.9659283333333","6501300","土城區"
"239006","661-UM","2018/01/23 08:59:32","桃園市龜山區明興街300號","121.33243","24.9810266666667","6500800","鶯歌區"
