"lineid","car","time","location","longitude","latitude","cityid","cityname"
"234078","298-R6","2018/01/23 12:29:38","新北市永和區福和路1號","121.52556","25.00951","6500400","永和區"
"234015","745-BX","2018/01/23 12:29:44","新北市永和區福和路1號","121.52645","25.0097333333333","6500400","永和區"
"234028","746-BX","2018/01/23 12:29:54","新北市永和區福和路1號","121.526008333333","25.0098433333333","6500400","永和區"
"234048","863-TW","2018/01/23 12:29:45","新北市永和區福和路1號","121.526465","25.0096833333333","6500400","永和區"
"234010","9372-KE","2018/01/23 12:29:34","新北市永和區福和路1號","121.526413333333","25.00964","6500400","永和區"
"234076","969-R7","2018/01/23 12:29:50","新北市永和區福和路1號","121.52654","25.0098133333333","6500400","永和區"
"231002","002-UM","2018/01/23 12:29:42","新北市新店區安華路28-1號","121.519626666667","24.9608983333333","6500600","新店區"
"235001","611-BX","2018/01/23 12:29:35","新北市中和區員山路111號","121.480846666667","24.99483","6500300","中和區"
"228004","212-TW","2018/01/23 12:28:26","新北市貢寮區龍崗里嵩陽街33號","121.90462","25.0185516666667","6502600","貢寮區"
"228005","828-UM","2018/01/23 12:29:47","新北市貢寮區福連里蓬萊街16號","121.98116","24.992895","6502600","貢寮區"
