"lineid","car","time","location","longitude","latitude","cityid","cityname"
"234044","148-BY","2018/01/23 13:09:50","新北市永和區秀朗路二段148巷12弄16號","121.524778333333","25.0011366666667","6500400","永和區"
"234005","207-UY","2018/01/23 13:09:46","新北市永和區中山路一段170號","121.509336666667","25.0090966666667","6500400","永和區"
"234078","298-R6","2018/01/23 13:09:53","新北市永和區永亨路71號","121.521505","25.005895","6500400","永和區"
"234036","336-UY","2018/01/23 13:09:42","新北市永和區民樂街69巷1號","121.52744","24.9978033333333","6500400","永和區"
"234062","337-UY","2018/01/23 13:09:41","新北市永和區秀朗路二段57號","121.521878333333","25.00214","6500400","永和區"
"234084","338-UY","2018/01/23 13:09:52","新北市永和區永貞路113號","121.517721666667","25.004375","6500400","永和區"
"234068","552-UM","2018/01/23 13:09:49","新北市永和區豫溪街137巷1弄22號","121.518463333333","25.01048","6500400","永和區"
"234052","553-UM","2018/01/23 13:09:37","新北市永和區中興街133巷12號","121.518491666667","25.012695","6500400","永和區"
"234015","745-BX","2018/01/23 13:09:46","新北市永和區文化路90巷24號","121.513783333333","25.0162183333333","6500400","永和區"
"234028","746-BX","2018/01/23 13:09:54","新北市永和區四維街93號","121.524388333333","24.9981516666667","6500400","永和區"
"234012","KEA-2591","2018/01/23 13:09:36","新北市永和區保福路二段85號","121.510568333333","25.01278","6500400","永和區"
"234060","AAD-866","2018/01/23 13:09:55","新北市永和區安樂路479號","121.514355","25.0058466666667","6500400","永和區"
"234040","862-TW","2018/01/23 13:09:52","新北市永和區保平路199號","121.508975","25.00493","6500400","永和區"
"234048","863-TW","2018/01/23 13:09:45","新北市永和區文化路135巷26弄2號","121.510583333333","25.014475","6500400","永和區"
"234010","9372-KE","2018/01/23 13:09:55","新北市永和區文化路111號","121.512813333333","25.0152316666667","6500400","永和區"
"234025","9371-KE","2018/01/23 13:09:41","新北市永和區自強街8巷5弄1號","121.51476","25.0076783333333","6500400","永和區"
"234022","9381-KE","2018/01/23 13:09:44","新北市永和區中興街29巷9號","121.516286666667","25.0123716666667","6500400","永和區"
"248017","225-UY","2018/01/23 13:09:53","新北市五股區新五路二段259號","121.442378333333","25.084765","6501500","五股區"
"234076","969-R7","2018/01/23 13:09:50","新北市永和區中正路164號","121.515106666667","24.996565","6500400","永和區"
"234072","AAC-211","2018/01/23 13:09:41","新北市永和區竹林路150號","121.520116666667","25.0108383333333","6500400","永和區"
"234066","AAC-212","2018/01/23 13:09:51","新北市永和區永和路一段63號","121.513113333333","25.006975","6500400","永和區"
"234001","AAC-295","2018/01/23 13:09:36","新北市永和區永和路二段5號","121.51443","25.0100166666667","6500400","永和區"
"244002","248-BX","2018/01/23 13:09:45","新北市林口區頭湖74-5號","121.365756666667","25.0882316666667","6501700","林口區"
"231002","002-UM","2018/01/23 13:09:42","新北市新店區安華路28-1號","121.519723333333","24.9607533333333","6500600","新店區"
"231028","046-UY","2018/01/23 13:09:36","新北市新店區安華路28-1號","121.519556666667","24.9608683333333","6500600","新店區"
"231030","047-UY","2018/01/23 13:09:38","新北市新店區安華路28-1號","121.519271666667","24.96091","6500600","新店區"
"231029","106-UY","2018/01/23 13:09:50","新北市新店區安華路28-1號","121.519741666667","24.96089","6500600","新店區"
"231018","107-UY","2018/01/23 13:09:49","新北市新店區安華路28-1號","121.519343333333","24.96123","6500600","新店區"
"231012","108-UY","2018/01/23 13:09:43","新北市新店區安華路28-1號","121.519488333333","24.9612683333333","6500600","新店區"
"231020","188-VK","2018/01/23 13:09:51","新北市新店區安華路28-1號","121.51936","24.96138","6500600","新店區"
"231034","268-BY","2018/01/23 13:09:45","新北市新店區安華路28-1號","121.519338333333","24.9605983333333","6500600","新店區"
"231010","278-BY","2018/01/23 13:08:45","新北市新店區安華路28-1號","121.51954","24.9611383333333","6500600","新店區"
"231023","AAD-862","2018/01/23 13:09:42","新北市新店區安華路28-1號","121.519663333333","24.9612633333333","6500600","新店區"
"231038","4715-K9","2018/01/23 13:09:46","新北市新店區安華路28-1號","121.519328333333","24.960635","6500600","新店區"
"231036","512-UM","2018/01/23 13:09:33","新北市新店區安華路28-1號","121.519313333333","24.9612633333333","6500600","新店區"
"231003","616-UM","2018/01/23 13:09:39","新北市新店區安華路28-1號","121.51944","24.9605916666667","6500600","新店區"
"231001","619-UM","2018/01/23 13:09:53","新北市新店區安華路28-1號","121.519573333333","24.9607316666667","6500600","新店區"
"231013","719-UM","2018/01/23 13:09:33","新北市新店區安華路28-1號","121.519591666667","24.9612216666667","6500600","新店區"
"231033","720-UM","2018/01/23 13:09:51","新北市新店區安華路28-1號","121.519281666667","24.961175","6500600","新店區"
"231005","897-TW","2018/01/23 13:09:52","新北市新店區安華路28-1號","121.519583333333","24.9608116666667","6500600","新店區"
"231004","899-TW","2018/01/23 13:09:48","新北市新店區安華路28-1號","121.519316666667","24.9608566666667","6500600","新店區"
"235030","003-UY","2018/01/23 13:09:47","新北市中和區廣福路44號","121.504191666667","25.00211","6500300","中和區"
"235028","005-UY","2018/01/23 13:09:49","新北市中和區中正路275號","121.49546","24.9938583333333","6500300","中和區"
"235027","006-UY","2018/01/23 13:09:41","新北市中和區員山路36巷16-3號","121.485045","24.9913433333333","6500300","中和區"
"235035","031-BX","2018/01/23 13:09:35","新北市中和區板南路520巷1號","121.484131666667","25.008715","6500300","中和區"
"235029","098-UM","2018/01/23 13:09:54","新北市中和區中山路二段197號","121.499916666667","25.0025633333333","6500300","中和區"
"235022","151-BY","2018/01/23 13:09:47","新北市中和區圓通路367巷33弄5號","121.494506666667","24.9853933333333","6500300","中和區"
"235002","185-VK","2018/01/23 13:09:48","新北市中和區大智街21號","121.519995","24.99198","6500300","中和區"
"235031","255-BX","2018/01/23 13:09:40","新北市中和區中山路二段449巷1弄2號","121.483833333333","25.0042616666667","6500300","中和區"
"235036","301-VK","2018/01/23 13:09:48","新北市中和區員山路36巷13號","121.483946666667","24.9911016666667","6500300","中和區"
"235032","377-QA","2018/01/23 13:09:44","新北市中和區員山路36巷16-3號","121.484918333333","24.9913833333333","6500300","中和區"
"235033","4980-A6","2018/01/23 13:09:38","新北市中和區圓通路284號","121.491516666667","24.990615","6500300","中和區"
"235034","558-UM","2018/01/23 13:07:29","新北市中和區員山路36巷8-3號","121.483418333333","24.99172","6500300","中和區"
"235018","640-BX","2018/01/23 13:09:51","新北市土城區延壽路77巷4弄9號","121.469025","24.9929633333333","6500300","中和區"
"235026","800-TS","2018/01/23 13:09:46","新北市中和區橋和路88-12號","121.49017","25.0053833333333","6500300","中和區"
"235017","900-TW","2018/01/23 13:09:38","新北市中和區員山路36巷16-2號","121.485088333333","24.9918383333333","6500300","中和區"
"235015","157-BY","2018/01/23 13:09:39","新北市中和區員山路36巷13號","121.484136666667","24.9908416666667","6500300","中和區"
"235001","AAC-213","2018/01/23 13:09:40","新北市中和區錦和路350-1號","121.490593333333","24.9935816666667","6500300","中和區"
"220034","073-UY","2018/01/23 13:04:14","新北市板橋區華東街1-10號","121.44825","24.9950683333333","6500100","板橋區"
"228004","212-TW","2018/01/23 13:09:24","新北市貢寮區吉林里內寮街71號","121.891361666667","24.9726333333333","6502600","貢寮區"
"228005","828-UM","2018/01/23 13:09:47","新北市貢寮區仁理村仁和路49巷3號","121.92325","25.05435","6502600","貢寮區"
"208004","AAC-292","2018/01/23 13:09:42","新北市金山區中正路6號","121.636541666667","25.2224333333333","6502700","金山區"
"207002","749-BX","2018/01/23 13:09:32","新北市萬里區崁腳里崁腳路105-1號","121.64651","25.1574216666667","6502800","萬里區"
"207001","662-BX","2018/01/23 13:09:48","新北市萬里區萬里里獅頭路22-1號","121.693105","25.1782366666667","6502800","萬里區"
"252005","AAC-283","2018/01/23 13:09:39","新北市三芝區八賢里八連溪43-1號","121.513916666667","25.2360166666667","6502100","三芝區"
"236006","498-BY","2018/01/23 13:09:52","新北市土城區亞洲路9號","121.434405","24.9723966666667","6501300","土城區"
"221032","280-BY","2018/01/23 13:09:52","新北市汐止區大同路二段184巷11號","121.653495","25.0634933333333","6501100","汐止區"
