"lineid","car","time","location","longitude","latitude","cityid","cityname"
"234025","9371-KE","2018/01/23 14:49:44","新北市永和區水源街33巷3號","121.510798333333","25.004235","6500400","永和區"
"248017","225-UY","2018/01/23 14:25:53","新北市五股區外寮路6-1號","121.425151666667","25.0751516666667","6501500","五股區"
"231002","002-UM","2018/01/23 14:49:42","新北市新店區民權路63號","121.539188333333","24.98298","6500600","新店區"
"231025","0293-UT","2018/01/23 14:49:37","新北市新店區民族路161號","121.537661666667","24.9768","6500600","新店區"
"231028","046-UY","2018/01/23 14:49:36","新北市新店區安康路二段221號","121.508733333333","24.9587566666667","6500600","新店區"
"231030","047-UY","2018/01/23 14:49:38","新北市新店區安興路92號","121.515081666667","24.9761566666667","6500600","新店區"
"231029","106-UY","2018/01/23 14:49:50","新北市新店區錦秀路11巷96弄2號","121.48009","24.9422166666667","6500600","新店區"
"231018","107-UY","2018/01/23 14:49:49","新北市新店區中央六街5號","121.53036","24.9744783333333","6500600","新店區"
"231012","108-UY","2018/01/23 14:49:43","新北市新店區寶橋路69-1號","121.545463333333","24.9750516666667","6500600","新店區"
"231020","188-VK","2018/01/23 14:49:51","新北市新店區永福路30號","121.54918","24.9287633333333","6500600","新店區"
"231015","KEA-2219","2018/01/23 14:47:18","新北市新店區北宜路三段221號","121.592398333333","24.9533","6500600","新店區"
"231026","256-BX","2018/01/23 14:49:44","新北市新店區安華路28-1號","121.519725","24.9613333333333","6500600","新店區"
"231034","268-BY","2018/01/23 14:49:44","新北市新店區安康路二段454號","121.494488333333","24.954335","6500600","新店區"
"231023","AAD-862","2018/01/23 14:49:42","新北市新店區檳榔路150號","121.544106666667","24.961535","6500600","新店區"
"231027","3712-VJ","2018/01/23 14:49:51","新北市新店區中央三街127號","121.524075","24.9765833333333","6500600","新店區"
"231024","4716-K9","2018/01/23 14:49:47","新北市新店區新生街2號","121.540305","24.9659233333333","6500600","新店區"
"231036","512-UM","2018/01/23 14:49:52","新北市新店區安祥路104巷6弄36號","121.483105","24.962975","6500600","新店區"
"231035","515-UM","2018/01/23 14:49:49","新北市新店區安利街26號","121.51921","24.9745816666667","6500600","新店區"
"231003","616-UM","2018/01/23 14:49:43","新北市新店區中興路二段29號","121.546068333333","24.9695666666667","6500600","新店區"
"231006","617-UM","2018/01/23 14:49:56","新北市新店區北宜路一段109巷2號","121.539855","24.9547783333333","6500600","新店區"
"231001","619-UM","2018/01/23 14:49:53","新北市新店區三民路86號","121.534418333333","24.9726783333333","6500600","新店區"
"231039","718-UY","2018/01/23 14:49:49","新北市新店區安華路28-1號","121.519485","24.96125","6500600","新店區"
"231005","897-TW","2018/01/23 14:49:52","新北市新店區復興路2號","121.532321666667","24.9882733333333","6500600","新店區"
"231004","899-TW","2018/01/23 14:49:47","新北市新店區建國路133號","121.539293333333","24.9781066666667","6500600","新店區"
"231037","AKT-0513","2018/01/23 14:49:39","新北市新店區安興路56號","121.516525","24.97497","6500600","新店區"
"235030","003-UY","2018/01/23 14:49:57","新北市中和區南工路8號","121.50548","25.0003733333333","6500300","中和區"
"235027","006-UY","2018/01/23 14:49:41","新北市中和區連城路263巷27弄4號","121.49279","24.9945133333333","6500300","中和區"
"235020","096-UM","2018/01/23 14:49:39","新北市中和區民富街28號","121.476861666667","25.0064333333333","6500300","中和區"
"235003","097-UM","2018/01/23 14:49:57","新北市中和區安樂路249號","121.514101666667","24.9996783333333","6500300","中和區"
"235029","098-UM","2018/01/23 14:49:54","新北市中和區永和路90巷4弄6號","121.497681666667","25.005975","6500300","中和區"
"235004","150-BY","2018/01/23 14:49:40","新北市中和區安平路59號","121.509603333333","24.9949333333333","6500300","中和區"
"235022","151-BY","2018/01/23 14:49:46","新北市中和區員山路150巷2弄33號","121.481723333333","24.9976316666667","6500300","中和區"
"235019","183-VK","2018/01/23 14:49:33","新北市中和區民生街85巷3弄1號","121.469118333333","25.0043716666667","6500300","中和區"
"235002","185-VK","2018/01/23 14:49:48","新北市中和區更生街13號","121.521871666667","24.9962016666667","6500300","中和區"
"235013","186-VK","2018/01/23 14:49:43","新北市中和區景平路522號","121.503135","24.9941366666667","6500300","中和區"
"235031","255-BX","2018/01/23 14:49:40","新北市中和區員山路148巷23弄28號","121.482246666667","24.9976983333333","6500300","中和區"
"235008","293-VK","2018/01/23 14:49:42","新北市中和區南山路188號","121.505833333333","24.9906683333333","6500300","中和區"
"235036","301-VK","2018/01/23 14:49:48","新北市中和區連城路160-1號","121.494193333333","24.9980316666667","6500300","中和區"
"235007","352-BY","2018/01/23 14:49:55","新北市中和區景平路177號","121.511875","24.992565","6500300","中和區"
"235032","377-QA","2018/01/23 14:49:44","新北市中和區福祥路85巷2弄2號","121.49882","25.00576","6500300","中和區"
"235014","4979-A6","2018/01/23 14:49:53","新北市中和區景平路241巷84弄54號","121.506135","24.9924433333333","6500300","中和區"
"235033","4980-A6","2018/01/23 14:49:38","新北市中和區圓通路227號","121.496413333333","24.9943266666667","6500300","中和區"
"235034","558-UM","2018/01/23 14:40:09","新北市中和區景平路634-4號","121.499238333333","24.99913","6500300","中和區"
"235018","640-BX","2018/01/23 14:49:51","新北市中和區莒光路213-3號","121.468451666667","24.99423","6500300","中和區"
"235024","647-TV","2018/01/23 14:49:37","新北市中和區新生街16巷19號","121.482408333333","25.0043316666667","6500300","中和區"
"235011","732-UM","2018/01/23 14:49:49","新北市中和區和平街72號","121.507965","24.9909966666667","6500300","中和區"
"235010","733-UM","2018/01/23 14:49:39","新北市中和區仁愛街46號","121.511043333333","24.9881383333333","6500300","中和區"
"235021","801-TS","2018/01/23 14:49:53","新北市中和區員山路150-2號","121.481383333333","24.9973416666667","6500300","中和區"
"235005","802-TS","2018/01/23 14:49:56","新北市中和區中和路296號","121.508648333333","24.99961","6500300","中和區"
"235016","805-TS","2018/01/23 14:49:55","新北市中和區華新街144巷7弄1號","121.507593333333","24.9830333333333","6500300","中和區"
"235012","896-TW","2018/01/23 14:49:47","新北市中和區忠孝街74號","121.512028333333","24.984155","6500300","中和區"
"235017","900-TW","2018/01/23 14:49:38","新北市中和區國光街189巷12弄4號","121.467366666667","25.0015083333333","6500300","中和區"
"235015","157-BY","2018/01/23 14:49:39","新北市中和區中興街180巷51弄2號","121.498413333333","24.9890633333333","6500300","中和區"
"235001","AAC-213","2018/01/23 14:49:40","新北市中和區自立路193號","121.524386666667","24.991315","6500300","中和區"
"235023","AAC-215","2018/01/23 14:49:54","新北市中和區圓通路367巷2號","121.491293333333","24.9894066666667","6500300","中和區"
"220013","072-UY","2018/01/23 14:49:54","新北市板橋區民族路270巷37號","121.469305","25.0060716666667","6500100","板橋區"
"220034","073-UY","2018/01/23 14:49:44","新北市板橋區南雅西路二段10號","121.453338333333","25.0092116666667","6500100","板橋區"
"220105","075-UY","2018/01/23 14:49:47","新北市板橋區民治街57巷26號","121.480131666667","25.0338833333333","6500100","板橋區"
"220017","AAD-861","2018/01/23 14:49:54","新北市板橋區縣民大道一段64巷13號","121.45575","25.0034883333333","6500100","板橋區"
"220045","120-SR","2018/01/23 14:49:36","新北市板橋區莒光路15巷23號","121.470315","25.0255883333333","6500100","板橋區"
"247007","341-TH","2018/01/23 14:49:43","新北市蘆洲區中山一路165號","121.475241666667","25.0816016666667","6501400","蘆洲區"
"247001","337-TH","2018/01/23 14:49:22","新北市蘆洲區長榮路319號","121.45925","25.0864983333333","6501400","蘆洲區"
"247004","336-TH","2018/01/23 14:49:31","新北市五股區中興路三段163號","121.449248333333","25.0806466666667","6501400","蘆洲區"
"247015","057-VK","2018/01/23 14:49:39","新北市蘆洲區和平路166-1號","121.466465","25.0812233333333","6501400","蘆洲區"
"247013","007-UY","2018/01/23 14:49:41","新北市蘆洲區成功路185號","121.471866666667","25.08292","6501400","蘆洲區"
"247023","002-UY","2018/01/23 14:49:49","新北市蘆洲區中山二路300巷1號","121.468446666667","25.0765883333333","6501400","蘆洲區"
"228004","212-TW","2018/01/23 14:49:46","新北市貢寮區福隆里裕隆街5號","121.946138333333","25.0159716666667","6502600","貢寮區"
"228005","828-UM","2018/01/23 14:49:46","新北市貢寮區美豐里文秀坑1-3號","121.905633333333","25.0547766666667","6502600","貢寮區"
"208004","AAC-292","2018/01/23 14:49:42","新北市金山區兩湖里倒照湖21-1號","121.59427","25.2390066666667","6502700","金山區"
"207002","749-BX","2018/01/23 14:49:52","新北市萬里區崁腳里崁腳路73號","121.647566666667","25.1596066666667","6502800","萬里區"
"207001","662-BX","2018/01/23 14:49:47","新北市萬里區雙興里二坪路9號","121.646066666667","25.1748783333333","6502800","萬里區"
"252005","AAC-283","2018/01/23 14:49:39","新北市三芝區福德里埔尾9-66號","121.502523333333","25.242875","6502100","三芝區"
"236065","105-UM","2018/01/23 14:49:52","新北市土城區金城路二段231號","121.45556","24.9824033333333","6501300","土城區"
"236041","107-UM","2018/01/23 14:49:55","新北市土城區裕民路136巷13號","121.451235","24.985725","6501300","土城區"
"236029","253-BX","2018/01/23 14:49:38","新北市土城區忠義路26巷10號","121.4399","24.9698766666667","6501300","土城區"
"236025","269-VK","2018/01/23 14:49:40","新北市土城區光明街26-1號","121.442133333333","24.973875","6501300","土城區"
"236013","270-VK","2018/01/23 14:49:51","新北市土城區金城路二段354巷4號","121.46081","24.9845533333333","6501300","土城區"
"236034","271-VK","2018/01/23 14:49:51","新北市土城區明德路一段195巷3弄1號","121.464181666667","24.9784916666667","6501300","土城區"
"236017","401-BY","2018/01/23 14:49:44","新北市土城區延吉街206號","121.467613333333","24.98512","6501300","土城區"
"236057","912-UM","2018/01/23 14:49:36","新北市土城區中央路三段99-6號","121.436741666667","24.96707","6501300","土城區"
"236045","913-UM","2018/01/23 14:49:54","新北市土城區青雲路51-1號","121.459506666667","24.9868116666667","6501300","土城區"
"236061","915-UM","2018/01/23 14:49:41","新北市土城區金城路三段207巷6弄5號","121.470388333333","24.9900583333333","6501300","土城區"
"236054","AAC-216","2018/01/23 14:49:50","新北市土城區裕民路187號","121.453516666667","24.9844033333333","6501300","土城區"
"220027","145-BY","2018/01/23 14:49:51","新北市板橋區中正路185-1號","121.456551666667","25.01676","6500100","板橋區"
"220028","200-UY","2018/01/23 14:49:43","新北市板橋區大觀路二段79巷2弄16號","121.44737","25.0015583333333","6500100","板橋區"
"220030","610-BX","2018/01/23 14:49:53","新北市板橋區存德街49號","121.431073333333","24.9914","6500100","板橋區"
"220050","245-BX","2018/01/23 14:49:40","新北市板橋區縣民大道三段93巷24號","121.47509","25.0223666666667","6500100","板橋區"
"220047","257-TC","2018/01/23 14:49:35","新北市板橋區英士路199號","121.458651666667","25.023455","6500100","板橋區"
"220020","277-BY","2018/01/23 14:49:40","新北市板橋區金門街151巷25號","121.434018333333","24.990205","6500100","板橋區"
"220012","282-UM","2018/01/23 14:49:46","新北市板橋區實踐路5-1號","121.463463333333","25.00794","6500100","板橋區"
"220019","283-VK","2018/01/23 14:49:56","新北市板橋區五權街32巷11號","121.464486666667","24.9929933333333","6500100","板橋區"
"220043","285-UM","2018/01/23 14:49:38","新北市板橋區長江路一段101號","121.459446666667","25.0296416666667","6500100","板橋區"
"220001","285-VK","2018/01/23 14:49:53","新北市板橋區中山路二段60巷1弄22號","121.475081666667","25.0156566666667","6500100","板橋區"
"220031","286-VK","2018/01/23 14:49:47","新北市板橋區僑中二街8巷18號","121.446375","25.0113316666667","6500100","板橋區"
"220029","287-VK","2018/01/23 14:49:39","新北市板橋區大觀路一段28巷75號","121.450095","25.0111933333333","6500100","板橋區"
"220039","288-VK","2018/01/23 14:49:35","新北市板橋區龍泉街133號","121.457676666667","25.0237966666667","6500100","板橋區"
"220009","293-UM","2018/01/23 14:49:38","新北市板橋區觀光街1巷4號","121.471953333333","25.01541","6500100","板橋區"
"220010","295-UM","2018/01/23 14:49:38","新北市板橋區光復街33巷15號","121.481988333333","25.0189883333333","6500100","板橋區"
"220032","296-UM","2018/01/23 14:49:51","新北市板橋區滿平街13號","121.42656","24.989985","6500100","板橋區"
"220023","303-R5","2018/01/23 14:49:49","新北市板橋區金華街10巷4號","121.455895","25.0200683333333","6500100","板橋區"
"220052","305-R5","2018/01/23 14:49:45","新北市板橋區陽明街29巷18號","121.464473333333","25.0222083333333","6500100","板橋區"
"220041","307-R5","2018/01/23 14:49:54","新北市板橋區四維路259巷55號","121.461346666667","25.027025","6500100","板橋區"
"220003","461-BY","2018/01/23 14:49:57","新北市板橋區仁愛路62巷24弄1號","121.460096666667","24.997855","6500100","板橋區"
"220038","487-VK","2018/01/23 14:49:46","新北市板橋區龍泉街98-4號","121.456655","25.024975","6500100","板橋區"
"220037","491-VK","2018/01/23 14:49:40","新北市板橋區文聖街42號","121.476463333333","25.0313266666667","6500100","板橋區"
"220040","637-BX","2018/01/23 14:49:35","新北市板橋區民治街86號","121.479333333333","25.0320633333333","6500100","板橋區"
"220005","686-BX","2018/01/23 14:49:54","新北市板橋區廣和街71號","121.462635","24.992735","6500100","板橋區"
"220025","687-BX","2018/01/23 14:49:49","新北市板橋區僑中一街122號","121.445938333333","25.0119516666667","6500100","板橋區"
"220042","689-BX","2018/01/23 14:49:56","新北市板橋區長江路二段8號","121.464751666667","25.0313083333333","6500100","板橋區"
"220002","741-BX","2018/01/23 14:49:50","新北市板橋區實踐路93巷86號","121.467065","25.0045833333333","6500100","板橋區"
"220014","829-TW","2018/01/23 14:49:53","新北市板橋區民生路一段23號","121.47486","25.0114766666667","6500100","板橋區"
"220051","830-TW","2018/01/23 14:49:40","新北市板橋區文化路二段410巷6號","121.474046666667","25.0314183333333","6500100","板橋區"
"220011","833-TW","2018/01/23 14:49:41","新北市板橋區林森街3巷1弄6號","121.482665","25.0236266666667","6500100","板橋區"
"220022","895-R6","2018/01/23 14:49:49","新北市板橋區府後街1巷7號","121.459231666667","25.0108616666667","6500100","板橋區"
"220021","985-R7","2018/01/23 14:49:51","新北市板橋區南雅東路89號","121.453121666667","25.00862","6500100","板橋區"
"220046","AAC-210","2018/01/23 14:49:40","新北市板橋區文化路一段285巷1弄4號","121.464178333333","25.01871","6500100","板橋區"
"220018","AAC-253","2018/01/23 14:49:52","新北市板橋區民族路105號","121.46676","25.00825","6500100","板橋區"
