"lineid","car","time","location","longitude","latitude","cityid","cityname"
"231018","107-UY","2018/01/23 16:19:09","新北市新店區中正路694巷15號","121.53537","24.9908566666667","6500600","新店區"
"231046","278-BY","2018/01/23 16:19:25","新北市新店區灣潭路3-2號","121.538263333333","24.9507966666667","6500600","新店區"
"231038","4715-K9","2018/01/23 16:19:25","新北市新店區薏仁坑路自強巷6號","121.496455","24.958435","6500600","新店區"
"241011","013-R5","2018/01/23 16:19:16","新北市三重區龍濱路285號","121.50113","25.0733616666667","6500200","三重區"
"241028","022-UY","2018/01/23 16:19:11","新北市三重區正義南路181巷1號","121.499026666667","25.057135","6500200","三重區"
"241008","059-VK","2018/01/23 16:19:14","新北市三重區力行路二段136巷45弄12號","121.479113333333","25.075425","6500200","三重區"
"241031","061-VK","2018/01/23 16:19:16","新北市三重區重新路四段146號","121.486526666667","25.056135","6500200","三重區"
"241015","062-VK","2018/01/23 16:19:11","新北市三重區福德北路77號","121.501946666667","25.0658333333333","6500200","三重區"
"241017","063-VK","2018/01/23 16:19:14","新北市三重區大同北路91號","121.4948","25.0635983333333","6500200","三重區"
"241024","065-VK","2018/01/23 16:19:26","新北市三重區中正北路262號","121.481205","25.0683166666667","6500200","三重區"
"241002","090-VK","2018/01/23 16:19:13","新北市三重區仁義街47號","121.49941","25.0775883333333","6500200","三重區"
"241003","091-VK","2018/01/23 16:19:19","新北市三重區五華街57巷28號","121.493753333333","25.0832233333333","6500200","三重區"
"241020","156-TC","2018/01/23 16:19:24","新北市三重區後竹圍街236號","121.484801666667","25.0713933333333","6500200","三重區"
"241005","262-UM","2018/01/23 16:19:20","新北市三重區溪尾街305號","121.487541666667","25.083735","6500200","三重區"
"241009","265-UM","2018/01/23 16:19:27","新北市三重區溪尾街196巷2號","121.487835","25.0808","6500200","三重區"
"241016","266-UM","2018/01/23 16:19:27","新北市三重區大仁街86號","121.492816666667","25.0653933333333","6500200","三重區"
"241022","267-UM","2018/01/23 16:19:08","新北市三重區新北大道一段7號","121.489728333333","25.0616716666667","6500200","三重區"
"241018","268-UM","2018/01/23 16:19:18","新北市三重區重陽路三段192-4號","121.490348333333","25.0684116666667","6500200","三重區"
"241013","270-UM","2018/01/23 16:19:25","新北市三重區三和路三段83巷64號","121.496823333333","25.072845","6500200","三重區"
"241025","271-UM","2018/01/23 16:19:16","新北市三重區中正北路560巷100弄2號","121.472398333333","25.0682166666667","6500200","三重區"
"241007","398-BY","2018/01/23 16:19:17","新北市三重區三和路四段163巷83號","121.486255","25.0794633333333","6500200","三重區"
"241004","475-VK","2018/01/23 16:19:22","新北市三重區五華街74號","121.49348","25.081955","6500200","三重區"
"241030","480-VK","2018/01/23 16:19:26","新北市三重區重新路四段121號","121.48472","25.05244","6500200","三重區"
"241014","543-UM","2018/01/23 16:19:20","新北市三重區河邊北街100巷5號","121.503641666667","25.070385","6500200","三重區"
"241023","545-UM","2018/01/23 16:19:18","新北市三重區中正北路145巷4弄12號","121.482891666667","25.06793","6500200","三重區"
"241001","547-UM","2018/01/23 16:19:20","新北市三重區自強路四段81號","121.49099","25.07925","6500200","三重區"
"241033","557-UM","2018/01/23 16:19:15","新北市三重區五谷王南街11巷17弄1號","121.472666666667","25.0445616666667","6500200","三重區"
"241006","AAD-863","2018/01/23 16:19:15","新北市三重區永福街46巷41弄43號","121.481353333333","25.07714","6500200","三重區"
"241026","887-TS","2018/01/23 16:19:12","新北市三重區正義南路50號","121.498278333333","25.0607966666667","6500200","三重區"
"241012","941-UM","2018/01/23 16:19:14","新北市三重區河邊北街313號","121.502455","25.0748616666667","6500200","三重區"
"241029","942-UM","2018/01/23 16:19:17","新北市三重區重安街105號","121.494263333333","25.05524","6500200","三重區"
"235026","800-TS","2018/01/23 16:19:24","新北市中和區建八路195號","121.490373333333","24.99942","6500300","中和區"
"224006","676-BX","2018/01/23 16:19:15","新北市瑞芳區三爪子坑路64-35號","121.809018333333","25.1057683333333","6501200","瑞芳區"
"224007","273-VK","2018/01/23 16:19:23","新北市瑞芳區大埔路276號","121.759923333333","25.1025766666667","6501200","瑞芳區"
"224005","271-BY","2018/01/23 16:19:15","新北市瑞芳區明燈路二段66號","121.809435","25.10744","6501200","瑞芳區"
"227009","642-TC","2018/01/23 16:19:09","新北市雙溪區三港里雙澳路80號","121.883798333333","25.0538733333333","6502500","雙溪區"
"227003","400-TW","2018/01/23 16:19:24","新北市雙溪區上林里內平林80號","121.828278333333","25.027935","6502500","雙溪區"
"251013","179-VK","2018/01/23 16:19:28","新北市淡水區大溪5號","121.492578333333","25.1914933333333","6501000","淡水區"
"251008","181-VK","2018/01/23 16:17:13","新北市淡水區中正東路36-1號","121.448811666667","25.1657583333333","6501000","淡水區"
"236075","166-UM","2018/01/23 16:14:27","新北市土城區城林路6巷80號","121.43854","24.9797816666667","6501300","土城區"
