"lineid","car","time","location","longitude","latitude","cityid","cityname"
"249005","172-UM","2018/01/23 16:59:30","新北市八里區渡船頭3-15號","121.433596666667","25.1536433333333","6502300","八里區"
"249001","173-UM","2018/01/23 16:59:23","新北市八里區商港路48號","121.393723333333","25.1442266666667","6502300","八里區"
"249004","303-UY","2018/01/23 16:59:39","新北市八里區挖子尾街30號","121.415728333333","25.1653433333333","6502300","八里區"
"249002","305-UY","2018/01/23 16:59:13","新北市八里區牛寮埔22號","121.43254","25.142525","6502300","八里區"
"249003","593-UM","2018/01/23 16:59:20","新北市八里區中山路二段301號","121.40107","25.1481433333333","6502300","八里區"
"244007","080-UY","2018/01/23 16:59:38","新北市林口區中湖43-5號","121.381766666667","25.092395","6501700","林口區"
"244023","483-VK","2018/01/23 16:59:14","新北市林口區粉寮69號","121.405106666667","25.0908166666667","6501700","林口區"
"244021","657-BX","2018/01/23 16:59:33","新北市林口區粉寮69號","121.404808333333","25.090865","6501700","林口區"
"231046","278-BY","2018/01/23 16:59:25","新北市新店區永業路81巷60號","121.529268333333","24.9477316666667","6500600","新店區"
"241011","013-R5","2018/01/23 16:59:37","新北市三重區公園街13號","121.499418333333","25.0729266666667","6500200","三重區"
"241028","022-UY","2018/01/23 16:59:31","新北市三重區中正南路46號","121.493938333333","25.06","6500200","三重區"
"241008","059-VK","2018/01/23 16:59:33","新北市三重區永福街179-2號","121.478848333333","25.0750766666667","6500200","三重區"
"241031","061-VK","2018/01/23 16:59:36","新北市三重區重新路三段115巷12號","121.49045","25.0603633333333","6500200","三重區"
"241015","062-VK","2018/01/23 16:59:31","新北市三重區三和路二段2號","121.501513333333","25.0664333333333","6500200","三重區"
"241017","063-VK","2018/01/23 16:59:34","新北市三重區大仁街3巷7號","121.491881666667","25.0637433333333","6500200","三重區"
"241024","065-VK","2018/01/23 16:59:26","新北市三重區大勇街82巷26弄29號","121.478438333333","25.072025","6500200","三重區"
"241002","090-VK","2018/01/23 16:59:33","新北市三重區仁義街126號","121.497445","25.0804533333333","6500200","三重區"
"241003","091-VK","2018/01/23 16:59:19","新北市三重區集賢路87-1號","121.493656666667","25.0868633333333","6500200","三重區"
"241020","156-TC","2018/01/23 16:59:30","新北市三重區自強路三段72號","121.486781666667","25.0733366666667","6500200","三重區"
"241005","262-UM","2018/01/23 16:59:20","新北市三重區碧華街63號","121.484813333333","25.0816","6500200","三重區"
"241009","265-UM","2018/01/23 16:59:27","新北市三重區仁愛街600巷18號","121.484426666667","25.080445","6500200","三重區"
"241016","266-UM","2018/01/23 16:59:27","新北市三重區大同北路111號","121.49418","25.064225","6500200","三重區"
"241022","267-UM","2018/01/23 16:59:28","新北市三重區貴陽街20號","121.484196666667","25.0622","6500200","三重區"
"241018","268-UM","2018/01/23 16:59:38","新北市三重區六張街126巷2弄22號","121.492508333333","25.0696","6500200","三重區"
"241032","269-UM","2018/01/23 16:59:37","新北市三重區新北大道一段57巷11號","121.485415","25.06083","6500200","三重區"
"241013","270-UM","2018/01/23 16:59:25","新北市三重區公園街32號","121.498396666667","25.0742733333333","6500200","三重區"
"241025","271-UM","2018/01/23 16:59:36","新北市三重區中正北路508巷9號","121.472698333333","25.0711333333333","6500200","三重區"
"241007","398-BY","2018/01/23 16:59:37","新北市三重區三和路四段145巷197號","121.488473333333","25.07929","6500200","三重區"
"241004","475-VK","2018/01/23 16:59:42","新北市三重區五華街98巷12號","121.491458333333","25.081575","6500200","三重區"
"241019","478-VK","2018/01/23 16:59:32","新北市三重區自強路二段74巷19號","121.487966666667","25.0699016666667","6500200","三重區"
"241030","480-VK","2018/01/23 16:59:26","新北市三重區昌隆街64號","121.491136666667","25.0510816666667","6500200","三重區"
"241014","543-UM","2018/01/23 16:59:20","新北市三重區三和路二段173巷145號","121.501075","25.0707816666667","6500200","三重區"
"241023","545-UM","2018/01/23 16:59:38","新北市三重區中華路43號","121.483588333333","25.0618283333333","6500200","三重區"
"241001","547-UM","2018/01/23 16:59:20","新北市三重區仁愛街172巷1號","121.49392","25.076645","6500200","三重區"
"241033","557-UM","2018/01/23 16:59:35","新北市三重區中興北街271號","121.46903","25.06061","6500200","三重區"
"241006","AAD-863","2018/01/23 16:59:35","新北市三重區車路頭街117巷8號","121.484666666667","25.075415","6500200","三重區"
"241026","887-TS","2018/01/23 16:59:32","新北市三重區文化南路42號","121.500403333333","25.0601666666667","6500200","三重區"
"241012","941-UM","2018/01/23 16:59:34","新北市三重區仁和街78號","121.499131666667","25.074505","6500200","三重區"
"241029","942-UM","2018/01/23 16:59:37","新北市三重區重安街139號","121.495368333333","25.0546333333333","6500200","三重區"
"235062","800-TS","2018/01/23 16:38:33","新北市中和區員山路36巷16-3號","121.484698333333","24.99143","6500300","中和區"
"247022","893-R6","2018/01/23 16:59:29","新北市蘆洲區三民路128巷166-1號","121.468398333333","25.0925266666667","6501400","蘆洲區"
"247020","500-BY","2018/01/23 16:59:31","新北市蘆洲區民族路422巷82弄14號","121.473938333333","25.0939766666667","6501400","蘆洲區"
"247008","341-TH","2018/01/23 16:59:25","新北市蘆洲區中山一路197巷26號","121.47501","25.0799466666667","6501400","蘆洲區"
"247010","339-TH","2018/01/23 16:59:30","新北市蘆洲區三民路26巷53弄2號","121.478358333333","25.0831616666667","6501400","蘆洲區"
"247002","337-TH","2018/01/23 16:59:39","新北市蘆洲區永平街16號","121.459266666667","25.0906233333333","6501400","蘆洲區"
"247004","336-TH","2018/01/23 16:59:34","新北市蘆洲區長安街131巷2弄2號","121.4606","25.0812316666667","6501400","蘆洲區"
"247016","057-VK","2018/01/23 16:59:31","新北市蘆洲區正和街10號","121.470358333333","25.082855","6501400","蘆洲區"
"247006","056-VK","2018/01/23 16:59:38","新北市蘆洲區長安街111巷32弄2號","121.460431666667","25.0800633333333","6501400","蘆洲區"
"247014","007-UY","2018/01/23 16:59:21","新北市蘆洲區中山二路36巷33號","121.474025","25.083215","6501400","蘆洲區"
"247024","002-UY","2018/01/23 16:59:30","新北市蘆洲區長興路202號","121.460596666667","25.0873983333333","6501400","蘆洲區"
"247018","001-UY","2018/01/23 16:59:25","新北市蘆洲區民族路300號","121.477683333333","25.0899383333333","6501400","蘆洲區"
"228001","212-TW","2018/01/23 16:59:25","新北市貢寮區貢寮里朝陽街1-2號","121.912138333333","25.0212983333333","6502600","貢寮區"
"228002","663-BX","2018/01/23 16:59:32","新北市貢寮區貢寮里朝陽街1-2號","121.912191666667","25.021295","6502600","貢寮區"
"228003","828-UM","2018/01/23 16:59:28","新北市貢寮區福隆里興隆街24-1號","121.94445","25.0166333333333","6502600","貢寮區"
"224006","676-BX","2018/01/23 16:59:23","新北市瑞芳區大寮路356-1號","121.785046666667","25.1032833333333","6501200","瑞芳區"
"224009","285-BY","2018/01/23 16:59:38","新北市瑞芳區濱二路28號","121.838646666667","25.11371","6501200","瑞芳區"
"224008","275-VK","2018/01/23 16:59:22","新北市瑞芳區明燈路一段15號","121.823383333333","25.107405","6501200","瑞芳區"
"224007","273-VK","2018/01/23 16:59:23","新北市瑞芳區瑞竹路46號","121.763611666667","25.103345","6501200","瑞芳區"
"224005","271-BY","2018/01/23 16:59:40","新北市瑞芳區南雅路81號","121.887305","25.1210316666667","6501200","瑞芳區"
"227009","642-TC","2018/01/23 16:59:29","新北市雙溪區牡丹里聖南19號","121.857805","25.0527266666667","6502500","雙溪區"
"227003","400-TW","2018/01/23 16:59:24","新北市雙溪區長源里柑腳37號","121.803778333333","25.0135483333333","6502500","雙溪區"
"251005","010-UM","2018/01/23 16:59:36","新北市淡水區中正路二段31號","121.419201666667","25.1817016666667","6501000","淡水區"
"251013","179-VK","2018/01/23 16:59:28","新北市淡水區泉洲厝32號","121.489301666667","25.192505","6501000","淡水區"
"251014","180-VK","2018/01/23 16:59:27","新北市淡水區淡金路四段472巷22號","121.452853333333","25.2240266666667","6501000","淡水區"
"251008","181-VK","2018/01/23 16:59:37","新北市淡水區樹梅坑9號","121.472708333333","25.142705","6501000","淡水區"
"251015","182-VK","2018/01/23 16:59:24","新北市淡水區忠愛街14號","121.458065","25.1747016666667","6501000","淡水區"
"251010","413-VK","2018/01/23 16:59:31","新北市淡水區沙崙路172號","121.424193333333","25.18358","6501000","淡水區"
"251012","441-VK","2018/01/23 16:59:22","新北市淡水區沙崙路97-1號","121.421813333333","25.1817216666667","6501000","淡水區"
"251016","442-VK","2018/01/23 16:59:22","新北市淡水區瓦坑3號","121.477613333333","25.1806483333333","6501000","淡水區"
"251009","575-R6","2018/01/23 16:59:31","新北市淡水區中正路233-2號","121.435406666667","25.1733933333333","6501000","淡水區"
"251007","577-R6","2018/01/23 16:59:32","新北市淡水區真理街1-1號","121.438071666667","25.1729216666667","6501000","淡水區"
"251011","650-BX","2018/01/23 16:59:35","新北市淡水區中山路30號","121.444385","25.16977","6501000","淡水區"
"252002","178-VK","2018/01/23 16:59:25","新北市三芝區忠孝街171號","121.505411666667","25.2613383333333","6502100","三芝區"
"252001","292-VK","2018/01/23 16:59:23","新北市三芝區淡金路二段81號","121.503726666667","25.2607183333333","6502100","三芝區"
"242032","AAC-296","2018/01/23 16:59:34","新北市新莊區新泰路357巷3弄57號","121.44214","25.0395466666667","6500500","新莊區"
"242025","615-BX","2018/01/23 16:59:23","新北市新莊區三和路12-21號","121.442096666667","25.03876","6500500","新莊區"
"242023","613-BX","2018/01/23 16:43:55","新北市新莊區新泰路255巷83號","121.44228","25.0390233333333","6500500","新莊區"
"242027","612-BX","2018/01/23 16:59:25","新北市新莊區新泰路255巷83號","121.442053333333","25.03892","6500500","新莊區"
"242039","566-BX","2018/01/23 16:59:23","新北市新莊區三和路18-25號","121.44175","25.0389966666667","6500500","新莊區"
"242044","442-UM","2018/01/23 16:59:39","新北市新莊區三和路12-14號","121.442258333333","25.0372116666667","6500500","新莊區"
"242048","441-UM","2018/01/23 16:59:33","新北市新莊區三和路12-21號","121.442045","25.0384633333333","6500500","新莊區"
"242005","413-TV","2018/01/23 16:59:36","新北市新莊區新泰路357巷3弄57號","121.442093333333","25.0394133333333","6500500","新莊區"
"242042","400-BY","2018/01/23 16:59:19","新北市新莊區新泰路357巷3弄57號","121.442191666667","25.0394383333333","6500500","新莊區"
"242061","362-BY","2018/01/23 16:59:23","新北市新莊區三和路12-21號","121.442395","25.03811","6500500","新莊區"
"242037","133-UY","2018/01/23 16:59:28","新北市新莊區三和路18-23號","121.441831666667","25.03891","6500500","新莊區"
"242021","135-UY","2018/01/23 16:59:39","新北市新莊區三和路12-21號","121.441916666667","25.0388933333333","6500500","新莊區"
"242013","346-TH","2018/01/23 16:59:22","新北市新莊區三和路12-15號","121.441866666667","25.0373816666667","6500500","新莊區"
"242051","347-TH","2018/01/23 16:59:39","新北市新莊區三和路12-17號","121.44196","25.0375266666667","6500500","新莊區"
"242019","348-TH","2018/01/23 16:59:33","新北市新莊區新泰路255巷83號","121.44236","25.03911","6500500","新莊區"
"242011","351-TH","2018/01/23 16:59:26","新北市新莊區新泰路357巷3弄57號","121.442143333333","25.0395033333333","6500500","新莊區"
"238023","601-UM","2018/01/23 16:59:28","新北市樹林區育德街78號","121.388026666667","24.96834","6500700","樹林區"
"238018","571-TV","2018/01/23 16:59:33","新北市樹林區育德街78-1號","121.388013333333","24.9678366666667","6500700","樹林區"
"238024","5061-A6","2018/01/23 16:59:35","新北市樹林區育德街78-1號","121.388425","24.9680916666667","6500700","樹林區"
"238025","303-VK","2018/01/23 16:59:30","新北市樹林區育德街78-1號","121.38812","24.9682933333333","6500700","樹林區"
"238017","283-BY","2018/01/23 16:59:31","新北市樹林區八德街648號","121.396471666667","24.9690766666667","6500700","樹林區"
"238020","268-VK","2018/01/23 16:59:30","新北市樹林區育德街78-1號","121.387491666667","24.9681333333333","6500700","樹林區"
"239006","891-R6","2018/01/23 16:59:33","新北市鶯歌區二甲路12-2號","121.345578333333","24.9348066666667","6500800","鶯歌區"
"239005","526-UM","2018/01/23 16:59:39","新北市鶯歌區二甲路9-2號","121.346661666667","24.93729","6500800","鶯歌區"
"239003","360-BY","2018/01/23 16:59:42","新北市鶯歌區二甲路9-2號","121.346353333333","24.9366783333333","6500800","鶯歌區"
