"lineid","car","time","location","longitude","latitude","cityid","cityname"
"249005","172-UM","2018/01/23 17:09:30","新北市八里區華富山6-3號","121.419656666667","25.14273","6502300","八里區"
"249001","173-UM","2018/01/23 17:09:23","新北市八里區中華路二段203號","121.405428333333","25.14956","6502300","八里區"
"249004","303-UY","2018/01/23 17:09:19","新北市八里區忠孝路205號","121.421973333333","25.1608866666667","6502300","八里區"
"249002","305-UY","2018/01/23 17:09:33","新北市八里區龍米路二段147巷7號","121.44195","25.1505333333333","6502300","八里區"
"249003","593-UM","2018/01/23 17:09:40","新北市八里區中山路二段409號","121.39747","25.1464","6502300","八里區"
"244007","080-UY","2018/01/23 17:09:37","新北市林口區菁埔24-3號","121.377503333333","25.09701","6501700","林口區"
"244019","402-UM","2018/01/23 17:09:32","新北市林口區仁愛路二段150號","121.38205","25.0742883333333","6501700","林口區"
"244023","483-VK","2018/01/23 17:09:34","新北市林口區粉寮路一段43號","121.396631666667","25.0775216666667","6501700","林口區"
"244021","657-BX","2018/01/23 17:09:33","新北市林口區粉寮路31-2號","121.403861666667","25.0874566666667","6501700","林口區"
"231046","278-BY","2018/01/23 17:09:25","新北市新店區直潭路92號","121.530898333333","24.9375783333333","6500600","新店區"
"241011","013-R5","2018/01/23 17:09:36","新北市三重區龍濱路287號","121.500745","25.07359","6500200","三重區"
"241028","022-UY","2018/01/23 17:09:31","新北市三重區重新路三段108號","121.492336666667","25.0603516666667","6500200","三重區"
"241008","059-VK","2018/01/23 17:09:34","新北市三重區力行路二段138-1號","121.482285","25.075725","6500200","三重區"
"241015","062-VK","2018/01/23 17:09:31","新北市三重區長生街28號","121.499553333333","25.06647","6500200","三重區"
"241017","063-VK","2018/01/23 17:09:34","新北市三重區中正北路25巷2號","121.493303333333","25.0627766666667","6500200","三重區"
"241024","065-VK","2018/01/23 17:09:26","新北市三重區中正北路193巷13號","121.476818333333","25.070135","6500200","三重區"
"241002","090-VK","2018/01/23 17:09:33","新北市三重區五華街35巷22號","121.495071666667","25.0812483333333","6500200","三重區"
"241003","091-VK","2018/01/23 17:09:39","新北市三重區仁義街250號","121.493801666667","25.0859233333333","6500200","三重區"
"241020","156-TC","2018/01/23 17:09:30","新北市三重區自強路三段47號","121.48688","25.07301","6500200","三重區"
"241005","262-UM","2018/01/23 17:09:20","新北市三重區仁華街20號","121.483395","25.0817066666667","6500200","三重區"
"241009","265-UM","2018/01/23 17:09:27","新北市三重區三和路四段217號","121.481631666667","25.0797383333333","6500200","三重區"
"241016","266-UM","2018/01/23 17:09:27","新北市三重區中正北路25巷16號","121.493643333333","25.0630966666667","6500200","三重區"
"241022","267-UM","2018/01/23 17:09:35","新北市三重區重陽路二段24巷1號","121.486615","25.0628083333333","6500200","三重區"
"241018","268-UM","2018/01/23 17:09:38","新北市三重區六張街55號","121.493928333333","25.0702233333333","6500200","三重區"
"241032","269-UM","2018/01/23 17:09:40","新北市三重區三陽路2號","121.486233333333","25.05874","6500200","三重區"
"241013","270-UM","2018/01/23 17:09:25","新北市三重區仁福街34號","121.496913333333","25.0746266666667","6500200","三重區"
"241025","271-UM","2018/01/23 17:09:36","新北市三重區中正北路560巷98號","121.471545","25.0682033333333","6500200","三重區"
"241007","398-BY","2018/01/23 17:09:37","新北市三重區三和路四段163巷16號","121.484573333333","25.07906","6500200","三重區"
"241004","475-VK","2018/01/23 17:09:42","新北市三重區五華街98巷4號","121.492426666667","25.08218","6500200","三重區"
"241019","478-VK","2018/01/23 17:09:32","新北市三重區自強路二段74巷93號","121.487491666667","25.0694683333333","6500200","三重區"
"241030","480-VK","2018/01/23 17:09:29","新北市三重區集成路37號","121.489076666667","25.052585","6500200","三重區"
"241014","543-UM","2018/01/23 17:09:20","新北市三重區介壽路39巷168號","121.502108333333","25.070895","6500200","三重區"
"241023","545-UM","2018/01/23 17:09:38","新北市三重區忠孝路三段84巷1號","121.480266666667","25.064475","6500200","三重區"
"241001","547-UM","2018/01/23 17:09:40","新北市三重區五華街1巷2號","121.495605","25.0797383333333","6500200","三重區"
"241033","557-UM","2018/01/23 17:09:35","新北市三重區中興北街271號","121.469035","25.060605","6500200","三重區"
"241006","AAD-863","2018/01/23 17:09:35","新北市三重區三和路四段274巷16號","121.484866666667","25.0768366666667","6500200","三重區"
"241026","887-TS","2018/01/23 17:09:32","新北市三重區重新路二段1號","121.499675","25.0630183333333","6500200","三重區"
"241012","941-UM","2018/01/23 17:09:37","新北市三重區龍門路274巷35號","121.501133333333","25.0753833333333","6500200","三重區"
"241029","942-UM","2018/01/23 17:09:37","新北市三重區重安街70-4號","121.491336666667","25.0571166666667","6500200","三重區"
"247022","893-R6","2018/01/23 17:09:29","新北市蘆洲區民族路520號","121.469096666667","25.0900483333333","6501400","蘆洲區"
"247012","546-UM","2018/01/23 17:09:39","新北市蘆洲區信義路292巷7號","121.478076666667","25.0877466666667","6501400","蘆洲區"
"247020","500-BY","2018/01/23 17:09:31","新北市蘆洲區仁愛街62巷10號","121.471931666667","25.094185","6501400","蘆洲區"
"247008","341-TH","2018/01/23 17:09:25","新北市蘆洲區信義路30巷22號","121.474361666667","25.078625","6501400","蘆洲區"
"247010","339-TH","2018/01/23 17:09:30","新北市蘆洲區民族路20號","121.476021666667","25.0841633333333","6501400","蘆洲區"
"247002","337-TH","2018/01/23 17:09:39","新北市蘆洲區永樂街40號","121.458066666667","25.08846","6501400","蘆洲區"
"247004","336-TH","2018/01/23 17:09:34","新北市蘆洲區長安街150號","121.459986666667","25.08223","6501400","蘆洲區"
"247016","057-VK","2018/01/23 17:09:31","新北市蘆洲區正和街40巷11號","121.469013333333","25.08223","6501400","蘆洲區"
"247006","056-VK","2018/01/23 17:09:38","新北市蘆洲區長安街108巷20號","121.461841666667","25.0821633333333","6501400","蘆洲區"
"247014","007-UY","2018/01/23 17:09:21","新北市蘆洲區中央路37巷15-19號","121.47316","25.082495","6501400","蘆洲區"
"247024","002-UY","2018/01/23 17:09:30","新北市蘆洲區長興路35號","121.46342","25.0836216666667","6501400","蘆洲區"
"247018","001-UY","2018/01/23 17:09:25","新北市蘆洲區復興路156號","121.477376666667","25.08802","6501400","蘆洲區"
"228001","212-TW","2018/01/23 17:09:25","新北市貢寮區仁理村尖山腳街20號","121.924895","25.0468416666667","6502600","貢寮區"
"228002","663-BX","2018/01/23 17:09:32","新北市貢寮區龍崗里嵩陽街55號","121.90772","25.0165916666667","6502600","貢寮區"
"228003","828-UM","2018/01/23 17:09:28","新北市貢寮區福隆里東興街29號","121.94979","25.01816","6502600","貢寮區"
"224006","676-BX","2018/01/23 17:09:23","新北市瑞芳區大寮路116-1號","121.779835","25.0983066666667","6501200","瑞芳區"
"224009","285-BY","2018/01/23 17:09:38","新北市瑞芳區坑尾巷37-1號","121.844198333333","25.1117133333333","6501200","瑞芳區"
"224008","275-VK","2018/01/23 17:09:39","新北市瑞芳區柴寮路36號","121.82737","25.0867266666667","6501200","瑞芳區"
"224007","273-VK","2018/01/23 17:09:23","新北市瑞芳區粗坑口路66號","121.761321666667","25.0989833333333","6501200","瑞芳區"
"224005","271-BY","2018/01/23 17:09:35","新北市瑞芳區鼻頭路127號","121.916423333333","25.1220533333333","6501200","瑞芳區"
"227009","642-TC","2018/01/23 17:09:29","新北市雙溪區三貂里子崙坑1-6號","121.849911666667","25.0574566666667","6502500","雙溪區"
"227003","400-TW","2018/01/23 17:09:24","新北市雙溪區外柑里田寮1號","121.806626666667","25.017","6502500","雙溪區"
"251005","010-UM","2018/01/23 17:09:36","新北市淡水區水源街一段34巷1號","121.443173333333","25.17224","6501000","淡水區"
"251013","179-VK","2018/01/23 17:09:28","新北市淡水區大埤頭6號","121.482726666667","25.1974766666667","6501000","淡水區"
"251014","180-VK","2018/01/23 17:09:27","新北市淡水區八里堆7號","121.459988333333","25.2249316666667","6501000","淡水區"
"251008","181-VK","2018/01/23 17:09:37","新北市淡水區樹梅坑15號","121.47115","25.1435566666667","6501000","淡水區"
"251015","182-VK","2018/01/23 17:09:24","新北市淡水區樹林口42-3號","121.470351666667","25.1687083333333","6501000","淡水區"
"251010","413-VK","2018/01/23 17:09:31","新北市淡水區新市五路二段75號","121.431266666667","25.1982666666667","6501000","淡水區"
"251012","441-VK","2018/01/23 17:09:22","新北市淡水區中山北路一段156號","121.4441","25.177945","6501000","淡水區"
"251016","442-VK","2018/01/23 17:09:22","新北市淡水區社厝坑1-3號","121.476648333333","25.1888466666667","6501000","淡水區"
"251006","561-UM","2018/01/23 17:09:25","新北市淡水區新生街78號","121.439101666667","25.1750566666667","6501000","淡水區"
"251009","575-R6","2018/01/23 17:09:31","新北市淡水區三民街20號","121.43903","25.17175","6501000","淡水區"
"251007","577-R6","2018/01/23 17:09:32","新北市淡水區中正東路二段131號","121.459598333333","25.1485116666667","6501000","淡水區"
"251011","650-BX","2018/01/23 17:09:35","新北市淡水區坪頂路49號","121.457826666667","25.162605","6501000","淡水區"
"252002","178-VK","2018/01/23 17:09:25","新北市三芝區忠孝街1-19號","121.505833333333","25.2533283333333","6502100","三芝區"
"252001","292-VK","2018/01/23 17:09:23","新北市三芝區淡金路一段4-5號","121.497973333333","25.2599666666667","6502100","三芝區"
"242032","AAC-296","2018/01/23 17:09:34","新北市新莊區新泰路357巷3弄57號","121.442166666667","25.0394466666667","6500500","新莊區"
"242025","615-BX","2018/01/23 17:09:23","新北市新莊區新泰路255巷83號","121.442088333333","25.0388466666667","6500500","新莊區"
"242023","613-BX","2018/01/23 16:43:55","新北市新莊區新泰路255巷83號","121.44228","25.0390233333333","6500500","新莊區"
"242027","612-BX","2018/01/23 17:09:25","新北市新莊區新泰路357巷3弄57號","121.442041666667","25.0391583333333","6500500","新莊區"
"242039","566-BX","2018/01/23 17:09:23","新北市新莊區新泰路357巷3弄55號","121.442376666667","25.039845","6500500","新莊區"
"242044","442-UM","2018/01/23 17:09:39","新北市新莊區福營路250號","121.42613","25.0291466666667","6500500","新莊區"
"242048","441-UM","2018/01/23 17:09:33","新北市新莊區中正路654號","121.421431666667","25.0285616666667","6500500","新莊區"
"242054","440-UM","2018/01/23 17:09:35","新北市新莊區新泰路357巷3弄1號","121.44229","25.0413283333333","6500500","新莊區"
"242034","415-TV","2018/01/23 17:04:07","新北市新莊區新泰路357巷3弄57號","121.442023333333","25.0395116666667","6500500","新莊區"
"242005","413-TV","2018/01/23 17:09:36","新北市新莊區新泰路357巷3弄57號","121.44208","25.039495","6500500","新莊區"
"242042","400-BY","2018/01/23 17:09:39","新北市新莊區新泰路357巷3弄57號","121.442165","25.03948","6500500","新莊區"
"242061","362-BY","2018/01/23 17:09:23","新北市新莊區三和路12-21號","121.442071666667","25.0385616666667","6500500","新莊區"
"242058","353-BY","2018/01/23 17:09:23","新北市新莊區新泰路255巷83號","121.442178333333","25.03879","6500500","新莊區"
"242007","132-UY","2018/01/23 17:09:34","新北市新莊區三和路18-23號","121.441891666667","25.0389566666667","6500500","新莊區"
"242037","133-UY","2018/01/23 17:09:28","新北市新莊區新泰路415-1號","121.442181666667","25.0443433333333","6500500","新莊區"
"242021","135-UY","2018/01/23 17:09:39","新北市新莊區新泰路500號","121.442485","25.04618","6500500","新莊區"
"242015","175-VK","2018/01/23 17:09:28","新北市新莊區三和路12-21號","121.4418","25.038685","6500500","新莊區"
"242002","176-VK","2018/01/23 17:09:27","新北市新莊區三和路12-21號","121.441806666667","25.0385966666667","6500500","新莊區"
"242013","346-TH","2018/01/23 17:09:22","新北市新莊區三和路12-16號","121.441913333333","25.03745","6500500","新莊區"
"242051","347-TH","2018/01/23 17:09:19","新北市新莊區新泰路357巷3弄1號","121.442305","25.0413933333333","6500500","新莊區"
"242019","348-TH","2018/01/23 17:09:33","新北市新莊區三和路12-21號","121.442215","25.0379583333333","6500500","新莊區"
"242017","350-TH","2018/01/23 17:09:33","新北市新莊區三和路12-21號","121.442273333333","25.0385183333333","6500500","新莊區"
"242011","351-TH","2018/01/23 17:09:26","新北市新莊區新泰路357巷3弄57號","121.442181666667","25.03938","6500500","新莊區"
"238023","601-UM","2018/01/23 17:09:28","新北市樹林區中山路二段191號","121.404543333333","24.9776383333333","6500700","樹林區"
"238019","599-UM","2018/01/23 17:09:32","新北市樹林區八德街236號","121.412045","24.9704833333333","6500700","樹林區"
"238018","571-TV","2018/01/23 17:09:33","新北市樹林區仁愛街101號","121.42497","24.9834466666667","6500700","樹林區"
"238024","5061-A6","2018/01/23 17:09:35","新北市樹林區水源街13巷2號","121.425008333333","24.983375","6500700","樹林區"
"238021","KEA-2217","2018/01/23 17:09:35","新北市樹林區西圳街一段165巷20弄28號","121.395615","24.9601066666667","6500700","樹林區"
"238022","KEA-2213","2018/01/23 17:09:30","新北市樹林區環河路2-2號","121.425358333333","24.976785","6500700","樹林區"
"238025","303-VK","2018/01/23 17:09:30","新北市樹林區中山路二段185-2號","121.405308333333","24.9781716666667","6500700","樹林區"
"238017","283-BY","2018/01/23 17:09:31","新北市樹林區大安路263號","121.419055","24.9938433333333","6500700","樹林區"
"238014","282-BY","2018/01/23 17:09:23","新北市樹林區佳園路一段94號","121.39342","24.9686166666667","6500700","樹林區"
"238020","268-VK","2018/01/23 17:09:30","新北市樹林區中山路三段125-1號","121.39738","24.973255","6500700","樹林區"
"238016","169-UY","2018/01/23 17:09:22","新北市樹林區中山路三段125-10號","121.397385","24.9733066666667","6500700","樹林區"
"239007","AAC-297","2018/01/23 17:09:28","新北市鶯歌區中正一路60-2號","121.35256","24.9540216666667","6500800","鶯歌區"
"239006","891-R6","2018/01/23 17:09:33","新北市鶯歌區八德路2巷37弄8號","121.337033333333","24.9464733333333","6500800","鶯歌區"
"239008","527-UM","2018/01/23 17:09:38","新北市鶯歌區尖山路57-1號","121.349998333333","24.949725","6500800","鶯歌區"
"239005","526-UM","2018/01/23 17:09:38","新北市鶯歌區德昌二街95號","121.333276666667","24.95754","6500800","鶯歌區"
"239001","417-VK","2018/01/23 17:09:23","新北市鶯歌區尖山路140巷6弄2號","121.346721666667","24.948815","6500800","鶯歌區"
"239003","360-BY","2018/01/23 17:09:21","新北市鶯歌區八德路16號","121.330605","24.9554683333333","6500800","鶯歌區"
"239002","359-BY","2018/01/23 17:09:26","新北市鶯歌區建國路225號","121.348685","24.9533866666667","6500800","鶯歌區"
"239004","193-VK","2018/01/23 17:09:31","新北市鶯歌區環河路57號","121.351476666667","24.9450983333333","6500800","鶯歌區"
