"lineid","car","time","location","longitude","latitude","cityid","cityname"
"234026","9371-KE","2018/01/23 17:39:31","新北市永和區中正路657號","121.514833333333","25.0102416666667","6500400","永和區"
"249005","172-UM","2018/01/23 17:39:30","新北市八里區荖阡坑路34號","121.40276","25.1297683333333","6502300","八里區"
"249001","173-UM","2018/01/23 17:39:23","新北市八里區龍米路二段150號","121.43586","25.156655","6502300","八里區"
"249004","303-UY","2018/01/23 17:39:39","新北市八里區賢三街162號","121.414645","25.1567483333333","6502300","八里區"
"249002","305-UY","2018/01/23 17:39:33","新北市八里區石壁腳19號","121.441686666667","25.1353566666667","6502300","八里區"
"249003","593-UM","2018/01/23 17:39:40","新北市八里區中山路二段155號","121.405033333333","25.1508983333333","6502300","八里區"
"248006","077-UY","2018/01/23 17:39:35","新北市五股區中興路二段37巷28號","121.460051666667","25.074935","6501500","五股區"
"232011","375-UM","2018/01/23 17:39:23","新北市坪林區北宜路八段451號","121.705446666667","24.9224816666667","6502000","坪林區"
"244013","069-UM","2018/01/23 17:39:32","新北市林口區中正路555號","121.381191666667","25.07691","6501700","林口區"
"244007","080-UY","2018/01/23 17:39:38","新北市林口區林口路272巷17號","121.386678333333","25.0846366666667","6501700","林口區"
"244019","402-UM","2018/01/23 17:39:38","新北市林口區文化一路一段89-5號","121.371925","25.0704116666667","6501700","林口區"
"244009","410-SL","2018/01/23 17:39:32","新北市林口區寶林路269號","121.384458333333","25.084815","6501700","林口區"
"244023","483-VK","2018/01/23 17:39:14","新北市林口區東明一街117號","121.390455","25.0707783333333","6501700","林口區"
"244017","485-VK","2018/01/23 17:39:38","新北市林口區文化一路一段89-1號","121.37177","25.07017","6501700","林口區"
"244011","656-BX","2018/01/23 17:39:23","新北市林口區中正路394號","121.385113333333","25.07774","6501700","林口區"
"244021","657-BX","2018/01/23 17:39:33","新北市林口區仁愛路一段22號","121.397496666667","25.0753166666667","6501700","林口區"
"244025","837-TS","2018/01/23 17:39:25","新北市林口區文化三路一段394巷6號","121.366168333333","25.0729783333333","6501700","林口區"
"231046","278-BY","2018/01/23 17:39:25","新北市新店區直潭路92號","121.530903333333","24.9375633333333","6500600","新店區"
"241024","065-VK","2018/01/23 17:39:26","新北市三重區大勇街13號","121.483416666667","25.0714733333333","6500200","三重區"
"241005","262-UM","2018/01/23 17:39:40","新北市三重區仁愛街519號","121.48735","25.0822733333333","6500200","三重區"
"241016","266-UM","2018/01/23 17:39:27","新北市三重區重新路二段23號","121.497816666667","25.0625316666667","6500200","三重區"
"241007","398-BY","2018/01/23 17:39:37","新北市三重區國道路一段139號","121.475678333333","25.0736216666667","6500200","三重區"
"241030","480-VK","2018/01/23 17:39:26","新北市三重區中華路3號","121.483533333333","25.06081","6500200","三重區"
"241014","543-UM","2018/01/23 17:39:39","新北市三重區龍濱路183號","121.502095","25.0706966666667","6500200","三重區"
"241023","545-UM","2018/01/23 17:39:38","新北市三重區三民街122號","121.483573333333","25.0645483333333","6500200","三重區"
"241033","557-UM","2018/01/23 17:39:35","新北市三重區光復路一段7號","121.47208","25.0470433333333","6500200","三重區"
"241012","941-UM","2018/01/23 17:39:34","新北市三重區龍濱路190號","121.50108","25.0732733333333","6500200","三重區"
"247022","893-R6","2018/01/23 17:39:28","新北市蘆洲區民族路548巷33號","121.467426666667","25.0894983333333","6501400","蘆洲區"
"247012","546-UM","2018/01/23 17:39:39","新北市蘆洲區民權路34號","121.476263333333","25.0862733333333","6501400","蘆洲區"
"247020","500-BY","2018/01/23 17:39:31","新北市蘆洲區民族路446-4號","121.472648333333","25.0920116666667","6501400","蘆洲區"
"247008","341-TH","2018/01/23 17:39:31","新北市蘆洲區民生街119號","121.472838333333","25.0787833333333","6501400","蘆洲區"
"247010","339-TH","2018/01/23 17:39:30","新北市蘆洲區中山一路122巷1號","121.476791666667","25.0815633333333","6501400","蘆洲區"
"247002","337-TH","2018/01/23 17:39:39","新北市蘆洲區永平街62號","121.45735","25.091625","6501400","蘆洲區"
"247004","336-TH","2018/01/23 17:39:34","新北市蘆洲區長安街174號","121.45909","25.083385","6501400","蘆洲區"
"247016","057-VK","2018/01/23 17:38:50","新北市蘆洲區光華路80-1號","121.467748333333","25.0828116666667","6501400","蘆洲區"
"247006","056-VK","2018/01/23 17:39:38","新北市蘆洲區長安街36-2號","121.463573333333","25.07939","6501400","蘆洲區"
"247014","007-UY","2018/01/23 17:39:41","新北市蘆洲區中山二路79號","121.473081666667","25.08193","6501400","蘆洲區"
"247024","002-UY","2018/01/23 17:39:30","新北市蘆洲區長樂路125-1號","121.462208333333","25.088045","6501400","蘆洲區"
"247018","001-UY","2018/01/23 17:39:25","新北市蘆洲區民權路136-2號","121.473156666667","25.0889233333333","6501400","蘆洲區"
"228001","212-TW","2018/01/23 17:39:25","新北市貢寮區仁理村仁愛路95-1號","121.927695","25.055445","6502600","貢寮區"
"228002","663-BX","2018/01/23 17:39:32","新北市貢寮區福隆里龜壽谷街13號","121.957091666667","25.0054483333333","6502600","貢寮區"
"228003","828-UM","2018/01/23 17:39:36","新北市貢寮區真理里延平街11號","121.924366666667","25.0546816666667","6502600","貢寮區"
"224010","AGQ-8101","2018/01/23 17:39:13","新北市瑞芳區岳王路142號","121.809085","25.1112416666667","6501200","瑞芳區"
"224006","676-BX","2018/01/23 17:39:23","新北市瑞芳區傑魚坑路24號","121.794331666667","25.110555","6501200","瑞芳區"
"224009","285-BY","2018/01/23 17:39:38","新北市瑞芳區山尖路215-1號","121.848835","25.1124933333333","6501200","瑞芳區"
"224008","275-VK","2018/01/23 17:39:34","新北市瑞芳區明燈路一段18巷6-1號","121.822843333333","25.10752","6501200","瑞芳區"
"224005","271-BY","2018/01/23 17:39:38","新北市瑞芳區籠山路20號","121.831991666667","25.123525","6501200","瑞芳區"
"227003","400-TW","2018/01/23 17:39:24","新北市雙溪區牡丹里聖南31-1號","121.85556","25.054355","6502500","雙溪區"
"251004","009-UM","2018/01/23 17:39:26","新北市淡水區中正東路二段88巷37號","121.459321666667","25.1465066666667","6501000","淡水區"
"251005","010-UM","2018/01/23 17:39:36","新北市淡水區鄧公路33巷14號","121.451868333333","25.1709166666667","6501000","淡水區"
"251001","011-UM","2018/01/23 17:39:23","新北市淡水區民權路92巷35-1號","121.46223","25.12661","6501000","淡水區"
"251013","179-VK","2018/01/23 17:39:28","新北市淡水區演戲埔腳2號","121.475225","25.1925983333333","6501000","淡水區"
"251014","180-VK","2018/01/23 17:39:27","新北市淡水區公埔子15-1號","121.479196666667","25.22667","6501000","淡水區"
"251008","181-VK","2018/01/23 17:39:17","新北市淡水區八勢路50巷82號","121.462038333333","25.14879","6501000","淡水區"
"251015","182-VK","2018/01/23 17:39:24","新北市淡水區興福寮1-8號","121.488673333333","25.1645116666667","6501000","淡水區"
"251010","413-VK","2018/01/23 17:39:31","新北市淡水區淡海路280巷33弄34-2號","121.418745","25.18861","6501000","淡水區"
"251012","441-VK","2018/01/23 17:39:22","新北市淡水區北新路200巷8號","121.451801666667","25.17973","6501000","淡水區"
"251016","442-VK","2018/01/23 17:39:22","新北市淡水區埤島75-1號","121.45301","25.1951583333333","6501000","淡水區"
"251006","561-UM","2018/01/23 17:39:24","新北市淡水區大信街13-3號","121.441896666667","25.17664","6501000","淡水區"
"251009","575-R6","2018/01/23 17:39:31","新北市淡水區中正路32號","121.443816666667","25.169235","6501000","淡水區"
"251007","577-R6","2018/01/23 17:39:32","新北市淡水區民生路124巷4弄2號","121.463746666667","25.13803","6501000","淡水區"
"251011","650-BX","2018/01/23 17:39:35","新北市淡水區小坪頂13-3號","121.486583333333","25.156165","6501000","淡水區"
"251002","672-BX","2018/01/23 17:39:38","新北市淡水區清水街250號","121.44055","25.1722916666667","6501000","淡水區"
"251003","766-UM","2018/01/23 17:39:20","新北市淡水區大忠街5巷2號","121.443105","25.176355","6501000","淡水區"
"207004","291-VK","2018/01/23 17:39:30","新北市萬里區中幅里中福路8-1號","121.685541666667","25.164825","6502800","萬里區"
"207003","225-TW","2018/01/23 17:39:29","新北市萬里區龜吼里漁澳路10號","121.686185","25.19458","6502800","萬里區"
"252002","178-VK","2018/01/23 17:39:25","新北市三芝區中正路二段2號","121.50493","25.255675","6502100","三芝區"
"252001","292-VK","2018/01/23 17:39:23","新北市三芝區淡金路一段65號","121.501345","25.2588316666667","6502100","三芝區"
"237008","302-VK","2018/01/23 17:39:36","新北市三峽區中山路333-7號","121.359175","24.9373466666667","6500900","三峽區"
"237014","433-BY","2018/01/23 17:39:35","新北市三峽區中山路459巷163-3號","121.348918333333","24.9327783333333","6500900","三峽區"
"237006","5529-G3","2018/01/23 17:39:36","新北市三峽區介壽路一段550號","121.387318333333","24.93338","6500900","三峽區"
"237016","649-BX","2018/01/23 17:29:16","新北市三峽區中山路459巷163-3號","121.348826666667","24.93275","6500900","三峽區"
"237010","706-TV","2018/01/23 17:39:24","新北市三峽區中山路118號","121.365696666667","24.93585","6500900","三峽區"
"236043","107-UM","2018/01/23 17:39:28","新北市土城區城林路6巷80號","121.438555","24.97968","6501300","土城區"
"236015","270-VK","2018/01/23 17:39:25","新北市土城區城林路6巷80號","121.438496666667","24.979575","6501300","土城區"
"242032","AAC-296","2018/01/23 17:39:34","新北市新莊區新泰路361巷11號","121.443178333333","25.0429716666667","6500500","新莊區"
"242029","986-R7","2018/01/23 17:39:26","新北市新莊區復興路二段5號","121.453495","25.0439433333333","6500500","新莊區"
"242025","615-BX","2018/01/23 17:39:24","新北市新莊區思源路108號","121.460095","25.046575","6500500","新莊區"
"242023","613-BX","2018/01/23 17:39:34","新北市新莊區公園路129-5號","121.457396666667","25.0407616666667","6500500","新莊區"
"242027","612-BX","2018/01/23 17:39:24","新北市新莊區福壽街128號","121.457713333333","25.0513566666667","6500500","新莊區"
"242039","566-BX","2018/01/23 17:39:23","新北市新莊區民安路322號","121.429023333333","25.0220066666667","6500500","新莊區"
"242044","442-UM","2018/01/23 17:39:39","新北市新莊區富國路65巷5號","121.419873333333","25.0264983333333","6500500","新莊區"
"242048","441-UM","2018/01/23 17:39:33","新北市新莊區萬安街112號","121.42051","25.0221466666667","6500500","新莊區"
"242054","440-UM","2018/01/23 17:39:35","新北市新莊區新樹路699巷9號","121.432611666667","25.00187","6500500","新莊區"
"242034","415-TV","2018/01/23 17:39:37","新北市新莊區新莊路500號","121.446208333333","25.0333","6500500","新莊區"
"242005","413-TV","2018/01/23 17:39:36","新北市新莊區自立街202號","121.456751666667","25.0455866666667","6500500","新莊區"
"242042","400-BY","2018/01/23 17:39:39","新北市泰山區中山路二段841號","121.425841666667","25.0353966666667","6500500","新莊區"
"242061","362-BY","2018/01/23 17:39:23","新北市新莊區瓊林南路103巷8弄23號","121.435303333333","25.011225","6500500","新莊區"
"242058","353-BY","2018/01/23 17:39:39","新北市新莊區中正路698號","121.418876666667","25.027865","6500500","新莊區"
"242007","132-UY","2018/01/23 17:39:34","新北市新莊區福樂街122號","121.457018333333","25.0478116666667","6500500","新莊區"
"242037","133-UY","2018/01/23 17:39:27","新北市新莊區後港一路201號","121.434383333333","25.0283566666667","6500500","新莊區"
"242021","135-UY","2018/01/23 17:39:39","新北市新莊區中華路一段118號","121.452535","25.040545","6500500","新莊區"
"242046","172-VK","2018/01/23 17:39:37","新北市新莊區福營路103號","121.434013333333","25.0322933333333","6500500","新莊區"
"242009","173-VK","2018/01/23 17:39:34","新北市新莊區昌明街14巷5弄1號","121.457316666667","25.0530933333333","6500500","新莊區"
"242015","175-VK","2018/01/23 17:39:28","新北市新莊區新泰路406巷1弄2號","121.444358333333","25.0439666666667","6500500","新莊區"
"242002","176-VK","2018/01/23 17:39:40","新北市新莊區新莊路312號","121.450743333333","25.0336416666667","6500500","新莊區"
"242013","346-TH","2018/01/23 17:39:42","新北市新莊區中誠街103號","121.449826666667","25.04772","6500500","新莊區"
"242051","347-TH","2018/01/23 17:39:38","新北市新莊區西盛街193號","121.428186666667","25.01727","6500500","新莊區"
"242019","348-TH","2018/01/23 17:39:33","新北市新莊區中港路201號","121.454846666667","25.0418816666667","6500500","新莊區"
"242056","349-TH","2018/01/23 17:39:42","新北市新莊區新莊路543巷9弄23號","121.448578333333","25.0319183333333","6500500","新莊區"
"242017","350-TH","2018/01/23 17:39:33","新北市新莊區復興路一段149巷22弄2號","121.450351666667","25.04406","6500500","新莊區"
"242011","351-TH","2018/01/23 17:39:26","新北市新莊區中港路622號","121.451046666667","25.05494","6500500","新莊區"
"238023","601-UM","2018/01/23 17:39:28","新北市樹林區三福街114號","121.406401666667","25.01631","6500700","樹林區"
"238019","599-UM","2018/01/23 17:39:32","新北市樹林區太順街25號","121.419246666667","24.9798616666667","6500700","樹林區"
"238018","571-TV","2018/01/23 17:39:33","新北市樹林區鎮前街42-1號","121.425945","24.992815","6500700","樹林區"
"238024","5061-A6","2018/01/23 17:39:35","新北市樹林區八德街369-1號","121.41641","24.9716583333333","6500700","樹林區"
"238021","KEA-2217","2018/01/23 17:39:34","新北市樹林區佳園路二段175號","121.389693333333","24.9562916666667","6500700","樹林區"
"238022","KEA-2213","2018/01/23 17:39:30","新北市樹林區和平街2巷4號","121.420915","24.9814283333333","6500700","樹林區"
"238025","303-VK","2018/01/23 17:39:39","新北市樹林區保安街二段217號","121.413263333333","25.00417","6500700","樹林區"
"238017","283-BY","2018/01/23 17:39:31","新北市樹林區三德街30巷16弄25號","121.41366","25.0123333333333","6500700","樹林區"
"238014","282-BY","2018/01/23 17:39:23","新北市樹林區保安街一段294巷2-1號","121.419388333333","24.9977033333333","6500700","樹林區"
"238020","268-VK","2018/01/23 17:39:30","新北市樹林區俊英街116巷21號","121.428086666667","25.0059016666667","6500700","樹林區"
"238026","172-UY","2018/01/23 17:39:36","新北市樹林區新興街19巷34弄12號","121.402065","24.9731133333333","6500700","樹林區"
"238016","169-UY","2018/01/23 17:39:22","新北市樹林區育英街53號","121.420781666667","24.9892466666667","6500700","樹林區"
"239007","AAC-297","2018/01/23 17:39:28","新北市鶯歌區國光街64號","121.341238333333","24.9581333333333","6500800","鶯歌區"
"239006","891-R6","2018/01/23 17:39:33","新北市鶯歌區鶯桃路524-1號","121.331596666667","24.9666866666667","6500800","鶯歌區"
"239008","527-UM","2018/01/23 17:39:38","新北市鶯歌區大湖路732巷1弄3號","121.332528333333","24.9771566666667","6500800","鶯歌區"
"239005","526-UM","2018/01/23 17:39:38","新北市鶯歌區鶯桃路二段23號","121.325513333333","24.9721116666667","6500800","鶯歌區"
"239001","417-VK","2018/01/23 17:39:23","新北市鶯歌區中正三路236號","121.330875","24.9372516666667","6500800","鶯歌區"
"239003","360-BY","2018/01/23 17:39:21","新北市鶯歌區鶯桃路206巷56號","121.33811","24.9602366666667","6500800","鶯歌區"
"239002","359-BY","2018/01/23 17:39:25","新北市鶯歌區南雅路499號","121.345131666667","24.9542316666667","6500800","鶯歌區"
"239004","193-VK","2018/01/23 17:39:31","新北市鶯歌區三鶯路5號","121.356745","24.940975","6500800","鶯歌區"
"221010","269-BY","2018/01/23 17:39:26","新北市汐止區汐萬路一段418巷6弄16號","121.650216666667","25.078095","6501100","汐止區"
"221023","279-VK","2018/01/23 17:39:42","新北市汐止區汐萬路一段329號","121.649995","25.0756366666667","6501100","汐止區"
"221021","299-VK","2018/01/23 17:39:33","新北市汐止區汐萬路一段256巷1號","121.652035","25.0748566666667","6501100","汐止區"
"221031","353-TW","2018/01/23 17:39:29","新北市汐止區康寧街901號","121.65169","25.0749266666667","6501100","汐止區"
"221008","358-BY","2018/01/23 17:39:22","新北市汐止區康寧街901號","121.651461666667","25.0750216666667","6501100","汐止區"
"221033","647-BX","2018/01/23 17:39:35","新北市汐止區橫科路407巷99號","121.62882","25.0512666666667","6501100","汐止區"
"221018","753-BX","2018/01/23 17:39:30","新北市汐止區康寧街901號","121.65083","25.0752483333333","6501100","汐止區"
