"lineid","car","time","location","longitude","latitude","cityid","cityname"
"234026","9371-KE","2018/01/23 17:49:31","新北市永和區中山路一段102號","121.511266666667","25.0105966666667","6500400","永和區"
"249005","172-UM","2018/01/23 17:49:30","新北市八里區荖阡坑路41-10號","121.402331666667","25.1328283333333","6502300","八里區"
"249001","173-UM","2018/01/23 17:49:23","新北市八里區龍米路二段133-1號","121.445001666667","25.147715","6502300","八里區"
"249004","303-UY","2018/01/23 17:49:39","新北市八里區中華路一段79巷9號","121.421003333333","25.15641","6502300","八里區"
"249002","305-UY","2018/01/23 17:49:13","新北市八里區龍形五街37巷8號","121.448485","25.13231","6502300","八里區"
"249003","593-UM","2018/01/23 17:49:40","新北市八里區中山路二段123號","121.405431666667","25.1518883333333","6502300","八里區"
"248006","077-UY","2018/01/23 17:49:35","新北市五股區中興路二段37巷28號","121.460135","25.0749866666667","6501500","五股區"
"248020","225-UY","2018/01/23 17:49:30","新北市五股區中興路二段83巷26-6號","121.460143333333","25.07528","6501500","五股區"
"248002","678-BX","2018/01/23 17:49:38","新北市五股區中興路二段37巷26號","121.46048","25.0750166666667","6501500","五股區"
"248004","682-TV","2018/01/23 17:49:34","新北市五股區中興路二段63巷17號","121.460246666667","25.07524","6501500","五股區"
"232011","375-UM","2018/01/23 17:49:23","新北市坪林區北宜路八段29號","121.703483333333","24.9359766666667","6502000","坪林區"
"244013","069-UM","2018/01/23 17:49:32","新北市林口區中正路446號","121.38372","25.0777916666667","6501700","林口區"
"244007","080-UY","2018/01/23 17:49:37","新北市林口區林口路162號","121.38778","25.0823866666667","6501700","林口區"
"244019","402-UM","2018/01/23 17:49:32","新北市林口區文化一路一段22巷13號","121.371271666667","25.06814","6501700","林口區"
"244009","410-SL","2018/01/23 17:49:32","新北市林口區中北三街402號","121.384093333333","25.0858516666667","6501700","林口區"
"244023","483-VK","2018/01/23 17:49:34","新北市林口區興林路151巷2號","121.38925","25.0736766666667","6501700","林口區"
"244017","485-VK","2018/01/23 17:49:38","新北市林口區文化二路一段260巷9-2號","121.371303333333","25.07255","6501700","林口區"
"244011","656-BX","2018/01/23 17:49:23","新北市林口區佳林路227號","121.383606666667","25.076525","6501700","林口區"
"244021","657-BX","2018/01/23 17:49:33","新北市林口區仁愛路一段123巷48號","121.39707","25.0710983333333","6501700","林口區"
"244025","837-TS","2018/01/23 17:49:26","新北市林口區忠孝三路42號","121.35989","25.0699033333333","6501700","林口區"
"222003","436-BY","2018/01/23 17:49:40","新北市深坑區阿柔洋60-1號","121.608633333333","24.99848","6501800","深坑區"
"222002","659-BX","2018/01/23 17:49:37","新北市深坑區平埔街22巷17弄1號","121.614871666667","25.00084","6501800","深坑區"
"231046","278-BY","2018/01/23 17:49:25","新北市新店區下石厝路2-2號","121.531705","24.9278933333333","6500600","新店區"
"241024","065-VK","2018/01/23 17:49:26","新北市三重區車路頭街62巷27號","121.483541666667","25.0724833333333","6500200","三重區"
"241016","266-UM","2018/01/23 17:49:27","新北市三重區新北大道一段3-1號","121.490483333333","25.0613966666667","6500200","三重區"
"241033","557-UM","2018/01/23 17:48:53","新北市三重區重新路五段640-1號","121.468211666667","25.044425","6500200","三重區"
"235064","005-UY","2018/01/23 17:49:32","新北市中和區員山路36巷16-3號","121.484955","24.9911966666667","6500300","中和區"
"235065","098-UM","2018/01/23 17:49:26","新北市中和區員山路36巷16-3號","121.48513","24.9911183333333","6500300","中和區"
"235038","185-VK","2018/01/23 17:49:24","新北市中和區員山路36巷16-2號","121.48519","24.9915466666667","6500300","中和區"
"247022","893-R6","2018/01/23 17:49:28","新北市蘆洲區中正路266號","121.46568","25.0897933333333","6501400","蘆洲區"
"247012","546-UM","2018/01/23 17:49:39","新北市蘆洲區復興路81號","121.476326666667","25.0873816666667","6501400","蘆洲區"
"247020","500-BY","2018/01/23 17:49:31","新北市蘆洲區民義街71巷19號","121.472481666667","25.09065","6501400","蘆洲區"
"247008","341-TH","2018/01/23 17:49:25","新北市蘆洲區中山一路237號","121.473501666667","25.0806433333333","6501400","蘆洲區"
"247010","339-TH","2018/01/23 17:49:30","新北市蘆洲區信義路212號","121.479006666667","25.0849566666667","6501400","蘆洲區"
"247002","337-TH","2018/01/23 17:49:19","新北市蘆洲區環堤大道224號","121.45821","25.09267","6501400","蘆洲區"
"247004","336-TH","2018/01/23 17:49:34","新北市蘆洲區永安南路二段340號","121.456548333333","25.0829666666667","6501400","蘆洲區"
"247016","057-VK","2018/01/23 17:41:50","新北市蘆洲區光華路110巷1號","121.4669","25.082935","6501400","蘆洲區"
"247006","056-VK","2018/01/23 17:49:38","新北市蘆洲區九芎街111號","121.465676666667","25.0796266666667","6501400","蘆洲區"
"247014","007-UY","2018/01/23 17:49:41","新北市蘆洲區保和街69巷16號","121.469648333333","25.0854483333333","6501400","蘆洲區"
"247024","002-UY","2018/01/23 17:49:33","新北市蘆洲區長樂路120巷18號","121.462658333333","25.0894","6501400","蘆洲區"
"247018","001-UY","2018/01/23 17:49:25","新北市蘆洲區復興路227巷2弄2號","121.479993333333","25.08999","6501400","蘆洲區"
"228001","212-TW","2018/01/23 17:49:25","新北市貢寮區仁理村仁愛路95-1號","121.92769","25.05545","6502600","貢寮區"
"228002","663-BX","2018/01/23 17:49:32","新北市貢寮區福隆里龜壽谷街13號","121.9565","25.0059866666667","6502600","貢寮區"
"228003","828-UM","2018/01/23 17:49:28","新北市貢寮區真理里美艷山街6-2號","121.929056666667","25.061035","6502600","貢寮區"
"224010","AGQ-8101","2018/01/23 17:49:33","新北市瑞芳區明燈路一段167號","121.819328333333","25.1075083333333","6501200","瑞芳區"
"224006","676-BX","2018/01/23 17:49:38","新北市瑞芳區傑魚坑路151號","121.790058333333","25.109665","6501200","瑞芳區"
"224009","285-BY","2018/01/23 17:49:38","新北市瑞芳區新山路139號","121.852528333333","25.10861","6501200","瑞芳區"
"224008","275-VK","2018/01/23 17:49:37","新北市瑞芳區明燈路一段220號","121.81824","25.108515","6501200","瑞芳區"
"224005","271-BY","2018/01/23 17:49:35","新北市瑞芳區建基路一段74號","121.816418333333","25.12795","6501200","瑞芳區"
"253006","295-VK","2018/01/23 17:49:32","新北市石門區中山路64-1號","121.567256666667","25.2906466666667","6502200","石門區"
"222001","KEA-2212","2018/01/23 17:49:31","新北市深坑區文山路三段110號","121.608668333333","24.999465","6501800","深坑區"
"208002","742-BX","2018/01/23 17:49:25","新北市金山區磺清路135號","121.639273333333","25.22756","6502700","金山區"
"208003","665-BX","2018/01/23 17:49:35","新北市金山區磺清路135號","121.639496666667","25.2277116666667","6502700","金山區"
"208001","761-BX","2018/01/23 17:49:23","新北市金山區磺清路135號","121.639418333333","25.227685","6502700","金山區"
"251004","009-UM","2018/01/23 17:49:26","新北市淡水區民權一街17巷2號","121.458701666667","25.1365383333333","6501000","淡水區"
"251005","010-UM","2018/01/23 17:49:36","新北市淡水區學府路102巷5-3號","121.450595","25.1719533333333","6501000","淡水區"
"251001","011-UM","2018/01/23 17:49:23","新北市淡水區民權路92巷35-1號","121.462318333333","25.12661","6501000","淡水區"
"251013","179-VK","2018/01/23 17:49:28","新北市淡水區泉洲厝31號","121.479606666667","25.1910516666667","6501000","淡水區"
"251014","180-VK","2018/01/23 17:49:27","新北市淡水區公埔子16-6號","121.481015","25.2245783333333","6501000","淡水區"
"251008","181-VK","2018/01/23 17:49:37","新北市淡水區八勢路一段156號","121.468058333333","25.1564283333333","6501000","淡水區"
"251015","182-VK","2018/01/23 17:49:24","新北市淡水區興福寮32-3號","121.490445","25.1628916666667","6501000","淡水區"
"251010","413-VK","2018/01/23 17:49:31","新北市淡水區中正路二段53號","121.418158333333","25.18486","6501000","淡水區"
"251012","441-VK","2018/01/23 17:49:22","新北市淡水區北新路二段7號","121.475581666667","25.1852616666667","6501000","淡水區"
"251016","442-VK","2018/01/23 17:49:42","新北市淡水區埤島39-15號","121.452765","25.1958916666667","6501000","淡水區"
"251006","561-UM","2018/01/23 17:49:25","新北市淡水區中山北路一段45巷16號","121.441136666667","25.176025","6501000","淡水區"
"251009","575-R6","2018/01/23 17:49:31","新北市淡水區長興街36-1號","121.444103333333","25.1713833333333","6501000","淡水區"
"251007","577-R6","2018/01/23 17:49:32","新北市淡水區民生路77號","121.463433333333","25.1383266666667","6501000","淡水區"
"251011","650-BX","2018/01/23 17:45:55","新北市淡水區吳(仔)厝7-1號","121.48017","25.1469716666667","6501000","淡水區"
"251002","672-BX","2018/01/23 17:49:40","新北市淡水區中山路44號","121.444231666667","25.170055","6501000","淡水區"
"251003","766-UM","2018/01/23 17:49:40","新北市淡水區大忠街62號","121.444276666667","25.1761416666667","6501000","淡水區"
"207004","291-VK","2018/01/23 17:49:30","新北市萬里區萬里里瑪鋉頂街61號","121.688358333333","25.18045","6502800","萬里區"
"207003","225-TW","2018/01/23 17:49:42","新北市萬里區野柳里東澳路66號","121.69269","25.2009266666667","6502800","萬里區"
"252002","178-VK","2018/01/23 17:49:25","新北市三芝區智成街12號","121.503123333333","25.25673","6502100","三芝區"
"252001","292-VK","2018/01/23 17:49:23","新北市三芝區淡金路一段15號","121.498706666667","25.2596033333333","6502100","三芝區"
"237004","078-UY","2018/01/23 17:49:28","新北市三峽區仁愛街13號","121.368491666667","24.9337116666667","6500900","三峽區"
"237009","210-TH","2018/01/23 17:49:32","新北市三峽區大勇路3巷23號","121.367938333333","24.9367983333333","6500900","三峽區"
"237013","252-BX","2018/01/23 17:49:23","新北市三峽區愛國路32-25號","121.374436666667","24.9331666666667","6500900","三峽區"
"237012","275-BY","2018/01/23 17:49:30","新北市三峽區文化路90號","121.371636666667","24.936195","6500900","三峽區"
"237008","302-VK","2018/01/23 17:49:36","新北市三峽區中園街237-1號","121.366863333333","24.91948","6500900","三峽區"
"237014","433-BY","2018/01/23 17:49:35","新北市三峽區和平街36巷19號","121.371275","24.9370216666667","6500900","三峽區"
"237006","5529-G3","2018/01/23 17:49:29","新北市三峽區介壽路二段38巷104號","121.392158333333","24.9334266666667","6500900","三峽區"
"237016","649-BX","2018/01/23 17:29:16","新北市三峽區中山路459巷163-3號","121.348826666667","24.93275","6500900","三峽區"
"237010","706-TV","2018/01/23 17:49:24","新北市三峽區文化路232號","121.367861666667","24.9358866666667","6500900","三峽區"
"237005","AKY-6261","2018/01/23 17:49:40","新北市三峽區中山路365號","121.358746666667","24.9371083333333","6500900","三峽區"
"236070","105-UM","2018/01/23 17:49:24","新北市土城區明德路一段280號","121.457671666667","24.9772483333333","6501300","土城區"
"236043","107-UM","2018/01/23 17:49:28","新北市土城區城林路6巷80號","121.43851","24.9796783333333","6501300","土城區"
"236079","166-UM","2018/01/23 17:49:32","新北市土城區永寧路1號","121.430615","24.9648866666667","6501300","土城區"
"236031","253-BX","2018/01/23 17:49:28","新北市土城區城林路6巷80號","121.43845","24.9797983333333","6501300","土城區"
"236027","269-VK","2018/01/23 17:49:31","新北市土城區順風路5號","121.439868333333","24.9764483333333","6501300","土城區"
"236015","270-VK","2018/01/23 17:49:25","新北市土城區城林路6巷80號","121.43851","24.979585","6501300","土城區"
"236038","271-VK","2018/01/23 17:49:21","新北市土城區城林路6巷80號","121.43849","24.9798016666667","6501300","土城區"
"236059","912-UM","2018/01/23 17:49:23","新北市土城區城林路6巷80號","121.438675","24.9797033333333","6501300","土城區"
"236063","915-UM","2018/01/23 17:49:21","新北市土城區城林路6巷80號","121.438606666667","24.9796733333333","6501300","土城區"
"236055","AAC-216","2018/01/23 17:49:28","新北市土城區城林路6巷80號","121.438521666667","24.9797033333333","6501300","土城區"
"242032","AAC-296","2018/01/23 17:49:38","新北市新莊區新泰路321巷29號","121.443415","25.041115","6500500","新莊區"
"242029","986-R7","2018/01/23 17:49:26","新北市新莊區復興路一段63號","121.447663333333","25.04238","6500500","新莊區"
"242025","615-BX","2018/01/23 17:49:23","新北市三重區新北大道二段45號","121.46967","25.0611916666667","6500500","新莊區"
"242023","613-BX","2018/01/23 17:49:34","新北市新莊區福樂街82號","121.457731666667","25.04686","6500500","新莊區"
"242027","612-BX","2018/01/23 17:49:24","新北市新莊區福壽街173號","121.458058333333","25.053915","6500500","新莊區"
"242039","566-BX","2018/01/23 17:49:41","新北市新莊區民安路170號","121.425031666667","25.0240816666667","6500500","新莊區"
"242044","442-UM","2018/01/23 17:49:39","新北市新莊區雙鳳路21號","121.416781666667","25.0269083333333","6500500","新莊區"
"242048","441-UM","2018/01/23 17:49:37","新北市新莊區萬安街102巷8號","121.42035","25.0226933333333","6500500","新莊區"
"242054","440-UM","2018/01/23 17:49:35","新北市新莊區民安西路468-1號","121.431726666667","25.0079466666667","6500500","新莊區"
"242034","415-TV","2018/01/23 17:49:27","新北市新莊區新莊路783號","121.44113","25.0326833333333","6500500","新莊區"
"242005","413-TV","2018/01/23 17:49:39","新北市新莊區自立街257號","121.45907","25.0455983333333","6500500","新莊區"
"242042","400-BY","2018/01/23 17:49:39","新北市新莊區中正路723-4號","121.423318333333","25.02923","6500500","新莊區"
"242061","362-BY","2018/01/23 17:49:31","新北市新莊區瓊林南路599-1號","121.433111666667","25.0060016666667","6500500","新莊區"
"242058","353-BY","2018/01/23 17:49:36","新北市新莊區中正路730-16號","121.414373333333","25.0233533333333","6500500","新莊區"
"242007","132-UY","2018/01/23 17:49:34","新北市新莊區福樂街108巷8號","121.457615","25.0479016666667","6500500","新莊區"
"242037","133-UY","2018/01/23 17:49:40","新北市新莊區建福路59巷42號","121.42854","25.0277883333333","6500500","新莊區"
"242021","135-UY","2018/01/23 17:49:39","新北市新莊區永寧街34巷2號","121.452923333333","25.0394966666667","6500500","新莊區"
"242046","172-VK","2018/01/23 17:49:32","新北市新莊區建國一路23號","121.434128333333","25.031495","6500500","新莊區"
"242009","173-VK","2018/01/23 17:49:23","新北市新莊區昌明街30巷16號","121.45675","25.0529983333333","6500500","新莊區"
"242015","175-VK","2018/01/23 17:49:28","新北市新莊區中平路111號","121.4446","25.046435","6500500","新莊區"
"242002","176-VK","2018/01/23 17:49:39","新北市新莊區新莊路214巷9號","121.452471666667","25.0351183333333","6500500","新莊區"
"242013","346-TH","2018/01/23 17:49:42","新北市新莊區中誠街169巷1弄1號","121.448263333333","25.0470783333333","6500500","新莊區"
"242051","347-TH","2018/01/23 17:49:19","新北市新莊區西盛街269巷22號","121.428896666667","25.0154166666667","6500500","新莊區"
"242019","348-TH","2018/01/23 17:49:33","新北市新莊區長青街2號","121.457955","25.04261","6500500","新莊區"
"242056","349-TH","2018/01/23 17:49:16","新北市新莊區瓊林路40巷34號","121.446556666667","25.0302366666667","6500500","新莊區"
"242017","350-TH","2018/01/23 17:49:33","新北市新莊區中港路341號","121.452031666667","25.04537","6500500","新莊區"
"242011","351-TH","2018/01/23 17:49:26","新北市新莊區中富街120號","121.449838333333","25.0567283333333","6500500","新莊區"
"238023","601-UM","2018/01/23 17:49:28","新北市樹林區福興街3號","121.404283333333","25.0169083333333","6500700","樹林區"
"238019","599-UM","2018/01/23 17:49:29","新北市樹林區太元街51號","121.418675","24.9791016666667","6500700","樹林區"
"238018","571-TV","2018/01/23 17:49:33","新北市樹林區博愛街120號","121.42652","24.9913766666667","6500700","樹林區"
"238021","KEA-2217","2018/01/23 17:49:35","新北市樹林區柑園街一段235號","121.396556666667","24.9566833333333","6500700","樹林區"
"238022","KEA-2213","2018/01/23 17:49:32","新北市樹林區太順街52號","121.418196666667","24.9793683333333","6500700","樹林區"
"238025","303-VK","2018/01/23 17:49:30","新北市樹林區三俊街50號","121.412285","25.015505","6500700","樹林區"
"238017","283-BY","2018/01/23 17:49:31","新北市樹林區三德街30巷33號","121.414773333333","25.01214","6500700","樹林區"
"238014","282-BY","2018/01/23 17:49:23","新北市樹林區保安街一段291號","121.418208333333","24.997405","6500700","樹林區"
"238020","268-VK","2018/01/23 17:49:30","新北市樹林區俊英街123巷1號","121.4246","25.01059","6500700","樹林區"
"238026","172-UY","2018/01/23 17:49:31","新北市樹林區新興街47號","121.399885","24.9714316666667","6500700","樹林區"
"238016","169-UY","2018/01/23 17:49:22","新北市樹林區復興路262號","121.418375","24.98878","6500700","樹林區"
"239007","AAC-297","2018/01/23 17:49:28","新北市鶯歌區鶯桃路122號","121.338426666667","24.9544416666667","6500800","鶯歌區"
"239006","891-R6","2018/01/23 17:49:33","新北市鶯歌區永和街116號","121.334556666667","24.9692266666667","6500800","鶯歌區"
"239008","527-UM","2018/01/23 17:49:38","新北市鶯歌區國際一路92號","121.335063333333","24.977615","6500800","鶯歌區"
"239005","526-UM","2018/01/23 17:49:38","新北市鶯歌區鳳吉五街20號","121.327016666667","24.972405","6500800","鶯歌區"
"239001","417-VK","2018/01/23 17:49:23","新北市鶯歌區中正三路450號","121.32264","24.9345216666667","6500800","鶯歌區"
"239003","360-BY","2018/01/23 17:49:21","新北市鶯歌區永吉街46巷45號","121.334458333333","24.9577183333333","6500800","鶯歌區"
"239002","359-BY","2018/01/23 17:49:25","新北市鶯歌區光明街200號","121.343205","24.95579","6500800","鶯歌區"
"239004","193-VK","2018/01/23 17:49:31","新北市鶯歌區文化路324巷1-37號","121.352251666667","24.945835","6500800","鶯歌區"
"221036","130-UY","2018/01/23 17:49:33","新北市汐止區汐萬路一段312號","121.650466666667","25.0752733333333","6501100","汐止區"
"221010","269-BY","2018/01/23 17:49:28","新北市汐止區汐萬路二段67號","121.648891666667","25.0825416666667","6501100","汐止區"
"221012","278-VK","2018/01/23 17:49:25","新北市汐止區汐萬路一段145號","121.653406666667","25.0711333333333","6501100","汐止區"
"221023","279-VK","2018/01/23 17:49:42","新北市汐止區民族二街46號","121.634273333333","25.0702483333333","6501100","汐止區"
"221032","280-BY","2018/01/23 17:49:38","新北市汐止區工建路202號","121.636773333333","25.062575","6501100","汐止區"
"221027","281-BY","2018/01/23 17:49:23","新北市汐止區康寧街901號","121.650715","25.075335","6501100","汐止區"
"221029","298-VK","2018/01/23 17:49:28","新北市汐止區康寧街901號","121.65154","25.0748683333333","6501100","汐止區"
"221021","299-VK","2018/01/23 17:49:33","新北市汐止區汐萬路一段37號","121.655478333333","25.0683283333333","6501100","汐止區"
"221031","353-TW","2018/01/23 17:49:29","新北市汐止區樟樹二路345號","121.641858333333","25.0731066666667","6501100","汐止區"
"221008","358-BY","2018/01/23 17:49:22","新北市汐止區康寧街901號","121.65146","25.07506","6501100","汐止區"
"221015","567-BX","2018/01/23 17:49:37","新北市汐止區長江街21號","121.655095","25.071145","6501100","汐止區"
"221035","622-UM","2018/01/23 17:49:37","新北市汐止區汐萬路一段211巷10號","121.651518333333","25.0719683333333","6501100","汐止區"
"221025","623-UM","2018/01/23 17:49:23","新北市汐止區大同路二段175號","121.651653333333","25.0643816666667","6501100","汐止區"
"221038","646-BX","2018/01/23 17:49:26","新北市汐止區汐萬路一段310號","121.650325","25.0747933333333","6501100","汐止區"
"221033","647-BX","2018/01/23 17:49:35","新北市汐止區林森街78號","121.623995","25.0405083333333","6501100","汐止區"
"221018","753-BX","2018/01/23 17:49:30","新北市汐止區中正路311號","121.655915","25.0676516666667","6501100","汐止區"
