"lineid","car","time","location","longitude","latitude","cityid","cityname"
"234026","9371-KE","2018/01/23 17:59:31","新北市永和區永和路一段45-1號","121.512816666667","25.0062716666667","6500400","永和區"
"249005","172-UM","2018/01/23 17:59:30","新北市八里區荖阡坑路20-9號","121.398566666667","25.1373633333333","6502300","八里區"
"249001","173-UM","2018/01/23 17:59:23","新北市八里區龍米路二段37號","121.448353333333","25.14004","6502300","八里區"
"249004","303-UY","2018/01/23 17:59:39","新北市八里區中山路一段29-1號","121.421678333333","25.1589583333333","6502300","八里區"
"249002","305-UY","2018/01/23 17:59:33","新北市八里區龍米路一段440巷8號","121.451298333333","25.1339116666667","6502300","八里區"
"249003","593-UM","2018/01/23 17:59:40","新北市八里區中山路二段181號","121.404773333333","25.15012","6502300","八里區"
"248006","077-UY","2018/01/23 17:59:35","新北市五股區中興路二段37巷28號","121.4601","25.074985","6501500","五股區"
"248008","095-VK","2018/01/23 17:59:29","新北市五股區更洲路10號","121.45836","25.07879","6501500","五股區"
"248020","225-UY","2018/01/23 17:59:10","新北市五股區中興路二段83巷26-6號","121.460193333333","25.0752466666667","6501500","五股區"
"248002","678-BX","2018/01/23 17:54:19","新北市五股區中興路二段37巷26號","121.460331666667","25.074995","6501500","五股區"
"248004","682-TV","2018/01/23 17:59:34","新北市五股區中興路二段161號","121.457876666667","25.0770366666667","6501500","五股區"
"232011","375-UM","2018/01/23 17:59:23","新北市坪林區北宜路八段373號","121.709201666667","24.9322216666667","6502000","坪林區"
"244013","069-UM","2018/01/23 17:59:32","新北市林口區中山路73號","121.392726666667","25.0784683333333","6501700","林口區"
"244007","080-UY","2018/01/23 17:59:37","新北市林口區林口路78號","121.38914","25.0806483333333","6501700","林口區"
"244019","402-UM","2018/01/23 17:59:32","新北市林口區麗園路115號","121.371676666667","25.0677616666667","6501700","林口區"
"244009","410-SL","2018/01/23 17:59:31","新北市林口區林口路241號","121.386691666667","25.0837883333333","6501700","林口區"
"244023","483-VK","2018/01/23 17:59:34","新北市林口區東湖路77號","121.384878333333","25.0734816666667","6501700","林口區"
"244017","485-VK","2018/01/23 17:59:38","新北市林口區文化三路一段402巷2號","121.368743333333","25.074115","6501700","林口區"
"244011","656-BX","2018/01/23 17:59:23","新北市林口區中正路268號","121.389281666667","25.0777233333333","6501700","林口區"
"244021","657-BX","2018/01/23 17:59:33","新北市林口區新寮45號","121.404146666667","25.06476","6501700","林口區"
"244025","837-TS","2018/01/23 17:59:25","新北市林口區八德路500巷52號","121.356753333333","25.06708","6501700","林口區"
"222003","436-BY","2018/01/23 17:59:20","新北市深坑區炮子崙23號","121.607138333333","24.9908966666667","6501800","深坑區"
"222002","659-BX","2018/01/23 17:59:37","新北市深坑區文化街96號","121.617198333333","25.002005","6501800","深坑區"
"231046","278-BY","2018/01/23 17:59:25","新北市新店區康雅崙路3號","121.538961666667","24.92554","6500600","新店區"
"241024","065-VK","2018/01/23 17:59:26","新北市三重區力行路一段277號","121.482238333333","25.0716966666667","6500200","三重區"
"241016","266-UM","2018/01/23 17:59:27","新北市三重區忠孝路三段125號","121.479251666667","25.0616333333333","6500200","三重區"
"241033","557-UM","2018/01/23 17:59:15","新北市三重區光復路一段68巷13號","121.470946666667","25.0492683333333","6500200","三重區"
"235064","005-UY","2018/01/23 17:59:32","新北市中和區員山路36巷16-3號","121.484988333333","24.9912516666667","6500300","中和區"
"235063","006-UY","2018/01/23 17:59:26","新北市中和區員山路36巷16-3號","121.484975","24.9912933333333","6500300","中和區"
"235065","098-UM","2018/01/23 17:59:26","新北市中和區民樂路81號","121.484951666667","25.0013333333333","6500300","中和區"
"235058","151-BY","2018/01/23 17:59:36","新北市中和區錦和路350-1號","121.490455","24.993515","6500300","中和區"
"235038","185-VK","2018/01/23 17:59:24","新北市中和區景平路279號","121.507773333333","24.993095","6500300","中和區"
"235072","301-VK","2018/01/23 17:59:34","新北市中和區員山路36巷11號","121.483771666667","24.99096","6500300","中和區"
"235042","551-UM","2018/01/23 17:59:21","新北市中和區錦和路350-1號","121.490275","24.993565","6500300","中和區"
"235062","800-TS","2018/01/23 17:59:35","新北市中和區連城路308號","121.48366","24.9962633333333","6500300","中和區"
"235052","805-TS","2018/01/23 17:59:40","新北市中和區中正路637巷52弄1號","121.485476666667","24.9934133333333","6500300","中和區"
"235051","157-BY","2018/01/23 17:59:36","新北市中和區中正路395號","121.489825","24.9935416666667","6500300","中和區"
"235037","AAC-213","2018/01/23 17:59:20","新北市中和區錦和路350-1號","121.490411666667","24.993565","6500300","中和區"
"247022","893-R6","2018/01/23 17:58:48","新北市蘆洲區中正路516巷12號","121.462706666667","25.09815","6501400","蘆洲區"
"247012","546-UM","2018/01/23 17:59:39","新北市蘆洲區民族路202號","121.479795","25.0874416666667","6501400","蘆洲區"
"247020","500-BY","2018/01/23 17:59:31","新北市蘆洲區水湳街36-10號","121.471463333333","25.0896016666667","6501400","蘆洲區"
"247002","337-TH","2018/01/23 17:59:39","新北市蘆洲區永平街32巷57弄27號","121.458851666667","25.09325","6501400","蘆洲區"
"247016","057-VK","2018/01/23 17:51:31","台北市萬華區桂林路246巷40-1號","121.490288333333","25.0421916666667","6501400","蘆洲區"
"247006","056-VK","2018/01/23 17:59:38","新北市蘆洲區中華街18號","121.462976666667","25.0814833333333","6501400","蘆洲區"
"247014","007-UY","2018/01/23 17:59:21","新北市蘆洲區忠孝路100號","121.471411666667","25.0861483333333","6501400","蘆洲區"
"247024","002-UY","2018/01/23 17:59:30","新北市蘆洲區光復路39-2號","121.462788333333","25.0851216666667","6501400","蘆洲區"
"247018","001-UY","2018/01/23 17:59:25","新北市蘆洲區復興路286號","121.480745","25.0898016666667","6501400","蘆洲區"
"226004","205-ST","2018/01/23 17:59:43","新北市平溪區菁桐里菁桐街11號","121.727881666667","25.0240633333333","6502400","平溪區"
"228001","212-TW","2018/01/23 17:59:40","新北市貢寮區真理里新港街26巷53號","121.928051666667","25.0535666666667","6502600","貢寮區"
"228002","663-BX","2018/01/23 17:59:32","新北市貢寮區福連里香蘭街2-1號","121.968703333333","25.0234466666667","6502600","貢寮區"
"228003","828-UM","2018/01/23 17:59:28","新北市貢寮區真理里美艷山街6-2號","121.928885","25.0607416666667","6502600","貢寮區"
"224006","676-BX","2018/01/23 17:59:44","新北市瑞芳區傑魚坑路191號","121.78801","25.1075233333333","6501200","瑞芳區"
"224002","639-TC","2018/01/23 17:59:29","新北市瑞芳區三爪子坑路32巷2號","121.810385","25.1061383333333","6501200","瑞芳區"
"224009","285-BY","2018/01/23 17:59:38","新北市瑞芳區金光路316巷9號","121.8507","25.108005","6501200","瑞芳區"
"224008","275-VK","2018/01/23 17:59:22","新北市瑞芳區明燈路一段201巷105-1號","121.81885","25.1064483333333","6501200","瑞芳區"
"224007","273-VK","2018/01/23 17:59:28","新北市瑞芳區大寮路2號","121.785431666667","25.1004733333333","6501200","瑞芳區"
"224005","271-BY","2018/01/23 17:59:35","新北市瑞芳區深澳路189-1號","121.820741666667","25.13388","6501200","瑞芳區"
"253005","032-BX","2018/01/23 17:59:25","新北市石門區中山路62-11號","121.567523333333","25.289665","6502200","石門區"
"253006","295-VK","2018/01/23 17:59:32","新北市石門區大丘田45-2號","121.549808333333","25.274825","6502200","石門區"
"222001","KEA-2212","2018/01/23 17:59:31","新北市深坑區文山路三段110號","121.608655","24.9994333333333","6501800","深坑區"
"208002","742-BX","2018/01/23 17:59:25","新北市金山區三界壇路14號","121.625883333333","25.2283883333333","6502700","金山區"
"208003","665-BX","2018/01/23 17:59:35","新北市金山區磺港里磺港路202-1號","121.645125","25.2274716666667","6502700","金山區"
"208001","761-BX","2018/01/23 17:59:23","新北市金山區磺港里磺港路169號","121.64264","25.2244933333333","6502700","金山區"
"251004","009-UM","2018/01/23 17:59:26","新北市淡水區民權路187巷17號","121.460381666667","25.1334866666667","6501000","淡水區"
"251005","010-UM","2018/01/23 17:59:36","新北市淡水區英專路120號","121.445895","25.172445","6501000","淡水區"
"251001","011-UM","2018/01/23 17:59:23","新北市淡水區民權路94巷1號","121.463185","25.12483","6501000","淡水區"
"251013","179-VK","2018/01/23 17:59:28","新北市淡水區泉洲厝31號","121.4796","25.191045","6501000","淡水區"
"251014","180-VK","2018/01/23 17:59:27","新北市淡水區公埔子16-6號","121.481006666667","25.2245583333333","6501000","淡水區"
"251008","181-VK","2018/01/23 17:59:37","新北市淡水區八勢一街32巷1號","121.461895","25.1557366666667","6501000","淡水區"
"251015","182-VK","2018/01/23 17:59:24","新北市淡水區興福寮88巷1號","121.485476666667","25.165075","6501000","淡水區"
"251010","413-VK","2018/01/23 17:59:31","新北市淡水區淡海路46號","121.423196666667","25.1801533333333","6501000","淡水區"
"251012","441-VK","2018/01/23 17:59:22","新北市淡水區北新路三段38巷7號","121.484571666667","25.1869733333333","6501000","淡水區"
"251016","442-VK","2018/01/23 17:59:42","新北市淡水區埤島30-12號","121.447808333333","25.19827","6501000","淡水區"
"251006","561-UM","2018/01/23 17:59:25","新北市淡水區新生街15號","121.43885","25.1732266666667","6501000","淡水區"
"251009","575-R6","2018/01/23 17:59:31","新北市淡水區大仁街4號","121.442113333333","25.1747416666667","6501000","淡水區"
"251007","577-R6","2018/01/23 17:59:32","新北市淡水區中正東路二段145號","121.459686666667","25.1470116666667","6501000","淡水區"
"251011","650-BX","2018/01/23 17:59:41","新北市淡水區三空泉9-2號","121.47414","25.1634733333333","6501000","淡水區"
"251002","672-BX","2018/01/23 17:59:40","新北市淡水區中正東路6號","121.447165","25.167165","6501000","淡水區"
"251003","766-UM","2018/01/23 17:59:40","新北市淡水區大忠街113巷10號","121.446966666667","25.1775066666667","6501000","淡水區"
"207004","291-VK","2018/01/23 17:59:30","新北市萬里區中幅里中福路48號","121.68341","25.1741133333333","6502800","萬里區"
"207003","225-TW","2018/01/23 17:59:42","新北市萬里區港東路野柳風景區攤販66號","121.69132","25.20583","6502800","萬里區"
"252002","178-VK","2018/01/23 17:59:25","新北市三芝區中山路二段39號","121.502948333333","25.255135","6502100","三芝區"
"252001","292-VK","2018/01/23 17:59:23","新北市三芝區中興街二段2號","121.498388333333","25.2566733333333","6502100","三芝區"
"237004","078-UY","2018/01/23 17:59:28","新北市三峽區中正路二段318號","121.365915","24.9108766666667","6500900","三峽區"
"237007","153-BY","2018/01/23 17:59:36","新北市三峽區中園街227號","121.366893333333","24.9197766666667","6500900","三峽區"
"237009","210-TH","2018/01/23 17:59:32","新北市三峽區大仁路31號","121.365993333333","24.9374933333333","6500900","三峽區"
"237013","252-BX","2018/01/23 17:59:23","新北市三峽區介壽路一段71-1號","121.375783333333","24.9323666666667","6500900","三峽區"
"237012","275-BY","2018/01/23 17:59:30","新北市三峽區民生街19巷3-1號","121.376145","24.9361566666667","6500900","三峽區"
"237008","302-VK","2018/01/23 17:59:36","新北市三峽區白雞28-1號","121.370365","24.9121716666667","6500900","三峽區"
"237014","433-BY","2018/01/23 17:59:35","新北市三峽區復興路141-1號","121.370996666667","24.9377483333333","6500900","三峽區"
"237006","5529-G3","2018/01/23 17:59:29","新北市三峽區介壽路二段138巷1弄98號","121.39766","24.9316183333333","6500900","三峽區"
"237016","649-BX","2018/01/23 17:56:56","新北市三峽區白雞115-3號","121.401801666667","24.90746","6500900","三峽區"
"237010","706-TV","2018/01/23 17:59:36","新北市三峽區民權街183號","121.367853333333","24.9296416666667","6500900","三峽區"
"237005","AKY-6261","2018/01/23 17:59:40","新北市三峽區復興路237巷32號","121.368781666667","24.93773","6500900","三峽區"
"236070","105-UM","2018/01/23 17:59:24","新北市土城區青雲路665-1號","121.466188333333","24.9649133333333","6501300","土城區"
"236043","107-UM","2018/01/23 17:59:28","新北市土城區城林路6巷80號","121.43865","24.97966","6501300","土城區"
"236079","166-UM","2018/01/23 17:59:32","新北市土城區永寧路32巷10弄23號","121.428891666667","24.9611166666667","6501300","土城區"
"236031","253-BX","2018/01/23 17:59:28","新北市土城區城林路6巷80號","121.438443333333","24.9797633333333","6501300","土城區"
"236027","269-VK","2018/01/23 17:59:31","新北市土城區承天路47號","121.439036666667","24.963795","6501300","土城區"
"236015","270-VK","2018/01/23 17:59:25","新北市土城區城林路6巷80號","121.438526666667","24.9795816666667","6501300","土城區"
"236038","271-VK","2018/01/23 17:59:41","新北市土城區城林路6巷80號","121.438491666667","24.9797716666667","6501300","土城區"
"236023","401-BY","2018/01/23 17:59:40","新北市土城區城林路6巷80號","121.438603333333","24.9797616666667","6501300","土城區"
"236059","912-UM","2018/01/23 17:59:43","新北市土城區中央路三段42號","121.437561666667","24.9681866666667","6501300","土城區"
"236049","913-UM","2018/01/23 17:59:37","新北市土城區城林路6巷80號","121.438485","24.9795733333333","6501300","土城區"
"236063","915-UM","2018/01/23 17:59:41","新北市土城區城林路6巷80號","121.4386","24.979665","6501300","土城區"
"236055","AAC-216","2018/01/23 17:59:28","新北市土城區城林路6巷80號","121.43851","24.979715","6501300","土城區"
"242032","AAC-296","2018/01/23 17:59:34","新北市新莊區新泰路324號","121.44502","25.0416933333333","6500500","新莊區"
"242029","986-R7","2018/01/23 17:59:26","新北市新莊區中平路50號","121.44481","25.0439583333333","6500500","新莊區"
"242025","615-BX","2018/01/23 17:59:43","新北市新莊區五工路60號","121.45861","25.0629866666667","6500500","新莊區"
"242023","613-BX","2018/01/23 17:59:34","新北市新莊區福壽街63號","121.45821","25.049265","6500500","新莊區"
"242027","612-BX","2018/01/23 17:59:24","新北市新莊區思源路375號","121.459833333333","25.051105","6500500","新莊區"
"242039","566-BX","2018/01/23 17:59:23","新北市新莊區民安西路26號","121.426721666667","25.021295","6500500","新莊區"
"242044","442-UM","2018/01/23 17:59:39","新北市新莊區雙鳳路137號","121.412843333333","25.0272316666667","6500500","新莊區"
"242048","441-UM","2018/01/23 17:59:33","新北市新莊區後港二路10號","121.422766666667","25.0240966666667","6500500","新莊區"
"242054","440-UM","2018/01/23 17:59:37","新北市新莊區光華街8號","121.428746666667","25.010715","6500500","新莊區"
"242034","415-TV","2018/01/23 17:59:31","新北市新莊區福海街14號","121.445273333333","25.0337416666667","6500500","新莊區"
"242005","413-TV","2018/01/23 17:59:36","新北市新莊區思源路177巷35號","121.45915","25.04673","6500500","新莊區"
"242042","400-BY","2018/01/23 17:59:39","新北市新莊區丹鳳街34號","121.421585","25.0295466666667","6500500","新莊區"
"242061","362-BY","2018/01/23 17:59:23","新北市新莊區新樹路357號","121.432968333333","25.0183083333333","6500500","新莊區"
"242058","353-BY","2018/01/23 17:59:23","新北市新莊區新北大道七段239號","121.412956666667","25.029725","6500500","新莊區"
"242007","132-UY","2018/01/23 17:59:34","新北市新莊區自信街65巷14號","121.455495","25.04871","6500500","新莊區"
"242037","133-UY","2018/01/23 17:59:27","新北市新莊區建福路61號","121.426895","25.0273","6500500","新莊區"
"242021","135-UY","2018/01/23 17:59:41","新北市新莊區建興街37號","121.45008","25.0367666666667","6500500","新莊區"
"242046","172-VK","2018/01/23 17:59:41","新北市新莊區福營路195巷13號","121.431526666667","25.03017","6500500","新莊區"
"242009","173-VK","2018/01/23 17:59:23","新北市新莊區昌平街12號","121.45483","25.0526166666667","6500500","新莊區"
"242015","175-VK","2018/01/23 17:59:28","新北市新莊區中平路129巷13號","121.444118333333","25.0470766666667","6500500","新莊區"
"242002","176-VK","2018/01/23 17:59:27","新北市新莊區中正路78-1號","121.458543333333","25.0378316666667","6500500","新莊區"
"242013","346-TH","2018/01/23 17:59:42","新北市新莊區中和街125巷7號","121.446988333333","25.0484616666667","6500500","新莊區"
"242051","347-TH","2018/01/23 17:59:38","新北市新莊區龍安路500號","121.426673333333","25.0171333333333","6500500","新莊區"
"242019","348-TH","2018/01/23 17:59:33","新北市新莊區明中街43巷7號","121.457603333333","25.0389883333333","6500500","新莊區"
"242056","349-TH","2018/01/23 17:59:21","新北市新莊區豐年街124巷18號","121.445478333333","25.0299066666667","6500500","新莊區"
"242017","350-TH","2018/01/23 17:59:33","新北市新莊區中和街60巷3號","121.448178333333","25.0447516666667","6500500","新莊區"
"242011","351-TH","2018/01/23 17:59:26","新北市新莊區中榮街56巷8弄1號","121.449401666667","25.0534233333333","6500500","新莊區"
"238023","601-UM","2018/01/23 17:59:28","新北市樹林區龍興街30號","121.402978333333","25.0158916666667","6500700","樹林區"
"238019","599-UM","2018/01/23 17:59:37","新北市樹林區國凱街112號","121.42203","24.9796816666667","6500700","樹林區"
"238018","571-TV","2018/01/23 17:59:39","新北市樹林區中正路7-1號","121.430531666667","24.9973983333333","6500700","樹林區"
"238021","KEA-2217","2018/01/23 17:59:34","新北市樹林區田尾街60號","121.409176666667","24.9600116666667","6500700","樹林區"
"238022","KEA-2213","2018/01/23 17:59:30","新北市樹林區福順街63號","121.416123333333","24.9782783333333","6500700","樹林區"
"238025","303-VK","2018/01/23 17:59:33","新北市樹林區三俊街121號","121.41761","25.0155966666667","6500700","樹林區"
"238017","283-BY","2018/01/23 17:59:31","新北市樹林區三德街4號","121.413038333333","25.0128283333333","6500700","樹林區"
"238014","282-BY","2018/01/23 17:59:27","新北市樹林區大安路47-1號","121.424225","24.99953","6500700","樹林區"
"238020","268-VK","2018/01/23 17:59:44","新北市樹林區三俊街199巷31-2號","121.420456666667","25.0176066666667","6500700","樹林區"
"238026","172-UY","2018/01/23 17:59:31","新北市樹林區中山路三段125-10號","121.397368333333","24.973315","6500700","樹林區"
"238016","169-UY","2018/01/23 17:59:22","新北市樹林區啟智街151巷15號","121.416371666667","24.9874766666667","6500700","樹林區"
"239007","AAC-297","2018/01/23 17:59:28","新北市鶯歌區鶯桃路94巷59弄3號","121.341726666667","24.9553033333333","6500800","鶯歌區"
"239006","891-R6","2018/01/23 17:59:33","新北市鶯歌區鶯桃路413巷76號","121.329755","24.9630883333333","6500800","鶯歌區"
"239008","527-UM","2018/01/23 17:59:38","新北市鶯歌區明圓街2號","121.336006666667","24.97774","6500800","鶯歌區"
"239005","526-UM","2018/01/23 17:59:38","新北市鶯歌區大湖路361巷81-1號","121.332698333333","24.97373","6500800","鶯歌區"
"239001","417-VK","2018/01/23 17:59:23","新北市鶯歌區中正三路79號","121.338538333333","24.9410583333333","6500800","鶯歌區"
"239003","360-BY","2018/01/23 17:59:42","新北市鶯歌區鶯桃路282號","121.335298333333","24.960105","6500800","鶯歌區"
"239002","359-BY","2018/01/23 17:59:25","新北市鶯歌區國慶街58號","121.349645","24.9550333333333","6500800","鶯歌區"
"239004","193-VK","2018/01/23 17:59:31","新北市鶯歌區尖山路103-6號","121.348126666667","24.948755","6500800","鶯歌區"
"221036","130-UY","2018/01/23 17:59:33","新北市汐止區鄉長路一段295號","121.669163333333","25.0797416666667","6501100","汐止區"
"221010","269-BY","2018/01/23 17:59:26","新北市汐止區汐萬路二段245巷46號","121.644786666667","25.0878683333333","6501100","汐止區"
"221012","278-VK","2018/01/23 17:59:25","新北市汐止區長興街二段24號","121.67302","25.0812866666667","6501100","汐止區"
"221023","279-VK","2018/01/23 17:59:22","新北市汐止區民族五街54號","121.628551666667","25.070775","6501100","汐止區"
"221032","280-BY","2018/01/23 17:59:38","新北市汐止區民權街一段211巷5號","121.619903333333","25.0517766666667","6501100","汐止區"
"221027","281-BY","2018/01/23 17:59:23","新北市汐止區汐萬路一段5號","121.656048333333","25.06735","6501100","汐止區"
"221029","298-VK","2018/01/23 17:59:28","新北市汐止區樟樹二路328號","121.641433333333","25.0702766666667","6501100","汐止區"
"221021","299-VK","2018/01/23 17:59:33","新北市汐止區新興路18號","121.65633","25.0645883333333","6501100","汐止區"
"221031","353-TW","2018/01/23 17:59:29","新北市汐止區中興路39號","121.634538333333","25.0622533333333","6501100","汐止區"
"221008","358-BY","2018/01/23 17:59:38","新北市汐止區明峰街11號","121.635178333333","25.0713783333333","6501100","汐止區"
"221015","567-BX","2018/01/23 17:59:37","新北市汐止區長江街293號","121.665406666667","25.081265","6501100","汐止區"
"221035","622-UM","2018/01/23 17:59:37","新北市汐止區新江北路30巷22弄3號","121.651686666667","25.0696766666667","6501100","汐止區"
"221025","623-UM","2018/01/23 17:59:23","新北市汐止區仁愛路47號","121.659656666667","25.063225","6501100","汐止區"
"221038","646-BX","2018/01/23 17:59:36","新北市汐止區連興街123號","121.653905","25.0620416666667","6501100","汐止區"
"221033","647-BX","2018/01/23 17:59:35","新北市汐止區合順街39巷1號","121.620606666667","25.0432733333333","6501100","汐止區"
"221002","707-TV","2018/01/23 17:59:38","新北市汐止區工建路100號","121.639531666667","25.063785","6501100","汐止區"
"221018","753-BX","2018/01/23 17:59:30","新北市汐止區招商街11巷2號","121.666603333333","25.0686566666667","6501100","汐止區"
