"lineid","car","time","location","longitude","latitude","cityid","cityname"
"234007","207-UY","2018/01/23 18:19:34","新北市永和區環河西路二段219號","121.50118","25.010295","6500400","永和區"
"234042","862-TW","2018/01/23 18:19:11","新北市永和區福和路1號","121.526488333333","25.009695","6500400","永和區"
"234026","9371-KE","2018/01/23 18:19:31","新北市永和區豫溪街42巷9號","121.515436666667","25.0093083333333","6500400","永和區"
"249005","172-UM","2018/01/23 18:19:30","新北市八里區荖阡坑路15-15號","121.400231666667","25.1404333333333","6502300","八里區"
"249001","173-UM","2018/01/23 18:19:23","新北市八里區龍米路一段131號","121.452158333333","25.1267183333333","6502300","八里區"
"249004","303-UY","2018/01/23 18:19:39","新北市八里區龍米路二段200巷1號","121.433463333333","25.1585983333333","6502300","八里區"
"249002","305-UY","2018/01/23 18:19:33","新北市八里區龍形二街41號","121.45013","25.1328866666667","6502300","八里區"
"248016","026-BX","2018/01/23 18:19:32","新北市五股區成泰路三段477巷18號","121.449905","25.0988966666667","6501500","五股區"
"248006","077-UY","2018/01/23 18:19:35","新北市五股區中興路一段152號","121.464443333333","25.0738233333333","6501500","五股區"
"248008","095-VK","2018/01/23 18:19:28","新北市五股區更洲路32巷8弄14號","121.459256666667","25.0796233333333","6501500","五股區"
"248020","225-UY","2018/01/23 18:19:30","新北市五股區孝義路47巷22號","121.45175","25.1090866666667","6501500","五股區"
"248012","247-BX","2018/01/23 18:19:24","新北市五股區御史路1巷101弄2號","121.440971666667","25.0912666666667","6501500","五股區"
"248014","261-SL","2018/01/23 18:19:31","新北市五股區成泰路一段173-1號","121.435181666667","25.07469","6501500","五股區"
"248010","272-BY","2018/01/23 18:19:34","新北市五股區成泰路一段130-1號","121.435148333333","25.0749533333333","6501500","五股區"
"248004","682-TV","2018/01/23 18:19:34","新北市五股區成泰路二段222-2號","121.439121666667","25.08547","6501500","五股區"
"232011","375-UM","2018/01/23 18:19:43","新北市坪林區坪雙路一段31號","121.71168","24.9424266666667","6502000","坪林區"
"244013","069-UM","2018/01/23 18:19:32","新北市林口區中山路198號","121.38875","25.0790216666667","6501700","林口區"
"244007","080-UY","2018/01/23 18:19:37","新北市林口區林口路239號","121.386968333333","25.0835166666667","6501700","林口區"
"244019","402-UM","2018/01/23 18:19:32","新北市林口區忠孝路567號","121.373668333333","25.0680366666667","6501700","林口區"
"244009","410-SL","2018/01/23 18:19:31","新北市林口區中山路496號","121.37985","25.082935","6501700","林口區"
"244023","483-VK","2018/01/23 18:19:34","新北市林口區仁愛路二段13號","121.385828333333","25.0761783333333","6501700","林口區"
"244017","485-VK","2018/01/23 18:19:38","新北市林口區八德路20巷17號","121.367541666667","25.0678","6501700","林口區"
"244011","656-BX","2018/01/23 18:19:23","新北市林口區中正路74巷10號","121.394655","25.0779766666667","6501700","林口區"
"244021","657-BX","2018/01/23 18:19:33","新北市林口區自強一街39號","121.398873333333","25.077875","6501700","林口區"
"244025","837-TS","2018/01/23 18:19:25","新北市林口區南勢六街55號","121.35561","25.0712966666667","6501700","林口區"
"243013","646-TV","2018/01/23 18:19:27","新北市泰山區南林路103號","121.415621666667","25.042655","6501600","泰山區"
"222003","436-BY","2018/01/23 18:19:40","新北市深坑區旺耽路67號","121.626261666667","25.0030066666667","6501800","深坑區"
"222002","659-BX","2018/01/23 18:19:37","新北市深坑區雲鄉路28號","121.621493333333","24.9996833333333","6501800","深坑區"
"231041","002-UM","2018/01/23 18:19:38","新北市新店區安華路28-1號","121.51968","24.9607666666667","6500600","新店區"
"231059","046-UY","2018/01/23 18:19:42","新北市新店區安華路28-1號","121.519555","24.9608783333333","6500600","新店區"
"231061","047-UY","2018/01/23 18:19:44","新北市新店區安華路28-1號","121.519318333333","24.96094","6500600","新店區"
"231060","106-UY","2018/01/23 18:19:40","新北市新店區安華路28-1號","121.519725","24.9607083333333","6500600","新店區"
"231051","107-UY","2018/01/23 18:19:26","新北市新店區安華路28-1號","121.519423333333","24.9612733333333","6500600","新店區"
"231053","188-VK","2018/01/23 18:19:34","新北市新店區安康路一段355號","121.519976666667","24.9635766666667","6500600","新店區"
"231057","256-BX","2018/01/23 18:19:37","新北市新店區安華路28-1號","121.519736666667","24.9611383333333","6500600","新店區"
"231046","278-BY","2018/01/23 18:19:25","新北市新店區直潭七街60號","121.532248333333","24.9398816666667","6500600","新店區"
"231054","AAD-862","2018/01/23 18:19:30","新北市新店區安華路28-1號","121.519846666667","24.9611316666667","6500600","新店區"
"231058","3712-VJ","2018/01/23 18:19:32","新北市新店區環河路29巷1號","121.537063333333","24.961095","6500600","新店區"
"231056","3713-VJ","2018/01/23 18:19:24","新北市新店區中央路39號","121.532971666667","24.97769","6500600","新店區"
"231055","4716-K9","2018/01/23 18:19:33","新北市新店區安康路一段3-1號","121.535158333333","24.960865","6500600","新店區"
"231067","4772-VM","2018/01/23 18:19:27","新北市新店區安華路1-1號","121.51915","24.9605533333333","6500600","新店區"
"231065","512-UM","2018/01/23 18:19:44","新北市新店區安康路一段355-3號","121.519316666667","24.9615333333333","6500600","新店區"
"231064","515-UM","2018/01/23 18:19:29","新北市新店區安華路28-1號","121.51982","24.961045","6500600","新店區"
"231042","616-UM","2018/01/23 18:19:23","新北市新店區安華路1-1號","121.519441666667","24.9605216666667","6500600","新店區"
"231045","617-UM","2018/01/23 18:19:35","新北市新店區安華路28-1號","121.519491666667","24.9609966666667","6500600","新店區"
"231040","619-UM","2018/01/23 18:19:21","新北市新店區安華路28-1號","121.51968","24.9606466666667","6500600","新店區"
"231063","645-TV","2018/01/23 18:19:42","新北市新店區安華路28-1號","121.519476666667","24.9607433333333","6500600","新店區"
"231049","719-UM","2018/01/23 18:19:25","新北市新店區安華路28-1號","121.519538333333","24.9612666666667","6500600","新店區"
"231062","720-UM","2018/01/23 18:19:41","新北市新店區安華路28-1號","121.519266666667","24.9611466666667","6500600","新店區"
"231044","897-TW","2018/01/23 18:19:23","新北市新店區安華路28-1號","121.519618333333","24.960775","6500600","新店區"
"231043","899-TW","2018/01/23 18:19:26","新北市新店區安華路28-1號","121.519196666667","24.9609033333333","6500600","新店區"
"231066","AKT-0513","2018/01/23 18:19:31","新北市新店區安華路1-1號","121.519581666667","24.960495","6500600","新店區"
"241033","557-UM","2018/01/23 18:19:35","新北市三重區光復路一段61巷21號","121.473128333333","25.0489183333333","6500200","三重區"
"235066","003-UY","2018/01/23 18:19:35","新北市中和區中山路二段120號","121.502748333333","25.00362","6500300","中和區"
"235064","005-UY","2018/01/23 18:19:32","新北市中和區圓通路165-1號","121.497783333333","24.9954166666667","6500300","中和區"
"235063","006-UY","2018/01/23 18:19:26","新北市中和區中正路589巷1號","121.485813333333","24.9943316666667","6500300","中和區"
"235056","096-UM","2018/01/23 18:19:31","新北市板橋區民生路一段26-1號","121.477478333333","25.0117566666667","6500300","中和區"
"235039","097-UM","2018/01/23 18:19:23","新北市中和區景平路353號","121.504808333333","24.9933366666667","6500300","中和區"
"235065","098-UM","2018/01/23 18:19:26","新北市中和區莊敬路49巷27號","121.501581666667","25.006155","6500300","中和區"
"235058","151-BY","2018/01/23 18:19:36","新北市中和區圓通路367巷21-1號","121.492551666667","24.9864633333333","6500300","中和區"
"235055","183-VK","2018/01/23 18:19:38","新北市中和區中正路637巷52弄1號","121.485431666667","24.9934816666667","6500300","中和區"
"235038","185-VK","2018/01/23 18:19:24","新北市中和區大智街100號","121.523896666667","24.992495","6500300","中和區"
"235049","186-VK","2018/01/23 18:19:33","新北市中和區中正路637巷52弄1號","121.485488333333","24.99351","6500300","中和區"
"235072","301-VK","2018/01/23 18:19:34","新北市中和區錦和路186號","121.490068333333","24.99525","6500300","中和區"
"235043","352-BY","2018/01/23 18:19:22","新北市中和區景平路375號","121.50419","24.99339","6500300","中和區"
"235068","377-QA","2018/01/23 18:19:40","新北市中和區員山路36巷16-3號","121.485101666667","24.991185","6500300","中和區"
"235061","378-QA","2018/01/23 18:19:22","新北市中和區連城路607號","121.477923333333","24.9931483333333","6500300","中和區"
"235050","4979-A6","2018/01/23 18:19:24","新北市中和區捷運路61巷28號","121.509115","24.9892816666667","6500300","中和區"
"235069","4980-A6","2018/01/23 18:19:41","新北市中和區連城路139巷3號","121.496021666667","24.99861","6500300","中和區"
"235042","551-UM","2018/01/23 18:19:41","新北市中和區大仁街20巷25弄28號","121.519508333333","24.9935583333333","6500300","中和區"
"235070","558-UM","2018/01/23 18:19:32","新北市中和區中正路206號","121.497176666667","24.99415","6500300","中和區"
"235045","565-BX","2018/01/23 18:19:32","新北市中和區景安路200巷1弄2號","121.503713333333","24.9914766666667","6500300","中和區"
"235054","640-BX","2018/01/23 18:19:26","新北市土城區延壽路118-2號","121.469171666667","24.99406","6500300","中和區"
"235060","647-TV","2018/01/23 18:19:26","新北市中和區員山路172號","121.48134","24.99995","6500300","中和區"
"235047","732-UM","2018/01/23 18:19:35","新北市中和區復興路303號","121.501458333333","24.9902916666667","6500300","中和區"
"235046","733-UM","2018/01/23 18:19:30","新北市中和區員山路36巷13號","121.484121666667","24.9907716666667","6500300","中和區"
"235062","800-TS","2018/01/23 18:19:35","新北市中和區景平路999巷2號","121.495433333333","25.0060233333333","6500300","中和區"
"235057","801-TS","2018/01/23 18:19:39","新北市中和區連城路525-8號","121.480863333333","24.9949633333333","6500300","中和區"
"235041","802-TS","2018/01/23 18:19:37","新北市中和區錦和路350-1號","121.490385","24.9935566666667","6500300","中和區"
"235052","805-TS","2018/01/23 18:19:40","新北市中和區興南路二段133號","121.505255","24.98421","6500300","中和區"
"235048","896-TW","2018/01/23 18:19:25","新北市中和區錦和路350-1號","121.490228333333","24.9935583333333","6500300","中和區"
"235053","900-TW","2018/01/23 18:19:26","新北市中和區員山路36巷13號","121.484323333333","24.9906966666667","6500300","中和區"
"235051","157-BY","2018/01/23 18:19:36","新北市中和區忠孝街102號","121.512115","24.9846783333333","6500300","中和區"
"235037","AAC-213","2018/01/23 18:19:40","新北市中和區景德街26號","121.518451666667","24.991405","6500300","中和區"
"220086","073-UY","2018/01/23 18:19:34","新北市板橋區華東街1-10號","121.448645","24.99493","6500100","板橋區"
"226004","205-ST","2018/01/23 18:18:43","新北市平溪區薯榔里雙菁路94號","121.713951666667","25.0212116666667","6502400","平溪區"
"228001","212-TW","2018/01/23 18:19:25","新北市貢寮區真理里新港街26巷55弄2-1號","121.927391666667","25.0528416666667","6502600","貢寮區"
"228002","663-BX","2018/01/23 18:19:32","新北市貢寮區福連里馬崗街1號","121.9952","25.015275","6502600","貢寮區"
"228003","828-UM","2018/01/23 18:19:28","新北市貢寮區真理里美艷山街72號","121.91645","25.0744183333333","6502600","貢寮區"
"224006","676-BX","2018/01/23 18:19:43","新北市瑞芳區民權街3-2號","121.808096666667","25.1074116666667","6501200","瑞芳區"
"224002","639-TC","2018/01/23 18:19:29","新北市瑞芳區三爪子坑路115號","121.810603333333","25.1071066666667","6501200","瑞芳區"
"224009","285-BY","2018/01/23 18:19:43","新北市瑞芳區金光路250號","121.855271666667","25.1065166666667","6501200","瑞芳區"
"224008","275-VK","2018/01/23 18:19:42","新北市瑞芳區逢甲路38號","121.811365","25.10839","6501200","瑞芳區"
"224007","273-VK","2018/01/23 18:19:28","新北市瑞芳區大埔路55號","121.764538333333","25.1019016666667","6501200","瑞芳區"
"224005","271-BY","2018/01/23 18:19:35","新北市瑞芳區建基新村7-4號","121.812636666667","25.13124","6501200","瑞芳區"
"227009","642-TC","2018/01/23 18:19:29","新北市雙溪區牡丹里牡丹73號","121.851711666667","25.0593233333333","6502500","雙溪區"
"227003","400-TW","2018/01/23 18:19:24","新北市雙溪區共和里中山路2號","121.863803333333","25.0337783333333","6502500","雙溪區"
"253005","032-BX","2018/01/23 18:19:34","新北市石門區中央路4-2號","121.56551","25.2913416666667","6502200","石門區"
"253006","295-VK","2018/01/23 18:19:32","新北市石門區老梅路65號","121.54585","25.2892333333333","6502200","石門區"
"222001","KEA-2212","2018/01/23 18:19:31","新北市深坑區北深路二段58號","121.619028333333","25.00428","6501800","深坑區"
"208002","742-BX","2018/01/23 18:19:25","新北市金山區清泉里清水路60巷20號","121.635168333333","25.233105","6502700","金山區"
"208003","665-BX","2018/01/23 18:19:35","新北市金山區中山路69號","121.641083333333","25.2180183333333","6502700","金山區"
"208001","761-BX","2018/01/23 18:19:24","新北市金山區中山路16號","121.641553333333","25.2176966666667","6502700","金山區"
"251004","009-UM","2018/01/23 18:19:26","新北市淡水區民族路31巷31號","121.462385","25.1364883333333","6501000","淡水區"
"251005","010-UM","2018/01/23 18:19:36","新北市淡水區學府路73巷10號","121.447363333333","25.1703466666667","6501000","淡水區"
"251001","011-UM","2018/01/23 18:19:43","新北市淡水區自強路307巷1號","121.462018333333","25.1317483333333","6501000","淡水區"
"251013","179-VK","2018/01/23 18:19:38","新北市淡水區行忠路897號","121.479631666667","25.2001833333333","6501000","淡水區"
"251014","180-VK","2018/01/23 18:19:27","新北市淡水區崙頂13號","121.492163333333","25.2203766666667","6501000","淡水區"
"251008","181-VK","2018/01/23 18:19:37","新北市淡水區淡金路一段69號","121.458856666667","25.1729583333333","6501000","淡水區"
"251015","182-VK","2018/01/23 18:19:24","新北市淡水區興福寮88巷1號","121.485493333333","25.165065","6501000","淡水區"
"251010","413-VK","2018/01/23 18:19:31","新北市淡水區淡海路180巷12-3號","121.420413333333","25.1846266666667","6501000","淡水區"
"251012","441-VK","2018/01/23 18:19:42","新北市淡水區北新路二段77-5號","121.480565","25.1855316666667","6501000","淡水區"
"251016","442-VK","2018/01/23 18:19:41","新北市淡水區下圭柔山33號","121.450585","25.2048033333333","6501000","淡水區"
"251006","561-UM","2018/01/23 18:19:24","新北市淡水區新民街76巷30號","121.439128333333","25.1773666666667","6501000","淡水區"
"251009","575-R6","2018/01/23 18:19:31","新北市淡水區崁頂111-1號","121.433131666667","25.2042766666667","6501000","淡水區"
"251011","650-BX","2018/01/23 18:19:35","新北市淡水區坪頂路42號","121.457643333333","25.1623983333333","6501000","淡水區"
"251002","672-BX","2018/01/23 18:19:40","新北市淡水區中正東路一段77號","121.452853333333","25.1621366666667","6501000","淡水區"
"251003","766-UM","2018/01/23 18:19:40","新北市淡水區北新路169巷14號","121.449713333333","25.1801","6501000","淡水區"
"207004","291-VK","2018/01/23 18:19:30","新北市萬里區中幅里中福路131-4號","121.674498333333","25.1653","6502800","萬里區"
"207003","225-TW","2018/01/23 18:19:22","新北市萬里區野柳里港西路5號","121.685158333333","25.20325","6502800","萬里區"
"252002","178-VK","2018/01/23 18:19:25","新北市三芝區中山路二段35號","121.50283","25.255175","6502100","三芝區"
"252003","249-BX","2018/01/23 18:19:38","新北市三芝區錫板里南勢崗7號","121.479246666667","25.26194","6502100","三芝區"
"252001","292-VK","2018/01/23 18:19:23","新北市三芝區中興街二段2號","121.498376666667","25.2566783333333","6502100","三芝區"
"237004","078-UY","2018/01/23 18:19:28","新北市三峽區五寮89-2號","121.359396666667","24.8577333333333","6500900","三峽區"
"237007","153-BY","2018/01/23 18:19:35","新北市三峽區中正路二段586號","121.35927","24.90592","6500900","三峽區"
"237009","210-TH","2018/01/23 18:19:32","新北市三峽區仁愛街37號","121.368438333333","24.932975","6500900","三峽區"
"237013","252-BX","2018/01/23 18:19:23","新北市三峽區永安街37號","121.37648","24.93039","6500900","三峽區"
"237012","275-BY","2018/01/23 18:19:30","新北市三峽區民生街1巷3-7號","121.377136666667","24.9362733333333","6500900","三峽區"
"237008","302-VK","2018/01/23 18:19:36","新北市三峽區白雞55-1號","121.388046666667","24.91232","6500900","三峽區"
"237014","433-BY","2018/01/23 18:19:35","新北市三峽區復興路59號","121.373096666667","24.9372566666667","6500900","三峽區"
"237006","5529-G3","2018/01/23 18:19:29","新北市三峽區溪東路240號","121.408375","24.9316666666667","6500900","三峽區"
"237016","649-BX","2018/01/23 17:56:56","新北市三峽區白雞115-3號","121.401801666667","24.90746","6500900","三峽區"
"237010","706-TV","2018/01/23 18:19:24","新北市三峽區中山路147號","121.36492","24.9361983333333","6500900","三峽區"
"237005","AKY-6261","2018/01/23 18:19:20","新北市三峽區忠孝街33號","121.37102","24.9340033333333","6500900","三峽區"
"236070","105-UM","2018/01/23 18:19:24","新北市土城區明德路一段109號","121.465541666667","24.981855","6501300","土城區"
"236043","107-UM","2018/01/23 18:19:28","新北市土城區裕生路21巷1弄2號","121.44863","24.9872516666667","6501300","土城區"
"236079","166-UM","2018/01/23 18:19:32","新北市土城區中央路三段281巷23弄20號","121.426361666667","24.961465","6501300","土城區"
"236031","253-BX","2018/01/23 18:19:41","新北市土城區順風路27號","121.440426666667","24.9769033333333","6501300","土城區"
"236027","269-VK","2018/01/23 18:19:37","新北市土城區承天路36號","121.440096666667","24.962915","6501300","土城區"
"236015","270-VK","2018/01/23 18:19:25","新北市土城區青雲路39巷7號","121.460278333333","24.9874116666667","6501300","土城區"
"236038","271-VK","2018/01/23 18:19:41","新北市土城區青雲路451巷8弄12號","121.459481666667","24.9741466666667","6501300","土城區"
"236023","401-BY","2018/01/23 18:19:39","新北市土城區明德路二段8巷2號","121.452085","24.9804733333333","6501300","土城區"
"236059","912-UM","2018/01/23 18:19:23","新北市土城區中央路四段211號","121.41384","24.9558766666667","6501300","土城區"
"236049","913-UM","2018/01/23 18:19:37","新北市土城區明德路一段375-2號","121.454551666667","24.9782733333333","6501300","土城區"
"236063","915-UM","2018/01/23 18:19:21","新北市土城區金城路三段197號","121.47014","24.98901","6501300","土城區"
"236055","AAC-216","2018/01/23 18:19:28","新北市土城區中華路二段92號","121.438176666667","24.97475","6501300","土城區"
"242032","AAC-296","2018/01/23 18:19:34","新北市新莊區新泰路255巷3號","121.44583","25.0397566666667","6500500","新莊區"
"242029","986-R7","2018/01/23 18:19:26","新北市新莊區幸福路858號","121.443876666667","25.0489683333333","6500500","新莊區"
"242025","615-BX","2018/01/23 18:19:43","新北市新莊區五權一路12巷9弄6號","121.457401666667","25.0647483333333","6500500","新莊區"
"242027","612-BX","2018/01/23 18:19:24","新北市新莊區幸福路823號","121.445261666667","25.04896","6500500","新莊區"
"242044","442-UM","2018/01/23 18:19:39","新北市新莊區中山路三段656號","121.413336666667","25.0242566666667","6500500","新莊區"
"242054","440-UM","2018/01/23 18:19:35","新北市新莊區民安西路410巷12弄4號","121.427853333333","25.0090833333333","6500500","新莊區"
"242005","413-TV","2018/01/23 18:19:36","新北市新莊區新泰路500號","121.442481666667","25.0462366666667","6500500","新莊區"
"242042","400-BY","2018/01/23 18:19:39","新北市新莊區天祥街78號","121.415721666667","25.029385","6500500","新莊區"
"242061","362-BY","2018/01/23 18:19:23","新北市新莊區新樹路138-1號","121.435258333333","25.0234383333333","6500500","新莊區"
"242058","353-BY","2018/01/23 18:19:23","新北市新莊區中正路742-5號","121.413273333333","25.02274","6500500","新莊區"
"242007","132-UY","2018/01/23 18:19:39","新北市新莊區自強街69巷7號","121.454176666667","25.0473866666667","6500500","新莊區"
"242037","133-UY","2018/01/23 18:19:28","新北市新莊區後港一路49巷5弄2號","121.425621666667","25.0273083333333","6500500","新莊區"
"242021","135-UY","2018/01/23 18:19:39","新北市新莊區新興街1號","121.450678333333","25.036195","6500500","新莊區"
"242046","172-VK","2018/01/23 18:19:32","新北市新莊區中正路829巷57號","121.421471666667","25.0272783333333","6500500","新莊區"
"242009","173-VK","2018/01/23 18:19:43","新北市新莊區昌平街71巷12號","121.453923333333","25.0536866666667","6500500","新莊區"
"242015","175-VK","2018/01/23 18:19:28","新北市新莊區中平路132巷28號","121.44596","25.0467216666667","6500500","新莊區"
"242051","347-TH","2018/01/23 18:19:39","新北市新莊區民本街9號","121.427743333333","25.0198533333333","6500500","新莊區"
"242056","349-TH","2018/01/23 18:19:21","新北市新莊區新泰路3巷33號","121.449045","25.031945","6500500","新莊區"
"242011","351-TH","2018/01/23 18:19:26","新北市新莊區中港路615巷14號","121.450673333333","25.053345","6500500","新莊區"
"238023","601-UM","2018/01/23 18:19:28","新北市樹林區三福街85巷10號","121.407006666667","25.0155583333333","6500700","樹林區"
"238019","599-UM","2018/01/23 18:19:32","新北市樹林區國凱街108號","121.42213","24.97975","6500700","樹林區"
"238018","571-TV","2018/01/23 18:19:33","新北市樹林區保安街一段20巷2號","121.427655","24.9935083333333","6500700","樹林區"
"238024","5061-A6","2018/01/23 18:19:35","新北市樹林區中山路一段135-6號","121.422695","24.9895666666667","6500700","樹林區"
"238021","KEA-2217","2018/01/23 18:19:34","新北市樹林區柑園街二段149巷1號","121.382306666667","24.9538733333333","6500700","樹林區"
"238022","KEA-2213","2018/01/23 18:19:30","新北市樹林區福順街75-1號","121.41615","24.97801","6500700","樹林區"
"238025","303-VK","2018/01/23 18:19:30","新北市樹林區保安街一段195號","121.421026666667","24.9959466666667","6500700","樹林區"
"238017","283-BY","2018/01/23 18:19:31","新北市樹林區保安街二段333巷2號","121.412443333333","25.0076283333333","6500700","樹林區"
"238014","282-BY","2018/01/23 18:19:23","新北市樹林區中正路103號","121.42525","25.0008166666667","6500700","樹林區"
"238020","268-VK","2018/01/23 18:19:30","新北市樹林區三龍街94巷5號","121.414455","25.0182416666667","6500700","樹林區"
"238026","172-UY","2018/01/23 18:19:31","新北市樹林區佳園路一段75巷11弄3號","121.394711666667","24.9700783333333","6500700","樹林區"
"238016","169-UY","2018/01/23 18:19:22","新北市樹林區文化街23號","121.419261666667","24.9876583333333","6500700","樹林區"
"239007","AAC-297","2018/01/23 18:19:28","新北市鶯歌區尖山埔路3號","121.34941","24.9510816666667","6500800","鶯歌區"
"239006","891-R6","2018/01/23 18:19:33","新北市鶯歌區鶯桃路365巷106號","121.330596666667","24.9620216666667","6500800","鶯歌區"
"239008","527-UM","2018/01/23 18:19:38","新北市鶯歌區朝陽街2號","121.336223333333","24.9765733333333","6500800","鶯歌區"
"239005","526-UM","2018/01/23 18:19:38","桃園市八德區桃鶯路106號","121.328013333333","24.9701283333333","6500800","鶯歌區"
"239001","417-VK","2018/01/23 18:19:42","新北市鶯歌區國中街197號","121.338198333333","24.9391633333333","6500800","鶯歌區"
"239003","360-BY","2018/01/23 18:19:42","新北市鶯歌區福安街58號","121.335638333333","24.965205","6500800","鶯歌區"
"239002","359-BY","2018/01/23 18:19:25","新北市鶯歌區國慶街182號","121.3513","24.952745","6500800","鶯歌區"
"239004","193-VK","2018/01/23 18:19:31","新北市鶯歌區尖山路191巷49號","121.344723333333","24.946375","6500800","鶯歌區"
"221036","130-UY","2018/01/23 18:19:33","新北市汐止區長安路62-1號","121.668926666667","25.07839","6501100","汐止區"
"221010","269-BY","2018/01/23 18:19:26","新北市汐止區祥雲街33號","121.646821666667","25.0900566666667","6501100","汐止區"
"221012","278-VK","2018/01/23 18:19:25","新北市汐止區保長路35巷15弄2號","121.673346666667","25.080125","6501100","汐止區"
"221023","279-VK","2018/01/23 18:19:42","新北市汐止區康寧街474巷7-2號","121.632326666667","25.067935","6501100","汐止區"
"221032","280-BY","2018/01/23 18:19:41","新北市汐止區民權街二段97巷4弄9號","121.618818333333","25.0471","6501100","汐止區"
"221027","281-BY","2018/01/23 18:19:23","新北市汐止區和平街6巷8-1號","121.663588333333","25.0717133333333","6501100","汐止區"
"221029","298-VK","2018/01/23 18:19:27","新北市汐止區樟樹二路330巷72-1號","121.642995","25.0699716666667","6501100","汐止區"
"221021","299-VK","2018/01/23 18:19:33","新北市汐止區連興街114號","121.653708333333","25.0627833333333","6501100","汐止區"
"221031","353-TW","2018/01/23 18:19:29","新北市汐止區中興路152-3號","121.632323333333","25.0648816666667","6501100","汐止區"
"221008","358-BY","2018/01/23 18:19:22","新北市汐止區連峰街1巷1號","121.646818333333","25.0760816666667","6501100","汐止區"
"221015","567-BX","2018/01/23 18:19:37","新北市汐止區鄉長路二段23巷19號","121.668018333333","25.0828316666667","6501100","汐止區"
"221035","622-UM","2018/01/23 18:19:37","新北市汐止區大同路二段187巷6弄1號","121.652463333333","25.0654233333333","6501100","汐止區"
"221025","623-UM","2018/01/23 18:19:23","新北市汐止區勤進路12巷42號","121.659066666667","25.0628366666667","6501100","汐止區"
"221038","646-BX","2018/01/23 18:19:26","新北市汐止區仁愛路202號","121.664943333333","25.065825","6501100","汐止區"
"221033","647-BX","2018/01/23 18:19:35","新北市汐止區宜興街59巷33號","121.62165","25.04273","6501100","汐止區"
"221002","707-TV","2018/01/23 18:19:38","新北市汐止區福德一路201巷31號","121.635748333333","25.0646383333333","6501100","汐止區"
"221018","753-BX","2018/01/23 18:19:31","新北市汐止區茄苳路118號","121.667901666667","25.0704883333333","6501100","汐止區"
"220082","610-BX","2018/01/23 18:13:13","新北市板橋區華東街1-10號","121.448306666667","24.9949333333333","6500100","板橋區"
"220064","282-UM","2018/01/23 18:19:28","新北市板橋區南雅南路二段120-12號","121.452035","24.9994183333333","6500100","板橋區"
