"lineid","car","time","location","longitude","latitude","cityid","cityname"
"248010","272-BY","2018/01/23 20:59:34","新北市八里區中山路三段409號","121.36842","25.1349883333333","6501500","五股區"
"222002","659-BX","2018/01/23 20:59:37","新北市深坑區北深路三段93巷11號","121.60545","25.0011033333333","6501800","深坑區"
"231059","046-UY","2018/01/23 20:59:42","新北市新店區僑信路92號","121.499868333333","24.947785","6500600","新店區"
"231061","047-UY","2018/01/23 20:59:43","新北市新店區永安街60號","121.518861666667","24.9868916666667","6500600","新店區"
"231060","106-UY","2018/01/23 20:59:40","新北市新店區安康路三段517號","121.48232","24.948325","6500600","新店區"
"231051","107-UY","2018/01/23 20:59:46","新北市新店區民生路156巷73號","121.527571666667","24.98184","6500600","新店區"
"231048","108-UY","2018/01/23 20:59:34","新北市新店區文化路88號","121.544883333333","24.9824766666667","6500600","新店區"
"231053","188-VK","2018/01/23 20:59:53","新北市新店區北宜路一段222號","121.54392","24.953225","6500600","新店區"
"231050","KEA-2219","2018/01/23 20:59:52","新北市新店區三民路75巷6號","121.535433333333","24.970925","6500600","新店區"
"231054","AAD-862","2018/01/23 20:59:54","新北市新店區大新街4號","121.543565","24.96943","6500600","新店區"
"231067","4772-VM","2018/01/23 20:59:47","新北市新店區安康路二段269號","121.504566666667","24.957155","6500600","新店區"
"231065","512-UM","2018/01/23 20:59:46","新北市新店區安祥路67巷28弄2號","121.484808333333","24.959505","6500600","新店區"
"231064","515-UM","2018/01/23 20:59:51","新北市新店區安民街251巷7號","121.516666666667","24.9727983333333","6500600","新店區"
"231042","616-UM","2018/01/23 20:59:43","新北市新店區寶興路60巷4號","121.549795","24.9718516666667","6500600","新店區"
"231040","619-UM","2018/01/23 20:59:41","新北市新店區北新路一段351號","121.542016666667","24.9694533333333","6500600","新店區"
"231063","645-TV","2018/01/23 20:59:42","新北市新店區玫瑰路28號","121.49522","24.9501933333333","6500600","新店區"
"231068","718-UY","2018/01/23 20:59:47","新北市新店區寶元路二段31巷2號","121.546736666667","24.98172","6500600","新店區"
"231062","720-UM","2018/01/23 20:59:41","新北市新店區雙城路45巷1號","121.492378333333","24.9483","6500600","新店區"
"231043","899-TW","2018/01/23 20:59:46","新北市新店區中正路423號","121.534203333333","24.97787","6500600","新店區"
"231066","AKT-0513","2018/01/23 20:59:51","新北市新店區吉安街30號","121.516148333333","24.9660233333333","6500600","新店區"
"241011","013-R5","2018/01/23 20:59:52","新北市三重區秀江街119號","121.499721666667","25.0721883333333","6500200","三重區"
"241028","022-UY","2018/01/23 20:59:51","新北市三重區重新路三段82號","121.493076666667","25.0609583333333","6500200","三重區"
"241008","059-VK","2018/01/23 20:59:41","新北市三重區力行路二段162巷3號","121.482713333333","25.0765983333333","6500200","三重區"
"241031","061-VK","2018/01/23 20:59:36","新北市三重區重陽路一段113巷2弄2號","121.48753","25.0599133333333","6500200","三重區"
"241015","062-VK","2018/01/23 20:59:50","新北市三重區福德北路63號","121.502145","25.0655483333333","6500200","三重區"
"241017","063-VK","2018/01/23 20:59:33","新北市三重區國隆路30-1號","121.49216","25.0645283333333","6500200","三重區"
"241024","065-VK","2018/01/23 20:59:46","新北市三重區國道路一段58巷20號","121.481228333333","25.0720766666667","6500200","三重區"
"241002","090-VK","2018/01/23 20:59:53","新北市三重區五華街1巷42號","121.496363333333","25.0801266666667","6500200","三重區"
"241003","091-VK","2018/01/23 20:59:48","新北市三重區五華街141巷58號","121.493561666667","25.08677","6500200","三重區"
"241020","156-TC","2018/01/23 20:59:50","新北市三重區忠孝路二段35號","121.485895","25.0711033333333","6500200","三重區"
"241005","262-UM","2018/01/23 20:59:40","新北市三重區三信路5號","121.488595","25.0864816666667","6500200","三重區"
"241009","265-UM","2018/01/23 20:59:52","新北市三重區三和路四段197號","121.482268333333","25.0791633333333","6500200","三重區"
"241016","266-UM","2018/01/23 20:59:47","新北市三重區信義西街118號","121.495685","25.0642066666667","6500200","三重區"
"241022","267-UM","2018/01/23 20:59:45","新北市三重區重陽路二段19巷17號","121.488125","25.0623516666667","6500200","三重區"
"241018","268-UM","2018/01/23 20:59:38","新北市三重區自強路一段157號","121.493318333333","25.06717","6500200","三重區"
"241032","269-UM","2018/01/23 20:59:50","新北市三重區興華街122號","121.483385","25.0597283333333","6500200","三重區"
"241013","270-UM","2018/01/23 20:59:52","新北市三重區仁賢街6號","121.495701666667","25.0747766666667","6500200","三重區"
"241025","271-UM","2018/01/23 20:59:48","新北市三重區貴陽街14號","121.484203333333","25.0618633333333","6500200","三重區"
"241007","398-BY","2018/01/23 20:59:36","新北市三重區三和路四段155巷33號","121.484881666667","25.0786316666667","6500200","三重區"
"241004","475-VK","2018/01/23 20:59:46","新北市三重區仁愛街423-1號","121.490396666667","25.08144","6500200","三重區"
"241019","478-VK","2018/01/23 20:59:51","新北市三重區三張街104號","121.487923333333","25.0699166666667","6500200","三重區"
"241030","480-VK","2018/01/23 20:59:45","新北市三重區環河南路220-8號","121.493371666667","25.0527016666667","6500200","三重區"
"241014","543-UM","2018/01/23 20:59:39","新北市三重區長榮路75號","121.50268","25.0690316666667","6500200","三重區"
"241023","545-UM","2018/01/23 20:59:37","新北市三重區忠孝路三段50巷41弄64號","121.482401666667","25.063755","6500200","三重區"
"241001","547-UM","2018/01/23 20:59:36","新北市三重區自強路三段87巷20號","121.488463333333","25.0750483333333","6500200","三重區"
"241033","557-UM","2018/01/23 20:59:50","新北市三重區光復路二段19號","121.472275","25.05433","6500200","三重區"
"241006","AAD-863","2018/01/23 20:59:48","新北市三重區永福街50號","121.481735","25.078105","6500200","三重區"
"241026","887-TS","2018/01/23 20:59:47","新北市三重區文化南路45號","121.500225","25.06141","6500200","三重區"
"241012","941-UM","2018/01/23 20:59:34","新北市三重區仁信街27號","121.501313333333","25.07555","6500200","三重區"
"241029","942-UM","2018/01/23 20:59:40","新北市三重區大同南路119號","121.49625","25.0582516666667","6500200","三重區"
"247022","893-R6","2018/01/23 20:59:37","新北市蘆洲區中正路263巷2號","121.467388333333","25.0874083333333","6501400","蘆洲區"
"247012","546-UM","2018/01/23 20:59:55","新北市蘆洲區民權路6-1號","121.476855","25.085745","6501400","蘆洲區"
"247020","500-BY","2018/01/23 20:59:47","新北市蘆洲區民族路371號","121.471076666667","25.091235","6501400","蘆洲區"
"247008","341-TH","2018/01/23 20:59:42","新北市蘆洲區民生街74號","121.472811666667","25.07911","6501400","蘆洲區"
"247010","339-TH","2018/01/23 20:59:51","新北市蘆洲區鷺江街82號","121.47726","25.0839216666667","6501400","蘆洲區"
"247002","337-TH","2018/01/23 20:59:55","新北市蘆洲區永樂街38巷69號","121.458626666667","25.0905516666667","6501400","蘆洲區"
"247004","336-TH","2018/01/23 20:59:49","新北市蘆洲區永安南路二段268號","121.458625","25.08072","6501400","蘆洲區"
"247016","057-VK","2018/01/23 20:59:40","新北市蘆洲區正和街63巷1號","121.468958333333","25.08098","6501400","蘆洲區"
"247006","056-VK","2018/01/23 20:59:48","新北市蘆洲區永安南路二段16巷12號","121.468036666667","25.0774566666667","6501400","蘆洲區"
"247014","007-UY","2018/01/23 20:59:56","新北市蘆洲區中山二路36巷13號","121.4743","25.08283","6501400","蘆洲區"
"247024","002-UY","2018/01/23 20:59:55","新北市蘆洲區長興路198號","121.460885","25.0869533333333","6501400","蘆洲區"
"247018","001-UY","2018/01/23 20:59:47","新北市蘆洲區民權路144號","121.472761666667","25.0892466666667","6501400","蘆洲區"
"222001","KEA-2212","2018/01/23 20:59:50","新北市深坑區北深路三段25巷15-1號","121.608696666667","25.0001066666667","6501800","深坑區"
"251005","010-UM","2018/01/23 20:59:36","新北市淡水區學府路88號","121.448913333333","25.1706383333333","6501000","淡水區"
"251001","011-UM","2018/01/23 20:59:43","新北市淡水區淡金路二段147號","121.44956","25.1828866666667","6501000","淡水區"
"251013","179-VK","2018/01/23 20:59:47","新北市淡水區水汴頭12號","121.46983","25.20356","6501000","淡水區"
"251014","180-VK","2018/01/23 20:59:47","新北市淡水區淡金路五段79號","121.45486","25.2339233333333","6501000","淡水區"
"251015","182-VK","2018/01/23 20:59:43","新北市淡水區淡金路四段542巷17號","121.45269","25.2270916666667","6501000","淡水區"
"251010","413-VK","2018/01/23 20:59:51","新北市淡水區中正路一段116-3號","121.423933333333","25.1787233333333","6501000","淡水區"
"251012","441-VK","2018/01/23 20:59:42","新北市淡水區淡金路五段72號","121.454598333333","25.2335333333333","6501000","淡水區"
"251016","442-VK","2018/01/23 20:59:41","新北市淡水區牛埔子11-1號","121.450136666667","25.2184433333333","6501000","淡水區"
"251007","577-R6","2018/01/23 20:59:52","新北市淡水區仁愛街2巷10號","121.44628","25.1707283333333","6501000","淡水區"
"251011","650-BX","2018/01/23 20:59:40","新北市淡水區新民街226巷1號","121.436266666667","25.1807433333333","6501000","淡水區"
"251002","672-BX","2018/01/23 20:59:40","新北市淡水區水源街一段110號","121.446796666667","25.1718933333333","6501000","淡水區"
"251003","766-UM","2018/01/23 20:59:40","新北市淡水區新春街125巷5號","121.441445","25.1823166666667","6501000","淡水區"
"242037","133-UY","2018/01/23 20:59:47","新北市新莊區瓊林路108號","121.442243333333","25.0264066666667","6500500","新莊區"
"221029","298-VK","2018/01/23 20:59:47","新北市汐止區康寧街901號","121.6517","25.0749566666667","6501100","汐止區"
"220080","200-UY","2018/01/23 20:55:10","新北市林口區太平里180號","121.368148333333","25.1346933333333","6500100","板橋區"
"220070","AAC-253","2018/01/23 20:59:38","新北市八里區中山路三段409號","121.36872","25.13455","6500100","板橋區"
