"lineid","car","time","location","longitude","latitude","cityid","cityname"
"234012","KEA-2591","2018/01/23 21:46:53","新北市永和區福和路1號","121.526125","25.0093716666667","6500400","永和區"
"235010","733-UM","2018/01/23 21:43:55","新北市中和區員山路36巷13號","121.484158333333","24.99084","6500300","中和區"
"247008","341-TH","2018/01/23 21:59:41","新北市八里區中山路三段383號","121.372236666667","25.1375683333333","6501400","蘆洲區"
"251004","009-UM","2018/01/23 21:59:57","新北市淡水區民族路33號","121.46227","25.135865","6501000","淡水區"
"251005","010-UM","2018/01/23 21:59:36","新北市淡水區鄧公路30巷2弄53號","121.454031666667","25.1692566666667","6501000","淡水區"
"251014","180-VK","2018/01/23 21:59:47","新北市淡水區下圭柔山90-8號","121.431466666667","25.2117","6501000","淡水區"
"251008","181-VK","2018/01/23 21:59:37","新北市淡水區學府路104號","121.449876666667","25.1717783333333","6501000","淡水區"
"251010","413-VK","2018/01/23 21:59:51","新北市淡水區中正路二段206號","121.426215","25.18906","6501000","淡水區"
"251006","561-UM","2018/01/23 21:59:44","新北市淡水區中正路11巷3號","121.437826666667","25.1707716666667","6501000","淡水區"
"251007","577-R6","2018/01/23 21:59:52","新北市淡水區北新路184巷62號","121.451005","25.1775166666667","6501000","淡水區"
"251011","650-BX","2018/01/23 21:59:40","新北市淡水區水碓街7號","121.443185","25.1772116666667","6501000","淡水區"
"251003","766-UM","2018/01/23 21:59:40","新北市淡水區新春街96號","121.43901","25.1825283333333","6501000","淡水區"
