"lineid","car","time","location","longitude","latitude","cityid","cityname"
"247003","336-TH","2018/01/23 22:29:09","新北市五股區中興路三段163號","121.44919","25.0809266666667","6501400","蘆洲區"
"251004","009-UM","2018/01/23 22:29:16","新北市淡水區民族路72號","121.462226666667","25.13565","6501000","淡水區"
"251008","181-VK","2018/01/23 22:29:16","新北市淡水區學府路104號","121.449835","25.171765","6501000","淡水區"
"251010","413-VK","2018/01/23 22:29:11","新北市淡水區沙崙路200號","121.424726666667","25.1839533333333","6501000","淡水區"
"251007","577-R6","2018/01/23 22:29:12","新北市淡水區北新路137號","121.449373333333","25.178905","6501000","淡水區"
"251011","650-BX","2018/01/23 22:29:20","新北市淡水區水碓街7號","121.443185","25.17718","6501000","淡水區"
