"lineid","car","time","location","longitude","latitude","cityid","cityname"
"248005","653-BX","2018/06/25 07:29:36","新北市五股區明德路12巷6號","121.433433333333","25.071835","6501500","五股區"
"232012","076-UY","2018/06/25 07:29:52","新北市坪林區仁里13號","121.686558333333","24.9288966666667","6502000","坪林區"
"232001","290-BY","2018/06/25 07:29:43","新北市坪林區上坑子口9-1號","121.701081666667","24.9623833333333","6502000","坪林區"
"232017","705-BZ","2018/06/25 07:29:41","新北市坪林區樟空子4號","121.726755","24.9679816666667","6502000","坪林區"
"232005","758-BX","2018/06/25 07:29:49","新北市坪林區魚堀44-3號","121.701485","24.933055","6502000","坪林區"
"244001","248-BX","2018/06/25 07:29:43","新北市林口區頂福里73號","121.34208","25.0936866666667","6501700","林口區"
"235001","611-BX","2018/06/25 07:29:40","新北市中和區圓通路367巷4號","121.491358333333","24.9892516666667","6500300","中和區"
"226005","5620-A6","2018/06/25 07:29:38","新北市平溪區靜安路二段119號","121.721003333333","25.0239716666667","6502400","平溪區"
"226001","7418-A5","2018/06/25 07:19:47","新北市平溪區望古里灰4-2號","121.76317","25.0295316666667","6502400","平溪區"
"226003","AGD-0702","2018/06/25 07:29:40","新北市平溪區嶺腳里嶺腳寮94號","121.746131666667","25.0379433333333","6502400","平溪區"
"223006","022-BY","2018/06/25 07:29:49","新北市石碇區番子坑25-1號","121.677425","25.0030733333333","6501900","石碇區"
"223002","KEA-2673","2018/06/25 07:29:35","新北市石碇區北宜路五段竹坑巷23號","121.625616666667","24.9388233333333","6501900","石碇區"
"223003","205-TH","2018/06/25 07:29:54","新北市石碇區中楒子腳2-5號","121.637583333333","24.972535","6501900","石碇區"
"223008","406-TH","2018/06/25 07:29:52","新北市石碇區番子坑36號","121.678005","25.0100266666667","6501900","石碇區"
"223001","592-UM","2018/06/25 07:29:40","新北市石碇區中楒子腳2-5號","121.637675","24.9724716666667","6501900","石碇區"
"223004","660-BX","2018/06/25 07:29:44","新北市石碇區八分寮55-5號","121.645206666667","25.0169616666667","6501900","石碇區"
"223007","661-BX","2018/06/25 07:29:45","新北市石碇區靜安路一段318號","121.693868333333","25.00687","6501900","石碇區"
"223005","677-TV","2018/06/25 07:29:42","新北市石碇區八分寮35-1號","121.644891666667","25.0157883333333","6501900","石碇區"
"227005","282-VK","2018/06/25 07:29:35","新北市雙溪區新基里自強路13號","121.865498333333","25.0393","6502500","雙溪區"
"252006","073-UM","2018/06/25 07:29:53","新北市三芝區古庄里古庄110號","121.49599","25.26201","6502100","三芝區"
"252004","249-BX","2018/06/25 07:29:54","新北市三芝區興華里楓子林50-2號","121.50202","25.2104466666667","6502100","三芝區"
"237001","159-UY","2018/06/25 07:29:40","新北市三峽區國慶路136號","121.375853333333","24.93964","6500900","三峽區"
"236007","165-UM","2018/06/25 07:29:56","新北市土城區中華路一段41-1號","121.445913333333","24.9886083333333","6501300","土城區"
"236001","339-SR","2018/06/25 07:29:47","新北市土城區忠義路127-5號","121.44516","24.96232","6501300","土城區"
"242057","986-R7","2018/06/25 07:29:44","新北市新莊區新泰路357巷3弄57號","121.442158333333","25.0393816666667","6500500","新莊區"
"242052","751-BX","2018/06/25 07:29:36","新北市新莊區新泰路357巷3弄57號","121.442093333333","25.0392633333333","6500500","新莊區"
"242022","705-TV","2018/06/25 07:29:41","新北市新莊區三和路12-12號","121.442158333333","25.0371","6500500","新莊區"
"242026","615-BX","2018/06/25 07:29:42","新北市新莊區三和路12-21號","121.44206","25.0386416666667","6500500","新莊區"
"242024","613-BX","2018/06/25 07:29:42","新北市新莊區新泰路357巷3弄57號","121.442293333333","25.039375","6500500","新莊區"
"242028","612-BX","2018/06/25 07:29:46","新北市新莊區新泰路357巷3弄57號","121.442186666667","25.039205","6500500","新莊區"
"242040","566-BX","2018/06/25 07:29:50","新北市新莊區新泰路357巷3弄57號","121.442146666667","25.0392083333333","6500500","新莊區"
"242049","441-UM","2018/06/25 07:29:41","新北市新莊區三和路12-21號","121.442111666667","25.0383516666667","6500500","新莊區"
"242035","415-TV","2018/06/25 07:29:50","新北市新莊區新泰路357巷3弄57號","121.442153333333","25.0392666666667","6500500","新莊區"
"242043","400-BY","2018/06/25 07:29:44","新北市新莊區新泰路357巷3弄57號","121.442193333333","25.0395916666667","6500500","新莊區"
"242038","133-UY","2018/06/25 07:29:43","新北市新莊區新泰路255巷83號","121.442061666667","25.0388816666667","6500500","新莊區"
"242055","175-VK","2018/06/25 07:29:51","新北市新莊區三和路12-21號","121.442075","25.0387016666667","6500500","新莊區"
"242003","176-VK","2018/06/25 07:29:36","新北市新莊區新泰路255巷83號","121.442031666667","25.0388816666667","6500500","新莊區"
"242014","346-TH","2018/06/25 07:18:19","新北市新莊區三和路12-13號","121.442181666667","25.0371783333333","6500500","新莊區"
"242020","348-TH","2018/06/25 07:26:01","新北市新莊區新泰路357巷3弄57號","121.441763333333","25.0394783333333","6500500","新莊區"
"242001","349-TH","2018/06/25 07:29:45","新北市新莊區三和路12-17號","121.44204","25.03751","6500500","新莊區"
"242012","351-TH","2018/06/25 07:29:39","新北市新莊區新泰路357巷3弄57號","121.442088333333","25.03957","6500500","新莊區"
"242030","280-VK","2018/06/25 07:29:36","新北市新莊區三和路12-21號","121.442105","25.03831","6500500","新莊區"
