"lineid","car","time","location","longitude","latitude","cityid","cityname"
"248005","653-BX","2018/06/25 07:39:36","新北市五股區明德路12巷6號","121.433408333333","25.07182","6501500","五股區"
"232012","076-UY","2018/06/25 07:39:55","新北市坪林區金瓜寮11號","121.681603333333","24.9161933333333","6502000","坪林區"
"232001","290-BY","2018/06/25 07:39:43","新北市坪林區上坑子口4號","121.69651","24.9590433333333","6502000","坪林區"
"232017","705-BZ","2018/06/25 07:39:41","新北市坪林區乾溪1-7號","121.735553333333","24.9753316666667","6502000","坪林區"
"232005","758-BX","2018/06/25 07:39:49","新北市坪林區魚堀33-7號","121.696448333333","24.9245283333333","6502000","坪林區"
"244001","248-BX","2018/06/25 07:39:03","新北市林口區頂福里79號","121.335166666667","25.095815","6501700","林口區"
"231007","189-VK","2018/06/25 07:39:40","新北市新店區安一路一段1-1號","121.519701666667","24.9611866666667","6500600","新店區"
"231008","192-VK","2018/06/25 07:39:55","新北市新店區安一路一段1-1號","121.519198333333","24.9613766666667","6500600","新店區"
"235001","611-BX","2018/06/25 07:39:40","新北市中和區圓通路367巷6號","121.491573333333","24.9893966666667","6500300","中和區"
"226005","5620-A6","2018/06/25 07:39:38","新北市平溪區靜安路二段292號","121.731156666667","25.0225316666667","6502400","平溪區"
"226001","7418-A5","2018/06/25 07:39:27","新北市平溪區平湖里大厝1號","121.77927","25.03733","6502400","平溪區"
"226003","AGD-0702","2018/06/25 07:38:20","新北市平溪區嶺腳里嶺腳寮83-2號","121.751023333333","25.0353533333333","6502400","平溪區"
"223006","022-BY","2018/06/25 07:39:49","新北市石碇區石碇子埔93-2號","121.675568333333","25.0047416666667","6501900","石碇區"
"223002","KEA-2673","2018/06/25 07:39:54","新北市石碇區北宜路五段大湖巷6-1號","121.632973333333","24.9424783333333","6501900","石碇區"
"223003","205-TH","2018/06/25 07:39:54","新北市石碇區中楒子腳2-5號","121.637676666667","24.9725216666667","6501900","石碇區"
"223008","406-TH","2018/06/25 07:36:39","新北市石碇區靜安路一段337號","121.698701666667","25.0146366666667","6501900","石碇區"
"223001","592-UM","2018/06/25 07:39:40","新北市石碇區烏塗窟28號","121.655548333333","24.9744383333333","6501900","石碇區"
"223004","660-BX","2018/06/25 07:39:44","新北市石碇區八分寮35-1號","121.644961666667","25.014695","6501900","石碇區"
"223007","661-BX","2018/06/25 07:39:45","新北市石碇區大湖格21-6號","121.69835","25.01682","6501900","石碇區"
"223005","677-TV","2018/06/25 07:39:42","新北市石碇區八分寮47-1號","121.642501666667","25.0138866666667","6501900","石碇區"
"227005","282-VK","2018/06/25 07:39:35","新北市雙溪區雙溪里太平路54號","121.864803333333","25.0355283333333","6502500","雙溪區"
"252006","073-UM","2018/06/25 07:39:53","新北市三芝區古庄里茂興店63-2號","121.489645","25.2664033333333","6502100","三芝區"
"252004","249-BX","2018/06/25 07:39:34","新北市三芝區店子里菜公坑99-3號","121.512655","25.2058683333333","6502100","三芝區"
"237001","159-UY","2018/06/25 07:39:40","新北市三峽區國慶路144號","121.375568333333","24.9397966666667","6500900","三峽區"
"236007","165-UM","2018/06/25 07:39:35","新北市土城區廣興街18號","121.456441666667","24.9917166666667","6501300","土城區"
"236001","339-SR","2018/06/25 07:39:47","新北市土城區南天母路139-1號","121.44789","24.9536166666667","6501300","土城區"
"242057","986-R7","2018/06/25 07:39:44","新北市新莊區新泰路255巷83號","121.442188333333","25.0390516666667","6500500","新莊區"
"242052","751-BX","2018/06/25 07:39:36","新北市新莊區新泰路357巷3弄15號","121.44203","25.040865","6500500","新莊區"
"242022","705-TV","2018/06/25 07:39:41","新北市新莊區新泰路500號","121.442393333333","25.0460866666667","6500500","新莊區"
"242026","615-BX","2018/06/25 07:39:42","新北市新莊區三和路12-21號","121.442115","25.038695","6500500","新莊區"
"242024","613-BX","2018/06/25 07:36:42","新北市新莊區新泰路357巷3弄57號","121.44216","25.039165","6500500","新莊區"
"242028","612-BX","2018/06/25 07:39:46","新北市新莊區新泰路357巷3弄57號","121.442196666667","25.0392833333333","6500500","新莊區"
"242040","566-BX","2018/06/25 07:39:50","新北市新莊區新泰路255巷83號","121.442126666667","25.0390166666667","6500500","新莊區"
"242045","497-BY","2018/06/25 07:39:42","新北市新莊區新泰路357巷3弄57號","121.442253333333","25.0396583333333","6500500","新莊區"
"242049","441-UM","2018/06/25 07:39:41","新北市新莊區中正路461號","121.442048333333","25.0341216666667","6500500","新莊區"
"242035","415-TV","2018/06/25 07:39:50","新北市新莊區新泰路357巷3弄57號","121.442015","25.0392233333333","6500500","新莊區"
"242043","400-BY","2018/06/25 07:39:44","新北市新莊區中正路496號","121.43612","25.0328766666667","6500500","新莊區"
"242059","353-BY","2018/06/25 07:39:45","新北市新莊區新泰路255巷83號","121.442173333333","25.0387516666667","6500500","新莊區"
"242008","132-UY","2018/06/25 07:39:39","新北市新莊區三和路18-21號","121.441681666667","25.0387616666667","6500500","新莊區"
"242038","133-UY","2018/06/25 07:39:43","新北市新莊區新泰路357巷3弄57號","121.442283333333","25.0397766666667","6500500","新莊區"
"242047","172-VK","2018/06/25 07:39:41","新北市新莊區中正路565號","121.434856666667","25.032695","6500500","新莊區"
"242055","175-VK","2018/06/25 07:39:51","新北市新莊區三和路12-21號","121.442061666667","25.03869","6500500","新莊區"
"242003","176-VK","2018/06/25 07:39:56","新北市新莊區三和路12-21號","121.442011666667","25.0386366666667","6500500","新莊區"
"242014","346-TH","2018/06/25 07:18:19","新北市新莊區三和路12-13號","121.442181666667","25.0371783333333","6500500","新莊區"
"242020","348-TH","2018/06/25 07:39:42","新北市新莊區三和路12-13號","121.442051666667","25.0371333333333","6500500","新莊區"
"242001","349-TH","2018/06/25 07:39:45","新北市新莊區三和路12-16號","121.442043333333","25.037435","6500500","新莊區"
"242012","351-TH","2018/06/25 07:39:39","新北市新莊區新泰路357巷3弄57號","121.442065","25.0395133333333","6500500","新莊區"
"242006","281-VK","2018/06/25 07:39:45","新北市新莊區三和路12-18號","121.442088333333","25.0376533333333","6500500","新莊區"
"242030","280-VK","2018/06/25 07:39:56","新北市新莊區三和路12-21號","121.441848333333","25.038275","6500500","新莊區"
