"lineid","car","time","location","longitude","latitude","cityid","cityname"
"248005","653-BX","2018/10/05 08:31:13","新北市五股區明德路10號","121.433358333333","25.0717666666667","6501500","五股區"
"222005","289-BY","2018/10/05 08:39:01","新北市深坑區深南路100號","121.622021666667","25.0120616666667","6501800","深坑區"
"231007","189-VK","2018/10/05 08:38:49","新北市新店區小坑二路17號","121.52803","24.914675","6500600","新店區"
"231009","192-VK","2018/10/05 08:39:01","新北市新店區新烏路三段165巷64號","121.55382","24.9015116666667","6500600","新店區"
"235001","611-BX","2018/10/05 08:38:56","新北市中和區民利街14巷5弄20號","121.479783333333","24.9993566666667","6500300","中和區"
"226005","5620-A6","2018/10/05 08:38:56","新北市平溪區南山里乾坑2-5號","121.78697","25.0454833333333","6502400","平溪區"
"226001","7418-A5","2018/10/05 08:38:47","新北市平溪區東勢里火燒寮36-1號","121.768446666667","24.9866266666667","6502400","平溪區"
"226006","AGD-0702","2018/10/05 08:39:01","新北市平溪區十分里十分街238號","121.778146666667","25.044165","6502400","平溪區"
"223006","022-BY","2018/10/05 08:38:57","新北市石碇區靜安路一段108號","121.649426666667","25.0090016666667","6501900","石碇區"
"223003","205-TH","2018/10/05 08:38:49","新北市石碇區北宜路六段水底寮巷7號","121.664128333333","24.9494216666667","6501900","石碇區"
"223008","406-TH","2018/10/05 08:39:03","新北市石碇區碇南路二段松柏崎巷53號","121.678935","25.0259216666667","6501900","石碇區"
"223004","437-BY","2018/10/05 08:38:47","新北市石碇區崩山47-3號","121.678613333333","24.969885","6501900","石碇區"
"223001","592-UM","2018/10/05 08:38:57","新北市石碇區北宜路六段水底寮巷10號","121.664728333333","24.9475933333333","6501900","石碇區"
"223007","661-BX","2018/10/05 08:38:48","新北市石碇區碇南路二段鹿窟巷2號","121.67454","25.0302516666667","6501900","石碇區"
"223005","677-TV","2018/10/05 08:39:03","新北市石碇區崩山43號","121.67928","24.9667316666667","6501900","石碇區"
"227005","282-VK","2018/10/05 08:39:02","新北市雙溪區外柑里四分子4號","121.839073333333","25.0005283333333","6502500","雙溪區"
"237001","159-UY","2018/10/05 08:38:54","新北市三峽區大觀路1號","121.375845","24.9436566666667","6500900","三峽區"
"242001","233-RS","2018/10/05 08:38:51","新北市樹林區中山路三段214號","121.379845","24.9676733333333","6500500","新莊區"
