"lineid","car","time","location","longitude","latitude","cityid","cityname"
"248005","653-BX","2018/10/05 09:08:51","新北市五股區水碓路9號","121.433678333333","25.0723216666667","6501500","五股區"
"222005","289-BY","2018/10/05 09:09:01","新北市深坑區土庫尖路75-1號","121.631198333333","25.0182066666667","6501800","深坑區"
"231007","189-VK","2018/10/05 09:08:49","新北市新店區新潭路三段220號","121.503965","24.9044216666667","6500600","新店區"
"231009","192-VK","2018/10/05 09:09:01","新北市新店區廣興路60巷35號","121.5425","24.916565","6500600","新店區"
"235001","611-BX","2018/10/05 09:08:56","新北市中和區莒光路258號","121.46807","24.9939366666667","6500300","中和區"
"226001","7418-A5","2018/10/05 09:08:47","新北市平溪區東勢里番仔坑3號","121.747513333333","25.0000933333333","6502400","平溪區"
"223003","205-TH","2018/10/05 09:08:48","新北市石碇區北宜路五段3號","121.628695","24.9542416666667","6501900","石碇區"
"223008","406-TH","2018/10/05 09:09:03","新北市石碇區靜安路一段368號","121.701281666667","25.01775","6501900","石碇區"
"223004","437-BY","2018/10/05 09:08:47","新北市石碇區磨石坑39-3號","121.688978333333","24.9653133333333","6501900","石碇區"
"223007","661-BX","2018/10/05 09:08:47","新北市石碇區西勢坑6-1號","121.70213","24.993735","6501900","石碇區"
"223005","677-TV","2018/10/05 09:09:05","新北市石碇區磨石坑39-3號","121.688251666667","24.9656066666667","6501900","石碇區"
"227005","282-VK","2018/10/05 09:06:41","新北市雙溪區泰平里料角坑19號","121.81229","24.9724266666667","6502500","雙溪區"
"237001","159-UY","2018/10/05 09:08:54","新北市三峽區學府路120號","121.374353333333","24.9489616666667","6500900","三峽區"
"242001","233-RS","2018/10/05 09:08:51","新北市新莊區環河路636-7號","121.437581666667","25.011685","6500500","新莊區"
