"lineid","car","time","location","longitude","latitude","cityid","cityname"
"248005","653-BX","2018/10/05 10:08:59","新北市五股區成泰路一段239號","121.436876666667","25.0809183333333","6501500","五股區"
"231007","189-VK","2018/10/05 10:08:49","新北市新店區新潭路三段215巷25號","121.5082","24.9041733333333","6500600","新店區"
"231009","192-VK","2018/10/05 10:09:01","新北市新店區小坑一路21-1號","121.532161666667","24.912865","6500600","新店區"
"227005","282-VK","2018/10/05 09:57:41","新北市雙溪區泰平里灣潭路20-1號","121.812876666667","24.9291266666667","6502500","雙溪區"
"237001","159-UY","2018/10/05 10:08:54","新北市三峽區中山路281號","121.361931666667","24.9376133333333","6500900","三峽區"
