"lineid","car","time","location","longitude","latitude","cityid","cityname"
"248005","653-BX","2018/10/05 10:18:59","新北市五股區新五路二段279號","121.442941666667","25.0862316666667","6501500","五股區"
"231007","189-VK","2018/10/05 10:18:49","新北市新店區新潭路三段215巷25號","121.50816","24.9041416666667","6500600","新店區"
"231009","192-VK","2018/10/05 10:19:01","新北市新店區松林路16巷41號","121.546156666667","24.9075733333333","6500600","新店區"
"227005","282-VK","2018/10/05 09:57:41","新北市雙溪區泰平里灣潭路20-1號","121.812876666667","24.9291266666667","6502500","雙溪區"
"237001","159-UY","2018/10/05 10:18:54","新北市三峽區中山路459巷163-1號","121.349328333333","24.9334216666667","6500900","三峽區"
