"lineid","car","time","location","longitude","latitude","cityid","cityname"
"248005","653-BX","2018/10/05 10:20:08","新北市五股區新五路二段279號","121.44273","25.0861166666667","6501500","五股區"
"231007","189-VK","2018/10/05 10:28:49","新北市新店區小坑三路51-2號","121.517213333333","24.9083383333333","6500600","新店區"
"231009","192-VK","2018/10/05 10:26:01","新北市新店區成功路45-1號","121.539696666667","24.8989583333333","6500600","新店區"
"227005","282-VK","2018/10/05 10:29:01","新北市雙溪區泰平里溪尾寮2-2號","121.819841666667","24.9661033333333","6502500","雙溪區"
"237001","159-UY","2018/10/05 10:28:54","新北市三峽區中山路459巷163-1號","121.349338333333","24.933425","6500900","三峽區"
