"lineid","car","time","location","longitude","latitude","cityid","cityname"
"234044","148-BY","2018/10/05 12:39:03","新北市永和區永元路68號","121.52258","25.001555","6500400","永和區"
"234078","298-R6","2018/10/05 12:38:59","新北市永和區林森路81號","121.523903333333","25.0038516666667","6500400","永和區"
"234036","336-UY","2018/10/05 12:39:02","新北市永和區福和路1號","121.526671666667","25.0101016666667","6500400","永和區"
"234084","338-UY","2018/10/05 12:38:57","新北市永和區中正路308號","121.517421666667","24.99935","6500400","永和區"
"234068","552-UM","2018/10/05 12:39:06","新北市永和區豫溪街217巷5號","121.525006666667","25.0097466666667","6500400","永和區"
"234015","745-BX","2018/10/05 12:38:58","新北市永和區福和路1號","121.526371666667","25.00963","6500400","永和區"
"234028","746-BX","2018/10/05 12:39:01","新北市永和區環河東路三段60號","121.527025","25.00597","6500400","永和區"
"234012","KEA-2591","2018/10/05 12:38:50","新北市永和區環河西路一段83號","121.512698333333","25.0181483333333","6500400","永和區"
"234036","748-BX","2018/10/05 12:39:04","新北市永和區福和路1號","121.525706666667","25.00946","6500400","永和區"
"234040","862-TW","2018/10/05 12:38:57","新北市永和區永貞路306號","121.51191","25.004835","6500400","永和區"
"234025","9371-KE","2018/10/05 12:39:01","新北市永和區福和路1號","121.526208333333","25.0095283333333","6500400","永和區"
"234010","9373-KE","2018/10/05 12:38:52","新北市永和區福和路1號","121.5256","25.009365","6500400","永和區"
"234076","969-R7","2018/10/05 12:38:55","新北市永和區中正路326號","121.517555","24.999735","6500400","永和區"
"234001","AAC-295","2018/10/05 12:39:02","新北市永和區福和路1號","121.526696666667","25.009805","6500400","永和區"
"231005","106-UY","2018/10/05 12:39:04","新北市新店區安華路28-1號","121.519645","24.9607683333333","6500600","新店區"
"231010","107-UY","2018/10/05 12:39:04","新北市新店區安一路一段1-1號","121.519503333333","24.9614533333333","6500600","新店區"
"231003","268-BY","2018/10/05 12:38:48","新北市新店區安華路28-1號","121.519401666667","24.9605683333333","6500600","新店區"
"231016","AAD-862","2018/10/05 12:39:06","新北市新店區安一路一段1-1號","121.519785","24.9611283333333","6500600","新店區"
"231035","719-UM","2018/10/05 12:38:57","新北市新店區安一路一段1-1號","121.519538333333","24.96122","6500600","新店區"
"235029","098-UM","2018/10/05 12:38:53","新北市中和區員山路36巷16-3號","121.485071666667","24.991275","6500300","中和區"
"235031","255-BX","2018/10/05 12:39:05","新北市中和區連城路469-1號","121.48357","24.9958183333333","6500300","中和區"
"235001","611-BX","2018/10/05 12:39:01","新北市中和區連城路525-8號","121.48091","24.9948883333333","6500300","中和區"
"223003","205-TH","2018/10/05 12:38:56","新北市石碇區碇坪路一段186號","121.667606666667","24.9846616666667","6501900","石碇區"
"237001","159-UY","2018/10/05 12:38:54","新北市三峽區中山路459巷163-1號","121.349325","24.9334233333333","6500900","三峽區"
"221010","269-BY","2018/10/05 12:39:00","新北市汐止區康寧街402號","121.6301","25.0679833333333","6501100","汐止區"
"235025","KEA-2875","2018/10/05 12:21:01","新北市中和區員山路36巷16-4號","121.485218333333","24.99198","6500300","中和區"
