"lineid","car","time","location","longitude","latitude","cityid","cityname"
"234044","148-BY","2018/10/05 13:19:03","新北市永和區得和路275號","121.522345","24.9997433333333","6500400","永和區"
"234005","207-UY","2018/10/05 13:18:59","新北市永和區中山路一段311號","121.506231666667","25.0062033333333","6500400","永和區"
"234078","298-R6","2018/10/05 13:18:58","新北市永和區福和路22號","121.524096666667","25.0084083333333","6500400","永和區"
"234036","336-UY","2018/10/05 13:19:02","新北市永和區民樂街47巷1號","121.527498333333","24.9991116666667","6500400","永和區"
"234062","337-UY","2018/10/05 13:19:04","新北市永和區永元路17巷9號","121.521313333333","25.0006833333333","6500400","永和區"
"234084","338-UY","2018/10/05 13:18:57","新北市永和區永利路72號","121.520261666667","25.0042666666667","6500400","永和區"
"234068","552-UM","2018/10/05 13:19:06","新北市永和區豫溪街33號","121.516436666667","25.009855","6500400","永和區"
"234015","745-BX","2018/10/05 13:18:58","新北市永和區環河西路一段91號","121.512108333333","25.0176666666667","6500400","永和區"
"234028","746-BX","2018/10/05 13:19:04","新北市永和區厚德街62號","121.524266666667","24.99888","6500400","永和區"
"234052","KEA-2590","2018/10/05 13:19:06","新北市永和區中興街47號","121.516456666667","25.0117533333333","6500400","永和區"
"234012","KEA-2591","2018/10/05 13:18:50","新北市永和區信義路14-1號","121.514405","25.0121","6500400","永和區"
"234060","AAD-866","2018/10/05 13:19:07","新北市永和區秀朗路一段175號","121.5171","25.0036616666667","6500400","永和區"
"234036","748-BX","2018/10/05 13:19:04","新北市永和區得和路372號","121.524445","24.999195","6500400","永和區"
"234040","862-TW","2018/10/05 13:19:06","新北市永和區保平路151巷2弄3號","121.509906666667","25.0054833333333","6500400","永和區"
"234048","863-TW","2018/10/05 13:18:49","新北市永和區保福路二段90號","121.510471666667","25.0134416666667","6500400","永和區"
"234025","9371-KE","2018/10/05 13:19:01","新北市永和區豫溪街52巷20號","121.51569","25.0090666666667","6500400","永和區"
"234010","9373-KE","2018/10/05 13:18:55","新北市永和區忠孝街34巷2弄2號","121.514795","25.0159866666667","6500400","永和區"
"248019","225-UY","2018/10/05 13:19:09","新北市五股區孝義路47巷9號","121.453675","25.1102316666667","6501500","五股區"
"234022","9380-KE","2018/10/05 13:18:50","新北市永和區竹林路101號","121.519726666667","25.0119383333333","6500400","永和區"
"234076","969-R7","2018/10/05 13:18:55","新北市永和區民有街69號","121.517883333333","24.9956983333333","6500400","永和區"
"234072","AAC-211","2018/10/05 13:19:03","新北市永和區竹林路23號","121.517165","25.0147416666667","6500400","永和區"
"234066","AAC-212","2018/10/05 13:19:04","新北市永和區保平路32號","121.511863333333","25.0072533333333","6500400","永和區"
"234001","AAC-295","2018/10/05 13:19:03","新北市永和區中山路一段105號","121.51096","25.010335","6500400","永和區"
"244004","248-BX","2018/10/05 13:19:03","新北市林口區頂福里49號","121.348993333333","25.0897283333333","6501700","林口區"
"231028","001-UM","2018/10/05 13:18:59","新北市新店區安華路28-1號","121.519541666667","24.96089","6500600","新店區"
"231002","002-UM","2018/10/05 13:18:57","新北市新店區安華路28-1號","121.519765","24.96085","6500600","新店區"
"231027","0293-UT","2018/10/05 13:18:49","新北市新店區安康路一段355-10號","121.520675","24.96386","6500600","新店區"
"231001","047-UY","2018/10/05 13:19:03","新北市新店區安華路28-1號","121.519296666667","24.960935","6500600","新店區"
"231005","106-UY","2018/10/05 13:19:03","新北市新店區安華路28-1號","121.519733333333","24.960745","6500600","新店區"
"231010","107-UY","2018/10/05 13:19:04","新北市新店區安康路一段257號","121.524526666667","24.9633383333333","6500600","新店區"
"231012","187-VK","2018/10/05 13:18:53","新北市新店區安一路一段1-1號","121.519653333333","24.9611933333333","6500600","新店區"
"231032","188-VK","2018/10/05 13:18:51","新北市新店區安一路一段1-1號","121.51941","24.9614216666667","6500600","新店區"
"231022","189-VK","2018/10/05 13:19:08","新北市新店區安華路28-1號","121.519741666667","24.9610416666667","6500600","新店區"
"231023","KEA-2219","2018/10/05 13:18:56","新北市新店區安一路一段1-1號","121.519878333333","24.9611","6500600","新店區"
"231026","256-BX","2018/10/05 13:19:11","新北市新店區安一路一段1-1號","121.51971","24.9611066666667","6500600","新店區"
"231003","268-BY","2018/10/05 13:19:08","新北市新店區安華路28-1號","121.519446666667","24.96063","6500600","新店區"
"231018","278-BY","2018/10/05 13:18:56","新北市新店區力行路15號","121.536988333333","24.9656","6500600","新店區"
"231016","AAD-862","2018/10/05 13:19:06","新北市新店區安康路一段124號","121.526938333333","24.9627916666667","6500600","新店區"
"231037","4716-K9","2018/10/05 13:18:59","新北市新店區安華路28-1號","121.519725","24.9609516666667","6500600","新店區"
"231025","4715-K9","2018/10/05 13:19:06","新北市新店區中央六街56號","121.52785","24.9757266666667","6500600","新店區"
"231036","512-UM","2018/10/05 13:18:07","新北市新店區安康路二段362號","121.50181","24.9573933333333","6500600","新店區"
"231013","513-UM","2018/10/05 13:19:10","新北市新店區安一路一段1-1號","121.519645","24.96111","6500600","新店區"
"231034","616-UM","2018/10/05 13:18:55","新北市新店區安華路1-1號","121.519505","24.9604916666667","6500600","新店區"
"231006","617-UM","2018/10/05 13:18:57","新北市新店區安華路28-1號","121.519448333333","24.9608933333333","6500600","新店區"
"231030","619-UM","2018/10/05 13:19:11","新北市新店區安華路28-1號","121.519743333333","24.96079","6500600","新店區"
"231035","719-UM","2018/10/05 13:18:57","新北市新店區安一路一段1-1號","121.519483333333","24.96139","6500600","新店區"
"231029","897-TW","2018/10/05 13:19:06","新北市新店區安華路28-1號","121.51971","24.9606083333333","6500600","新店區"
"231004","899-TW","2018/10/05 13:19:08","新北市新店區安華路28-1號","121.519276666667","24.96082","6500600","新店區"
"231024","AKT-0513","2018/10/05 13:19:09","新北市新店區中華路1號","121.541256666667","24.967215","6500600","新店區"
"235030","003-UY","2018/10/05 13:19:06","新北市中和區中山路二段121號","121.502746666667","25.0035833333333","6500300","中和區"
"235028","005-UY","2018/10/05 13:18:53","新北市中和區圓通路169號","121.497586666667","24.9952833333333","6500300","中和區"
"235027","006-UY","2018/10/05 13:19:07","新北市中和區員山路36巷16-3號","121.485041666667","24.9913216666667","6500300","中和區"
"235029","098-UM","2018/10/05 13:18:53","新北市中和區莊敬路49巷20弄22號","121.50273","25.00584","6500300","中和區"
"235004","150-BY","2018/10/05 13:19:08","新北市中和區景平路353號","121.504773333333","24.9934033333333","6500300","中和區"
"235022","151-BY","2018/10/05 13:18:52","新北市中和區圓通路369巷36弄57號","121.490531666667","24.9835783333333","6500300","中和區"
"235019","183-VK","2018/10/05 13:18:55","新北市中和區連城路469巷79弄4號","121.483588333333","24.9936683333333","6500300","中和區"
"235002","185-VK","2018/10/05 13:18:51","新北市中和區大智街42巷13號","121.522706666667","24.99206","6500300","中和區"
"235031","255-BX","2018/10/05 13:19:05","新北市中和區民樂路81號","121.484805","25.00133","6500300","中和區"
"235036","301-VK","2018/10/05 13:18:58","新北市中和區錦和路79號","121.489888333333","24.9960116666667","6500300","中和區"
"235007","352-BY","2018/10/05 13:19:08","新北市中和區景平路373號","121.504213333333","24.993415","6500300","中和區"
"235006","KEA-2878","2018/10/05 13:19:00","新北市中和區景平路190號","121.516608333333","24.9927133333333","6500300","中和區"
"235014","4979-A6","2018/10/05 13:18:54","新北市中和區捷運路123-1號","121.507515","24.990515","6500300","中和區"
"235033","4980-A6","2018/10/05 13:19:08","新北市中和區圓通路284號","121.491525","24.9906033333333","6500300","中和區"
"235034","558-UM","2018/10/05 13:18:54","新北市中和區圓通路76號","121.500103333333","24.9971133333333","6500300","中和區"
"235009","565-BX","2018/10/05 13:18:57","新北市中和區復興路260-1號","121.503603333333","24.9903266666667","6500300","中和區"
"235018","640-BX","2018/10/05 13:19:08","新北市中和區國光街112巷1弄5號","121.469561666667","25.0010633333333","6500300","中和區"
"235011","732-UM","2018/10/05 13:19:09","新北市中和區中興街116號","121.499935","24.9930283333333","6500300","中和區"
"235035","783-BX","2018/10/05 13:18:54","新北市中和區中板路10號","121.48406","25.011785","6500300","中和區"
"235026","800-TS","2018/10/05 13:19:05","新北市中和區中山路二段359巷5號","121.488935","25.0038583333333","6500300","中和區"
"235021","801-TS","2018/10/05 13:19:02","新北市中和區員山路183號","121.481183333333","24.99708","6500300","中和區"
"235005","802-TS","2018/10/05 13:19:06","新北市中和區景安路90號","121.505636666667","24.995975","6500300","中和區"
"235016","805-TS","2018/10/05 13:18:57","新北市中和區南山路150號","121.504228333333","24.9922033333333","6500300","中和區"
"235015","157-BY","2018/10/05 13:18:56","新北市中和區忠孝街99-3號","121.512046666667","24.9861916666667","6500300","中和區"
"235001","AAC-213","2018/10/05 13:18:59","新北市中和區景德街34號","121.518136666667","24.9915","6500300","中和區"
"235023","AAC-215","2018/10/05 13:19:05","新北市中和區員山路36巷16-3號","121.484985","24.9914316666667","6500300","中和區"
"220013","072-UY","2018/10/05 13:19:05","新北市板橋區華東街1-9號","121.448143333333","24.994945","6500100","板橋區"
"235010","251-BX","2018/10/05 13:19:04","新北市中和區員山路36巷13號","121.484123333333","24.99096","6500300","中和區"
"207002","749-BX","2018/10/05 13:19:05","新北市萬里區崁腳里崁腳路166號","121.645073333333","25.1558266666667","6502800","萬里區"
"207001","662-BX","2018/10/05 13:19:10","新北市萬里區龜吼里玉田路56-1號","121.68067","25.1932516666667","6502800","萬里區"
"237001","159-UY","2018/10/05 13:18:53","新北市三峽區隆恩街245號","121.357681666667","24.9410483333333","6500900","三峽區"
"242001","233-RS","2018/10/05 13:19:04","新北市新莊區瓊林路38-3號","121.44851","25.0306333333333","6500500","新莊區"
"221010","269-BY","2018/10/05 13:19:00","新北市汐止區長青路12號","121.60944","25.1064816666667","6501100","汐止區"
"221032","280-BY","2018/10/05 13:19:08","新北市汐止區連興街48號","121.654395","25.063075","6501100","汐止區"
"220021","985-R7","2018/10/05 13:19:03","新北市板橋區華東街1-10號","121.448311666667","24.995","6500100","板橋區"
"235032","KEA-2873","2018/10/05 13:18:49","新北市中和區員山路36巷16-3號","121.485065","24.99139","6500300","中和區"
"235025","KEA-2875","2018/10/05 13:19:06","新北市中和區國光街215巷24弄15號","121.466823333333","25.000115","6500300","中和區"
"235024","KEA-2876","2018/10/05 13:19:03","新北市中和區員山路78號","121.480896666667","24.9939516666667","6500300","中和區"
