"lineid","car","time","location","longitude","latitude","cityid","cityname"
"234062","337-UY","2018/10/05 14:49:04","新北市新店區安和路三段1-1號","121.517153333333","24.979565","6500400","永和區"
"234036","748-BX","2018/10/05 14:49:04","新北市永和區成功路一段93巷23弄13號","121.52857","25.0035133333333","6500400","永和區"
"234040","862-TW","2018/10/05 14:48:57","新北市新店區安民街251巷1號","121.51614","24.9727716666667","6500400","永和區"
"234025","9371-KE","2018/10/05 14:49:01","新北市永和區永貞路273號","121.511573333333","25.0050116666667","6500400","永和區"
"234001","AAC-295","2018/10/05 14:49:03","新北市永和區中正路612號","121.517016666667","25.0074933333333","6500400","永和區"
"244004","248-BX","2018/10/05 14:48:54","新北市林口區竹林路266號","121.389675","25.080795","6501700","林口區"
"231028","001-UM","2018/10/05 14:48:59","新北市新店區安德街84號","121.510061666667","24.96149","6500600","新店區"
"231002","002-UM","2018/10/05 14:48:57","新北市新店區民權路96號","121.536555","24.983035","6500600","新店區"
"231027","0293-UT","2018/10/05 14:49:09","新北市新店區環河路182號","121.525046666667","24.9756533333333","6500600","新店區"
"231001","047-UY","2018/10/05 14:49:03","新北市新店區三民路137號","121.534401666667","24.9726033333333","6500600","新店區"
"231005","106-UY","2018/10/05 14:49:03","新北市新店區復興路2號","121.53247","24.9882533333333","6500600","新店區"
"231012","187-VK","2018/10/05 14:49:13","新北市新店區寶橋路61號","121.545263333333","24.9749733333333","6500600","新店區"
"231022","189-VK","2018/10/05 14:48:48","新北市新店區桂山路73-1號","121.566326666667","24.9008283333333","6500600","新店區"
"231023","KEA-2219","2018/10/05 14:48:56","新北市新店區檳榔路109號","121.544436666667","24.9615933333333","6500600","新店區"
"231003","268-BY","2018/10/05 14:49:08","新北市新店區中興路二段121巷1號","121.547503333333","24.97196","6500600","新店區"
"231018","278-BY","2018/10/05 14:48:56","新北市新店區中央二街3號","121.529238333333","24.9730383333333","6500600","新店區"
"231016","AAD-862","2018/10/05 14:49:06","新北市新店區北宜路三段66號","121.575601666667","24.951565","6500600","新店區"
"231038","3712-VJ","2018/10/05 14:49:05","新北市新店區安華路28-1號","121.519765","24.9608033333333","6500600","新店區"
"231037","4716-K9","2018/10/05 14:48:59","新北市新店區柴埕路60巷1-1號","121.51025","24.963455","6500600","新店區"
"231025","4715-K9","2018/10/05 14:49:06","新北市新店區大豐路68巷3號","121.53901","24.9798183333333","6500600","新店區"
"231036","512-UM","2018/10/05 14:49:08","新北市新店區安祥路104巷6弄36號","121.483145","24.9629633333333","6500600","新店區"
"231013","513-UM","2018/10/05 14:49:09","新北市新店區北新路二段43號","121.542593333333","24.9728833333333","6500600","新店區"
"231034","616-UM","2018/10/05 14:48:55","新北市新店區玫瑰路4-1號","121.493623333333","24.9514033333333","6500600","新店區"
"231006","617-UM","2018/10/05 14:48:57","新北市新店區北宜路一段152號","121.54027","24.9538766666667","6500600","新店區"
"231030","619-UM","2018/10/05 14:48:51","新北市新店區安民街379巷16號","121.51542","24.9765916666667","6500600","新店區"
"231035","719-UM","2018/10/05 14:45:37","新北市新店區安樂街1號","121.519756666667","24.9738183333333","6500600","新店區"
"231029","897-TW","2018/10/05 14:49:06","新北市新店區錦秀路73號","121.478888333333","24.9419716666667","6500600","新店區"
"231004","899-TW","2018/10/05 14:49:08","新北市新店區建國路137號","121.53919","24.9784433333333","6500600","新店區"
"231024","AKT-0513","2018/10/05 14:49:09","新北市新店區中華路83巷17號","121.538738333333","24.968115","6500600","新店區"
"235030","003-UY","2018/10/05 14:49:06","新北市中和區南工路74號","121.506533333333","25.0023283333333","6500300","中和區"
"235027","006-UY","2018/10/05 14:49:07","新北市中和區連城路263巷24號","121.492701666667","24.99457","6500300","中和區"
"235020","096-UM","2018/10/05 14:49:11","新北市中和區中山路三段114巷72-6號","121.47618","25.007975","6500300","中和區"
"235003","097-UM","2018/10/05 14:49:13","新北市永和區安樂路46號","121.514641666667","24.9970783333333","6500300","中和區"
"235029","098-UM","2018/10/05 14:49:13","新北市中和區橋和路288號","121.496536666667","25.0068566666667","6500300","中和區"
"235004","150-BY","2018/10/05 14:49:08","新北市中和區安平路59號","121.50964","24.9949366666667","6500300","中和區"
"235022","151-BY","2018/10/05 14:48:52","新北市中和區員山路106號","121.481105","24.9955383333333","6500300","中和區"
"235002","185-VK","2018/10/05 14:49:11","新北市永和區民生路46巷56號","121.520546666667","24.996375","6500300","中和區"
"235013","186-VK","2018/10/05 14:49:02","新北市中和區中正路62號","121.501396666667","24.9937666666667","6500300","中和區"
"235031","255-BX","2018/10/05 14:49:05","新北市中和區中正路751巷14弄1號","121.484216666667","24.9996966666667","6500300","中和區"
"235008","293-VK","2018/10/05 14:49:03","新北市中和區南山路176-19號","121.505296666667","24.9909283333333","6500300","中和區"
"235036","301-VK","2018/10/05 14:48:52","新北市中和區連城路87號","121.496805","25.000325","6500300","中和區"
"235007","352-BY","2018/10/05 14:49:08","新北市中和區景平路336號","121.511856666667","24.9928816666667","6500300","中和區"
"235006","KEA-2878","2018/10/05 14:49:00","新北市中和區成功路137號","121.526533333333","24.9899783333333","6500300","中和區"
"235014","4979-A6","2018/10/05 14:48:59","新北市中和區和平街164巷4號","121.505945","24.9924116666667","6500300","中和區"
"235034","558-UM","2018/10/05 14:48:53","新北市中和區連勝街36號","121.49806","24.997665","6500300","中和區"
"235018","640-BX","2018/10/05 14:49:08","新北市中和區莒光路66號","121.47228","25.0032133333333","6500300","中和區"
"235011","732-UM","2018/10/05 14:49:09","新北市中和區和平街118號","121.50691","24.991535","6500300","中和區"
"235035","783-BX","2018/10/05 14:48:54","新北市中和區建康路95號","121.487951666667","25.000375","6500300","中和區"
"235026","800-TS","2018/10/05 14:49:05","新北市中和區中山路二段417號","121.48596","25.0046883333333","6500300","中和區"
"235005","802-TS","2018/10/05 14:49:06","新北市永和區中和路439號","121.5096","25.00101","6500300","中和區"
"235016","805-TS","2018/10/05 14:48:57","新北市中和區華新街45號","121.507788333333","24.9846383333333","6500300","中和區"
"235012","896-TW","2018/10/05 14:49:08","新北市中和區四維街37巷2號","121.512386666667","24.98689","6500300","中和區"
"235017","911-UM","2018/10/05 14:48:55","新北市中和區國光街215巷8弄6號","121.46661","25.0009833333333","6500300","中和區"
"235015","157-BY","2018/10/05 14:48:56","新北市中和區景安路247巷7號","121.504381666667","24.9905733333333","6500300","中和區"
"235001","AAC-213","2018/10/05 14:48:59","新北市中和區秀朗路三段116號","121.525","24.9926416666667","6500300","中和區"
"235023","AAC-215","2018/10/05 14:49:05","新北市中和區圓通路335巷4弄6號","121.491876666667","24.9896816666667","6500300","中和區"
"220013","072-UY","2018/10/05 14:49:05","新北市板橋區民族路276巷1弄1號","121.469918333333","25.0066316666667","6500100","板橋區"
"220105","075-UY","2018/10/05 14:48:57","新北市板橋區民治街71巷33號","121.480558333333","25.033345","6500100","板橋區"
"220017","AAD-861","2018/10/05 14:49:06","新北市板橋區南雅南路二段11-24號","121.4539","25.001995","6500100","板橋區"
"247001","893-R6","2018/10/05 14:48:59","新北市蘆洲區永康街2巷2號","121.459371666667","25.0860816666667","6501400","蘆洲區"
"235010","251-BX","2018/10/05 14:49:03","新北市中和區仁愛街65號","121.511413333333","24.987635","6500300","中和區"
"207002","749-BX","2018/10/05 14:49:05","新北市萬里區崁腳里崁腳路73號","121.647568333333","25.1596116666667","6502800","萬里區"
"207001","662-BX","2018/10/05 14:49:00","新北市萬里區雙興里二坪路4號","121.648393333333","25.1782116666667","6502800","萬里區"
"236067","105-UM","2018/10/05 14:48:55","新北市土城區明德路二段99巷2弄2號","121.450388333333","24.9811533333333","6501300","土城區"
"236040","107-UM","2018/10/05 14:49:08","新北市土城區裕民路214巷26弄5號","121.452068333333","24.9839183333333","6501300","土城區"
"236077","166-UM","2018/10/05 14:48:58","新北市土城區中央路四段125巷2弄28號","121.416266666667","24.956795","6501300","土城區"
"236024","269-VK","2018/10/05 14:49:02","新北市土城區中央路二段229號","121.440365","24.9724916666667","6501300","土城區"
"236013","270-VK","2018/10/05 14:48:57","新北市土城區金城路二段354巷4號","121.461038333333","24.9849166666667","6501300","土城區"
"236032","271-VK","2018/10/05 14:49:07","新北市土城區仁愛路54巷12號","121.461913333333","24.9784233333333","6501300","土城區"
"236016","401-BY","2018/10/05 14:48:59","新北市土城區延吉街206號","121.467648333333","24.9850816666667","6501300","土城區"
"236029","752-BX","2018/10/05 14:49:09","新北市土城區忠義路26巷19號","121.439801666667","24.9698816666667","6501300","土城區"
"236057","912-UM","2018/10/05 14:49:09","新北市土城區金城路一段112號","121.44628","24.97483","6501300","土城區"
"236045","913-UM","2018/10/05 14:49:10","新北市土城區青雲路38號","121.459931666667","24.988485","6501300","土城區"
"236060","915-UM","2018/10/05 14:48:59","新北市土城區金城路三段147號","121.468398333333","24.9884683333333","6501300","土城區"
"236054","AAC-216","2018/10/05 14:49:11","新北市土城區裕民路193-1號","121.453793333333","24.9841216666667","6501300","土城區"
"242001","233-RS","2018/10/05 14:49:04","新北市五股區成泰路一段98巷77號","121.450501666667","25.07683","6500500","新莊區"
"221010","269-BY","2018/10/05 14:49:00","新北市汐止區八連路一段528號","121.638798333333","25.0928183333333","6501100","汐止區"
"221033","647-BX","2018/10/05 14:49:08","新北市汐止區汐萬路一段256巷3號","121.652746666667","25.0746083333333","6501100","汐止區"
"220027","145-BY","2018/10/05 14:49:08","新北市板橋區中正路183巷46號","121.454961666667","25.0161066666667","6500100","板橋區"
"220028","200-UY","2018/10/05 14:48:59","新北市板橋區大觀路二段179巷12號","121.445383333333","24.99986","6500100","板橋區"
"220030","610-BX","2018/10/05 14:49:11","新北市板橋區金門街190-4號","121.432635","24.9906133333333","6500100","板橋區"
"220050","245-BX","2018/10/05 14:49:00","新北市板橋區縣民大道三段103巷22號","121.4752","25.0227716666667","6500100","板橋區"
"220004","276-BY","2018/10/05 14:49:03","新北市板橋區四川路二段99巷7號","121.452916666667","24.9942266666667","6500100","板橋區"
"220020","277-BY","2018/10/05 14:49:12","新北市板橋區篤行路二段79號","121.431793333333","24.9918816666667","6500100","板橋區"
"220043","283-UM","2018/10/05 14:49:04","新北市板橋區長江路一段103號","121.459495","25.0297433333333","6500100","板橋區"
"220019","283-VK","2018/10/05 14:48:54","新北市板橋區廣權路127號","121.465525","24.9932833333333","6500100","板橋區"
"220031","286-VK","2018/10/05 14:49:11","新北市板橋區僑中二街12巷26號","121.445743333333","25.010885","6500100","板橋區"
"220029","287-VK","2018/10/05 14:48:54","新北市板橋區僑中一街124巷20弄20號","121.446938333333","25.0139","6500100","板橋區"
"220039","288-VK","2018/10/05 14:49:13","新北市板橋區新海路135巷1號","121.460536666667","25.023525","6500100","板橋區"
"220009","293-UM","2018/10/05 14:48:59","新北市板橋區觀光街33巷2-1號","121.47106","25.01597","6500100","板橋區"
"220001","295-UM","2018/10/05 14:48:59","新北市板橋區中山路二段90巷10號","121.475323333333","25.0159333333333","6500100","板橋區"
"220032","296-UM","2018/10/05 14:48:58","新北市板橋區溪崑二街112巷8號","121.42616","24.988955","6500100","板橋區"
"220046","299-UM","2018/10/05 14:48:56","新北市板橋區漢生西路56號","121.462988333333","25.018735","6500100","板橋區"
"220023","303-R5","2018/10/05 14:49:08","新北市板橋區金華街10巷48弄3號","121.457186666667","25.0198883333333","6500100","板橋區"
"220010","305-R5","2018/10/05 14:49:05","新北市板橋區光復街172巷31弄3號","121.485915","25.01889","6500100","板橋區"
"220041","307-R5","2018/10/05 14:48:59","新北市板橋區四維路259巷44號","121.461365","25.0272116666667","6500100","板橋區"
"220047","317-R6","2018/10/05 14:48:55","新北市板橋區英士路199號","121.459008333333","25.0236616666667","6500100","板橋區"
"220038","487-VK","2018/10/05 14:49:09","新北市板橋區龍泉街98-4號","121.456646666667","25.025","6500100","板橋區"
"220104","560-BX","2018/10/05 14:48:56","新北市板橋區大仁街110巷16號","121.452768333333","25.01619","6500100","板橋區"
"220052","561-BX","2018/10/05 14:49:04","新北市板橋區陽明街29巷17號","121.464556666667","25.0221066666667","6500100","板橋區"
"220011","609-BX","2018/10/05 14:49:09","新北市板橋區中山路二段483號","121.482261666667","25.0207783333333","6500100","板橋區"
"220040","637-BX","2018/10/05 14:48:53","新北市板橋區民治街79號","121.479758333333","25.0322916666667","6500100","板橋區"
"220005","686-BX","2018/10/05 14:49:10","新北市板橋區信義路29號","121.456975","24.9964216666667","6500100","板橋區"
"220025","687-BX","2018/10/05 14:49:05","新北市板橋區僑中一街90號","121.447096666667","25.0117333333333","6500100","板橋區"
"220042","689-BX","2018/10/05 14:48:57","新北市板橋區長江路二段141號","121.46553","25.03174","6500100","板橋區"
"220002","741-BX","2018/10/05 14:49:09","新北市板橋區實踐路93巷28號","121.465238333333","25.0052","6500100","板橋區"
"220051","KEA-2699","2018/10/05 14:49:07","新北市板橋區文化路二段410巷1弄1號","121.474296666667","25.031205","6500100","板橋區"
"220012","806-UM","2018/10/05 14:49:01","新北市板橋區實踐路203號","121.464445","25.0029733333333","6500100","板橋區"
"220003","827-TW","2018/10/05 14:49:01","新北市板橋區仁愛路86巷13弄1號","121.46106","24.99895","6500100","板橋區"
"220014","829-TW","2018/10/05 14:49:09","新北市板橋區長安街138巷1弄91號","121.47482","25.0114866666667","6500100","板橋區"
"220016","830-TW","2018/10/05 14:49:10","新北市板橋區光復街172巷29號","121.48565","25.0189883333333","6500100","板橋區"
"220045","831-TW","2018/10/05 14:48:55","新北市板橋區莊敬路134-4號","121.471006666667","25.0235933333333","6500100","板橋區"
"220037","833-TW","2018/10/05 14:49:09","新北市板橋區仁化街189號","121.478473333333","25.034085","6500100","板橋區"
"220022","895-R6","2018/10/05 14:49:03","新北市板橋區文化路一段32巷23號","121.460093333333","25.010985","6500100","板橋區"
"220021","985-R7","2018/10/05 14:49:07","新北市板橋區南雅西路二段78-2號","121.452611666667","25.0106583333333","6500100","板橋區"
"220018","AAC-253","2018/10/05 14:49:07","新北市板橋區館前東路152號","121.464376666667","25.007875","6500100","板橋區"
"235032","KEA-2873","2018/10/05 14:48:49","新北市中和區勝利路35巷1弄7號","121.499233333333","25.0074983333333","6500300","中和區"
"235024","KEA-2876","2018/10/05 14:49:03","新北市中和區新生街37號","121.483311666667","25.0034233333333","6500300","中和區"
