"lineid","car","time","location","longitude","latitude","cityid","cityname"
"231046","107-UY","2018/10/05 15:58:53","新北市新店區安康路一段293號","121.522618333333","24.9637016666667","6500600","新店區"
"231012","187-VK","2018/10/05 15:58:53","新北市新店區民族路162號","121.537513333333","24.9766583333333","6500600","新店區"
"231032","188-VK","2018/10/05 15:59:11","新北市新店區安康路三段73號","121.492285","24.9521033333333","6500600","新店區"
"231022","189-VK","2018/10/05 15:59:08","新北市新店區新烏路一段2號","121.547351666667","24.95182","6500600","新店區"
"231003","268-BY","2018/10/05 15:59:08","新北市新店區寶興路60巷3號","121.549923333333","24.9718266666667","6500600","新店區"
"231018","278-BY","2018/10/05 15:58:56","新北市新店區中正路663巷1弄2號","121.532936666667","24.9900233333333","6500600","新店區"
"231016","AAD-862","2018/10/05 15:59:06","新北市新店區中正路284巷4弄8號","121.53857","24.9746616666667","6500600","新店區"
"231037","4716-K9","2018/10/05 15:58:59","新北市新店區安民街133巷26號","121.515445","24.9695183333333","6500600","新店區"
"231030","619-UM","2018/10/05 15:59:11","新北市新店區安和路三段77號","121.517731666667","24.9834916666667","6500600","新店區"
"231035","719-UM","2018/10/05 15:59:01","新北市新店區安民街301號","121.517581666667","24.9737733333333","6500600","新店區"
"241028","022-UY","2018/10/05 15:59:11","新北市三重區大同南路134巷8號","121.496891666667","25.0584066666667","6500200","三重區"
"241008","059-VK","2018/10/05 15:58:54","新北市三重區重新路四段121號","121.484655","25.0521383333333","6500200","三重區"
"241022","060-VK","2018/10/05 15:59:04","新北市三重區中正北路176巷6號","121.483125","25.0664366666667","6500200","三重區"
"241015","062-VK","2018/10/05 15:59:13","新北市三重區重新路四段121號","121.484855","25.0525516666667","6500200","三重區"
"241017","063-VK","2018/10/05 15:59:06","新北市三重區大仁街48巷10號","121.491168333333","25.06446","6500200","三重區"
"241024","065-VK","2018/10/05 15:59:08","新北市三重區力行路一段131號","121.485991666667","25.06836","6500200","三重區"
"241026","066-VK","2018/10/05 15:58:56","新北市三重區重新路三段27號","121.494641666667","25.06148","6500200","三重區"
"241002","090-VK","2018/10/05 15:58:52","新北市三重區泉州街96巷14號","121.49559","25.05417","6500200","三重區"
"241003","091-VK","2018/10/05 15:52:44","新北市三重區環河北路二段330號","121.498023333333","25.0839583333333","6500200","三重區"
"241005","262-UM","2018/10/05 15:58:58","新北市三重區溪尾街305號","121.487536666667","25.0837333333333","6500200","三重區"
"241011","265-UM","2018/10/05 15:59:06","新北市三重區文化北路224巷6號","121.497551666667","25.068785","6500200","三重區"
"241016","266-UM","2018/10/05 15:59:10","新北市三重區重新路四段121號","121.484706666667","25.05253","6500200","三重區"
"241009","267-UM","2018/10/05 15:58:58","新北市三重區力行路二段184號","121.483361666667","25.0772183333333","6500200","三重區"
"241018","268-UM","2018/10/05 15:58:59","新北市三重區中正北路35號","121.491521666667","25.0625616666667","6500200","三重區"
"241032","269-UM","2018/10/05 15:59:12","新北市三重區三陽路100巷3弄13號","121.483","25.0582016666667","6500200","三重區"
"241013","270-UM","2018/10/05 15:59:01","新北市三重區三和路三段8號","121.497151666667","25.0700933333333","6500200","三重區"
"241025","271-UM","2018/10/05 15:58:59","新北市三重區三民街158號","121.482333333333","25.06547","6500200","三重區"
"241007","398-BY","2018/10/05 15:58:55","新北市三重區力行路二段145號","121.483421666667","25.0773","6500200","三重區"
"241004","475-VK","2018/10/05 15:59:01","新北市三重區重新路四段121號","121.48479","25.0525566666667","6500200","三重區"
"241020","478-VK","2018/10/05 15:58:55","新北市三重區車路頭街4巷23號","121.483216666667","25.070215","6500200","三重區"
"241030","480-VK","2018/10/05 15:59:00","新北市三重區重新路四段121號","121.484938333333","25.0526383333333","6500200","三重區"
"241014","543-UM","2018/10/05 15:59:05","新北市三重區重新路四段121號","121.484633333333","25.0521533333333","6500200","三重區"
"241023","545-UM","2018/10/05 15:59:00","新北市三重區中正北路168號","121.48428","25.0662083333333","6500200","三重區"
"241006","AAD-863","2018/10/05 15:59:07","新北市三重區捷運路36號","121.482993333333","25.0547816666667","6500200","三重區"
"241019","743-BX","2018/10/05 15:59:09","新北市三重區重新路四段121號","121.48486","25.0525833333333","6500200","三重區"
"241001","887-TS","2018/10/05 15:59:02","新北市三重區自強路四段66號","121.490373333333","25.0785283333333","6500200","三重區"
"241012","941-UM","2018/10/05 15:58:56","新北市三重區文化北路118巷18號","121.497983333333","25.0662883333333","6500200","三重區"
"241029","942-UM","2018/10/05 15:59:12","新北市三重區大同南路210號","121.496753333333","25.0564883333333","6500200","三重區"
"241033","AAC-255","2018/10/05 15:58:59","新北市三重區重新路五段453號","121.473975","25.0472216666667","6500200","三重區"
"235026","800-TS","2018/10/05 15:59:04","新北市中和區橋和路126號","121.493128333333","25.0061533333333","6500300","中和區"
"247008","336-TH","2018/10/05 15:46:49","新北市五股區中興路三段163號","121.449243333333","25.0807283333333","6501400","蘆洲區"
"224007","275-VK","2018/10/05 15:59:12","新北市瑞芳區大埔路52號","121.769143333333","25.1043","6501200","瑞芳區"
"227003","642-TC","2018/10/05 15:59:14","新北市雙溪區平林里外平林70號","121.842853333333","25.0349833333333","6502500","雙溪區"
"227011","400-TW","2018/10/05 15:59:01","新北市雙溪區三港里雙澳路26號","121.869523333333","25.0482633333333","6502500","雙溪區"
"236057","912-UM","2018/10/05 15:59:09","新北市土城區中央路三段134-1號","121.433518333333","24.9656366666667","6501300","土城區"
"242001","233-RS","2018/10/05 15:59:04","新北市新莊區環河路636-7號","121.437573333333","25.0116316666667","6500500","新莊區"
