"lineid","car","time","location","longitude","latitude","cityid","cityname"
"231046","107-UY","2018/10/05 16:19:13","新北市新店區灣潭路3-2號","121.538266666667","24.95074","6500600","新店區"
"231018","278-BY","2018/10/05 16:18:56","新北市新店區復興路106-11號","121.531421666667","24.9896283333333","6500600","新店區"
"241028","022-UY","2018/10/05 16:19:11","新北市三重區同安東街44號","121.497805","25.0572233333333","6500200","三重區"
"241008","059-VK","2018/10/05 16:19:14","新北市三重區力行路二段136巷45弄12號","121.479053333333","25.075365","6500200","三重區"
"241022","060-VK","2018/10/05 16:19:04","新北市三重區過圳街31巷2號","121.489176666667","25.0606483333333","6500200","三重區"
"241031","061-VK","2018/10/05 16:19:09","新北市三重區重新路四段85巷17號","121.485416666667","25.055965","6500200","三重區"
"241015","062-VK","2018/10/05 16:19:13","新北市三重區福德北路50號","121.501868333333","25.0658033333333","6500200","三重區"
"241017","063-VK","2018/10/05 16:19:06","新北市三重區大同北路83號","121.494883333333","25.0635766666667","6500200","三重區"
"241024","065-VK","2018/10/05 16:19:08","新北市三重區中正北路145巷3弄2號","121.483515","25.0675383333333","6500200","三重區"
"241026","066-VK","2018/10/05 16:18:56","新北市三重區正義南路103號","121.49859","25.059275","6500200","三重區"
"241002","090-VK","2018/10/05 16:19:12","新北市三重區仁義街91號","121.499761666667","25.0795016666667","6500200","三重區"
"241003","091-VK","2018/10/05 15:52:44","新北市三重區環河北路二段330號","121.498023333333","25.0839583333333","6500200","三重區"
"241005","262-UM","2018/10/05 16:18:58","新北市三重區溪尾街300-2號","121.487405","25.08363","6500200","三重區"
"241011","265-UM","2018/10/05 16:19:06","新北市三重區龍濱路285號","121.501115","25.0733116666667","6500200","三重區"
"241016","266-UM","2018/10/05 16:19:10","新北市三重區大仁街92號","121.492915","25.0654733333333","6500200","三重區"
"241009","267-UM","2018/10/05 16:18:58","新北市三重區仁愛街519號","121.487401666667","25.0822633333333","6500200","三重區"
"241018","268-UM","2018/10/05 16:18:59","新北市三重區重陽路三段39號","121.489411666667","25.0670316666667","6500200","三重區"
"241032","269-UM","2018/10/05 16:19:12","新北市三重區三陽路100巷3弄13號","121.482988333333","25.0580783333333","6500200","三重區"
"241013","270-UM","2018/10/05 16:19:01","新北市三重區龍門路64號","121.496658333333","25.072735","6500200","三重區"
"241025","271-UM","2018/10/05 16:18:56","新北市三重區中正北路560巷100弄2號","121.472455","25.0682033333333","6500200","三重區"
"241007","398-BY","2018/10/05 16:19:15","新北市三重區三和路四段163巷97號","121.486718333333","25.0796116666667","6500200","三重區"
"241004","475-VK","2018/10/05 16:19:01","新北市三重區自強路五段67號","121.494835","25.0819833333333","6500200","三重區"
"241020","478-VK","2018/10/05 16:19:15","新北市三重區後竹圍街252號","121.484251666667","25.07132","6500200","三重區"
"241030","480-VK","2018/10/05 16:19:00","新北市三重區重新路四段121號","121.4849","25.0527133333333","6500200","三重區"
"241014","543-UM","2018/10/05 16:19:05","新北市三重區河邊北街96-1號","121.504056666667","25.0699583333333","6500200","三重區"
"241023","545-UM","2018/10/05 16:18:20","新北市三重區忠孝路二段138號","121.482495","25.0683","6500200","三重區"
"241006","AAD-863","2018/10/05 16:19:07","新北市三重區永福街46巷41弄43號","121.48135","25.077145","6500200","三重區"
"241019","743-BX","2018/10/05 16:19:10","新北市三重區重陽路三段97號","121.490418333333","25.0679066666667","6500200","三重區"
"241001","887-TS","2018/10/05 16:19:02","新北市三重區自強路四段87號","121.491113333333","25.079445","6500200","三重區"
"241012","941-UM","2018/10/05 16:19:16","新北市三重區河邊北街313號","121.50239","25.0748533333333","6500200","三重區"
"241029","942-UM","2018/10/05 16:19:01","新北市三重區中正南路212號","121.493836666667","25.055455","6500200","三重區"
"241033","AAC-255","2018/10/05 16:18:59","新北市三重區重新路五段440號","121.474901666667","25.0472433333333","6500200","三重區"
"235026","800-TS","2018/10/05 16:19:04","新北市中和區永和路171巷3弄6號","121.492641666667","25.00654","6500300","中和區"
"224007","275-VK","2018/10/05 16:19:12","新北市瑞芳區大埔路220號","121.760811666667","25.1022716666667","6501200","瑞芳區"
"227003","642-TC","2018/10/05 16:19:14","新北市雙溪區上林里內平林80號","121.828291666667","25.0279216666667","6502500","雙溪區"
"227011","400-TW","2018/10/05 16:19:01","新北市雙溪區三港里雙澳路80號","121.88382","25.0538766666667","6502500","雙溪區"
"251008","179-VK","2018/10/05 16:19:12","新北市淡水區重建街永興巷2號","121.439708333333","25.1725416666667","6501000","淡水區"
"242001","233-RS","2018/10/05 16:19:04","新北市新莊區環河路636-7號","121.437575","25.011635","6500500","新莊區"
