"lineid","car","time","location","longitude","latitude","cityid","cityname"
"234081","298-R6","2018/10/05 17:59:02","新北市永和區福和路1號","121.526525","25.0100133333333","6500400","永和區"
"234026","9371-KE","2018/10/05 17:59:12","新北市永和區永和路一段135巷2號","121.514088333333","25.008695","6500400","永和區"
"249005","172-UM","2018/10/05 17:59:12","新北市八里區荖阡坑路16號","121.397808333333","25.1382816666667","6502300","八里區"
"249001","173-UM","2018/10/05 17:59:16","新北市八里區龍米路二段35號","121.44842","25.1400033333333","6502300","八里區"
"249004","303-UY","2018/10/05 17:59:04","新北市八里區龍米路三段2號","121.429575","25.1589116666667","6502300","八里區"
"249002","305-UY","2018/10/05 17:59:08","新北市八里區龍米路一段259號","121.450636666667","25.1337683333333","6502300","八里區"
"249003","593-UM","2018/10/05 17:59:09","新北市八里區中山路二段181號","121.404798333333","25.1501283333333","6502300","八里區"
"248006","077-UY","2018/10/05 17:59:03","新北市五股區中興路二段83巷26號","121.459163333333","25.0755633333333","6501500","五股區"
"248008","095-VK","2018/10/05 17:59:11","新北市五股區更洲路10號","121.458318333333","25.0787983333333","6501500","五股區"
"248018","225-UY","2018/10/05 17:59:03","新北市五股區中興路二段83巷26-6號","121.460096666667","25.0752866666667","6501500","五股區"
"248004","677-BX","2018/10/05 17:59:08","新北市五股區中興路二段83巷26-6號","121.460118333333","25.07511","6501500","五股區"
"248002","678-BX","2018/10/05 17:59:12","新北市五股區中興路二段37巷28號","121.460161666667","25.0748333333333","6501500","五股區"
"232011","375-UM","2018/10/05 17:59:16","新北市坪林區北宜路八段157號","121.707361666667","24.9345233333333","6502000","坪林區"
"244023","069-UM","2018/10/05 17:59:12","新北市林口區東湖路41巷12號","121.38623","25.0733766666667","6501700","林口區"
"244007","080-UY","2018/10/05 17:58:56","新北市林口區竹林路161號","121.388806666667","25.07998","6501700","林口區"
"244019","403-UM","2018/10/05 17:59:00","新北市林口區文化一路一段126號","121.375443333333","25.0726683333333","6501700","林口區"
"244013","KEA-2802","2018/10/05 17:59:11","新北市林口區中山路93號","121.389743333333","25.0788233333333","6501700","林口區"
"244017","485-VK","2018/10/05 17:59:02","新北市林口區忠孝路372號","121.369245","25.0713716666667","6501700","林口區"
"244009","656-BX","2018/10/05 17:59:01","新北市林口區佳林路56巷6弄14號","121.385606666667","25.08226","6501700","林口區"
"244011","701-TV","2018/10/05 17:59:03","新北市林口區中正路184號","121.39197","25.07762","6501700","林口區"
"244025","837-TS","2018/10/05 17:59:09","新北市林口區文化北路一段62號","121.356671666667","25.068635","6501700","林口區"
"244021","838-TS","2018/10/05 17:58:56","新北市林口區新寮27-5號","121.3965","25.06659","6501700","林口區"
"243013","AAD-798","2018/10/05 17:58:59","新北市泰山區黎明路25號","121.421933333333","25.0608683333333","6501600","泰山區"
"222003","436-BY","2018/10/05 17:58:58","新北市深坑區炮子崙23號","121.607185","24.9909","6501800","深坑區"
"222002","659-BX","2018/10/05 17:59:08","新北市深坑區文化街102號","121.616656666667","25.0019133333333","6501800","深坑區"
"231041","002-UM","2018/10/05 17:59:17","新北市新店區安華路28-1號","121.519686666667","24.9609516666667","6500600","新店區"
"231046","107-UY","2018/10/05 17:59:13","新北市新店區下石厝路29-1號","121.534323333333","24.9289716666667","6500600","新店區"
"231055","AKT-0513","2018/10/05 17:59:15","新北市新店區安華路1-1號","121.519316666667","24.9602366666667","6500600","新店區"
"241024","065-VK","2018/10/05 17:59:08","新北市三重區力行路二段29號","121.48206","25.0729233333333","6500200","三重區"
"241016","266-UM","2018/10/05 17:59:10","新北市三重區大同北路91號","121.494606666667","25.063645","6500200","三重區"
"241033","AAC-255","2018/10/05 17:58:59","新北市三重區重新路五段619號","121.467936666667","25.0442616666667","6500200","三重區"
"235064","005-UY","2018/10/05 17:59:06","新北市中和區員山路36巷16-2號","121.485221666667","24.9915316666667","6500300","中和區"
"235063","006-UY","2018/10/05 17:59:09","新北市中和區員山路36巷16-3號","121.485126666667","24.9912983333333","6500300","中和區"
"235065","098-UM","2018/10/05 17:59:13","新北市中和區中山路二段478號","121.487816666667","25.004795","6500300","中和區"
"235058","151-BY","2018/10/05 17:59:06","新北市中和區錦和路350-1號","121.490501666667","24.9935516666667","6500300","中和區"
"247012","KEA-2869","2018/10/05 17:58:56","新北市蘆洲區民族路220號","121.479626666667","25.0879616666667","6501400","蘆洲區"
"235054","640-BX","2018/10/05 17:59:11","新北市中和區員山路36巷16-2號","121.485138333333","24.9916066666667","6500300","中和區"
"235017","900-TW","2018/10/05 17:37:48","新北市中和區員山路36巷16-3號","121.484933333333","24.9917116666667","6500300","中和區"
"235051","157-BY","2018/10/05 17:59:03","新北市中和區員山路36巷13號","121.484241666667","24.9907933333333","6500300","中和區"
"235037","AAC-213","2018/10/05 17:59:13","新北市中和區中正路395號","121.489783333333","24.9935833333333","6500300","中和區"
"247002","893-R6","2018/10/05 17:59:11","新北市蘆洲區永平街32巷57弄6-1號","121.459555","25.0928866666667","6501400","蘆洲區"
"247016","546-UM","2018/10/05 17:58:58","新北市蘆洲區中正路185巷78弄14號","121.46604","25.084615","6501400","蘆洲區"
"247014","339-TH","2018/10/05 17:59:04","新北市蘆洲區忠孝路86號","121.471483333333","25.085805","6501400","蘆洲區"
"247020","057-VK","2018/10/05 17:56:19","新北市蘆洲區水湳街36-10號","121.471436666667","25.08963","6501400","蘆洲區"
"226004","205-ST","2018/10/05 17:59:11","新北市平溪區石底里公園街18-3號","121.733321666667","25.0258416666667","6502400","平溪區"
"228003","097-TW","2018/10/05 17:59:16","新北市貢寮區真理里美艷山街6-2號","121.928876666667","25.0607366666667","6502600","貢寮區"
"228002","663-BX","2018/10/05 17:59:04","新北市貢寮區福隆里桂安街15號","121.963145","25.0210166666667","6502600","貢寮區"
"228001","670-TC","2018/10/05 17:59:09","新北市貢寮區真理里新港街26巷31號","121.929176666667","25.0547366666667","6502600","貢寮區"
"224006","676-BX","2018/10/05 17:59:02","新北市瑞芳區大寮路356-1號","121.784633333333","25.10321","6501200","瑞芳區"
"224002","639-TC","2018/10/05 17:59:14","新北市瑞芳區三爪子坑路64-5號","121.809741666667","25.105775","6501200","瑞芳區"
"224008","285-BY","2018/10/05 17:59:00","新北市瑞芳區明燈路一段45巷109號","121.821881666667","25.1037","6501200","瑞芳區"
"224009","273-VK","2018/10/05 17:59:08","新北市瑞芳區金光路115號","121.853608333333","25.106255","6501200","瑞芳區"
"224005","271-BY","2018/10/05 17:59:07","新北市瑞芳區深澳路209號","121.820106666667","25.1321566666667","6501200","瑞芳區"
"227003","642-TC","2018/10/05 17:59:14","新北市雙溪區共和里東榮街52號","121.866345","25.0337066666667","6502500","雙溪區"
"227011","400-TW","2018/10/05 17:59:01","新北市雙溪區三貂里定福路1-2號","121.850711666667","25.063505","6502500","雙溪區"
"253006","032-BX","2018/10/05 17:59:12","新北市石門區大丘田45-2號","121.549755","25.2748883333333","6502200","石門區"
"253005","295-VK","2018/10/05 17:59:05","新北市石門區中山路62-6號","121.567365","25.2899366666667","6502200","石門區"
"208002","KEA-2872","2018/10/05 17:59:13","新北市金山區三界壇路93-1號","121.624426666667","25.2287566666667","6502700","金山區"
"208003","665-BX","2018/10/05 17:59:06","新北市金山區磺港里磺港路313號","121.64442","25.2279483333333","6502700","金山區"
"208001","761-BX","2018/10/05 17:59:13","新北市金山區磺港里社寮16-1號","121.638891666667","25.2265033333333","6502700","金山區"
"251005","010-UM","2018/10/05 17:59:03","新北市淡水區英專路116號","121.445933333333","25.1722066666667","6501000","淡水區"
"251001","011-UM","2018/10/05 17:59:00","新北市淡水區自強路2號","121.46476","25.12424","6501000","淡水區"
"251002","012-UM","2018/10/05 17:58:59","新北市淡水區鼻頭街18-5號","121.446795","25.1667","6501000","淡水區"
"251008","179-VK","2018/10/05 17:59:12","新北市淡水區八勢一街37號","121.462105","25.15631","6501000","淡水區"
"251010","413-VK","2018/10/05 17:59:07","新北市淡水區中正路一段87巷1號","121.421683333333","25.1791116666667","6501000","淡水區"
"251012","441-VK","2018/10/05 17:58:55","新北市淡水區北新路三段38巷7號","121.484528333333","25.187035","6501000","淡水區"
"251004","443-VK","2018/10/05 17:59:02","新北市淡水區民權路82號","121.4592","25.1336016666667","6501000","淡水區"
"251006","561-UM","2018/10/05 17:59:01","新北市淡水區新生街15號","121.438865","25.173265","6501000","淡水區"
"251009","575-R6","2018/10/05 17:59:10","新北市淡水區大仁街6巷1號","121.442396666667","25.17469","6501000","淡水區"
"251007","577-R6","2018/10/05 17:59:13","新北市淡水區中正東路二段153號","121.4598","25.14655","6501000","淡水區"
"251011","650-BX","2018/10/05 17:59:04","新北市淡水區三空泉5-1號","121.477978333333","25.1620166666667","6501000","淡水區"
"251003","673-BX","2018/10/05 17:59:08","新北市淡水區大忠街51號","121.444821666667","25.176385","6501000","淡水區"
"207003","681-TV","2018/10/05 17:59:07","新北市萬里區港東路野柳風景區攤販55號","121.691481666667","25.2058816666667","6502800","萬里區"
"207004","225-TW","2018/10/05 17:59:03","新北市萬里區中幅里中福路48號","121.683403333333","25.1741333333333","6502800","萬里區"
"252002","178-VK","2018/10/05 17:58:55","新北市三芝區中山路二段45號","121.503015","25.25483","6502100","三芝區"
"252001","292-VK","2018/10/05 17:58:58","新北市三芝區中興街二段2號","121.498398333333","25.2566383333333","6502100","三芝區"
"237007","153-BY","2018/10/05 17:59:04","新北市三峽區中園街137號","121.367341666667","24.9233783333333","6500900","三峽區"
"237009","210-TH","2018/10/05 17:59:06","新北市三峽區中山路106巷18號","121.366061666667","24.9365516666667","6500900","三峽區"
"237013","252-BX","2018/10/05 17:59:03","新北市三峽區介壽路一段201號","121.378338333333","24.9306683333333","6500900","三峽區"
"237012","275-BY","2018/10/05 17:58:59","新北市三峽區民生街10號","121.376143333333","24.9367166666667","6500900","三峽區"
"237008","302-VK","2018/10/05 17:59:01","新北市三峽區白雞28號","121.368925","24.9124533333333","6500900","三峽區"
"237014","433-BY","2018/10/05 17:59:12","新北市三峽區復興路101巷1弄1號","121.37192","24.9373833333333","6500900","三峽區"
"237006","5529-G3","2018/10/05 17:59:10","新北市三峽區介壽路二段138巷1弄133號","121.399816666667","24.9309783333333","6500900","三峽區"
"237011","KEA-2596","2018/10/05 17:58:59","新北市三峽區光明路64號","121.375133333333","24.9290883333333","6500900","三峽區"
"237015","649-BX","2018/10/05 17:58:56","新北市三峽區紫微路87號","121.404171666667","24.90879","6500900","三峽區"
"237010","706-TV","2018/10/05 17:59:07","新北市三峽區民權街171號","121.367976666667","24.93018","6500900","三峽區"
"237005","AKY-6261","2018/10/05 17:58:57","新北市三峽區復興路239-2號","121.368183333333","24.9384466666667","6500900","三峽區"
"236069","105-UM","2018/10/05 17:59:09","新北市土城區城林路6巷80號","121.43849","24.9797816666667","6501300","土城區"
"236042","107-UM","2018/10/05 17:58:58","新北市土城區城林路6巷80號","121.438536666667","24.9797333333333","6501300","土城區"
"236079","166-UM","2018/10/05 17:58:57","新北市土城區永寧路24-2號","121.429565","24.9611816666667","6501300","土城區"
"236026","269-VK","2018/10/05 17:58:58","新北市土城區中央路三段56號","121.437068333333","24.9674866666667","6501300","土城區"
"236014","270-VK","2018/10/05 17:59:10","新北市土城區城林路6巷80號","121.438576666667","24.979675","6501300","土城區"
"236039","271-VK","2018/10/05 17:59:15","新北市土城區中華路二段2號","121.439323333333","24.9796316666667","6501300","土城區"
"236020","401-BY","2018/10/05 17:59:07","新北市土城區中華路二段2號","121.438848333333","24.979665","6501300","土城區"
"236030","752-BX","2018/10/05 17:59:12","新北市土城區城林路6巷80號","121.438691666667","24.9797233333333","6501300","土城區"
"236059","912-UM","2018/10/05 17:59:08","新北市土城區中央路三段182號","121.43063","24.96511","6501300","土城區"
"236048","913-UM","2018/10/05 17:59:11","新北市土城區中央路二段276-1號","121.440925","24.974305","6501300","土城區"
"236063","915-UM","2018/10/05 17:59:13","新北市土城區城林路6巷80號","121.43845","24.979715","6501300","土城區"
"236055","AAC-216","2018/10/05 17:59:14","新北市土城區城林路6巷80號","121.438488333333","24.9797566666667","6501300","土城區"
"242037","AAC-296","2018/10/05 17:59:13","新北市新莊區建福路44號","121.426525","25.0278566666667","6500500","新莊區"
"242058","986-R7","2018/10/05 17:59:15","新北市新莊區中山路三段627號","121.413901666667","25.023745","6500500","新莊區"
"242056","751-BX","2018/10/05 17:59:10","新北市新莊區豐年街124巷18號","121.445601666667","25.0297833333333","6500500","新莊區"
"242029","705-TV","2018/10/05 17:58:58","新北市新莊區中平路88號","121.444788333333","25.04516","6500500","新莊區"
"242027","615-BX","2018/10/05 17:59:10","新北市新莊區思源路368號","121.46002","25.0515516666667","6500500","新莊區"
"242025","613-BX","2018/10/05 17:59:15","新北市新莊區五工路58號","121.458825","25.0628183333333","6500500","新莊區"
"242044","566-BX","2018/10/05 17:59:08","新北市新莊區中正路700-21號","121.418041666667","25.0271716666667","6500500","新莊區"
"242048","497-BY","2018/10/05 17:59:16","新北市新莊區後港二路10號","121.422843333333","25.0240583333333","6500500","新莊區"
"242054","441-UM","2018/10/05 17:59:11","新北市新莊區民安西路470-1號","121.43171","25.00783","6500500","新莊區"
"242002","440-UM","2018/10/05 17:59:06","新北市新莊區中正路147-4號","121.457765","25.0372","6500500","新莊區"
"242039","415-TV","2018/10/05 17:59:12","新北市新莊區民安西路24巷12弄2號","121.426403333333","25.0211083333333","6500500","新莊區"
"242009","413-TV","2018/10/05 17:59:00","新北市新莊區中華路二段260號","121.452548333333","25.0531833333333","6500500","新莊區"
"242046","400-BY","2018/10/05 17:59:10","新北市新莊區福營路143號","121.43254","25.031625","6500500","新莊區"
"242023","362-BY","2018/10/05 17:59:06","新北市新莊區福壽街61號","121.458243333333","25.0491716666667","6500500","新莊區"
"242060","353-BY","2018/10/05 17:59:00","新北市新莊區新樹路254-1號","121.432856666667","25.0161866666667","6500500","新莊區"
"242011","132-UY","2018/10/05 17:59:13","新北市新莊區中港路中慶巷19號","121.450363333333","25.053745","6500500","新莊區"
"242041","133-UY","2018/10/05 17:59:07","新北市新莊區丹鳳街13號","121.42143","25.02931","6500500","新莊區"
"242050","172-VK","2018/10/05 17:59:04","新北市新莊區龍安路535號","121.427841666667","25.0175266666667","6500500","新莊區"
"242013","173-VK","2018/10/05 17:58:49","新北市新莊區中和街125巷14號","121.446936666667","25.0486683333333","6500500","新莊區"
"242019","175-VK","2018/10/05 17:59:15","新北市新莊區明中街51巷5號","121.456675","25.0395683333333","6500500","新莊區"
"242017","346-TH","2018/10/05 17:59:03","新北市新莊區永樂街168號","121.448618333333","25.0446933333333","6500500","新莊區"
"242032","348-TH","2018/10/05 17:59:02","新北市新莊區新泰路289巷50號","121.443243333333","25.040415","6500500","新莊區"
"242005","349-TH","2018/10/05 17:59:11","新北市新莊區自由街6號","121.455791666667","25.0479333333333","6500500","新莊區"
"242021","350-TH","2018/10/05 17:59:09","新北市新莊區建興街22號","121.450108333333","25.0369566666667","6500500","新莊區"
"242015","351-TH","2018/10/05 17:59:12","新北市新莊區中平路87巷8號","121.444331666667","25.04584","6500500","新莊區"
"238015","755-BX","2018/10/05 17:59:09","新北市樹林區大安路307巷1弄3號","121.418095","24.9922216666667","6500700","樹林區"
"238023","601-UM","2018/10/05 17:59:15","新北市樹林區龍興街44號","121.40306","25.0155366666667","6500700","樹林區"
"238019","599-UM","2018/10/05 17:59:15","新北市樹林區八德街321-1號","121.419388333333","24.9742283333333","6500700","樹林區"
"238018","571-TV","2018/10/05 17:59:09","新北市新莊區新崑路57號","121.431421666667","24.9994783333333","6500700","樹林區"
"238022","KEA-2213","2018/10/05 17:59:02","新北市樹林區太平路96號","121.418605","24.979465","6500700","樹林區"
"238021","KEA-2539","2018/10/05 17:59:00","新北市樹林區柑園街一段115號","121.401123333333","24.9599733333333","6500700","樹林區"
"238025","303-VK","2018/10/05 17:59:13","新北市樹林區三俊街102號","121.414618333333","25.0156266666667","6500700","樹林區"
"238017","283-BY","2018/10/05 17:59:13","新北市樹林區中正路464號","121.412866666667","25.0127666666667","6500700","樹林區"
"238014","282-BY","2018/10/05 17:58:59","新北市樹林區中正路45巷10號","121.426563333333","24.9992783333333","6500700","樹林區"
"238020","268-VK","2018/10/05 17:59:07","新北市樹林區三俊街199巷10-5號","121.42014","25.01628","6500700","樹林區"
"238026","172-UY","2018/10/05 17:59:04","新北市樹林區中洲街30巷13弄15號","121.398056666667","24.971965","6500700","樹林區"
"238003","169-UY","2018/10/05 17:59:18","新北市樹林區啟智街173巷7號","121.416191666667","24.9874416666667","6500700","樹林區"
"239007","AAC-297","2018/10/05 17:59:16","新北市鶯歌區鶯桃路16號","121.342206666667","24.9516033333333","6500800","鶯歌區"
"239006","891-R6","2018/10/05 17:58:59","新北市鶯歌區鶯桃路455巷10弄8號","121.331253333333","24.9640866666667","6500800","鶯歌區"
"239008","527-UM","2018/10/05 17:59:12","新北市鶯歌區欣欣街5號","121.336163333333","24.97793","6500800","鶯歌區"
"239005","526-UM","2018/10/05 17:59:11","新北市鶯歌區鶯桃路658巷87號","121.331753333333","24.97075","6500800","鶯歌區"
"239001","417-VK","2018/10/05 17:59:10","新北市鶯歌區中正三路279-6號","121.332426666667","24.9380233333333","6500800","鶯歌區"
"239003","360-BY","2018/10/05 17:59:01","新北市鶯歌區永吉街9巷2號","121.336415","24.9581966666667","6500800","鶯歌區"
"239002","359-BY","2018/10/05 17:59:11","新北市鶯歌區光明街136號","121.345086666667","24.955875","6500800","鶯歌區"
"239004","193-VK","2018/10/05 17:59:10","新北市鶯歌區尖山路168巷33號","121.344561666667","24.94878","6500800","鶯歌區"
"221008","489-VK","2018/10/05 17:58:59","新北市汐止區明峰街11號","121.635181666667","25.0712916666667","6501100","汐止區"
"221036","130-UY","2018/10/05 17:59:10","新北市汐止區大同路二段572-1號","121.665358333333","25.0730566666667","6501100","汐止區"
"221015","131-UY","2018/10/05 17:59:06","新北市汐止區長江街287號","121.665253333333","25.081195","6501100","汐止區"
"221010","269-BY","2018/10/05 17:59:10","新北市汐止區汐萬路二段245巷23號","121.64481","25.0875183333333","6501100","汐止區"
"221012","278-VK","2018/10/05 17:59:09","新北市汐止區長興街二段32號","121.673335","25.0814066666667","6501100","汐止區"
"221023","279-VK","2018/10/05 17:59:09","新北市汐止區明峰街131號","121.630133333333","25.0706883333333","6501100","汐止區"
"221032","280-BY","2018/10/05 17:59:01","新北市汐止區橫科路73巷20弄18號","121.619741666667","25.051605","6501100","汐止區"
"221027","281-BY","2018/10/05 17:59:14","新北市汐止區大同路二段397號","121.657941666667","25.0672616666667","6501100","汐止區"
"221029","298-VK","2018/10/05 17:59:04","新北市汐止區樟樹二路332號","121.641445","25.0703716666667","6501100","汐止區"
"221021","299-VK","2018/10/05 17:59:11","新北市汐止區新興路15號","121.656461666667","25.064685","6501100","汐止區"
"221031","353-TW","2018/10/05 17:59:05","新北市汐止區中興路145號","121.63139","25.0658433333333","6501100","汐止區"
"221035","622-UM","2018/10/05 17:59:09","新北市汐止區汐萬路一段167-1號","121.652743333333","25.0710033333333","6501100","汐止區"
"221025","623-UM","2018/10/05 17:59:03","新北市汐止區仁愛路17號","121.659213333333","25.063955","6501100","汐止區"
"221038","646-BX","2018/10/05 17:59:15","新北市汐止區連興街52號","121.653881666667","25.06307","6501100","汐止區"
"221002","707-TV","2018/10/05 17:58:59","新北市汐止區中興路62號","121.63549","25.0615033333333","6501100","汐止區"
"221018","753-BX","2018/10/05 17:59:11","新北市汐止區招商街1號","121.666331666667","25.06923","6501100","汐止區"
"242034","281-VK","2018/10/05 17:59:09","新北市新莊區福海街31巷2號","121.445221666667","25.0339433333333","6500500","新莊區"
"242007","280-VK","2018/10/05 17:59:13","新北市新莊區自治街2號","121.45323","25.0478016666667","6500500","新莊區"
"235061","KEA-2875","2018/10/05 17:59:11","新北市中和區員山路36巷16-2號","121.485271666667","24.9918466666667","6500300","中和區"
