"lineid","car","time","location","longitude","latitude","cityid","cityname"
"234046","148-BY","2018/10/05 19:58:36","新北市永和區林森路49號","121.52468","25.0042866666667","6500400","永和區"
"234007","207-UY","2018/10/05 19:58:55","新北市永和區保生路22巷21號","121.507148333333","25.008235","6500400","永和區"
"234081","298-R6","2018/10/05 19:58:42","新北市永和區永利路81巷19號","121.5222","25.0038333333333","6500400","永和區"
"234038","336-UY","2018/10/05 19:58:55","新北市永和區成功路二段140號","121.526518333333","24.99724","6500400","永和區"
"234064","337-UY","2018/10/05 19:58:36","新北市永和區中正路412巷20弄27號","121.51915","25.0012816666667","6500400","永和區"
"234086","338-UY","2018/10/05 19:58:47","新北市永和區福和路94號","121.522413333333","25.0081416666667","6500400","永和區"
"234070","552-UM","2018/10/05 19:58:47","新北市永和區國光路14號","121.519095","25.0083516666667","6500400","永和區"
"234017","745-BX","2018/10/05 19:58:41","新北市永和區文化路91號","121.513398333333","25.015105","6500400","永和區"
"234030","746-BX","2018/10/05 19:58:51","新北市永和區民生路67巷22號","121.523818333333","24.9971666666667","6500400","永和區"
"234054","KEA-2590","2018/10/05 19:58:41","新北市永和區環河東路一段122號","121.520546666667","25.0154466666667","6500400","永和區"
"234013","KEA-2591","2018/10/05 19:58:36","新北市永和區保生路55號","121.504735","25.0106333333333","6500400","永和區"
"234061","AAD-866","2018/10/05 19:58:48","新北市永和區得和路68號","121.516303333333","24.9999483333333","6500400","永和區"
"234042","862-TW","2018/10/05 19:58:43","新北市永和區中和路421巷16弄7號","121.508781666667","25.001205","6500400","永和區"
"234050","863-TW","2018/10/05 19:58:48","新北市永和區保安路144號","121.508478333333","25.0149383333333","6500400","永和區"
"234026","9371-KE","2018/10/05 19:58:38","新北市永和區水源街21巷14弄2號","121.511563333333","25.003875","6500400","永和區"
"234011","9373-KE","2018/10/05 19:58:37","新北市永和區仁愛路352巷92弄20號","121.501365","25.0083583333333","6500400","永和區"
"249005","172-UM","2018/10/05 19:58:52","新北市八里區楓林路3-1號","121.382395","25.130415","6502300","八里區"
"249001","173-UM","2018/10/05 19:58:45","新北市八里區中華路二段310號","121.403863333333","25.148425","6502300","八里區"
"249004","303-UY","2018/10/05 19:58:44","新北市八里區中山路二段229-1號","121.41073","25.1575083333333","6502300","八里區"
"249002","305-UY","2018/10/05 19:58:48","新北市八里區頂寮二街3號","121.45099","25.1238983333333","6502300","八里區"
"249003","593-UM","2018/10/05 19:58:52","新北市八里區中華路二段558號","121.39857","25.14525","6502300","八里區"
"248016","026-BX","2018/10/05 19:58:42","新北市五股區成泰路三段577巷80弄72號","121.448901666667","25.1047833333333","6501500","五股區"
"248008","095-VK","2018/10/05 19:58:51","新北市五股區四維路79號","121.467285","25.0722983333333","6501500","五股區"
"248018","225-UY","2018/10/05 19:58:43","新北市五股區登林路108號","121.426886666667","25.07062","6501500","五股區"
"248012","247-BX","2018/10/05 19:58:52","新北市五股區民義路一段138-1號","121.434083333333","25.0865316666667","6501500","五股區"
"248014","261-SL","2018/10/05 19:58:41","新北市五股區五福路14巷29號","121.435411666667","25.088925","6501500","五股區"
"248010","272-BY","2018/10/05 19:58:38","新北市五股區成泰路一段87號","121.434865","25.0688466666667","6501500","五股區"
"248004","677-BX","2018/10/05 19:58:48","新北市五股區成泰路一段8巷2-2號","121.434785","25.0669066666667","6501500","五股區"
"248002","678-BX","2018/10/05 19:58:52","新北市五股區凌雲路一段50號","121.45162","25.1007916666667","6501500","五股區"
"234023","9380-KE","2018/10/05 19:58:49","新北市永和區中正路662巷25號","121.517655","25.0088583333333","6500400","永和區"
"234077","969-R7","2018/10/05 19:58:47","新北市永和區民有街23巷51號","121.517651666667","24.9974","6500400","永和區"
"234074","AAC-211","2018/10/05 19:58:52","新北市永和區豫溪街215巷9號","121.523915","25.0098466666667","6500400","永和區"
"234067","AAC-212","2018/10/05 19:58:54","新北市永和區永貞路376號","121.509726666667","25.0070283333333","6500400","永和區"
"234003","AAC-295","2018/10/05 19:58:52","新北市永和區中正路742-1號","121.515178333333","25.010285","6500400","永和區"
"243013","AAD-798","2018/10/05 19:38:33","新北市泰山區應化街7號","121.42387","25.04379","6501600","泰山區"
"243009","297-R6","2018/10/05 19:58:54","新北市泰山區楓江路16巷15號","121.433928333333","25.0617533333333","6501600","泰山區"
"243016","KEA-2801","2018/10/05 19:58:49","新北市泰山區新北大道六段282號","121.4257","25.0355933333333","6501600","泰山區"
"243015","421-VK","2018/10/05 19:58:35","新北市泰山區明志路二段214巷16弄16號","121.427168333333","25.049705","6501600","泰山區"
"243011","KEA-2215","2018/10/05 19:58:36","新北市泰山區工專路60號","121.422916666667","25.0402483333333","6501600","泰山區"
"243010","KEA-2216","2018/10/05 19:58:44","新北市泰山區中華街9號","121.427718333333","25.0524033333333","6501600","泰山區"
"243012","646-TV","2018/10/05 19:58:47","新北市泰山區福興街26號","121.434361666667","25.057515","6501600","泰山區"
"243014","680-BX","2018/10/05 19:58:47","新北市泰山區明志路一段193號","121.432898333333","25.0616833333333","6501600","泰山區"
"222003","436-BY","2018/10/05 19:58:38","新北市深坑區埔新街10號","121.620711666667","25.0039816666667","6501800","深坑區"
"222002","659-BX","2018/10/05 19:58:47","新北市深坑區北深路二段81巷8弄6號","121.618241666667","25.003105","6501800","深坑區"
"231059","001-UM","2018/10/05 19:58:40","新北市新店區安和路一段53號","121.517456666667","24.96608","6500600","新店區"
"231041","002-UM","2018/10/05 19:58:37","新北市新店區中正路352號","121.535916666667","24.9755433333333","6500600","新店區"
"231040","047-UY","2018/10/05 19:58:33","新北市新店區中正路74號","121.543908333333","24.9701833333333","6500600","新店區"
"231044","106-UY","2018/10/05 19:58:38","新北市新店區復興路38號","121.538906666667","24.986745","6500600","新店區"
"231048","187-VK","2018/10/05 19:58:35","新北市新店區寶宏路38號","121.549418333333","24.9755216666667","6500600","新店區"
"231062","188-VK","2018/10/05 19:58:48","新北市新店區華潭街26巷3弄3號","121.530033333333","24.9532216666667","6500600","新店區"
"231053","189-VK","2018/10/05 19:58:53","新北市新店區新烏路三段92號","121.55327","24.9036966666667","6500600","新店區"
"231054","KEA-2219","2018/10/05 19:58:44","新北市新店區光明街123號","121.539353333333","24.9617333333333","6500600","新店區"
"231057","256-BX","2018/10/05 19:58:47","新北市新店區花園二路一段11號","121.555488333333","24.9324333333333","6500600","新店區"
"231042","268-BY","2018/10/05 19:58:43","新北市新店區中興路一段283號","121.545323333333","24.9684533333333","6500600","新店區"
"231051","278-BY","2018/10/05 19:58:44","新北市新店區中央路222號","121.52975","24.9729083333333","6500600","新店區"
"231050","AAD-862","2018/10/05 19:58:50","新北市新店區北宜路二段117-5號","121.55065","24.9529716666667","6500600","新店區"
"231066","4716-K9","2018/10/05 19:58:49","新北市新店區薏仁坑路22號","121.49877","24.959175","6500600","新店區"
"231056","4715-K9","2018/10/05 19:58:45","新北市新店區北新路二段45號","121.5428","24.972925","6500600","新店區"
"231067","4772-VM","2018/10/05 19:58:50","新北市新店區秀山路72號","121.531248333333","24.9607316666667","6500600","新店區"
"231065","512-UM","2018/10/05 19:58:43","新北市新店區安祥路106巷10號","121.478758333333","24.9626366666667","6500600","新店區"
"231049","513-UM","2018/10/05 19:58:42","新北市新店區民族路66號","121.53953","24.978275","6500600","新店區"
"231063","616-UM","2018/10/05 19:58:41","新北市新店區車子路11號","121.502961666667","24.951745","6500600","新店區"
"231045","617-UM","2018/10/05 19:58:45","新北市新店區北宜路二段271號","121.554796666667","24.9535933333333","6500600","新店區"
"231061","619-UM","2018/10/05 19:58:49","新北市新店區安民街369號","121.516553333333","24.9759883333333","6500600","新店區"
"231068","718-UY","2018/10/05 19:58:38","新北市新店區安康路一段355號","121.51987","24.963765","6500600","新店區"
"231064","719-UM","2018/10/05 19:58:10","新北市新店區安民街21號","121.5155","24.9648083333333","6500600","新店區"
"231060","897-TW","2018/10/05 19:58:51","新北市新店區安康路二段436號","121.495771666667","24.954925","6500600","新店區"
"231043","899-TW","2018/10/05 19:58:49","新北市新店區中正路282-11號","121.538385","24.9739166666667","6500600","新店區"
"231055","AKT-0513","2018/10/05 19:58:35","新北市新店區中華路48巷11號","121.540215","24.9687883333333","6500600","新店區"
"241028","022-UY","2018/10/05 19:58:54","新北市三重區重新路三段94號","121.492541666667","25.0609566666667","6500200","三重區"
"241008","059-VK","2018/10/05 19:58:43","新北市三重區永福街179巷28號","121.478045","25.0747966666667","6500200","三重區"
"241022","060-VK","2018/10/05 19:58:43","新北市三重區新北大道一段11號","121.488625","25.0606116666667","6500200","三重區"
"241031","061-VK","2018/10/05 19:58:49","新北市三重區重新路四段144巷23號","121.486988333333","25.0552983333333","6500200","三重區"
"241015","062-VK","2018/10/05 19:58:36","新北市三重區三和路二段17號","121.501253333333","25.0668616666667","6500200","三重區"
"241017","063-VK","2018/10/05 19:58:45","新北市三重區重陽路四段1號","121.491008333333","25.06882","6500200","三重區"
"241024","065-VK","2018/10/05 19:58:48","新北市三重區力行路二段2號","121.481796666667","25.0718766666667","6500200","三重區"
"241026","066-VK","2018/10/05 19:58:45","新北市三重區仁慈街16號","121.501853333333","25.0631366666667","6500200","三重區"
"241002","090-VK","2018/10/05 19:58:31","新北市三重區仁愛街351號","121.492133333333","25.079915","6500200","三重區"
"241003","091-VK","2018/10/05 19:38:15","新北市三重區五華街93巷70號","121.494248333333","25.0852583333333","6500200","三重區"
"241005","262-UM","2018/10/05 19:58:39","新北市三重區溪尾街325巷32號","121.488743333333","25.0834383333333","6500200","三重區"
"241011","265-UM","2018/10/05 19:58:50","新北市三重區三和路二段171號","121.497861666667","25.0697183333333","6500200","三重區"
"241016","266-UM","2018/10/05 19:58:52","新北市三重區正義北路48巷25號","121.496506666667","25.0637433333333","6500200","三重區"
"241009","267-UM","2018/10/05 19:58:38","新北市三重區三和路四段396巷2-1號","121.481488333333","25.0790466666667","6500200","三重區"
"241018","268-UM","2018/10/05 19:58:39","新北市三重區雙園街57巷15號","121.494793333333","25.0679233333333","6500200","三重區"
"241032","269-UM","2018/10/05 19:58:38","新北市三重區朝陽街23號","121.48355","25.0565316666667","6500200","三重區"
"241013","270-UM","2018/10/05 19:58:51","新北市三重區三和路三段125巷40號","121.493945","25.0737566666667","6500200","三重區"
"241025","271-UM","2018/10/05 19:58:43","新北市三重區頂崁街210巷16號","121.47652","25.0677416666667","6500200","三重區"
"241007","398-BY","2018/10/05 19:58:46","新北市三重區溪尾街154號","121.488823333333","25.07997","6500200","三重區"
"241035","KEA-2210","2018/10/05 19:58:45","新北市三重區大榮街7號","121.49823","25.0630733333333","6500200","三重區"
"241004","475-VK","2018/10/05 19:58:35","新北市三重區五華街74號","121.493415","25.08203","6500200","三重區"
"241020","478-VK","2018/10/05 19:58:35","新北市三重區忠孝路一段101號","121.48941","25.0721783333333","6500200","三重區"
"241030","480-VK","2018/10/05 19:58:40","新北市三重區重新路四段244巷10號","121.486255","25.0535","6500200","三重區"
"241014","543-UM","2018/10/05 19:58:45","新北市三重區介壽路1號","121.499083333333","25.0689583333333","6500200","三重區"
"241023","545-UM","2018/10/05 19:58:46","新北市三重區頂崁街172號","121.477551666667","25.065985","6500200","三重區"
"241006","AAD-863","2018/10/05 19:58:46","新北市三重區力行路二段123巷12號","121.483641666667","25.0764416666667","6500200","三重區"
"241019","743-BX","2018/10/05 19:58:32","新北市三重區六張街141號","121.490551666667","25.06923","6500200","三重區"
"241001","887-TS","2018/10/05 19:58:40","新北市三重區五華街6號","121.49506","25.0799083333333","6500200","三重區"
"241012","941-UM","2018/10/05 19:58:35","新北市三重區仁義街29號","121.499781666667","25.0763216666667","6500200","三重區"
"241029","942-UM","2018/10/05 19:58:35","新北市三重區重新路三段204號","121.490135","25.0583983333333","6500200","三重區"
"241033","AAC-255","2018/10/05 19:58:39","新北市三重區中興北街73號","121.469486666667","25.047665","6500200","三重區"
"235066","003-UY","2018/10/05 19:58:44","新北市中和區中山路二段22號","121.504751666667","25.005285","6500300","中和區"
"235056","096-UM","2018/10/05 19:58:52","新北市中和區中山路三段168號","121.47292","25.0065933333333","6500300","中和區"
"235039","097-UM","2018/10/05 19:58:47","新北市永和區中正路2巷23號","121.513726666667","24.9932716666667","6500300","中和區"
"235065","098-UM","2018/10/05 19:58:53","新北市中和區福祥路85巷6弄2號","121.498511666667","25.005675","6500300","中和區"
"235040","150-BY","2018/10/05 19:58:53","新北市中和區保健路8巷19號","121.507701666667","24.9977466666667","6500300","中和區"
"235058","151-BY","2018/10/05 19:58:45","新北市中和區員山路183號","121.481161666667","24.9970633333333","6500300","中和區"
"235055","183-VK","2018/10/05 19:58:42","新北市中和區民生街8號","121.471265","25.006155","6500300","中和區"
"235049","186-VK","2018/10/05 19:58:51","新北市中和區景平路510號","121.503655","24.9938483333333","6500300","中和區"
"235067","255-BX","2018/10/05 19:58:48","新北市中和區員山路148巷23弄11號","121.48218","24.9977633333333","6500300","中和區"
"235044","293-VK","2018/10/05 19:58:53","新北市中和區板南路128巷1號","121.502681666667","24.992605","6500300","中和區"
"235042","KEA-2878","2018/10/05 19:58:38","新北市新店區溪園路365-8號","121.522726666667","24.980655","6500300","中和區"
"235050","4979-A6","2018/10/05 19:58:49","新北市中和區景平路239巷3號","121.509893333333","24.9926016666667","6500300","中和區"
"235069","4980-A6","2018/10/05 19:58:33","新北市中和區圓通路162-3號","121.49751","24.99521","6500300","中和區"
"235070","558-UM","2018/10/05 19:58:32","新北市中和區圓通路154號","121.498023333333","24.9956633333333","6500300","中和區"
"235054","640-BX","2018/10/05 19:58:50","新北市中和區莒光路52號","121.472225","25.003515","6500300","中和區"
"235046","733-UM","2018/10/05 19:58:41","新北市中和區興南路一段93巷77號","121.510475","24.9864966666667","6500300","中和區"
"235041","802-TS","2018/10/05 19:58:39","新北市中和區宜安路63號","121.51136","24.99694","6500300","中和區"
"235052","805-TS","2018/10/05 19:58:46","新北市中和區華新街67號","121.508071666667","24.9840366666667","6500300","中和區"
"235048","896-TW","2018/10/05 19:58:53","新北市中和區興南路一段20號","121.511308333333","24.99122","6500300","中和區"
"235053","911-UM","2018/10/05 19:58:51","新北市中和區民德路278號","121.467695","24.9961216666667","6500300","中和區"
"235051","157-BY","2018/10/05 19:58:43","新北市中和區復興路301巷15號","121.501536666667","24.9898466666667","6500300","中和區"
"235037","AAC-213","2018/10/05 19:58:32","新北市中和區自立路26號","121.52255","24.9928716666667","6500300","中和區"
"235059","AAC-215","2018/10/05 19:58:48","新北市中和區圓通路339號","121.491541666667","24.990475","6500300","中和區"
"220065","072-UY","2018/10/05 19:58:42","新北市板橋區中山路一段154巷3弄2號","121.46543","25.0104016666667","6500100","板橋區"
"220106","075-UY","2018/10/05 19:58:34","新北市板橋區民治街42巷16號","121.478556666667","25.0333716666667","6500100","板橋區"
"220069","AAD-861","2018/10/05 19:58:44","新北市板橋區貴興路119巷7號","121.45596","25.00207","6500100","板橋區"
"247002","893-R6","2018/10/05 19:58:40","新北市蘆洲區長安街335號","121.457306666667","25.0867283333333","6501400","蘆洲區"
"247016","546-UM","2018/10/05 19:58:53","新北市蘆洲區光華路32號","121.469178333333","25.08324","6501400","蘆洲區"
"247024","500-BY","2018/10/05 19:58:46","新北市蘆洲區光榮路120巷17號","121.465558333333","25.0884533333333","6501400","蘆洲區"
"247014","339-TH","2018/10/05 19:58:54","新北市蘆洲區成功路129號","121.472383333333","25.08228","6501400","蘆洲區"
"247006","337-TH","2018/10/05 19:58:46","新北市蘆洲區九芎街139巷3號","121.465698333333","25.0794016666667","6501400","蘆洲區"
"247008","336-TH","2018/10/05 19:58:45","新北市蘆洲區信義路103號","121.478045","25.08011","6501400","蘆洲區"
"247020","057-VK","2018/10/05 19:58:39","新北市蘆洲區民義街52號","121.472248333333","25.0892916666667","6501400","蘆洲區"
"247004","053-VK","2018/10/05 19:58:49","新北市蘆洲區長安街267巷8弄2號","121.458166666667","25.0836916666667","6501400","蘆洲區"
"247018","007-UY","2018/10/05 19:58:48","新北市蘆洲區民族路290巷13號","121.478473333333","25.090105","6501400","蘆洲區"
"226004","205-ST","2018/10/05 19:58:51","新北市平溪區十分里十分街129號","121.776981666667","25.0433916666667","6502400","平溪區"
"228003","097-TW","2018/10/05 19:58:45","新北市貢寮區仁理村仁和路228號","121.923943333333","25.0536366666667","6502600","貢寮區"
"224010","AGQ-8101","2018/10/05 19:58:30","新北市瑞芳區基山街4號","121.845143333333","25.109765","6501200","瑞芳區"
"224009","273-VK","2018/10/05 19:58:48","新北市瑞芳區大寮路356-1號","121.785423333333","25.10315","6501200","瑞芳區"
"227003","642-TC","2018/10/05 19:58:54","新北市雙溪區雙溪里長安街16號","121.864976666667","25.0347416666667","6502500","雙溪區"
"227011","400-TW","2018/10/05 19:58:41","新北市雙溪區新基里新基南街25號","121.866238333333","25.0381866666667","6502500","雙溪區"
"222001","KEA-2212","2018/10/05 19:58:40","新北市深坑區北深路三段91號","121.606241666667","25.001605","6501800","深坑區"
"208002","KEA-2872","2018/10/05 19:58:47","新北市金山區環金路23號","121.639953333333","25.2174283333333","6502700","金山區"
"208003","665-BX","2018/10/05 19:58:46","新北市金山區永興里跳石11號","121.633406666667","25.2574983333333","6502700","金山區"
"208001","761-BX","2018/10/05 19:58:53","新北市金山區南勢40號","121.629183333333","25.22084","6502700","金山區"
"251005","010-UM","2018/10/05 19:58:43","新北市淡水區學府路136巷29號","121.451478333333","25.1727733333333","6501000","淡水區"
"251001","011-UM","2018/10/05 19:58:40","新北市淡水區淡金路一段565號","121.453215","25.18067","6501000","淡水區"
"251002","012-UM","2018/10/05 19:58:39","新北市淡水區中正路二段96號","121.418","25.18509","6501000","淡水區"
"251008","179-VK","2018/10/05 19:58:51","新北市淡水區淡海路63巷10-1號","121.422738333333","25.1808","6501000","淡水區"
"251010","413-VK","2018/10/05 19:58:47","新北市淡水區崁頂115號","121.43231","25.204345","6501000","淡水區"
"251012","441-VK","2018/10/05 19:58:39","新北市淡水區下圭柔山93-4號","121.436255","25.2091533333333","6501000","淡水區"
"251004","443-VK","2018/10/05 19:58:38","新北市淡水區民族路50巷42號","121.460773333333","25.1357233333333","6501000","淡水區"
"251006","561-UM","2018/10/05 19:58:41","新北市淡水區北新路8號","121.444481666667","25.177455","6501000","淡水區"
"251009","575-R6","2018/10/05 19:58:49","新北市淡水區英專路28巷2弄18號","121.44587","25.1694683333333","6501000","淡水區"
"251007","577-R6","2018/10/05 19:58:33","新北市淡水區淡金路一段96號","121.458106666667","25.1739583333333","6501000","淡水區"
"251011","650-BX","2018/10/05 19:58:39","新北市淡水區崁頂55-3號","121.442155","25.1967133333333","6501000","淡水區"
"251003","673-BX","2018/10/05 19:58:48","新北市淡水區中山北路二段189巷15弄29號","121.443365","25.18417","6501000","淡水區"
"207003","681-TV","2018/10/05 19:58:47","新北市萬里區磺潭里公館崙5號","121.641865","25.2142916666667","6502800","萬里區"
"207004","225-TW","2018/10/05 19:58:43","新北市萬里區北基里忠二街35號","121.685625","25.17575","6502800","萬里區"
"252002","178-VK","2018/10/05 19:58:55","新北市三芝區忠孝街116-3號","121.505525","25.25761","6502100","三芝區"
"252001","292-VK","2018/10/05 19:58:37","新北市三芝區長安街89號","121.499665","25.257505","6502100","三芝區"
"237004","KEA-2597","2018/10/05 19:58:37","新北市三峽區添福9-34號","121.371606666667","24.90685","6500900","三峽區"
"237007","153-BY","2018/10/05 19:58:44","新北市三峽區麻園43號","121.36374","24.9212433333333","6500900","三峽區"
"237009","210-TH","2018/10/05 19:58:46","新北市三峽區民族街28巷2-8號","121.368886666667","24.93073","6500900","三峽區"
"237012","275-BY","2018/10/05 19:58:38","新北市三峽區中華路141號","121.371073333333","24.9273366666667","6500900","三峽區"
"237014","433-BY","2018/10/05 19:58:52","新北市三峽區中正路一段289號","121.371583333333","24.9256416666667","6500900","三峽區"
"237006","5529-G3","2018/10/05 19:58:50","新北市三峽區中正路二段168號","121.366061666667","24.9158416666667","6500900","三峽區"
"237015","649-BX","2018/10/05 19:58:36","新北市三峽區介壽路二段138巷1弄42號","121.397773333333","24.9328866666667","6500900","三峽區"
"237005","AKY-6261","2018/10/05 19:58:37","新北市三峽區民生街1巷29號","121.382853333333","24.93354","6500900","三峽區"
"236069","105-UM","2018/10/05 19:58:49","新北市土城區忠義路88號","121.444316666667","24.962335","6501300","土城區"
"236042","107-UM","2018/10/05 19:58:37","新北市土城區學府路一段98巷16號","121.455788333333","24.9886166666667","6501300","土城區"
"236079","166-UM","2018/10/05 19:58:37","新北市土城區三民路23巷8弄2號","121.41982","24.9634333333333","6501300","土城區"
"236026","269-VK","2018/10/05 19:58:38","新北市土城區中央路二段89號","121.44238","24.978155","6501300","土城區"
"236014","270-VK","2018/10/05 19:58:50","新北市土城區廣福街123號","121.4562","24.9929016666667","6501300","土城區"
"236039","271-VK","2018/10/05 19:58:35","新北市土城區國際路41號","121.466171666667","24.9791083333333","6501300","土城區"
"236020","401-BY","2018/10/05 19:58:47","新北市土城區延吉街30號","121.47205","24.9873466666667","6501300","土城區"
"236030","752-BX","2018/10/05 19:58:52","新北市土城區中央路一段250巷2-7號","121.443663333333","24.9848783333333","6501300","土城區"
"236059","912-UM","2018/10/05 19:58:56","新北市土城區中央路一段306號","121.443338333333","24.9817816666667","6501300","土城區"
"236048","913-UM","2018/10/05 19:58:43","新北市土城區金城路三段241-1號","121.471386666667","24.989695","6501300","土城區"
"236063","915-UM","2018/10/05 19:58:53","新北市土城區金城路三段33巷10號","121.465406666667","24.987265","6501300","土城區"
"236055","AAC-216","2018/10/05 19:58:54","新北市土城區學府路一段5-1號","121.458745","24.9884183333333","6501300","土城區"
"242037","AAC-296","2018/10/05 19:58:25","新北市新莊區建安街23號","121.42893","25.0260466666667","6500500","新莊區"
"242058","986-R7","2018/10/05 19:58:43","新北市新莊區八德街4號","121.425535","25.0228116666667","6500500","新莊區"
"242056","751-BX","2018/10/05 19:58:43","新北市新莊區中正路347巷17弄2號","121.44731","25.0342733333333","6500500","新莊區"
"242029","705-TV","2018/10/05 19:58:36","新北市新莊區中榮街152巷18號","121.445915","25.05339","6500500","新莊區"
"242025","613-BX","2018/10/05 19:58:54","新北市新莊區五工二路86巷52號","121.460865","25.067595","6500500","新莊區"
"242044","566-BX","2018/10/05 19:58:55","新北市新莊區中正路746巷37號","121.410871666667","25.0248683333333","6500500","新莊區"
"242048","497-BY","2018/10/05 19:58:36","新北市新莊區富國路107號","121.423453333333","25.0249933333333","6500500","新莊區"
"242002","440-UM","2018/10/05 19:58:49","新北市新莊區中正路219號","121.450793333333","25.035775","6500500","新莊區"
"242039","415-TV","2018/10/05 19:58:52","新北市新莊區民安路316號","121.4286","25.022115","6500500","新莊區"
"242009","413-TV","2018/10/05 19:58:49","新北市新莊區昌盛街22號","121.453843333333","25.0499216666667","6500500","新莊區"
"242023","362-BY","2018/10/05 19:58:47","新北市新莊區化成路414號","121.465973333333","25.05084","6500500","新莊區"
"242060","353-BY","2018/10/05 19:58:39","新北市新莊區瓊泰路21號","121.444291666667","25.0285783333333","6500500","新莊區"
"242011","132-UY","2018/10/05 19:58:50","新北市新莊區中港路531巷122號","121.44986","25.0514883333333","6500500","新莊區"
"242041","133-UY","2018/10/05 19:58:41","新北市新莊區青山路一段8號","121.411845","25.0275683333333","6500500","新莊區"
"242050","172-VK","2018/10/05 19:58:47","新北市新莊區西盛街192-1號","121.427906666667","25.0187433333333","6500500","新莊區"
"242013","173-VK","2018/10/05 19:58:53","新北市新莊區幸福路680號","121.450651666667","25.0494166666667","6500500","新莊區"
"242019","175-VK","2018/10/05 19:58:55","新北市新莊區長青街37巷7號","121.456413333333","25.04181","6500500","新莊區"
"242017","346-TH","2018/10/05 19:58:36","新北市新莊區中安街35號","121.452546666667","25.0459316666667","6500500","新莊區"
"242032","348-TH","2018/10/05 19:58:38","新北市新莊區忠孝街29巷30號","121.443628333333","25.0368","6500500","新莊區"
"242005","349-TH","2018/10/05 19:58:52","新北市新莊區化成路352巷29號","121.467111666667","25.049265","6500500","新莊區"
"242021","350-TH","2018/10/05 19:58:43","新北市新莊區建中街16巷30號","121.449113333333","25.0387633333333","6500500","新莊區"
"242015","351-TH","2018/10/05 19:58:52","新北市新莊區復興路一段35號","121.446498333333","25.0419566666667","6500500","新莊區"
"238015","755-BX","2018/10/05 19:58:46","新北市樹林區中山路一段193號","121.421238333333","24.9876966666667","6500700","樹林區"
"238021","KEA-2539","2018/10/05 19:58:39","新北市樹林區佳園路二段51號","121.391413333333","24.9619683333333","6500700","樹林區"
"238017","283-BY","2018/10/05 19:58:53","新北市樹林區中山路二段209號","121.403468333333","24.9768433333333","6500700","樹林區"
"221008","489-VK","2018/10/05 19:58:37","新北市汐止區忠一街9巷7號","121.62051","25.07323","6501100","汐止區"
"221036","130-UY","2018/10/05 19:58:50","新北市汐止區新台五路二段85巷22號","121.66418","25.0675233333333","6501100","汐止區"
"221015","131-UY","2018/10/05 19:58:46","新北市汐止區大同路二段713號","121.66522","25.0732983333333","6501100","汐止區"
"221010","269-BY","2018/10/05 19:58:50","新北市汐止區連峰街227號","121.645033333333","25.0813483333333","6501100","汐止區"
"221012","278-VK","2018/10/05 19:58:49","新北市汐止區大同路三段212號","121.67497","25.0735733333333","6501100","汐止區"
"221023","279-VK","2018/10/05 19:58:49","新北市汐止區明峰街196號","121.627895","25.0696033333333","6501100","汐止區"
"221032","280-BY","2018/10/05 19:58:41","新北市汐止區橫科路4巷1弄10號","121.617881666667","25.050825","6501100","汐止區"
"221027","281-BY","2018/10/05 19:58:34","新北市汐止區中正路73號","121.661621666667","25.0695816666667","6501100","汐止區"
"221029","298-VK","2018/10/05 19:58:44","新北市汐止區樟樹一路137巷24號","121.641063333333","25.0659766666667","6501100","汐止區"
"221021","299-VK","2018/10/05 19:58:51","新北市汐止區水源路一段136號","121.656116666667","25.06258","6501100","汐止區"
"221031","353-TW","2018/10/05 19:58:45","新北市汐止區福德一路212號","121.634476666667","25.0652116666667","6501100","汐止區"
"221035","622-UM","2018/10/05 19:58:53","新北市汐止區長江街57巷1號","121.656163333333","25.07149","6501100","汐止區"
"221025","623-UM","2018/10/05 19:58:43","新北市汐止區秀峰路107號","121.660213333333","25.063475","6501100","汐止區"
"221038","646-BX","2018/10/05 19:58:55","新北市汐止區忠孝東路479號","121.666083333333","25.0733183333333","6501100","汐止區"
"221002","707-TV","2018/10/05 19:58:38","新北市汐止區大同路一段219巷27號","121.633271666667","25.058395","6501100","汐止區"
"221018","753-BX","2018/10/05 19:58:51","新北市汐止區茄苳路18號","121.664953333333","25.0707816666667","6501100","汐止區"
"220079","145-BY","2018/10/05 19:58:36","新北市板橋區南雅西路二段215號","121.45124","25.0136633333333","6500100","板橋區"
"220080","200-UY","2018/10/05 19:58:47","新北市板橋區大觀路二段153巷18號","121.446471666667","25.0003933333333","6500100","板橋區"
"220082","610-BX","2018/10/05 19:58:37","新北市板橋區篤行路一段37號","121.43196","24.9938783333333","6500100","板橋區"
"220101","245-BX","2018/10/05 19:58:38","新北市板橋區莒光路182號","121.474131666667","25.0227633333333","6500100","板橋區"
"220072","277-BY","2018/10/05 19:58:47","新北市板橋區金門街149號","121.432705","24.9906016666667","6500100","板橋區"
"220094","283-UM","2018/10/05 19:58:48","新北市板橋區雨農路19號","121.461805","25.0245516666667","6500100","板橋區"
"220071","283-VK","2018/10/05 19:58:51","新北市板橋區和平路174巷45號","121.465613333333","24.9938683333333","6500100","板橋區"
"220083","286-VK","2018/10/05 19:58:49","新北市板橋區大觀路一段38巷156弄211號","121.444943333333","25.0105466666667","6500100","板橋區"
"220081","287-VK","2018/10/05 19:58:54","新北市板橋區僑中一街80巷10弄1號","121.447945","25.0128533333333","6500100","板橋區"
"220090","288-VK","2018/10/05 19:58:46","新北市板橋區幸福路32巷38號","121.460648333333","25.0217266666667","6500100","板橋區"
"220061","293-UM","2018/10/05 19:58:48","新北市板橋區觀光街2-5號","121.47214","25.0155633333333","6500100","板橋區"
"220053","295-UM","2018/10/05 19:58:47","新北市板橋區永豐街129號","121.474645","25.0197816666667","6500100","板橋區"
"220084","296-UM","2018/10/05 19:58:53","新北市板橋區溪崑二街112巷10號","121.426123333333","24.9889583333333","6500100","板橋區"
"220097","299-UM","2018/10/05 19:58:47","新北市板橋區光正街16巷12號","121.463151666667","25.0174066666667","6500100","板橋區"
"242034","281-VK","2018/10/05 19:58:49","新北市新莊區新泰路157號","121.4476","25.0368833333333","6500500","新莊區"
"220075","303-R5","2018/10/05 19:58:51","新北市板橋區金華街10巷48弄24-3號","121.45778","25.0199716666667","6500100","板橋區"
"220062","305-R5","2018/10/05 19:58:47","新北市板橋區中山路二段613號","121.485375","25.02248","6500100","板橋區"
"220092","307-R5","2018/10/05 19:58:35","新北市板橋區四維路269巷89號","121.459876666667","25.0265616666667","6500100","板橋區"
"220098","317-R6","2018/10/05 19:58:39","新北市板橋區漢生西路165巷1號","121.46279","25.0233766666667","6500100","板橋區"
"220089","487-VK","2018/10/05 19:58:51","新北市板橋區新海路405號","121.458471666667","25.0267483333333","6500100","板橋區"
"242007","280-VK","2018/10/05 19:58:53","新北市新莊區中原路55號","121.457926666667","25.05451","6500500","新莊區"
"220035","560-BX","2018/10/05 19:58:37","新北市板橋區新生街37號","121.45678","25.0210833333333","6500100","板橋區"
"220103","561-BX","2018/10/05 19:58:41","新北市板橋區自由路20號","121.465518333333","25.0226366666667","6500100","板橋區"
"220063","609-BX","2018/10/05 19:58:43","新北市板橋區中山路二段177號","121.476098333333","25.0168733333333","6500100","板橋區"
"220091","637-BX","2018/10/05 19:58:46","新北市板橋區文聖街89巷27號","121.478466666667","25.0307033333333","6500100","板橋區"
"220057","686-BX","2018/10/05 19:58:46","新北市板橋區信義路19號","121.456893333333","24.996595","6500100","板橋區"
"220093","689-BX","2018/10/05 19:58:45","新北市板橋區長江路三段54號","121.473351666667","25.0339166666667","6500100","板橋區"
"220054","741-BX","2018/10/05 19:58:46","新北市板橋區忠孝路201巷38號","121.464916666667","25.00362","6500100","板橋區"
"220102","KEA-2699","2018/10/05 19:58:37","新北市板橋區仁化街42巷13號","121.475543333333","25.0310583333333","6500100","板橋區"
"220064","806-UM","2018/10/05 19:58:51","新北市板橋區海山路51號","121.466976666667","25.0102333333333","6500100","板橋區"
"220055","827-TW","2018/10/05 19:58:45","新北市板橋區仁愛路74號","121.460483333333","24.9995183333333","6500100","板橋區"
"220067","829-TW","2018/10/05 19:58:39","新北市板橋區漢生東路171-1號","121.469655","25.0119883333333","6500100","板橋區"
"220068","830-TW","2018/10/05 19:58:52","新北市板橋區光復街172巷6號","121.485388333333","25.0193","6500100","板橋區"
"220096","831-TW","2018/10/05 19:58:54","新北市板橋區莒光路16巷1號","121.469683333333","25.02449","6500100","板橋區"
"220088","833-TW","2018/10/05 19:58:41","新北市板橋區大同街89號","121.479923333333","25.0282033333333","6500100","板橋區"
"220074","895-R6","2018/10/05 19:58:49","新北市板橋區明德街1-2號","121.45982","25.01041","6500100","板橋區"
"220073","985-R7","2018/10/05 19:58:51","新北市板橋區大仁街114號","121.452715","25.0157766666667","6500100","板橋區"
"220070","AAC-253","2018/10/05 19:58:36","新北市板橋區成都街72-3號","121.463455","25.0052866666667","6500100","板橋區"
"235068","KEA-2873","2018/10/05 19:58:49","新北市中和區福美路301巷13號","121.497498333333","25.0043383333333","6500300","中和區"
