"lineid","car","time","location","longitude","latitude","cityid","cityname"
"234046","148-BY","2018/10/05 20:18:56","新北市永和區永利路156號","121.522703333333","25.0026683333333","6500400","永和區"
"234081","298-R6","2018/10/05 20:19:02","新北市永和區國中路102號","121.524261666667","25.006535","6500400","永和區"
"234038","336-UY","2018/10/05 20:18:55","新北市永和區成功路一段93巷12號","121.527686666667","25.0026683333333","6500400","永和區"
"234064","337-UY","2018/10/05 20:19:02","新北市永和區得和路119號","121.518713333333","25.000325","6500400","永和區"
"234086","338-UY","2018/10/05 20:18:47","新北市永和區永和路二段125號","121.514888333333","25.0121016666667","6500400","永和區"
"234070","552-UM","2018/10/05 20:18:47","新北市永和區福和路263巷20號","121.517906666667","25.0065166666667","6500400","永和區"
"234017","745-BX","2018/10/05 20:19:01","新北市永和區仁愛路54號","121.51368","25.0133816666667","6500400","永和區"
"234030","746-BX","2018/10/05 20:18:51","新北市永和區民有街25巷2號","121.517305","24.996015","6500400","永和區"
"234054","KEA-2590","2018/10/05 20:19:01","新北市永和區光復街2巷21號","121.517123333333","25.0166583333333","6500400","永和區"
"234013","KEA-2591","2018/10/05 20:18:56","新北市永和區仁愛路295號","121.504805","25.0092383333333","6500400","永和區"
"234061","AAD-866","2018/10/05 20:18:54","新北市永和區得和路45巷2號","121.516558333333","25.000125","6500400","永和區"
"234042","862-TW","2018/10/05 20:19:03","新北市中和區中安街166號","121.51081","25.0001033333333","6500400","永和區"
"234050","863-TW","2018/10/05 20:18:56","新北市永和區新生路253號","121.505778333333","25.0133416666667","6500400","永和區"
"249005","172-UM","2018/10/05 20:18:52","新北市八里區下罟子1-16號","121.389703333333","25.1422433333333","6502300","八里區"
"249001","173-UM","2018/10/05 20:18:45","新北市八里區中華路二段536-4號","121.399088333333","25.1450583333333","6502300","八里區"
"249004","303-UY","2018/10/05 20:19:04","新北市八里區中山路一段129巷19-1號","121.413908333333","25.1586366666667","6502300","八里區"
"249002","305-UY","2018/10/05 20:18:48","新北市八里區龍米路一段100巷3號","121.453605","25.1249783333333","6502300","八里區"
"249003","593-UM","2018/10/05 20:18:52","新北市八里區中山路二段447巷23號","121.397463333333","25.1452283333333","6502300","八里區"
"248012","247-BX","2018/10/05 20:18:52","新北市五股區民義路一段212號","121.430566666667","25.089365","6501500","五股區"
"248014","261-SL","2018/10/05 20:17:01","新北市五股區中直路31號","121.42007","25.11249","6501500","五股區"
"248004","677-BX","2018/10/05 20:18:48","新北市五股區中興路四段17-4號","121.43949","25.082375","6501500","五股區"
"248002","678-BX","2018/10/05 20:18:52","新北市五股區成泰路三段169號","121.44522","25.0918866666667","6501500","五股區"
"234023","9380-KE","2018/10/05 20:18:50","新北市永和區永和路二段278號","121.515993333333","25.015375","6500400","永和區"
"234077","969-R7","2018/10/05 20:18:47","新北市永和區民享街8號","121.515168333333","24.9954716666667","6500400","永和區"
"234074","AAC-211","2018/10/05 20:18:52","新北市永和區竹林路201巷22弄1號","121.522043333333","25.0093266666667","6500400","永和區"
"234067","AAC-212","2018/10/05 20:18:54","新北市永和區保平路268巷29號","121.50785","25.006015","6500400","永和區"
"234003","AAC-295","2018/10/05 20:19:05","新北市永和區大新街14號","121.515023333333","25.0085333333333","6500400","永和區"
"243013","AAD-798","2018/10/05 20:19:04","新北市泰山區中央路5巷17弄34號","121.427435","25.0442616666667","6501600","泰山區"
"243009","297-R6","2018/10/05 20:18:54","新北市泰山區福泰街7號","121.43258","25.0603833333333","6501600","泰山區"
"243016","KEA-2801","2018/10/05 20:18:49","新北市泰山區明志路三段52號","121.424873333333","25.0422766666667","6501600","泰山區"
"243015","421-VK","2018/10/05 20:19:02","新北市泰山區仁愛路72號","121.432593333333","25.0551283333333","6501600","泰山區"
"243011","KEA-2215","2018/10/05 20:18:56","新北市泰山區貴陽街18號","121.422446666667","25.0325233333333","6501600","泰山區"
"243010","KEA-2216","2018/10/05 20:18:44","新北市泰山區明志路二段254號","121.426963333333","25.0475783333333","6501600","泰山區"
"243012","646-TV","2018/10/05 20:18:47","新北市泰山區楓江路81號","121.436698333333","25.0634633333333","6501600","泰山區"
"243014","680-BX","2018/10/05 20:18:47","新北市泰山區泰林路二段455號","121.425678333333","25.064105","6501600","泰山區"
"222003","436-BY","2018/10/05 20:19:03","新北市深坑區文化街82號","121.617911666667","25.001945","6501800","深坑區"
"222002","659-BX","2018/10/05 20:18:47","新北市深坑區萬福路75巷48號","121.598191666667","25.0099283333333","6501800","深坑區"
"231059","001-UM","2018/10/05 20:19:00","新北市新店區安德街73號","121.510168333333","24.96149","6500600","新店區"
"231041","002-UM","2018/10/05 20:18:57","新北市新店區民權路89號","121.537986666667","24.982895","6500600","新店區"
"231040","047-UY","2018/10/05 20:18:53","新北市新店區北新路二段2號","121.542681666667","24.9707883333333","6500600","新店區"
"231044","106-UY","2018/10/05 20:18:58","新北市新店區北新路三段63號","121.541655","24.9809516666667","6500600","新店區"
"231048","187-VK","2018/10/05 20:18:55","新北市新店區中興路三段220巷1號","121.543525","24.982735","6500600","新店區"
"231062","188-VK","2018/10/05 20:18:48","新北市新店區安康路三段184號","121.489176666667","24.951815","6500600","新店區"
"231053","189-VK","2018/10/05 20:18:53","新北市新店區新烏路三段72-1號","121.554048333333","24.9040783333333","6500600","新店區"
"231054","KEA-2219","2018/10/05 20:18:56","新北市新店區檳榔路109號","121.544435","24.961705","6500600","新店區"
"231057","256-BX","2018/10/05 20:18:52","新北市新店區花園五路二段27號","121.554613333333","24.9348666666667","6500600","新店區"
"231042","268-BY","2018/10/05 20:19:03","新北市新店區中興路二段190號","121.548203333333","24.9730833333333","6500600","新店區"
"231051","278-BY","2018/10/05 20:18:44","新北市新店區中央六街93號","121.526221666667","24.9768816666667","6500600","新店區"
"231050","AAD-862","2018/10/05 20:18:50","新北市新店區博愛街11巷1號","121.540881666667","24.9731283333333","6500600","新店區"
"231066","4716-K9","2018/10/05 20:18:48","新北市新店區柴埕路60巷19號","121.508253333333","24.9653283333333","6500600","新店區"
"231056","4715-K9","2018/10/05 20:19:05","新北市新店區中正路304號","121.537458333333","24.9745233333333","6500600","新店區"
"231067","4772-VM","2018/10/05 20:18:50","新北市新店區安康路一段258號","121.520285","24.9639316666667","6500600","新店區"
"231065","512-UM","2018/10/05 20:19:03","新北市新店區安祥路104巷6弄36號","121.483088333333","24.96296","6500600","新店區"
"231049","513-UM","2018/10/05 20:19:01","新北市新店區北新路一段273號","121.541093333333","24.966615","6500600","新店區"
"231063","616-UM","2018/10/05 20:19:01","新北市新店區薏仁坑路23號","121.4979","24.9589133333333","6500600","新店區"
"231045","617-UM","2018/10/05 20:18:55","新北市新店區新坡一街82號","121.54808","24.9619933333333","6500600","新店區"
"231061","619-UM","2018/10/05 20:18:49","新北市新店區安民街133巷26號","121.515381666667","24.9696966666667","6500600","新店區"
"231068","718-UY","2018/10/05 20:18:58","新北市新店區寶安街31號","121.54197","24.9823416666667","6500600","新店區"
"231064","719-UM","2018/10/05 20:18:50","新北市新店區安業街8巷1號","121.515863333333","24.977245","6500600","新店區"
"231060","897-TW","2018/10/05 20:18:51","新北市新店區錦秀路11巷96弄2號","121.480071666667","24.9420116666667","6500600","新店區"
"231043","899-TW","2018/10/05 20:18:49","新北市新店區建國路131號","121.539395","24.9781516666667","6500600","新店區"
"231055","AKT-0513","2018/10/05 20:18:55","新北市新店區安康路一段107-2號","121.528865","24.9616383333333","6500600","新店區"
"241028","022-UY","2018/10/05 20:18:54","新北市三重區大同南路127-2號","121.496446666667","25.057975","6500200","三重區"
"241008","059-VK","2018/10/05 20:19:03","新北市三重區永福街211巷25號","121.479091666667","25.074055","6500200","三重區"
"241022","060-VK","2018/10/05 20:19:03","新北市三重區新北大道一段32號","121.488255","25.0614716666667","6500200","三重區"
"241031","061-VK","2018/10/05 20:18:49","新北市三重區三寧街15號","121.489481666667","25.0598","6500200","三重區"
"241015","062-VK","2018/10/05 20:18:56","新北市三重區重新路一段116號","121.500548333333","25.0631516666667","6500200","三重區"
"241017","063-VK","2018/10/05 20:18:45","新北市三重區自強路一段163號","121.493195","25.0672666666667","6500200","三重區"
"241024","065-VK","2018/10/05 20:18:48","新北市三重區忠孝路三段4號","121.481795","25.067485","6500200","三重區"
"241026","066-VK","2018/10/05 20:19:01","新北市三重區福德南路15號","121.502673333333","25.063275","6500200","三重區"
"241002","090-VK","2018/10/05 20:18:51","新北市三重區仁義街101巷42號","121.499175","25.0808","6500200","三重區"
"241005","262-UM","2018/10/05 20:18:59","新北市三重區碧華街211號","121.488456666667","25.0827083333333","6500200","三重區"
"241011","265-UM","2018/10/05 20:18:50","新北市三重區龍門路191號","121.499611666667","25.0733183333333","6500200","三重區"
"241016","266-UM","2018/10/05 20:18:52","新北市三重區大同北路97號","121.494575","25.06363","6500200","三重區"
"241009","267-UM","2018/10/05 20:18:58","新北市三重區三和路四段382巷44號","121.48113","25.07842","6500200","三重區"
"241018","268-UM","2018/10/05 20:18:59","新北市三重區雙園街107號","121.493665","25.0672816666667","6500200","三重區"
"241032","269-UM","2018/10/05 20:18:58","新北市三重區捷運路37巷20號","121.484105","25.0570966666667","6500200","三重區"
"241013","270-UM","2018/10/05 20:18:51","新北市三重區三和路三段167巷30號","121.492946666667","25.0744116666667","6500200","三重區"
"241025","271-UM","2018/10/05 20:19:03","新北市三重區三民街272巷15號","121.478658333333","25.0676766666667","6500200","三重區"
"241007","398-BY","2018/10/05 20:19:06","新北市三重區溪尾街108巷28號","121.488395","25.0783833333333","6500200","三重區"
"241035","KEA-2210","2018/10/05 20:19:05","新北市三重區正義北路33巷22號","121.498215","25.0637833333333","6500200","三重區"
"241004","475-VK","2018/10/05 20:18:55","新北市三重區自強路四段108號","121.491463333333","25.0798966666667","6500200","三重區"
"241020","478-VK","2018/10/05 20:18:55","新北市三重區三和路三段170巷28號","121.491551666667","25.0727283333333","6500200","三重區"
"241030","480-VK","2018/10/05 20:19:00","新北市三重區環河南路254巷55號","121.487931666667","25.052325","6500200","三重區"
"241014","543-UM","2018/10/05 20:18:45","新北市三重區龍濱路283巷8號","121.50115","25.073715","6500200","三重區"
"241023","545-UM","2018/10/05 20:19:05","新北市三重區忠孝路三段99巷4號","121.480153333333","25.06423","6500200","三重區"
"241006","AAD-863","2018/10/05 20:18:46","新北市三重區車路頭街139巷14號","121.4843","25.0762633333333","6500200","三重區"
"241019","743-BX","2018/10/05 20:18:52","新北市三重區忠孝路一段61號","121.491036666667","25.0719333333333","6500200","三重區"
"241001","887-TS","2018/10/05 20:19:00","新北市三重區溪尾街46-1號","121.49069","25.0771833333333","6500200","三重區"
"241012","941-UM","2018/10/05 20:18:55","新北市三重區河邊北街266號","121.501645","25.0764916666667","6500200","三重區"
"241029","942-UM","2018/10/05 20:19:00","新北市三重區重安街81號","121.492333333333","25.0559783333333","6500200","三重區"
"241033","AAC-255","2018/10/05 20:18:59","新北市三重區五谷王北街50巷1號","121.47589","25.0514933333333","6500200","三重區"
"235066","003-UY","2018/10/05 20:18:44","新北市中和區保平路332號","121.506833333333","25.0042533333333","6500300","中和區"
"235056","096-UM","2018/10/05 20:18:52","新北市新店區吉安街39號","121.515641666667","24.9661333333333","6500300","中和區"
"235039","097-UM","2018/10/05 20:18:47","新北市中和區大勇街29巷2-5號","121.51629","24.9942183333333","6500300","中和區"
"235065","098-UM","2018/10/05 20:18:53","新北市中和區福美路315號","121.49676","25.00474","6500300","中和區"
"235042","KEA-2878","2018/10/05 20:18:57","新北市新店區薏仁坑路自強巷1號","121.497711666667","24.9577366666667","6500300","中和區"
"247012","KEA-2869","2018/10/05 20:18:52","新北市蘆洲區中興街13號","121.480488333333","25.0870683333333","6501400","蘆洲區"
"235050","4979-A6","2018/10/05 20:18:49","新北市中和區景平路462號","121.50574","24.9935533333333","6500300","中和區"
"235069","4980-A6","2018/10/05 20:19:05","新北市中和區圓通路198巷2號","121.496206666667","24.994445","6500300","中和區"
"235037","AAC-213","2018/10/05 20:18:52","新北市新店區溪園路87號","121.52847","24.9865133333333","6500300","中和區"
"235059","AAC-215","2018/10/05 20:18:48","新北市中和區圓通路332號","121.484331666667","24.9861","6500300","中和區"
"220069","AAD-861","2018/10/05 20:19:04","新北市板橋區貴興路111號","121.45583","25.0025416666667","6500100","板橋區"
"247002","893-R6","2018/10/05 20:19:00","新北市蘆洲區長安街313巷6弄11號","121.456793333333","25.086585","6501400","蘆洲區"
"247016","546-UM","2018/10/05 20:18:53","新北市蘆洲區光華路132巷39號","121.465838333333","25.0838233333333","6501400","蘆洲區"
"247024","500-BY","2018/10/05 20:18:46","新北市蘆洲區光榮路120巷8弄41號","121.464546666667","25.0879083333333","6501400","蘆洲區"
"247014","339-TH","2018/10/05 20:18:52","新北市蘆洲區中山一路250號","121.472215","25.07991","6501400","蘆洲區"
"247006","337-TH","2018/10/05 20:18:46","新北市蘆洲區九芎街136號","121.465078333333","25.0790666666667","6501400","蘆洲區"
"247008","336-TH","2018/10/05 20:18:45","新北市蘆洲區集賢路268號","121.481746666667","25.0854683333333","6501400","蘆洲區"
"247020","057-VK","2018/10/05 20:18:59","新北市蘆洲區仁愛街57號","121.471825","25.0933","6501400","蘆洲區"
"247010","056-VK","2018/10/05 20:19:06","新北市蘆洲區信義路253號","121.479056666667","25.0845766666667","6501400","蘆洲區"
"247004","053-VK","2018/10/05 20:18:49","新北市蘆洲區長安街299巷10號","121.457426666667","25.084695","6501400","蘆洲區"
"247018","007-UY","2018/10/05 20:18:48","新北市蘆洲區民族路255巷13號","121.476471666667","25.0900483333333","6501400","蘆洲區"
"247022","001-UY","2018/10/05 20:19:01","新北市蘆洲區中正路192巷2弄1號","121.467696666667","25.0884633333333","6501400","蘆洲區"
"224010","AGQ-8101","2018/10/05 20:18:50","新北市瑞芳區輕便路131號","121.843576666667","25.1087216666667","6501200","瑞芳區"
"222001","KEA-2212","2018/10/05 20:19:01","新北市深坑區北深路三段245號","121.599518333333","25.0042733333333","6501800","深坑區"
"251001","011-UM","2018/10/05 20:19:00","新北市淡水區新市二路四段265號","121.445483333333","25.1924766666667","6501000","淡水區"
"251002","012-UM","2018/10/05 20:18:59","新北市淡水區中正路14巷1號","121.439251666667","25.1705916666667","6501000","淡水區"
"251008","179-VK","2018/10/05 20:18:51","新北市淡水區淡海路180巷22號","121.421645","25.1845616666667","6501000","淡水區"
"251010","413-VK","2018/10/05 20:18:47","新北市淡水區新民街一段134號","121.427551666667","25.1889433333333","6501000","淡水區"
"251012","441-VK","2018/10/05 20:18:55","新北市淡水區下圭柔山431-1號","121.449791666667","25.2102916666667","6501000","淡水區"
"251004","443-VK","2018/10/05 20:18:58","新北市淡水區民生路117巷12號","121.464951666667","25.13915","6501000","淡水區"
"251006","561-UM","2018/10/05 20:19:01","新北市淡水區淡金路一段571號","121.452593333333","25.1805133333333","6501000","淡水區"
"251009","575-R6","2018/10/05 20:18:49","新北市淡水區中正東路32號","121.448321666667","25.1660783333333","6501000","淡水區"
"251007","577-R6","2018/10/05 20:18:49","新北市淡水區淡金路一段69號","121.458185","25.1734816666667","6501000","淡水區"
"251003","673-BX","2018/10/05 20:18:48","新北市淡水區中山北路一段229號","121.444463333333","25.1795183333333","6501000","淡水區"
"207004","225-TW","2018/10/05 20:19:03","新北市萬里區北基里大仁路5號","121.682103333333","25.17533","6502800","萬里區"
"252002","178-VK","2018/10/05 20:18:55","新北市三芝區中正路一段29號","121.503088333333","25.258455","6502100","三芝區"
"252001","292-VK","2018/10/05 20:18:57","新北市三芝區中山路一段31號","121.50061","25.2580516666667","6502100","三芝區"
"237009","210-TH","2018/10/05 20:18:46","新北市鶯歌區中正一路阿南巷501號","121.380095","24.9643516666667","6500900","三峽區"
"237006","5529-G3","2018/10/05 20:18:50","新北市三峽區中正路二段41號","121.366733333333","24.9187866666667","6500900","三峽區"
"237015","649-BX","2018/10/05 20:18:56","新北市三峽區介壽路二段138巷6號","121.395081666667","24.9353616666667","6500900","三峽區"
"237005","AKY-6261","2018/10/05 20:18:57","新北市三峽區三樹路98巷93號","121.381925","24.939685","6500900","三峽區"
"236069","105-UM","2018/10/05 20:18:49","新北市土城區中山路75-1號","121.42803","24.96637","6501300","土城區"
"236026","269-VK","2018/10/05 20:18:58","新北市土城區裕生路82巷4號","121.447223333333","24.9857883333333","6501300","土城區"
"236014","270-VK","2018/10/05 20:18:50","新北市土城區廣明街90巷21號","121.455455","24.994545","6501300","土城區"
"236030","752-BX","2018/10/05 20:18:51","新北市土城區學成路128巷11號","121.449561666667","24.9901066666667","6501300","土城區"
"236059","912-UM","2018/10/05 20:18:56","新北市土城區大安路101-5號","121.433535","24.9685683333333","6501300","土城區"
"242037","AAC-296","2018/10/05 20:18:33","新北市新莊區後港一路56巷24弄3號","121.426525","25.02522","6500500","新莊區"
"242058","986-R7","2018/10/05 20:19:03","新北市新莊區龍安路288-1號","121.422506666667","25.0191416666667","6500500","新莊區"
"242056","751-BX","2018/10/05 20:19:02","新北市新莊區豐年街28巷18號","121.445485","25.0323583333333","6500500","新莊區"
"242029","705-TV","2018/10/05 20:18:57","新北市新莊區中原路193號","121.451685","25.0542733333333","6500500","新莊區"
"242027","615-BX","2018/10/05 20:18:49","新北市新莊區幸福路590號","121.453605","25.0493133333333","6500500","新莊區"
"242025","613-BX","2018/10/05 20:18:54","新北市新莊區五工一路80巷23號","121.461235","25.06672","6500500","新莊區"
"242044","566-BX","2018/10/05 20:18:34","新北市新莊區中正路893巷1-10號","121.41285","25.0215016666667","6500500","新莊區"
"242048","497-BY","2018/10/05 20:18:56","新北市新莊區龍安路252-1號","121.421005","25.0196333333333","6500500","新莊區"
"242054","441-UM","2018/10/05 20:18:51","新北市新莊區西盛街367號","121.428031666667","25.0136","6500500","新莊區"
"242002","440-UM","2018/10/05 20:19:07","新北市新莊區化成路7號","121.464876666667","25.0429066666667","6500500","新莊區"
"242039","415-TV","2018/10/05 20:19:04","新北市新莊區成功街60號","121.424518333333","25.0195783333333","6500500","新莊區"
"242009","413-TV","2018/10/05 20:19:00","新北市新莊區昌盛街65巷2弄11號","121.45544","25.0502066666667","6500500","新莊區"
"242046","400-BY","2018/10/05 20:18:50","新北市新莊區中正路新生巷33號","121.417136666667","25.0234066666667","6500500","新莊區"
"242023","362-BY","2018/10/05 20:19:05","新北市新莊區化成路439號","121.464716666667","25.0605233333333","6500500","新莊區"
"242060","353-BY","2018/10/05 20:18:59","新北市新莊區新樹路279號","121.434005","25.0205916666667","6500500","新莊區"
"242011","132-UY","2018/10/05 20:18:50","新北市新莊區中信街25號","121.450918333333","25.050775","6500500","新莊區"
"242041","133-UY","2018/10/05 20:19:02","新北市新莊區中正路694巷69號","121.417373333333","25.0294516666667","6500500","新莊區"
"242050","172-VK","2018/10/05 20:19:04","新北市新莊區民安西路250號","121.425871666667","25.0137316666667","6500500","新莊區"
"242013","173-VK","2018/10/05 20:18:56","新北市新莊區中和街186巷2弄2號","121.447653333333","25.049645","6500500","新莊區"
"242019","175-VK","2018/10/05 20:18:55","新北市新莊區復興路二段196巷2弄2號","121.459303333333","25.0440966666667","6500500","新莊區"
"242017","346-TH","2018/10/05 20:18:56","新北市新莊區中港二街137號","121.44827","25.045505","6500500","新莊區"
"242032","348-TH","2018/10/05 20:18:58","新北市新莊區中正路508巷152號","121.438966666667","25.0359833333333","6500500","新莊區"
"242005","349-TH","2018/10/05 20:18:57","新北市新莊區頭前路15巷14號","121.46789","25.0517133333333","6500500","新莊區"
"242021","350-TH","2018/10/05 20:19:03","新北市新莊區新泰路275號","121.445726666667","25.040455","6500500","新莊區"
"242015","351-TH","2018/10/05 20:18:52","新北市新莊區永樂街243號","121.445975","25.0443583333333","6500500","新莊區"
"221008","489-VK","2018/10/05 20:18:57","新北市汐止區康寧街342號","121.62809","25.06746","6501100","汐止區"
"221036","130-UY","2018/10/05 20:19:01","新北市汐止區福安街57巷6號","121.664081666667","25.063985","6501100","汐止區"
"221015","131-UY","2018/10/05 20:18:46","新北市汐止區建成路142巷19弄11號","121.662005","25.0738933333333","6501100","汐止區"
"221010","269-BY","2018/10/05 20:18:50","新北市汐止區八連路二段490號","121.62868","25.105405","6501100","汐止區"
"221012","278-VK","2018/10/05 20:18:49","新北市汐止區保新街155號","121.688368333333","25.0692733333333","6501100","汐止區"
"221023","279-VK","2018/10/05 20:18:49","新北市汐止區湖前街110巷2弄24號","121.632638333333","25.07209","6501100","汐止區"
"221032","280-BY","2018/10/05 20:19:01","新北市汐止區民權街二段37號","121.619416666667","25.0495833333333","6501100","汐止區"
"221027","281-BY","2018/10/05 20:19:02","新北市汐止區大同路二段403號","121.658196666667","25.0672666666667","6501100","汐止區"
"221029","298-VK","2018/10/05 20:18:44","新北市汐止區樟樹一路99巷7弄1號","121.641185","25.0636","6501100","汐止區"
"221021","299-VK","2018/10/05 20:18:51","新北市汐止區水源路一段293號","121.654305","25.0583316666667","6501100","汐止區"
"221031","353-TW","2018/10/05 20:19:05","新北市汐止區中興路150巷13號","121.632926666667","25.0649733333333","6501100","汐止區"
"221035","622-UM","2018/10/05 20:18:49","新北市汐止區長江街101-5號","121.658631666667","25.0732566666667","6501100","汐止區"
"221025","623-UM","2018/10/05 20:19:03","新北市汐止區水源路二段42-1號","121.65506","25.0571616666667","6501100","汐止區"
"221038","646-BX","2018/10/05 20:18:55","新北市汐止區忠孝東路444號","121.666066666667","25.0725766666667","6501100","汐止區"
"221002","707-TV","2018/10/05 20:18:59","新北市汐止區福德一路68號","121.63791","25.0689033333333","6501100","汐止區"
"221018","753-BX","2018/10/05 20:18:51","新北市汐止區茄安路25號","121.673208333333","25.0679966666667","6501100","汐止區"
"220083","286-VK","2018/10/05 20:18:49","新北市板橋區僑中二街100巷4號","121.445768333333","25.0085316666667","6500100","板橋區"
"220081","287-VK","2018/10/05 20:18:54","新北市板橋區僑中一街88號","121.447188333333","25.0116916666667","6500100","板橋區"
"220061","293-UM","2018/10/05 20:18:48","新北市板橋區中山路一段131號","121.462323333333","25.0103933333333","6500100","板橋區"
"242034","281-VK","2018/10/05 20:18:49","新北市新莊區公園一路148號","121.446653333333","25.03832","6500500","新莊區"
"220089","487-VK","2018/10/05 20:18:51","新北市板橋區陽明街166號","121.463605","25.024605","6500100","板橋區"
"242007","280-VK","2018/10/05 20:18:53","新北市新莊區福壽街94巷19弄4號","121.459358333333","25.0501616666667","6500500","新莊區"
"220103","561-BX","2018/10/05 20:19:01","新北市板橋區文化路一段311號","121.466116666667","25.02026","6500100","板橋區"
"220102","KEA-2699","2018/10/05 20:18:56","新北市板橋區文化路一段216號","121.46638","25.0204133333333","6500100","板橋區"
"220070","AAC-253","2018/10/05 20:18:56","新北市板橋區四川路二段245巷16-2號","121.451076666667","24.9930516666667","6500100","板橋區"
"235068","KEA-2873","2018/10/05 20:18:49","新北市中和區勝利路35巷7號","121.499425","25.00691","6500300","中和區"
