"lineid","car","time","location","longitude","latitude","cityid","cityname"
"247012","KEA-2869","2018/10/05 22:28:52","新北市五股區中興路三段2巷10號","121.449041666667","25.081135","6501400","蘆洲區"
"247007","336-TH","2018/10/05 22:29:05","新北市五股區中興路三段2巷10號","121.449153333333","25.0810033333333","6501400","蘆洲區"
"251008","179-VK","2018/10/05 22:28:51","新北市淡水區學府路104號","121.449898333333","25.1717783333333","6501000","淡水區"
"251010","413-VK","2018/10/05 22:29:06","新北市淡水區沙崙路200號","121.424678333333","25.183905","6501000","淡水區"
"251004","443-VK","2018/10/05 22:28:49","新北市淡水區民族路33號","121.462273333333","25.135735","6501000","淡水區"
"251007","577-R6","2018/10/05 22:29:09","新北市淡水區北新路180號","121.449435","25.1787583333333","6501000","淡水區"
"251011","650-BX","2018/10/05 22:28:59","新北市淡水區中山北路一段151號","121.443055","25.1772016666667","6501000","淡水區"
