"lineid","car","time","location","longitude","latitude","cityid","cityname"
"248005","653-BX","2018/10/06 06:57:34","新北市五股區中興路二段37巷26號","121.460513333333","25.0748566666667","6501500","五股區"
"232004","290-BY","2018/10/06 06:57:44","新北市坪林區九芎坑13號","121.736193333333","24.9505916666667","6502000","坪林區"
"232016","291-BY","2018/10/06 06:57:39","新北市坪林區仁里6號","121.691691666667","24.9332133333333","6502000","坪林區"
"232009","758-BX","2018/10/06 06:57:47","新北市坪林區九芎林24-2號","121.70416","24.9251883333333","6502000","坪林區"
"244005","248-BX","2018/10/06 06:57:45","新北市林口區中山路278號","121.382161666667","25.0813466666667","6501700","林口區"
"235001","611-BX","2018/10/06 06:57:30","新北市中和區圓通路367巷6號","121.491415","24.9892116666667","6500300","中和區"
"226003","AGD-0702","2018/10/06 06:57:45","新北市平溪區石底里公園街18-3號","121.73339","25.0257933333333","6502400","平溪區"
"223006","022-BY","2018/10/06 06:57:38","新北市石碇區新興坑31號","121.648606666667","25.0161","6501900","石碇區"
"223002","KEA-2673","2018/10/06 06:57:29","新北市石碇區四分子路小粗坑巷3號","121.65052","24.95575","6501900","石碇區"
"223003","205-TH","2018/10/06 06:57:37","新北市石碇區石碇東街141號","121.659033333333","24.9892633333333","6501900","石碇區"
"223008","406-TH","2018/10/06 06:57:29","新北市石碇區雙溪84-1號","121.661246666667","25.0089466666667","6501900","石碇區"
"223004","437-BY","2018/10/06 06:57:27","新北市石碇區碇坪路一段60號","121.657118333333","24.9914866666667","6501900","石碇區"
"223001","592-UM","2018/10/06 06:57:46","新北市石碇區石崁40-7號","121.658443333333","24.9939433333333","6501900","石碇區"
"223007","661-BX","2018/10/06 06:57:31","新北市石碇區雙溪84-1號","121.661348333333","25.0089033333333","6501900","石碇區"
"223005","677-TV","2018/10/06 06:57:34","新北市石碇區碇坪路一段62號","121.657166666667","24.9915283333333","6501900","石碇區"
"227006","282-VK","2018/10/06 06:57:46","新北市雙溪區新基里自強路5號","121.866366666667","25.03899","6502500","雙溪區"
"252004","249-BX","2018/10/06 06:57:44","新北市三芝區埔坪里埔頭坑41號","121.504503333333","25.2644633333333","6502100","三芝區"
"252007","AAC-283","2018/10/06 06:57:47","新北市三芝區埔坪里埔頭坑33號","121.501846666667","25.2615433333333","6502100","三芝區"
"242001","233-RS","2018/10/06 06:57:31","新北市新莊區中港路301號","121.45295","25.0445033333333","6500500","新莊區"
