"lineid","car","time","location","longitude","latitude","cityid","cityname"
"248005","653-BX","2018/10/06 07:17:34","新北市五股區明德路12巷6號","121.433403333333","25.0717966666667","6501500","五股區"
"232004","290-BY","2018/10/06 07:17:44","新北市坪林區大粗坑8號","121.725681666667","24.94747","6502000","坪林區"
"232016","291-BY","2018/10/06 07:17:39","新北市坪林區金瓜寮23-1號","121.679221666667","24.9115316666667","6502000","坪林區"
"232010","375-UM","2018/10/06 07:17:42","新北市坪林區水聳淒坑3號","121.726331666667","24.9256866666667","6502000","坪林區"
"232009","758-BX","2018/10/06 07:17:35","新北市坪林區魚堀38-1號","121.697383333333","24.9317166666667","6502000","坪林區"
"244005","248-BX","2018/10/06 07:17:45","新北市林口區頂福里66號","121.359431666667","25.0789166666667","6501700","林口區"
"235001","611-BX","2018/10/06 07:17:30","新北市中和區圓通路367巷4號","121.491376666667","24.9892333333333","6500300","中和區"
"226005","5620-A6","2018/10/06 07:17:48","新北市平溪區菁桐里菁桐街70號","121.721868333333","25.02355","6502400","平溪區"
"226007","7418-A5","2018/10/06 07:17:40","新北市平溪區靜安路三段67號","121.765306666667","25.0320433333333","6502400","平溪區"
"226003","AGD-0702","2018/10/06 07:17:45","新北市平溪區嶺腳里嶺腳寮67號","121.747936666667","25.0315716666667","6502400","平溪區"
"223006","022-BY","2018/10/06 07:17:38","新北市石碇區新興坑1-1號","121.654133333333","25.0134933333333","6501900","石碇區"
"223002","KEA-2673","2018/10/06 07:17:49","新北市石碇區半路店1-1號","121.6482","24.970135","6501900","石碇區"
"223003","205-TH","2018/10/06 07:14:54","新北市石碇區烏塗窟8號","121.65582","24.9751783333333","6501900","石碇區"
"223008","406-TH","2018/10/06 07:17:49","新北市石碇區番子坑24-2號","121.676796666667","25.0057116666667","6501900","石碇區"
"223004","437-BY","2018/10/06 07:17:47","新北市石碇區新興坑1-1號","121.654073333333","25.0148866666667","6501900","石碇區"
"223001","592-UM","2018/10/06 07:17:46","新北市石碇區烏塗窟1號","121.656018333333","24.97604","6501900","石碇區"
"223007","661-BX","2018/10/06 07:17:31","新北市石碇區番子坑9-2號","121.683851666667","24.9992616666667","6501900","石碇區"
"223005","677-TV","2018/10/06 07:17:34","新北市石碇區新興坑1-1號","121.65457","25.0143083333333","6501900","石碇區"
"227006","282-VK","2018/10/06 07:17:46","新北市雙溪區新基里自強路5號","121.866348333333","25.0390266666667","6502500","雙溪區"
"252004","249-BX","2018/10/06 07:17:44","新北市三芝區錫板里棟板頭38-1號","121.498318333333","25.2290566666667","6502100","三芝區"
"252007","AAC-283","2018/10/06 07:17:47","新北市三芝區錫板里海尾22號","121.483181666667","25.2564866666667","6502100","三芝區"
"242001","233-RS","2018/10/06 07:17:31","新北市新莊區中港路301號","121.452928333333","25.0444733333333","6500500","新莊區"
