"lineid","car","time","location","longitude","latitude","cityid","cityname"
"234005","208-UY","2018/11/29 07:19:35","新北市永和區國光路5號","121.520401666667","25.00833","6500400","永和區"
"232002","290-BY","2018/11/29 07:29:29","新北市坪林區上坑子口4號","121.696936666667","24.9589166666667","6502000","坪林區"
"232014","291-BY","2018/11/29 07:29:30","新北市坪林區金瓜寮35號","121.67282","24.8989816666667","6502000","坪林區"
"232010","375-UM","2018/11/29 07:29:37","新北市坪林區水聳淒坑15-2號","121.721931666667","24.9302716666667","6502000","坪林區"
"232018","705-BZ","2018/11/29 07:29:34","新北市坪林區樟空子7-1號","121.725756666667","24.9705333333333","6502000","坪林區"
"232007","758-BX","2018/11/29 07:29:40","新北市坪林區魚堀37-1號","121.700328333333","24.9297083333333","6502000","坪林區"
"244003","248-BX","2018/11/29 07:29:30","新北市林口區南勢里73-3號","121.353633333333","25.0783433333333","6501700","林口區"
"222006","289-BY","2018/11/29 07:29:31","新北市深坑區文化街39巷1號","121.619006666667","25.0012683333333","6501800","深坑區"
"231008","192-VK","2018/11/29 07:29:30","新北市新店區安一路一段1-1號","121.519158333333","24.9613116666667","6500600","新店區"
"235001","611-BX","2018/11/29 07:29:35","新北市中和區圓通路367巷4號","121.491416666667","24.9892533333333","6500300","中和區"
"226005","5620-A6","2018/11/29 07:29:44","新北市平溪區菁桐里二坑路5號","121.720838333333","25.0244116666667","6502400","平溪區"
"226007","7418-A5","2018/11/29 07:21:00","新北市平溪區望古里灰4-2號","121.763636666667","25.0281133333333","6502400","平溪區"
"226003","AGD-0702","2018/11/29 07:28:31","新北市平溪區望古里望古坑1-2號","121.74531","25.0392216666667","6502400","平溪區"
"223006","022-BY","2018/11/29 07:29:41","新北市石碇區靜安路一段12號","121.642021666667","25.0113366666667","6501900","石碇區"
"223002","KEA-2673","2018/11/29 07:29:28","新北市石碇區北宜路五段大湖巷1號","121.630963333333","24.94946","6501900","石碇區"
"223003","205-TH","2018/11/29 07:29:41","新北市石碇區中楒子腳3-3號","121.640638333333","24.9717083333333","6501900","石碇區"
"223004","437-BY","2018/11/29 07:29:39","新北市石碇區八分寮55-1號","121.644778333333","25.017165","6501900","石碇區"
"223001","592-UM","2018/11/29 07:29:46","新北市石碇區中楒子腳2-6號","121.638338333333","24.9731416666667","6501900","石碇區"
"223007","661-BX","2018/11/29 07:29:29","新北市石碇區大溪墘2-3號","121.698303333333","25.0090266666667","6501900","石碇區"
"223005","677-TV","2018/11/29 07:29:26","新北市石碇區八分寮55-3號","121.644735","25.0133066666667","6501900","石碇區"
"227007","282-VK","2018/11/29 07:29:43","新北市雙溪區新基里中華路90號","121.866148333333","25.0390366666667","6502500","雙溪區"
"252004","249-BX","2018/11/29 07:29:33","新北市三芝區興華里楓子林55-1號","121.500845","25.21401","6502100","三芝區"
"252007","AAC-283","2018/11/29 07:29:43","新北市三芝區埔頭里埔頭27-2號","121.497131666667","25.2597666666667","6502100","三芝區"
"242055","751-BX","2018/11/29 07:29:38","新北市新莊區三和路12-21號","121.442163333333","25.03859","6500500","新莊區"
"242026","615-BX","2018/11/29 07:29:32","新北市新莊區新泰路357巷3弄57號","121.441981666667","25.03923","6500500","新莊區"
"242028","612-BX","2018/11/29 07:29:45","新北市新莊區新泰路255巷83號","121.442108333333","25.0390883333333","6500500","新莊區"
"242001","440-UM","2018/11/29 07:29:40","新北市新莊區三和路12-21號","121.441586666667","25.0386166666667","6500500","新莊區"
"242038","415-TV","2018/11/29 07:29:29","新北市新莊區新泰路255巷83號","121.442153333333","25.0389416666667","6500500","新莊區"
"242022","362-BY","2018/11/29 07:29:30","新北市新莊區三和路12-21號","121.441811666667","25.0388483333333","6500500","新莊區"
"242033","135-UY","2018/11/29 07:29:37","新北市新莊區三和路12-21號","121.441928333333","25.0387366666667","6500500","新莊區"
"242018","175-VK","2018/11/29 07:29:35","新北市新莊區三和路12-21號","121.442098333333","25.0385616666667","6500500","新莊區"
"242016","346-TH","2018/11/29 07:29:43","新北市新莊區三和路12-21號","121.442173333333","25.0381383333333","6500500","新莊區"
"242030","348-TH","2018/11/29 07:29:37","新北市新莊區新泰路357巷3弄57號","121.441853333333","25.0394","6500500","新莊區"
"242014","351-TH","2018/11/29 07:29:39","新北市新莊區新泰路357巷3弄57號","121.441955","25.0395033333333","6500500","新莊區"
"242040","281-VK","2018/11/29 07:29:28","新北市新莊區三和路12-21號","121.442155","25.0384483333333","6500500","新莊區"
