"lineid","car","time","location","longitude","latitude","cityid","cityname"
"232008","758-BX","2018/05/25 07:55:33","新北市坪林區石43-1號","121.713478333333","24.8974016666667","6502000","坪林區"
"244004","248-BX","2018/05/25 07:59:18","新北市林口區下福里13鄰157號","121.302376666667","25.1147433333333","6501700","林口區"
"222005","289-BY","2018/05/25 07:49:09","新北市深坑區文化街45號","121.616945","25.0017183333333","6501800","深坑區"
"231007","189-VK","2018/05/25 07:59:29","新北市新店區安一路一段1-1號","121.519503333333","24.9612883333333","6500600","新店區"
"231009","192-VK","2018/05/25 07:59:31","新北市新店區安一路一段1-1號","121.519091666667","24.9612383333333","6500600","新店區"
"235001","611-BX","2018/05/25 07:59:32","新北市中和區圓通路367巷6號","121.491556666667","24.9892716666667","6500300","中和區"
"226005","5620-A6","2018/05/25 07:59:19","新北市平溪區石底里公園街18-3號","121.733508333333","25.0255816666667","6502400","平溪區"
"226001","7418-A5","2018/05/25 07:59:19","新北市平溪區南山里乾坑11號","121.782633333333","25.047215","6502400","平溪區"
"226006","AGD-0702","2018/05/25 07:59:13","新北市平溪區十分里十分街55號","121.775278333333","25.0414183333333","6502400","平溪區"
"223006","022-BY","2018/05/25 07:59:23","新北市坪林區北宜路八段558號","121.717101666667","24.90953","6501900","石碇區"
"223002","KEA-2673","2018/05/25 07:51:28","新北市石碇區大格門3號","121.668705","24.956","6501900","石碇區"
"223003","205-TH","2018/05/25 07:56:26","新北市石碇區崩山36-1號","121.671903333333","24.9582366666667","6501900","石碇區"
"223008","406-TH","2018/05/25 07:59:17","新北市石碇區靜安路一段329號","121.697675","25.0069366666667","6501900","石碇區"
"223001","592-UM","2018/05/25 07:58:10","新北市石碇區樟空子10-1號","121.667018333333","24.9629516666667","6501900","石碇區"
"223004","660-BX","2018/05/25 07:59:29","新北市石碇區石崁1號","121.651903333333","25.0002483333333","6501900","石碇區"
"223005","677-TV","2018/05/25 07:59:17","新北市石碇區碇坪路一段18號","121.651696666667","25.005635","6501900","石碇區"
"227005","282-VK","2018/05/25 07:59:23","新北市雙溪區平林里梅竹蹊16號","121.862005","25.0359816666667","6502500","雙溪區"
"237001","159-UY","2018/05/25 07:59:26","新北市三峽區大學路6號","121.37688","24.9414383333333","6500900","三峽區"
"236010","165-UM","2018/05/25 07:59:24","新北市土城區永豐路171-1號","121.469203333333","24.9794816666667","6501300","土城區"
"236004","339-SR","2018/05/25 07:59:27","新北市土城區龍泉路89號","121.445883333333","24.942395","6501300","土城區"
"220018","282-UM","2018/05/25 07:59:19","新北市新莊區新莊路763巷4號","121.442308333333","25.0323933333333","6500100","板橋區"
