"lineid","car","time","location","longitude","latitude","cityid","cityname"
"232008","758-BX","2018/05/25 08:07:33","新北市坪林區魚堀5號","121.711191666667","24.9001733333333","6502000","坪林區"
"244004","248-BX","2018/05/25 08:09:18","新北市林口區下福90號","121.303028333333","25.1228016666667","6501700","林口區"
"222005","289-BY","2018/05/25 08:09:19","新北市深坑區文化街98號","121.616955","25.001835","6501800","深坑區"
"231007","189-VK","2018/05/25 08:09:28","新北市新店區華城路11號","121.529345","24.9591533333333","6500600","新店區"
"231009","192-VK","2018/05/25 08:09:31","新北市新店區光明街171號","121.539571666667","24.962695","6500600","新店區"
"235001","611-BX","2018/05/25 08:09:32","新北市中和區圓通路367巷33弄109號","121.49521","24.9840883333333","6500300","中和區"
"226005","5620-A6","2018/05/25 08:09:19","新北市平溪區靜安路二段551號","121.74914","25.0260133333333","6502400","平溪區"
"226001","7418-A5","2018/05/25 08:09:19","新北市平溪區望古里石灼坑2-3號","121.76862","25.0356183333333","6502400","平溪區"
"226006","AGD-0702","2018/05/25 08:09:33","新北市平溪區十分里十分街66巷7號","121.775313333333","25.04217","6502400","平溪區"
"223006","022-BY","2018/05/25 08:09:23","新北市坪林區北宜路八段451號","121.70669","24.92335","6501900","石碇區"
"223003","205-TH","2018/05/25 08:09:26","新北市石碇區小粗坑(格頭里)1號","121.65425","24.95508","6501900","石碇區"
"223008","406-TH","2018/05/25 08:09:17","新北市石碇區番子坑103號","121.67445","25.01008","6501900","石碇區"
"223001","592-UM","2018/05/25 08:05:30","新北市石碇區月扇湖3號","121.662135","24.9556716666667","6501900","石碇區"
"223004","660-BX","2018/05/25 08:09:29","新北市石碇區外按16-1號","121.650635","24.997535","6501900","石碇區"
"223005","677-TV","2018/05/25 08:09:16","新北市石碇區外按16-1號","121.650656666667","24.9975433333333","6501900","石碇區"
"227005","282-VK","2018/05/25 08:09:23","新北市雙溪區上林里內平林120-2號","121.824276666667","25.0261316666667","6502500","雙溪區"
"237001","159-UY","2018/05/25 08:09:26","新北市三峽區學成路278-3號","121.3764","24.943435","6500900","三峽區"
"236010","165-UM","2018/05/25 08:09:23","新北市土城區青雲路319號","121.458998333333","24.9786983333333","6501300","土城區"
"236004","339-SR","2018/05/25 08:09:27","新北市土城區龍泉路68-6號","121.425446666667","24.942275","6501300","土城區"
"236006","498-BY","2018/05/25 08:09:33","新北市土城區永平街51號","121.427701666667","24.9591916666667","6501300","土城區"
"220018","282-UM","2018/05/25 08:09:20","新北市五股區新五路三段2號","121.44456","25.0879733333333","6500100","板橋區"
