"lineid","car","time","location","longitude","latitude","cityid","cityname"
"244004","248-BX","2018/05/25 08:29:18","新北市林口區文化北路一段409-1號","121.364308333333","25.07634","6501700","林口區"
"222005","289-BY","2018/05/25 08:29:18","新北市深坑區萬福路169號","121.613851666667","25.0147916666667","6501800","深坑區"
"231007","189-VK","2018/05/25 08:29:28","新北市新店區新潭路一段210號","121.5291","24.9298333333333","6500600","新店區"
"231009","192-VK","2018/05/25 08:29:31","新北市新店區永興路135號","121.543831666667","24.9300966666667","6500600","新店區"
"235001","611-BX","2018/05/25 08:29:32","新北市中和區中山路二段523巷32弄13號","121.481355","25.003615","6500300","中和區"
"226005","5620-A6","2018/05/25 08:29:19","新北市平溪區南山里六分9號","121.79659","25.0499166666667","6502400","平溪區"
"226001","7418-A5","2018/05/25 08:28:00","新北市平溪區東勢里番仔坑3號","121.748278333333","25.000195","6502400","平溪區"
"226006","AGD-0702","2018/05/25 08:29:13","新北市平溪區十分里十分街271-3號","121.779103333333","25.0447883333333","6502400","平溪區"
"223006","022-BY","2018/05/25 08:29:23","新北市石碇區靜安路一段102號","121.648211666667","25.009945","6501900","石碇區"
"223003","205-TH","2018/05/25 08:29:25","新北市石碇區北宜路六段直潭巷6號","121.658816666667","24.9350266666667","6501900","石碇區"
"223008","406-TH","2018/05/25 08:29:17","新北市石碇區碇南路二段松柏崎巷7號","121.674098333333","25.0191116666667","6501900","石碇區"
"223001","592-UM","2018/05/25 08:29:30","新北市石碇區北宜路六段直潭巷6號","121.658778333333","24.9351133333333","6501900","石碇區"
"223004","660-BX","2018/05/25 08:29:29","新北市石碇區碇坪路一段242號","121.675565","24.9788516666667","6501900","石碇區"
"223005","677-TV","2018/05/25 08:29:16","新北市石碇區碇坪路一段196號","121.670055","24.982515","6501900","石碇區"
"227005","282-VK","2018/05/25 08:29:23","新北市雙溪區外柑里三叉坑11-2號","121.82955","25.001535","6502500","雙溪區"
"237001","159-UY","2018/05/25 08:29:25","新北市三峽區大德路38號","121.37756","24.94287","6500900","三峽區"
"236010","165-UM","2018/05/25 08:28:03","新北市土城區石門路68號","121.459331666667","24.955805","6501300","土城區"
"236004","339-SR","2018/05/25 08:29:26","新北市土城區中山路10號","121.416168333333","24.961915","6501300","土城區"
"236006","498-BY","2018/05/25 08:29:33","新北市土城區中央路四段43號","121.422658333333","24.9618566666667","6501300","土城區"
"220018","282-UM","2018/05/25 08:29:19","新北市林口區太平里180號","121.366891666667","25.1337733333333","6500100","板橋區"
