"lineid","car","time","location","longitude","latitude","cityid","cityname"
"234044","148-BY","2018/05/25 13:28:58","新北市永和區秀朗路二段257號","121.526333333333","24.9992616666667","6500400","永和區"
"234068","149-BY","2018/05/25 13:29:06","新北市永和區竹林路182號","121.520303333333","25.0096916666667","6500400","永和區"
"234005","207-UY","2018/05/25 13:29:05","新北市永和區中山路一段195號","121.509151666667","25.0088366666667","6500400","永和區"
"234078","298-R6","2018/05/25 13:28:52","新北市永和區環河東路三段50號","121.526795","25.0062833333333","6500400","永和區"
"234036","336-UY","2018/05/25 13:29:06","新北市永和區民樂街33巷1號","121.527635","25.0012666666667","6500400","永和區"
"234062","337-UY","2018/05/25 13:28:52","新北市永和區中正路368巷1弄69號","121.520115","25.0008483333333","6500400","永和區"
"234084","338-UY","2018/05/25 13:29:06","新北市永和區林森路48巷1號","121.524613333333","25.004485","6500400","永和區"
"234015","745-BX","2018/05/25 13:29:05","新北市永和區環河西路一段5-1號","121.51496","25.017845","6500400","永和區"
"234028","746-BX","2018/05/25 13:29:06","新北市永和區民生路57號","121.522711666667","24.9975933333333","6500400","永和區"
"234052","KEA-2590","2018/05/25 13:28:56","新北市永和區復興街19巷2號","121.516155","25.01314","6500400","永和區"
"234012","KEA-2591","2018/05/25 13:29:01","新北市永和區中山路一段175號","121.50952","25.0092333333333","6500400","永和區"
"234060","AAD-866","2018/05/25 13:29:04","新北市永和區中正路504號","121.51735","25.004475","6500400","永和區"
"234040","862-TW","2018/05/25 13:29:00","新北市永和區中和路519巷2號","121.510916666667","25.0028683333333","6500400","永和區"
"234048","863-TW","2018/05/25 13:29:08","新北市永和區保福路二段102號","121.510098333333","25.0135883333333","6500400","永和區"
"234025","9371-KE","2018/05/25 13:29:12","新北市永和區中山路一段17巷4弄14號","121.513136666667","25.0102333333333","6500400","永和區"
"234010","9373-KE","2018/05/25 13:28:55","新北市永和區仁愛路141巷3弄1號","121.511731666667","25.012445","6500400","永和區"
"248019","225-UY","2018/05/25 13:29:03","新北市五股區孝義路47巷26-1號","121.447248333333","25.1107333333333","6501500","五股區"
"234022","9380-KE","2018/05/25 13:29:01","新北市永和區竹林路91巷43弄2號","121.521326666667","25.01286","6500400","永和區"
"234076","969-R7","2018/05/25 13:29:06","新北市永和區智光街29號","121.518038333333","24.998985","6500400","永和區"
"234072","AAC-211","2018/05/25 13:29:10","新北市永和區永和路二段100號","121.515118333333","25.0118683333333","6500400","永和區"
"234066","AAC-212","2018/05/25 13:28:56","新北市永和區保平路176號","121.510841666667","25.0066716666667","6500400","永和區"
"234001","AAC-295","2018/05/25 13:29:05","新北市永和區永平路77號","121.511763333333","25.0083783333333","6500400","永和區"
"244004","248-BX","2018/05/25 13:29:06","新北市林口區頂福里21-7號","121.350715","25.0867766666667","6501700","林口區"
"231002","002-UM","2018/05/25 13:29:04","新北市新店區環河路62號","121.53696","24.96261","6500600","新店區"
"231028","046-UY","2018/05/25 13:29:01","新北市新店區安華路28-1號","121.519645","24.960875","6500600","新店區"
"231001","047-UY","2018/05/25 13:29:10","新北市新店區環河路116號","121.537051666667","24.967055","6500600","新店區"
"231005","106-UY","2018/05/25 13:28:50","新北市新店區寶橋路132號","121.54736","24.9761366666667","6500600","新店區"
"231022","108-UY","2018/05/25 13:29:02","新北市新店區新烏路一段159號","121.544761666667","24.9352733333333","6500600","新店區"
"231012","187-VK","2018/05/25 13:29:01","新北市新店區北新路一段88巷1號","121.541611666667","24.96775","6500600","新店區"
"231010","188-VK","2018/05/25 13:28:55","新北市新店區中央路91號","121.532078333333","24.9762083333333","6500600","新店區"
"231023","KEA-2219","2018/05/25 13:29:08","新北市新店區新店路13號","121.5403","24.9528583333333","6500600","新店區"
"231026","256-BX","2018/05/25 13:29:01","新北市新店區光明街31號","121.53828","24.95977","6500600","新店區"
"231003","268-BY","2018/05/25 13:29:04","新北市新店區安康路一段46巷4號","121.530633333333","24.96102","6500600","新店區"
"231018","278-BY","2018/05/25 13:28:55","新北市新店區百忍街90號","121.532713333333","24.9771966666667","6500600","新店區"
"231016","AAD-862","2018/05/25 13:29:02","新北市新店區北宜路二段30巷5弄2號","121.548031666667","24.95086","6500600","新店區"
"231038","3712-VJ","2018/05/25 13:29:07","新北市新店區安華路28-1號","121.519358333333","24.960725","6500600","新店區"
"231027","3713-VJ","2018/05/25 13:28:55","新北市新店區新店後街120號","121.537748333333","24.9556083333333","6500600","新店區"
"231037","4716-K9","2018/05/25 13:29:13","新北市新店區安豐路48號","121.500723333333","24.954255","6500600","新店區"
"231025","4715-K9","2018/05/25 13:28:52","新北市新店區中央六街56號","121.527886666667","24.9757433333333","6500600","新店區"
"231036","512-UM","2018/05/25 13:29:04","新北市新店區安祥路190巷15號","121.477928333333","24.95601","6500600","新店區"
"231013","513-UM","2018/05/25 13:27:49","新北市新店區安康路一段319號","121.52216","24.9636866666667","6500600","新店區"
"231034","616-UM","2018/05/25 13:29:00","新北市新店區安忠路205巷8號","121.50958","24.955035","6500600","新店區"
"231006","617-UM","2018/05/25 13:29:09","新北市新店區秀山路66號","121.530775","24.9610016666667","6500600","新店區"
"231030","619-UM","2018/05/25 13:28:57","新北市新店區安華路28-1號","121.51956","24.9608833333333","6500600","新店區"
"231035","719-UM","2018/05/25 13:29:08","新北市新店區安一路一段1-1號","121.519491666667","24.961215","6500600","新店區"
"231032","720-UM","2018/05/25 13:29:05","新北市新店區安豐路22巷7號","121.50139","24.9543866666667","6500600","新店區"
"231029","897-TW","2018/05/25 13:29:01","新北市新店區安忠路57巷13號","121.513068333333","24.9573083333333","6500600","新店區"
"231004","899-TW","2018/05/25 13:28:56","新北市新店區安康路一段285號","121.523453333333","24.9635683333333","6500600","新店區"
"231024","AKT-0513","2018/05/25 13:29:08","新北市新店區中正路154巷6號","121.541825","24.9720333333333","6500600","新店區"
"235064","005-UY","2018/05/25 13:28:54","新北市中和區連城路139巷63號","121.496891666667","24.997095","6500300","中和區"
"235027","006-UY","2018/05/25 13:28:57","新北市中和區連城路343號","121.488205","24.9958566666667","6500300","中和區"
"235011","031-BX","2018/05/25 13:28:59","新北市中和區南山路300號","121.507866666667","24.98719","6500300","中和區"
"235020","096-UM","2018/05/25 13:29:08","新北市中和區新生街115號","121.483575","25.0016833333333","6500300","中和區"
"235003","097-UM","2018/05/25 13:28:53","新北市中和區大勇街32號","121.517266666667","24.9931833333333","6500300","中和區"
"235029","098-UM","2018/05/25 13:29:05","新北市中和區中山路二段64巷16弄2號","121.503366666667","25.0057183333333","6500300","中和區"
"235004","150-BY","2018/05/25 13:28:50","新北市中和區保健路50巷68號","121.5091","24.9952316666667","6500300","中和區"
"235022","151-BY","2018/05/25 13:28:52","新北市中和區圓通路369巷165號","121.490165","24.9821883333333","6500300","中和區"
"235019","183-VK","2018/05/25 13:28:55","新北市中和區民享街245號","121.472056666667","24.9962116666667","6500300","中和區"
"235002","185-VK","2018/05/25 13:29:10","新北市中和區立人街14巷26號","121.51953","24.9954733333333","6500300","中和區"
"235013","186-VK","2018/05/25 13:28:58","新北市中和區景安路179號","121.50526","24.9940633333333","6500300","中和區"
"235036","301-VK","2018/05/25 13:28:56","新北市中和區連城路261-4號","121.49217","24.99657","6500300","中和區"
"235007","352-BY","2018/05/25 13:28:50","新北市中和區景平路333號","121.505778333333","24.9934216666667","6500300","中和區"
"235014","4979-A6","2018/05/25 13:29:00","新北市中和區景新街362巷3號","121.512035","24.990125","6500300","中和區"
"235033","4980-A6","2018/05/25 13:28:50","新北市中和區連城路99巷7號","121.496908333333","24.99922","6500300","中和區"
"235006","551-UM","2018/05/25 13:28:54","新北市中和區自立路64巷12號","121.52325","24.991075","6500300","中和區"
"235034","558-UM","2018/05/25 13:29:02","新北市中和區南華路26號","121.502998333333","24.9958516666667","6500300","中和區"
"235009","565-BX","2018/05/25 13:29:03","新北市中和區復興路13號","121.505838333333","24.9895983333333","6500300","中和區"
"235018","640-BX","2018/05/25 13:28:52","新北市中和區民享街87號","121.474408333333","25.0016366666667","6500300","中和區"
"235024","647-TV","2018/05/25 13:28:59","新北市中和區員山路168號","121.48134","24.999855","6500300","中和區"
"235035","783-BX","2018/05/25 13:29:05","新北市中和區中板路18巷3弄1號","121.484065","25.0126483333333","6500300","中和區"
"235026","800-TS","2018/05/25 13:23:49","新北市中和區中山路二段426號","121.489633333333","25.0039616666667","6500300","中和區"
"235021","801-TS","2018/05/25 13:29:09","新北市中和區民享街97巷15號","121.475646666667","24.99998","6500300","中和區"
"235005","802-TS","2018/05/25 13:28:56","新北市中和區中和路324巷3弄2號","121.510095","25.0008516666667","6500300","中和區"
"235016","805-TS","2018/05/25 13:28:57","新北市中和區興南路二段96號","121.505191666667","24.9842016666667","6500300","中和區"
"235017","900-TW","2018/05/25 13:29:02","新北市中和區連城路569巷9弄22號","121.479828333333","24.9934883333333","6500300","中和區"
"235030","911-UM","2018/05/25 13:29:01","新北市中和區中山路二段120號","121.502738333333","25.0038133333333","6500300","中和區"
"235015","157-BY","2018/05/25 13:29:07","新北市中和區興南路二段142巷18-9號","121.502666666667","24.9843183333333","6500300","中和區"
"235001","AAC-213","2018/05/25 13:28:52","新北市中和區景德街95-1號","121.515653333333","24.9913133333333","6500300","中和區"
"235023","AAC-215","2018/05/25 13:29:10","新北市中和區員山路36巷16-3號","121.484981666667","24.991445","6500300","中和區"
"220013","072-UY","2018/05/25 13:29:03","新北市板橋區南雅南路二段118號","121.453101666667","24.9999316666667","6500100","板橋區"
"247007","056-VK","2018/05/25 13:29:02","新北市五股區工商路8號","121.440726666667","25.0825683333333","6501400","蘆洲區"
"207002","749-BX","2018/05/25 13:29:11","新北市萬里區崁腳里崁腳路166號","121.644943333333","25.1558783333333","6502800","萬里區"
"207001","662-BX","2018/05/25 13:28:50","新北市萬里區大鵬里萬里加投29-6號","121.647393333333","25.20725","6502800","萬里區"
"236006","498-BY","2018/05/25 13:29:09","新北市土城區慶祥街96巷8號","121.435366666667","24.9732166666667","6501300","土城區"
"242048","172-VK","2018/05/25 13:29:10","新北市新莊區成德街42號","121.423451666667","25.0211533333333","6500500","新莊區"
"220027","145-BY","2018/05/25 13:29:09","新北市板橋區大觀路二段11-12號","121.448736666667","24.996225","6500100","板橋區"
"220028","200-UY","2018/05/25 13:29:07","新北市板橋區華東街1-9號","121.448203333333","24.9949683333333","6500100","板橋區"
"220030","610-BX","2018/05/25 13:28:51","新北市板橋區華東街1-9號","121.448241666667","24.994925","6500100","板橋區"
"220019","283-VK","2018/05/25 13:28:57","新北市板橋區華東街1-9號","121.448056666667","24.9949416666667","6500100","板橋區"
"220031","286-VK","2018/05/25 13:28:57","新北市板橋區華東街1-10號","121.44836","24.9951133333333","6500100","板橋區"
"220029","287-VK","2018/05/25 13:28:52","新北市板橋區華東街1-10號","121.44825","24.9950366666667","6500100","板橋區"
"220023","303-R5","2018/05/25 13:29:11","新北市板橋區華東街1-10號","121.448285","24.9949566666667","6500100","板橋區"
"220012","486-VK","2018/05/25 13:28:43","新北市板橋區南雅南路二段120-12號","121.45221","24.9993983333333","6500100","板橋區"
"220104","560-BX","2018/05/25 13:28:52","新北市板橋區南雅東路116號","121.453348333333","25.0082766666667","6500100","板橋區"
"220005","686-BX","2018/05/25 13:29:07","新北市板橋區華東街1-9號","121.448211666667","24.9949233333333","6500100","板橋區"
"220025","687-BX","2018/05/25 13:29:01","新北市板橋區篤行路一段32號","121.431878333333","24.9939616666667","6500100","板橋區"
"220022","895-R6","2018/05/25 13:29:05","新北市板橋區華東街1-10號","121.448223333333","24.995015","6500100","板橋區"
"220021","985-R7","2018/05/25 13:28:55","新北市板橋區華東街1-10號","121.448306666667","24.995005","6500100","板橋區"
"235032","KEA-2873","2018/05/25 13:28:48","新北市中和區圓通路277號","121.495586666667","24.9930583333333","6500300","中和區"
"235025","KEA-2875","2018/05/25 13:29:09","新北市中和區民享街95-4號","121.474945","25.0000666666667","6500300","中和區"
