"lineid","car","time","location","longitude","latitude","cityid","cityname"
"231022","108-UY","2018/05/25 15:48:23","新北市新店區新烏路一段58-2號","121.546033333333","24.94726","6500600","新店區"
"231012","187-VK","2018/05/25 15:48:41","新北市新店區文化路45號","121.544615","24.98111","6500600","新店區"
"231046","188-VK","2018/05/25 15:48:31","新北市新店區安一路一段1-1號","121.519606666667","24.9611433333333","6500600","新店區"
"231023","KEA-2219","2018/05/25 15:48:28","新北市新店區檳榔路22巷1號","121.541303333333","24.964225","6500600","新店區"
"231026","256-BX","2018/05/25 15:48:35","新北市新店區三民路191號","121.535473333333","24.9756183333333","6500600","新店區"
"231003","268-BY","2018/05/25 15:48:23","新北市新店區寶興路60巷3號","121.54994","24.97179","6500600","新店區"
"231018","278-BY","2018/05/25 15:48:35","新北市新店區中正路663巷7弄15號","121.532913333333","24.990065","6500600","新店區"
"231016","AAD-862","2018/05/25 15:48:42","新北市新店區中華路83巷2弄20號","121.538386666667","24.969195","6500600","新店區"
"231038","3712-VJ","2018/05/25 15:48:27","新北市新店區安康路二段228巷35弄5號","121.509385","24.9601283333333","6500600","新店區"
"231037","4716-K9","2018/05/25 15:48:32","新北市新店區安民街341-1號","121.516543333333","24.9750266666667","6500600","新店區"
"231013","513-UM","2018/05/25 15:48:38","新北市新店區永業路81巷3弄1號","121.5299","24.94932","6500600","新店區"
"231034","616-UM","2018/05/25 15:48:40","新北市新店區吉祥街5巷1號","121.497303333333","24.94784","6500600","新店區"
"231030","619-UM","2018/05/25 15:48:37","新北市新店區永安街60號","121.518948333333","24.986855","6500600","新店區"
"231035","719-UM","2018/05/25 15:48:28","新北市新店區安興路83-3號","121.515286666667","24.9754133333333","6500600","新店區"
"231032","720-UM","2018/05/25 15:48:25","新北市新店區雙城路175-2號","121.49516","24.9445983333333","6500600","新店區"
"231029","897-TW","2018/05/25 15:48:38","新北市新店區安忠路205巷8號","121.509068333333","24.9545983333333","6500600","新店區"
"241011","013-R5","2018/05/25 15:48:28","新北市三重區文化北路248號","121.497408333333","25.0699033333333","6500200","三重區"
"241028","022-UY","2018/05/25 15:48:40","新北市三重區中正南路54號","121.49395","25.0598583333333","6500200","三重區"
"241008","059-VK","2018/05/25 15:48:44","新北市三重區重新路四段121號","121.48496","25.05199","6500200","三重區"
"241015","062-VK","2018/05/25 15:48:28","新北市三重區重新路四段121號","121.485135","25.05211","6500200","三重區"
"241017","063-VK","2018/05/25 15:48:35","新北市三重區大仁街38號","121.49164","25.0642666666667","6500200","三重區"
"241026","066-VK","2018/05/25 15:48:30","新北市三重區重安街170巷6號","121.496311666667","25.0546833333333","6500200","三重區"
"241002","090-VK","2018/05/25 15:48:25","新北市三重區成功路112-3號","121.486383333333","25.0519833333333","6500200","三重區"
"241005","262-UM","2018/05/25 15:48:36","新北市三重區河邊北街70-1號","121.50458","25.0683633333333","6500200","三重區"
"241013","270-UM","2018/05/25 15:48:36","新北市三重區六張街26號","121.49537","25.0705716666667","6500200","三重區"
"241025","271-UM","2018/05/25 15:48:41","新北市三重區重新路四段121號","121.483898333333","25.053115","6500200","三重區"
"241007","398-BY","2018/05/25 15:48:24","新北市三重區重新路四段121號","121.484765","25.0513633333333","6500200","三重區"
"241004","475-VK","2018/05/25 15:48:28","新北市三重區重新路四段121號","121.484828333333","25.051955","6500200","三重區"
"241020","478-VK","2018/05/25 15:48:42","新北市三重區忠孝路二段56號","121.484981666667","25.0703433333333","6500200","三重區"
"241014","543-UM","2018/05/25 15:48:32","新北市三重區重新路四段121號","121.485106666667","25.0521216666667","6500200","三重區"
"241023","545-UM","2018/05/25 15:48:26","新北市三重區重新路四段121號","121.484818333333","25.05144","6500200","三重區"
"241006","AAD-863","2018/05/25 15:48:39","新北市三重區重新路四段121號","121.484746666667","25.0521133333333","6500200","三重區"
"241024","887-TS","2018/05/25 15:48:37","新北市三重區重新路四段121號","121.485098333333","25.0521533333333","6500200","三重區"
"241012","941-UM","2018/05/25 15:48:36","新北市三重區長壽街1號","121.498198333333","25.0675716666667","6500200","三重區"
"241029","942-UM","2018/05/25 15:48:34","新北市三重區大同南路242號","121.496863333333","25.05595","6500200","三重區"
"241033","AAC-255","2018/05/25 15:48:33","新北市三重區光復路一段111號","121.472068333333","25.0517916666667","6500200","三重區"
"235046","733-UM","2018/05/25 15:20:09","新北市中和區員山路36巷13號","121.484195","24.9908183333333","6500300","中和區"
"235026","800-TS","2018/05/25 15:48:29","新北市中和區立德街13-9號","121.489648333333","25.0066666666667","6500300","中和區"
"224005","271-BY","2018/05/25 15:48:42","新北市瑞芳區中山路251號","121.797801666667","25.10952","6501200","瑞芳區"
"227011","642-TC","2018/05/25 15:48:31","新北市雙溪區牡丹里中正路74號","121.863441666667","25.0453366666667","6502500","雙溪區"
"227003","400-TW","2018/05/25 15:48:38","新北市雙溪區平林里外平林44號","121.852926666667","25.0363366666667","6502500","雙溪區"
"236067","KEA-2877","2018/05/25 15:48:34","新北市土城區中山路54號","121.428906666667","24.96702","6501300","土城區"
"236057","912-UM","2018/05/25 15:48:27","新北市土城區中央路二段71號","121.44237","24.9786333333333","6501300","土城區"
"236045","913-UM","2018/05/25 15:48:43","新北市土城區金城路二段271號","121.464116666667","24.9859433333333","6501300","土城區"
"236054","AAC-216","2018/05/25 15:48:40","新北市土城區中華路二段109號","121.438998333333","24.9771083333333","6501300","土城區"
