"lineid","car","time","location","longitude","latitude","cityid","cityname"
"234042","862-TW","2018/05/25 16:30:41","新北市永和區福和路1號","121.526443333333","25.0097716666667","6500400","永和區"
"249005","172-UM","2018/05/25 16:59:31","新北市八里區渡船頭3-16號","121.434315","25.1528633333333","6502300","八里區"
"249001","173-UM","2018/05/25 16:59:25","新北市八里區中山路三段106號","121.391036666667","25.1421966666667","6502300","八里區"
"249004","303-UY","2018/05/25 16:59:39","新北市八里區挖子尾街1-1號","121.415663333333","25.1654833333333","6502300","八里區"
"249002","305-UY","2018/05/25 16:59:15","新北市八里區牛寮埔1號","121.433906666667","25.1425316666667","6502300","八里區"
"249003","593-UM","2018/05/25 16:59:40","新北市八里區中山路二段301號","121.401101666667","25.14815","6502300","八里區"
"244013","069-UM","2018/05/25 16:59:26","新北市林口區粉寮69號","121.405061666667","25.0908233333333","6501700","林口區"
"244007","080-UY","2018/05/25 16:59:43","新北市林口區林口路296號","121.385978333333","25.0854666666667","6501700","林口區"
"244023","483-VK","2018/05/25 16:59:38","新北市林口區粉寮路二段128號","121.404371666667","25.090625","6501700","林口區"
"244021","838-TS","2018/05/25 16:59:37","新北市林口區粉寮69號","121.404846666667","25.0908366666667","6501700","林口區"
"231046","188-VK","2018/05/25 16:59:31","新北市新店區永業路81巷22號","121.53062","24.947995","6500600","新店區"
"241011","013-R5","2018/05/25 16:59:28","新北市三重區仁愛街55巷68號","121.49781","25.0724933333333","6500200","三重區"
"241028","022-UY","2018/05/25 16:59:40","新北市三重區中正南路32-1號","121.49372","25.06016","6500200","三重區"
"241008","059-VK","2018/05/25 16:59:44","新北市三重區力行路二段136巷49弄6號","121.479458333333","25.0752516666667","6500200","三重區"
"241031","061-VK","2018/05/25 16:59:35","新北市三重區三寧街41號","121.490006666667","25.0601166666667","6500200","三重區"
"241015","062-VK","2018/05/25 16:59:34","新北市三重區三和路二段1號","121.501728333333","25.0664683333333","6500200","三重區"
"241017","063-VK","2018/05/25 16:59:35","新北市三重區國隆路12巷1號","121.492946666667","25.0637866666667","6500200","三重區"
"241026","066-VK","2018/05/25 16:59:30","新北市三重區文化南路42號","121.500358333333","25.0603633333333","6500200","三重區"
"241002","090-VK","2018/05/25 16:59:25","新北市三重區仁義街101巷2號","121.49758","25.0802566666667","6500200","三重區"
"241003","091-VK","2018/05/25 16:59:37","新北市三重區五華街141巷60號","121.49349","25.086745","6500200","三重區"
"241022","742-BX","2018/05/25 16:57:40","新北市三重區重陽路二段34巷32號","121.485938333333","25.0633833333333","6500200","三重區"
"241005","262-UM","2018/05/25 16:59:36","新北市三重區仁華街73號","121.485338333333","25.0829483333333","6500200","三重區"
"241009","265-UM","2018/05/25 16:59:43","新北市三重區仁美街128號","121.485466666667","25.0813983333333","6500200","三重區"
"241016","266-UM","2018/05/25 16:59:30","新北市三重區大同北路133巷2號","121.492985","25.0644866666667","6500200","三重區"
"241018","268-UM","2018/05/25 16:59:35","新北市三重區六張街126巷2弄10號","121.492285","25.06948","6500200","三重區"
"241032","269-UM","2018/05/25 16:59:29","新北市三重區重陽路一段120巷25號","121.48577","25.06022","6500200","三重區"
"241013","270-UM","2018/05/25 16:59:35","新北市三重區仁昌街30號","121.496745","25.074145","6500200","三重區"
"241025","271-UM","2018/05/25 16:59:41","新北市三重區中正北路508巷13號","121.47277","25.070955","6500200","三重區"
"241007","398-BY","2018/05/25 16:59:44","新北市三重區慈愛街145號","121.489281666667","25.0797216666667","6500200","三重區"
"241030","413-TH","2018/05/25 16:59:31","新北市三重區昌隆街72號","121.490925","25.050725","6500200","三重區"
"241004","475-VK","2018/05/25 16:59:28","新北市三重區五華街98巷8號","121.491943333333","25.0818983333333","6500200","三重區"
"241020","478-VK","2018/05/25 16:59:42","新北市三重區後竹圍街175巷29號","121.485608333333","25.0730016666667","6500200","三重區"
"241014","543-UM","2018/05/25 16:59:32","新北市三重區三和路二段173巷149號","121.501191666667","25.0707416666667","6500200","三重區"
"241023","545-UM","2018/05/25 16:59:26","新北市三重區忠孝路三段84巷5號","121.480183333333","25.0643533333333","6500200","三重區"
"241001","547-UM","2018/05/25 16:59:28","新北市三重區仁愛街247號","121.493596666667","25.0780633333333","6500200","三重區"
"241019","KEA-2593","2018/05/25 16:59:44","新北市三重區自強路二段74巷23-1號","121.48792","25.0697433333333","6500200","三重區"
"241006","AAD-863","2018/05/25 16:59:39","新北市三重區車路頭街131巷28號","121.485705","25.0758633333333","6500200","三重區"
"241024","887-TS","2018/05/25 16:59:37","新北市三重區大勇街82巷28號","121.479565","25.0723216666667","6500200","三重區"
"241012","941-UM","2018/05/25 16:59:36","新北市三重區仁信街5號","121.501668333333","25.0757283333333","6500200","三重區"
"241029","942-UM","2018/05/25 16:59:34","新北市三重區中正南路260-1號","121.493216666667","25.0529666666667","6500200","三重區"
"241033","AAC-255","2018/05/25 16:59:33","新北市三重區中興北街275號","121.469158333333","25.0608466666667","6500200","三重區"
"247024","893-R6","2018/05/25 16:59:23","新北市蘆洲區長興路202號","121.460586666667","25.0874466666667","6501400","蘆洲區"
"247014","546-UM","2018/05/25 16:59:44","新北市蘆洲區得勝街69巷20號","121.473918333333","25.08323","6501400","蘆洲區"
"247010","341-TH","2018/05/25 16:59:43","新北市蘆洲區信義路180號","121.47925","25.0841116666667","6501400","蘆洲區"
"247004","337-TH","2018/05/25 16:59:25","新北市蘆洲區長安街110號","121.460886666667","25.08154","6501400","蘆洲區"
"247006","336-TH","2018/05/25 16:59:35","新北市蘆洲區長安街99巷31號","121.460763333333","25.0796333333333","6501400","蘆洲區"
"247018","057-VK","2018/05/25 16:59:46","新北市蘆洲區民族路300號","121.477645","25.0899266666667","6501400","蘆洲區"
"247008","056-VK","2018/05/25 16:59:40","新北市蘆洲區信義路60號","121.475686666667","25.079515","6501400","蘆洲區"
"247016","007-UY","2018/05/25 16:59:42","新北市蘆洲區正和街24號","121.469813333333","25.082345","6501400","蘆洲區"
"247020","001-UY","2018/05/25 16:59:33","新北市蘆洲區民族路422巷82弄9號","121.473925","25.0939966666667","6501400","蘆洲區"
"228002","663-BX","2018/05/25 16:59:41","新北市貢寮區貢寮里朝陽街1號","121.909968333333","25.021205","6502600","貢寮區"
"228001","670-TC","2018/05/25 16:59:29","新北市貢寮區貢寮里朝陽街1-2號","121.912281666667","25.0212483333333","6502600","貢寮區"
"228003","828-UM","2018/05/25 16:59:36","新北市貢寮區福隆里興隆街24號","121.944611666667","25.0166366666667","6502600","貢寮區"
"224006","676-BX","2018/05/25 16:59:41","新北市瑞芳區大寮路20號","121.783051666667","25.0991183333333","6501200","瑞芳區"
"224008","285-BY","2018/05/25 16:59:32","新北市瑞芳區明燈路一段15號","121.823826666667","25.1074333333333","6501200","瑞芳區"
"224007","275-VK","2018/05/25 16:59:26","新北市瑞芳區大埔路17-1號","121.767028333333","25.1041333333333","6501200","瑞芳區"
"224009","273-VK","2018/05/25 16:59:44","新北市瑞芳區濱二路24號","121.836531666667","25.1124583333333","6501200","瑞芳區"
"224005","271-BY","2018/05/25 16:59:42","新北市瑞芳區南雅路41-2號","121.88802","25.120475","6501200","瑞芳區"
"227011","642-TC","2018/05/25 16:59:31","新北市雙溪區牡丹里聖南35號","121.85315","25.056015","6502500","雙溪區"
"227003","400-TW","2018/05/25 16:59:38","新北市雙溪區長源里柑腳19號","121.804463333333","25.0141816666667","6502500","雙溪區"
"251005","010-UM","2018/05/25 16:59:45","新北市淡水區中正路一段116號","121.4234","25.1782566666667","6501000","淡水區"
"251008","181-VK","2018/05/25 16:59:42","新北市淡水區樹梅坑9號","121.47279","25.14264","6501000","淡水區"
"251010","413-VK","2018/05/25 16:59:43","新北市淡水區新市一路一段6號","121.429565","25.18779","6501000","淡水區"
"251007","442-VK","2018/05/25 16:59:34","新北市淡水區中山路35號","121.443666666667","25.1704133333333","6501000","淡水區"
"251012","443-VK","2018/05/25 16:59:33","新北市淡水區沙崙路242號","121.425941666667","25.1848883333333","6501000","淡水區"
"251006","561-UM","2018/05/25 16:59:34","新北市淡水區中正路一段85號","121.422331666667","25.178935","6501000","淡水區"
"251009","575-R6","2018/05/25 16:59:37","新北市淡水區中正路一段33號","121.42596","25.176515","6501000","淡水區"
"251011","650-BX","2018/05/25 16:59:33","新北市淡水區文化路65號","121.438033333333","25.172845","6501000","淡水區"
"252002","178-VK","2018/05/25 16:59:40","新北市三芝區忠孝街171號","121.505731666667","25.26115","6502100","三芝區"
"252001","292-VK","2018/05/25 16:59:36","新北市三芝區淡金路二段38-1號","121.502921666667","25.2599216666667","6502100","三芝區"
"242054","751-BX","2018/05/25 16:59:36","新北市新莊區新泰路357巷3弄57號","121.441928333333","25.0390666666667","6500500","新莊區"
"242027","615-BX","2018/05/25 16:59:36","新北市新莊區新泰路255巷83號","121.442206666667","25.0388133333333","6500500","新莊區"
"242029","612-BX","2018/05/25 16:59:34","新北市新莊區新泰路357巷3弄57號","121.442085","25.0391316666667","6500500","新莊區"
"242041","566-BX","2018/05/25 16:59:29","新北市新莊區新泰路357巷3弄57號","121.44198","25.03899","6500500","新莊區"
"242023","362-BY","2018/05/25 16:59:34","新北市新莊區三和路12-21號","121.442188333333","25.0386216666667","6500500","新莊區"
"242039","133-UY","2018/05/25 16:59:29","新北市新莊區新泰路255巷83號","121.442038333333","25.0388716666667","6500500","新莊區"
"242017","175-VK","2018/05/25 16:59:39","新北市新莊區三和路12-21號","121.441906666667","25.0386683333333","6500500","新莊區"
"242013","351-TH","2018/05/25 16:59:31","新北市新莊區新泰路357巷3弄57號","121.44204","25.039515","6500500","新莊區"
"238018","571-TV","2018/05/25 16:59:41","新北市樹林區育德街78-1號","121.388073333333","24.9680566666667","6500700","樹林區"
"238017","283-BY","2018/05/25 16:59:43","新北市樹林區育德街78號","121.387488333333","24.96842","6500700","樹林區"
"238014","282-BY","2018/05/25 16:59:41","新北市樹林區育德街78-1號","121.387693333333","24.968145","6500700","樹林區"
"238020","268-VK","2018/05/25 16:59:33","新北市樹林區八德街1012號","121.391373333333","24.9685133333333","6500700","樹林區"
"239001","417-VK","2018/05/25 16:53:09","新北市鶯歌區二甲路12-2號","121.345563333333","24.9349566666667","6500800","鶯歌區"
"239003","360-BY","2018/05/25 16:59:44","新北市鶯歌區二甲路12-2號","121.345576666667","24.9350166666667","6500800","鶯歌區"
"239007","292-BY","2018/05/25 16:59:31","新北市鶯歌區二甲路12-2號","121.345983333333","24.9345833333333","6500800","鶯歌區"
