"lineid","car","time","location","longitude","latitude","cityid","cityname"
"234042","862-TW","2018/05/25 17:48:53","新北市永和區福和路1號","121.52651","25.0096666666667","6500400","永和區"
"234026","9371-KE","2018/05/25 17:49:07","新北市永和區中山路一段70號","121.512485","25.0107833333333","6500400","永和區"
"249005","172-UM","2018/05/25 17:49:11","新北市八里區荖阡坑路34-2號","121.402495","25.1308233333333","6502300","八里區"
"249001","173-UM","2018/05/25 17:49:05","新北市八里區龍米路二段133-1號","121.44509","25.1476766666667","6502300","八里區"
"249004","303-UY","2018/05/25 17:49:00","新北市八里區中華路一段79巷11號","121.421008333333","25.1564283333333","6502300","八里區"
"249002","305-UY","2018/05/25 17:49:15","新北市八里區龍形三街9巷2號","121.450626666667","25.1317616666667","6502300","八里區"
"249003","593-UM","2018/05/25 17:49:00","新北市八里區中山路二段77號","121.406251666667","25.1530233333333","6502300","八里區"
"248002","678-BX","2018/05/25 17:49:05","新北市五股區中興路二段37巷28號","121.460095","25.0746683333333","6501500","五股區"
"232011","375-UM","2018/05/25 17:49:11","新北市坪林區北宜路八段186號","121.707911666667","24.9346166666667","6502000","坪林區"
"244013","069-UM","2018/05/25 17:49:06","新北市林口區中正路507號","121.383126666667","25.0775","6501700","林口區"
"244007","080-UY","2018/05/25 17:49:03","新北市林口區佳林路3號","121.387186666667","25.0824683333333","6501700","林口區"
"244019","403-UM","2018/05/25 17:48:37","新北市林口區麗園路167號","121.371576666667","25.0669466666667","6501700","林口區"
"244009","410-SL","2018/05/25 17:49:07","新北市林口區林口路303號","121.385561666667","25.0851666666667","6501700","林口區"
"244023","483-VK","2018/05/25 17:48:59","新北市林口區東湖路10號","121.388866666667","25.074155","6501700","林口區"
"244017","485-VK","2018/05/25 17:49:09","新北市林口區文化二路一段260巷9-1號","121.371098333333","25.0727516666667","6501700","林口區"
"244011","657-BX","2018/05/25 17:49:09","新北市林口區佳林路253號","121.382981666667","25.0761416666667","6501700","林口區"
"244025","837-TS","2018/05/25 17:49:02","新北市林口區文化三路一段181號","121.362215","25.07011","6501700","林口區"
"244021","838-TS","2018/05/25 17:48:57","新北市林口區仁愛路一段83巷38號","121.397726666667","25.0706116666667","6501700","林口區"
"243015","421-VK","2018/05/25 17:46:41","新北市泰山區犁頭窠3-1號","121.422316666667","25.0605716666667","6501600","泰山區"
"222003","436-BY","2018/05/25 17:49:03","新北市深坑區文山路三段110號","121.608341666667","24.9989266666667","6501800","深坑區"
"222002","659-BX","2018/05/25 17:49:03","新北市深坑區平埔街22巷17弄1號","121.614906666667","25.000865","6501800","深坑區"
"231046","188-VK","2018/05/25 17:49:11","新北市新店區康雅崙路6號","121.536496666667","24.9260316666667","6500600","新店區"
"241003","091-VK","2018/05/25 17:49:17","新北市三重區集賢路87-1號","121.493628333333","25.0869","6500200","三重區"
"241005","262-UM","2018/05/25 17:49:15","新北市三重區碧華街317號","121.491053333333","25.0843033333333","6500200","三重區"
"241016","266-UM","2018/05/25 17:49:10","新北市三重區新北大道一段7號","121.489736666667","25.06176","6500200","三重區"
"241024","887-TS","2018/05/25 17:49:17","新北市三重區國道路一段39巷3號","121.483926666667","25.0730483333333","6500200","三重區"
"241012","941-UM","2018/05/25 17:49:16","新北市三重區龍門路238號","121.500695","25.0736583333333","6500200","三重區"
"241033","AAC-255","2018/05/25 17:49:13","新北市三重區光復路一段1號","121.472128333333","25.0469133333333","6500200","三重區"
"235063","006-UY","2018/05/25 17:49:04","新北市中和區員山路36巷16-3號","121.48507","24.99138","6500300","中和區"
"235065","098-UM","2018/05/25 17:49:16","新北市中和區員山路36巷16-3號","121.48514","24.9911383333333","6500300","中和區"
"235067","255-BX","2018/05/25 17:49:16","新北市中和區和城路一段271巷1號","121.48589","24.9918066666667","6500300","中和區"
"247024","893-R6","2018/05/25 17:49:10","新北市蘆洲區光榮路61巷23號","121.46085","25.0892083333333","6501400","蘆洲區"
"247014","546-UM","2018/05/25 17:49:04","新北市蘆洲區保和街69巷14號","121.469505","25.08544","6501400","蘆洲區"
"247022","500-BY","2018/05/25 17:49:00","新北市蘆洲區中正路308號","121.464771666667","25.0907833333333","6501400","蘆洲區"
"247010","341-TH","2018/05/25 17:49:02","新北市蘆洲區民族路31號","121.477503333333","25.0848866666667","6501400","蘆洲區"
"247012","339-TH","2018/05/25 17:49:04","新北市蘆洲區復興路210號","121.478673333333","25.0891083333333","6501400","蘆洲區"
"247004","337-TH","2018/05/25 17:49:05","新北市蘆洲區永康街77號","121.455778333333","25.0852233333333","6501400","蘆洲區"
"247006","336-TH","2018/05/25 17:49:16","新北市蘆洲區九芎街90巷6號","121.465848333333","25.08006","6501400","蘆洲區"
"247018","057-VK","2018/05/25 17:49:06","新北市蘆洲區復興路342-1號","121.482515","25.0902933333333","6501400","蘆洲區"
"247008","056-VK","2018/05/25 17:49:01","新北市蘆洲區信義路37巷8弄1號","121.474558333333","25.0798116666667","6501400","蘆洲區"
"247016","007-UY","2018/05/25 17:49:02","新北市蘆洲區中正路185巷25弄18號","121.467208333333","25.083845","6501400","蘆洲區"
"247002","002-UY","2018/05/25 17:49:10","新北市蘆洲區永平街32巷21弄35號","121.457875","25.0922566666667","6501400","蘆洲區"
"247020","001-UY","2018/05/25 17:49:13","新北市蘆洲區民義街71巷5號","121.47288","25.0903533333333","6501400","蘆洲區"
"228002","663-BX","2018/05/25 17:49:01","新北市貢寮區福隆里龜壽谷街13號","121.956565","25.005925","6502600","貢寮區"
"228001","670-TC","2018/05/25 17:49:09","新北市貢寮區仁理村仁愛路95-1號","121.927695","25.0555033333333","6502600","貢寮區"
"228003","828-UM","2018/05/25 17:49:13","新北市貢寮區真理里美艷山街6-2號","121.928753333333","25.0607633333333","6502600","貢寮區"
"224010","AGQ-8101","2018/05/25 17:49:02","新北市瑞芳區濱二路31號","121.832783333333","25.1115483333333","6501200","瑞芳區"
"224006","676-BX","2018/05/25 17:49:00","新北市瑞芳區傑魚坑路183號","121.788405","25.108275","6501200","瑞芳區"
"224008","285-BY","2018/05/25 17:49:12","新北市瑞芳區明燈路一段118號","121.81863","25.108925","6501200","瑞芳區"
"224009","273-VK","2018/05/25 17:49:14","新北市瑞芳區山尖路165號","121.85285","25.1129633333333","6501200","瑞芳區"
"224005","271-BY","2018/05/25 17:49:02","新北市瑞芳區建基路一段46號","121.819665","25.1226816666667","6501200","瑞芳區"
"227011","642-TC","2018/05/25 17:49:11","新北市雙溪區三貂里定福路1-2號","121.850715","25.06343","6502500","雙溪區"
"222001","KEA-2212","2018/05/25 17:49:14","新北市深坑區北深路三段25巷15-2號","121.608751666667","24.9996983333333","6501800","深坑區"
"208003","665-BX","2018/05/25 17:49:05","新北市金山區磺清路135號","121.639456666667","25.2277416666667","6502700","金山區"
"208001","761-BX","2018/05/25 17:49:07","新北市金山區磺清路121號","121.639768333333","25.2282266666667","6502700","金山區"
"251004","009-UM","2018/05/25 17:49:02","新北市淡水區民權一街31號","121.459245","25.1363766666667","6501000","淡水區"
"251005","010-UM","2018/05/25 17:49:05","新北市淡水區學府路102巷8號","121.45061","25.171815","6501000","淡水區"
"251002","012-UM","2018/05/25 17:48:58","新北市淡水區中山路23號","121.44398","25.1699816666667","6501000","淡水區"
"251008","181-VK","2018/05/25 17:49:02","新北市淡水區八勢路一段125號","121.467203333333","25.1569566666667","6501000","淡水區"
"251010","413-VK","2018/05/25 17:49:03","新北市淡水區淡海路280巷33弄34-2號","121.418745","25.1886433333333","6501000","淡水區"
"251007","442-VK","2018/05/25 17:49:14","新北市淡水區民生路14號","121.460963333333","25.1376883333333","6501000","淡水區"
"251012","443-VK","2018/05/25 17:49:13","新北市淡水區商工路393號","121.474381666667","25.1848633333333","6501000","淡水區"
"251001","559-UM","2018/05/25 17:48:57","新北市淡水區民權路92巷35-1號","121.46214","25.126675","6501000","淡水區"
"251006","561-UM","2018/05/25 17:49:14","新北市淡水區新生街51巷32號","121.440871666667","25.1758966666667","6501000","淡水區"
"251009","575-R6","2018/05/25 17:48:58","新北市淡水區水源街一段54號","121.444366666667","25.1722383333333","6501000","淡水區"
"251011","650-BX","2018/05/25 17:44:33","新北市淡水區吳(仔)厝10-3號","121.481786666667","25.1487566666667","6501000","淡水區"
"251003","673-BX","2018/05/25 17:49:01","新北市淡水區大忠街5巷1號","121.443048333333","25.17637","6501000","淡水區"
"207003","550-UM","2018/05/25 17:49:00","新北市萬里區野柳里東澳路66號","121.692678333333","25.2009433333333","6502800","萬里區"
"207004","225-TW","2018/05/25 17:49:13","新北市萬里區萬里里瑪鋉頂街61號","121.688343333333","25.1804616666667","6502800","萬里區"
"252002","178-VK","2018/05/25 17:49:16","新北市三芝區中山路一段102號","121.502276666667","25.25628","6502100","三芝區"
"252001","292-VK","2018/05/25 17:48:56","新北市三芝區中興街一段37號","121.497633333333","25.257835","6502100","三芝區"
"237004","KEA-2597","2018/05/25 17:48:57","新北市三峽區中山路459巷52-1號","121.35663","24.9360216666667","6500900","三峽區"
"237011","572-TV","2018/05/25 17:49:00","新北市三峽區光明路49號","121.375166666667","24.92914","6500900","三峽區"
"237009","210-TH","2018/05/25 17:49:00","新北市三峽區大勇路15號","121.367251666667","24.9367666666667","6500900","三峽區"
"237013","252-BX","2018/05/25 17:49:14","新北市三峽區介壽路一段22號","121.375545","24.932825","6500900","三峽區"
"237012","275-BY","2018/05/25 17:49:14","新北市三峽區文化路2號","121.373403333333","24.9354616666667","6500900","三峽區"
"237008","302-VK","2018/05/25 17:48:56","新北市三峽區民權街134號","121.368628333333","24.931885","6500900","三峽區"
"237014","433-BY","2018/05/25 17:49:09","新北市三峽區和平街36巷17號","121.371266666667","24.9370333333333","6500900","三峽區"
"237006","5529-G3","2018/05/25 17:49:00","新北市三峽區介壽路二段38巷76-2號","121.391826666667","24.9340016666667","6500900","三峽區"
"237015","649-BX","2018/05/25 17:49:12","新北市三峽區白雞145號","121.399426666667","24.90527","6500900","三峽區"
"237010","706-TV","2018/05/25 17:49:09","新北市三峽區文化路238號","121.367611666667","24.93586","6500900","三峽區"
"237005","AKY-6261","2018/05/25 17:48:56","新北市三峽區中山路459巷121號","121.351825","24.935295","6500900","三峽區"
"236069","105-UM","2018/05/25 17:49:11","新北市土城區城林路6巷80號","121.438618333333","24.979695","6501300","土城區"
"236042","107-UM","2018/05/25 17:49:13","新北市土城區城林路6巷80號","121.438538333333","24.97978","6501300","土城區"
"236079","166-UM","2018/05/25 17:49:14","新北市土城區中華路二段88號","121.438571666667","24.9753283333333","6501300","土城區"
"236030","253-BX","2018/05/25 17:49:02","新北市土城區城林路6巷80號","121.438581666667","24.9796716666667","6501300","土城區"
"236014","270-VK","2018/05/25 17:49:03","新北市土城區城林路6巷80號","121.438495","24.9796483333333","6501300","土城區"
"236039","271-VK","2018/05/25 17:49:04","新北市土城區城林路6巷80號","121.438488333333","24.97977","6501300","土城區"
"236020","401-BY","2018/05/25 17:49:14","新北市土城區城林路6巷80號","121.438501666667","24.97961","6501300","土城區"
"236059","912-UM","2018/05/25 17:49:02","新北市土城區中華路二段125號","121.438953333333","24.9765666666667","6501300","土城區"
"236063","915-UM","2018/05/25 17:48:58","新北市土城區城林路6巷80號","121.4385","24.9796483333333","6501300","土城區"
"236055","AAC-216","2018/05/25 17:49:09","新北市土城區城林路6巷80號","121.438438333333","24.97961","6501300","土城區"
"242034","AAC-296","2018/05/25 17:49:01","新北市新莊區新莊路668號","121.441575","25.0327466666667","6500500","新莊區"
"242058","986-R7","2018/05/25 17:49:04","新北市新莊區中正路891-32號","121.414636666667","25.0234033333333","6500500","新莊區"
"242054","751-BX","2018/05/25 17:49:16","新北市新莊區新樹路579號","121.432835","25.0068933333333","6500500","新莊區"
"242027","615-BX","2018/05/25 17:48:56","新北市新莊區福壽街175號","121.458021666667","25.05394","6500500","新莊區"
"242025","613-BX","2018/05/25 17:49:08","新北市新莊區中山路一段7號","121.465203333333","25.0610916666667","6500500","新莊區"
"242029","612-BX","2018/05/25 17:49:14","新北市新莊區復興路一段31號","121.446393333333","25.0418116666667","6500500","新莊區"
"242041","566-BX","2018/05/25 17:49:09","新北市泰山區貴陽街29號","121.422326666667","25.0331933333333","6500500","新莊區"
"242046","497-BY","2018/05/25 17:49:02","新北市新莊區福營路125巷6號","121.433155","25.031485","6500500","新莊區"
"242050","441-UM","2018/05/25 17:49:16","新北市新莊區西盛街231巷11號","121.428636666667","25.01637","6500500","新莊區"
"242056","440-UM","2018/05/25 17:49:11","新北市新莊區瓊林路38巷39號","121.446525","25.030385","6500500","新莊區"
"242037","415-TV","2018/05/25 17:49:13","新北市新莊區建福路67號","121.426826666667","25.02695","6500500","新莊區"
"242007","413-TV","2018/05/25 17:48:58","新北市新莊區福樂街124號","121.456953333333","25.04786","6500500","新莊區"
"242023","362-BY","2018/05/25 17:49:14","新北市新莊區福樂街47號","121.457531666667","25.0472833333333","6500500","新莊區"
"242060","353-BY","2018/05/25 17:48:58","新北市新莊區瓊林南路204號","121.434116666667","25.0066066666667","6500500","新莊區"
"242009","132-UY","2018/05/25 17:49:16","新北市新莊區昌明街48號","121.456086666667","25.0523116666667","6500500","新莊區"
"242039","133-UY","2018/05/25 17:49:09","新北市新莊區民安路178號","121.42524","25.0238683333333","6500500","新莊區"
"242032","135-UY","2018/05/25 17:49:06","新北市新莊區新泰路357巷1弄41號","121.442636666667","25.0399616666667","6500500","新莊區"
"242048","172-VK","2018/05/25 17:49:11","新北市新莊區萬安街60巷1號","121.420731666667","25.0235933333333","6500500","新莊區"
"242011","173-VK","2018/05/25 17:49:11","新北市新莊區中港路699號","121.450675","25.057175","6500500","新莊區"
"242017","175-VK","2018/05/25 17:48:59","新北市新莊區永安街64號","121.451125","25.044695","6500500","新莊區"
"242005","176-VK","2018/05/25 17:49:01","新北市新莊區福樂街54號","121.457818333333","25.0460083333333","6500500","新莊區"
"242015","346-TH","2018/05/25 17:49:13","新北市新莊區新泰路417-2號","121.44311","25.0446383333333","6500500","新莊區"
"242019","347-TH","2018/05/25 17:49:08","新北市新莊區長青街28號","121.456625","25.04246","6500500","新莊區"
"242021","348-TH","2018/05/25 17:49:07","新北市新莊區永寧街32巷2號","121.452886666667","25.0392766666667","6500500","新莊區"
"242013","351-TH","2018/05/25 17:49:11","新北市新莊區中誠街164號","121.448221666667","25.0474416666667","6500500","新莊區"
"238015","755-BX","2018/05/25 17:49:01","新北市樹林區復興路139號","121.421451666667","24.9927333333333","6500700","樹林區"
"238023","601-UM","2018/05/25 17:49:15","桃園市龜山區龍興街12巷3號","121.402235","25.016175","6500700","樹林區"
"238019","599-UM","2018/05/25 17:49:04","新北市樹林區太平路145號","121.419218333333","24.9799066666667","6500700","樹林區"
"238018","571-TV","2018/05/25 17:49:01","新北市樹林區博愛街92號","121.426965","24.9918633333333","6500700","樹林區"
"238022","KEA-2213","2018/05/25 17:49:10","新北市樹林區太順街62巷3弄30號","121.41659","24.979295","6500700","樹林區"
"238021","KEA-2539","2018/05/25 17:49:14","新北市樹林區柑園街一段36-8號","121.405455","24.9615883333333","6500700","樹林區"
"238025","303-VK","2018/05/25 17:48:56","新北市樹林區三俊街21號","121.411673333333","25.015495","6500700","樹林區"
"238017","283-BY","2018/05/25 17:49:03","新北市樹林區三德街30巷18號","121.414583333333","25.0125066666667","6500700","樹林區"
"238014","282-BY","2018/05/25 17:49:01","新北市樹林區保安街一段219號","121.420466666667","24.99623","6500700","樹林區"
"238020","268-VK","2018/05/25 17:49:13","新北市樹林區俊英街113-3號","121.424858333333","25.0099483333333","6500700","樹林區"
"238026","172-UY","2018/05/25 17:49:12","新北市樹林區中洲街30巷13弄45號","121.398296666667","24.972605","6500700","樹林區"
"239006","891-R6","2018/05/25 17:48:57","新北市鶯歌區鶯桃路413巷78弄2號","121.329786666667","24.96315","6500800","鶯歌區"
"239008","527-UM","2018/05/25 17:48:59","新北市鶯歌區大湖路718號","121.332906666667","24.976395","6500800","鶯歌區"
"239005","526-UM","2018/05/25 17:49:07","新北市鶯歌區鳳吉四街41號","121.327316666667","24.97313","6500800","鶯歌區"
"239001","417-VK","2018/05/25 17:49:08","新北市鶯歌區中正三路438號","121.323938333333","24.9345816666667","6500800","鶯歌區"
"239003","360-BY","2018/05/25 17:49:04","新北市鶯歌區永吉街46巷55號","121.33421","24.9577616666667","6500800","鶯歌區"
"239002","359-BY","2018/05/25 17:49:02","新北市鶯歌區光明街101號","121.344626666667","24.9557016666667","6500800","鶯歌區"
"239007","292-BY","2018/05/25 17:49:11","新北市鶯歌區鶯桃路98號","121.339271666667","24.95396","6500800","鶯歌區"
"239004","193-VK","2018/05/25 17:49:02","新北市鶯歌區文化路324巷1-35號","121.352366666667","24.945665","6500800","鶯歌區"
"221008","489-VK","2018/05/25 17:49:13","新北市汐止區康寧街901號","121.651301666667","25.075","6501100","汐止區"
"221036","130-UY","2018/05/25 17:48:59","新北市汐止區汐萬路一段225號","121.651846666667","25.07255","6501100","汐止區"
"221015","131-UY","2018/05/25 17:49:06","新北市汐止區長江街249-1號","121.662886666667","25.0793433333333","6501100","汐止區"
"221010","269-BY","2018/05/25 17:49:05","新北市汐止區汐萬路二段109號","121.648295","25.08367","6501100","汐止區"
"221012","278-VK","2018/05/25 17:48:59","新北市汐止區長江街233號","121.662443333333","25.0782816666667","6501100","汐止區"
"221023","279-VK","2018/05/25 17:49:07","新北市汐止區民族二街9號","121.63493","25.07087","6501100","汐止區"
"221032","280-BY","2018/05/25 17:49:04","新北市汐止區樟樹二路344-1號","121.641528333333","25.07066","6501100","汐止區"
"221027","281-BY","2018/05/25 17:49:15","新北市汐止區康寧街901號","121.651155","25.0751333333333","6501100","汐止區"
"221029","298-VK","2018/05/25 17:49:07","新北市汐止區康寧街901號","121.651486666667","25.0749266666667","6501100","汐止區"
"221021","299-VK","2018/05/25 17:49:07","新北市汐止區水源路一段21號","121.657236666667","25.0666516666667","6501100","汐止區"
"221031","353-TW","2018/05/25 17:49:10","新北市汐止區中興路39號","121.634631666667","25.0622483333333","6501100","汐止區"
"221025","623-UM","2018/05/25 17:49:09","新北市汐止區汐萬路一段191號","121.65234","25.071685","6501100","汐止區"
"221038","646-BX","2018/05/25 17:49:06","新北市汐止區汐萬路一段312號","121.650395","25.0750683333333","6501100","汐止區"
"221033","647-BX","2018/05/25 17:49:12","新北市汐止區林森街132巷6弄19號","121.624183333333","25.040215","6501100","汐止區"
"221018","753-BX","2018/05/25 17:49:13","新北市汐止區汐萬路一段81號","121.65461","25.0700733333333","6501100","汐止區"
"242002","KEA-2550","2018/05/25 17:49:14","新北市新莊區景德路168號","121.450463333333","25.0342","6500500","新莊區"
"242044","281-VK","2018/05/25 17:49:08","新北市新莊區中正路855巷30號","121.420205","25.0269466666667","6500500","新莊區"
