"lineid","car","time","location","longitude","latitude","cityid","cityname"
"234070","149-BY","2018/05/25 20:39:04","台北市中正區汀州路三段230巷23號","121.533553333333","25.00911","6500400","永和區"
"234081","298-R6","2018/05/25 20:39:17","新北市永和區永利路156號","121.522513333333","25.0027433333333","6500400","永和區"
"234042","862-TW","2018/05/25 20:39:05","新北市永和區永利路69號","121.519595","25.00484","6500400","永和區"
"249001","173-UM","2018/05/25 20:39:05","新北市八里區下罟子23號","121.376883333333","25.1387033333333","6502300","八里區"
"249004","303-UY","2018/05/25 20:39:02","新北市八里區中山路一段157巷13號","121.413005","25.1583566666667","6502300","八里區"
"234023","9380-KE","2018/05/25 20:39:06","新北市永和區竹林路25巷34號","121.518153333333","25.0149583333333","6500400","永和區"
"234077","969-R7","2018/05/25 20:39:11","新北市永和區中正路40號","121.512956666667","24.99431","6500400","永和區"
"234074","AAC-211","2018/05/25 20:39:06","新北市永和區竹林路115號","121.51991","25.011605","6500400","永和區"
"243013","AAD-798","2018/05/25 20:39:05","新北市泰山區泰林路三段778號","121.401253333333","25.0723233333333","6501600","泰山區"
"243016","380-SR","2018/05/25 20:39:15","新北市泰山區明志路二段216號","121.427266666667","25.0487633333333","6501600","泰山區"
"243010","KEA-2216","2018/05/25 20:39:02","新北市泰山區公園路88-1號","121.423565","25.0569316666667","6501600","泰山區"
"243012","646-TV","2018/05/25 20:39:14","新北市泰山區橫窠雅36號","121.403388333333","25.0730883333333","6501600","泰山區"
"222003","436-BY","2018/05/25 20:39:06","新北市深坑區阿柔洋17-1號","121.612833333333","24.9991983333333","6501800","深坑區"
"222002","659-BX","2018/05/25 20:39:03","新北市深坑區萬福路45號","121.599435","25.0068216666667","6501800","深坑區"
"231041","002-UM","2018/05/25 20:39:15","新北市新店區中正路545號","121.53374","24.987675","6500600","新店區"
"231059","046-UY","2018/05/25 20:39:17","新北市新店區僑信路128號","121.50066","24.94605","6500600","新店區"
"231040","047-UY","2018/05/25 20:39:18","新北市新店區中正路268號","121.539","24.97351","6500600","新店區"
"231044","106-UY","2018/05/25 20:39:10","新北市新店區建國路293巷1號","121.53673","24.9862166666667","6500600","新店區"
"231053","108-UY","2018/05/25 20:39:14","新北市新店區廣興路7-10號","121.545655","24.9116516666667","6500600","新店區"
"231048","187-VK","2018/05/25 20:39:05","新北市新店區寶慶街2號","121.544216666667","24.9868066666667","6500600","新店區"
"231054","KEA-2219","2018/05/25 20:39:02","新北市新店區行政街45號","121.543041666667","24.965555","6500600","新店區"
"231057","256-BX","2018/05/25 20:39:09","新北市新店區花園六路二段9-2號","121.555706666667","24.9329116666667","6500600","新店區"
"231042","268-BY","2018/05/25 20:39:07","新北市新店區寶橋路238號","121.551538333333","24.9789516666667","6500600","新店區"
"231051","278-BY","2018/05/25 20:39:12","新北市新店區中央路208號","121.5302","24.973945","6500600","新店區"
"231050","AAD-862","2018/05/25 20:39:16","新北市新店區建國路37巷4號","121.540281666667","24.9750983333333","6500600","新店區"
"231058","3713-VJ","2018/05/25 20:39:14","新北市新店區平等街37號","121.536563333333","24.9733883333333","6500600","新店區"
"231066","4716-K9","2018/05/25 20:39:12","新北市新店區安民街365巷1弄8號","121.516445","24.9752133333333","6500600","新店區"
"231056","4715-K9","2018/05/25 20:39:06","新北市新店區中央七街61巷6號","121.52844","24.9765016666667","6500600","新店區"
"231067","4772-VM","2018/05/25 20:39:20","新北市新店區安華路28-1號","121.519728333333","24.9608966666667","6500600","新店區"
"231065","512-UM","2018/05/25 20:39:20","新北市新店區安祥路102巷46弄81號","121.487166666667","24.9634583333333","6500600","新店區"
"231049","513-UM","2018/05/25 20:39:14","新北市新店區永業路81巷1弄1-1號","121.52965","24.9493916666667","6500600","新店區"
"231063","616-UM","2018/05/25 20:39:19","新北市新店區玫瑰路16號","121.49473","24.9504183333333","6500600","新店區"
"231045","617-UM","2018/05/25 20:39:08","新北市新店區長春路20-1號","121.549523333333","24.956715","6500600","新店區"
"231061","619-UM","2018/05/25 20:39:18","新北市新店區新和街37號","121.519283333333","24.9849433333333","6500600","新店區"
"231068","718-UY","2018/05/25 20:38:58","新北市新店區寶慶街35巷1弄2號","121.543155","24.9863483333333","6500600","新店區"
"231064","719-UM","2018/05/25 20:39:13","新北市新店區永安街56巷6-4號","121.518378333333","24.986275","6500600","新店區"
"231062","720-UM","2018/05/25 20:39:11","新北市新店區安泰路60巷55弄44號","121.4844","24.945535","6500600","新店區"
"231060","897-TW","2018/05/25 20:39:02","新北市新店區安康路三段738號","121.473926666667","24.941995","6500600","新店區"
"231043","899-TW","2018/05/25 20:39:02","新北市新店區博愛街13巷25號","121.540421666667","24.9741216666667","6500600","新店區"
"241011","013-R5","2018/05/25 20:39:17","新北市三重區龍濱路219巷25號","121.502555","25.0724016666667","6500200","三重區"
"241028","022-UY","2018/05/25 20:39:14","新北市三重區光興街95號","121.4973","25.0599533333333","6500200","三重區"
"241008","059-VK","2018/05/25 20:39:20","新北市三重區下竹圍街42-1號","121.481028333333","25.0748916666667","6500200","三重區"
"241031","061-VK","2018/05/25 20:39:15","新北市三重區重陽路一段43巷32號","121.488315","25.0586383333333","6500200","三重區"
"241015","062-VK","2018/05/25 20:39:21","新北市三重區文化北路103號","121.4979","25.0684433333333","6500200","三重區"
"241017","063-VK","2018/05/25 20:39:15","新北市三重區大同北路263號","121.490941666667","25.0671866666667","6500200","三重區"
"241026","066-VK","2018/05/25 20:39:10","新北市三重區文化南路7號","121.500046666667","25.062335","6500200","三重區"
"241002","090-VK","2018/05/25 20:39:05","新北市三重區仁義街167巷36號","121.498575","25.0823833333333","6500200","三重區"
"241003","091-VK","2018/05/25 20:39:06","新北市三重區五華街141巷60號","121.49358","25.0868066666667","6500200","三重區"
"241022","742-BX","2018/05/25 20:39:12","新北市三重區民生街61巷6弄3號","121.488748333333","25.0622133333333","6500200","三重區"
"241005","262-UM","2018/05/25 20:39:15","新北市三重區集賢路87-1號","121.49364","25.0869033333333","6500200","三重區"
"241009","265-UM","2018/05/25 20:39:03","新北市三重區碧華街55號","121.484691666667","25.0813483333333","6500200","三重區"
"241016","266-UM","2018/05/25 20:39:09","新北市三重區長壽西街143-3號","121.494341666667","25.066715","6500200","三重區"
"241018","268-UM","2018/05/25 20:39:12","新北市三重區自強路一段179號","121.492435","25.06772","6500200","三重區"
"241032","269-UM","2018/05/25 20:39:01","新北市三重區重陽路一段120巷46號","121.4851","25.0601333333333","6500200","三重區"
"241013","270-UM","2018/05/25 20:39:18","新北市三重區仁愛街102巷1-1號","121.4949","25.0741166666667","6500200","三重區"
"241025","271-UM","2018/05/25 20:39:11","新北市三重區頂崁街139號","121.477738333333","25.06504","6500200","三重區"
"241007","398-BY","2018/05/25 20:39:11","新北市三重區自強路四段3巷2號","121.488681666667","25.0763483333333","6500200","三重區"
"241030","413-TH","2018/05/25 20:39:11","新北市三重區成功路73巷12號","121.489393333333","25.05191","6500200","三重區"
"241035","462-BY","2018/05/25 20:39:13","新北市三重區正義北路326號","121.49474","25.0704916666667","6500200","三重區"
"241004","475-VK","2018/05/25 20:39:01","新北市三重區仁愛街409號","121.490751666667","25.0811383333333","6500200","三重區"
"241020","478-VK","2018/05/25 20:39:13","新北市三重區三和路三段140號","121.493406666667","25.072355","6500200","三重區"
"241014","543-UM","2018/05/25 20:39:12","新北市三重區萬壽街12號","121.49924","25.0694183333333","6500200","三重區"
"241023","545-UM","2018/05/25 20:39:04","新北市三重區自由街59號","121.478268333333","25.066515","6500200","三重區"
"241001","547-UM","2018/05/25 20:39:01","新北市三重區自強路三段110巷15號","121.486416666667","25.0746033333333","6500200","三重區"
"241019","KEA-2593","2018/05/25 20:39:03","新北市三重區重陽路四段128號","121.492495","25.0711516666667","6500200","三重區"
"241006","AAD-863","2018/05/25 20:39:18","新北市三重區車路頭街139巷14號","121.484315","25.0761583333333","6500200","三重區"
"241024","887-TS","2018/05/25 20:39:16","新北市三重區國道路一段85巷9號","121.479978333333","25.0724233333333","6500200","三重區"
"241012","941-UM","2018/05/25 20:39:11","新北市三重區秀江街26號","121.502485","25.073035","6500200","三重區"
"241029","942-UM","2018/05/25 20:39:09","新北市三重區集美街126巷24號","121.489955","25.0538616666667","6500200","三重區"
"241033","AAC-255","2018/05/25 20:39:02","新北市三重區神農街465號","121.474065","25.0578583333333","6500200","三重區"
"235069","4980-A6","2018/05/25 20:38:58","新北市中和區員山路220號","121.481266666667","25.0011116666667","6500300","中和區"
"235042","551-UM","2018/05/25 20:39:12","新北市中和區圓通路289號","121.495076666667","24.99267","6500300","中和區"
"247024","893-R6","2018/05/25 20:39:07","新北市蘆洲區長樂路91號","121.4624","25.087395","6501400","蘆洲區"
"247014","546-UM","2018/05/25 20:39:17","新北市蘆洲區成功路77-1號","121.473123333333","25.0810383333333","6501400","蘆洲區"
"247022","500-BY","2018/05/25 20:39:06","新北市蘆洲區中正路243巷7弄9號","121.467443333333","25.08609","6501400","蘆洲區"
"247010","341-TH","2018/05/25 20:38:59","新北市蘆洲區重陽街70號","121.48181","25.0841466666667","6501400","蘆洲區"
"247012","339-TH","2018/05/25 20:39:10","新北市蘆洲區民族路236巷8號","121.4805","25.0885783333333","6501400","蘆洲區"
"247004","337-TH","2018/05/25 20:39:05","新北市蘆洲區長安街297號","121.45808","25.0848266666667","6501400","蘆洲區"
"247006","336-TH","2018/05/25 20:39:13","新北市蘆洲區和平路130號","121.467243333333","25.0804883333333","6501400","蘆洲區"
"247008","056-VK","2018/05/25 20:39:12","新北市蘆洲區重陽一街21號","121.480816666667","25.0816133333333","6501400","蘆洲區"
"247016","007-UY","2018/05/25 20:39:01","新北市蘆洲區中山一路312號","121.469336666667","25.077215","6501400","蘆洲區"
"247020","001-UY","2018/05/25 20:39:18","新北市蘆洲區民族路424號","121.473881666667","25.09183","6501400","蘆洲區"
"222001","KEA-2212","2018/05/25 20:39:14","新北市深坑區北深路三段211號","121.60054","25.00384","6501800","深坑區"
"251002","012-UM","2018/05/25 20:38:58","新北市淡水區中正路38-1號","121.443736666667","25.169215","6501000","淡水區"
"251008","181-VK","2018/05/25 20:39:02","新北市淡水區新民街322巷1號","121.435218333333","25.1837583333333","6501000","淡水區"
"251010","413-VK","2018/05/25 20:39:03","新北市淡水區沙崙路181巷1號","121.424036666667","25.1842783333333","6501000","淡水區"
"251012","443-VK","2018/05/25 20:39:13","新北市淡水區興仁路108號","121.451676666667","25.2181316666667","6501000","淡水區"
"251001","559-UM","2018/05/25 20:39:06","新北市淡水區淡金路一段69號","121.458781666667","25.173095","6501000","淡水區"
"251006","561-UM","2018/05/25 20:39:14","新北市淡水區商工路186巷29號","121.450875","25.1867266666667","6501000","淡水區"
"251009","575-R6","2018/05/25 20:38:57","新北市淡水區民族路112巷68號","121.46172","25.1340183333333","6501000","淡水區"
"251003","673-BX","2018/05/25 20:39:01","新北市淡水區新民街120巷13號","121.438156666667","25.1779283333333","6501000","淡水區"
"252002","178-VK","2018/05/25 20:39:20","新北市三芝區淡金路二段47-2號","121.503663333333","25.26053","6502100","三芝區"
"252001","292-VK","2018/05/25 20:38:56","新北市三芝區育英街29-1號","121.501298333333","25.2573716666667","6502100","三芝區"
"236014","270-VK","2018/05/25 20:39:03","新北市樹林區太平路247巷30號","121.422591666667","24.9749633333333","6501300","土城區"
"242034","AAC-296","2018/05/25 20:39:15","新北市新莊區中正路318巷6號","121.446488333333","25.0353","6500500","新莊區"
"242058","986-R7","2018/05/25 20:39:12","新北市新莊區四維路129-1號","121.422851666667","25.02266","6500500","新莊區"
"242054","751-BX","2018/05/25 20:39:16","新北市新莊區西盛街321號","121.428156666667","25.0147383333333","6500500","新莊區"
"242027","615-BX","2018/05/25 20:39:07","新北市新莊區思源路37號","121.459985","25.03968","6500500","新莊區"
"242025","613-BX","2018/05/25 20:39:11","新北市三重區重化街7號","121.467621666667","25.064175","6500500","新莊區"
"242029","612-BX","2018/05/25 20:39:09","新北市新莊區中華路二段26號","121.453596666667","25.0449866666667","6500500","新莊區"
"242041","566-BX","2018/05/25 20:39:12","新北市新莊區中正路694巷3弄8號","121.418131666667","25.0281816666667","6500500","新莊區"
"242046","497-BY","2018/05/25 20:39:17","新北市新莊區龍安路108號","121.418436666667","25.0205366666667","6500500","新莊區"
"242056","440-UM","2018/05/25 20:39:09","新北市新莊區瓊泰路72號","121.44327","25.0289216666667","6500500","新莊區"
"242037","415-TV","2018/05/25 20:39:13","新北市新莊區後港一路216號","121.433906666667","25.0283383333333","6500500","新莊區"
"242007","413-TV","2018/05/25 20:39:18","新北市新莊區福壽街47號","121.458231666667","25.0488416666667","6500500","新莊區"
"242023","362-BY","2018/05/25 20:39:13","新北市新莊區復興路三段73號","121.46261","25.0445183333333","6500500","新莊區"
"242060","353-BY","2018/05/25 20:39:10","新北市新莊區新樹路258巷3號","121.43216","25.0156133333333","6500500","新莊區"
"242009","132-UY","2018/05/25 20:39:18","新北市新莊區昌隆街67號","121.45706","25.0510233333333","6500500","新莊區"
"242039","133-UY","2018/05/25 20:39:11","新北市新莊區民安路442號","121.43454","25.02248","6500500","新莊區"
"242032","135-UY","2018/05/25 20:39:08","新北市新莊區中正路583號","121.43443","25.03252","6500500","新莊區"
"242048","172-VK","2018/05/25 20:39:11","新北市新莊區中正路639號","121.430905","25.0314683333333","6500500","新莊區"
"242011","173-VK","2018/05/25 20:39:13","新北市新莊區中原路323-1號","121.44664","25.0539316666667","6500500","新莊區"
"242017","175-VK","2018/05/25 20:39:19","新北市新莊區中平路273號","121.444758333333","25.0498933333333","6500500","新莊區"
"242015","346-TH","2018/05/25 20:39:18","新北市新莊區中和街18號","121.448376666667","25.04336","6500500","新莊區"
"242019","347-TH","2018/05/25 20:39:08","新北市新莊區銘德街138號","121.454666666667","25.04291","6500500","新莊區"
"242021","348-TH","2018/05/25 20:39:09","新北市新莊區中華路一段73號","121.452208333333","25.04005","6500500","新莊區"
"242013","351-TH","2018/05/25 20:39:07","新北市新莊區中和街175巷11號","121.447216666667","25.0505733333333","6500500","新莊區"
"221008","489-VK","2018/05/25 20:39:13","新北市汐止區康寧街706-2號","121.63851","25.0729783333333","6501100","汐止區"
"221036","130-UY","2018/05/25 20:39:18","新北市汐止區新昌路55號","121.66321","25.0686716666667","6501100","汐止區"
"221015","131-UY","2018/05/25 20:39:06","新北市汐止區建成路42號","121.663983333333","25.07295","6501100","汐止區"
"221023","279-VK","2018/05/25 20:39:06","新北市汐止區明峰街70-1號","121.632093333333","25.07116","6501100","汐止區"
"221032","280-BY","2018/05/25 20:39:03","新北市汐止區橫科路322巷24弄6-1號","121.62065","25.0499616666667","6501100","汐止區"
"221027","281-BY","2018/05/25 20:39:14","新北市汐止區大同路二段567號","121.662888333333","25.0699683333333","6501100","汐止區"
"221029","298-VK","2018/05/25 20:39:06","新北市汐止區大同路一段421號","121.642676666667","25.0612516666667","6501100","汐止區"
"221021","299-VK","2018/05/25 20:39:07","新北市汐止區水源路一段282巷6號","121.653811666667","25.058275","6501100","汐止區"
"221031","353-TW","2018/05/25 20:39:09","新北市汐止區中興路27巷22號","121.634066666667","25.0608333333333","6501100","汐止區"
"221035","622-UM","2018/05/25 20:38:59","新北市汐止區長江街101-5號","121.658678333333","25.0731933333333","6501100","汐止區"
"221025","623-UM","2018/05/25 20:39:09","新北市汐止區水源路二段189號","121.657811666667","25.053355","6501100","汐止區"
"221038","646-BX","2018/05/25 20:39:06","新北市汐止區大同路二段187巷41號","121.652006666667","25.065795","6501100","汐止區"
"221033","647-BX","2018/05/25 20:39:12","台北市南港區合順街8巷7弄38號","121.620268333333","25.0418583333333","6501100","汐止區"
"221002","707-TV","2018/05/25 20:39:13","新北市汐止區福德二路136號","121.630798333333","25.0653116666667","6501100","汐止區"
"221018","753-BX","2018/05/25 20:39:12","新北市汐止區中華街77號","121.668358333333","25.0710383333333","6501100","汐止區"
"242002","KEA-2550","2018/05/25 20:39:00","新北市新莊區中正路145-12號","121.458765","25.0378816666667","6500500","新莊區"
"242044","281-VK","2018/05/25 20:39:07","新北市新莊區中正路新生巷85弄1號","121.416941666667","25.0214833333333","6500500","新莊區"
"220103","561-BX","2018/05/25 20:39:01","新北市板橋區漢生東路83巷28號","121.467505","25.0168","6500100","板橋區"
"220070","AAC-253","2018/05/25 20:38:08","新北市五股區中直路13-7號","121.42441","25.1106116666667","6500100","板橋區"
