"lineid","car","time","location","longitude","latitude","cityid","cityname"
"232001","290-BY","2018/01/15 07:49:28","新北市坪林區上坑子口21號","121.703708333333","24.9504833333333","6502000","坪林區"
"232012","291-BY","2018/01/15 07:49:39","新北市坪林區金瓜寮23-2號","121.679436666667","24.9109466666667","6502000","坪林區"
"232010","375-UM","2018/01/15 07:49:31","新北市坪林區北宜路八段553號","121.716253333333","24.9110383333333","6502000","坪林區"
"232017","705-BZ","2018/01/15 07:48:50","新北市坪林區乾溪3號","121.740061666667","24.9743433333333","6502000","坪林區"
"232005","758-BX","2018/01/15 07:49:36","新北市坪林區魚堀49號","121.70037","24.93047","6502000","坪林區"
"244001","248-BX","2018/01/15 07:49:40","新北市林口區頂福里8鄰70-2號","121.331425","25.0999966666667","6501700","林口區"
"244022","483-VK","2018/01/15 07:49:33","新北市林口區粉寮69號","121.405038333333","25.0907883333333","6501700","林口區"
"244020","838-TS","2018/01/15 07:49:38","新北市林口區粉寮69號","121.404738333333","25.0907633333333","6501700","林口區"
"222005","289-BY","2018/01/15 07:49:40","新北市深坑區文化街98號","121.616961666667","25.0018583333333","6501800","深坑區"
"231007","189-VK","2018/01/15 07:49:38","新北市新店區安華路28-1號","121.519776666667","24.9615166666667","6500600","新店區"
"231008","192-VK","2018/01/15 07:49:32","新北市新店區安華路28-1號","121.519193333333","24.9612233333333","6500600","新店區"
"235010","031-BX","2018/01/15 07:49:33","新北市中和區莒光路7號","121.471825","25.00592","6500300","中和區"
"235001","611-BX","2018/01/15 07:49:46","新北市中和區圓通路367巷6號","121.491425","24.9892033333333","6500300","中和區"
"226005","5620-A6","2018/01/15 07:49:47","新北市平溪區嶺腳里嶺腳寮53號","121.747883333333","25.0310233333333","6502400","平溪區"
"226001","8452-VL","2018/01/15 07:49:31","新北市平溪區平湖里大厝1號","121.779921666667","25.0389066666667","6502400","平溪區"
"226003","AGD-0702","2018/01/15 07:49:37","新北市平溪區嶺腳里嶺腳寮62號","121.747833333333","25.0314133333333","6502400","平溪區"
"223006","022-BY","2018/01/15 07:49:43","新北市石碇區十八重溪52-1號","121.674821666667","25.0136616666667","6501900","石碇區"
"223002","198-BX","2018/01/15 07:49:46","新北市石碇區北宜路五段濕水子巷6號","121.6355","24.9494866666667","6501900","石碇區"
"223008","406-TH","2018/01/15 07:49:46","新北市石碇區靜安路一段337號","121.698868333333","25.0146816666667","6501900","石碇區"
"223001","437-BY","2018/01/15 07:49:24","新北市石碇區樟空子2號","121.664491666667","24.9626216666667","6501900","石碇區"
"223004","660-BX","2018/01/15 07:49:45","新北市石碇區楓子林34號","121.642136666667","25.0102483333333","6501900","石碇區"
"223005","677-TV","2018/01/15 07:49:36","新北市石碇區靜安路一段8號","121.641895","25.0108433333333","6501900","石碇區"
"227005","282-VK","2018/01/15 07:49:37","新北市雙溪區共和里東榮街1號","121.865173333333","25.034515","6502500","雙溪區"
"252006","073-UM","2018/01/15 07:49:50","新北市三芝區古庄里四棧橋57號","121.484206666667","25.2648033333333","6502100","三芝區"
"252004","249-BX","2018/01/15 07:49:47","新北市三芝區店子里菜公坑100-1號","121.512426666667","25.2057333333333","6502100","三芝區"
"237001","159-UY","2018/01/15 07:49:43","新北市三峽區學成路256號","121.375125","24.9422816666667","6500900","三峽區"
"236007","165-UM","2018/01/15 07:49:36","新北市土城區永豐路270巷19弄3號","121.469895","24.9770283333333","6501300","土城區"
"236001","339-SR","2018/01/15 07:49:28","新北市土城區石門路108號","121.453811666667","24.9493616666667","6501300","土城區"
"242030","AAC-296","2018/01/15 07:49:47","新北市新莊區新泰路482號","121.442688333333","25.0456833333333","6500500","新莊區"
"242028","986-R7","2018/01/15 07:49:29","新北市新莊區幸福路764號","121.447263333333","25.04915","6500500","新莊區"
"242049","751-BX","2018/01/15 07:49:38","新北市新莊區瓊林南路59-8號","121.435458333333","25.0163","6500500","新莊區"
"242024","615-BX","2018/01/15 07:49:41","新北市新莊區中港一街151號","121.447663333333","25.0450266666667","6500500","新莊區"
"242022","613-BX","2018/01/15 07:49:46","新北市新莊區中港一街147號","121.447743333333","25.0450633333333","6500500","新莊區"
"242026","612-BX","2018/01/15 07:49:31","新北市新莊區中和街2號","121.44847","25.0428983333333","6500500","新莊區"
"242038","566-BX","2018/01/15 07:49:44","新北市新莊區民安路426號","121.432418333333","25.0229366666667","6500500","新莊區"
"242043","442-UM","2018/01/15 07:49:31","新北市新莊區富國路101-1號","121.42137","25.02551","6500500","新莊區"
"242047","441-UM","2018/01/15 07:49:41","新北市新莊區龍安路116號","121.419001666667","25.0203716666667","6500500","新莊區"
"242052","440-UM","2018/01/15 07:49:48","新北市新莊區環河路506號","121.438635","25.0164866666667","6500500","新莊區"
"242033","415-TV","2018/01/15 07:49:40","新北市新莊區中正路471號","121.441855","25.03396","6500500","新莊區"
"242040","400-BY","2018/01/15 07:49:37","新北市新莊區中正路386號","121.44186","25.0346333333333","6500500","新莊區"
"242059","362-BY","2018/01/15 07:49:31","新北市新莊區中正路400號","121.441886666667","25.0342216666667","6500500","新莊區"
"242057","353-BY","2018/01/15 07:49:32","新北市新莊區中正路386號","121.441916666667","25.035","6500500","新莊區"
"242006","132-UY","2018/01/15 07:49:31","新北市新莊區新泰路488號","121.442445","25.0458633333333","6500500","新莊區"
"242035","133-UY","2018/01/15 07:49:34","新北市新莊區新樹路132號","121.43574","25.023825","6500500","新莊區"
"242020","135-UY","2018/01/15 07:49:43","新北市新莊區中港路279號","121.453328333333","25.0437616666667","6500500","新莊區"
"242045","172-VK","2018/01/15 07:49:42","新北市新莊區新樹路49號","121.440201666667","25.0319966666667","6500500","新莊區"
"242014","175-VK","2018/01/15 07:49:35","新北市新莊區新泰路256巷2號","121.446261666667","25.0397866666667","6500500","新莊區"
"242001","176-VK","2018/01/15 07:49:37","新北市新莊區新泰路324號","121.44498","25.0417333333333","6500500","新莊區"
"242003","347-TH","2018/01/15 07:49:36","新北市新莊區中環路二段392-1號","121.442501666667","25.045515","6500500","新莊區"
"242018","348-TH","2018/01/15 07:49:36","新北市新莊區中港路292號","121.452873333333","25.0447216666667","6500500","新莊區"
"242055","349-TH","2018/01/15 07:49:50","新北市新莊區新泰路357巷3弄57號","121.442411666667","25.0394016666667","6500500","新莊區"
"242016","350-TH","2018/01/15 07:49:49","新北市新莊區中港一街85號","121.449526666667","25.045305","6500500","新莊區"
"242010","351-TH","2018/01/15 07:49:37","新北市新莊區新泰路502巷2號","121.442643333333","25.04632","6500500","新莊區"
"220064","282-UM","2018/01/15 07:49:45","新北市板橋區府中路23號","121.458931666667","25.009345","6500100","板橋區"
