"lineid","car","time","location","longitude","latitude","cityid","cityname"
"248005","653-BX","2018/04/03 10:09:39","新北市五股區成泰路一段235號","121.43618","25.0794316666667","6501500","五股區"
"231007","189-VK","2018/04/03 10:09:33","新北市新店區新潭路三段215巷25號","121.508098333333","24.9041016666667","6500600","新店區"
"231009","192-VK","2018/04/03 10:09:29","新北市新店區平廣路一段11-1號","121.537948333333","24.9070133333333","6500600","新店區"
"227006","282-VK","2018/04/03 10:09:34","新北市雙溪區長源里柑腳18號","121.804718333333","25.01411","6502500","雙溪區"
"227012","030-BX","2018/04/03 10:06:21","新北市坪林區鷺鶿岫15-2號","121.78928","24.9490633333333","6502500","雙溪區"
"252004","249-BX","2018/04/03 10:09:40","新北市三芝區福德里埔尾2-1號","121.501821666667","25.24753","6502100","三芝區"
"252007","AAC-283","2018/04/03 10:09:44","新北市三芝區新庄里新庄子80-3號","121.507416666667","25.2727383333333","6502100","三芝區"
