"lineid","car","time","location","longitude","latitude","cityid","cityname"
"234044","148-BY","2018/04/03 12:29:33","新北市永和區福和路1號","121.526446666667","25.0099616666667","6500400","永和區"
"234068","149-BY","2018/04/03 12:29:09","新北市永和區福和路1號","121.525265","25.0095183333333","6500400","永和區"
"234078","298-R6","2018/04/03 12:29:32","新北市永和區豫溪街217巷19號","121.5249","25.010135","6500400","永和區"
"234036","336-UY","2018/04/03 12:29:43","新北市永和區福和路1號","121.526616666667","25.01003","6500400","永和區"
"234084","338-UY","2018/04/03 12:29:42","新北市永和區福和路8巷1號","121.52502","25.0090516666667","6500400","永和區"
"234015","745-BX","2018/04/03 12:29:39","新北市永和區福和路1號","121.526276666667","25.0095683333333","6500400","永和區"
"234040","862-TW","2018/04/03 12:29:48","新北市永和區環河東路二段92號","121.524435","25.0106516666667","6500400","永和區"
"234010","9373-KE","2018/04/03 12:29:13","新北市永和區福和路1號","121.525911666667","25.0095783333333","6500400","永和區"
"234022","9380-KE","2018/04/03 12:29:43","新北市永和區福和路1號","121.525786666667","25.0095183333333","6500400","永和區"
"234076","969-R7","2018/04/03 12:29:32","新北市永和區福和路1號","121.526263333333","25.0097883333333","6500400","永和區"
"231013","513-UM","2018/04/03 12:10:25","新北市新店區安華路28-1號","121.519688333333","24.9609716666667","6500600","新店區"
"235025","378-QA","2018/04/03 12:28:28","新北市中和區和城路一段271巷1號","121.485346666667","24.991945","6500300","中和區"
"228005","097-TW","2018/04/03 12:29:41","新北市貢寮區福連里蓬萊街15號","121.992411666667","25.0003366666667","6502600","貢寮區"
"228004","212-TW","2018/04/03 12:29:28","新北市貢寮區龍崗里嵩陽街33號","121.903781666667","25.01699","6502600","貢寮區"
"207002","749-BX","2018/04/03 12:29:31","新北市萬里區雙興里太和路7-2號","121.658595","25.1739616666667","6502800","萬里區"
