"lineid","car","time","location","longitude","latitude","cityid","cityname"
"234044","148-BY","2018/04/03 13:09:33","新北市永和區永元路18巷35號","121.523943333333","25.00027","6500400","永和區"
"234068","149-BY","2018/04/03 13:09:30","新北市永和區豫溪街137巷1弄18號","121.518708333333","25.01043","6500400","永和區"
"234005","207-UY","2018/04/03 13:09:35","新北市永和區中山路一段147號","121.51026","25.009595","6500400","永和區"
"234078","298-R6","2018/04/03 13:09:32","新北市永和區永貞路39巷9弄1號","121.521898333333","25.0065733333333","6500400","永和區"
"234036","336-UY","2018/04/03 13:09:43","新北市永和區民樂街69巷5號","121.527543333333","24.9977916666667","6500400","永和區"
"234062","337-UY","2018/04/03 13:09:39","新北市永和區秀朗路二段50-1號","121.521856666667","25.0021266666667","6500400","永和區"
"234084","338-UY","2018/04/03 13:09:42","新北市永和區永貞路47-1號","121.519626666667","25.0045683333333","6500400","永和區"
"234015","745-BX","2018/04/03 13:09:39","新北市永和區文化路90巷17號","121.513693333333","25.0161383333333","6500400","永和區"
"234028","746-BX","2018/04/03 13:09:44","新北市永和區民生路21號","121.52288","24.9988766666667","6500400","永和區"
"234052","KEA-2590","2018/04/03 13:09:47","新北市永和區竹林路66巷18號","121.51763","25.01313","6500400","永和區"
"234012","KEA-2591","2018/04/03 13:09:46","新北市永和區保福路二段6號","121.511018333333","25.01111","6500400","永和區"
"234060","AAD-866","2018/04/03 13:09:35","新北市永和區安樂路342號","121.514448333333","25.006175","6500400","永和區"
"234040","862-TW","2018/04/03 13:09:48","新北市永和區永貞路330號","121.511341666667","25.0055066666667","6500400","永和區"
"234048","863-TW","2018/04/03 13:09:36","新北市永和區文化路135巷32弄1號","121.510893333333","25.0140916666667","6500400","永和區"
"234025","9371-KE","2018/04/03 13:09:35","新北市永和區秀朗路一段10巷19號","121.513486666667","25.00619","6500400","永和區"
"234010","9373-KE","2018/04/03 13:09:33","新北市永和區仁愛路31巷2弄15號","121.513543333333","25.0128916666667","6500400","永和區"
"248017","225-UY","2018/04/03 13:09:45","新北市五股區芳洲路49號","121.441695","25.0837466666667","6501500","五股區"
"234022","9380-KE","2018/04/03 13:09:48","新北市永和區中興街10巷25號","121.516133333333","25.011135","6500400","永和區"
"234076","969-R7","2018/04/03 13:09:42","新北市永和區民光街14號","121.515681666667","24.99601","6500400","永和區"
"234072","AAC-211","2018/04/03 13:09:38","新北市永和區竹林路217號","121.520708333333","25.0088016666667","6500400","永和區"
"234066","AAC-212","2018/04/03 13:09:45","新北市永和區永和路一段93號","121.513375","25.0076266666667","6500400","永和區"
"234001","AAC-295","2018/04/03 13:09:50","新北市永和區永和路二段2號","121.5145","25.0099616666667","6500400","永和區"
"244002","248-BX","2018/04/03 13:09:36","新北市林口區頭湖74-59號","121.36776","25.0877083333333","6501700","林口區"
"231028","046-UY","2018/04/03 13:09:39","新北市新店區安華路28-1號","121.519555","24.9609266666667","6500600","新店區"
"231001","047-UY","2018/04/03 13:09:33","新北市新店區安華路28-1號","121.519166666667","24.9609133333333","6500600","新店區"
"231005","106-UY","2018/04/03 13:09:27","新北市新店區安華路28-1號","121.519563333333","24.96093","6500600","新店區"
"231020","108-UY","2018/04/03 13:09:29","新北市新店區安華路28-1號","121.519471666667","24.9614","6500600","新店區"
"231012","187-VK","2018/04/03 13:09:32","新北市新店區安華路28-1號","121.519555","24.96122","6500600","新店區"
"231010","188-VK","2018/04/03 13:09:41","新北市新店區安華路28-1號","121.519283333333","24.961415","6500600","新店區"
"231023","KEA-2219","2018/04/03 13:09:36","新北市新店區安華路28-1號","121.519836666667","24.9612283333333","6500600","新店區"
"231003","268-BY","2018/04/03 13:09:43","新北市新店區安華路28-1號","121.519333333333","24.9606816666667","6500600","新店區"
"231018","278-BY","2018/04/03 13:09:38","新北市新店區安華路28-1號","121.519571666667","24.9611166666667","6500600","新店區"
"231038","3713-VJ","2018/04/03 13:09:48","新北市新店區安華路28-1號","121.519286666667","24.9607016666667","6500600","新店區"
"231025","4715-K9","2018/04/03 13:09:44","新北市新店區安華路28-1號","121.519441666667","24.9606766666667","6500600","新店區"
"231036","512-UM","2018/04/03 13:09:37","新北市新店區安華路28-1號","121.519366666667","24.9613633333333","6500600","新店區"
"231013","513-UM","2018/04/03 13:09:42","新北市新店區安華路28-1號","121.519576666667","24.9612216666667","6500600","新店區"
"231030","619-UM","2018/04/03 13:09:46","新北市新店區安華路28-1號","121.519546666667","24.9608883333333","6500600","新店區"
"231035","719-UY","2018/04/03 13:09:42","新北市新店區安華路28-1號","121.519605","24.9612583333333","6500600","新店區"
"231032","720-UM","2018/04/03 13:09:40","新北市新店區安康路一段355-3號","121.51935","24.961485","6500600","新店區"
"231004","899-TW","2018/04/03 13:09:44","新北市新店區安華路28-1號","121.519183333333","24.96093","6500600","新店區"
"231024","AKT-0513","2018/04/03 13:09:35","新北市新店區安華路28-1號","121.519451666667","24.96068","6500600","新店區"
"235030","003-UY","2018/04/03 13:09:39","新北市中和區光華街8號","121.50425","25.00435","6500300","中和區"
"235028","005-UY","2018/04/03 13:09:38","新北市中和區中正路175號","121.497555","24.9936616666667","6500300","中和區"
"235027","006-UY","2018/04/03 13:09:43","新北市中和區員山路36巷16-3號","121.484976666667","24.9912983333333","6500300","中和區"
"235029","098-UM","2018/04/03 13:09:40","新北市中和區莊敬路49巷20弄20號","121.502653333333","25.00583","6500300","中和區"
"235004","150-BY","2018/04/03 13:09:04","新北市中和區和城路一段271巷1號","121.48562","24.9919833333333","6500300","中和區"
"235022","151-BY","2018/04/03 13:09:45","新北市中和區圓通路367巷65號","121.493111666667","24.9827516666667","6500300","中和區"
"235002","185-VK","2018/04/03 13:09:45","新北市中和區大智街26號","121.520908333333","24.992015","6500300","中和區"
"235031","255-BX","2018/04/03 13:09:40","新北市中和區新生街189號","121.48389","25.0003483333333","6500300","中和區"
"235036","301-VK","2018/04/03 13:09:35","新北市中和區中正路589巷15號","121.485928333333","24.993695","6500300","中和區"
"235032","377-QA","2018/04/03 13:09:40","新北市中和區員山路36巷16-3號","121.485108333333","24.9912316666667","6500300","中和區"
"235025","378-QA","2018/04/03 13:09:38","新北市中和區和城路一段271巷1號","121.485346666667","24.991825","6500300","中和區"
"235033","4980-A6","2018/04/03 13:09:31","新北市中和區錦和路350-1號","121.490525","24.99356","6500300","中和區"
"235006","551-UM","2018/04/03 13:09:44","新北市中和區景新街279號","121.509431666667","24.9935516666667","6500300","中和區"
"235034","558-UM","2018/04/03 13:09:34","新北市中和區中正路291號","121.493453333333","24.9938583333333","6500300","中和區"
"235001","611-BX","2018/04/03 13:09:30","新北市中和區中山路三段136巷29號","121.473745","25.00772","6500300","中和區"
"235018","640-BX","2018/04/03 13:09:45","新北市土城區延壽路118-6號","121.469035","24.9945316666667","6500300","中和區"
"235011","732-UM","2018/04/03 13:09:47","新北市中和區中正路637巷52弄1號","121.485473333333","24.9933516666667","6500300","中和區"
"235035","783-BX","2018/04/03 13:09:34","新北市中和區板南路520巷15號","121.48372","25.008855","6500300","中和區"
"235026","800-TS","2018/04/03 13:09:44","新北市中和區中山路二段359號","121.488681666667","25.0042316666667","6500300","中和區"
"235021","801-TS","2018/04/03 13:09:39","新北市中和區員山路36巷16-3號","121.484838333333","24.9916066666667","6500300","中和區"
"235005","802-TS","2018/04/03 13:09:41","新北市中和區中正路305號","121.492338333333","24.99374","6500300","中和區"
"235016","805-TS","2018/04/03 13:09:35","新北市中和區中正路637巷52弄1號","121.485416666667","24.9935033333333","6500300","中和區"
"235017","900-TW","2018/04/03 13:09:27","新北市中和區員山路36巷16-2號","121.485013333333","24.991955","6500300","中和區"
"235015","157-BY","2018/04/03 13:09:33","新北市中和區板南路100號","121.503866666667","24.992465","6500300","中和區"
"235001","AAC-213","2018/04/03 13:09:47","新北市中和區景平路149號","121.513955","24.99211","6500300","中和區"
"235023","AAC-215","2018/04/03 13:09:40","新北市中和區員山路36巷16-3號","121.485016666667","24.9913233333333","6500300","中和區"
"235003","251-BX","2018/04/03 13:09:32","新北市中和區錦和路350-1號","121.490363333333","24.9936016666667","6500300","中和區"
"228005","097-TW","2018/04/03 13:09:41","新北市貢寮區仁理村仁和路2-1號","121.923121666667","25.0486933333333","6502600","貢寮區"
"228004","212-TW","2018/04/03 13:09:28","新北市貢寮區吉林里內寮街75號","121.891066666667","24.9718533333333","6502600","貢寮區"
"207002","749-BX","2018/04/03 13:09:31","新北市萬里區崁腳里崁腳路131號","121.646266666667","25.1569716666667","6502800","萬里區"
"207001","662-BX","2018/04/03 13:09:37","新北市萬里區萬里里瑪鋉路302號","121.688408333333","25.1815616666667","6502800","萬里區"
"252005","AAC-283","2018/04/03 13:09:38","新北市三芝區八賢里八連溪1號","121.508765","25.246905","6502100","三芝區"
"236006","498-BY","2018/04/03 13:09:37","新北市土城區亞洲路58巷5弄22號","121.4341","24.9735983333333","6501300","土城區"
"221032","280-BY","2018/04/03 13:09:41","新北市汐止區大同路二段270號","121.654606666667","25.066295","6501100","汐止區"
"242019","280-VK","2018/04/03 13:09:38","新北市新莊區頭前路96號","121.463911666667","25.0525466666667","6500500","新莊區"
