"lineid","car","time","location","longitude","latitude","cityid","cityname"
"234044","148-BY","2018/04/03 13:49:33","新北市永和區永利路135號","121.52407","25.0033216666667","6500400","永和區"
"234068","149-BY","2018/04/03 13:49:29","新北市永和區竹林路81號","121.519523333333","25.0126166666667","6500400","永和區"
"234005","207-UY","2018/04/03 13:49:35","新北市中和區中和路464號","121.512308333333","25.0039783333333","6500400","永和區"
"234078","298-R6","2018/04/03 13:49:45","新北市永和區林森路81號","121.523926666667","25.0038983333333","6500400","永和區"
"234036","336-UY","2018/04/03 13:49:43","新北市永和區秀朗路二段270號","121.526091666667","24.9982016666667","6500400","永和區"
"234062","337-UY","2018/04/03 13:49:37","新北市永和區中正路368巷3號","121.517958333333","25.0009083333333","6500400","永和區"
"234084","338-UY","2018/04/03 13:49:42","新北市永和區中正路513號","121.516905","25.00734","6500400","永和區"
"234015","745-BX","2018/04/03 13:49:39","新北市永和區文化路57號","121.514176666667","25.01505","6500400","永和區"
"234028","746-BX","2018/04/03 13:49:45","新北市永和區民生路47巷5號","121.523163333333","24.997845","6500400","永和區"
"234052","KEA-2590","2018/04/03 13:49:46","新北市永和區竹林路75巷1-1號","121.519115","25.01325","6500400","永和區"
"234012","KEA-2591","2018/04/03 13:49:46","新北市永和區保安路153號","121.506815","25.012785","6500400","永和區"
"234060","AAD-866","2018/04/03 13:49:35","新北市永和區中正路344號","121.51772","25.0003166666667","6500400","永和區"
"234040","862-TW","2018/04/03 13:49:28","新北市永和區中和路389巷13號","121.508073333333","25.0009766666667","6500400","永和區"
"234048","863-TW","2018/04/03 13:49:36","新北市永和區保安路79號","121.508626666667","25.0148416666667","6500400","永和區"
"234025","9371-KE","2018/04/03 13:49:35","新北市永和區自由街50號","121.513851666667","25.0061083333333","6500400","永和區"
"248017","225-UY","2018/04/03 13:49:45","新北市五股區民義路二段22巷21號","121.42129","25.0978533333333","6501500","五股區"
"234022","9380-KE","2018/04/03 13:49:43","新北市永和區中正路654巷1號","121.517091666667","25.0086416666667","6500400","永和區"
"234076","969-R7","2018/04/03 13:49:32","新北市永和區民權路36巷10號","121.519596666667","24.9989716666667","6500400","永和區"
"234072","AAC-211","2018/04/03 13:49:38","新北市永和區豫溪街189巷1號","121.522616666667","25.010285","6500400","永和區"
"234066","AAC-212","2018/04/03 13:49:36","新北市永和區保平路236巷15弄18號","121.507743333333","25.0068933333333","6500400","永和區"
"234001","AAC-295","2018/04/03 13:49:30","新北市永和區永和路一段69號","121.51315","25.0071683333333","6500400","永和區"
"244002","248-BX","2018/04/03 13:49:36","新北市林口區文化二路二段72號","121.378516666667","25.08037","6501700","林口區"
"231002","002-UM","2018/04/03 13:49:40","新北市新店區溪園路245-6號","121.525448333333","24.9833533333333","6500600","新店區"
"231027","0293-UT","2018/04/03 13:49:39","新北市新店區中興路一段24號","121.53868","24.9584966666667","6500600","新店區"
"231028","046-UY","2018/04/03 13:49:39","新北市新店區安業街1-1號","121.516726666667","24.978875","6500600","新店區"
"231001","047-UY","2018/04/03 13:49:45","新北市新店區三民路46號","121.535795","24.9718033333333","6500600","新店區"
"231005","106-UY","2018/04/03 13:49:47","新北市新店區寶中路121號","121.549721666667","24.979545","6500600","新店區"
"231020","108-UY","2018/04/03 13:49:29","新北市新店區櫻花街6號","121.54641","24.9268783333333","6500600","新店區"
"231012","187-VK","2018/04/03 13:49:32","新北市新店區德正街27巷29弄88號","121.54573","24.973585","6500600","新店區"
"231010","188-VK","2018/04/03 13:49:41","新北市新店區環河路119號","121.532926666667","24.9704333333333","6500600","新店區"
"231023","KEA-2219","2018/04/03 13:49:36","新北市新店區國校路37巷2號","121.53793","24.95582","6500600","新店區"
"231026","256-BX","2018/04/03 13:49:47","新北市新店區三民路159巷19弄48號","121.532205","24.973175","6500600","新店區"
"231015","260-TV","2018/04/03 13:49:29","新北市新店區北宜路二段82巷9弄2號","121.553793333333","24.9522933333333","6500600","新店區"
"231003","268-BY","2018/04/03 13:49:43","新北市新店區中興路一段163號","121.542538333333","24.964155","6500600","新店區"
"231018","278-BY","2018/04/03 13:49:41","新北市新店區中正路402號","121.53453","24.97747","6500600","新店區"
"231038","3713-VJ","2018/04/03 13:49:48","新北市新店區安康路一段196號","121.524495","24.9633883333333","6500600","新店區"
"231037","4716-K9","2018/04/03 13:49:46","新北市新店區安康路三段359巷12弄2號","121.484505","24.95022","6500600","新店區"
"231025","4715-K9","2018/04/03 13:49:44","新北市新店區中央六街58號","121.527815","24.9758033333333","6500600","新店區"
"231036","512-UM","2018/04/03 13:49:37","新北市新店區安祥路110巷59號","121.473611666667","24.9569766666667","6500600","新店區"
"231013","513-UM","2018/04/03 13:49:48","新北市新店區二十張路25巷18弄9號","121.539268333333","24.9815633333333","6500600","新店區"
"231006","617-UM","2018/04/03 13:49:43","新北市新店區北宜路一段260號","121.545745","24.95279","6500600","新店區"
"231030","619-UM","2018/04/03 13:49:46","新北市新店區安康路一段48號","121.530415","24.96111","6500600","新店區"
"231034","641-BX","2018/04/03 13:49:38","新北市新店區達觀路16-7號","121.50219","24.9409766666667","6500600","新店區"
"231035","719-UY","2018/04/03 13:49:42","新北市新店區安康路二段85巷17號","121.514365","24.9617816666667","6500600","新店區"
"231032","720-UM","2018/04/03 13:49:40","新北市新店區莒光路44巷21弄11-6號","121.51851","24.952235","6500600","新店區"
"231029","897-TW","2018/04/03 13:49:35","新北市新店區安康路二段125-1號","121.512385","24.960935","6500600","新店區"
"231004","899-TW","2018/04/03 13:49:43","新北市新店區寶橋路75號","121.545578333333","24.975055","6500600","新店區"
"231024","AKT-0513","2018/04/03 13:49:35","新北市新店區北新路一段271巷8號","121.540471666667","24.9668033333333","6500600","新店區"
"235030","003-UY","2018/04/03 13:49:38","新北市中和區中山路二段131巷33號","121.503845","25.0028033333333","6500300","中和區"
"235028","005-UY","2018/04/03 13:49:38","新北市中和區泰和街26號","121.499488333333","25.0004466666667","6500300","中和區"
"235027","006-UY","2018/04/03 13:49:43","新北市中和區連城路319巷11弄1號","121.489341666667","24.9950416666667","6500300","中和區"
"235020","096-UM","2018/04/03 13:49:32","新北市中和區中正路1196號","121.48043","25.01049","6500300","中和區"
"235029","098-UM","2018/04/03 13:49:40","新北市中和區勝利路35巷3弄23-5號","121.500061666667","25.0074983333333","6500300","中和區"
"235004","150-BY","2018/04/03 13:48:24","新北市中和區保健路91號","121.511276666667","24.9967483333333","6500300","中和區"
"235022","151-BY","2018/04/03 13:49:45","新北市中和區連城路508號","121.476691666667","24.9923216666667","6500300","中和區"
"235019","183-VK","2018/04/03 13:49:48","新北市中和區德光路77巷6弄2號","121.469826666667","25.0034883333333","6500300","中和區"
"235002","185-VK","2018/04/03 13:49:45","新北市中和區立人街24-4號","121.518873333333","24.9942233333333","6500300","中和區"
"235013","186-VK","2018/04/03 13:49:33","新北市中和區景安路177巷30號","121.506716666667","24.9944933333333","6500300","中和區"
"235031","255-BX","2018/04/03 13:49:40","新北市中和區新生街242巷3號","121.48332","24.99774","6500300","中和區"
"235008","293-VK","2018/04/03 13:49:31","新北市中和區中興街139號","121.499973333333","24.9913183333333","6500300","中和區"
"235036","301-VK","2018/04/03 13:49:35","新北市中和區中山路二段134-5號","121.502243333333","25.0031883333333","6500300","中和區"
"235007","352-BY","2018/04/03 13:49:48","新北市中和區成功路23號","121.526261666667","24.9936483333333","6500300","中和區"
"235032","377-QA","2018/04/03 13:49:40","新北市中和區圓通路186號","121.496541666667","24.99441","6500300","中和區"
"235025","378-QA","2018/04/03 13:49:37","新北市中和區民治街132巷11號","121.47477","25.0022616666667","6500300","中和區"
"235014","4979-A6","2018/04/03 13:49:46","新北市中和區忠孝街62巷9弄1號","121.513098333333","24.9838933333333","6500300","中和區"
"235033","4980-A6","2018/04/03 13:49:31","新北市中和區南山路81巷8弄12號","121.50255","24.9977566666667","6500300","中和區"
"235006","551-UM","2018/04/03 13:49:44","新北市中和區秀朗路三段70巷32號","121.525636666667","24.9944816666667","6500300","中和區"
"235034","558-UM","2018/04/03 13:49:34","新北市中和區南山路15號","121.502066666667","24.99924","6500300","中和區"
"235009","565-BX","2018/04/03 13:49:39","新北市中和區捷運路173號","121.505873333333","24.9913766666667","6500300","中和區"
"235018","640-BX","2018/04/03 13:49:45","新北市中和區民治街120號","121.475013333333","25.003305","6500300","中和區"
"235011","732-UM","2018/04/03 13:49:47","新北市中和區興南路二段34巷28弄2號","121.505088333333","24.9864616666667","6500300","中和區"
"235010","733-UM","2018/04/03 13:49:38","新北市中和區仁愛街36巷26號","121.511025","24.98708","6500300","中和區"
"235035","783-BX","2018/04/03 13:49:34","新北市中和區中山路二段486號","121.487685","25.005165","6500300","中和區"
"235026","800-TS","2018/04/03 13:49:37","新北市中和區中山路二段340巷28號","121.493421666667","25.0035033333333","6500300","中和區"
"235021","801-TS","2018/04/03 13:49:39","新北市中和區員山路327巷6號","121.480958333333","25.0011316666667","6500300","中和區"
"235005","802-TS","2018/04/03 13:49:41","新北市中和區永貞路264號","121.51375","25.0037516666667","6500300","中和區"
"235016","805-TS","2018/04/03 13:49:35","新北市中和區興南路二段399巷57-1號","121.501336666667","24.976175","6500300","中和區"
"235012","896-TW","2018/04/03 13:49:43","新北市中和區南山路188號","121.50589","24.99067","6500300","中和區"
"235017","900-TW","2018/04/03 13:49:27","新北市中和區華福街42巷4號","121.466336666667","24.9962583333333","6500300","中和區"
"235024","911-UM","2018/04/03 13:49:31","新北市中和區民生街2號","121.471126666667","25.0065633333333","6500300","中和區"
"235015","157-BY","2018/04/03 13:49:33","新北市中和區華新街109巷11弄2-4號","121.508761666667","24.97963","6500300","中和區"
"235001","AAC-213","2018/04/03 13:49:47","新北市中和區秀朗路三段128巷7弄2號","121.524523333333","24.9930166666667","6500300","中和區"
"235023","AAC-215","2018/04/03 13:49:44","新北市中和區圓通路381號","121.490453333333","24.9893216666667","6500300","中和區"
"220035","015-TV","2018/04/03 13:49:39","新北市板橋區南雅西路二段301巷29號","121.451755","25.0162716666667","6500100","板橋區"
"220013","072-UY","2018/04/03 13:49:31","新北市板橋區漢生東路282號","121.47122","25.0090716666667","6500100","板橋區"
"220034","073-UY","2018/04/03 13:49:41","新北市板橋區大智街71巷11號","121.452963333333","25.01437","6500100","板橋區"
"220017","AAD-861","2018/04/03 13:49:44","新北市板橋區華東街262號","121.452671666667","25.0014483333333","6500100","板橋區"
"247005","336-TH","2018/04/03 13:49:32","新北市蘆洲區和平路77號","121.469301666667","25.07906","6501400","蘆洲區"
"247007","056-VK","2018/04/03 13:49:36","新北市蘆洲區永安北路二段74號","121.483905","25.0846566666667","6501400","蘆洲區"
"247019","001-UY","2018/04/03 13:49:37","新北市蘆洲區民族路408巷48號","121.47478","25.0932083333333","6501400","蘆洲區"
"235003","251-BX","2018/04/03 13:49:32","新北市中和區大勇街25巷1號","121.517153333333","24.9932116666667","6500300","中和區"
"228005","097-TW","2018/04/03 13:49:41","新北市雙溪區三港里雙澳路91號","121.888971666667","25.0572866666667","6502600","貢寮區"
"228004","212-TW","2018/04/03 13:32:08","新北市貢寮區龍崗里石壁坑街26-2號","121.91234","24.993945","6502600","貢寮區"
"207002","749-BX","2018/04/03 13:49:31","新北市萬里區崁腳里崁腳路166號","121.645031666667","25.1558","6502800","萬里區"
"207001","662-BX","2018/04/03 13:49:37","新北市萬里區磺潭里清水18號","121.637836666667","25.1976466666667","6502800","萬里區"
"252005","AAC-283","2018/04/03 13:49:37","新北市三芝區圓山里二坪頂47號","121.53831","25.2448983333333","6502100","三芝區"
"236065","105-UM","2018/04/03 13:49:46","新北市土城區員福街8號","121.441765","24.978545","6501300","土城區"
"236040","107-UM","2018/04/03 13:49:45","新北市土城區中央路二段93號","121.442235","24.9781466666667","6501300","土城區"
"236074","166-UM","2018/04/03 13:49:49","新北市土城區中華路二段168-1號","121.43742","24.9722083333333","6501300","土城區"
"236029","253-BX","2018/04/03 13:49:44","新北市土城區城林路6巷80號","121.43842","24.97987","6501300","土城區"
"236024","269-VK","2018/04/03 13:49:45","新北市土城區城林路6巷80號","121.438481666667","24.9797916666667","6501300","土城區"
"236013","270-VK","2018/04/03 13:49:42","新北市土城區城林路6巷80號","121.438606666667","24.979785","6501300","土城區"
"236032","271-VK","2018/04/03 13:49:46","新北市土城區城林路6巷80號","121.438455","24.9798683333333","6501300","土城區"
"236017","401-BY","2018/04/03 13:49:42","新北市土城區城林路6巷80號","121.438521666667","24.97976","6501300","土城區"
"236006","498-BY","2018/04/03 13:49:37","新北市土城區中華路二段51號","121.439428333333","24.978085","6501300","土城區"
"236057","912-UM","2018/04/03 13:49:43","新北市土城區城林路6巷80號","121.438331666667","24.9795916666667","6501300","土城區"
"236045","913-UM","2018/04/03 13:49:46","新北市土城區城林路6巷80號","121.438688333333","24.9796833333333","6501300","土城區"
"236060","915-UM","2018/04/03 13:49:39","新北市土城區城林路6巷80號","121.43862","24.97974","6501300","土城區"
"236054","AAC-216","2018/04/03 13:49:42","新北市土城區城林路6巷80號","121.43859","24.9797666666667","6501300","土城區"
"242048","172-VK","2018/04/03 13:49:29","新北市新莊區成德街75號","121.424003333333","25.0224916666667","6500500","新莊區"
"220027","145-BY","2018/04/03 13:49:39","新北市板橋區民權路182號","121.459241666667","25.0135066666667","6500100","板橋區"
"220028","200-UY","2018/04/03 13:49:50","新北市板橋區大觀路二段265巷60弄47號","121.441478333333","24.9978116666667","6500100","板橋區"
"220105","KEA-2550","2018/04/03 13:49:45","新北市板橋區民生路二段161巷1號","121.47007","25.0199833333333","6500100","板橋區"
"220030","610-BX","2018/04/03 13:49:49","新北市板橋區篤行路三段91號","121.426441666667","24.98492","6500100","板橋區"
"220052","257-TC","2018/04/03 13:49:38","新北市板橋區民生路二段161巷9號","121.47025","25.01956","6500100","板橋區"
"220040","267-BY","2018/04/03 13:49:40","新北市板橋區民生路二段161巷1號","121.470125","25.0201483333333","6500100","板橋區"
"220020","277-BY","2018/04/03 13:49:46","新北市板橋區大觀路三段22號","121.434353333333","24.9957683333333","6500100","板橋區"
"220050","280-UM","2018/04/03 13:49:46","新北市板橋區民生路二段161巷3號","121.470143333333","25.0198116666667","6500100","板橋區"
"220025","282-UM","2018/04/03 13:49:45","新北市板橋區大觀路二段443-2號","121.438445","24.9951366666667","6500100","板橋區"
"220019","283-VK","2018/04/03 13:49:35","新北市板橋區忠孝路176巷23號","121.465301666667","25.0017933333333","6500100","板橋區"
"220043","285-UM","2018/04/03 13:49:31","新北市板橋區民生路二段161巷1號","121.470098333333","25.0198833333333","6500100","板橋區"
"220001","285-VK","2018/04/03 13:49:43","新北市板橋區民生路二段89-6號","121.470706666667","25.0188716666667","6500100","板橋區"
"220031","286-VK","2018/04/03 13:49:28","新北市板橋區僑中二街82號","121.446623333333","25.009915","6500100","板橋區"
"220029","287-VK","2018/04/03 13:49:44","新北市板橋區南雅西路二段116號","121.452088333333","25.0122683333333","6500100","板橋區"
"220039","288-VK","2018/04/03 13:49:29","新北市板橋區民生路二段120號","121.470321666667","25.0197083333333","6500100","板橋區"
"220009","293-UM","2018/04/03 13:49:45","新北市板橋區太和街4巷5號","121.474025","25.019895","6500100","板橋區"
"220032","296-UM","2018/04/03 13:49:49","新北市板橋區大觀路二段156巷2-1號","121.441426666667","24.99916","6500100","板橋區"
"220023","303-R5","2018/04/03 13:49:40","新北市板橋區大觀路一段28巷106號","121.4503","25.0110816666667","6500100","板橋區"
"220010","305-R5","2018/04/03 13:49:46","新北市板橋區中山路二段40巷3號","121.473165","25.0150266666667","6500100","板橋區"
"220041","307-R5","2018/04/03 13:49:47","新北市板橋區民生路二段120號","121.470418333333","25.01949","6500100","板橋區"
"220012","486-VK","2018/04/03 13:49:44","新北市板橋區民生路二段36-1號","121.472171666667","25.016855","6500100","板橋區"
"242019","280-VK","2018/04/03 13:49:38","新北市新莊區中港路648巷28號","121.452246666667","25.0550983333333","6500500","新莊區"
"220037","491-VK","2018/04/03 13:49:48","新北市板橋區民生路二段161巷1號","121.470181666667","25.0200133333333","6500100","板橋區"
"220004","568-UM","2018/04/03 13:49:46","新北市板橋區四川路二段46號","121.453623333333","24.9953033333333","6500100","板橋區"
"220011","609-BX","2018/04/03 13:49:30","新北市板橋區民生路二段120號","121.470408333333","25.0199916666667","6500100","板橋區"
"220003","630-UY","2018/04/03 13:49:31","新北市板橋區華東街260號","121.452756666667","25.0021216666667","6500100","板橋區"
"220042","689-BX","2018/04/03 13:49:44","新北市板橋區民生路二段188號","121.470221666667","25.020375","6500100","板橋區"
"220002","741-BX","2018/04/03 13:49:37","新北市板橋區華東街266號","121.452616666667","25.001385","6500100","板橋區"
"220014","829-TW","2018/04/03 13:49:44","新北市板橋區民生路二段120號","121.470311666667","25.01991","6500100","板橋區"
"220016","830-TW","2018/04/03 13:49:42","新北市板橋區民生路二段123號","121.470696666667","25.0186333333333","6500100","板橋區"
"220038","833-TW","2018/04/03 13:49:40","新北市板橋區民生路二段161巷1號","121.470088333333","25.02005","6500100","板橋區"
"220022","895-R6","2018/04/03 13:49:41","新北市板橋區府中路67號","121.45803","25.00951","6500100","板橋區"
"220021","985-R7","2018/04/03 13:49:45","新北市板橋區南門街14號","121.457331666667","25.0088616666667","6500100","板橋區"
"220018","AAC-253","2018/04/03 13:49:32","新北市板橋區南雅南路一段1巷1弄5號","121.457356666667","25.0061233333333","6500100","板橋區"
