"lineid","car","time","location","longitude","latitude","cityid","cityname"
"234068","149-BY","2018/04/03 14:29:49","新北市永和區永利路14號","121.517801666667","25.0059083333333","6500400","永和區"
"234005","207-UY","2018/04/03 14:29:35","新北市永和區中正路393號","121.517283333333","25.00401","6500400","永和區"
"234078","298-R6","2018/04/03 14:29:31","新北市永和區永貞路82號","121.520173333333","25.0050616666667","6500400","永和區"
"234062","337-UY","2018/04/03 14:29:37","新北市永和區中正路419號","121.517198333333","25.00501","6500400","永和區"
"234084","338-UY","2018/04/03 14:29:42","新北市永和區光復街21號","121.516511666667","25.0174733333333","6500400","永和區"
"234028","746-BX","2018/04/03 14:29:44","新北市永和區民治街59巷11號","121.518765","24.9972666666667","6500400","永和區"
"234052","KEA-2590","2018/04/03 14:29:46","新北市永和區環河東路一段80號","121.519531666667","25.0164516666667","6500400","永和區"
"234040","862-TW","2018/04/03 14:29:48","新北市永和區安樂路338號","121.514426666667","25.0060983333333","6500400","永和區"
"234048","863-TW","2018/04/03 14:29:36","新北市永和區新生路40巷20號","121.507691666667","25.01583","6500400","永和區"
"234025","9371-KE","2018/04/03 14:29:35","新北市中和區安樂路161-1號","121.514715","24.997345","6500400","永和區"
"248017","225-UY","2018/04/03 14:20:05","新北市五股區外寮路9-25號","121.415805","25.0798383333333","6501500","五股區"
"234072","AAC-211","2018/04/03 14:29:38","新北市永和區竹林路39巷33弄1號","121.520046666667","25.015265","6500400","永和區"
"234001","AAC-295","2018/04/03 14:29:50","新北市永和區大新街35號","121.515345","25.0085683333333","6500400","永和區"
"244002","248-BX","2018/04/03 14:29:36","新北市林口區竹林路267號","121.389535","25.0809183333333","6501700","林口區"
"231002","002-UM","2018/04/03 14:29:40","新北市新店區中正路349號","121.535348333333","24.9758766666667","6500600","新店區"
"231027","0293-UT","2018/04/03 14:29:39","新北市新店區寶橋路85巷23號","121.545278333333","24.976115","6500600","新店區"
"231028","046-UY","2018/04/03 14:29:39","新北市新店區安康路二段147號","121.511375","24.9599","6500600","新店區"
"231001","047-UY","2018/04/03 14:29:33","新北市新店區中正路75巷71號","121.543223333333","24.9688983333333","6500600","新店區"
"231005","106-UY","2018/04/03 14:29:47","新北市新店區順安街52號","121.540873333333","24.9860783333333","6500600","新店區"
"231020","108-UY","2018/04/03 14:29:49","新北市新店區桂山路37號","121.560751666667","24.9018233333333","6500600","新店區"
"231012","187-VK","2018/04/03 14:29:32","新北市新店區寶興路61巷1號","121.550766666667","24.97206","6500600","新店區"
"231023","KEA-2219","2018/04/03 14:29:36","新北市新店區光明街139號","121.539433333333","24.9620483333333","6500600","新店區"
"231015","260-TV","2018/04/03 14:29:46","新北市新店區北宜路三段62號","121.574238333333","24.9511433333333","6500600","新店區"
"231003","268-BY","2018/04/03 14:29:43","新北市新店區中興路一段267-4號","121.544988333333","24.9679366666667","6500600","新店區"
"231018","278-BY","2018/04/03 14:29:38","新北市新店區中央二街69號","121.526346666667","24.9748516666667","6500600","新店區"
"231038","3713-VJ","2018/04/03 14:29:47","新北市新店區溪洲路201號","121.528658333333","24.9663566666667","6500600","新店區"
"231037","4716-K9","2018/04/03 14:29:46","新北市新店區安興路20號","121.514991666667","24.9659783333333","6500600","新店區"
"231025","4715-K9","2018/04/03 14:29:44","新北市新店區民族路175號","121.537486666667","24.9765366666667","6500600","新店區"
"231036","512-UM","2018/04/03 14:29:37","新北市新店區安祥路109巷104號","121.47757","24.9590383333333","6500600","新店區"
"231013","513-UM","2018/04/03 14:29:42","新北市新店區民權路108-1號","121.535983333333","24.9836183333333","6500600","新店區"
"231006","617-UM","2018/04/03 14:29:43","新北市新店區北宜路二段401號","121.55978","24.95448","6500600","新店區"
"231030","619-UM","2018/04/03 14:29:46","新北市新店區安民街113號","121.516288333333","24.9684866666667","6500600","新店區"
"231034","641-BX","2018/04/03 14:29:38","新北市新店區黎明路60巷1號","121.502393333333","24.946825","6500600","新店區"
"231035","719-UY","2018/04/03 14:29:42","新北市新店區安光路13號","121.513416666667","24.963955","6500600","新店區"
"231032","720-UM","2018/04/03 14:29:40","新北市新店區溪洲路196-3號","121.530613333333","24.9659683333333","6500600","新店區"
"231029","897-TW","2018/04/03 14:29:35","新北市新店區安康路二段317-1號","121.499191666667","24.9565766666667","6500600","新店區"
"231004","899-TW","2018/04/03 14:29:43","新北市新店區中正路263-2號","121.538405","24.9736616666667","6500600","新店區"
"231024","AKT-0513","2018/04/03 14:29:34","新北市新店區安康路一段85號","121.529351666667","24.961455","6500600","新店區"
"235030","003-UY","2018/04/03 14:29:51","新北市中和區中和路110號","121.50292","24.99953","6500300","中和區"
"235028","005-UY","2018/04/03 14:29:38","新北市中和區南山路66號","121.502466666667","24.996225","6500300","中和區"
"235027","006-UY","2018/04/03 14:29:43","新北市中和區連勝街179號","121.494076666667","24.99709","6500300","中和區"
"235020","096-UM","2018/04/03 14:29:32","新北市中和區員山路514巷1號","121.479255","25.0095983333333","6500300","中和區"
"235029","098-UM","2018/04/03 14:29:40","新北市中和區福祥路90巷5號","121.499595","25.005845","6500300","中和區"
"235004","150-BY","2018/04/03 14:29:44","新北市中和區宜安路7號","121.513398333333","24.9954866666667","6500300","中和區"
"235022","151-BY","2018/04/03 14:29:45","新北市中和區連城路521-1號","121.481886666667","24.9952116666667","6500300","中和區"
"235019","183-VK","2018/04/03 14:29:48","新北市中和區德光路23號","121.470728333333","25.0042733333333","6500300","中和區"
"235002","185-VK","2018/04/03 14:29:45","新北市中和區自立路23號","121.522543333333","24.9959033333333","6500300","中和區"
"235013","186-VK","2018/04/03 14:29:41","新北市中和區景平路396-2號","121.50975","24.993225","6500300","中和區"
"235031","255-BX","2018/04/03 14:29:40","新北市中和區中正路695號","121.485181666667","24.998185","6500300","中和區"
"235008","293-VK","2018/04/03 14:29:51","新北市中和區捷運路185號","121.505438333333","24.9914483333333","6500300","中和區"
"235036","301-VK","2018/04/03 14:29:35","新北市中和區保平路340巷16號","121.506185","25.00451","6500300","中和區"
"235007","352-BY","2018/04/03 14:29:48","新北市中和區景平路310號","121.512488333333","24.9927083333333","6500300","中和區"
"235032","377-QA","2018/04/03 14:29:40","新北市中和區永和路8巷21號","121.501083333333","25.0035833333333","6500300","中和區"
"235025","378-QA","2018/04/03 14:29:37","新北市中和區民安街2巷10號","121.480318333333","25.0014683333333","6500300","中和區"
"235014","4979-A6","2018/04/03 14:29:45","新北市中和區員山路36巷13號","121.484351666667","24.9910616666667","6500300","中和區"
"235033","4980-A6","2018/04/03 14:29:31","新北市中和區連城路134巷16號","121.495488333333","24.9996283333333","6500300","中和區"
"235006","551-UM","2018/04/03 14:29:44","新北市中和區中和路378巷23號","121.511665","25.0015633333333","6500300","中和區"
"235034","558-UM","2018/04/03 14:29:34","新北市中和區中和路44號","121.500456666667","25.0010883333333","6500300","中和區"
"235009","565-BX","2018/04/03 14:29:39","新北市中和區景新街475號","121.513428333333","24.987755","6500300","中和區"
"235018","640-BX","2018/04/03 14:29:45","新北市中和區國光街112巷15號","121.469678333333","25.002005","6500300","中和區"
"235011","732-UM","2018/04/03 14:29:47","新北市中和區景平路259巷40號","121.506663333333","24.9928016666667","6500300","中和區"
"235010","733-UM","2018/04/03 14:29:38","新北市中和區忠孝街37巷6號","121.511001666667","24.9838466666667","6500300","中和區"
"235035","783-BX","2018/04/03 14:29:34","新北市中和區中正路637巷48號","121.48545","24.9941633333333","6500300","中和區"
"235026","800-TS","2018/04/03 14:29:17","新北市中和區建六路67巷20號","121.486868333333","25.0029983333333","6500300","中和區"
"235021","801-TS","2018/04/03 14:29:39","新北市中和區中山路三段37巷41號","121.479808333333","25.0047533333333","6500300","中和區"
"235005","802-TS","2018/04/03 14:29:42","新北市中和區中和路250-1號","121.507456666667","24.9993983333333","6500300","中和區"
"235016","805-TS","2018/04/03 14:29:35","新北市中和區華新街143巷63弄2號","121.506423333333","24.9792216666667","6500300","中和區"
"235012","896-TW","2018/04/03 14:29:41","新北市中和區忠孝街39-1號","121.5115","24.9836733333333","6500300","中和區"
"235017","900-TW","2018/04/03 14:29:47","新北市中和區民德路197-2號","121.46895","24.99867","6500300","中和區"
"235024","911-UM","2018/04/03 14:29:31","新北市中和區中山路二段523巷39號","121.482495","25.0033616666667","6500300","中和區"
"235015","157-BY","2018/04/03 14:29:33","新北市中和區板南路174號","121.501213333333","24.9926666666667","6500300","中和區"
"235001","AAC-213","2018/04/03 14:29:47","新北市永和區成功路二段185號","121.526575","24.9965633333333","6500300","中和區"
"235023","AAC-215","2018/04/03 14:29:40","新北市中和區圓通路256號","121.493451666667","24.9909366666667","6500300","中和區"
"220035","015-TV","2018/04/03 14:29:39","新北市板橋區中正路413巷12號","121.453596666667","25.02271","6500100","板橋區"
"220013","072-UY","2018/04/03 14:29:51","新北市板橋區國泰街75巷2弄11號","121.467153333333","25.0060183333333","6500100","板橋區"
"220034","073-UY","2018/04/03 14:29:41","新北市板橋區中正路250巷71號","121.458416666667","25.019805","6500100","板橋區"
"220017","AAD-861","2018/04/03 14:29:44","新北市板橋區稚暉街1號","121.456008333333","25.0044666666667","6500100","板橋區"
"247023","893-R6","2018/04/03 14:29:47","新北市蘆洲區中正路261號","121.467458333333","25.0873466666667","6501400","蘆洲區"
"247013","546-UM","2018/04/03 14:29:45","新北市蘆洲區中正路50號","121.470835","25.0827566666667","6501400","蘆洲區"
"247021","500-BY","2018/04/03 14:29:40","新北市蘆洲區中正路472號","121.462355","25.09529","6501400","蘆洲區"
"247009","341-TH","2018/04/03 14:29:45","新北市蘆洲區鷺江街20號","121.478415","25.0825016666667","6501400","蘆洲區"
"247011","339-TH","2018/04/03 14:29:34","新北市蘆洲區中興街125號","121.482103333333","25.0895433333333","6501400","蘆洲區"
"247003","337-TH","2018/04/03 14:29:32","新北市蘆洲區長安街307號","121.457928333333","25.085175","6501400","蘆洲區"
"247005","336-TH","2018/04/03 14:29:40","新北市蘆洲區長安街62號","121.462903333333","25.0799116666667","6501400","蘆洲區"
"247017","057-VK","2018/04/03 14:29:47","新北市蘆洲區復興路227巷35號","121.479333333333","25.0916016666667","6501400","蘆洲區"
"247007","056-VK","2018/04/03 14:29:36","新北市蘆洲區民生街34號","121.474306666667","25.0787616666667","6501400","蘆洲區"
"247001","053-VK","2018/04/03 14:29:32","新北市蘆洲區永樂街38巷33弄29號","121.456856666667","25.08976","6501400","蘆洲區"
"247015","007-UY","2018/04/03 14:29:35","新北市蘆洲區中正路185巷78弄48號","121.465476666667","25.08525","6501400","蘆洲區"
"247019","001-UY","2018/04/03 14:29:36","新北市蘆洲區水湳街150號","121.470035","25.0937266666667","6501400","蘆洲區"
"235003","251-BX","2018/04/03 14:29:32","新北市中和區秀峰街119巷6弄24號","121.518338333333","24.99007","6500300","中和區"
"228005","097-TW","2018/04/03 14:29:41","新北市貢寮區美豐里巫里岸9-1號","121.901923333333","25.0701166666667","6502600","貢寮區"
"228004","212-TW","2018/04/03 14:29:48","新北市貢寮區雙玉里田寮洋街33號","121.9322","25.0133266666667","6502600","貢寮區"
"207002","749-BX","2018/04/03 14:29:51","新北市萬里區溪底里香員林路17-2號","121.636813333333","25.1606833333333","6502800","萬里區"
"207001","662-BX","2018/04/03 14:29:44","新北市萬里區磺潭里員潭路2號","121.645681666667","25.2005583333333","6502800","萬里區"
"252005","AAC-283","2018/04/03 14:29:37","新北市三芝區埔坪里埔頭坑85號","121.507645","25.2545216666667","6502100","三芝區"
"236065","105-UM","2018/04/03 14:29:46","新北市土城區永豐路205-5號","121.474585","24.9779366666667","6501300","土城區"
"236040","107-UM","2018/04/03 14:29:49","新北市土城區學成路91巷2-1號","121.45077","24.9883033333333","6501300","土城區"
"236074","166-UM","2018/04/03 14:29:50","新北市土城區大暖路44號","121.4232","24.95945","6501300","土城區"
"236029","253-BX","2018/04/03 14:29:44","新北市土城區水源街39-1號","121.440743333333","24.9756783333333","6501300","土城區"
"236024","269-VK","2018/04/03 14:29:45","新北市土城區承天路69-1號","121.439851666667","24.9632666666667","6501300","土城區"
"236013","270-VK","2018/04/03 14:29:42","新北市土城區青雲路39巷7號","121.460351666667","24.9875733333333","6501300","土城區"
"236032","271-VK","2018/04/03 14:29:46","新北市土城區青雲路449號","121.45871","24.97501","6501300","土城區"
"236017","401-BY","2018/04/03 14:29:42","新北市土城區永豐路202巷14號","121.466223333333","24.9833666666667","6501300","土城區"
"236006","498-BY","2018/04/03 14:29:37","新北市土城區日新街27號","121.443951666667","24.9878466666667","6501300","土城區"
"236057","912-UM","2018/04/03 14:29:43","新北市土城區中央路四段281-5號","121.412288333333","24.9535816666667","6501300","土城區"
"236045","913-UM","2018/04/03 14:29:46","新北市土城區青雲路336-1號","121.458863333333","24.9762366666667","6501300","土城區"
"236060","915-UM","2018/04/03 14:29:18","新北市土城區延壽路1-9號","121.469193333333","24.99393","6501300","土城區"
"236054","AAC-216","2018/04/03 14:29:42","新北市土城區中華路二段1號","121.439706666667","24.9793183333333","6501300","土城區"
"242048","172-VK","2018/04/03 14:29:09","新北市板橋區大觀路三段59巷17弄5-1號","121.43501","24.995255","6500500","新莊區"
"220027","145-BY","2018/04/03 14:29:39","新北市板橋區復興街23號","121.4579","25.0173966666667","6500100","板橋區"
"220028","200-UY","2018/04/03 14:29:30","新北市板橋區大觀路二段37巷276號","121.449783333333","25.00111","6500100","板橋區"
"220105","KEA-2550","2018/04/03 14:29:45","新北市板橋區江寧路三段69號","121.472105","25.0322683333333","6500100","板橋區"
"220030","610-BX","2018/04/03 14:29:49","新北市板橋區金門街255號","121.431763333333","24.988925","6500100","板橋區"
"220052","257-TC","2018/04/03 14:29:38","新北市板橋區文化路一段210號","121.466385","25.0202566666667","6500100","板橋區"
"220040","267-BY","2018/04/03 14:29:41","新北市板橋區文聖街135巷10號","121.478836666667","25.0287933333333","6500100","板橋區"
"220020","277-BY","2018/04/03 14:29:46","新北市板橋區篤行路二段136號","121.429811666667","24.988515","6500100","板橋區"
"220050","280-UM","2018/04/03 14:29:48","新北市板橋區縣民大道三段127巷25號","121.476883333333","25.0237666666667","6500100","板橋區"
"220025","282-UM","2018/04/03 14:29:45","新北市板橋區僑中二街90巷1號","121.446338333333","25.0090483333333","6500100","板橋區"
"220019","283-VK","2018/04/03 14:29:35","新北市板橋區四川路一段322號","121.458288333333","25.0000966666667","6500100","板橋區"
"220043","285-UM","2018/04/03 14:29:50","新北市板橋區吳鳳路50巷42弄2號","121.470206666667","25.0303516666667","6500100","板橋區"
"220001","285-VK","2018/04/03 14:29:43","新北市板橋區永豐街106號","121.476043333333","25.0205383333333","6500100","板橋區"
"220031","286-VK","2018/04/03 14:29:41","新北市板橋區龍興街63巷21號","121.442355","25.0015566666667","6500100","板橋區"
"220029","287-VK","2018/04/03 14:29:44","新北市板橋區大觀路一段73號","121.447248333333","25.0045716666667","6500100","板橋區"
"220039","288-VK","2018/04/03 14:29:49","新北市板橋區長江路一段106巷13弄21號","121.460891666667","25.0295133333333","6500100","板橋區"
"220009","293-UM","2018/04/03 14:29:45","新北市板橋區中山路一段265巷36弄1號","121.469081666667","25.0152283333333","6500100","板橋區"
"220032","296-UM","2018/04/03 14:29:38","新北市板橋區滿平二街32-3號","121.425141666667","24.9875383333333","6500100","板橋區"
"220023","303-R5","2018/04/03 14:29:40","新北市板橋區南雅西路一段116號","121.45257","25.0064683333333","6500100","板橋區"
"220010","305-R5","2018/04/03 14:29:32","新北市板橋區三民路二段121號","121.479495","25.015585","6500100","板橋區"
"220041","307-R5","2018/04/03 14:29:47","新北市板橋區光武街2巷22號","121.468738333333","25.0252766666667","6500100","板橋區"
"220047","317-R6","2018/04/03 14:29:45","新北市板橋區民生路三段299巷16號","121.462781666667","25.030175","6500100","板橋區"
"220012","486-VK","2018/04/03 14:29:44","新北市板橋區中山路一段37-3號","121.460656666667","25.0090766666667","6500100","板橋區"
"242019","280-VK","2018/04/03 14:29:38","新北市新莊區三和路12-21號","121.442106666667","25.0383683333333","6500500","新莊區"
"220037","491-VK","2018/04/03 14:29:52","新北市板橋區雙十路二段52號","121.475365","25.02784","6500100","板橋區"
"220004","568-UM","2018/04/03 14:29:46","新北市板橋區信義路1巷26弄31號","121.458625","24.9966916666667","6500100","板橋區"
"220011","609-BX","2018/04/03 14:29:43","新北市板橋區三民路二段239號","121.479026666667","25.0127383333333","6500100","板橋區"
"220003","630-UY","2018/04/03 14:29:51","新北市板橋區重慶路290巷20號","121.46244","24.998835","6500100","板橋區"
"220005","686-BX","2018/04/03 14:29:41","新北市板橋區五權街3-4號","121.463866666667","24.994645","6500100","板橋區"
"220042","689-BX","2018/04/03 14:29:47","新北市板橋區雨農路27巷2號","121.461223333333","25.0242366666667","6500100","板橋區"
"220002","741-BX","2018/04/03 14:29:37","新北市板橋區忠孝路50號","121.460736666667","25.0019433333333","6500100","板橋區"
"220051","KEA-2699","2018/04/03 14:29:50","新北市板橋區松柏街22巷18-3號","121.474808333333","25.0293566666667","6500100","板橋區"
"220014","829-TW","2018/04/03 14:29:44","新北市板橋區漢生東路315號","121.472008333333","25.0081366666667","6500100","板橋區"
"220016","830-TW","2018/04/03 14:29:43","新北市板橋區中山路二段521號","121.482996666667","25.0213833333333","6500100","板橋區"
"220045","831-TW","2018/04/03 14:29:34","新北市板橋區莒光路114巷3號","121.472448333333","25.02347","6500100","板橋區"
"220038","833-TW","2018/04/03 14:29:40","新北市板橋區文化路一段37號","121.460315","25.013145","6500100","板橋區"
"220022","895-R6","2018/04/03 14:29:51","新北市板橋區館前西路145號","121.456271666667","25.0079033333333","6500100","板橋區"
"220021","985-R7","2018/04/03 14:29:45","新北市板橋區新生街32號","121.456381666667","25.0211516666667","6500100","板橋區"
"220046","AAC-210","2018/04/03 14:29:46","新北市板橋區漢生西路131號","121.462653333333","25.0213733333333","6500100","板橋區"
"220018","AAC-253","2018/04/03 14:29:32","新北市板橋區館前東路60號","121.461096666667","25.00731","6500100","板橋區"
