"lineid","car","time","location","longitude","latitude","cityid","cityname"
"234062","337-UY","2018/04/03 14:39:37","新北市永和區環河西路二段207號","121.501738333333","25.0107866666667","6500400","永和區"
"234028","746-BX","2018/04/03 14:39:44","新北市中和區中正路804號","121.48502","25.0020216666667","6500400","永和區"
"234052","KEA-2590","2018/04/03 14:39:46","新北市永和區環河東路一段78號","121.519521666667","25.0164866666667","6500400","永和區"
"234025","9371-KE","2018/04/03 14:39:15","新北市永和區中和路501巷6號","121.510533333333","25.002605","6500400","永和區"
"248017","225-UY","2018/04/03 14:20:05","新北市五股區外寮路9-25號","121.415805","25.0798383333333","6501500","五股區"
"234072","AAC-211","2018/04/03 14:39:38","新北市永和區環河東路二段54-1號","121.523391666667","25.0115433333333","6500400","永和區"
"244002","248-BX","2018/04/03 14:39:36","新北市林口區竹林路269號","121.389526666667","25.0809416666667","6501700","林口區"
"231002","002-UM","2018/04/03 14:39:40","新北市新店區中正路485號","121.533835","24.9817783333333","6500600","新店區"
"231027","0293-UT","2018/04/03 14:39:39","新北市新店區中正路237號","121.539363333333","24.97325","6500600","新店區"
"231028","046-UY","2018/04/03 14:39:39","新北市新店區安德街60巷35號","121.511051666667","24.963955","6500600","新店區"
"231001","047-UY","2018/04/03 14:39:47","新北市新店區中正路84號","121.54364","24.97038","6500600","新店區"
"231005","106-UY","2018/04/03 14:39:47","新北市新店區復興路2號","121.532405","24.9882933333333","6500600","新店區"
"231020","108-UY","2018/04/03 14:39:49","新北市新店區桂山路37號","121.561351666667","24.90468","6500600","新店區"
"231012","187-VK","2018/04/03 14:39:32","新北市新店區寶宏路38號","121.549541666667","24.9755616666667","6500600","新店區"
"231023","KEA-2219","2018/04/03 14:39:47","新北市新店區檳榔路39號","121.542621666667","24.9634716666667","6500600","新店區"
"231015","260-TV","2018/04/03 14:39:09","新北市新店區北宜路三段214號","121.589293333333","24.9521066666667","6500600","新店區"
"231003","268-BY","2018/04/03 14:39:43","新北市新店區中正路7號","121.5458","24.969285","6500600","新店區"
"231018","278-BY","2018/04/03 14:39:38","新北市新店區中央二街28號","121.528283333333","24.9736666666667","6500600","新店區"
"231038","3713-VJ","2018/04/03 14:39:47","新北市新店區安康路一段190號","121.524683333333","24.9633866666667","6500600","新店區"
"231037","4716-K9","2018/04/03 14:39:26","新北市新店區柴埕路60巷32號","121.506235","24.967595","6500600","新店區"
"231025","4715-K9","2018/04/03 14:39:44","新北市新店區民族路164號","121.53745","24.9766","6500600","新店區"
"231036","512-UM","2018/04/03 14:39:37","新北市新店區安祥路106巷206號","121.474235","24.9604816666667","6500600","新店區"
"231013","513-UM","2018/04/03 14:39:42","新北市新店區明德路24號","121.542015","24.9771416666667","6500600","新店區"
"231006","617-UM","2018/04/03 14:39:43","新北市新店區北宜路二段103號","121.550223333333","24.9523583333333","6500600","新店區"
"231030","619-UM","2018/04/03 14:39:46","新北市新店區安民街285號","121.517585","24.9733133333333","6500600","新店區"
"231034","641-BX","2018/04/03 14:39:38","新北市新店區黎明路51巷1號","121.50197","24.949325","6500600","新店區"
"231035","719-UY","2018/04/03 14:39:42","新北市新店區安德街58號","121.510888333333","24.9623066666667","6500600","新店區"
"231032","720-UM","2018/04/03 14:39:40","新北市新店區安業街33號","121.517448333333","24.9772333333333","6500600","新店區"
"231029","897-TW","2018/04/03 14:39:35","新北市新店區安康路三段265號","121.486488333333","24.95191","6500600","新店區"
"231004","899-TW","2018/04/03 14:39:43","新北市新店區中正路273號","121.537713333333","24.9743366666667","6500600","新店區"
"231024","AKT-0513","2018/04/03 14:39:34","新北市新店區力行路5號","121.539341666667","24.96461","6500600","新店區"
"235030","003-UY","2018/04/03 14:39:38","新北市中和區景新街137號","121.506083333333","24.9969316666667","6500300","中和區"
"235028","005-UY","2018/04/03 14:39:38","新北市中和區南山路28號","121.501918333333","24.9980016666667","6500300","中和區"
"235027","006-UY","2018/04/03 14:39:43","新北市中和區連城路171巷41弄1號","121.496055","24.9965333333333","6500300","中和區"
"235020","096-UM","2018/04/03 14:39:52","新北市中和區員山路581巷2-10號","121.477256666667","25.008845","6500300","中和區"
"235029","098-UM","2018/04/03 14:39:41","新北市中和區福祥路85巷2弄2號","121.498826666667","25.0058616666667","6500300","中和區"
"235004","150-BY","2018/04/03 14:38:24","新北市中和區宜安路73號","121.510985","24.9971316666667","6500300","中和區"
"235022","151-BY","2018/04/03 14:39:45","新北市中和區員山路148巷44弄5號","121.482543333333","24.9967483333333","6500300","中和區"
"235019","183-VK","2018/04/03 14:39:48","新北市中和區民生街21-2號","121.471005","25.005665","6500300","中和區"
"235002","185-VK","2018/04/03 14:39:45","新北市中和區立人街6號","121.51975","24.99417","6500300","中和區"
"235013","186-VK","2018/04/03 14:39:32","新北市中和區安平路17號","121.50917","24.9941833333333","6500300","中和區"
"235031","255-BX","2018/04/03 14:39:40","新北市中和區連城路340巷10弄21號","121.483241666667","24.9966066666667","6500300","中和區"
"235008","293-VK","2018/04/03 14:39:51","新北市中和區興南路一段147號","121.508541666667","24.9873433333333","6500300","中和區"
"235036","301-VK","2018/04/03 14:39:35","新北市中和區廣福路88號","121.502861666667","25.00147","6500300","中和區"
"235007","352-BY","2018/04/03 14:39:48","新北市中和區景平路534號","121.502685","24.9945133333333","6500300","中和區"
"235032","377-QA","2018/04/03 14:39:50","新北市中和區景平路736巷5弄5號","121.497455","25.003495","6500300","中和區"
"235025","378-QA","2018/04/03 14:39:49","新北市中和區新生街148巷33號","121.482428333333","25.00091","6500300","中和區"
"235014","4979-A6","2018/04/03 14:39:50","新北市中和區景平路329巷1弄4號","121.505993333333","24.99279","6500300","中和區"
"235033","4980-A6","2018/04/03 14:39:51","新北市中和區員山路36巷16-3號","121.48465","24.9909783333333","6500300","中和區"
"235006","551-UM","2018/04/03 14:39:44","新北市中和區保健路29巷10弄1號","121.50914","24.9982716666667","6500300","中和區"
"235034","558-UM","2018/04/03 14:39:34","新北市中和區景平路597號","121.497278333333","25.0007333333333","6500300","中和區"
"235009","565-BX","2018/04/03 14:39:39","新北市中和區景平路183號","121.511773333333","24.9923716666667","6500300","中和區"
"235018","640-BX","2018/04/03 14:39:45","新北市中和區德光路12號","121.471581666667","25.00472","6500300","中和區"
"235011","732-UM","2018/04/03 14:39:47","新北市中和區捷運路10號","121.509366666667","24.98983","6500300","中和區"
"235010","733-UM","2018/04/03 14:39:38","新北市中和區信義街115號","121.51212","24.9869016666667","6500300","中和區"
"235035","783-BX","2018/04/03 14:39:34","新北市中和區連城路270號","121.484836666667","24.9963433333333","6500300","中和區"
"235021","801-TS","2018/04/03 14:39:39","新北市中和區員山路248號","121.481431666667","25.001475","6500300","中和區"
"235005","802-TS","2018/04/03 14:39:40","新北市中和區永貞路245號","121.513013333333","25.0040016666667","6500300","中和區"
"235016","805-TS","2018/04/03 14:39:35","新北市中和區華新街192巷4-1號","121.506711666667","24.9825616666667","6500300","中和區"
"235012","896-TW","2018/04/03 14:39:41","新北市中和區景新街487號","121.513758333333","24.9873483333333","6500300","中和區"
"235017","900-TW","2018/04/03 14:39:47","新北市中和區民德路146巷12號","121.467968333333","25.0004416666667","6500300","中和區"
"235024","911-UM","2018/04/03 14:39:31","新北市中和區新生街16巷30號","121.48202","25.0044683333333","6500300","中和區"
"235015","157-BY","2018/04/03 14:39:33","新北市中和區中興街180巷52弄5號","121.498358333333","24.9883533333333","6500300","中和區"
"235001","AAC-213","2018/04/03 14:39:47","新北市中和區成功路17號","121.526368333333","24.9937866666667","6500300","中和區"
"235023","AAC-215","2018/04/03 14:39:40","新北市中和區圓通路335巷1弄27號","121.493321666667","24.9906816666667","6500300","中和區"
"220035","015-TV","2018/04/03 14:39:39","新北市板橋區金華街95號","121.458421666667","25.0208033333333","6500100","板橋區"
"220013","072-UY","2018/04/03 14:39:31","新北市板橋區民族路222巷12號","121.468598333333","25.0068833333333","6500100","板橋區"
"220034","073-UY","2018/04/03 14:39:46","新北市板橋區國光路161號","121.46008","25.0183","6500100","板橋區"
"220017","AAD-861","2018/04/03 14:39:44","新北市板橋區南雅南路二段18號","121.454421666667","25.0035783333333","6500100","板橋區"
"247023","893-R6","2018/04/03 14:39:47","新北市蘆洲區正和街63巷9號","121.469195","25.080705","6501400","蘆洲區"
"247013","546-UM","2018/04/03 14:39:45","新北市蘆洲區成功路114號","121.472366666667","25.0823683333333","6501400","蘆洲區"
"247009","341-TH","2018/04/03 14:39:45","新北市蘆洲區信義路222巷41號","121.480365","25.08555","6501400","蘆洲區"
"247011","339-TH","2018/04/03 14:39:39","新北市蘆洲區集賢路224巷46弄38-1號","121.48131","25.087565","6501400","蘆洲區"
"247005","336-TH","2018/04/03 14:39:32","新北市蘆洲區長安街96號","121.462156666667","25.080995","6501400","蘆洲區"
"247007","056-VK","2018/04/03 14:39:36","新北市蘆洲區信義路41號","121.474595","25.0795866666667","6501400","蘆洲區"
"247001","053-VK","2018/04/03 14:39:33","新北市蘆洲區永樂街31巷1號","121.458191666667","25.08748","6501400","蘆洲區"
"247015","007-UY","2018/04/03 14:39:35","新北市蘆洲區正和街43號","121.469301666667","25.0815533333333","6501400","蘆洲區"
"247019","001-UY","2018/04/03 14:39:36","新北市蘆洲區民權路119號","121.472173333333","25.0899066666667","6501400","蘆洲區"
"235003","251-BX","2018/04/03 14:39:37","新北市中和區宜安路66號","121.511515","24.9970683333333","6500300","中和區"
"228005","097-TW","2018/04/03 14:39:41","新北市貢寮區美豐里雞母嶺街6-6號","121.902065","25.0642666666667","6502600","貢寮區"
"228004","212-TW","2018/04/03 14:39:48","新北市貢寮區福隆里龜壽谷街31-3號","121.946478333333","25.0146133333333","6502600","貢寮區"
"207002","749-BX","2018/04/03 14:39:31","新北市萬里區溪底里香員林路17-2號","121.63682","25.1606916666667","6502800","萬里區"
"207001","662-BX","2018/04/03 14:39:17","新北市萬里區雙興里豐稟路21-1號","121.640375","25.185045","6502800","萬里區"
"252005","AAC-283","2018/04/03 14:39:37","新北市三芝區埔坪里埔頭坑122-1號","121.518948333333","25.24498","6502100","三芝區"
"236065","105-UM","2018/04/03 14:39:46","新北市土城區永豐路211-2號","121.474666666667","24.9757683333333","6501300","土城區"
"236040","107-UM","2018/04/03 14:39:46","新北市土城區裕民路57號","121.448916666667","24.9878883333333","6501300","土城區"
"236074","166-UM","2018/04/03 14:39:36","新北市土城區頂埔街22-1號","121.417011666667","24.9587866666667","6501300","土城區"
"236029","253-BX","2018/04/03 14:39:44","新北市土城區中華路二段122號","121.437818333333","24.9738066666667","6501300","土城區"
"236024","269-VK","2018/04/03 14:39:45","新北市土城區千歲路13號","121.44093","24.96956","6501300","土城區"
"236013","270-VK","2018/04/03 14:39:42","新北市土城區清水路222號","121.460823333333","24.982215","6501300","土城區"
"236032","271-VK","2018/04/03 14:39:46","新北市土城區明德路一段194號","121.461805","24.9779016666667","6501300","土城區"
"236017","401-BY","2018/04/03 14:39:48","新北市土城區延吉街253巷1號","121.46756","24.9847483333333","6501300","土城區"
"236057","912-UM","2018/04/03 14:39:43","新北市土城區中央路三段285號","121.425978333333","24.9629133333333","6501300","土城區"
"236045","913-UM","2018/04/03 14:39:46","新北市土城區明德路一段6號","121.464813333333","24.9856966666667","6501300","土城區"
"236060","915-UM","2018/04/03 14:39:46","新北市土城區延和路177巷11弄16號","121.470136666667","24.991225","6501300","土城區"
"236054","AAC-216","2018/04/03 14:39:42","新北市土城區中華路一段45號","121.445723333333","24.9884416666667","6501300","土城區"
"242048","172-VK","2018/04/03 14:39:29","新北市樹林區八德街682號","121.396145","24.9690783333333","6500500","新莊區"
"220027","145-BY","2018/04/03 14:39:39","新北市板橋區建國街54巷27號","121.459885","25.0171133333333","6500100","板橋區"
"220028","200-UY","2018/04/03 14:39:30","新北市板橋區大觀路二段59巷2號","121.446915","25.0025766666667","6500100","板橋區"
"220105","KEA-2550","2018/04/03 14:39:46","新北市板橋區民治街26巷16號","121.477365","25.033655","6500100","板橋區"
"220030","610-BX","2018/04/03 14:39:49","新北市板橋區大觀路三段263號","121.429131666667","24.9922466666667","6500100","板橋區"
"220052","257-TC","2018/04/03 14:39:39","新北市板橋區文化路一段286巷13號","121.467973333333","25.0214483333333","6500100","板橋區"
"220040","267-BY","2018/04/03 14:39:40","新北市板橋區懷德街139巷18弄2號","121.479716666667","25.0303966666667","6500100","板橋區"
"220020","277-BY","2018/04/03 14:39:46","新北市板橋區金門街253巷10弄19-1號","121.433336666667","24.9879683333333","6500100","板橋區"
"220050","280-UM","2018/04/03 14:39:46","新北市板橋區縣民大道三段33巷1弄30號","121.473248333333","25.0205166666667","6500100","板橋區"
"220025","282-UM","2018/04/03 14:39:45","新北市板橋區僑中三街10號","121.446518333333","25.0046483333333","6500100","板橋區"
"220019","283-VK","2018/04/03 14:39:35","新北市板橋區廣權路85號","121.464195","24.9923816666667","6500100","板橋區"
"220043","285-UM","2018/04/03 14:39:30","新北市板橋區宏國路77巷1號","121.468908333333","25.03231","6500100","板橋區"
"220001","285-VK","2018/04/03 14:39:43","新北市板橋區中山路二段150號","121.476616666667","25.0170566666667","6500100","板橋區"
"220031","286-VK","2018/04/03 14:39:48","新北市板橋區僑中二街10巷38號","121.445501666667","25.011235","6500100","板橋區"
"220029","287-VK","2018/04/03 14:39:47","新北市板橋區大觀路一段29巷19號","121.450176666667","25.0079466666667","6500100","板橋區"
"220039","288-VK","2018/04/03 14:39:48","新北市板橋區龍泉街54巷8弄12號","121.457381666667","25.0268866666667","6500100","板橋區"
"220009","293-UM","2018/04/03 14:39:45","新北市板橋區中山路一段283巷16號","121.470281666667","25.015105","6500100","板橋區"
"220032","296-UM","2018/04/03 14:39:42","新北市板橋區滿平街11號","121.426331666667","24.990145","6500100","板橋區"
"220023","303-R5","2018/04/03 14:39:40","新北市板橋區中正路253巷44號","121.454016666667","25.017735","6500100","板橋區"
"220010","305-R5","2018/04/03 14:39:32","新北市板橋區三民路二段35巷31號","121.481253333333","25.0180683333333","6500100","板橋區"
"220041","307-R5","2018/04/03 14:39:47","新北市板橋區陽明街17-1號","121.466293333333","25.0216233333333","6500100","板橋區"
"220047","317-R6","2018/04/03 14:39:45","新北市板橋區裕民街111巷6號","121.459758333333","25.0273266666667","6500100","板橋區"
"220012","486-VK","2018/04/03 14:39:44","新北市板橋區民族路34巷6號","121.461913333333","25.0095766666667","6500100","板橋區"
"220037","491-VK","2018/04/03 14:39:48","新北市板橋區文化路二段578號","121.47664","25.0346","6500100","板橋區"
"220004","568-UM","2018/04/03 14:39:46","新北市土城區廣明街85巷2號","121.454443333333","24.9941083333333","6500100","板橋區"
"220011","609-BX","2018/04/03 14:39:38","新北市板橋區三民路一段31巷11號","121.479743333333","25.0231416666667","6500100","板橋區"
"220003","630-UY","2018/04/03 14:39:31","新北市板橋區國慶路149巷13弄4號","121.460788333333","24.9972216666667","6500100","板橋區"
"220005","686-BX","2018/04/03 14:39:41","新北市板橋區國慶路160-3號","121.462008333333","24.99604","6500100","板橋區"
"220042","689-BX","2018/04/03 14:39:51","新北市板橋區新海路387號","121.458911666667","25.0262233333333","6500100","板橋區"
"220002","741-BX","2018/04/03 14:39:37","新北市板橋區實踐路65巷41號","121.465076666667","25.0064166666667","6500100","板橋區"
"220051","KEA-2699","2018/04/03 14:39:48","新北市板橋區雙十路二段48-1號","121.475741666667","25.027675","6500100","板橋區"
"220014","829-TW","2018/04/03 14:39:45","新北市板橋區長安街144號","121.472896666667","25.01025","6500100","板橋區"
"220016","830-TW","2018/04/03 14:39:43","新北市板橋區中山路二段412巷15號","121.483373333333","25.020435","6500100","板橋區"
"220045","831-TW","2018/04/03 14:39:48","新北市板橋區民生路二段240巷65號","121.470121666667","25.0229183333333","6500100","板橋區"
"220038","833-TW","2018/04/03 14:39:40","新北市板橋區英士路13號","121.461945","25.02518","6500100","板橋區"
"220022","895-R6","2018/04/03 14:39:41","新北市板橋區府中路30號","121.459345","25.0096583333333","6500100","板橋區"
"220021","985-R7","2018/04/03 14:39:52","新北市板橋區大仁街13號","121.455805","25.0168766666667","6500100","板橋區"
"220046","AAC-210","2018/04/03 14:39:46","新北市板橋區漢生西路89巷1弄8號","121.462303333333","25.019485","6500100","板橋區"
"220018","AAC-253","2018/04/03 14:39:32","新北市板橋區民族路296號","121.470466666667","25.00683","6500100","板橋區"
