"lineid","car","time","location","longitude","latitude","cityid","cityname"
"231046","188-VK","2018/04/03 16:09:32","新北市新店區永業路81巷26號","121.530418333333","24.94804","6500600","新店區"
"231023","KEA-2219","2018/04/03 16:09:38","新北市新店區薏仁坑路自強巷6號","121.496668333333","24.958485","6500600","新店區"
"231018","278-BY","2018/04/03 16:09:38","新北市新店區中正路680巷51弄19號","121.53547","24.989785","6500600","新店區"
"231029","897-TW","2018/04/03 16:09:35","新北市新店區安豐路22巷20號","121.503395","24.954245","6500600","新店區"
"241011","013-R5","2018/04/03 16:09:48","新北市三重區三和路三段99號","121.494188333333","25.0722266666667","6500200","三重區"
"241028","022-UY","2018/04/03 16:09:35","新北市三重區正義南路107號","121.498246666667","25.0585833333333","6500200","三重區"
"241008","059-VK","2018/04/03 16:09:35","新北市三重區慈愛街51號","121.486171666667","25.0790966666667","6500200","三重區"
"241031","061-VK","2018/04/03 16:09:48","新北市三重區重新路四段121號","121.484721666667","25.0521933333333","6500200","三重區"
"241015","062-VK","2018/04/03 16:09:50","新北市三重區福德南路59-4號","121.50306","25.0609133333333","6500200","三重區"
"241017","063-VK","2018/04/03 16:09:45","新北市三重區大同北路156巷39號","121.490928333333","25.0650966666667","6500200","三重區"
"241024","065-VK","2018/04/03 16:09:41","新北市三重區中正北路145巷9弄3號","121.4852","25.067985","6500200","三重區"
"241026","066-VK","2018/04/03 16:09:42","新北市三重區福裕街137號","121.49629","25.0612383333333","6500200","三重區"
"241002","090-VK","2018/04/03 16:09:49","新北市三重區仁義街91號","121.499705","25.0797283333333","6500200","三重區"
"241003","091-VK","2018/04/03 16:09:39","新北市三重區仁義街241巷2號","121.496265","25.0829266666667","6500200","三重區"
"241005","262-UM","2018/04/03 16:09:40","新北市三重區溪尾街305號","121.487485","25.083775","6500200","三重區"
"241016","265-UM","2018/04/03 16:09:48","新北市三重區中正北路23號","121.492356666667","25.0619916666667","6500200","三重區"
"241022","267-UM","2018/04/03 16:09:50","新北市三重區重陽路二段72號","121.487201666667","25.0642083333333","6500200","三重區"
"241018","268-UM","2018/04/03 16:09:52","新北市三重區明志街73號","121.490986666667","25.06378","6500200","三重區"
"241013","270-UM","2018/04/03 16:09:51","新北市三重區文化北路248號","121.497405","25.0699766666667","6500200","三重區"
"241025","271-UM","2018/04/03 16:09:40","新北市三重區忠孝路三段40巷10號","121.482051666667","25.0663616666667","6500200","三重區"
"241007","398-BY","2018/04/03 16:09:32","新北市三重區慈愛街10號","121.484555","25.078415","6500200","三重區"
"241004","475-VK","2018/04/03 16:09:35","新北市三重區自強路五段49號","121.494275","25.08161","6500200","三重區"
"241020","478-VK","2018/04/03 16:09:52","新北市三重區大勇街1號","121.483706666667","25.0712983333333","6500200","三重區"
"241014","543-UM","2018/04/03 16:09:42","新北市三重區環河南路35號","121.503075","25.0610366666667","6500200","三重區"
"241023","545-UM","2018/04/03 16:09:42","新北市三重區力行路一段181號","121.484403333333","25.069535","6500200","三重區"
"241019","KEA-2593","2018/04/03 16:09:47","新北市三重區自強路二段74巷23-1號","121.487798333333","25.06965","6500200","三重區"
"241006","AAD-863","2018/04/03 16:09:33","新北市三重區車路頭街135-1號","121.484303333333","25.076025","6500200","三重區"
"241012","941-UM","2018/04/03 16:09:49","新北市三重區文化北路102巷31號","121.497378333333","25.06598","6500200","三重區"
"241029","942-UM","2018/04/03 16:09:32","新北市三重區同安街18號","121.49629","25.056885","6500200","三重區"
"241033","AAC-255","2018/04/03 16:09:47","新北市三重區五谷王南街50-1號","121.473896666667","25.0446133333333","6500200","三重區"
"235033","4980-A6","2018/04/03 16:09:51","新北市中和區中正路637巷23-1號","121.485","24.9946416666667","6500300","中和區"
"235026","800-TS","2018/04/03 16:09:37","新北市中和區永和路191巷21號","121.491466666667","25.006485","6500300","中和區"
"224007","275-VK","2018/04/03 16:09:41","新北市瑞芳區粗坑口路36號","121.761818333333","25.099235","6501200","瑞芳區"
"227003","642-TC","2018/04/03 16:09:53","新北市雙溪區上林里內平林46號","121.83333","25.0304283333333","6502500","雙溪區"
"227003","400-TW","2018/04/03 16:09:48","新北市雙溪區三港里雙澳路75號","121.88356","25.0539683333333","6502500","雙溪區"
"251013","179-VK","2018/04/03 16:09:37","新北市淡水區行忠路258號","121.45821","25.2004083333333","6501000","淡水區"
"251008","181-VK","2018/04/03 16:09:48","新北市淡水區中山路8號","121.444986666667","25.1687116666667","6501000","淡水區"
"236057","912-UM","2018/04/03 16:09:43","新北市土城區中央路三段112號","121.435328333333","24.9663216666667","6501300","土城區"
"220029","287-VK","2018/04/03 16:09:44","新北市土城區福安街116-1號","121.416485","24.9648466666667","6500100","板橋區"
