"lineid","car","time","location","longitude","latitude","cityid","cityname"
"249005","172-UM","2018/04/03 16:49:31","新北市八里區大堀湖2-3號","121.422436666667","25.1536733333333","6502300","八里區"
"249004","303-UY","2018/04/03 16:49:08","新北市八里區博物館路111號","121.408771666667","25.1591716666667","6502300","八里區"
"249003","593-UM","2018/04/03 16:49:15","新北市八里區中山路二段277號","121.401911666667","25.1487666666667","6502300","八里區"
"244021","838-TS","2018/04/03 16:49:07","新北市林口區粉寮69號","121.40488","25.0908116666667","6501700","林口區"
"231046","188-VK","2018/04/03 16:49:12","新北市新店區新潭路一段1-1號","121.523813333333","24.9452483333333","6500600","新店區"
"241011","013-R5","2018/04/03 16:49:08","新北市三重區仁愛街53巷180號","121.500163333333","25.0729883333333","6500200","三重區"
"241028","022-UY","2018/04/03 16:49:15","新北市三重區光興街101號","121.497128333333","25.059885","6500200","三重區"
"241008","059-VK","2018/04/03 16:49:15","新北市三重區永福街177巷22號","121.47809","25.0751483333333","6500200","三重區"
"241009","060-VK","2018/04/03 16:49:19","新北市三重區溪尾街216號","121.487968333333","25.0814716666667","6500200","三重區"
"241031","061-VK","2018/04/03 16:49:08","新北市三重區重陽路一段113巷8號","121.488131666667","25.0600266666667","6500200","三重區"
"241015","062-VK","2018/04/03 16:49:30","新北市三重區長元西街1號","121.498795","25.0656816666667","6500200","三重區"
"241017","063-VK","2018/04/03 16:49:25","新北市三重區大同北路54巷4號","121.494026666667","25.063455","6500200","三重區"
"241024","065-VK","2018/04/03 16:49:21","新北市三重區中正北路317巷30號","121.475865","25.073055","6500200","三重區"
"241026","066-VK","2018/04/03 16:49:22","新北市三重區文化南路8-4號","121.500356666667","25.0620666666667","6500200","三重區"
"241002","090-VK","2018/04/03 16:49:09","新北市三重區仁義街190號","121.496736666667","25.0817366666667","6500200","三重區"
"241003","091-VK","2018/04/03 16:49:20","新北市三重區碧華街395號","121.493005","25.0857466666667","6500200","三重區"
"241005","262-UM","2018/04/03 16:49:25","新北市三重區仁華街62巷1號","121.484048333333","25.0829816666667","6500200","三重區"
"241016","265-UM","2018/04/03 16:49:08","新北市三重區大同北路167巷45號","121.493793333333","25.06521","6500200","三重區"
"241022","267-UM","2018/04/03 16:49:10","新北市三重區貴陽街75號","121.484473333333","25.0634383333333","6500200","三重區"
"241018","268-UM","2018/04/03 16:49:12","新北市三重區正義北路269號","121.495463333333","25.069945","6500200","三重區"
"241032","269-UM","2018/04/03 16:49:22","新北市三重區三光街18號","121.48485","25.060495","6500200","三重區"
"241013","270-UM","2018/04/03 16:49:11","新北市三重區仁和街16號","121.496353333333","25.073575","6500200","三重區"
"241025","271-UM","2018/04/03 16:49:20","新北市三重區中正北路530巷21號","121.471986666667","25.0703283333333","6500200","三重區"
"241007","398-BY","2018/04/03 16:49:11","新北市三重區三和路四段181巷21號","121.483351666667","25.079205","6500200","三重區"
"241004","475-VK","2018/04/03 16:49:14","新北市三重區仁愛街394號","121.490873333333","25.0810416666667","6500200","三重區"
"241020","478-VK","2018/04/03 16:49:12","新北市三重區忠孝路二段34號","121.485818333333","25.0710483333333","6500200","三重區"
"241030","480-VK","2018/04/03 16:49:19","新北市三重區中正南路267號","121.492846666667","25.052695","6500200","三重區"
"241014","543-UM","2018/04/03 16:49:22","新北市三重區三和路二段83號","121.50004","25.068445","6500200","三重區"
"241023","545-UM","2018/04/03 16:49:23","新北市三重區新北大道一段190號","121.48257","25.0620433333333","6500200","三重區"
"241019","KEA-2593","2018/04/03 16:49:27","新北市三重區忠孝路二段38巷15號","121.485508333333","25.07001","6500200","三重區"
"241006","AAD-863","2018/04/03 16:49:12","新北市三重區力行路二段158號","121.482783333333","25.0762733333333","6500200","三重區"
"241001","887-TS","2018/04/03 16:49:12","新北市三重區仁政街54巷39號","121.492036666667","25.0767033333333","6500200","三重區"
"241012","941-UM","2018/04/03 16:49:09","新北市三重區仁興街11巷29號","121.500576666667","25.074315","6500200","三重區"
"241029","942-UM","2018/04/03 16:49:21","新北市三重區集美街211號","121.49177","25.0545116666667","6500200","三重區"
"241033","AAC-255","2018/04/03 16:49:07","新北市三重區新北大道二段137號","121.465981666667","25.06112","6500200","三重區"
"247010","341-TH","2018/04/03 16:49:11","新北市蘆洲區集賢路300號","121.48159","25.085205","6501400","蘆洲區"
"247004","337-TH","2018/04/03 16:49:09","新北市蘆洲區長榮路151號","121.46176","25.0839966666667","6501400","蘆洲區"
"247006","336-TH","2018/04/03 16:49:09","新北市蘆洲區永安南路二段132-1號","121.462628333333","25.0785933333333","6501400","蘆洲區"
"247008","056-VK","2018/04/03 16:49:22","新北市蘆洲區中山二路45巷30號","121.474281666667","25.0811533333333","6501400","蘆洲區"
"247020","001-UY","2018/04/03 16:49:26","新北市蘆洲區民族路422巷3號","121.474088333333","25.0920633333333","6501400","蘆洲區"
"228003","097-TW","2018/04/03 16:49:20","新北市貢寮區貢寮里朝陽街1-2號","121.912338333333","25.0212916666667","6502600","貢寮區"
"228002","663-BX","2018/04/03 16:49:22","新北市貢寮區貢寮里長泰路28號","121.901803333333","25.0240933333333","6502600","貢寮區"
"224006","676-BX","2018/04/03 16:49:10","新北市瑞芳區大寮路356-1號","121.78493","25.1031633333333","6501200","瑞芳區"
"224008","285-BY","2018/04/03 16:48:59","新北市瑞芳區三爪子坑路64-39號","121.808826666667","25.1054816666667","6501200","瑞芳區"
"224007","275-VK","2018/04/03 16:49:21","新北市瑞芳區中央路48巷吉祥園8號","121.75952","25.1037366666667","6501200","瑞芳區"
"224009","273-VK","2018/04/03 16:49:09","新北市瑞芳區三爪子坑路1號","121.815533333333","25.1088233333333","6501200","瑞芳區"
"224005","271-BY","2018/04/03 16:49:15","新北市瑞芳區明里路90號","121.867781666667","25.1220066666667","6501200","瑞芳區"
"227003","642-TC","2018/04/03 16:49:13","新北市雙溪區外柑里外柑腳71號","121.807151666667","25.0175983333333","6502500","雙溪區"
"227009","400-TW","2018/04/03 16:49:08","新北市雙溪區牡丹里五分10-1號","121.866336666667","25.0471016666667","6502500","雙溪區"
"251013","179-VK","2018/04/03 16:49:17","新北市淡水區泉洲厝32號","121.489333333333","25.192515","6501000","淡水區"
"251014","180-VK","2018/04/03 16:49:19","新北市淡水區淡金路三段31號","121.446483333333","25.197615","6501000","淡水區"
"251008","181-VK","2018/04/03 16:49:28","新北市淡水區樹梅坑44號","121.474628333333","25.1443966666667","6501000","淡水區"
"251015","182-VK","2018/04/03 16:49:17","新北市淡水區忠愛街6號","121.460768333333","25.1716","6501000","淡水區"
"251010","413-VK","2018/04/03 16:49:14","新北市淡水區中正路二段31號","121.419453333333","25.1814783333333","6501000","淡水區"
"251016","442-VK","2018/04/03 16:49:25","新北市淡水區水頭42號","121.478391666667","25.1850933333333","6501000","淡水區"
"251009","575-R6","2018/04/03 16:49:19","新北市淡水區中正路二段31號","121.419606666667","25.181575","6501000","淡水區"
"251007","577-R6","2018/04/03 16:49:14","新北市淡水區中正路二段31號","121.419596666667","25.18155","6501000","淡水區"
"251011","650-BX","2018/04/03 16:49:15","新北市淡水區中正路二段31號","121.419388333333","25.1816933333333","6501000","淡水區"
"252002","178-VK","2018/04/03 16:49:21","新北市三芝區忠孝街33號","121.506146666667","25.2556716666667","6502100","三芝區"
"252001","292-VK","2018/04/03 16:49:18","新北市三芝區埔坪里埔頭坑44號","121.504731666667","25.2617216666667","6502100","三芝區"
"242054","751-BX","2018/04/03 16:49:13","新北市新莊區新泰路357巷3弄57號","121.44212","25.03924","6500500","新莊區"
"242042","566-BX","2018/04/03 16:49:18","新北市新莊區新泰路357巷3弄57號","121.442145","25.0391416666667","6500500","新莊區"
"242037","415-TV","2018/04/03 16:49:21","新北市新莊區新泰路357巷3弄57號","121.442113333333","25.0394166666667","6500500","新莊區"
"242023","362-BY","2018/04/03 16:49:21","新北市新莊區新泰路255巷83號","121.442391666667","25.038915","6500500","新莊區"
"242005","176-VK","2018/04/03 16:49:21","新北市新莊區三和路12-21號","121.44203","25.0387783333333","6500500","新莊區"
"242015","346-TH","2018/04/03 16:49:18","新北市新莊區三和路12-18號","121.441923333333","25.0376383333333","6500500","新莊區"
"242021","348-TH","2018/04/03 16:49:25","新北市新莊區新泰路357巷3弄57號","121.441913333333","25.0396066666667","6500500","新莊區"
"239002","359-BY","2018/04/03 16:38:44","新北市鶯歌區二甲路171-1號","121.34381","24.93569","6500800","鶯歌區"
