"lineid","car","time","location","longitude","latitude","cityid","cityname"
"234046","148-BY","2018/04/03 19:29:24","新北市永和區秀朗路二段178號","121.52644","25.0011966666667","6500400","永和區"
"234070","149-BY","2018/04/03 19:29:23","新北市永和區警光街5-1號","121.519606666667","25.00947","6500400","永和區"
"234007","207-UY","2018/04/03 19:29:16","新北市永和區中山路一段19號","121.513905","25.0104483333333","6500400","永和區"
"234081","298-R6","2018/04/03 19:29:22","新北市永和區林森路4號","121.526703333333","25.0057516666667","6500400","永和區"
"234038","336-UY","2018/04/03 19:29:22","新北市永和區民樂街38號","121.52751","25.000675","6500400","永和區"
"234064","337-UY","2018/04/03 19:29:23","新北市永和區得和路243巷28弄1號","121.520813333333","25.0013683333333","6500400","永和區"
"234086","338-UY","2018/04/03 19:29:24","新北市永和區林森路62號","121.523965","25.004195","6500400","永和區"
"234017","745-BX","2018/04/03 19:29:14","新北市永和區環河西路一段87號","121.51236","25.0178966666667","6500400","永和區"
"234030","746-BX","2018/04/03 19:29:27","新北市永和區民生路57號","121.522703333333","24.9975833333333","6500400","永和區"
"234054","KEA-2590","2018/04/03 19:29:23","新北市永和區復興街11號","121.515953333333","25.0129833333333","6500400","永和區"
"234013","KEA-2591","2018/04/03 19:29:29","新北市永和區永和路二段50號","121.514821666667","25.0107833333333","6500400","永和區"
"234061","AAD-866","2018/04/03 19:29:26","新北市永和區中正路568號","121.517185","25.0062083333333","6500400","永和區"
"234042","862-TW","2018/04/03 19:29:23","新北市永和區中和路597巷4號","121.512135","25.0045233333333","6500400","永和區"
"234050","863-TW","2018/04/03 19:29:24","新北市永和區仁愛路132號","121.511083333333","25.0130283333333","6500400","永和區"
"234026","9371-KE","2018/04/03 19:29:31","新北市永和區安樂路96號","121.514221666667","24.9991266666667","6500400","永和區"
"234011","9373-KE","2018/04/03 19:29:24","新北市永和區保福路二段163巷13弄16號","121.509218333333","25.0142116666667","6500400","永和區"
"249003","593-UM","2018/04/03 19:29:19","新北市八里區中山路二段486號","121.398616666667","25.1470016666667","6502300","八里區"
"248016","026-BX","2018/04/03 19:16:35","新北市五股區成洲五路12號","121.45236","25.10153","6501500","五股區"
"248008","095-VK","2018/04/03 19:29:18","新北市五股區中興路一段97號","121.466638333333","25.0729516666667","6501500","五股區"
"248020","225-UY","2018/04/03 19:29:12","新北市五股區凌雲路三段35-1號","121.430388333333","25.1166016666667","6501500","五股區"
"248012","247-BX","2018/04/03 19:29:23","新北市五股區成泰路二段97號","121.43795","25.0842883333333","6501500","五股區"
"248014","261-SL","2018/04/03 19:29:22","新北市五股區民義路一段183巷9-1號","121.430531666667","25.0870533333333","6501500","五股區"
"248004","677-BX","2018/04/03 19:29:22","新北市五股區五福路85-1號","121.432388333333","25.09038","6501500","五股區"
"248002","678-BX","2018/04/03 19:29:29","新北市五股區凌雲路一段158巷14-1號","121.447838333333","25.1034566666667","6501500","五股區"
"248010","682-TV","2018/04/03 19:29:22","新北市五股區水碓一路23號","121.430606666667","25.07125","6501500","五股區"
"234023","9380-KE","2018/04/03 19:29:15","新北市永和區竹林路91巷43弄2號","121.521303333333","25.01287","6500400","永和區"
"234077","969-R7","2018/04/03 19:29:32","新北市永和區民權路58巷2弄1號","121.519478333333","24.9983483333333","6500400","永和區"
"234074","AAC-211","2018/04/03 19:29:31","新北市永和區永和路二段254號","121.516261666667","25.0148833333333","6500400","永和區"
"234067","AAC-212","2018/04/03 19:29:28","新北市永和區永貞路360巷5號","121.51049","25.006945","6500400","永和區"
"234003","AAC-295","2018/04/03 19:29:23","新北市永和區永和路一段118號","121.514033333333","25.007835","6500400","永和區"
"244023","483-VK","2018/04/03 19:29:28","新北市林口區文化三路二段181-1號","121.376001666667","25.0824266666667","6501700","林口區"
"244019","657-BX","2018/04/03 19:29:30","新北市林口區文化二路一段579號","121.376141666667","25.0785983333333","6501700","林口區"
"243012","AAD-798","2018/04/03 19:29:17","新北市泰山區仁武街98號","121.432535","25.0543","6501600","泰山區"
"243011","297-R6","2018/04/03 19:29:22","新北市泰山區貴子路19-1號","121.427958333333","25.0408366666667","6501600","泰山區"
"243015","380-SR","2018/04/03 19:29:29","新北市泰山區公園路6號","121.429901666667","25.05411","6501600","泰山區"
"243014","421-VK","2018/04/03 19:29:20","新北市泰山區中港西路412號","121.43413","25.0541983333333","6501600","泰山區"
"243016","539-UM","2018/04/03 19:29:29","新北市泰山區工專路6號","121.423995","25.0394766666667","6501600","泰山區"
"243010","KEA-2215","2018/04/03 19:29:24","新北市泰山區民生路17巷40號","121.429425","25.0515133333333","6501600","泰山區"
"243009","KEA-2216","2018/04/03 19:29:17","新北市泰山區半山雅3號","121.431408333333","25.0673733333333","6501600","泰山區"
"243013","646-TV","2018/04/03 19:29:12","新北市泰山區貴子路36巷22號","121.425796666667","25.0407983333333","6501600","泰山區"
"222003","436-BY","2018/04/03 19:29:17","新北市深坑區深南路51-1號","121.621346666667","25.009675","6501800","深坑區"
"222002","659-BX","2018/04/03 19:29:10","新北市深坑區北深路一段177號","121.632533333333","25.01086","6501800","深坑區"
"231041","002-UM","2018/04/03 19:29:16","新北市新店區中正路620號","121.534095","24.9887233333333","6500600","新店區"
"231059","046-UY","2018/04/03 19:29:26","新北市新店區安和路三段46號","121.517998333333","24.9818366666667","6500600","新店區"
"231040","047-UY","2018/04/03 19:29:28","新北市新店區北新路一段28號","121.540881666667","24.9657433333333","6500600","新店區"
"231044","106-UY","2018/04/03 19:29:27","新北市新店區中興路三段134號","121.544705","24.9798266666667","6500600","新店區"
"231053","108-UY","2018/04/03 19:29:20","新北市新店區屈尺路72號","121.54686","24.92265","6500600","新店區"
"231048","187-VK","2018/04/03 19:29:17","新北市新店區中興路一段256號","121.544635","24.9668333333333","6500600","新店區"
"231046","188-VK","2018/04/03 19:29:32","新北市新店區中正路159號","121.541251666667","24.9719183333333","6500600","新店區"
"231054","KEA-2219","2018/04/03 19:29:20","新北市新店區文中路45號","121.539473333333","24.9567083333333","6500600","新店區"
"231057","256-BX","2018/04/03 19:29:22","新北市新店區花園一路三段57號","121.549658333333","24.9329966666667","6500600","新店區"
"231050","260-TV","2018/04/03 19:29:15","新北市新店區北宜路二段82巷11號","121.55377","24.9517683333333","6500600","新店區"
"231042","268-BY","2018/04/03 19:29:20","新北市新店區中興路一段62號","121.53927","24.959675","6500600","新店區"
"231051","278-BY","2018/04/03 19:29:19","新北市新店區中央路95巷2號","121.531436666667","24.9750033333333","6500600","新店區"
"231058","3713-VJ","2018/04/03 19:29:14","新北市新店區寶橋路85巷23號","121.54523","24.9761166666667","6500600","新店區"
"231066","4716-K9","2018/04/03 19:29:14","新北市新店區安康路三段165巷2弄10號","121.489105","24.951335","6500600","新店區"
"231065","512-UM","2018/04/03 19:29:23","新北市新店區安祥路109巷1弄97號","121.478861666667","24.960245","6500600","新店區"
"231049","513-UM","2018/04/03 19:29:29","新北市新店區北新路三段65巷12弄25號","121.5406","24.982","6500600","新店區"
"231045","617-UM","2018/04/03 19:29:16","新北市新店區北宜路二段213號","121.553236666667","24.9533466666667","6500600","新店區"
"231061","619-UM","2018/04/03 19:29:14","新北市新店區安康路一段302號","121.518356666667","24.9640683333333","6500600","新店區"
"231063","641-BX","2018/04/03 19:29:13","新北市新店區達觀路16號","121.502955","24.9410533333333","6500600","新店區"
"231064","719-UY","2018/04/03 19:29:23","新北市新店區安和路一段16號","121.517245","24.965235","6500600","新店區"
"231062","720-UM","2018/04/03 19:29:28","新北市新店區莒光路42號","121.523833333333","24.957145","6500600","新店區"
"231060","897-TW","2018/04/03 19:29:29","新北市新店區安康路二段67號","121.513916666667","24.9631583333333","6500600","新店區"
"231043","899-TW","2018/04/03 19:29:12","新北市新店區北新路二段226號","121.542895","24.9772366666667","6500600","新店區"
"231055","AKT-0513","2018/04/03 19:29:22","新北市新店區安民街365巷10弄5號","121.515503333333","24.9756916666667","6500600","新店區"
"241028","022-UY","2018/04/03 19:29:20","新北市三重區中寮街59號","121.493133333333","25.0580083333333","6500200","三重區"
"241008","059-VK","2018/04/03 19:29:20","新北市三重區永福街135巷38號","121.477256666667","25.0772666666667","6500200","三重區"
"241009","060-VK","2018/04/03 19:29:18","新北市三重區溪尾街242巷56號","121.486386666667","25.0815033333333","6500200","三重區"
"241031","061-VK","2018/04/03 19:29:28","新北市三重區集美街100號","121.488561666667","25.0540883333333","6500200","三重區"
"241017","063-VK","2018/04/03 19:29:25","新北市三重區中正北路25巷25弄2號","121.49324","25.062645","6500200","三重區"
"241026","066-VK","2018/04/03 19:29:10","新北市三重區文化南路47巷37號","121.499226666667","25.0610983333333","6500200","三重區"
"241022","267-UM","2018/04/03 19:29:22","新北市三重區三民街153-1號","121.484128333333","25.0643533333333","6500200","三重區"
"241032","269-UM","2018/04/03 19:29:15","新北市三重區三陽路64號","121.483826666667","25.0586566666667","6500200","三重區"
"241013","270-UM","2018/04/03 19:29:14","新北市三重區仁愛街125巷4號","121.496456666667","25.0753683333333","6500200","三重區"
"241025","271-UM","2018/04/03 19:29:21","新北市三重區頂崁街210巷28弄9號","121.4758","25.0672083333333","6500200","三重區"
"241007","398-BY","2018/04/03 19:29:11","新北市三重區溪尾街152號","121.488936666667","25.0799316666667","6500200","三重區"
"241035","462-BY","2018/04/03 19:29:17","新北市三重區信義西街1號","121.498135","25.06483","6500200","三重區"
"241020","478-VK","2018/04/03 19:29:32","新北市三重區三和路四段44巷4號","121.490183333333","25.0743766666667","6500200","三重區"
"241030","480-VK","2018/04/03 19:29:25","新北市三重區成功路41巷2號","121.490095","25.0514266666667","6500200","三重區"
"241006","AAD-863","2018/04/03 19:29:12","新北市三重區車路頭街76號","121.484376666667","25.0738066666667","6500200","三重區"
"241029","942-UM","2018/04/03 19:29:05","新北市三重區中正南路214號","121.493935","25.0550683333333","6500200","三重區"
"235066","003-UY","2018/04/03 19:29:32","新北市中和區中和路110號","121.502913333333","24.9995616666667","6500300","中和區"
"235064","005-UY","2018/04/03 19:29:29","新北市中和區景新街132巷18號","121.504391666667","24.9977433333333","6500300","中和區"
"235063","006-UY","2018/04/03 19:29:18","新北市中和區連城路164號","121.494136666667","24.99765","6500300","中和區"
"235056","096-UM","2018/04/03 19:29:29","新北市中和區中山路三段36號","121.478863333333","25.0058983333333","6500300","中和區"
"235065","098-UM","2018/04/03 19:29:12","新北市中和區中山路二段2巷5弄2號","121.504408333333","25.0064716666667","6500300","中和區"
"235040","150-BY","2018/04/03 19:29:15","新北市中和區保健路46巷26弄24號","121.507943333333","24.9956716666667","6500300","中和區"
"235058","151-BY","2018/04/03 19:29:15","新北市中和區員山路36巷16-2號","121.485233333333","24.9915716666667","6500300","中和區"
"235055","183-VK","2018/04/03 19:29:23","新北市中和區莒光路84巷21號","121.471571666667","25.0019283333333","6500300","中和區"
"235038","185-VK","2018/04/03 19:29:22","新北市中和區自立路39號","121.522063333333","24.9952816666667","6500300","中和區"
"235049","186-VK","2018/04/03 19:29:31","新北市中和區景新街285巷10號","121.51023","24.993545","6500300","中和區"
"235067","255-BX","2018/04/03 19:29:29","新北市中和區連城路467-1號","121.484046666667","24.99612","6500300","中和區"
"235044","293-VK","2018/04/03 19:29:27","新北市中和區捷運路155號","121.506381666667","24.991015","6500300","中和區"
"235072","301-VK","2018/04/03 19:29:12","新北市中和區連城路265巷3號","121.491453333333","24.99609","6500300","中和區"
"235043","352-BY","2018/04/03 19:29:24","新北市中和區南山路88號","121.502708333333","24.9949366666667","6500300","中和區"
"235068","377-QA","2018/04/03 19:29:18","新北市中和區連勝街57巷20號","121.498076666667","24.9964716666667","6500300","中和區"
"235061","378-QA","2018/04/03 19:29:09","新北市中和區員山路150-28號","121.48133","24.9981733333333","6500300","中和區"
"235050","4979-A6","2018/04/03 19:29:24","新北市中和區中正路155號","121.498885","24.9933866666667","6500300","中和區"
"235069","4980-A6","2018/04/03 19:29:30","新北市中和區中山路二段134-7號","121.501998333333","25.0035216666667","6500300","中和區"
"235042","551-UM","2018/04/03 19:29:19","新北市中和區安樂路217巷37號","121.513451666667","24.9979766666667","6500300","中和區"
"235070","558-UM","2018/04/03 19:29:19","新北市中和區中和路64號","121.500821666667","25.0008383333333","6500300","中和區"
"235045","565-BX","2018/04/03 19:29:29","新北市中和區景新街399巷8號","121.512943333333","24.98981","6500300","中和區"
"235054","640-BX","2018/04/03 19:29:13","新北市中和區國光街112巷22弄2-4號","121.469733333333","25.00229","6500300","中和區"
"235047","732-UM","2018/04/03 19:29:31","新北市中和區景平路241巷55號","121.508055","24.992225","6500300","中和區"
"235046","733-UM","2018/04/03 19:29:25","新北市中和區忠孝街37巷30號","121.510846666667","24.9843883333333","6500300","中和區"
"235071","783-BX","2018/04/03 19:29:27","新北市中和區中正路637巷18弄3號","121.484565","24.995025","6500300","中和區"
"235057","801-TS","2018/04/03 19:29:21","新北市中和區中山路三段37巷37號","121.479601666667","25.0047233333333","6500300","中和區"
"235041","802-TS","2018/04/03 19:29:21","新北市中和區中和路350巷10號","121.51073","25.0005266666667","6500300","中和區"
"235052","805-TS","2018/04/03 19:29:29","新北市中和區華新街143巷69弄16號","121.507615","24.9789166666667","6500300","中和區"
"235048","896-TW","2018/04/03 19:29:32","新北市中和區忠孝街184號","121.512851666667","24.9881633333333","6500300","中和區"
"235053","900-TW","2018/04/03 19:29:15","新北市中和區華順街58號","121.465575","24.99845","6500300","中和區"
"235060","911-UM","2018/04/03 19:29:15","新北市中和區新生街114巷2號","121.483256666667","25.002385","6500300","中和區"
"235051","157-BY","2018/04/03 19:29:18","新北市中和區景新街130號","121.505223333333","24.9979916666667","6500300","中和區"
"235037","AAC-213","2018/04/03 19:29:11","新北市中和區秀朗路三段10巷14弄16號","121.524956666667","24.9966066666667","6500300","中和區"
"235059","AAC-215","2018/04/03 19:29:22","新北市中和區圓通路252巷6-1號","121.4929","24.991775","6500300","中和區"
"220065","072-UY","2018/04/03 19:29:16","新北市板橋區國泰街75巷28弄15號","121.467716666667","25.0049066666667","6500100","板橋區"
"220086","073-UY","2018/04/03 19:29:10","新北市板橋區中正路236巷56號","121.457615","25.01932","6500100","板橋區"
"220069","AAD-861","2018/04/03 19:29:14","新北市板橋區稚暉街35號","121.457076666667","25.0040966666667","6500100","板橋區"
"226004","205-ST","2018/04/03 19:29:16","新北市平溪區靜安路三段392巷3號","121.784388333333","25.04951","6502400","平溪區"
"235039","251-BX","2018/04/03 19:29:17","新北市中和區秀峰街87號","121.521323333333","24.9902816666667","6500300","中和區"
"228003","097-TW","2018/04/03 19:29:20","新北市貢寮區和美里和美街22-1號","121.912785","25.0826266666667","6502600","貢寮區"
"228001","212-TW","2018/04/03 19:29:12","新北市貢寮區真理里延平街68號","121.925383333333","25.0573966666667","6502600","貢寮區"
"228002","663-BX","2018/04/03 19:29:22","新北市貢寮區龍門里龍門街78號","121.931066666667","25.0267083333333","6502600","貢寮區"
"224010","AGQ-8101","2018/04/03 19:29:24","新北市瑞芳區基山街165號","121.843421666667","25.1080616666667","6501200","瑞芳區"
"227003","642-TC","2018/04/03 19:29:29","新北市雙溪區雙溪里光復街3號","121.865095","25.0354833333333","6502500","雙溪區"
"227009","400-TW","2018/04/03 19:29:28","新北市雙溪區新基里新基北街43號","121.86816","25.03969","6502500","雙溪區"
"253005","032-BX","2018/04/03 19:29:24","新北市石門區小坑9號","121.59403","25.2887216666667","6502200","石門區"
"253006","295-VK","2018/04/03 19:29:16","新北市石門區老崩山2-1號","121.554995","25.291715","6502200","石門區"
"222001","KEA-2212","2018/04/03 19:29:32","新北市深坑區北深路二段121號","121.616673333333","25.0030716666667","6501800","深坑區"
"208002","KEA-2872","2018/04/03 19:29:23","新北市金山區仁愛路87巷1號","121.63461","25.221495","6502700","金山區"
"208003","665-BX","2018/04/03 19:29:26","新北市金山區中山路263巷14號","121.636343333333","25.2215933333333","6502700","金山區"
"208001","761-BX","2018/04/03 19:29:29","新北市金山區金包里街156號","121.637363333333","25.22261","6502700","金山區"
"251001","011-UM","2018/04/03 19:29:25","新北市淡水區民權路139-1號","121.460106666667","25.1364916666667","6501000","淡水區"
"251013","179-VK","2018/04/03 19:29:17","新北市淡水區安子內18號","121.472825","25.2188783333333","6501000","淡水區"
"251014","180-VK","2018/04/03 19:29:19","新北市淡水區小中寮19-7號","121.484755","25.22968","6501000","淡水區"
"251015","182-VK","2018/04/03 19:29:17","新北市淡水區北新路三段169-8號","121.491343333333","25.19033","6501000","淡水區"
"251010","413-VK","2018/04/03 19:28:13","新北市淡水區中正路二段142-10號","121.42277","25.1876483333333","6501000","淡水區"
"251012","441-VK","2018/04/03 19:29:13","新北市淡水區中山北路三段164號","121.445701666667","25.196555","6501000","淡水區"
"251016","442-VK","2018/04/03 19:29:25","新北市淡水區淡金路三段350巷18號","121.45079","25.2083883333333","6501000","淡水區"
"251005","443-VK","2018/04/03 19:29:11","新北市淡水區水源街一段71巷13號","121.444433333333","25.1729383333333","6501000","淡水區"
"251006","561-UM","2018/04/03 19:29:29","新北市淡水區大義街27號","121.44257","25.1783116666667","6501000","淡水區"
"251009","575-R6","2018/04/03 19:29:18","新北市淡水區大忠街5巷9號","121.443366666667","25.1765233333333","6501000","淡水區"
"251007","577-R6","2018/04/03 19:29:14","新北市淡水區坪頂路46號","121.457765","25.162265","6501000","淡水區"
"251011","650-BX","2018/04/03 19:29:14","新北市淡水區中正東路二段161巷11弄22號","121.460603333333","25.145755","6501000","淡水區"
"251003","673-BX","2018/04/03 19:29:16","新北市淡水區中山北路二段181號","121.444238333333","25.18488","6501000","淡水區"
"207003","291-VK","2018/04/03 19:29:19","新北市萬里區大鵬里萬里加投209號","121.644205","25.215525","6502800","萬里區"
"207004","225-TW","2018/04/03 19:29:22","新北市萬里區萬里里瑪鋉路135號","121.688928333333","25.1777483333333","6502800","萬里區"
"252002","178-VK","2018/04/03 19:29:21","新北市三芝區淡金路二段18-1號","121.502698333333","25.2594833333333","6502100","三芝區"
"252001","292-VK","2018/04/03 19:29:18","新北市三芝區長勤街52-1號","121.500136666667","25.25546","6502100","三芝區"
"237004","KEA-2597","2018/04/03 19:29:18","新北市三峽區有木205-1號","121.439033333333","24.851495","6500900","三峽區"
"237007","153-BY","2018/04/03 19:29:22","新北市三峽區二鬮路136巷14號","121.359178333333","24.90798","6500900","三峽區"
"237009","210-TH","2018/04/03 19:29:26","新北市三峽區中山路8號","121.369853333333","24.9342833333333","6500900","三峽區"
"237013","252-BX","2018/04/03 19:29:25","新北市三峽區介壽路一段237號","121.379493333333","24.9302116666667","6500900","三峽區"
"237012","275-BY","2018/04/03 19:29:15","新北市三峽區三樹路98巷175號","121.384568333333","24.9399633333333","6500900","三峽區"
"237008","302-VK","2018/04/03 19:29:18","新北市三峽區永安街183號","121.373163333333","24.9267633333333","6500900","三峽區"
"237014","433-BY","2018/04/03 19:29:23","新北市三峽區中山路67巷32號","121.366936666667","24.9342666666667","6500900","三峽區"
"237006","5529-G3","2018/04/03 19:29:11","新北市三峽區中正路一段336巷15弄2號","121.36996","24.9249516666667","6500900","三峽區"
"237005","AKY-6261","2018/04/03 19:29:13","新北市三峽區復興路367巷1弄13號","121.364","24.9381416666667","6500900","三峽區"
"236070","105-UM","2018/04/03 19:29:32","新北市土城區學成路76巷2-1號","121.451426666667","24.9884266666667","6501300","土城區"
"236079","166-UM","2018/04/03 19:29:18","新北市土城區中州路14號","121.414776666667","24.9572533333333","6501300","土城區"
"236026","269-VK","2018/04/03 19:29:11","新北市土城區中央路二段61巷22號","121.443211666667","24.97869","6501300","土城區"
"236014","270-VK","2018/04/03 19:29:14","新北市土城區廣福街121號","121.456266666667","24.9928033333333","6501300","土城區"
"236021","401-BY","2018/04/03 19:29:27","新北市土城區峰廷街3號","121.469118333333","24.987275","6501300","土城區"
"236059","912-UM","2018/04/03 19:29:22","新北市土城區中央路二段150號","121.44194","24.9770216666667","6501300","土城區"
"236049","913-UM","2018/04/03 19:29:14","新北市土城區清水路203號","121.460041666667","24.981675","6501300","土城區"
"236063","915-UM","2018/04/03 19:29:17","新北市土城區金城路三段202-3號","121.469428333333","24.9885033333333","6501300","土城區"
"242027","615-BX","2018/04/03 19:29:09","新北市新莊區新泰路255巷83號","121.442206666667","25.038835","6500500","新莊區"
"242023","362-BY","2018/04/03 19:29:29","新北市新莊區三和路12-21號","121.44215","25.03848","6500500","新莊區"
"242032","135-UY","2018/04/03 19:29:13","新北市新莊區新泰路225巷20號","121.445305","25.0391666666667","6500500","新莊區"
"242021","348-TH","2018/04/03 19:29:24","新北市新莊區新泰路357巷3弄57號","121.44176","25.0395733333333","6500500","新莊區"
"242013","351-TH","2018/04/03 19:29:11","新北市新莊區中環路二段392-1號","121.44236","25.045625","6500500","新莊區"
"238015","755-BX","2018/04/03 19:29:14","新北市樹林區復興路227號","121.419881666667","24.9908366666667","6500700","樹林區"
"238023","601-UM","2018/04/03 19:29:28","新北市樹林區三福街25號","121.408675","25.0167266666667","6500700","樹林區"
"238019","599-UM","2018/04/03 19:29:27","新北市樹林區鎮前街411巷1號","121.415206666667","24.98314","6500700","樹林區"
"238018","571-TV","2018/04/03 19:29:28","新北市樹林區中華路172-3號","121.413926666667","24.9803933333333","6500700","樹林區"
"238024","5061-A6","2018/04/03 19:29:30","新北市樹林區中山路三段92號","121.393176666667","24.972255","6500700","樹林區"
"238021","KEA-2217","2018/04/03 19:29:15","新北市樹林區學府路600號","121.383545","24.9509533333333","6500700","樹林區"
"238025","303-VK","2018/04/03 19:29:25","新北市樹林區保安二街12號","121.424953333333","24.9940316666667","6500700","樹林區"
"238017","283-BY","2018/04/03 19:29:30","新北市樹林區光興街157巷30號","121.406811666667","25.0041516666667","6500700","樹林區"
"238014","282-BY","2018/04/03 19:29:16","新北市樹林區保安二街40巷26號","121.42579","24.99507","6500700","樹林區"
"238026","172-UY","2018/04/03 19:29:17","新北市樹林區佳園路三段7號","121.388395","24.9554033333333","6500700","樹林區"
"238016","169-UY","2018/04/03 19:29:19","新北市樹林區復興路404號","121.414598333333","24.9850466666667","6500700","樹林區"
"239007","AAC-297","2018/04/03 19:29:16","新北市鶯歌區大湖路余厝巷1-7號","121.342695","24.9612266666667","6500800","鶯歌區"
"239006","891-R6","2018/04/03 19:29:14","新北市鶯歌區文化路72-2號","121.355081666667","24.9538583333333","6500800","鶯歌區"
"239001","417-VK","2018/04/03 19:29:19","新北市鶯歌區建國路409號","121.3379","24.95096","6500800","鶯歌區"
"239003","360-BY","2018/04/03 19:29:28","新北市鶯歌區國華路1-3號","121.343428333333","24.9569616666667","6500800","鶯歌區"
"239002","359-BY","2018/04/03 19:29:24","新北市鶯歌區大湖路424號","121.342256666667","24.9728433333333","6500800","鶯歌區"
"239004","193-VK","2018/04/03 19:29:23","新北市鶯歌區二甲路41-1號","121.337741666667","24.9347516666667","6500800","鶯歌區"
"221008","489-VK","2018/04/03 19:29:27","新北市汐止區康寧街235號","121.624056666667","25.066805","6501100","汐止區"
"221036","130-UY","2018/04/03 19:29:25","新北市汐止區康寧街901號","121.650933333333","25.0752033333333","6501100","汐止區"
"221015","131-UY","2018/04/03 19:29:23","新北市汐止區康寧街901號","121.651683333333","25.0749766666667","6501100","汐止區"
"221010","269-BY","2018/04/03 19:29:28","新北市汐止區連峰街3巷1號","121.646548333333","25.0764316666667","6501100","汐止區"
"221012","278-VK","2018/04/03 19:29:14","新北市汐止區大同路三段271號","121.674138333333","25.0756466666667","6501100","汐止區"
"221027","281-BY","2018/04/03 19:29:30","新北市汐止區忠孝東路9號","121.65829","25.0659183333333","6501100","汐止區"
"221029","298-VK","2018/04/03 19:29:16","新北市汐止區康寧街901號","121.651566666667","25.07491","6501100","汐止區"
"221031","353-TW","2018/04/03 19:29:16","新北市汐止區康寧街901號","121.650861666667","25.075225","6501100","汐止區"
"221025","623-UM","2018/04/03 19:29:25","新北市汐止區秀峰路60號","121.659391666667","25.0656283333333","6501100","汐止區"
"221038","646-BX","2018/04/03 19:29:16","新北市汐止區汐萬路一段4號","121.656198333333","25.0672816666667","6501100","汐止區"
"221002","707-TV","2018/04/03 19:29:22","新北市汐止區大同路一段337巷17弄1號","121.637328333333","25.0599083333333","6501100","汐止區"
"220079","145-BY","2018/04/03 19:29:25","新北市板橋區中正路140號","121.456966666667","25.0160216666667","6500100","板橋區"
"220080","200-UY","2018/04/03 19:29:16","新北市板橋區大觀路二段3巷58號","121.449095","25.0034433333333","6500100","板橋區"
"220106","KEA-2550","2018/04/03 19:29:20","新北市板橋區文化路二段441巷2弄1號","121.474731666667","25.0334233333333","6500100","板橋區"
"220082","610-BX","2018/04/03 19:29:32","新北市板橋區金門街302號","121.42899","24.9855583333333","6500100","板橋區"
"220103","257-TC","2018/04/03 19:29:13","新北市板橋區文化路一段220號","121.466625","25.0205783333333","6500100","板橋區"
"220091","267-BY","2018/04/03 19:29:11","新北市板橋區文聖街149巷25號","121.479515","25.028575","6500100","板橋區"
"220072","277-BY","2018/04/03 19:29:26","新北市板橋區篤行路二段151巷10號","121.43031","24.98752","6500100","板橋區"
"220101","280-UM","2018/04/03 19:29:27","新北市板橋區萬板路192-2號","121.47663","25.0236366666667","6500100","板橋區"
"220077","282-UM","2018/04/03 19:29:22","新北市板橋區僑中二街124巷2號","121.44546","25.00554","6500100","板橋區"
"220071","283-VK","2018/04/03 19:29:25","新北市板橋區忠孝路24巷29號","121.460278333333","25.0007766666667","6500100","板橋區"
"220094","285-UM","2018/04/03 19:29:25","新北市板橋區吳鳳路17巷3號","121.467715","25.030065","6500100","板橋區"
"220053","285-VK","2018/04/03 19:29:16","新北市板橋區富山街71巷10-2號","121.476713333333","25.0214933333333","6500100","板橋區"
"220083","286-VK","2018/04/03 19:29:29","新北市板橋區龍興街71巷9號","121.443333333333","25.0019616666667","6500100","板橋區"
"220081","287-VK","2018/04/03 19:29:15","新北市板橋區南雅西路一段122號","121.45221","25.0064183333333","6500100","板橋區"
"220090","288-VK","2018/04/03 19:29:33","新北市板橋區長江路一段106巷12弄9號","121.459866666667","25.02873","6500100","板橋區"
"220061","293-UM","2018/04/03 19:29:16","新北市板橋區中山路二段287號","121.478195","25.0180233333333","6500100","板橋區"
"220084","296-UM","2018/04/03 19:29:28","新北市板橋區篤行路三段玉平巷76弄11號","121.42728","24.9859966666667","6500100","板橋區"
"220075","303-R5","2018/04/03 19:29:22","新北市板橋區中正路249號","121.455816666667","25.0182533333333","6500100","板橋區"
"220062","305-R5","2018/04/03 19:29:18","新北市板橋區三民路二段153巷14號","121.480058333333","25.0149866666667","6500100","板橋區"
"220092","307-R5","2018/04/03 19:29:18","新北市板橋區松江街16號","121.469115","25.0263316666667","6500100","板橋區"
"220098","317-R6","2018/04/03 19:29:12","新北市板橋區民生路三段263巷7號","121.463508333333","25.0290866666667","6500100","板橋區"
"220064","486-VK","2018/04/03 19:29:25","新北市板橋區中山路一段59號","121.46099","25.0094816666667","6500100","板橋區"
"220088","491-VK","2018/04/03 19:29:16","新北市板橋區雙十路二段4號","121.477168333333","25.02543","6500100","板橋區"
"220035","560-BX","2018/04/03 19:29:25","新北市板橋區中正路332號","121.454303333333","25.022175","6500100","板橋區"
"220056","568-UM","2018/04/03 19:29:24","新北市板橋區干城路18號","121.459598333333","24.9935666666667","6500100","板橋區"
"220063","609-BX","2018/04/03 19:29:13","新北市板橋區三民路一段1巷42號","121.480305","25.0244183333333","6500100","板橋區"
"220055","630-UY","2018/04/03 19:29:27","新北市板橋區忠孝路191號","121.464521666667","25.0025883333333","6500100","板橋區"
"220057","686-BX","2018/04/03 19:29:28","新北市板橋區和平路182號","121.463605","24.9957833333333","6500100","板橋區"
"220093","689-BX","2018/04/03 19:29:27","新北市板橋區雨農路32號","121.46126","25.0242783333333","6500100","板橋區"
"220054","741-BX","2018/04/03 19:29:27","新北市板橋區光明街60號","121.461226666667","25.00257","6500100","板橋區"
"220102","KEA-2699","2018/04/03 19:29:28","新北市板橋區雙十路二段130巷2弄2號","121.474255","25.02911","6500100","板橋區"
"220067","829-TW","2018/04/03 19:29:28","新北市板橋區漢生東路338號","121.471938333333","25.0075333333333","6500100","板橋區"
"220068","830-TW","2018/04/03 19:29:27","新北市板橋區翠華街6巷123號","121.481813333333","25.0244833333333","6500100","板橋區"
"220096","831-TW","2018/04/03 19:29:29","新北市板橋區大同街35巷37號","121.476598333333","25.0272583333333","6500100","板橋區"
"220089","833-TW","2018/04/03 19:29:22","新北市板橋區文化路一段189號","121.463158333333","25.0164683333333","6500100","板橋區"
"220074","895-R6","2018/04/03 19:29:27","新北市板橋區中正路1巷14號","121.455255","25.0115966666667","6500100","板橋區"
"220073","985-R7","2018/04/03 19:29:23","新北市板橋區中正路274號","121.455223333333","25.0198516666667","6500100","板橋區"
"220097","AAC-210","2018/04/03 19:29:17","新北市板橋區陽明街243號","121.462915","25.0244833333333","6500100","板橋區"
"220070","AAC-253","2018/04/03 19:29:23","新北市板橋區四川路一段233號","121.460043333333","25.0029166666667","6500100","板橋區"
