"lineid","car","time","location","longitude","latitude","cityid","cityname"
"234046","148-BY","2018/04/03 20:09:28","新北市永和區得和路396號","121.525385","24.99916","6500400","永和區"
"234070","149-BY","2018/04/03 20:09:25","新北市永和區福和路185號","121.519901666667","25.0073983333333","6500400","永和區"
"234007","207-UY","2018/04/03 20:09:16","新北市永和區保生路22巷19弄5號","121.5069","25.00818","6500400","永和區"
"234081","298-R6","2018/04/03 20:09:22","新北市永和區永亨路107號","121.523333333333","25.0047916666667","6500400","永和區"
"234038","336-UY","2018/04/03 20:09:22","新北市永和區成功路一段47巷14號","121.527578333333","25.0039033333333","6500400","永和區"
"234064","337-UY","2018/04/03 20:09:19","新北市永和區永元路95號","121.522355","25.0017416666667","6500400","永和區"
"234086","338-UY","2018/04/03 20:09:24","新北市永和區中正路575-1號","121.516736666667","25.0086833333333","6500400","永和區"
"234017","745-BX","2018/04/03 20:09:14","新北市永和區文化路84號","121.513996666667","25.015135","6500400","永和區"
"234030","746-BX","2018/04/03 20:09:27","新北市永和區民權路49巷5弄28號","121.52188","24.9978466666667","6500400","永和區"
"234054","KEA-2590","2018/04/03 20:09:23","新北市永和區博愛街14號","121.516923333333","25.015775","6500400","永和區"
"234013","KEA-2591","2018/04/03 20:09:29","新北市永和區永貞路415號","121.507376666667","25.009325","6500400","永和區"
"234061","AAD-866","2018/04/03 20:09:26","新北市永和區中正路151巷5弄1號","121.515956666667","24.998535","6500400","永和區"
"234042","862-TW","2018/04/03 20:09:31","新北市永和區雙和街16巷10號","121.509853333333","25.0023766666667","6500400","永和區"
"234050","863-TW","2018/04/03 20:09:24","新北市永和區新生路194巷2號","121.505785","25.01353","6500400","永和區"
"234011","9373-KE","2018/04/03 20:09:24","新北市永和區環河西路二段245-1號","121.50045","25.0091766666667","6500400","永和區"
"249005","172-UM","2018/04/03 20:09:10","新北市八里區福德新村1號","121.38577","25.1365333333333","6502300","八里區"
"249001","173-UM","2018/04/03 20:09:29","新北市八里區中華路二段318號","121.403576666667","25.1481383333333","6502300","八里區"
"249004","303-UY","2018/04/03 20:09:28","新北市八里區中山路一段398巷51弄18號","121.410726666667","25.1587366666667","6502300","八里區"
"249002","305-UY","2018/04/03 20:09:13","新北市八里區龍米路一段2-1號","121.458041666667","25.11515","6502300","八里區"
"249003","593-UM","2018/04/03 20:09:19","新北市八里區中山路二段540巷9弄27號","121.396475","25.1465466666667","6502300","八里區"
"248008","095-VK","2018/04/03 20:09:18","新北市五股區中興路一段1巷28號","121.469776666667","25.070305","6501500","五股區"
"248020","225-UY","2018/04/03 20:09:32","新北市五股區凌雲路二段5號","121.445308333333","25.10251","6501500","五股區"
"248012","247-BX","2018/04/03 20:09:23","新北市五股區六合街97號","121.429845","25.09013","6501500","五股區"
"248014","261-SL","2018/04/03 20:09:22","新北市五股區成泰路三段83號","121.443938333333","25.090085","6501500","五股區"
"248004","677-BX","2018/04/03 20:09:22","新北市五股區成泰路一段30-1號","121.434976666667","25.0679316666667","6501500","五股區"
"248002","678-BX","2018/04/03 20:09:29","新北市五股區成泰路三段277號","121.447181666667","25.0940566666667","6501500","五股區"
"248010","682-TV","2018/04/03 20:09:21","新北市五股區成泰路一段7巷18號","121.433123333333","25.0668333333333","6501500","五股區"
"234023","9380-KE","2018/04/03 20:09:27","新北市永和區中正路662巷14號","121.517788333333","25.0087483333333","6500400","永和區"
"234077","969-R7","2018/04/03 20:09:32","新北市永和區民光街22巷2號","121.516078333333","24.9957416666667","6500400","永和區"
"234074","AAC-211","2018/04/03 20:09:21","新北市永和區豫溪街150巷2號","121.521851666667","25.0103583333333","6500400","永和區"
"234067","AAC-212","2018/04/03 20:09:20","新北市永和區保平路214巷8弄1號","121.509531666667","25.00631","6500400","永和區"
"234003","AAC-295","2018/04/03 20:09:23","新北市永和區中正路613號","121.516285","25.0097416666667","6500400","永和區"
"243012","AAD-798","2018/04/03 20:09:17","新北市泰山區楓江路48號","121.435133333333","25.0623566666667","6501600","泰山區"
"243011","297-R6","2018/04/03 20:09:22","新北市泰山區明志路三段413號","121.420996666667","25.033765","6501600","泰山區"
"243015","380-SR","2018/04/03 20:08:29","新北市泰山區明志路二段210-2號","121.427436666667","25.0490833333333","6501600","泰山區"
"243014","421-VK","2018/04/03 20:09:20","新北市泰山區明志路一段17號","121.433645","25.0658016666667","6501600","泰山區"
"243016","539-UM","2018/04/03 20:09:29","新北市泰山區貴陽街29號","121.422158333333","25.0331716666667","6501600","泰山區"
"243010","KEA-2215","2018/04/03 20:09:28","新北市泰山區明志路二段136巷24號","121.426218333333","25.051955","6501600","泰山區"
"243009","KEA-2216","2018/04/03 20:09:17","新北市泰山區泰林路二段116巷4弄1號","121.435218333333","25.059565","6501600","泰山區"
"243013","646-TV","2018/04/03 20:09:29","新北市泰山區民國街11號","121.42536","25.0436183333333","6501600","泰山區"
"222003","436-BY","2018/04/03 20:09:18","新北市深坑區埔新街61巷2號","121.620183333333","25.0022116666667","6501800","深坑區"
"222002","659-BX","2018/04/03 20:09:30","新北市深坑區北深路三段160號","121.602595","25.0032766666667","6501800","深坑區"
"231041","002-UM","2018/04/03 20:09:16","新北市新店區中正路460號","121.534015","24.9793983333333","6500600","新店區"
"231059","046-UY","2018/04/03 20:09:26","新北市新店區安德街38號","121.511441666667","24.96265","6500600","新店區"
"231040","047-UY","2018/04/03 20:09:23","新北市新店區中正路108號","121.543085","24.97068","6500600","新店區"
"231044","106-UY","2018/04/03 20:09:27","新北市新店區寶慶街58巷4號","121.542045","24.9869466666667","6500600","新店區"
"231053","108-UY","2018/04/03 20:09:20","新北市新店區新烏路三段310-2號","121.54762","24.89685","6500600","新店區"
"231048","187-VK","2018/04/03 20:09:29","新北市新店區永華街53號","121.544478333333","24.9758016666667","6500600","新店區"
"231054","KEA-2219","2018/04/03 20:09:20","新北市新店區檳榔路34號","121.541458333333","24.9638833333333","6500600","新店區"
"231057","256-BX","2018/04/03 20:09:22","新北市新店區花園一路一段2號","121.553103333333","24.93241","6500600","新店區"
"231050","260-TV","2018/04/03 20:09:15","新北市新店區大新街18號","121.542933333333","24.9685333333333","6500600","新店區"
"231042","268-BY","2018/04/03 20:09:20","新北市新店區中興路二段41號","121.546388333333","24.9700133333333","6500600","新店區"
"231051","278-BY","2018/04/03 20:09:19","新北市新店區中央一街10號","121.528755","24.9727833333333","6500600","新店區"
"231066","4716-K9","2018/04/03 20:09:35","新北市新店區安民街172號","121.51678","24.9707316666667","6500600","新店區"
"231056","4715-K9","2018/04/03 20:09:14","新北市新店區北新路二段173號","121.54287","24.9767466666667","6500600","新店區"
"231065","512-UM","2018/04/03 20:09:23","新北市新店區安祥路106巷179號","121.473968333333","24.9596866666667","6500600","新店區"
"231049","513-UM","2018/04/03 20:09:29","新北市新店區北新路二段97巷10弄2號","121.542251666667","24.974625","6500600","新店區"
"231045","617-UM","2018/04/03 20:09:16","新北市新店區北宜路一段121-3號","121.540315","24.9538216666667","6500600","新店區"
"231061","619-UM","2018/04/03 20:09:14","新北市新店區安民街133巷26號","121.51534","24.9694133333333","6500600","新店區"
"231063","641-BX","2018/04/03 20:09:13","新北市新店區黎明路54巷1號","121.502316666667","24.9481383333333","6500600","新店區"
"231068","718-UY","2018/04/03 20:09:18","新北市新店區中興路三段213號","121.54355","24.981975","6500600","新店區"
"231064","719-UY","2018/04/03 20:09:23","新北市新店區安康路二段142巷20號","121.511613333333","24.9625566666667","6500600","新店區"
"231062","720-UM","2018/04/03 20:09:28","新北市新店區安康路二段89號","121.513221666667","24.9628066666667","6500600","新店區"
"231060","897-TW","2018/04/03 20:09:29","新北市新店區安康路三段195號","121.487951666667","24.9516433333333","6500600","新店區"
"231043","899-TW","2018/04/03 20:09:31","新北市新店區民族路184號","121.536941666667","24.9761283333333","6500600","新店區"
"231055","AKT-0513","2018/04/03 20:09:22","新北市新店區中華路42巷22號","121.54081","24.9688066666667","6500600","新店區"
"241011","013-R5","2018/04/03 20:09:33","新北市三重區仁愛街38號","121.496418333333","25.0719816666667","6500200","三重區"
"241028","022-UY","2018/04/03 20:09:19","新北市三重區仁化街137號","121.49468","25.057495","6500200","三重區"
"241008","059-VK","2018/04/03 20:09:20","新北市三重區永福街197巷17號","121.478763333333","25.074405","6500200","三重區"
"241009","060-VK","2018/04/03 20:09:18","新北市三重區永福街10巷5號","121.482926666667","25.0778783333333","6500200","三重區"
"241031","061-VK","2018/04/03 20:09:28","新北市三重區過圳街9-1號","121.488808333333","25.060295","6500200","三重區"
"241015","062-VK","2018/04/03 20:09:26","新北市三重區福德北路24號","121.502271666667","25.0648616666667","6500200","三重區"
"241017","063-VK","2018/04/03 20:09:25","新北市三重區長壽西街181號","121.49242","25.0663666666667","6500200","三重區"
"241024","065-VK","2018/04/03 20:09:21","新北市三重區中正北路165巷2號","121.47881","25.0694816666667","6500200","三重區"
"241026","066-VK","2018/04/03 20:09:10","新北市三重區福德南路65巷2號","121.502396666667","25.0604966666667","6500200","三重區"
"241002","090-VK","2018/04/03 20:09:29","新北市三重區仁忠街49號","121.49505","25.0815483333333","6500200","三重區"
"241003","091-VK","2018/04/03 20:09:12","新北市三重區富華街18號","121.489638333333","25.08246","6500200","三重區"
"241005","262-UM","2018/04/03 20:09:20","新北市三重區碧華街294巷9號","121.48927","25.0839683333333","6500200","三重區"
"241016","265-UM","2018/04/03 20:09:28","新北市三重區大同北路54巷4號","121.494038333333","25.0634433333333","6500200","三重區"
"241022","267-UM","2018/04/03 20:09:22","新北市三重區新北大道一段48號","121.487773333333","25.0614266666667","6500200","三重區"
"241018","268-UM","2018/04/03 20:09:28","新北市三重區自強路一段236號","121.493286666667","25.0670183333333","6500200","三重區"
"241032","269-UM","2018/04/03 20:09:15","新北市三重區捷運路65號","121.483391666667","25.0556233333333","6500200","三重區"
"241013","270-UM","2018/04/03 20:09:26","新北市三重區三和路三段139巷38號","121.494016666667","25.0741166666667","6500200","三重區"
"241025","271-UM","2018/04/03 20:09:20","新北市三重區中正北路430號","121.474575","25.07111","6500200","三重區"
"241007","398-BY","2018/04/03 20:09:31","新北市三重區三和路四段111-33號","121.486366666667","25.0773833333333","6500200","三重區"
"241035","462-BY","2018/04/03 20:09:17","新北市三重區平安街15號","121.498591666667","25.064345","6500200","三重區"
"241004","475-VK","2018/04/03 20:09:25","新北市三重區仁愛街354號","121.491565","25.08022","6500200","三重區"
"241020","478-VK","2018/04/03 20:09:12","新北市三重區後竹圍街2巷1弄2號","121.491711666667","25.0733616666667","6500200","三重區"
"241030","480-VK","2018/04/03 20:09:19","新北市三重區成功路145巷33號","121.487783333333","25.05308","6500200","三重區"
"241014","543-UM","2018/04/03 20:09:21","新北市三重區長樂街110號","121.501541666667","25.0695083333333","6500200","三重區"
"241023","545-UM","2018/04/03 20:09:22","新北市三重區頂崁街218號","121.476973333333","25.0679666666667","6500200","三重區"
"241019","KEA-2593","2018/04/03 20:09:26","新北市三重區自強路二段28號","121.489441666667","25.0693283333333","6500200","三重區"
"241001","887-TS","2018/04/03 20:09:15","新北市三重區三和路四段89巷32號","121.490391666667","25.0762333333333","6500200","三重區"
"241012","941-UM","2018/04/03 20:09:29","新北市三重區仁福街64巷23號","121.497776666667","25.0754483333333","6500200","三重區"
"241029","942-UM","2018/04/03 20:09:25","新北市三重區光明路32巷23弄1號","121.492068333333","25.0587433333333","6500200","三重區"
"241033","AAC-255","2018/04/03 20:09:19","新北市三重區光復路一段61巷27號","121.473678333333","25.0491983333333","6500200","三重區"
"235066","003-UY","2018/04/03 20:09:18","新北市中和區保平路300號","121.507706666667","25.0045233333333","6500300","中和區"
"235065","098-UM","2018/04/03 20:09:12","新北市中和區永和路90巷4弄4號","121.49766","25.0060016666667","6500300","中和區"
"235040","150-BY","2018/04/03 20:09:25","新北市中和區保健路33巷13號","121.509341666667","24.997885","6500300","中和區"
"235068","377-QA","2018/04/03 20:09:18","新北市中和區中山路二段269號","121.496681666667","25.002235","6500300","中和區"
"235050","4979-A6","2018/04/03 20:09:24","新北市中和區安樂路66號","121.51216","24.9933133333333","6500300","中和區"
"235069","4980-A6","2018/04/03 20:09:30","新北市中和區南山路39號","121.502073333333","24.9988016666667","6500300","中和區"
"235070","558-UM","2018/04/03 20:09:19","新北市中和區連城路263巷26號","121.492736666667","24.9943116666667","6500300","中和區"
"235046","733-UM","2018/04/03 20:09:25","新北市中和區忠孝街31巷6號","121.51034","24.9835666666667","6500300","中和區"
"235051","157-BY","2018/04/03 20:09:18","新北市中和區復興路280巷24號","121.501911666667","24.9917366666667","6500300","中和區"
"235059","AAC-215","2018/04/03 20:09:22","新北市中和區圓通路335巷37弄12號","121.493761666667","24.988895","6500300","中和區"
"220069","AAD-861","2018/04/03 20:09:33","新北市板橋區貴興路79號","121.456833333333","25.0028666666667","6500100","板橋區"
"247024","893-R6","2018/04/03 20:09:24","新北市蘆洲區光榮路120巷9號","121.465348333333","25.0886483333333","6501400","蘆洲區"
"247014","546-UM","2018/04/03 20:09:19","新北市蘆洲區和平路52-1號","121.470333333333","25.0795133333333","6501400","蘆洲區"
"247022","500-BY","2018/04/03 20:09:21","新北市蘆洲區三民路173號","121.471143333333","25.0872116666667","6501400","蘆洲區"
"247010","341-TH","2018/04/03 20:09:16","新北市蘆洲區集賢路380號","121.48037","25.082565","6501400","蘆洲區"
"247012","339-TH","2018/04/03 20:09:15","新北市蘆洲區民族路248號","121.479145","25.0886083333333","6501400","蘆洲區"
"247004","337-TH","2018/04/03 20:09:31","新北市蘆洲區環堤大道28號","121.456718333333","25.0835783333333","6501400","蘆洲區"
"247006","336-TH","2018/04/03 20:09:17","新北市蘆洲區永安南路二段2號","121.467718333333","25.0766316666667","6501400","蘆洲區"
"247018","057-VK","2018/04/03 20:09:23","新北市蘆洲區民族路314巷3弄2號","121.477371666667","25.0904783333333","6501400","蘆洲區"
"247008","056-VK","2018/04/03 20:09:20","新北市蘆洲區中山一路201號","121.474408333333","25.080845","6501400","蘆洲區"
"247002","053-VK","2018/04/03 20:09:22","新北市蘆洲區永康街30號","121.458553333333","25.0855533333333","6501400","蘆洲區"
"247020","001-UY","2018/04/03 20:09:23","新北市蘆洲區民義街68巷7號","121.473596666667","25.0896216666667","6501400","蘆洲區"
"226004","205-ST","2018/04/03 20:09:16","新北市平溪區石底里公園街18-3號","121.733398333333","25.025695","6502400","平溪區"
"235039","251-BX","2018/04/03 20:09:17","新北市中和區大勇街25巷39弄1號","121.514858333333","24.9942883333333","6500300","中和區"
"224010","AGQ-8101","2018/04/03 20:09:24","新北市瑞芳區基山街31巷20號","121.846058333333","25.1101766666667","6501200","瑞芳區"
"222001","KEA-2212","2018/04/03 20:09:32","新北市深坑區北深路三段187號","121.6013","25.0036216666667","6501800","深坑區"
"208002","KEA-2872","2018/04/03 20:09:23","新北市金山區環金路460號","121.630208333333","25.224305","6502700","金山區"
"208003","665-BX","2018/04/03 20:09:26","新北市金山區香園14號","121.63384","25.2539416666667","6502700","金山區"
"251004","009-UM","2018/04/03 19:59:42","新北市淡水區民權路183巷22號","121.460521666667","25.13403","6501000","淡水區"
"251002","012-UM","2018/04/03 20:09:18","新北市淡水區中正路294號","121.437545","25.17204","6501000","淡水區"
"251013","179-VK","2018/04/03 20:09:29","新北市淡水區奎柔山路752巷1號","121.472951666667","25.2052233333333","6501000","淡水區"
"251014","180-VK","2018/04/03 20:09:19","新北市淡水區石頭厝3號","121.458705","25.2355483333333","6501000","淡水區"
"251008","181-VK","2018/04/03 20:09:28","新北市淡水區淡海路72巷33弄2號","121.424501666667","25.1827033333333","6501000","淡水區"
"251015","182-VK","2018/04/03 20:09:17","新北市淡水區埤島3-23號","121.447816666667","25.1897316666667","6501000","淡水區"
"251010","413-VK","2018/04/03 20:09:14","新北市淡水區崁頂五路301號","121.423898333333","25.1971133333333","6501000","淡水區"
"251012","441-VK","2018/04/03 20:09:13","新北市淡水區下圭柔山56-11號","121.44738","25.20462","6501000","淡水區"
"251016","442-VK","2018/04/03 20:09:25","新北市淡水區番子田25-3號","121.456161666667","25.2307283333333","6501000","淡水區"
"251006","561-UM","2018/04/03 20:09:29","新北市淡水區北新路141巷29號","121.448213333333","25.1796466666667","6501000","淡水區"
"251009","575-R6","2018/04/03 20:09:18","新北市淡水區清水街38號","121.444718333333","25.17031","6501000","淡水區"
"207003","291-VK","2018/04/03 20:09:19","新北市萬里區大鵬里萬里加投197-3號","121.64304","25.2158716666667","6502800","萬里區"
"207004","225-TW","2018/04/03 20:09:22","新北市萬里區北基里愛三街11號","121.681823333333","25.1766583333333","6502800","萬里區"
"252002","178-VK","2018/04/03 20:09:20","新北市三芝區三民街2號","121.50405","25.2580366666667","6502100","三芝區"
"252001","292-VK","2018/04/03 20:09:18","新北市三芝區公正街9號","121.499776666667","25.2574966666667","6502100","三芝區"
"237012","275-BY","2018/04/03 20:09:15","新北市三峽區大同路196-2號","121.371025","24.9271533333333","6500900","三峽區"
"237008","302-VK","2018/04/03 20:09:18","新北市三峽區中正路一段174巷9號","121.371955","24.9288716666667","6500900","三峽區"
"237006","5529-G3","2018/04/03 20:09:30","新北市三峽區中正路二段299巷2號","121.366645","24.911025","6500900","三峽區"
"237005","AKY-6261","2018/04/03 20:09:13","新北市三峽區三樹路98巷115號","121.382666666667","24.9386583333333","6500900","三峽區"
"236070","105-UM","2018/04/03 20:09:32","新北市土城區大安路2號","121.432843333333","24.96551","6501300","土城區"
"236042","107-UM","2018/04/03 20:09:30","新北市土城區學府路一段166-1號","121.454063333333","24.9866983333333","6501300","土城區"
"236079","166-UM","2018/04/03 20:09:18","新北市土城區三民路61巷1號","121.419561666667","24.9643733333333","6501300","土城區"
"236030","253-BX","2018/04/03 20:09:29","新北市土城區中央路一段116號","121.44653","24.9880633333333","6501300","土城區"
"236026","269-VK","2018/04/03 20:09:31","新北市土城區裕生路71號","121.44707","24.9845916666667","6501300","土城區"
"236014","270-VK","2018/04/03 20:09:31","新北市土城區廣明街2號","121.45604","24.9917","6501300","土城區"
"236038","271-VK","2018/04/03 20:09:15","新北市土城區明德路一段20巷1弄6號","121.464618333333","24.9846683333333","6501300","土城區"
"236021","401-BY","2018/04/03 20:09:33","新北市土城區延吉街23巷17號","121.473993333333","24.987395","6501300","土城區"
"236059","912-UM","2018/04/03 20:09:22","新北市土城區中央路二段125號","121.442128333333","24.9773816666667","6501300","土城區"
"236049","913-UM","2018/04/03 20:09:14","新北市土城區金城路三段29號","121.465405","24.9865416666667","6501300","土城區"
"236063","915-UM","2018/04/03 20:09:27","新北市土城區立德路135巷2-2號","121.464625","24.9866716666667","6501300","土城區"
"236055","AAC-216","2018/04/03 20:09:17","新北市土城區學成路82號","121.450765","24.9886183333333","6501300","土城區"
"242029","986-R7","2018/04/03 20:09:22","新北市新莊區中原路319-1號","121.446595","25.054335","6500500","新莊區"
"242054","751-BX","2018/04/03 20:09:33","新北市新莊區西盛街395巷22弄4號","121.428316666667","25.01276","6500500","新莊區"
"242058","705-TV","2018/04/03 20:09:15","新北市新莊區龍安路282號","121.422391666667","25.0191366666667","6500500","新莊區"
"242027","615-BX","2018/04/03 20:09:29","新北市新莊區中平路256-1號","121.444946666667","25.0496883333333","6500500","新莊區"
"242025","613-BX","2018/04/03 20:08:38","新北市新莊區五工三路82號","121.458816666667","25.06503","6500500","新莊區"
"242042","566-BX","2018/04/03 20:09:25","新北市新莊區青山路一段167號","121.401793333333","25.0296616666667","6500500","新莊區"
"242046","497-BY","2018/04/03 20:09:29","新北市新莊區裕民街85巷16號","121.419253333333","25.0233316666667","6500500","新莊區"
"242034","442-UM","2018/04/03 20:09:22","新北市新莊區中正路381號","121.446086666667","25.03459","6500500","新莊區"
"242051","441-UM","2018/04/03 20:09:15","新北市新莊區民安西路172巷2弄2號","121.425816666667","25.01598","6500500","新莊區"
"242056","440-UM","2018/04/03 20:09:17","新北市新莊區新莊路649巷15弄1號","121.444933333333","25.0315983333333","6500500","新莊區"
"242037","415-TV","2018/04/03 20:09:21","新北市新莊區建安街9巷2號","121.428991666667","25.0265733333333","6500500","新莊區"
"242007","413-TV","2018/04/03 20:09:11","新北市新莊區思源路421號","121.45932","25.0525616666667","6500500","新莊區"
"242044","400-BY","2018/04/03 20:09:14","新北市新莊區中正路895-46號","121.412155","25.0213233333333","6500500","新莊區"
"242023","362-BY","2018/04/03 20:09:30","新北市新莊區化成路540-2號","121.466176666667","25.0534116666667","6500500","新莊區"
"242061","353-BY","2018/04/03 20:09:23","新北市新莊區瓊林路瓊英巷2弄2號","121.443828333333","25.02733","6500500","新莊區"
"242039","133-UY","2018/04/03 20:09:29","新北市新莊區民安西路109號","121.42689","25.01836","6500500","新莊區"
"242032","135-UY","2018/04/03 20:09:13","新北市新莊區中正路449號","121.443065","25.0340783333333","6500500","新莊區"
"242048","172-VK","2018/04/03 20:09:26","新北市新莊區四維路182巷8號","121.421858333333","25.02182","6500500","新莊區"
"242011","173-VK","2018/04/03 20:09:16","新北市新莊區中和街204巷7弄1號","121.448281666667","25.0504983333333","6500500","新莊區"
"242017","175-VK","2018/04/03 20:09:21","新北市新莊區中港路397號","121.451936666667","25.0468966666667","6500500","新莊區"
"242005","176-VK","2018/04/03 20:09:28","新北市新莊區頭興街3巷1號","121.463453333333","25.05353","6500500","新莊區"
"242015","346-TH","2018/04/03 20:09:25","新北市新莊區中平路26巷27號","121.446156666667","25.0434166666667","6500500","新莊區"
"242021","348-TH","2018/04/03 20:09:23","新北市新莊區中興街43號","121.449061666667","25.0368883333333","6500500","新莊區"
"242002","349-TH","2018/04/03 20:09:18","新北市新莊區中正路121-1號","121.459946666667","25.0385766666667","6500500","新莊區"
"242019","350-TH","2018/04/03 20:09:24","新北市新莊區長青街19號","121.458403333333","25.042175","6500500","新莊區"
"242013","351-TH","2018/04/03 20:09:31","新北市新莊區幸福路690號","121.45029","25.0493583333333","6500500","新莊區"
"238015","755-BX","2018/04/03 20:09:33","新北市樹林區育德街121巷7號","121.389195","24.9682633333333","6500700","樹林區"
"238021","KEA-2217","2018/04/03 20:09:15","新北市樹林區佳園路三段101巷62弄10號","121.393533333333","24.9501466666667","6500700","樹林區"
"221008","489-VK","2018/04/03 20:09:27","台北市內湖區康樂街235號","121.62359","25.0785683333333","6501100","汐止區"
"221036","130-UY","2018/04/03 20:09:25","新北市汐止區新台五路二段7-1號","121.662195","25.0659533333333","6501100","汐止區"
"221015","131-UY","2018/04/03 20:09:23","新北市汐止區建成路21號","121.66431","25.07251","6501100","汐止區"
"221010","269-BY","2018/04/03 20:09:28","新北市汐止區八連路一段528號","121.638678333333","25.093255","6501100","汐止區"
"221012","278-VK","2018/04/03 20:09:14","新北市汐止區汐平路二段70號","121.699105","25.0608","6501100","汐止區"
"221032","280-BY","2018/04/03 20:09:20","新北市汐止區弘道街10號","121.616971666667","25.048555","6501100","汐止區"
"221027","281-BY","2018/04/03 20:09:30","新北市汐止區中正路135號","121.66002","25.06913","6501100","汐止區"
"221029","298-VK","2018/04/03 20:09:30","新北市汐止區樟樹一路119巷12號","121.641225","25.0644466666667","6501100","汐止區"
"221021","299-VK","2018/04/03 20:09:30","新北市汐止區連興街142號","121.653995","25.0614933333333","6501100","汐止區"
"221031","353-TW","2018/04/03 20:09:28","新北市汐止區福德二路95號","121.63246","25.066005","6501100","汐止區"
"221025","623-UM","2018/04/03 20:09:25","新北市汐止區秀峰路64號","121.659811666667","25.0646283333333","6501100","汐止區"
"221038","646-BX","2018/04/03 20:09:16","新北市汐止區大同路三段66-3號","121.668115","25.0771216666667","6501100","汐止區"
"221033","647-BX","2018/04/03 20:09:16","新北市汐止區東勢街201巷98號","121.633731666667","25.0431","6501100","汐止區"
"221002","707-TV","2018/04/03 20:09:22","新北市汐止區大同路一段219巷26號","121.633033333333","25.0588583333333","6501100","汐止區"
"220080","200-UY","2018/04/03 20:09:29","新北市板橋區大觀路二段179巷33號","121.446445","24.9995033333333","6500100","板橋區"
"220082","610-BX","2018/04/03 20:09:15","新北市板橋區大觀路三段100號","121.432683333333","24.9945466666667","6500100","板橋區"
"220103","257-TC","2018/04/03 20:09:33","新北市板橋區文化路一段421巷11弄15號","121.466776666667","25.0225083333333","6500100","板橋區"
"220101","280-UM","2018/04/03 20:09:20","新北市板橋區莒光路171巷1弄18-4號","121.47448","25.0246716666667","6500100","板橋區"
"220071","283-VK","2018/04/03 20:09:25","新北市板橋區廣權路99號","121.464538333333","24.992685","6500100","板橋區"
"220094","285-UM","2018/04/03 20:09:24","新北市板橋區民生路二段250號","121.468231666667","25.0233116666667","6500100","板橋區"
"220083","286-VK","2018/04/03 20:09:28","新北市板橋區僑中二街102巷8號","121.44575","25.0084466666667","6500100","板橋區"
"220081","287-VK","2018/04/03 20:09:15","新北市板橋區僑中一街80巷7弄19號","121.446886666667","25.0127883333333","6500100","板橋區"
"220090","288-VK","2018/04/03 20:09:29","新北市板橋區幸福路32巷69號","121.460438333333","25.0223116666667","6500100","板橋區"
"220061","293-UM","2018/04/03 20:09:28","新北市板橋區縣民大道二段200巷11號","121.47","25.0173933333333","6500100","板橋區"
"220084","296-UM","2018/04/03 20:09:15","新北市樹林區環河路10號","121.426706666667","24.9785783333333","6500100","板橋區"
"242009","281-VK","2018/04/03 20:09:32","新北市新莊區昌盛街35巷2弄2號","121.454111666667","25.0502016666667","6500500","新莊區"
"220062","305-R5","2018/04/03 20:09:27","新北市板橋區中山路二段613號","121.48545","25.022535","6500100","板橋區"
"220092","307-R5","2018/04/03 20:09:30","新北市板橋區文化路一段45巷20號","121.460393333333","25.0141333333333","6500100","板橋區"
"220098","317-R6","2018/04/03 20:09:32","新北市板橋區新海路72巷5弄15號","121.461755","25.0226166666667","6500100","板橋區"
"220064","486-VK","2018/04/03 20:09:25","新北市板橋區長安街331巷79-2號","121.472386666667","25.0128483333333","6500100","板橋區"
"220088","491-VK","2018/04/03 20:09:16","新北市板橋區懷德街52號","121.477335","25.03252","6500100","板橋區"
"220055","630-UY","2018/04/03 20:09:27","新北市板橋區仁愛路76巷3弄2號","121.460703333333","24.999065","6500100","板橋區"
"220093","689-BX","2018/04/03 20:09:27","新北市板橋區長江路二段120號","121.465501666667","25.0315033333333","6500100","板橋區"
"220102","KEA-2699","2018/04/03 20:09:28","新北市板橋區懷德街78巷21號","121.477796666667","25.031225","6500100","板橋區"
"220067","829-TW","2018/04/03 20:09:28","新北市板橋區中山路一段206巷72號","121.472341666667","25.01342","6500100","板橋區"
"220068","830-TW","2018/04/03 20:09:27","新北市板橋區中山路二段286號","121.479586666667","25.0188","6500100","板橋區"
"220089","833-TW","2018/04/03 20:09:30","新北市板橋區新海路380號","121.459171666667","25.02593","6500100","板橋區"
"220074","895-R6","2018/04/03 20:09:27","新北市板橋區府後街1巷2-2號","121.459148333333","25.0107216666667","6500100","板橋區"
"220097","AAC-210","2018/04/03 20:09:17","新北市板橋區光正街18巷15號","121.462703333333","25.0177616666667","6500100","板橋區"
"220070","AAC-253","2018/04/03 20:09:23","新北市板橋區德興街13號","121.453426666667","24.9944766666667","6500100","板橋區"
