"lineid","car","time","location","longitude","latitude","cityid","cityname"
"234064","337-UY","2018/04/03 20:39:39","台北市文山區溪洲街16號","121.534123333333","25.0061383333333","6500400","永和區"
"234061","AAD-866","2018/04/03 20:39:26","新北市永和區秀朗路一段122號","121.517693333333","25.0035166666667","6500400","永和區"
"249001","173-UM","2018/04/03 20:39:26","新北市八里區中山路三段382號","121.36852","25.1359","6502300","八里區"
"249004","303-UY","2018/04/03 20:39:29","新北市八里區中山路一段176號","121.417051666667","25.1593966666667","6502300","八里區"
"234023","9380-KE","2018/04/03 20:39:37","新北市永和區竹林路25巷17弄6-1號","121.518091666667","25.0149983333333","6500400","永和區"
"234074","AAC-211","2018/04/03 20:39:21","新北市永和區竹林路112-3號","121.519805","25.01164","6500400","永和區"
"243011","297-R6","2018/04/03 20:39:42","新北市泰山區明志路三段42巷20號","121.424118333333","25.04247","6501600","泰山區"
"243015","380-SR","2018/04/03 20:39:29","新北市泰山區全興路212號","121.433566666667","25.0563283333333","6501600","泰山區"
"243016","539-UM","2018/04/03 20:39:28","新北市泰山區明志路二段420號","121.424916666667","25.0437583333333","6501600","泰山區"
"243010","KEA-2215","2018/04/03 20:39:24","新北市泰山區明志路二段13號","121.429986666667","25.0535383333333","6501600","泰山區"
"243009","KEA-2216","2018/04/03 20:39:37","新北市泰山區泰林路二段544號","121.423353333333","25.0639216666667","6501600","泰山區"
"243013","646-TV","2018/04/03 20:39:41","新北市泰山區黎明里35號","121.411148333333","25.0701566666667","6501600","泰山區"
"222003","436-BY","2018/04/03 20:39:38","新北市深坑區阿柔洋8-1號","121.612773333333","24.999665","6501800","深坑區"
"222002","659-BX","2018/04/03 20:39:30","新北市深坑區萬福路45號","121.599473333333","25.0067866666667","6501800","深坑區"
"231041","002-UM","2018/04/03 20:39:36","新北市新店區中正路543-4號","121.53368","24.9875016666667","6500600","新店區"
"231059","046-UY","2018/04/03 20:39:35","新北市新店區僑愛一路1號","121.499856666667","24.9449033333333","6500600","新店區"
"231040","047-UY","2018/04/03 20:39:43","新北市新店區中正路274號","121.538906666667","24.9736733333333","6500600","新店區"
"231044","106-UY","2018/04/03 20:39:27","新北市新店區建國路276號","121.537151666667","24.9838133333333","6500600","新店區"
"231053","108-UY","2018/04/03 20:39:41","新北市新店區松林路51號","121.544436666667","24.911405","6500600","新店區"
"231048","187-VK","2018/04/03 20:39:37","新北市新店區寶慶街34號","121.543036666667","24.9867966666667","6500600","新店區"
"231054","KEA-2219","2018/04/03 20:39:40","新北市新店區北新路一段64巷39弄16號","121.54255","24.9658583333333","6500600","新店區"
"231057","256-BX","2018/04/03 20:39:41","新北市新店區花園六路二段9-2號","121.555776666667","24.93289","6500600","新店區"
"231050","260-TV","2018/04/03 20:39:35","新北市新店區建安街15巷1號","121.53975","24.9753566666667","6500600","新店區"
"231042","268-BY","2018/04/03 20:39:40","新北市新店區寶橋路238號","121.551638333333","24.97888","6500600","新店區"
"231051","278-BY","2018/04/03 20:39:39","新北市新店區中央八街86號","121.527026666667","24.9773783333333","6500600","新店區"
"231058","3713-VJ","2018/04/03 20:39:34","新北市新店區平等街17號","121.536865","24.97388","6500600","新店區"
"231066","4716-K9","2018/04/03 20:39:35","新北市新店區安民街365巷1弄8號","121.516365","24.975325","6500600","新店區"
"231056","4715-K9","2018/04/03 20:39:34","新北市新店區民生路75巷221號","121.531968333333","24.981865","6500600","新店區"
"231065","512-UM","2018/04/03 20:39:44","新北市新店區安祥路102巷46弄59號","121.486605","24.9636366666667","6500600","新店區"
"231049","513-UM","2018/04/03 20:39:29","新北市新店區永業路81巷5弄23號","121.530791666667","24.9496066666667","6500600","新店區"
"231045","617-UM","2018/04/03 20:39:36","新北市新店區長春路56號","121.550828333333","24.9579016666667","6500600","新店區"
"231061","619-UM","2018/04/03 20:39:34","新北市新店區新和街36號","121.519266666667","24.9848866666667","6500600","新店區"
"231063","641-BX","2018/04/03 20:39:33","新北市新店區玫瑰路34號","121.495641666667","24.9500216666667","6500600","新店區"
"231068","718-UY","2018/04/03 20:39:37","新北市新店區寶慶街35巷3弄1號","121.543096666667","24.9862116666667","6500600","新店區"
"231064","719-UY","2018/04/03 20:39:43","新北市新店區安和路三段171號","121.515946666667","24.98613","6500600","新店區"
"231062","720-UM","2018/04/03 20:39:28","新北市新店區安泰路60巷55弄2號","121.48428","24.9455366666667","6500600","新店區"
"231060","897-TW","2018/04/03 20:39:29","新北市新店區安康路三段567-1號","121.475638333333","24.9438183333333","6500600","新店區"
"231043","899-TW","2018/04/03 20:39:31","新北市新店區建國路21號","121.540105","24.97386","6500600","新店區"
"241011","013-R5","2018/04/03 20:39:33","新北市三重區龍濱路221號","121.50182","25.0720216666667","6500200","三重區"
"241028","022-UY","2018/04/03 20:39:40","新北市三重區光興街93號","121.497328333333","25.0598666666667","6500200","三重區"
"241008","059-VK","2018/04/03 20:39:40","新北市三重區下竹圍街42號","121.480991666667","25.0749333333333","6500200","三重區"
"241009","060-VK","2018/04/03 20:39:38","新北市三重區碧華街51號","121.484695","25.0812583333333","6500200","三重區"
"241031","061-VK","2018/04/03 20:39:28","新北市三重區重新路四段41巷5弄17號","121.487883333333","25.0585","6500200","三重區"
"241015","062-VK","2018/04/03 20:39:25","新北市三重區文化北路105號","121.49782","25.0684483333333","6500200","三重區"
"241017","063-VK","2018/04/03 20:39:25","新北市三重區大同北路269號","121.490821666667","25.0673466666667","6500200","三重區"
"241024","065-VK","2018/04/03 20:39:41","新北市三重區後竹圍街285號","121.479026666667","25.0701483333333","6500200","三重區"
"241026","066-VK","2018/04/03 20:39:30","新北市三重區文化南路3號","121.499996666667","25.06239","6500200","三重區"
"241002","090-VK","2018/04/03 20:39:29","新北市三重區仁義街167巷32弄1號","121.498173333333","25.0821616666667","6500200","三重區"
"241003","091-VK","2018/04/03 20:39:32","新北市三重區五華街141巷58號","121.493413333333","25.08666","6500200","三重區"
"241005","262-UM","2018/04/03 20:39:40","新北市三重區集賢路87-1號","121.493938333333","25.0869816666667","6500200","三重區"
"241016","265-UM","2018/04/03 20:39:28","新北市三重區長壽西街91號","121.494986666667","25.0669566666667","6500200","三重區"
"241022","267-UM","2018/04/03 20:39:22","新北市三重區新北大道一段46巷5號","121.487893333333","25.0619","6500200","三重區"
"241018","268-UM","2018/04/03 20:39:40","新北市三重區自強路一段236號","121.493398333333","25.067045","6500200","三重區"
"241032","269-UM","2018/04/03 20:39:35","新北市三重區重陽路一段120巷48號","121.485046666667","25.0601783333333","6500200","三重區"
"241013","270-UM","2018/04/03 20:39:34","新北市三重區三和路四段83號","121.489216666667","25.075355","6500200","三重區"
"241025","271-UM","2018/04/03 20:39:40","新北市三重區頂崁街210巷27號","121.475735","25.0681733333333","6500200","三重區"
"241007","398-BY","2018/04/03 20:39:31","新北市三重區自強路四段22號","121.48858","25.0764583333333","6500200","三重區"
"241035","462-BY","2018/04/03 20:39:37","新北市三重區正義北路311號","121.494245","25.071155","6500200","三重區"
"241004","475-VK","2018/04/03 20:39:45","新北市三重區仁愛街409號","121.490735","25.081165","6500200","三重區"
"241020","478-VK","2018/04/03 20:39:32","新北市三重區重陽路四段160號","121.493051666667","25.07233","6500200","三重區"
"241030","480-VK","2018/04/03 20:39:38","新北市三重區成功路73巷11號","121.489476666667","25.0519016666667","6500200","三重區"
"241014","543-UM","2018/04/03 20:39:41","新北市三重區萬壽街24號","121.499848333333","25.0695933333333","6500200","三重區"
"241023","545-UM","2018/04/03 20:39:42","新北市三重區頂崁街203巷29弄2號","121.47826","25.0668733333333","6500200","三重區"
"241019","KEA-2593","2018/04/03 20:39:26","新北市三重區大智街125-1號","121.491323333333","25.070355","6500200","三重區"
"241001","887-TS","2018/04/03 20:39:35","新北市三重區自強路三段110巷27號","121.485843333333","25.0744816666667","6500200","三重區"
"241012","941-UM","2018/04/03 20:39:29","新北市三重區秀江街26號","121.502498333333","25.0729616666667","6500200","三重區"
"241029","942-UM","2018/04/03 20:39:25","新北市三重區集美街126巷27號","121.490076666667","25.0538533333333","6500200","三重區"
"241033","AAC-255","2018/04/03 20:39:39","新北市三重區光復路二段1號","121.472278333333","25.05329","6500200","三重區"
"235069","4980-A6","2018/04/03 20:39:30","新北市中和區中正路432巷30號","121.490826666667","24.9957516666667","6500300","中和區"
"235026","800-TS","2018/04/03 20:26:00","新北市中和區員山路36巷16-3號","121.484731666667","24.9917583333333","6500300","中和區"
"247024","893-R6","2018/04/03 20:39:38","新北市蘆洲區光榮路85號","121.461796666667","25.08882","6501400","蘆洲區"
"247014","546-UM","2018/04/03 20:39:34","新北市蘆洲區中山一路196號","121.473738333333","25.0808583333333","6501400","蘆洲區"
"247022","500-BY","2018/04/03 20:39:41","新北市蘆洲區中正路263巷2號","121.467386666667","25.087415","6501400","蘆洲區"
"247010","341-TH","2018/04/03 20:39:34","新北市蘆洲區集賢路224巷14-1號","121.481886666667","25.087095","6501400","蘆洲區"
"247012","339-TH","2018/04/03 20:39:34","新北市蘆洲區集賢路224巷32號","121.481388333333","25.0875133333333","6501400","蘆洲區"
"247004","337-TH","2018/04/03 20:39:30","新北市蘆洲區長安街297號","121.458021666667","25.0848366666667","6501400","蘆洲區"
"247006","336-TH","2018/04/03 20:39:38","新北市蘆洲區和平路134號","121.467138333333","25.0805166666667","6501400","蘆洲區"
"247008","056-VK","2018/04/03 20:39:40","新北市蘆洲區重陽街14號","121.480696666667","25.0814333333333","6501400","蘆洲區"
"247002","053-VK","2018/04/03 20:39:42","新北市蘆洲區永樂街81號","121.455721666667","25.0886533333333","6501400","蘆洲區"
"247016","007-UY","2018/04/03 20:39:40","新北市蘆洲區中山二路236號","121.46967","25.0796016666667","6501400","蘆洲區"
"247020","001-UY","2018/04/03 20:39:43","新北市蘆洲區民族路424-1號","121.473878333333","25.091835","6501400","蘆洲區"
"222001","KEA-2212","2018/04/03 20:39:32","新北市深坑區北深路三段234號","121.6006","25.0040083333333","6501800","深坑區"
"251001","011-UM","2018/04/03 20:39:38","新北市淡水區淡金路65號","121.456086666667","25.1615133333333","6501000","淡水區"
"251002","012-UM","2018/04/03 20:39:38","新北市淡水區中正路36號","121.443748333333","25.169205","6501000","淡水區"
"251013","179-VK","2018/04/03 20:39:37","新北市淡水區行忠路258號","121.458638333333","25.2004616666667","6501000","淡水區"
"251014","180-VK","2018/04/03 20:39:39","新北市淡水區公埔子25-2號","121.468113333333","25.2328416666667","6501000","淡水區"
"251010","413-VK","2018/04/03 20:39:33","新北市淡水區沙崙路181巷15號","121.423873333333","25.1843983333333","6501000","淡水區"
"251012","441-VK","2018/04/03 20:39:32","新北市淡水區興仁路99號","121.451593333333","25.21811","6501000","淡水區"
"251016","442-VK","2018/04/03 20:39:25","新北市淡水區後洲子8-2號","121.449581666667","25.224015","6501000","淡水區"
"251006","561-UM","2018/04/03 20:39:29","新北市淡水區商工路173號","121.447883333333","25.1883683333333","6501000","淡水區"
"251011","650-BX","2018/04/03 20:39:34","新北市淡水區新市一路一段361號","121.436191666667","25.1862083333333","6501000","淡水區"
"251003","673-BX","2018/04/03 20:39:36","新北市淡水區新民街152巷6弄22號","121.438731666667","25.1784933333333","6501000","淡水區"
"252002","178-VK","2018/04/03 20:39:40","新北市三芝區淡金路二段47-2號","121.503705","25.2605266666667","6502100","三芝區"
"252001","292-VK","2018/04/03 20:39:38","新北市三芝區公正街56號","121.499788333333","25.2573466666667","6502100","三芝區"
"242029","986-R7","2018/04/03 20:39:41","新北市新莊區昌隆街21號","121.454423333333","25.0509383333333","6500500","新莊區"
"242054","751-BX","2018/04/03 20:39:33","新北市新莊區西盛街323巷9號","121.42877","25.0147666666667","6500500","新莊區"
"242058","705-TV","2018/04/03 20:39:35","新北市新莊區民安路138號","121.4242","25.0253616666667","6500500","新莊區"
"242027","615-BX","2018/04/03 20:39:29","新北市新莊區思源路155號","121.459806666667","25.0443583333333","6500500","新莊區"
"242025","613-BX","2018/04/03 20:39:38","新北市新莊區化成路579巷1號","121.464358333333","25.06602","6500500","新莊區"
"242042","566-BX","2018/04/03 20:39:38","新北市新莊區中正路700-38號","121.417601666667","25.0277016666667","6500500","新莊區"
"242046","497-BY","2018/04/03 20:39:30","新北市新莊區裕民街69號","121.418635","25.024235","6500500","新莊區"
"242034","442-UM","2018/04/03 20:39:42","新北市新莊區中正路423-2號","121.444428333333","25.0343383333333","6500500","新莊區"
"242051","441-UM","2018/04/03 20:39:35","新北市新莊區民安西路175號","121.426063333333","25.0159633333333","6500500","新莊區"
"242056","440-UM","2018/04/03 20:39:37","新北市新莊區瓊泰路64號","121.443285","25.0286916666667","6500500","新莊區"
"242037","415-TV","2018/04/03 20:39:40","新北市新莊區建安街10-1號","121.428528333333","25.0265466666667","6500500","新莊區"
"242007","413-TV","2018/04/03 20:39:31","新北市新莊區思源路285號","121.459588333333","25.0483383333333","6500500","新莊區"
"242044","400-BY","2018/04/03 20:39:33","新北市新莊區龍安路90號","121.41764","25.0208","6500500","新莊區"
"242023","362-BY","2018/04/03 20:39:30","新北市新莊區化成路422號","121.46602","25.0509966666667","6500500","新莊區"
"242061","353-BY","2018/04/03 20:39:43","新北市新莊區新樹路258巷3號","121.432126666667","25.0155733333333","6500500","新莊區"
"242039","133-UY","2018/04/03 20:39:36","新北市新莊區民安路442號","121.434565","25.0224183333333","6500500","新莊區"
"242032","135-UY","2018/04/03 20:39:33","新北市新莊區中正路508巷5弄19號","121.435405","25.0336033333333","6500500","新莊區"
"242048","172-VK","2018/04/03 20:39:37","新北市新莊區中正路615號","121.43241","25.0320016666667","6500500","新莊區"
"242011","173-VK","2018/04/03 20:39:35","新北市新莊區中榮街104巷13號","121.447075","25.05356","6500500","新莊區"
"242017","175-VK","2018/04/03 20:39:41","新北市新莊區中港三街108號","121.448361666667","25.046065","6500500","新莊區"
"242015","346-TH","2018/04/03 20:39:40","新北市新莊區中和街38號","121.448198333333","25.04401","6500500","新莊區"
"242021","348-TH","2018/04/03 20:39:43","新北市新莊區中華路一段73號","121.452281666667","25.040175","6500500","新莊區"
"242002","349-TH","2018/04/03 20:39:38","新北市新莊區明中街43巷29號","121.457036666667","25.0385783333333","6500500","新莊區"
"242019","350-TH","2018/04/03 20:39:39","新北市新莊區銘德街117號","121.455393333333","25.0432416666667","6500500","新莊區"
"242013","351-TH","2018/04/03 20:39:31","新北市新莊區中和街175巷9號","121.447251666667","25.0504433333333","6500500","新莊區"
"221008","489-VK","2018/04/03 20:39:27","新北市汐止區康寧街747號","121.638418333333","25.0730333333333","6501100","汐止區"
"221036","130-UY","2018/04/03 20:39:25","新北市汐止區新昌路70號","121.663583333333","25.0687116666667","6501100","汐止區"
"221015","131-UY","2018/04/03 20:39:23","新北市汐止區建成路35號","121.663775","25.0727216666667","6501100","汐止區"
"221012","278-VK","2018/04/03 20:39:34","新北市汐止區汐萬路一段39號","121.655031666667","25.0691466666667","6501100","汐止區"
"221032","280-BY","2018/04/03 20:39:41","新北市汐止區橫科路322巷24弄6-1號","121.6206","25.0499933333333","6501100","汐止區"
"221027","281-BY","2018/04/03 20:39:30","新北市汐止區大同路二段563-1號","121.662871666667","25.06989","6501100","汐止區"
"221029","298-VK","2018/04/03 20:38:56","新北市汐止區大同路一段421號","121.642583333333","25.0613216666667","6501100","汐止區"
"221021","299-VK","2018/04/03 20:39:30","新北市汐止區水源路一段282巷4號","121.65397","25.0583","6501100","汐止區"
"221031","353-TW","2018/04/03 20:39:35","新北市汐止區中興路27巷22號","121.634055","25.0608266666667","6501100","汐止區"
"221035","622-UM","2018/04/03 20:39:29","新北市汐止區長江街101-5號","121.658783333333","25.0730766666667","6501100","汐止區"
"221025","623-UM","2018/04/03 20:39:25","新北市汐止區水源路二段181號","121.657803333333","25.0536866666667","6501100","汐止區"
"221038","646-BX","2018/04/03 20:39:36","新北市汐止區汐萬路一段256巷3號","121.652396666667","25.074575","6501100","汐止區"
"221033","647-BX","2018/04/03 20:39:37","台北市南港區合順街8巷7弄38號","121.620236666667","25.0418783333333","6501100","汐止區"
"221002","707-TV","2018/04/03 20:39:22","新北市汐止區福德二路128號","121.631235","25.065355","6501100","汐止區"
"221018","753-BX","2018/04/03 20:39:27","新北市汐止區茄苳路118號","121.668295","25.0704066666667","6501100","汐止區"
"220103","257-TC","2018/04/03 20:39:33","新北市板橋區漢生東路73巷26號","121.467251666667","25.0169066666667","6500100","板橋區"
"220072","277-BY","2018/04/03 20:39:26","新北市板橋區金門街111-3號","121.43308","24.9920616666667","6500100","板橋區"
"220094","285-UM","2018/04/03 20:39:45","新北市林口區太平里180號","121.368256666667","25.13438","6500100","板橋區"
"242009","281-VK","2018/04/03 20:39:30","新北市新莊區福壽街99巷8弄15號","121.456726666667","25.0506516666667","6500500","新莊區"
"220089","833-TW","2018/04/03 20:39:42","新北市板橋區四維路357號","121.462141666667","25.0302033333333","6500100","板橋區"
"220070","AAC-253","2018/04/03 20:39:43","新北市五股區新城六路263號","121.448335","25.0926516666667","6500100","板橋區"
