"lineid","car","time","location","longitude","latitude","cityid","cityname"
"234061","AAD-866","2018/04/03 20:49:27","新北市新店區安興路102號","121.515275","24.9766233333333","6500400","永和區"
"249004","303-UY","2018/04/03 20:49:29","新北市八里區中山路一段190號","121.416221666667","25.159315","6502300","八里區"
"234074","AAC-211","2018/04/03 20:49:21","新北市永和區環河東路二段20號","121.522276666667","25.01313","6500400","永和區"
"243011","297-R6","2018/04/03 20:49:42","新北市泰山區明志路二段187號","121.427635","25.0494533333333","6501600","泰山區"
"243016","539-UM","2018/04/03 20:49:28","新北市泰山區明志路二段220號","121.427263333333","25.0485733333333","6501600","泰山區"
"222003","436-BY","2018/04/03 20:49:38","新北市深坑區文山路三段48-1號","121.60992","24.998505","6501800","深坑區"
"222002","659-BX","2018/04/03 20:49:36","新北市深坑區北深路三段107巷25號","121.60436","25.00078","6501800","深坑區"
"231041","002-UM","2018/04/03 20:49:36","台北市文山區景文街146巷26號","121.53294","24.991505","6500600","新店區"
"231059","046-UY","2018/04/03 20:49:35","新北市新店區吉祥街15巷51號","121.499591666667","24.94561","6500600","新店區"
"231040","047-UY","2018/04/03 20:49:23","新北市新店區中正路272號","121.538916666667","24.97357","6500600","新店區"
"231044","106-UY","2018/04/03 20:49:27","新北市新店區中正路379號","121.534683333333","24.9768616666667","6500600","新店區"
"231053","108-UY","2018/04/03 20:49:41","新北市新店區松林路8號","121.545598333333","24.9115766666667","6500600","新店區"
"231048","187-VK","2018/04/03 20:49:37","新北市新店區寶元路一段109號","121.54568","24.983125","6500600","新店區"
"231054","KEA-2219","2018/04/03 20:49:40","新北市新店區中正路75巷61號","121.543338333333","24.9692733333333","6500600","新店區"
"231057","256-BX","2018/04/03 20:49:22","新北市新店區永興路12號","121.545233333333","24.939845","6500600","新店區"
"231050","260-TV","2018/04/03 20:49:35","新北市新店區中正路247巷24弄1號","121.538205","24.9720333333333","6500600","新店區"
"231042","268-BY","2018/04/03 20:49:40","新北市新店區寶高路120巷1號","121.554615","24.9760566666667","6500600","新店區"
"231051","278-BY","2018/04/03 20:49:39","新北市新店區民生路181號","121.528545","24.9786716666667","6500600","新店區"
"231058","3713-VJ","2018/04/03 20:49:34","新北市新店區三民路96-1號","121.534166666667","24.973125","6500600","新店區"
"231066","4716-K9","2018/04/03 20:49:35","新北市新店區安民街189-7號","121.517066666667","24.9714333333333","6500600","新店區"
"231056","4715-K9","2018/04/03 20:49:34","新北市新店區中央七街61巷30號","121.529653333333","24.9757066666667","6500600","新店區"
"231065","512-UM","2018/04/03 20:49:44","新北市新店區安祥路69巷17號","121.48188","24.961345","6500600","新店區"
"231049","513-UM","2018/04/03 20:49:29","新北市新店區華潭街6號","121.529985","24.9514933333333","6500600","新店區"
"231045","617-UM","2018/04/03 20:49:36","新北市新店區光明街314號","121.540841666667","24.9651033333333","6500600","新店區"
"231061","619-UM","2018/04/03 20:49:34","新北市新店區新和街116巷1號","121.521153333333","24.98649","6500600","新店區"
"231063","641-BX","2018/04/03 20:49:33","新北市新店區如意街31號","121.49396","24.9482266666667","6500600","新店區"
"231068","718-UY","2018/04/03 20:49:38","新北市新店區中興路三段220巷19號","121.54496","24.983245","6500600","新店區"
"231064","719-UY","2018/04/03 20:49:23","新北市新店區安民街365巷10弄1號","121.515913333333","24.9757733333333","6500600","新店區"
"231062","720-UM","2018/04/03 20:49:28","新北市新店區和成街15巷2號","121.487803333333","24.947255","6500600","新店區"
"231060","897-TW","2018/04/03 20:49:29","新北市新店區安康路三段591號","121.472401666667","24.941025","6500600","新店區"
"231043","899-TW","2018/04/03 20:49:32","新北市新店區建國路35巷2號","121.540448333333","24.97462","6500600","新店區"
"241011","013-R5","2018/04/03 20:49:33","新北市三重區龍濱路235號","121.501568333333","25.07229","6500200","三重區"
"241028","022-UY","2018/04/03 20:49:40","新北市三重區中正南路41巷1號","121.493875","25.0599066666667","6500200","三重區"
"241008","059-VK","2018/04/03 20:49:39","新北市三重區永福街72巷9號","121.47933","25.0766783333333","6500200","三重區"
"241009","060-VK","2018/04/03 20:49:38","新北市三重區三和路四段388-2號","121.481995","25.0790466666667","6500200","三重區"
"241031","061-VK","2018/04/03 20:49:28","新北市三重區重陽路一段113巷2弄2號","121.487493333333","25.05989","6500200","三重區"
"241015","062-VK","2018/04/03 20:49:25","新北市三重區自強路一段4-1號","121.49897","25.0683483333333","6500200","三重區"
"241017","063-VK","2018/04/03 20:49:25","新北市三重區民生街18號","121.491983333333","25.0673633333333","6500200","三重區"
"241024","065-VK","2018/04/03 20:49:41","新北市三重區大勇街82巷15弄30號","121.481206666667","25.0719016666667","6500200","三重區"
"241026","066-VK","2018/04/03 20:49:30","新北市三重區文化南路3號","121.500026666667","25.0624233333333","6500200","三重區"
"241002","090-VK","2018/04/03 20:49:29","新北市三重區仁義街167巷38弄2號","121.49873","25.0827383333333","6500200","三重區"
"241003","091-VK","2018/04/03 20:49:32","新北市三重區五華街141巷58號","121.493431666667","25.0866483333333","6500200","三重區"
"241005","262-UM","2018/04/03 20:49:40","新北市三重區五華街141巷17號","121.491673333333","25.085155","6500200","三重區"
"241016","265-UM","2018/04/03 20:49:28","新北市三重區自強路一段220號","121.49401","25.0665766666667","6500200","三重區"
"241022","267-UM","2018/04/03 20:49:43","新北市三重區中正北路20巷12號","121.488008333333","25.0624783333333","6500200","三重區"
"241018","268-UM","2018/04/03 20:49:40","新北市三重區正義北路339號","121.493525","25.0715783333333","6500200","三重區"
"241032","269-UM","2018/04/03 20:49:35","新北市三重區重陽路一段120巷48號","121.48504","25.060165","6500200","三重區"
"241013","270-UM","2018/04/03 20:49:34","新北市三重區三和路三段76號","121.494701666667","25.0716633333333","6500200","三重區"
"241025","271-UM","2018/04/03 20:49:40","新北市三重區貴陽街18-1號","121.484071666667","25.0619016666667","6500200","三重區"
"241007","398-BY","2018/04/03 20:49:31","新北市三重區慈愛街10號","121.48457","25.0785483333333","6500200","三重區"
"241004","475-VK","2018/04/03 20:49:25","新北市三重區分子尾街46號","121.489341666667","25.0813233333333","6500200","三重區"
"241020","478-VK","2018/04/03 20:49:32","新北市三重區忠孝路一段101號","121.489608333333","25.0721433333333","6500200","三重區"
"241030","480-VK","2018/04/03 20:49:38","新北市三重區環河南路221巷10號","121.49199","25.0522133333333","6500200","三重區"
"241014","543-UM","2018/04/03 20:49:21","新北市三重區龍濱路90號","121.502261666667","25.0699183333333","6500200","三重區"
"241023","545-UM","2018/04/03 20:49:22","新北市三重區忠孝路三段99巷4號","121.480143333333","25.06431","6500200","三重區"
"241019","KEA-2593","2018/04/03 20:49:26","新北市三重區三張街47號","121.491306666667","25.0711116666667","6500200","三重區"
"241006","AAD-863","2018/04/03 20:49:32","新北市三重區車路頭街135-1號","121.484276666667","25.076155","6500200","三重區"
"241001","887-TS","2018/04/03 20:49:35","新北市三重區三和路四段156號","121.488041666667","25.0756883333333","6500200","三重區"
"241012","941-UM","2018/04/03 20:49:29","新北市三重區仁信街27號","121.501268333333","25.0755483333333","6500200","三重區"
"241029","942-UM","2018/04/03 20:49:25","新北市三重區重安街14號","121.490275","25.0582766666667","6500200","三重區"
"241033","AAC-255","2018/04/03 20:49:39","新北市三重區光復路二段2號","121.47218","25.0532766666667","6500200","三重區"
"235069","4980-A6","2018/04/03 20:49:30","新北市中和區中正路600號","121.485703333333","24.9951816666667","6500300","中和區"
"235026","800-TS","2018/04/03 20:26:00","新北市中和區員山路36巷16-3號","121.484731666667","24.9917583333333","6500300","中和區"
"247024","893-R6","2018/04/03 20:49:37","新北市蘆洲區長樂路140號","121.462058333333","25.0901733333333","6501400","蘆洲區"
"247014","546-UM","2018/04/03 20:49:34","新北市蘆洲區三民路88號","121.47356","25.085285","6501400","蘆洲區"
"247022","500-BY","2018/04/03 20:49:41","新北市蘆洲區民義街9巷10號","121.471205","25.0888783333333","6501400","蘆洲區"
"247010","341-TH","2018/04/03 20:49:34","新北市蘆洲區鷺江街76號","121.476933333333","25.083805","6501400","蘆洲區"
"247012","339-TH","2018/04/03 20:49:45","新北市蘆洲區集賢路224巷19號","121.48173","25.0869","6501400","蘆洲區"
"247004","337-TH","2018/04/03 20:49:30","新北市蘆洲區長安街97號","121.461621666667","25.080715","6501400","蘆洲區"
"247006","336-TH","2018/04/03 20:49:43","新北市蘆洲區永安南路二段44-2號","121.466283333333","25.0774833333333","6501400","蘆洲區"
"247008","056-VK","2018/04/03 20:49:40","新北市蘆洲區集賢路269巷40號","121.48258","25.0829883333333","6501400","蘆洲區"
"247002","053-VK","2018/04/03 20:48:22","新北市蘆洲區長榮路335號","121.459605","25.0873016666667","6501400","蘆洲區"
"247016","007-UY","2018/04/03 20:49:40","新北市蘆洲區中山二路223號","121.470403333333","25.080255","6501400","蘆洲區"
"247020","001-UY","2018/04/03 20:49:43","新北市蘆洲區仁愛街66號","121.471558333333","25.093995","6501400","蘆洲區"
"222001","KEA-2212","2018/04/03 20:49:34","新北市深坑區北深路三段165-1號","121.602075","25.003315","6501800","深坑區"
"251001","011-UM","2018/04/03 20:49:45","新北市淡水區淡金路218號","121.460448333333","25.1672166666667","6501000","淡水區"
"251002","012-UM","2018/04/03 20:49:38","新北市淡水區清水街2號","121.445593333333","25.17043","6501000","淡水區"
"251013","179-VK","2018/04/03 20:49:37","新北市淡水區行忠路146號","121.45447","25.1989933333333","6501000","淡水區"
"251014","180-VK","2018/04/03 20:49:39","新北市淡水區公埔子32-8號","121.46166","25.2323516666667","6501000","淡水區"
"251010","413-VK","2018/04/03 20:49:33","新北市淡水區沙崙路145號","121.423388333333","25.1830333333333","6501000","淡水區"
"251012","441-VK","2018/04/03 20:49:32","新北市淡水區興仁路162號","121.451568333333","25.22075","6501000","淡水區"
"251016","442-VK","2018/04/03 20:49:25","新北市淡水區後洲子12-1號","121.451236666667","25.22382","6501000","淡水區"
"251007","577-R6","2018/04/03 20:49:36","新北市淡水區鄧公路23巷2號","121.451218333333","25.17008","6501000","淡水區"
"251011","650-BX","2018/04/03 20:49:34","新北市淡水區新民街一段13-1號","121.433055","25.184575","6501000","淡水區"
"251003","673-BX","2018/04/03 20:49:36","新北市淡水區中山北路一段247巷112號","121.441851666667","25.1794866666667","6501000","淡水區"
"252002","178-VK","2018/04/03 20:49:40","新北市三芝區淡金路二段91號","121.504106666667","25.2608733333333","6502100","三芝區"
"242029","986-R7","2018/04/03 20:49:41","新北市新莊區中華路一段226號","121.452595","25.0426516666667","6500500","新莊區"
"242054","751-BX","2018/04/03 20:49:33","新北市新莊區民安西路189巷10弄28號","121.426433333333","25.01524","6500500","新莊區"
"242058","705-TV","2018/04/03 20:49:35","新北市樹林區俊英街252號","121.424695","25.0109516666667","6500500","新莊區"
"242042","566-BX","2018/04/03 20:49:38","新北市新莊區天祥街19巷6號","121.416945","25.0280066666667","6500500","新莊區"
"242051","441-UM","2018/04/03 20:49:35","新北市新莊區民安東路156號","121.431851666667","25.0205883333333","6500500","新莊區"
"242037","415-TV","2018/04/03 20:49:40","新北市新莊區中正路491號","121.440886666667","25.03365","6500500","新莊區"
"242061","353-BY","2018/04/03 20:49:23","新北市新莊區新樹路477號","121.43267","25.012725","6500500","新莊區"
"242039","133-UY","2018/04/03 20:49:36","新北市新莊區環河路462號","121.44001","25.020175","6500500","新莊區"
"242002","349-TH","2018/04/03 20:49:38","新北市新莊區中港路五守新村35巷2號","121.454658333333","25.0386266666667","6500500","新莊區"
"221036","130-UY","2018/04/03 20:49:25","新北市汐止區新台五路一段238號","121.657101666667","25.0637516666667","6501100","汐止區"
"221027","281-BY","2018/04/03 20:49:30","新北市汐止區大同路二段379號","121.6575","25.0673383333333","6501100","汐止區"
"221029","298-VK","2018/04/03 20:48:56","新北市汐止區汐萬路一段312號","121.650341666667","25.0754683333333","6501100","汐止區"
"221035","622-UM","2018/04/03 20:49:29","新北市汐止區康寧街901號","121.651228333333","25.0751","6501100","汐止區"
"221038","646-BX","2018/04/03 20:49:36","新北市汐止區汐萬路一段256巷3號","121.652101666667","25.0746933333333","6501100","汐止區"
"221033","647-BX","2018/04/03 20:49:36","台北市南港區合順街8巷7弄38號","121.620221666667","25.04189","6501100","汐止區"
"221002","707-TV","2018/04/03 20:49:42","新北市汐止區福德二路167號","121.630858333333","25.0651883333333","6501100","汐止區"
"221018","753-BX","2018/04/03 20:49:27","新北市汐止區康寧街901號","121.65146","25.0750583333333","6501100","汐止區"
"220103","257-TC","2018/04/03 20:49:33","新北市板橋區南雅西路一段21巷5號","121.453801666667","25.003825","6500100","板橋區"
"242009","281-VK","2018/04/03 20:49:30","新北市新莊區幸福路562號","121.454508333333","25.04932","6500500","新莊區"
"220070","AAC-253","2018/04/03 20:49:23","新北市八里區下罟子8-10號","121.382688333333","25.1443266666667","6500100","板橋區"
