"lineid","car","time","location","longitude","latitude","cityid","cityname"
"232001","290-BY","2018/01/18 06:49:25","新北市坪林區北宜路八段436號","121.707693333333","24.9247666666667","6502000","坪林區"
"232014","291-BY","2018/01/18 06:49:35","新北市坪林區水柳腳38號","121.70976","24.9351716666667","6502000","坪林區"
"232010","375-UM","2018/01/18 06:49:25","新北市坪林區鶯子瀨12-1號","121.712723333333","24.914685","6502000","坪林區"
"232018","705-BZ","2018/01/18 06:49:23","新北市坪林區鶯子瀨12-1號","121.714146666667","24.9132283333333","6502000","坪林區"
"232007","758-BX","2018/01/18 06:49:31","新北市坪林區碇坪路三段410號","121.712388333333","24.936625","6502000","坪林區"
"235044","293-VK","2018/01/18 06:49:22","新北市中和區和平街29-1號","121.507478333333","24.990965","6500300","中和區"
"223006","022-BY","2018/01/18 06:49:36","新北市石碇區新興坑26號","121.650331666667","25.0164666666667","6501900","石碇區"
"223002","198-BX","2018/01/18 06:49:33","新北市石碇區烏塗窟30-3號","121.655445","24.9739783333333","6501900","石碇區"
"235002","251-BX","2018/01/18 06:49:33","新北市中和區莒光路3巷1號","121.471813333333","25.0060566666667","6500300","中和區"
"223008","406-TH","2018/01/18 06:49:09","新北市深坑區文山路一段8號","121.64431","25.008715","6501900","石碇區"
"223004","660-BX","2018/01/18 06:49:31","新北市石碇區碇坪路一段125號","121.666183333333","24.9865016666667","6501900","石碇區"
"223007","661-BX","2018/01/18 06:47:44","新北市深坑區文山路一段8號","121.644301666667","25.0088283333333","6501900","石碇區"
"223005","677-TV","2018/01/18 06:49:35","新北市石碇區碇坪路一段125號","121.66625","24.9864383333333","6501900","石碇區"
"227007","282-VK","2018/01/18 06:49:35","新北市雙溪區新基里自強路5號","121.8663","25.038975","6502500","雙溪區"
"252007","AAC-283","2018/01/18 06:49:31","新北市三芝區埔坪里埔頭坑41號","121.504526666667","25.26459","6502100","三芝區"
"220064","282-UM","2018/01/18 06:49:31","新北市板橋區國光路49巷17號","121.45892","25.01878","6500100","板橋區"
