"lineid","car","time","location","longitude","latitude","cityid","cityname"
"248005","653-BX","2018/01/18 07:19:24","新北市五股區明德路12巷6號","121.433333333333","25.0718516666667","6501500","五股區"
"232001","290-BY","2018/01/18 07:19:25","新北市坪林區桶盤嶼8-2號","121.706326666667","24.9572183333333","6502000","坪林區"
"232014","291-BY","2018/01/18 07:19:15","新北市坪林區金瓜寮13-1號","121.681905","24.9160183333333","6502000","坪林區"
"232010","375-UM","2018/01/18 07:19:25","新北市坪林區水聳淒坑7-3號","121.725571666667","24.92759","6502000","坪林區"
"232018","705-BZ","2018/01/18 07:19:23","新北市坪林區樟空子5號","121.726993333333","24.9680633333333","6502000","坪林區"
"232007","758-BX","2018/01/18 07:19:34","新北市坪林區魚堀52-2號","121.704581666667","24.9308866666667","6502000","坪林區"
"244003","248-BX","2018/01/18 07:19:21","新北市林口區頭湖99-1號","121.367751666667","25.079715","6501700","林口區"
"222006","289-BY","2018/01/18 07:19:20","新北市深坑區平埔街22巷17弄1號","121.614823333333","25.0008683333333","6501800","深坑區"
"235044","293-VK","2018/01/18 07:19:22","新北市中和區和平街29-1號","121.507481666667","24.9909966666667","6500300","中和區"
"235001","611-BX","2018/01/18 07:19:26","新北市中和區圓通路367巷4號","121.4914","24.9892933333333","6500300","中和區"
"226005","5620-A6","2018/01/18 07:15:24","新北市平溪區靜安路二段123號","121.721635","25.02358","6502400","平溪區"
"226002","8452-VL","2018/01/18 07:19:18","新北市平溪區南山里南山坪6號","121.764885","25.0318466666667","6502400","平溪區"
"226003","AGD-0702","2018/01/18 07:19:30","新北市平溪區白石里中埔226號","121.721815","25.0201083333333","6502400","平溪區"
"223006","022-BY","2018/01/18 07:19:36","新北市石碇區靜安路一段118號","121.656663333333","25.006895","6501900","石碇區"
"223002","198-BX","2018/01/18 07:19:33","新北市石碇區北宜路五段56-1號","121.63278","24.9527116666667","6501900","石碇區"
"235002","251-BX","2018/01/18 07:19:33","新北市中和區莒光路3巷1號","121.47183","25.0060533333333","6500300","中和區"
"223008","406-TH","2018/01/18 07:19:29","新北市石碇區番子坑33號","121.678016666667","25.0074416666667","6501900","石碇區"
"223001","437-BY","2018/01/18 07:19:31","新北市石碇區烏塗窟8號","121.655896666667","24.975005","6501900","石碇區"
"223004","660-BX","2018/01/18 07:19:31","新北市石碇區新興坑1-1號","121.654075","25.0148983333333","6501900","石碇區"
"223005","677-TV","2018/01/18 07:19:35","新北市石碇區新興坑1-1號","121.653413333333","25.0136983333333","6501900","石碇區"
"227007","282-VK","2018/01/18 07:19:35","新北市雙溪區新基里自強路7號","121.866285","25.0390383333333","6502500","雙溪區"
"252004","249-BX","2018/01/18 07:19:34","新北市三芝區福德里大湖8-2號","121.503738333333","25.2256666666667","6502100","三芝區"
"252007","AAC-283","2018/01/18 07:19:31","新北市三芝區錫板里小坑子2-1號","121.492246666667","25.2475183333333","6502100","三芝區"
"236009","165-UM","2018/01/18 07:19:31","新北市土城區中央路一段9號","121.44865","24.9912783333333","6501300","土城區"
"236003","339-SR","2018/01/18 07:19:33","新北市土城區和平路38-10號","121.44758","24.9699033333333","6501300","土城區"
"242049","751-BX","2018/01/18 07:19:19","新北市新莊區新泰路357巷3弄57號","121.442023333333","25.0392266666667","6500500","新莊區"
"242026","612-BX","2018/01/18 07:19:27","新北市新莊區三和路12-21號","121.442038333333","25.0388116666667","6500500","新莊區"
"242059","362-BY","2018/01/18 07:19:19","新北市新莊區三和路12-21號","121.44212","25.0382933333333","6500500","新莊區"
"242045","172-VK","2018/01/18 07:16:10","新北市新莊區新泰路357巷3弄57號","121.442135","25.0393566666667","6500500","新莊區"
"242010","351-TH","2018/01/18 07:19:33","新北市新莊區新泰路357巷3弄57號","121.442043333333","25.039565","6500500","新莊區"
"220064","282-UM","2018/01/18 07:19:32","新北市板橋區國光路31巷16號","121.457961666667","25.0181133333333","6500100","板橋區"
