"lineid","car","time","location","longitude","latitude","cityid","cityname"
"248005","653-BX","2018/03/12 07:49:17","新北市五股區明德路12巷8號","121.43337","25.07193","6501500","五股區"
"232001","290-BY","2018/03/12 07:49:24","新北市坪林區下坑子口18-3號","121.710328333333","24.9466133333333","6502000","坪林區"
"232010","375-UM","2018/03/12 07:49:27","新北市坪林區磨壁潭10號","121.722461666667","24.93843","6502000","坪林區"
"232017","705-BZ","2018/03/12 07:49:23","新北市坪林區乾溪3號","121.740331666667","24.97464","6502000","坪林區"
"232005","758-BX","2018/03/12 07:49:22","新北市坪林區九芎林19-5號","121.70831","24.928265","6502000","坪林區"
"244001","248-BX","2018/03/12 07:49:23","新北市林口區頂福76號","121.329208333333","25.1022566666667","6501700","林口區"
"244018","402-UM","2018/03/12 07:49:33","新北市林口區粉寮69號","121.405048333333","25.090855","6501700","林口區"
"244024","742-UY","2018/03/12 07:49:20","新北市林口區粉寮路二段160巷28號","121.405191666667","25.0908066666667","6501700","林口區"
"222005","289-BY","2018/03/12 07:49:32","新北市深坑區文化街60號","121.618746666667","25.0017033333333","6501800","深坑區"
"235001","611-BX","2018/03/12 07:49:21","新北市中和區圓通路367巷4號","121.491398333333","24.9892516666667","6500300","中和區"
"247024","335-TH","2018/03/12 07:49:30","新北市蘆洲區光華路188號","121.464725","25.0819516666667","6501400","蘆洲區"
"226005","5620-A6","2018/03/12 07:49:23","新北市平溪區嶺腳里中華街63號","121.739521666667","25.0251466666667","6502400","平溪區"
"226001","7418-A5","2018/03/12 07:49:32","新北市平溪區平湖里大湖9號","121.781416666667","25.024725","6502400","平溪區"
"226003","AGD-0702","2018/03/12 07:37:21","新北市平溪區望古里望古坑13-3號","121.75494","25.03735","6502400","平溪區"
"223006","022-BY","2018/03/12 07:49:31","新北市石碇區蚯蚓坑22-1號","121.688145","25.0072983333333","6501900","石碇區"
"223001","205-TH","2018/03/12 07:49:26","新北市石碇區蛇舌子7號","121.664945","24.9665216666667","6501900","石碇區"
"223008","406-TH","2018/03/12 07:49:31","新北市石碇區靜安路一段337號","121.699006666667","25.0148016666667","6501900","石碇區"
"223001","592-UM","2018/03/12 07:49:17","新北市石碇區蛇舌子7-1號","121.663961666667","24.965995","6501900","石碇區"
"223004","660-BX","2018/03/12 07:49:17","新北市石碇區靜安路一段27號","121.642355","25.011585","6501900","石碇區"
"223007","661-BX","2018/03/12 07:49:21","新北市石碇區靜安路一段337號","121.698936666667","25.01455","6501900","石碇區"
"223005","677-TV","2018/03/12 07:49:33","新北市石碇區靜安路一段29號","121.64245","25.0116333333333","6501900","石碇區"
"227005","282-VK","2018/03/12 07:49:21","新北市雙溪區雙溪里太平路54號","121.86475","25.035475","6502500","雙溪區"
"252006","073-UM","2018/03/12 07:49:15","新北市三芝區古庄里四棧橋57號","121.484228333333","25.264835","6502100","三芝區"
"252004","249-BX","2018/03/12 07:49:21","新北市三芝區店子里店子72-3號","121.50864","25.203845","6502100","三芝區"
"237001","159-UY","2018/03/12 07:49:17","新北市三峽區國慶路136號","121.375875","24.9396416666667","6500900","三峽區"
"236007","165-UM","2018/03/12 07:49:30","新北市土城區永豐路270巷17號","121.4698","24.9772133333333","6501300","土城區"
"236001","339-SR","2018/03/12 07:49:19","新北市土城區南天母路111巷6-2號","121.448418333333","24.955015","6501300","土城區"
"242057","986-R7","2018/03/12 07:49:30","新北市新莊區三和路12-15號","121.442276666667","25.0373083333333","6500500","新莊區"
"242052","751-BX","2018/03/12 07:49:15","新北市新莊區環河路506號","121.438635","25.0163066666667","6500500","新莊區"
"242059","705-TV","2018/03/12 07:49:18","新北市新莊區中正路400號","121.441948333333","25.034145","6500500","新莊區"
"242026","615-BX","2018/03/12 07:49:28","新北市新莊區復興路一段91號","121.448756666667","25.0426933333333","6500500","新莊區"
"242024","613-BX","2018/03/12 07:49:17","新北市新莊區中平路82巷29號","121.44607","25.044875","6500500","新莊區"
"242028","612-BX","2018/03/12 07:49:32","新北市新莊區幸福路651號","121.451171666667","25.0491233333333","6500500","新莊區"
"242040","566-BX","2018/03/12 07:49:31","新北市新莊區新樹路4號","121.440956666667","25.033245","6500500","新莊區"
"242018","497-BY","2018/03/12 07:49:31","新北市新莊區中港路292號","121.452846666667","25.0446833333333","6500500","新莊區"
"242035","442-UM","2018/03/12 07:49:16","新北市新莊區中正路471號","121.441806666667","25.0337566666667","6500500","新莊區"
"242049","441-UM","2018/03/12 07:49:23","新北市新莊區瓊林南路42巷1-1號","121.436003333333","25.0179283333333","6500500","新莊區"
"242055","440-UM","2018/03/12 07:49:22","新北市新莊區中正路473-1號","121.44185","25.0329116666667","6500500","新莊區"
"242006","413-TV","2018/03/12 07:49:33","新北市新莊區新泰路500號","121.442403333333","25.0459","6500500","新莊區"
"242043","400-BY","2018/03/12 07:49:16","新北市新莊區富國路101-1號","121.421333333333","25.02555","6500500","新莊區"
"242022","362-BY","2018/03/12 07:49:27","新北市新莊區中港路316號","121.452361666667","25.0455016666667","6500500","新莊區"
"242008","132-UY","2018/03/12 07:49:31","新北市新莊區中誠街168號","121.448056666667","25.0474333333333","6500500","新莊區"
"242038","133-UY","2018/03/12 07:49:20","新北市新莊區新樹路138-1號","121.435323333333","25.023505","6500500","新莊區"
"242030","135-UY","2018/03/12 07:49:17","新北市新莊區新泰路357巷3弄1號","121.442293333333","25.04132","6500500","新莊區"
"242047","172-VK","2018/03/12 07:49:21","新北市新莊區龍安路252號","121.42117","25.0195683333333","6500500","新莊區"
"242016","175-VK","2018/03/12 07:49:30","新北市新莊區中港一街149號","121.447705","25.04508","6500500","新莊區"
"242003","176-VK","2018/03/12 07:49:30","新北市新莊區中平路111號","121.444633333333","25.04638","6500500","新莊區"
"242014","346-TH","2018/03/12 07:49:17","新北市新莊區新泰路207號","121.446716666667","25.0385133333333","6500500","新莊區"
"242020","348-TH","2018/03/12 07:49:19","新北市新莊區中港路203號","121.45486","25.0419116666667","6500500","新莊區"
"242001","349-TH","2018/03/12 07:49:13","新北市新莊區新泰路257號","121.445931666667","25.0398633333333","6500500","新莊區"
"242012","351-TH","2018/03/12 07:49:27","新北市新莊區中環路二段392-1號","121.442366666667","25.0456433333333","6500500","新莊區"
"220057","282-UM","2018/03/12 07:49:25","新北市板橋區南雅南路二段114號","121.453478333333","25.0008383333333","6500100","板橋區"
"242010","281-VK","2018/03/12 07:49:29","新北市新莊區新泰路484號","121.442638333333","25.04571","6500500","新莊區"
"242045","280-VK","2018/03/12 07:49:30","新北市新莊區新樹路65-5號","121.439351666667","25.0308383333333","6500500","新莊區"
