"lineid","car","time","location","longitude","latitude","cityid","cityname"
"248004","653-BX","2018/11/17 08:09:49","新北市五股區明德路12巷6號","121.433501666667","25.07183","6501500","五股區"
"244005","248-BX","2018/11/17 08:09:45","新北市林口區下福里147-20號","121.300146666667","25.1164283333333","6501700","林口區"
"222004","289-BY","2018/11/17 07:50:30","新北市深坑區昇高坑路51-1號","121.629363333333","24.9947566666667","6501800","深坑區"
"231007","189-VK","2018/11/17 08:09:58","新北市新店區新潭路一段27號","121.523365","24.9423266666667","6500600","新店區"
"231008","192-VK","2018/11/17 08:09:51","新北市新店區北宜路一段286號","121.54658","24.9526483333333","6500600","新店區"
"235001","611-BX","2018/11/17 08:09:51","新北市中和區圓通路367巷33弄107號","121.495251666667","24.9841066666667","6500300","中和區"
"226005","5620-A6","2018/11/17 08:09:44","新北市平溪區靜安路二段561號","121.750756666667","25.0239366666667","6502400","平溪區"
"226007","7418-A5","2018/11/17 08:09:44","新北市平溪區十分里姜仔坑12號","121.769131666667","25.0380383333333","6502400","平溪區"
"226003","AGD-0702","2018/11/17 08:09:57","新北市平溪區十分里十分街293號","121.775638333333","25.0470016666667","6502400","平溪區"
"223006","022-BY","2018/11/17 08:06:58","新北市石碇區烏塗窟26-2號","121.657573333333","24.9759983333333","6501900","石碇區"
"223002","KEA-2673","2018/11/17 08:09:48","新北市石碇區石崁1號","121.651928333333","25.0011116666667","6501900","石碇區"
"223003","205-TH","2018/11/17 08:09:51","新北市石碇區月扇湖1號","121.656528333333","24.9541866666667","6501900","石碇區"
"223008","406-TH","2018/11/17 08:09:43","新北市石碇區靜安路一段266號","121.684058333333","25.0090733333333","6501900","石碇區"
"223004","437-BY","2018/11/17 08:09:48","新北市石碇區外按16-1號","121.650805","24.9974516666667","6501900","石碇區"
"223001","592-UM","2018/11/17 08:09:06","新北市石碇區月扇湖1號","121.657488333333","24.9547566666667","6501900","石碇區"
"223007","661-BX","2018/11/17 08:09:49","新北市石碇區靜安路一段266號","121.68393","25.0090516666667","6501900","石碇區"
"223005","677-TV","2018/11/17 08:09:52","新北市石碇區外按16-1號","121.650733333333","24.9975266666667","6501900","石碇區"
"227006","282-VK","2018/11/17 08:09:50","新北市雙溪區牡丹里聖南29號","121.85598","25.0503333333333","6502500","雙溪區"
"252004","249-BX","2018/11/17 08:09:52","新北市三芝區興華里車埕25號","121.501888333333","25.1957833333333","6502100","三芝區"
"252007","AAC-283","2018/11/17 08:09:43","新北市三芝區後厝里大片頭90號","121.456165","25.2467816666667","6502100","三芝區"
"237001","159-UY","2018/11/17 08:09:54","新北市三峽區三樹路199號","121.378086666667","24.9421716666667","6500900","三峽區"
