"lineid","car","time","location","longitude","latitude","cityid","cityname"
"248004","653-BX","2018/11/17 10:29:49","新北市五股區中興路三段2巷10號","121.449105","25.081","6501500","五股區"
"244005","410-SL","2018/11/17 10:05:28","新北市林口區粉寮路二段160巷28號","121.40515","25.0907283333333","6501700","林口區"
"231007","189-VK","2018/11/17 10:30:03","新北市新店區新潭路三段131號","121.51045","24.9108166666667","6500600","新店區"
"231008","192-VK","2018/11/17 10:29:51","新北市新店區成功路43號","121.543716666667","24.9017966666667","6500600","新店區"
"227006","282-VK","2018/11/17 10:29:50","新北市雙溪區平林里外平林41號","121.85212","25.03601","6502500","雙溪區"
"252007","AAC-283","2018/11/17 10:30:03","新北市三芝區新庄里番社后2-5號","121.501793333333","25.2659","6502100","三芝區"
