"lineid","car","time","location","longitude","latitude","cityid","cityname"
"248004","653-BX","2018/11/17 10:39:49","新北市五股區工商路8號","121.440748333333","25.0826666666667","6501500","五股區"
"244005","410-SL","2018/11/17 10:39:50","新北市林口區粉寮路二段160巷28號","121.405195","25.0906983333333","6501700","林口區"
"231007","189-VK","2018/11/17 10:40:03","新北市新店區新潭路三段7號","121.508383333333","24.9162866666667","6500600","新店區"
"231008","192-VK","2018/11/17 10:38:11","新北市新店區成功路116號","121.536383333333","24.8943566666667","6500600","新店區"
"227006","282-VK","2018/11/17 10:39:30","新北市雙溪區新基里新基北街72號","121.874731666667","25.0429533333333","6502500","雙溪區"
