"lineid","car","time","location","longitude","latitude","cityid","cityname"
"234084","338-UY","2018/11/17 12:19:50","新北市永和區福和路1號","121.526443333333","25.009865","6500400","永和區"
"234040","862-TW","2018/11/17 12:19:55","新北市永和區福和路1號","121.525553333333","25.009495","6500400","永和區"
"244005","410-SL","2018/11/17 12:19:50","新北市林口區粉寮路二段160巷28號","121.405131666667","25.0906616666667","6501700","林口區"
"228005","097-TW","2018/11/17 12:19:49","新北市貢寮區福連里香蘭街26號","121.984825","25.0211666666667","6502600","貢寮區"
"228004","212-TW","2018/11/17 12:20:01","新北市貢寮區貢寮里長泰路15-1號","121.895113333333","25.0205416666667","6502600","貢寮區"
"207002","749-BX","2018/11/17 12:19:53","新北市萬里區雙興里太和路10-2號","121.657583333333","25.1716683333333","6502800","萬里區"
