"lineid","car","time","location","longitude","latitude","cityid","cityname"
"234044","148-BY","2018/11/17 12:29:53","新北市永和區福和路1號","121.52638","25.0097983333333","6500400","永和區"
"234078","298-R6","2018/11/17 12:29:52","新北市永和區環河東路二段92號","121.524456666667","25.0106433333333","6500400","永和區"
"234084","338-UY","2018/11/17 12:29:49","新北市永和區永貞路29號","121.521041666667","25.006715","6500400","永和區"
"234068","552-UM","2018/11/17 12:29:50","新北市永和區福和路1號","121.525398333333","25.0095116666667","6500400","永和區"
"234015","745-BX","2018/11/17 12:29:57","新北市永和區福和路1號","121.526385","25.0095633333333","6500400","永和區"
"234040","862-TW","2018/11/17 12:29:55","新北市永和區福和路278號","121.517925","25.0075366666667","6500400","永和區"
"234010","9373-KE","2018/11/17 12:30:06","新北市永和區福和路1號","121.525515","25.0095016666667","6500400","永和區"
"234076","969-R7","2018/11/17 12:29:51","新北市永和區福和路30號","121.523825","25.0083983333333","6500400","永和區"
"234066","AAC-212","2018/11/17 12:29:55","新北市永和區福和路1號","121.525771666667","25.00949","6500400","永和區"
"244005","410-SL","2018/11/17 12:29:50","新北市林口區粉寮路二段160巷28號","121.405146666667","25.0906333333333","6501700","林口區"
"228005","097-TW","2018/11/17 12:29:49","新北市貢寮區福連里蓬萊街15號","121.990783333333","24.9995733333333","6502600","貢寮區"
"228004","212-TW","2018/11/17 12:30:01","新北市貢寮區龍崗里嵩陽街2-2號","121.90087","25.0157333333333","6502600","貢寮區"
"207002","749-BX","2018/11/17 12:29:53","新北市萬里區雙興里太和路7-2號","121.658598333333","25.1739233333333","6502800","萬里區"
