"lineid","car","time","location","longitude","latitude","cityid","cityname"
"234078","298-R6","2018/11/17 14:29:33","新北市永和區永亨路70號","121.520981666667","25.0059983333333","6500400","永和區"
"234062","337-UY","2018/11/17 14:29:36","新北市永和區中正路433號","121.517108333333","25.0050816666667","6500400","永和區"
"234084","338-UY","2018/11/17 14:29:29","新北市永和區光復街21號","121.516473333333","25.0174116666667","6500400","永和區"
"234068","552-UM","2018/11/17 14:29:30","新北市永和區中正路560號","121.517201666667","25.005895","6500400","永和區"
"234028","746-BX","2018/11/17 14:29:30","新北市永和區民權路84號","121.519915","24.99699","6500400","永和區"
"234052","KEA-2590","2018/11/17 14:29:25","新北市永和區環河東路一段80號","121.519606666667","25.0165383333333","6500400","永和區"
"234060","AAD-866","2018/11/17 14:29:24","新北市永和區秀朗路一段175號","121.516995","25.0037683333333","6500400","永和區"
"234040","862-TW","2018/11/17 14:29:35","新北市永和區安樂路332巷1號","121.514515","25.005925","6500400","永和區"
"234048","863-TW","2018/11/17 14:29:22","新北市永和區環河西路二段107號","121.506338333333","25.01466","6500400","永和區"
"234025","9371-KE","2018/11/17 14:29:32","新北市中和區中安街80號","121.51209","25.00164","6500400","永和區"
"248017","225-UY","2018/11/17 14:25:48","新北市五股區外寮路13-1號","121.424081666667","25.0809983333333","6501500","五股區"
"234076","969-R7","2018/11/17 14:29:31","新北市永和區民族街81巷50-1號","121.519976666667","24.9964783333333","6500400","永和區"
"234072","AAC-211","2018/11/17 14:29:32","新北市永和區竹林路39巷14號","121.518566666667","25.014645","6500400","永和區"
"234001","AAC-295","2018/11/17 14:29:29","新北市永和區大新街14號","121.514966666667","25.0085333333333","6500400","永和區"
"231002","002-UM","2018/11/17 14:29:28","新北市新店區中央路15號","121.533298333333","24.978335","6500600","新店區"
"231027","0293-UT","2018/11/17 14:29:30","新北市新店區北新路二段228巷13號","121.54341","24.9771566666667","6500600","新店區"
"231028","046-UY","2018/11/17 14:29:35","新北市新店區安康路二段2號","121.516446666667","24.9637566666667","6500600","新店區"
"231001","047-UY","2018/11/17 14:29:31","新北市新店區大新街3-1號","121.543501666667","24.968705","6500600","新店區"
"231005","106-UY","2018/11/17 14:29:32","新北市新店區北新路三段197號","121.540945","24.9846616666667","6500600","新店區"
"231020","108-UY","2018/11/17 14:29:32","新北市新店區桂山路81巷1號","121.56727","24.8992366666667","6500600","新店區"
"231033","110-UY","2018/11/17 14:29:23","新北市新店區安業街33號","121.517416666667","24.9771483333333","6500600","新店區"
"231012","187-VK","2018/11/17 14:29:21","新北市新店區寶興路49號","121.549198333333","24.9733266666667","6500600","新店區"
"231023","KEA-2219","2018/11/17 14:29:38","新北市新店區光明街139號","121.539458333333","24.9620516666667","6500600","新店區"
"231003","268-BY","2018/11/17 14:29:29","新北市新店區中興路一段265號","121.544866666667","24.9674166666667","6500600","新店區"
"231018","278-BY","2018/11/17 14:29:30","新北市新店區中央路153號","121.530091666667","24.9730633333333","6500600","新店區"
"231017","AAD-862","2018/11/17 14:29:26","新北市新店區北宜路三段221號","121.592415","24.9531983333333","6500600","新店區"
"231038","3712-VJ","2018/11/17 14:29:31","新北市新店區溪洲路32-1號","121.533268333333","24.9610633333333","6500600","新店區"
"231037","4716-K9","2018/11/17 14:29:28","新北市新店區車子路30號","121.504295","24.9522","6500600","新店區"
"231036","512-UM","2018/11/17 14:29:29","新北市新店區安祥路109巷143號","121.477405","24.958445","6500600","新店區"
"231013","513-UM","2018/11/17 14:29:29","新北市新店區民權路88-5號","121.536253333333","24.9835466666667","6500600","新店區"
"231034","616-UM","2018/11/17 14:29:28","新北市新店區車子路11號","121.503061666667","24.9520833333333","6500600","新店區"
"231030","618-UM","2018/11/17 14:29:31","新北市新店區安民街67-3號","121.516268333333","24.9667966666667","6500600","新店區"
"231029","897-TW","2018/11/17 14:29:36","新北市新店區安康路三段27號","121.493198333333","24.95321","6500600","新店區"
"231006","898-TW","2018/11/17 14:29:23","新北市新店區北宜路二段228號","121.559765","24.9543116666667","6500600","新店區"
"231004","899-TW","2018/11/17 14:29:26","新北市新店區中正路263-3號","121.538368333333","24.9737683333333","6500600","新店區"
"231024","AKT-0513","2018/11/17 14:29:19","新北市新店區環河路113-1號","121.530815","24.9711283333333","6500600","新店區"
"235030","003-UY","2018/11/17 14:29:32","新北市中和區景新街86號","121.504701666667","24.9987633333333","6500300","中和區"
"235028","005-UY","2018/11/17 14:29:34","新北市中和區南山路127巷17號","121.502996666667","24.99739","6500300","中和區"
"235027","006-UY","2018/11/17 14:29:34","新北市中和區連城路205號","121.494708333333","24.9979133333333","6500300","中和區"
"235020","096-UM","2018/11/17 14:29:29","新北市中和區員山路514巷15號","121.479495","25.00978","6500300","中和區"
"235003","097-UM","2018/11/17 14:29:17","新北市中和區秀峰街103巷7弄4號","121.519453333333","24.9890016666667","6500300","中和區"
"235029","098-UM","2018/11/17 14:29:31","新北市中和區永和路52號","121.499155","25.004085","6500300","中和區"
"235022","151-BY","2018/11/17 14:29:23","新北市中和區連城路509號","121.482406666667","24.9954633333333","6500300","中和區"
"235019","183-VK","2018/11/17 14:29:36","新北市中和區德光路27巷9號","121.47097","25.0036783333333","6500300","中和區"
"235002","185-VK","2018/11/17 14:29:30","新北市中和區自立路99巷1號","121.521988333333","24.9949983333333","6500300","中和區"
"235013","186-VK","2018/11/17 14:29:33","新北市中和區景新街238號","121.508693333333","24.9938716666667","6500300","中和區"
"235031","255-BX","2018/11/17 14:29:35","新北市中和區新生街186巷5弄17號","121.482913333333","24.999115","6500300","中和區"
"235008","293-VK","2018/11/17 14:29:27","新北市中和區捷運路189號","121.50543","24.9913583333333","6500300","中和區"
"235007","352-BY","2018/11/17 14:29:36","新北市中和區景平路185號","121.511618333333","24.9926616666667","6500300","中和區"
"235006","KEA-2878","2018/11/17 14:29:31","新北市中和區中和路350巷15弄12號","121.510876666667","25.001105","6500300","中和區"
"247011","KEA-2869","2018/11/17 14:29:26","新北市蘆洲區復興路231號","121.480073333333","25.0897116666667","6501400","蘆洲區"
"235014","4979-A6","2018/11/17 14:29:31","新北市中和區復興路265號","121.502743333333","24.9902533333333","6500300","中和區"
"235034","558-UM","2018/11/17 14:29:35","新北市中和區景平路634-1號","121.500146666667","24.9981833333333","6500300","中和區"
"235009","565-BX","2018/11/17 14:29:25","新北市中和區景新街392-1號","121.512555","24.9897533333333","6500300","中和區"
"235018","640-BX","2018/11/17 14:29:18","新北市中和區國光街112巷22弄14號","121.470263333333","25.002335","6500300","中和區"
"235024","647-TV","2018/11/17 14:29:35","新北市中和區員山路294巷21號","121.482366666667","25.00264","6500300","中和區"
"235011","732-UM","2018/11/17 14:29:33","新北市中和區景平路259巷32號","121.507053333333","24.99276","6500300","中和區"
"235010","733-UM","2018/11/17 14:29:32","新北市中和區忠孝街37巷52號","121.511086666667","24.9850066666667","6500300","中和區"
"235035","783-BX","2018/11/17 14:29:24","新北市中和區連城路469巷7號","121.48364","24.9956533333333","6500300","中和區"
"235026","800-TS","2018/11/17 14:29:23","新北市中和區中山路二段488-1號","121.487468333333","25.00487","6500300","中和區"
"235021","801-TS","2018/11/17 14:29:36","新北市中和區中山路三段37巷35號","121.479525","25.004685","6500300","中和區"
"235016","805-TS","2018/11/17 14:29:32","新北市中和區華新街143巷69弄7號","121.507293333333","24.9787633333333","6500300","中和區"
"235012","896-TW","2018/11/17 14:29:22","新北市中和區忠孝街66號","121.511923333333","24.984015","6500300","中和區"
"235017","900-TW","2018/11/17 14:29:34","新北市中和區民德路197-2號","121.46864","24.998875","6500300","中和區"
"235036","911-UM","2018/11/17 14:29:28","新北市中和區莊敬路33巷2-2號","121.500488333333","25.0050616666667","6500300","中和區"
"235015","157-BY","2018/11/17 14:29:37","新北市中和區中興街132巷1號","121.499523333333","24.992195","6500300","中和區"
"235001","AAC-213","2018/11/17 14:29:33","新北市中和區秀朗路三段10巷14弄42號","121.52447","24.9965516666667","6500300","中和區"
"235023","AAC-215","2018/11/17 14:29:38","新北市中和區圓通路333號","121.492096666667","24.9906166666667","6500300","中和區"
"220016","013-TV","2018/11/17 14:29:28","新北市板橋區萬安街51號","121.483973333333","25.023795","6500100","板橋區"
"220013","072-UY","2018/11/17 14:29:33","新北市板橋區實踐路93巷83號","121.467256666667","25.005815","6500100","板橋區"
"220034","073-UY","2018/11/17 14:29:30","新北市板橋區中正路216巷23號","121.456673333333","25.01868","6500100","板橋區"
"220105","075-UY","2018/11/17 14:29:38","新北市板橋區江寧路三段83-2號","121.472531666667","25.032525","6500100","板橋區"
"220017","AAD-861","2018/11/17 14:29:36","新北市板橋區貴興路31號","121.457628333333","25.0040083333333","6500100","板橋區"
"247001","893-R6","2018/11/17 14:29:35","新北市蘆洲區永樂街38巷33弄6-1號","121.45777","25.08956","6501400","蘆洲區"
"247015","546-UM","2018/11/17 14:29:28","新北市蘆洲區中正路185巷78弄9號","121.466008333333","25.08452","6501400","蘆洲區"
"247023","500-BY","2018/11/17 14:29:26","新北市蘆洲區中正路263巷2號","121.467198333333","25.087535","6501400","蘆洲區"
"247013","339-TH","2018/11/17 14:29:35","新北市蘆洲區成功路164號","121.47147","25.0834266666667","6501400","蘆洲區"
"247005","337-TH","2018/11/17 14:29:31","新北市蘆洲區長安街91號","121.46201","25.0804566666667","6501400","蘆洲區"
"247019","057-VK","2018/11/17 14:29:35","新北市蘆洲區仁愛街145巷3-1號","121.469921666667","25.0947983333333","6501400","蘆洲區"
"247009","056-VK","2018/11/17 14:29:29","新北市蘆洲區信義路146號","121.479538333333","25.083095","6501400","蘆洲區"
"247007","053-VK","2018/11/17 14:29:21","新北市蘆洲區信義路30巷22號","121.47436","25.0786933333333","6501400","蘆洲區"
"247017","007-UY","2018/11/17 14:29:29","新北市蘆洲區復興路195號","121.479343333333","25.089515","6501400","蘆洲區"
"247003","002-UY","2018/11/17 14:29:33","新北市蘆洲區長安街271號","121.458576666667","25.0840016666667","6501400","蘆洲區"
"247021","001-UY","2018/11/17 14:29:21","新北市五股區中興路二段182巷5號","121.456755","25.07854","6501400","蘆洲區"
"235005","251-BX","2018/11/17 14:29:21","新北市中和區景安路46號","121.506998333333","24.9980183333333","6500300","中和區"
"228005","097-TW","2018/11/17 14:29:29","新北市貢寮區美豐里巫里岸9-1號","121.901973333333","25.0700566666667","6502600","貢寮區"
"228004","212-TW","2018/11/17 14:29:40","新北市貢寮區雙玉里田寮洋街34-1號","121.931011666667","25.014995","6502600","貢寮區"
"253003","6232-TK","2018/11/17 14:29:22","新北市石門區尖子鹿29號","121.580681666667","25.262455","6502200","石門區"
"253004","6251-TK","2018/11/17 14:29:25","新北市石門區內阿里磅31-4號","121.588738333333","25.2414716666667","6502200","石門區"
"253002","637-UY","2018/11/17 14:29:30","新北市石門區楓林47號","121.542336666667","25.2783783333333","6502200","石門區"
"253001","KEC-0718","2018/11/17 14:29:24","新北市石門區八甲34號","121.532378333333","25.2704633333333","6502200","石門區"
"207002","749-BX","2018/11/17 14:28:53","新北市萬里區溪底里香員林路17-1號","121.63593","25.159985","6502800","萬里區"
"252005","073-UM","2018/11/17 14:29:36","新北市三芝區橫山里大坑98-2號","121.526141666667","25.2607466666667","6502100","三芝區"
"207001","662-BX","2018/11/17 14:29:29","新北市萬里區磺潭里清水9號","121.640471666667","25.2000016666667","6502800","萬里區"
"236068","105-UM","2018/11/17 14:29:41","新北市土城區永豐路255巷27弄47號","121.477135","24.97371","6501300","土城區"
"236040","KED-0685","2018/11/17 14:29:29","新北市土城區裕民路52號","121.448461666667","24.9881533333333","6501300","土城區"
"236074","166-UM","2018/11/17 14:29:29","新北市土城區中央路四段47號","121.42201","24.9617083333333","6501300","土城區"
"236029","253-BX","2018/11/17 14:29:28","新北市土城區水源街81巷7號","121.43939","24.9758516666667","6501300","土城區"
"236024","269-VK","2018/11/17 14:29:27","新北市土城區承天路18號","121.439485","24.9635383333333","6501300","土城區"
"236013","270-VK","2018/11/17 14:29:22","新北市土城區青雲路39巷7號","121.460341666667","24.987485","6501300","土城區"
"236032","271-VK","2018/11/17 14:29:30","新北市土城區明德路一段311號","121.459536666667","24.9771366666667","6501300","土城區"
"236017","401-BY","2018/11/17 14:29:27","新北市土城區永豐路202巷7-2號","121.466206666667","24.9831116666667","6501300","土城區"
"236057","752-BX","2018/11/17 14:29:36","新北市土城區中央路四段146號","121.417303333333","24.9583766666667","6501300","土城區"
"236045","913-UM","2018/11/17 14:29:37","新北市土城區青雲路364號","121.458718333333","24.9739983333333","6501300","土城區"
"236060","915-UM","2018/11/17 14:29:26","新北市土城區延壽路111巷5號","121.468895","24.993625","6501300","土城區"
"236054","AAC-216","2018/11/17 14:29:22","新北市土城區中華路一段247號","121.4408","24.9815","6501300","土城區"
"221010","269-BY","2018/11/17 14:29:32","新北市汐止區長青路210巷52號","121.614875","25.1176616666667","6501100","汐止區"
"221012","278-VK","2018/11/17 14:29:37","台北市文山區指南路三段1-1號","121.581465","24.9774766666667","6501100","汐止區"
"221033","647-BX","2018/11/17 14:29:33","新北市汐止區康寧街901號","121.65083","25.0752333333333","6501100","汐止區"
"220027","145-BY","2018/11/17 14:29:35","新北市板橋區復興街56-2號","121.458791666667","25.0175483333333","6500100","板橋區"
"220028","200-UY","2018/11/17 14:29:34","新北市板橋區大觀路二段37巷154號","121.449263333333","25.0011083333333","6500100","板橋區"
"220040","267-BY","2018/11/17 14:29:34","新北市板橋區文聖街135巷17號","121.478798333333","25.0288283333333","6500100","板橋區"
"220004","276-BY","2018/11/17 14:29:25","新北市板橋區信義路1巷26弄30號","121.45832","24.996455","6500100","板橋區"
"220020","277-BY","2018/11/17 14:29:20","新北市板橋區金門街215巷29號","121.432871666667","24.9897916666667","6500100","板橋區"
"220050","280-UM","2018/11/17 14:29:31","新北市板橋區縣民大道三段69號","121.474986666667","25.0213716666667","6500100","板橋區"
"220012","282-UM","2018/11/17 14:29:31","新北市板橋區中山路一段24號","121.460436666667","25.0081316666667","6500100","板橋區"
"220019","283-VK","2018/11/17 14:29:30","新北市板橋區四川路一段325巷3弄5號","121.459451666667","25.0004416666667","6500100","板橋區"
"220043","285-UM","2018/11/17 14:29:20","新北市板橋區文化路二段225巷60弄71號","121.469035","25.0300016666667","6500100","板橋區"
"220001","285-VK","2018/11/17 14:29:32","新北市板橋區永豐街102號","121.47596","25.02053","6500100","板橋區"
"220029","287-VK","2018/11/17 14:29:17","新北市板橋區大觀路一段29巷131弄136號","121.45122","25.00399","6500100","板橋區"
"220039","288-VK","2018/11/17 14:29:33","新北市板橋區長江路一段48巷4弄1號","121.459141666667","25.02847","6500100","板橋區"
"220009","295-UM","2018/11/17 14:29:36","新北市板橋區中山路一段291-2號","121.470703333333","25.0142133333333","6500100","板橋區"
"220032","296-UM","2018/11/17 14:29:40","新北市板橋區滿平街84巷120弄28號","121.426036666667","24.9855733333333","6500100","板橋區"
"220023","303-R5","2018/11/17 14:29:28","新北市板橋區中正路291號","121.45531","25.0193016666667","6500100","板橋區"
"220010","305-R5","2018/11/17 14:29:29","新北市板橋區三民路二段81巷23號","121.480433333333","25.0167133333333","6500100","板橋區"
"220041","307-R5","2018/11/17 14:29:30","新北市板橋區光武街2巷20號","121.468556666667","25.025255","6500100","板橋區"
"220047","317-R6","2018/11/17 14:29:28","新北市板橋區四維路326巷8號","121.462618333333","25.0304516666667","6500100","板橋區"
"220038","487-VK","2018/11/17 14:29:24","新北市板橋區文化路一段71號","121.461056666667","25.0138033333333","6500100","板橋區"
"242046","280-VK","2018/11/17 14:29:34","新北市樹林區中山路三段214號","121.380491666667","24.9667016666667","6500500","新莊區"
"220104","560-BX","2018/11/17 14:29:22","新北市板橋區新生街98巷18號","121.458913333333","25.0216266666667","6500100","板橋區"
"220052","561-BX","2018/11/17 14:29:25","新北市板橋區文化路一段270巷1號","121.467403333333","25.0206433333333","6500100","板橋區"
"220031","568-UM","2018/11/17 14:29:35","新北市板橋區龍興街65巷2號","121.443565","25.0014133333333","6500100","板橋區"
"220011","609-BX","2018/11/17 14:29:37","新北市板橋區三民路一段140號","121.479218333333","25.020385","6500100","板橋區"
"220005","686-BX","2018/11/17 14:29:23","新北市板橋區五權街20號","121.46444","24.9938733333333","6500100","板橋區"
"220025","687-BX","2018/11/17 14:29:33","新北市板橋區僑中二街52號","121.44674","25.010315","6500100","板橋區"
"220042","689-BX","2018/11/17 14:29:38","新北市板橋區雨農路28號","121.461398333333","25.0245033333333","6500100","板橋區"
"220002","741-BX","2018/11/17 14:29:26","新北市板橋區光明街31號","121.461068333333","25.002795","6500100","板橋區"
"220018","806-UM","2018/11/17 14:29:30","新北市板橋區館前東路41號","121.460995","25.0074133333333","6500100","板橋區"
"220003","827-TW","2018/11/17 14:29:24","新北市板橋區重慶路290巷3號","121.461511666667","24.9986283333333","6500100","板橋區"
"220014","829-TW","2018/11/17 14:29:36","新北市板橋區漢生東路313巷26號","121.47287","25.0084966666667","6500100","板橋區"
"220051","830-TW","2018/11/17 14:29:38","新北市板橋區松柏街22巷23號","121.474936666667","25.0293283333333","6500100","板橋區"
"220045","831-TW","2018/11/17 14:29:27","新北市板橋區民生路二段226巷17弄1號","121.470388333333","25.0220283333333","6500100","板橋區"
"220037","833-TW","2018/11/17 14:29:39","新北市板橋區縣民大道三段153號","121.478465","25.0239666666667","6500100","板橋區"
"220022","895-R6","2018/11/17 14:29:29","新北市板橋區府中路143-1號","121.455575","25.0091633333333","6500100","板橋區"
"220021","985-R7","2018/11/17 14:29:33","新北市板橋區新生街89巷6號","121.458053333333","25.0222366666667","6500100","板橋區"
"220046","AAC-210","2018/11/17 14:29:07","新北市板橋區漢生西路153巷2號","121.463058333333","25.0228216666667","6500100","板橋區"
"220030","AAC-253","2018/11/17 14:29:19","新北市板橋區金門街252號","121.430375","24.9870216666667","6500100","板橋區"
"235032","KEA-2873","2018/11/17 14:29:08","新北市中和區廟美街30號","121.500648333333","25.0018633333333","6500300","中和區"
"235025","KEA-2875","2018/11/17 14:29:35","新北市中和區民利街74號","121.478388333333","24.9983366666667","6500300","中和區"
"235004","KEA-2876","2018/11/17 14:29:26","新北市中和區保健路94號","121.512246666667","24.99601","6500300","中和區"
