"lineid","car","time","location","longitude","latitude","cityid","cityname"
"234062","337-UY","2018/11/17 14:39:36","新北市永和區環河西路二段203號","121.50183","25.0109766666667","6500400","永和區"
"234028","746-BX","2018/11/17 14:39:30","新北市永和區民權路84號","121.519831666667","24.9970433333333","6500400","永和區"
"234048","863-TW","2018/11/17 14:39:22","新北市永和區保安路218號","121.507325","25.0135716666667","6500400","永和區"
"234025","9371-KE","2018/11/17 14:39:32","新北市永和區雙和街7巷9號","121.509511666667","25.0013583333333","6500400","永和區"
"248017","225-UY","2018/11/17 14:25:48","新北市五股區外寮路13-1號","121.424081666667","25.0809983333333","6501500","五股區"
"234072","AAC-211","2018/11/17 14:39:32","新北市永和區環河東路二段54-1號","121.523348333333","25.011495","6500400","永和區"
"231002","002-UM","2018/11/17 14:39:28","新北市新店區中正路468號","121.534016666667","24.9794216666667","6500600","新店區"
"231027","0293-UT","2018/11/17 14:39:30","新北市新店區寶橋路85巷5弄3號","121.54591","24.97574","6500600","新店區"
"231028","046-UY","2018/11/17 14:39:35","新北市新店區安成街25號","121.51016","24.9609066666667","6500600","新店區"
"231001","047-UY","2018/11/17 14:39:31","新北市新店區中正路80號","121.543773333333","24.97022","6500600","新店區"
"231005","106-UY","2018/11/17 14:39:30","新北市新店區復興路2號","121.532436666667","24.9882566666667","6500600","新店區"
"231020","108-UY","2018/11/17 14:39:32","新北市新店區桂山路37號","121.56108","24.9018283333333","6500600","新店區"
"231012","187-VK","2018/11/17 14:39:21","新北市新店區寶宏路30號","121.549421666667","24.9757833333333","6500600","新店區"
"231023","KEA-2219","2018/11/17 14:39:38","新北市新店區檳榔路22巷1號","121.541353333333","24.96412","6500600","新店區"
"231003","268-BY","2018/11/17 14:39:29","新北市新店區中興路一段283號","121.545431666667","24.968455","6500600","新店區"
"231018","278-BY","2018/11/17 14:39:30","新北市新店區中央二街5巷3號","121.529103333333","24.97281","6500600","新店區"
"231017","AAD-862","2018/11/17 14:39:26","新北市新店區北宜路三段221號","121.592465","24.9532216666667","6500600","新店區"
"231038","3712-VJ","2018/11/17 14:39:31","新北市新店區安康路一段72號","121.528388333333","24.9619033333333","6500600","新店區"
"231037","4716-K9","2018/11/17 14:39:28","新北市新店區安康路二段320巷6號","121.504463333333","24.9587533333333","6500600","新店區"
"231036","512-UM","2018/11/17 14:39:29","新北市新店區安祥路106巷6弄1號","121.478896666667","24.9626183333333","6500600","新店區"
"231013","513-UM","2018/11/17 14:39:29","新北市新店區明德路20號","121.542181666667","24.9769983333333","6500600","新店區"
"231034","616-UM","2018/11/17 14:39:28","新北市新店區黎明路51巷1號","121.502005","24.9493066666667","6500600","新店區"
"231030","618-UM","2018/11/17 14:39:31","新北市新店區安民街200號","121.517331666667","24.9717466666667","6500600","新店區"
"231029","897-TW","2018/11/17 14:39:27","新北市新店區安康路三段578-2號","121.480361666667","24.9482683333333","6500600","新店區"
"231006","898-TW","2018/11/17 14:39:23","新北市新店區北宜路二段103號","121.550238333333","24.95238","6500600","新店區"
"231004","899-TW","2018/11/17 14:39:40","新北市新店區中正路283號","121.537413333333","24.97449","6500600","新店區"
"231024","AKT-0513","2018/11/17 14:39:19","新北市新店區新生街5巷10號","121.539836666667","24.96577","6500600","新店區"
"235030","003-UY","2018/11/17 14:39:38","新北市中和區中和路196巷10號","121.505048333333","24.9990716666667","6500300","中和區"
"235027","006-UY","2018/11/17 14:39:34","新北市中和區連城路263巷23號","121.492663333333","24.9948066666667","6500300","中和區"
"235020","096-UM","2018/11/17 14:39:29","新北市中和區員山路581巷31弄27號","121.4766","25.0102433333333","6500300","中和區"
"235003","097-UM","2018/11/17 14:39:37","新北市中和區安平路161號","121.512403333333","24.998445","6500300","中和區"
"235029","098-UM","2018/11/17 14:39:31","新北市中和區福祥路90巷5號","121.499526666667","25.0059016666667","6500300","中和區"
"235022","151-BY","2018/11/17 14:39:23","新北市中和區員山路153號","121.481143333333","24.9964166666667","6500300","中和區"
"235019","183-VK","2018/11/17 14:39:35","新北市中和區民生街47號","121.469876666667","25.00525","6500300","中和區"
"235002","185-VK","2018/11/17 14:39:30","新北市中和區自強路27巷22號","121.521606666667","24.99316","6500300","中和區"
"235013","186-VK","2018/11/17 14:39:33","新北市中和區景新街273巷18號","121.510281666667","24.9938816666667","6500300","中和區"
"235031","255-BX","2018/11/17 14:39:35","新北市中和區員山路150巷2弄47號","121.48218","24.9974516666667","6500300","中和區"
"235008","293-VK","2018/11/17 14:39:27","新北市中和區興南路一段107號","121.509348333333","24.9881816666667","6500300","中和區"
"235007","352-BY","2018/11/17 14:39:36","新北市中和區南山路127巷18弄42號","121.503643333333","24.99647","6500300","中和區"
"235006","KEA-2878","2018/11/17 14:39:31","新北市中和區景安路79巷11號","121.506843333333","24.996945","6500300","中和區"
"247011","KEA-2869","2018/11/17 14:39:26","新北市蘆洲區集賢路224巷37弄1號","121.480701666667","25.0880166666667","6501400","蘆洲區"
"235014","4979-A6","2018/11/17 14:39:31","新北市中和區中正路589巷15號","121.486028333333","24.9937816666667","6500300","中和區"
"235034","558-UM","2018/11/17 14:39:31","新北市中和區連勝街9號","121.499108333333","24.9983233333333","6500300","中和區"
"235009","565-BX","2018/11/17 14:39:25","新北市中和區景新街394號","121.512523333333","24.989665","6500300","中和區"
"235018","640-BX","2018/11/17 14:39:18","新北市中和區莒光路65號","121.472366666667","25.003405","6500300","中和區"
"235024","647-TV","2018/11/17 14:39:35","新北市中和區中山路二段481號","121.482948333333","25.0049766666667","6500300","中和區"
"235011","732-UM","2018/11/17 14:39:33","新北市中和區捷運路8號","121.509823333333","24.9895883333333","6500300","中和區"
"235010","733-UM","2018/11/17 14:39:32","新北市中和區景新街493號","121.51382","24.9870983333333","6500300","中和區"
"235026","800-TS","2018/11/17 14:39:23","新北市中和區中山路二段530號","121.485771666667","25.0051116666667","6500300","中和區"
"235021","801-TS","2018/11/17 14:39:36","新北市中和區員山路178號","121.481341666667","25.0001516666667","6500300","中和區"
"235016","805-TS","2018/11/17 14:39:32","新北市中和區華新街206巷20號","121.506216666667","24.98279","6500300","中和區"
"235012","896-TW","2018/11/17 14:39:41","新北市中和區景新街467巷20弄110號","121.51477","24.9865983333333","6500300","中和區"
"235017","900-TW","2018/11/17 14:39:39","新北市中和區民德路197-1號","121.468425","24.9989383333333","6500300","中和區"
"235036","911-UM","2018/11/17 14:39:28","新北市中和區中和路100號","121.500821666667","25.00011","6500300","中和區"
"235015","157-BY","2018/11/17 14:39:37","新北市中和區中興街180巷51弄8號","121.498851666667","24.989115","6500300","中和區"
"235001","AAC-213","2018/11/17 14:39:33","新北市中和區秀朗路三段50巷4弄2號","121.525731666667","24.9956033333333","6500300","中和區"
"235023","AAC-215","2018/11/17 14:39:18","新北市中和區圓通路305巷7弄1號","121.493686666667","24.98996","6500300","中和區"
"220016","013-TV","2018/11/17 14:39:25","新北市板橋區中山路二段422號","121.483265","25.0208633333333","6500100","板橋區"
"220013","072-UY","2018/11/17 14:39:33","新北市板橋區國泰街4號","121.469125","25.0068916666667","6500100","板橋區"
"220034","073-UY","2018/11/17 14:39:30","新北市板橋區中正路250巷122號","121.46004","25.0200916666667","6500100","板橋區"
"220105","075-UY","2018/11/17 14:39:25","新北市板橋區民治街26巷10號","121.47754","25.0337666666667","6500100","板橋區"
"220017","AAD-861","2018/11/17 14:39:36","新北市板橋區貴興路104號","121.455425","25.0025716666667","6500100","板橋區"
"247001","893-R6","2018/11/17 14:39:35","新北市蘆洲區長安街272號","121.457323333333","25.086915","6501400","蘆洲區"
"247015","546-UM","2018/11/17 14:39:28","新北市蘆洲區正和街96巷22號","121.467778333333","25.0812116666667","6501400","蘆洲區"
"247023","500-BY","2018/11/17 14:39:26","新北市蘆洲區正和街65號","121.468845","25.0810416666667","6501400","蘆洲區"
"247013","339-TH","2018/11/17 14:39:35","新北市蘆洲區得勝街145號","121.471758333333","25.083145","6501400","蘆洲區"
"247005","337-TH","2018/11/17 14:39:31","新北市蘆洲區長安街68巷3號","121.462773333333","25.0803216666667","6501400","蘆洲區"
"247019","057-VK","2018/11/17 14:39:35","新北市蘆洲區民義街86巷1號","121.473703333333","25.0902483333333","6501400","蘆洲區"
"247007","053-VK","2018/11/17 14:39:21","新北市蘆洲區信義路29號","121.474235","25.079335","6501400","蘆洲區"
"235005","251-BX","2018/11/17 14:39:21","新北市中和區宜安路144號","121.509588333333","24.99848","6500300","中和區"
"228005","097-TW","2018/11/17 14:39:29","新北市貢寮區美豐里雞母嶺街6-6號","121.902123333333","25.0642516666667","6502600","貢寮區"
"228004","212-TW","2018/11/17 14:39:24","新北市貢寮區福隆里龜壽谷街30-12號","121.946933333333","25.0131016666667","6502600","貢寮區"
"253003","6232-TK","2018/11/17 14:39:22","新北市石門區內石門73號","121.582791666667","25.2573933333333","6502200","石門區"
"253004","6251-TK","2018/11/17 14:39:26","新北市石門區茂林社區226號","121.591375","25.2697333333333","6502200","石門區"
"253002","637-UY","2018/11/17 14:39:30","新北市石門區老崩山7號","121.553221666667","25.291385","6502200","石門區"
"253001","KEC-0718","2018/11/17 14:39:24","新北市石門區崁子腳34號","121.536568333333","25.27968","6502200","石門區"
"207002","749-BX","2018/11/17 14:39:33","新北市萬里區崁腳里崁腳路73號","121.647595","25.159605","6502800","萬里區"
"252005","073-UM","2018/11/17 14:39:36","新北市三芝區橫山里大坑12-1號","121.522813333333","25.2565183333333","6502100","三芝區"
"207001","662-BX","2018/11/17 14:39:29","新北市萬里區磺潭里員潭路59號","121.642653333333","25.1899983333333","6502800","萬里區"
"236068","105-UM","2018/11/17 14:39:29","新北市土城區永豐路183號","121.470026666667","24.978415","6501300","土城區"
"236040","KED-0685","2018/11/17 14:39:29","新北市土城區學成路94巷12號","121.450926666667","24.98932","6501300","土城區"
"236074","166-UM","2018/11/17 14:39:29","新北市土城區中央路四段125巷13-2號","121.416863333333","24.9569816666667","6501300","土城區"
"236029","253-BX","2018/11/17 14:39:40","新北市土城區慶利街28巷2號","121.439096666667","24.9743316666667","6501300","土城區"
"236024","269-VK","2018/11/17 14:39:28","新北市土城區忠義路46號","121.4405","24.9695116666667","6501300","土城區"
"236013","270-VK","2018/11/17 14:39:31","新北市土城區清水路207巷9號","121.460008333333","24.9821733333333","6501300","土城區"
"236032","271-VK","2018/11/17 14:39:30","新北市土城區明德路一段232號","121.460608333333","24.9774416666667","6501300","土城區"
"236017","401-BY","2018/11/17 14:39:27","新北市土城區明德路一段57號","121.465493333333","24.9846233333333","6501300","土城區"
"236057","752-BX","2018/11/17 14:39:36","新北市土城區中央路三段155號","121.432046666667","24.9655266666667","6501300","土城區"
"236045","913-UM","2018/11/17 14:39:37","新北市土城區明德路一段24號","121.465088333333","24.9848666666667","6501300","土城區"
"236060","915-UM","2018/11/17 14:39:26","新北市土城區金城路三段207巷8弄23號","121.470485","24.9908633333333","6501300","土城區"
"236054","AAC-216","2018/11/17 14:39:22","新北市土城區裕民路22號","121.447631666667","24.9885983333333","6501300","土城區"
"221010","269-BY","2018/11/17 14:39:31","新北市汐止區八連路二段610巷4號","121.627935","25.1087333333333","6501100","汐止區"
"221012","278-VK","2018/11/17 14:39:37","新北市汐止區新台五路一段127號","121.651895","25.0616766666667","6501100","汐止區"
"220027","145-BY","2018/11/17 14:39:34","新北市板橋區建國街54巷30號","121.459841666667","25.0170216666667","6500100","板橋區"
"220028","200-UY","2018/11/17 14:39:34","新北市板橋區大觀路二段37巷328號","121.449871666667","25.0023016666667","6500100","板橋區"
"220040","267-BY","2018/11/17 14:39:34","新北市板橋區懷德街139巷20弄6-2號","121.480068333333","25.0306083333333","6500100","板橋區"
"220004","276-BY","2018/11/17 14:39:18","新北市板橋區德興街37巷8號","121.453811666667","24.9937783333333","6500100","板橋區"
"220020","277-BY","2018/11/17 14:39:20","新北市板橋區金門街139號","121.43286","24.9911233333333","6500100","板橋區"
"220050","280-UM","2018/11/17 14:39:35","新北市板橋區萬板路36號","121.471788333333","25.0226216666667","6500100","板橋區"
"220012","282-UM","2018/11/17 14:39:32","新北市板橋區民族路34巷6號","121.461963333333","25.0095816666667","6500100","板橋區"
"220019","283-VK","2018/11/17 14:39:39","新北市板橋區信義路279巷21號","121.464411666667","24.9902583333333","6500100","板橋區"
"220043","285-UM","2018/11/17 14:39:41","新北市板橋區宏國路107號","121.470111666667","25.032225","6500100","板橋區"
"220001","285-VK","2018/11/17 14:39:32","新北市板橋區中山路二段148巷8號","121.476856666667","25.0166566666667","6500100","板橋區"
"220029","287-VK","2018/11/17 14:39:37","新北市板橋區大觀路一段29巷131弄27號","121.450545","25.0046466666667","6500100","板橋區"
"220039","288-VK","2018/11/17 14:39:33","新北市板橋區龍泉街54巷10號","121.456906666667","25.0267316666667","6500100","板橋區"
"220009","295-UM","2018/11/17 14:39:36","新北市板橋區板新路209號","121.468498333333","25.0157616666667","6500100","板橋區"
"220032","296-UM","2018/11/17 14:39:37","新北市板橋區溪崑二街112巷33弄5號","121.425538333333","24.9886833333333","6500100","板橋區"
"220023","303-R5","2018/11/17 14:39:28","新北市板橋區大勇街10巷2號","121.4539","25.017025","6500100","板橋區"
"220010","305-R5","2018/11/17 14:39:29","新北市板橋區三民路二段81巷27弄31號","121.481348333333","25.017635","6500100","板橋區"
"220041","307-R5","2018/11/17 14:39:30","新北市板橋區陽明街40號","121.465835","25.0218333333333","6500100","板橋區"
"220047","317-R6","2018/11/17 14:39:28","新北市板橋區裕民街75巷2弄16號","121.460395","25.02782","6500100","板橋區"
"220038","487-VK","2018/11/17 14:39:24","新北市板橋區英士路49號","121.461043333333","25.02461","6500100","板橋區"
"242046","280-VK","2018/11/17 14:39:34","新北市板橋區金門街215巷111弄24號","121.434336666667","24.9872416666667","6500500","新莊區"
"220104","560-BX","2018/11/17 14:39:22","新北市板橋區金華街27號","121.456","25.0206466666667","6500100","板橋區"
"220052","561-BX","2018/11/17 14:39:25","新北市板橋區文化路一段210號","121.46627","25.0202416666667","6500100","板橋區"
"220031","568-UM","2018/11/17 14:39:35","新北市板橋區僑中三街39號","121.445038333333","25.00463","6500100","板橋區"
"220011","609-BX","2018/11/17 14:39:31","新北市板橋區三民路一段31巷2-4號","121.481866666667","25.02315","6500100","板橋區"
"220005","686-BX","2018/11/17 14:39:38","新北市板橋區和平路61號","121.461115","24.994605","6500100","板橋區"
"220025","687-BX","2018/11/17 14:39:33","新北市板橋區僑中三街40號","121.445231666667","25.0050916666667","6500100","板橋區"
"220042","689-BX","2018/11/17 14:39:21","新北市板橋區新海路429號","121.458083333333","25.027595","6500100","板橋區"
"220002","741-BX","2018/11/17 14:39:26","新北市板橋區忠孝路239巷45號","121.467488333333","25.0036966666667","6500100","板橋區"
"220018","806-UM","2018/11/17 14:39:30","新北市板橋區民族路269號","121.47069","25.006905","6500100","板橋區"
"220003","827-TW","2018/11/17 14:39:24","新北市板橋區國慶路149巷27號","121.46094","24.9976916666667","6500100","板橋區"
"220014","829-TW","2018/11/17 14:39:24","新北市板橋區漢生東路193巷53號","121.471661666667","25.0117583333333","6500100","板橋區"
"220051","830-TW","2018/11/17 14:39:38","新北市板橋區雙十路二段46巷41號","121.476043333333","25.0290916666667","6500100","板橋區"
"220045","831-TW","2018/11/17 14:39:27","新北市板橋區民生路二段234巷77號","121.470288333333","25.02269","6500100","板橋區"
"220037","833-TW","2018/11/17 14:39:21","新北市板橋區文化路二段355號","121.47292","25.030655","6500100","板橋區"
"220022","895-R6","2018/11/17 14:39:29","新北市板橋區府中路29-2號","121.458521666667","25.008","6500100","板橋區"
"220021","985-R7","2018/11/17 14:39:33","新北市板橋區中正路431號","121.454193333333","25.0229733333333","6500100","板橋區"
"220046","AAC-210","2018/11/17 14:39:27","新北市板橋區漢生西路89巷21號","121.461895","25.01928","6500100","板橋區"
"220030","AAC-253","2018/11/17 14:39:19","新北市板橋區存德街2號","121.42947","24.9920616666667","6500100","板橋區"
"235032","KEA-2873","2018/11/17 14:39:08","新北市中和區福美路245號","121.499126666667","25.0052","6500300","中和區"
"235025","KEA-2875","2018/11/17 14:39:20","新北市中和區民安街2巷35弄1號","121.479886666667","25.0015283333333","6500300","中和區"
"235004","KEA-2876","2018/11/17 14:39:26","新北市中和區宜安路5號","121.51319","24.995295","6500300","中和區"
