"lineid","car","time","location","longitude","latitude","cityid","cityname"
"231028","046-UY","2018/11/17 15:29:35","新北市新店區僑信路92號","121.499836666667","24.9478733333333","6500600","新店區"
"231005","106-UY","2018/11/17 15:29:30","新北市新店區建國路257號","121.5373","24.9834383333333","6500600","新店區"
"231020","108-UY","2018/11/17 15:29:31","新北市新店區湖興路109號","121.560223333333","24.9355583333333","6500600","新店區"
"231033","110-UY","2018/11/17 15:29:23","新北市新店區裕合街3號","121.489846666667","24.94981","6500600","新店區"
"231012","187-VK","2018/11/17 15:29:41","新北市新店區寶元路一段109號","121.54567","24.983135","6500600","新店區"
"231023","KEA-2219","2018/11/17 15:29:38","新北市新店區北新路一段339號","121.54186","24.9687633333333","6500600","新店區"
"231026","256-BX","2018/11/17 15:29:21","新北市新店區三民路117巷8弄2號","121.534083333333","24.9711133333333","6500600","新店區"
"231003","268-BY","2018/11/17 15:29:29","新北市新店區寶高路116號","121.554536666667","24.9760716666667","6500600","新店區"
"231018","278-BY","2018/11/17 15:29:30","新北市新店區民生路130號","121.529441666667","24.9818183333333","6500600","新店區"
"231017","AAD-862","2018/11/17 15:29:26","新北市新店區明山路45號","121.563913333333","24.9558333333333","6500600","新店區"
"231038","3712-VJ","2018/11/17 15:29:31","新北市新店區安華路28-1號","121.519758333333","24.960835","6500600","新店區"
"231037","4716-K9","2018/11/17 15:29:28","新北市新店區安興路81號","121.515406666667","24.9752383333333","6500600","新店區"
"231025","4715-K9","2018/11/17 15:29:26","新北市新店區柴埕路116號","121.504731666667","24.9598933333333","6500600","新店區"
"231036","512-UM","2018/11/17 15:29:29","新北市新店區安祥路69巷89弄15號","121.48298","24.959895","6500600","新店區"
"231034","616-UM","2018/11/17 15:29:28","新北市新店區玫瑰路28號","121.495188333333","24.95024","6500600","新店區"
"231030","618-UM","2018/11/17 15:29:31","新北市新店區安和路三段89號","121.517856666667","24.984015","6500600","新店區"
"231039","718-UY","2018/11/17 15:29:32","新北市新店區寶元路一段84巷1號","121.544543333333","24.983745","6500600","新店區"
"231029","897-TW","2018/11/17 15:29:27","新北市新店區安康路三段552號","121.481908333333","24.9488216666667","6500600","新店區"
"231004","899-TW","2018/11/17 15:29:28","新北市新店區民族路235號","121.5366","24.9757666666667","6500600","新店區"
"241011","013-R5","2018/11/17 15:29:25","新北市三重區成功路108巷8號","121.485811666667","25.0503533333333","6500200","三重區"
"241017","063-VK","2018/11/17 15:29:24","新北市三重區重新路四段121號","121.484818333333","25.0522566666667","6500200","三重區"
"241013","270-UM","2018/11/17 15:29:23","新北市三重區名源街61巷17號","121.480938333333","25.0588566666667","6500200","三重區"
"241007","398-BY","2018/11/17 15:29:37","新北市三重區重新路四段121號","121.485185","25.0525","6500200","三重區"
"241019","KEA-2593","2018/11/17 15:29:21","新北市三重區重新路四段121號","121.48473","25.052345","6500200","三重區"
"241006","AAD-863","2018/11/17 15:29:27","新北市三重區重新路四段121號","121.484683333333","25.05229","6500200","三重區"
"241012","941-UM","2018/11/17 15:29:20","新北市三重區成功路22-2號","121.489701666667","25.0502866666667","6500200","三重區"
"241029","942-UM","2018/11/17 15:29:22","新北市三重區重新路四段121號","121.484915","25.0524366666667","6500200","三重區"
"241033","AAC-255","2018/11/17 15:29:28","新北市三重區成功路97號","121.487963333333","25.05143","6500200","三重區"
"235030","003-UY","2018/11/17 15:29:38","新北市中和區水源路102號","121.506141666667","25.0033916666667","6500300","中和區"
"235014","4979-A6","2018/11/17 15:29:31","新北市中和區景新街160巷12號","121.505091666667","24.9968433333333","6500300","中和區"
"235026","800-TS","2018/11/17 15:29:23","新北市中和區建八路139巷9弄1號","121.490161666667","24.9998183333333","6500300","中和區"
"235036","911-UM","2018/11/17 15:29:28","新北市中和區圓通路433巷8號","121.488346666667","24.9878616666667","6500300","中和區"
"235023","AAC-215","2018/11/17 15:29:37","新北市中和區員山路5-4號","121.483256666667","24.9843366666667","6500300","中和區"
"253003","6232-TK","2018/11/17 15:29:22","新北市石門區小坑9號","121.594406666667","25.2883716666667","6502200","石門區"
"253002","637-UY","2018/11/17 15:29:30","新北市石門區小坑9號","121.594216666667","25.2887866666667","6502200","石門區"
"253001","KEC-0718","2018/11/17 15:29:23","新北市石門區小坑9號","121.59436","25.2883566666667","6502200","石門區"
"236068","105-UM","2018/11/17 15:29:30","新北市土城區中央路二段346巷1號","121.439825","24.972045","6501300","土城區"
"236040","KED-0685","2018/11/17 15:29:32","新北市土城區學府路一段143巷12號","121.45394","24.9856466666667","6501300","土城區"
"236074","166-UM","2018/11/17 15:29:29","新北市土城區中央路四段321巷32-2號","121.41203","24.9510566666667","6501300","土城區"
"236029","253-BX","2018/11/17 15:29:05","新北市土城區中央路一段242巷3號","121.444253333333","24.9850066666667","6501300","土城區"
"236024","269-VK","2018/11/17 15:29:36","新北市土城區明德路二段102巷14號","121.44564","24.9846283333333","6501300","土城區"
"236013","270-VK","2018/11/17 15:29:22","新北市土城區廣興街39號","121.455033333333","24.99158","6501300","土城區"
"236032","271-VK","2018/11/17 15:29:30","新北市土城區明德路一段20巷2弄2號","121.464738333333","24.98488","6501300","土城區"
"236017","401-BY","2018/11/17 15:29:27","新北市土城區延吉街139號","121.47058","24.9862966666667","6501300","土城區"
"236057","752-BX","2018/11/17 15:29:36","新北市土城區中央路一段226號","121.444855","24.9852266666667","6501300","土城區"
"236045","913-UM","2018/11/17 15:29:37","新北市土城區青雲路151巷21號","121.45974","24.9845633333333","6501300","土城區"
"236060","915-UM","2018/11/17 15:29:26","新北市土城區延和路62巷6弄1號","121.46605","24.98855","6501300","土城區"
"236054","AAC-216","2018/11/17 15:29:22","新北市土城區金城路三段189-2號","121.469848333333","24.988915","6501300","土城區"
"221010","269-BY","2018/11/17 15:10:31","新北市汐止區汐萬路一段256巷3號","121.652121666667","25.0747783333333","6501100","汐止區"
"220020","277-BY","2018/11/17 15:29:20","新北市板橋區華東街1-10號","121.448391666667","24.9950116666667","6500100","板橋區"
"220050","280-UM","2018/11/17 15:29:30","新北市板橋區介壽街119號","121.47054","25.0187083333333","6500100","板橋區"
"220038","487-VK","2018/11/17 15:29:24","新北市板橋區陽明街166號","121.463686666667","25.02458","6500100","板橋區"
"220104","560-BX","2018/11/17 15:29:42","新北市土城區福安街118號","121.415673333333","24.9645416666667","6500100","板橋區"
"220052","561-BX","2018/11/17 15:29:25","新北市板橋區漢生東路43巷27號","121.466403333333","25.0175966666667","6500100","板橋區"
"220031","568-UM","2018/11/17 15:29:35","新北市板橋區僑中二街112巷13號","121.444948333333","25.0072083333333","6500100","板橋區"
