"lineid","car","time","location","longitude","latitude","cityid","cityname"
"231046","107-UY","2018/11/17 16:19:36","新北市新店區灣潭路3-2號","121.538286666667","24.95078","6500600","新店區"
"231018","278-BY","2018/11/17 16:19:30","新北市新店區溪園路75號","121.529191666667","24.9874566666667","6500600","新店區"
"241011","013-R5","2018/11/17 16:19:25","新北市三重區龍濱路285號","121.501156666667","25.0733666666667","6500200","三重區"
"241028","022-UY","2018/11/17 16:19:29","新北市三重區大同南路174號","121.496696666667","25.05717","6500200","三重區"
"241008","059-VK","2018/11/17 16:19:22","新北市三重區永福街179號","121.47893","25.0753066666667","6500200","三重區"
"241022","060-VK","2018/11/17 16:19:35","新北市三重區過圳街31巷2號","121.4892","25.0606283333333","6500200","三重區"
"241031","061-VK","2018/11/17 16:19:22","新北市三重區重陽路一段45號","121.486826666667","25.0581766666667","6500200","三重區"
"241015","062-VK","2018/11/17 16:19:29","新北市三重區福德北路79號","121.50189","25.0658433333333","6500200","三重區"
"241017","063-VK","2018/11/17 16:19:24","新北市三重區大同北路91號","121.494815","25.0635266666667","6500200","三重區"
"241024","065-VK","2018/11/17 16:19:29","新北市三重區中正北路145巷3弄8號","121.483676666667","25.0674633333333","6500200","三重區"
"241026","066-VK","2018/11/17 16:19:32","新北市三重區正義南路103號","121.498246666667","25.05916","6500200","三重區"
"241002","090-VK","2018/11/17 16:19:24","新北市三重區仁義街91號","121.499755","25.0794983333333","6500200","三重區"
"241003","091-VK","2018/11/17 16:19:37","新北市三重區仁義街220巷29號","121.494303333333","25.0835683333333","6500200","三重區"
"241005","262-UM","2018/11/17 16:19:33","新北市三重區溪尾街305號","121.48764","25.0837533333333","6500200","三重區"
"241016","266-UM","2018/11/17 16:19:30","新北市三重區大仁街86號","121.492795","25.0654683333333","6500200","三重區"
"241009","267-UM","2018/11/17 16:19:28","新北市三重區溪尾街198號","121.488055","25.0808883333333","6500200","三重區"
"241018","268-UM","2018/11/17 16:19:41","新北市三重區重陽路三段142號","121.48932","25.067035","6500200","三重區"
"241032","269-UM","2018/11/17 16:19:27","新北市三重區三陽路116巷4號","121.48303","25.0582266666667","6500200","三重區"
"241013","270-UM","2018/11/17 16:19:38","新北市三重區龍門路46號","121.496301666667","25.0726266666667","6500200","三重區"
"241025","271-UM","2018/11/17 16:19:32","新北市三重區中正北路560巷100弄2號","121.472615","25.0682333333333","6500200","三重區"
"241007","398-BY","2018/11/17 16:19:37","新北市三重區三和路四段163巷97號","121.486716666667","25.0796283333333","6500200","三重區"
"241004","475-VK","2018/11/17 16:19:33","新北市三重區五華街74號","121.493366666667","25.0820316666667","6500200","三重區"
"241020","478-VK","2018/11/17 16:19:36","新北市三重區車路頭街17巷24號","121.484531666667","25.0706883333333","6500200","三重區"
"241014","543-UM","2018/11/17 16:19:39","新北市三重區河邊北街96-1號","121.504085","25.069975","6500200","三重區"
"241023","545-UM","2018/11/17 16:18:44","新北市三重區忠孝路二段138號","121.482465","25.0682883333333","6500200","三重區"
"241001","547-UM","2018/11/17 16:19:24","新北市三重區自強路四段107號","121.491516666667","25.0798133333333","6500200","三重區"
"241019","KEA-2593","2018/11/17 16:19:41","新北市三重區重陽路三段180號","121.490056666667","25.0680116666667","6500200","三重區"
"241006","AAD-863","2018/11/17 16:19:23","新北市三重區永福街46巷41弄45號","121.481246666667","25.0771966666667","6500200","三重區"
"241030","743-BX","2018/11/17 16:19:29","新北市三重區重新路四段121號","121.48497","25.052495","6500200","三重區"
"241012","941-UM","2018/11/17 16:19:40","新北市三重區龍門路174號","121.499076666667","25.0732","6500200","三重區"
"241029","942-UM","2018/11/17 16:19:22","新北市三重區環河南路220-8號","121.493368333333","25.0526766666667","6500200","三重區"
"241033","AAC-255","2018/11/17 16:19:28","新北市三重區重新路五段442號","121.47493","25.0471716666667","6500200","三重區"
"224007","275-VK","2018/11/17 16:19:27","新北市瑞芳區大埔路128-4號","121.761861666667","25.1007666666667","6501200","瑞芳區"
"224005","271-BY","2018/11/17 16:19:33","新北市瑞芳區傑魚坑路319號","121.785983333333","25.10409","6501200","瑞芳區"
"227010","642-TC","2018/11/17 16:19:23","新北市雙溪區三港里雙澳路78號","121.883756666667","25.0538666666667","6502500","雙溪區"
"227002","400-TW","2018/11/17 16:19:29","新北市雙溪區上林里內平林80號","121.82827","25.0279383333333","6502500","雙溪區"
"251008","181-VK","2018/11/17 16:19:31","新北市淡水區中正東路30-1號","121.448283333333","25.1661383333333","6501000","淡水區"
