"lineid","car","time","location","longitude","latitude","cityid","cityname"
"249005","172-UM","2018/11/17 16:59:37","新北市八里區渡船頭3-19號","121.433935","25.1517416666667","6502300","八里區"
"249001","173-UM","2018/11/17 16:59:36","新北市八里區中山路三段106號","121.391266666667","25.1423483333333","6502300","八里區"
"249004","303-UY","2018/11/17 16:59:26","新北市八里區挖子尾街40號","121.415658333333","25.1659666666667","6502300","八里區"
"249002","305-UY","2018/11/17 16:59:27","新北市八里區牛寮埔22號","121.43252","25.1425366666667","6502300","八里區"
"249003","593-UM","2018/11/17 16:59:33","新北市八里區中山路二段301號","121.401093333333","25.1481316666667","6502300","八里區"
"244013","KEA-2802","2018/11/17 16:59:34","新北市林口區粉寮69號","121.404775","25.090855","6501700","林口區"
"244025","837-TS","2018/11/17 16:59:35","新北市林口區粉寮路60-17號","121.404206666667","25.090315","6501700","林口區"
"231046","107-UY","2018/11/17 16:59:36","新北市新店區直潭路100號","121.530851666667","24.9369666666667","6500600","新店區"
"241011","013-R5","2018/11/17 16:59:25","新北市三重區公園街15號","121.499405","25.0729366666667","6500200","三重區"
"241028","022-UY","2018/11/17 16:59:29","新北市三重區中正南路41巷1號","121.493911666667","25.0598716666667","6500200","三重區"
"241008","059-VK","2018/11/17 16:59:22","新北市三重區永福街179巷29號","121.477805","25.07487","6500200","三重區"
"241022","060-VK","2018/11/17 16:59:35","新北市三重區三民街122號","121.483633333333","25.0644883333333","6500200","三重區"
"241031","061-VK","2018/11/17 16:59:22","新北市三重區三寧街22號","121.489586666667","25.059995","6500200","三重區"
"241015","062-VK","2018/11/17 16:59:29","新北市三重區三和路二段1-4號","121.501616666667","25.06659","6500200","三重區"
"241017","063-VK","2018/11/17 16:59:24","新北市三重區國隆路12巷1號","121.492846666667","25.063775","6500200","三重區"
"241024","065-VK","2018/11/17 16:59:29","新北市三重區大勇街82巷15弄28號","121.480998333333","25.0719683333333","6500200","三重區"
"241026","066-VK","2018/11/17 16:59:31","新北市三重區文化南路42號","121.500355","25.0603433333333","6500200","三重區"
"241002","090-VK","2018/11/17 16:59:24","新北市三重區仁義街223號","121.496528333333","25.0821333333333","6500200","三重區"
"241003","091-VK","2018/11/17 16:59:37","新北市三重區五華街141巷60號","121.493545","25.0867583333333","6500200","三重區"
"251014","742-BX","2018/11/17 16:59:24","新北市淡水區淡金路四段472巷24號","121.452863333333","25.2240183333333","6501000","淡水區"
"241005","262-UM","2018/11/17 16:59:33","新北市三重區仁華街106號","121.485346666667","25.083125","6500200","三重區"
"241016","266-UM","2018/11/17 16:59:30","新北市三重區大同北路91號","121.494718333333","25.0636416666667","6500200","三重區"
"241009","267-UM","2018/11/17 16:59:28","新北市三重區溪尾街218巷44號","121.48636","25.0809466666667","6500200","三重區"
"241018","268-UM","2018/11/17 16:59:41","新北市三重區六張街126巷2弄36號","121.492803333333","25.06956","6500200","三重區"
"241032","269-UM","2018/11/17 16:59:27","新北市三重區重陽路一段130巷26號","121.485698333333","25.0603116666667","6500200","三重區"
"241013","270-UM","2018/11/17 16:59:43","新北市三重區仁福街64巷2號","121.497603333333","25.0747033333333","6500200","三重區"
"241025","271-UM","2018/11/17 16:59:32","新北市三重區中正北路508巷13號","121.472703333333","25.071025","6500200","三重區"
"241007","398-BY","2018/11/17 16:59:37","新北市三重區溪尾街136號","121.489241666667","25.0795466666667","6500200","三重區"
"241004","475-VK","2018/11/17 16:59:33","新北市三重區五華街98巷3號","121.49237","25.0823066666667","6500200","三重區"
"241020","478-VK","2018/11/17 16:59:24","新北市三重區後竹圍街175巷27號","121.48557","25.0729466666667","6500200","三重區"
"241014","543-UM","2018/11/17 16:59:39","新北市三重區三和路二段173巷149號","121.501151666667","25.0706866666667","6500200","三重區"
"241023","545-UM","2018/11/17 16:59:24","新北市三重區忠孝路三段84巷1號","121.480208333333","25.0645666666667","6500200","三重區"
"241001","547-UM","2018/11/17 16:59:24","新北市三重區溪尾街27巷44號","121.493823333333","25.0762016666667","6500200","三重區"
"241019","KEA-2593","2018/11/17 16:59:41","新北市三重區自強路二段74巷21號","121.487936666667","25.0699","6500200","三重區"
"241006","AAD-863","2018/11/17 16:59:43","新北市三重區車路頭街119號","121.484311666667","25.07534","6500200","三重區"
"241030","743-BX","2018/11/17 16:59:29","新北市三重區環河南路221巷10號","121.491891666667","25.0521783333333","6500200","三重區"
"241012","941-UM","2018/11/17 16:59:40","新北市三重區仁和街86號","121.49934","25.0745883333333","6500200","三重區"
"241029","942-UM","2018/11/17 16:59:22","新北市三重區中正南路181號","121.493651666667","25.055225","6500200","三重區"
"241033","AAC-255","2018/11/17 16:59:28","新北市三重區中興北街271號","121.469126666667","25.0606133333333","6500200","三重區"
"235065","098-UM","2018/11/17 16:59:31","新北市中和區員山路36巷16-3號","121.48517","24.9911516666667","6500300","中和區"
"235046","733-UM","2018/11/17 16:32:12","新北市中和區員山路36巷13號","121.484091666667","24.99087","6500300","中和區"
"247016","546-UM","2018/11/17 16:59:36","新北市蘆洲區光華路41巷13號","121.469478333333","25.0826333333333","6501400","蘆洲區"
"247024","500-BY","2018/11/17 16:59:35","新北市蘆洲區長興路255號","121.460518333333","25.0875133333333","6501400","蘆洲區"
"247014","339-TH","2018/11/17 16:59:27","新北市蘆洲區得勝街69巷20號","121.473935","25.0832","6501400","蘆洲區"
"247006","337-TH","2018/11/17 16:59:40","新北市蘆洲區長安街99巷34號","121.460766666667","25.0799016666667","6501400","蘆洲區"
"247020","057-VK","2018/11/17 16:59:25","新北市蘆洲區民族路422巷82弄12號","121.473991666667","25.0938216666667","6501400","蘆洲區"
"247010","056-VK","2018/11/17 16:59:25","新北市蘆洲區信義路201號","121.479031666667","25.08325","6501400","蘆洲區"
"247008","053-VK","2018/11/17 16:59:33","新北市蘆洲區中山一路197巷6弄1號","121.474615","25.080475","6501400","蘆洲區"
"247018","007-UY","2018/11/17 16:59:32","新北市蘆洲區民族路227巷25號","121.476755","25.089155","6501400","蘆洲區"
"247004","002-UY","2018/11/17 16:59:33","新北市蘆洲區長安街108巷5弄2號","121.461395","25.08195","6501400","蘆洲區"
"228003","097-TW","2018/11/17 16:59:36","新北市貢寮區福隆里興隆街36號","121.942521666667","25.01656","6502600","貢寮區"
"228001","212-TW","2018/11/17 16:59:26","新北市貢寮區貢寮里朝陽街1-2號","121.912205","25.0212866666667","6502600","貢寮區"
"228002","585-TW","2018/11/17 16:59:37","新北市貢寮區貢寮里朝陽街86號","121.908738333333","25.0220866666667","6502600","貢寮區"
"224006","676-BX","2018/11/17 16:59:33","新北市瑞芳區大寮路14號","121.784253333333","25.09949","6501200","瑞芳區"
"224008","285-BY","2018/11/17 16:59:28","新北市瑞芳區明燈路一段223號","121.818118333333","25.1080733333333","6501200","瑞芳區"
"224007","275-VK","2018/11/17 16:59:27","新北市瑞芳區瑞竹路103號","121.763026666667","25.1034983333333","6501200","瑞芳區"
"224009","273-VK","2018/11/17 16:59:34","新北市瑞芳區濱二路31號","121.833286666667","25.11179","6501200","瑞芳區"
"224005","271-BY","2018/11/17 16:59:33","新北市瑞芳區明里路4號","121.868733333333","25.1209133333333","6501200","瑞芳區"
"227010","642-TC","2018/11/17 16:59:43","新北市雙溪區牡丹里聖南10-3號","121.860998333333","25.0490616666667","6502500","雙溪區"
"227002","400-TW","2018/11/17 16:59:29","新北市雙溪區長源里柑腳37號","121.803693333333","25.0135","6502500","雙溪區"
"251009","008-UM","2018/11/17 16:59:40","新北市淡水區中正路253號","121.433363333333","25.1744133333333","6501000","淡水區"
"251005","010-UM","2018/11/17 16:59:24","新北市淡水區原德路25號","121.442253333333","25.1715266666667","6501000","淡水區"
"251013","KEA-2871","2018/11/17 16:59:37","新北市淡水區泉洲厝32號","121.489285","25.1925733333333","6501000","淡水區"
"251016","179-VK","2018/11/17 16:59:39","新北市淡水區瓦坑3號","121.477606666667","25.18079","6501000","淡水區"
"251008","181-VK","2018/11/17 16:59:30","新北市淡水區樹梅坑9號","121.472738333333","25.1426783333333","6501000","淡水區"
"251015","182-VK","2018/11/17 16:59:32","新北市淡水區忠愛街5-2號","121.460453333333","25.1717033333333","6501000","淡水區"
"251010","413-VK","2018/11/17 16:59:35","新北市淡水區中正路二段31號","121.419506666667","25.181685","6501000","淡水區"
"251012","441-VK","2018/11/17 16:59:26","新北市淡水區新民街一段117號","121.428021666667","25.1878216666667","6501000","淡水區"
"251007","442-VK","2018/11/17 16:59:29","新北市淡水區中正東路65號","121.447123333333","25.1675766666667","6501000","淡水區"
"251004","443-VK","2018/11/17 16:59:30","新北市淡水區中正路23巷1號","121.435663333333","25.1731316666667","6501000","淡水區"
"251006","561-UM","2018/11/17 16:59:29","新北市淡水區中正東路34-3號","121.448743333333","25.1658066666667","6501000","淡水區"
"251011","650-BX","2018/11/17 16:59:26","新北市淡水區中正東路一段105巷3號","121.453215","25.1606233333333","6501000","淡水區"
"252002","178-VK","2018/11/17 16:59:35","新北市三芝區忠孝街168號","121.506218333333","25.2590316666667","6502100","三芝區"
"252001","292-VK","2018/11/17 16:59:31","新北市三芝區淡金路二段47-2號","121.503725","25.2606983333333","6502100","三芝區"
"242036","AAC-296","2018/11/17 16:46:59","新北市新莊區新泰路255巷83號","121.442373333333","25.0392466666667","6500500","新莊區"
"242056","751-BX","2018/11/17 16:59:25","新北市新莊區新泰路255巷83號","121.442396666667","25.03894","6500500","新莊區"
"242029","612-BX","2018/11/17 16:59:26","新北市新莊區新泰路255巷83號","121.442271666667","25.03903","6500500","新莊區"
"242044","566-BX","2018/11/17 16:59:29","新北市新莊區三和路12-21號","121.442141666667","25.03851","6500500","新莊區"
"242039","415-TV","2018/11/17 16:59:29","新北市新莊區新泰路255巷83號","121.442131666667","25.0389766666667","6500500","新莊區"
"242009","413-TV","2018/11/17 16:59:41","新北市新莊區新泰路357巷3弄57號","121.44199","25.0394183333333","6500500","新莊區"
"242023","362-BY","2018/11/17 16:59:30","新北市新莊區三和路18-25號","121.441866666667","25.038995","6500500","新莊區"
"242046","135-UY","2018/11/17 16:59:39","新北市新莊區三和路12-21號","121.442086666667","25.038725","6500500","新莊區"
"242019","175-VK","2018/11/17 16:59:29","新北市新莊區三和路12-21號","121.442026666667","25.0386316666667","6500500","新莊區"
"242007","176-VK","2018/11/17 16:59:24","新北市新莊區三和路12-21號","121.44202","25.038625","6500500","新莊區"
"242017","346-TH","2018/11/17 16:59:39","新北市新莊區三和路12-21號","121.442323333333","25.0382433333333","6500500","新莊區"
"242031","348-TH","2018/11/17 16:59:31","新北市新莊區新泰路357巷3弄57號","121.441916666667","25.0395583333333","6500500","新莊區"
"242004","349-TH","2018/11/17 16:59:26","新北市新莊區三和路12-21號","121.442338333333","25.0383316666667","6500500","新莊區"
"242015","351-TH","2018/11/17 16:59:41","新北市新莊區新泰路357巷3弄57號","121.441813333333","25.0396566666667","6500500","新莊區"
"238015","755-BX","2018/11/17 16:59:29","新北市樹林區育德街78-1號","121.388138333333","24.9680716666667","6500700","樹林區"
"238019","599-UM","2018/11/17 16:59:37","新北市樹林區育德街78號","121.38754","24.9684316666667","6500700","樹林區"
"238018","571-TV","2018/11/17 16:59:30","新北市樹林區八德街828-3號","121.393165","24.968605","6500700","樹林區"
"238022","KEA-2213","2018/11/17 16:59:37","新北市樹林區太平路247巷28號","121.420703333333","24.9754183333333","6500700","樹林區"
"238014","282-BY","2018/11/17 16:59:23","新北市樹林區育德街78-1號","121.388303333333","24.9680866666667","6500700","樹林區"
"239007","AAC-297","2018/11/17 16:59:23","新北市鶯歌區二甲路12-2號","121.3456","24.9350133333333","6500800","鶯歌區"
"239001","417-VK","2018/11/17 16:59:37","新北市鶯歌區二甲路12-2號","121.345558333333","24.9351033333333","6500800","鶯歌區"
"239003","360-BY","2018/11/17 16:59:29","新北市鶯歌區二甲路12-2號","121.345596666667","24.935055","6500800","鶯歌區"
"242002","281-VK","2018/11/17 16:59:31","新北市新莊區三和路12-21號","121.44209","25.038315","6500500","新莊區"
"242034","280-VK","2018/11/17 16:59:36","新北市新莊區三和路12-21號","121.441978333333","25.0384383333333","6500500","新莊區"
