"lineid","car","time","location","longitude","latitude","cityid","cityname"
"249005","172-UM","2018/11/17 17:09:37","新北市八里區華富山4-1號","121.416491666667","25.1455983333333","6502300","八里區"
"249001","173-UM","2018/11/17 17:09:36","新北市八里區中華路二段203號","121.405411666667","25.1495566666667","6502300","八里區"
"249004","303-UY","2018/11/17 17:09:26","新北市八里區忠孝路197號","121.422321666667","25.16084","6502300","八里區"
"249002","305-UY","2018/11/17 17:09:27","新北市八里區米倉14-2號","121.439581666667","25.1499883333333","6502300","八里區"
"249003","593-UM","2018/11/17 17:09:33","新北市八里區中山路二段411號","121.397338333333","25.14637","6502300","八里區"
"244023","069-UM","2018/11/17 17:09:38","新北市林口區隆林街50號","121.387121666667","25.0757616666667","6501700","林口區"
"244007","080-UY","2018/11/17 17:09:21","新北市林口區中湖26-8號","121.376166666667","25.0945466666667","6501700","林口區"
"244019","403-UM","2018/11/17 17:09:25","新北市林口區公園路225-3號","121.374233333333","25.074845","6501700","林口區"
"244013","KEA-2802","2018/11/17 17:09:34","新北市林口區粉寮69號","121.404788333333","25.09083","6501700","林口區"
"244017","485-VK","2018/11/17 17:09:26","新北市林口區粉寮69號","121.405078333333","25.0908683333333","6501700","林口區"
"244025","837-TS","2018/11/17 17:09:35","新北市林口區中山路278號","121.382495","25.0811316666667","6501700","林口區"
"244021","838-TS","2018/11/17 17:09:31","新北市林口區粉寮路52-6號","121.407286666667","25.0887733333333","6501700","林口區"
"231046","107-UY","2018/11/17 17:09:36","新北市新店區直潭路92號","121.53084","24.937585","6500600","新店區"
"241011","013-R5","2018/11/17 17:09:44","新北市三重區龍門路219號","121.500361666667","25.0735233333333","6500200","三重區"
"241028","022-UY","2018/11/17 17:09:29","新北市三重區重新路三段110號","121.492353333333","25.060185","6500200","三重區"
"241008","059-VK","2018/11/17 17:09:22","新北市三重區力行路二段98號","121.481815","25.07469","6500200","三重區"
"241022","060-VK","2018/11/17 17:09:41","新北市三重區三民街111號","121.484796666667","25.0638116666667","6500200","三重區"
"241015","062-VK","2018/11/17 17:09:29","新北市三重區中央北路76巷13號","121.499553333333","25.0661416666667","6500200","三重區"
"241017","063-VK","2018/11/17 17:09:42","新北市三重區中正北路25巷14號","121.493491666667","25.0629416666667","6500200","三重區"
"241024","065-VK","2018/11/17 17:09:33","新北市三重區中正北路201號","121.476911666667","25.0698316666667","6500200","三重區"
"241026","066-VK","2018/11/17 17:09:31","新北市三重區重新路一段62號","121.502153333333","25.063725","6500200","三重區"
"241002","090-VK","2018/11/17 17:09:36","新北市三重區自強路五段43號","121.494196666667","25.0813933333333","6500200","三重區"
"241003","091-VK","2018/11/17 17:09:37","新北市三重區富華街159號","121.49321","25.0849783333333","6500200","三重區"
"251014","742-BX","2018/11/17 17:09:24","新北市淡水區八里堆8號","121.462591666667","25.2241666666667","6501000","淡水區"
"241005","262-UM","2018/11/17 17:09:33","新北市三重區碧華街50號","121.483445","25.0812583333333","6500200","三重區"
"241016","266-UM","2018/11/17 17:09:30","新北市三重區大仁街27號","121.49249","25.0649133333333","6500200","三重區"
"241009","267-UM","2018/11/17 17:09:28","新北市三重區三和路四段215巷22號","121.482591666667","25.0799966666667","6500200","三重區"
"241018","268-UM","2018/11/17 17:09:41","新北市三重區正義北路332-1號","121.494323333333","25.0703833333333","6500200","三重區"
"241032","269-UM","2018/11/17 17:09:27","新北市三重區新北大道一段19號","121.486495","25.061385","6500200","三重區"
"241013","270-UM","2018/11/17 17:09:23","新北市三重區仁福街18號","121.496348333333","25.07445","6500200","三重區"
"241025","271-UM","2018/11/17 17:09:32","新北市三重區中正北路560巷89號","121.470958333333","25.0685833333333","6500200","三重區"
"241007","398-BY","2018/11/17 17:09:37","新北市三重區三和路四段163巷65號","121.485423333333","25.0792016666667","6500200","三重區"
"241004","475-VK","2018/11/17 17:09:32","新北市三重區五華街96號","121.49258","25.0822983333333","6500200","三重區"
"241020","478-VK","2018/11/17 17:09:37","新北市三重區後竹圍街157號","121.486325","25.07197","6500200","三重區"
"241014","543-UM","2018/11/17 17:09:39","新北市三重區龍濱路120-1號","121.501873333333","25.0709516666667","6500200","三重區"
"241023","545-UM","2018/11/17 17:09:24","新北市三重區忠孝路三段84巷1號","121.480215","25.064565","6500200","三重區"
"241001","547-UM","2018/11/17 17:09:44","新北市三重區仁愛街255巷30號","121.493786666667","25.0786883333333","6500200","三重區"
"241019","KEA-2593","2018/11/17 17:09:41","新北市三重區力行路一段123巷13號","121.486413333333","25.0686183333333","6500200","三重區"
"241006","AAD-863","2018/11/17 17:09:23","新北市三重區車路頭街145號","121.483835","25.0766716666667","6500200","三重區"
"241030","743-BX","2018/11/17 17:09:41","新北市三重區集成路3號","121.48841","25.051795","6500200","三重區"
"241012","941-UM","2018/11/17 17:09:40","新北市三重區龍門路274巷35號","121.501183333333","25.0752816666667","6500200","三重區"
"241029","942-UM","2018/11/17 17:09:22","新北市三重區重新路四段65號","121.487368333333","25.057085","6500200","三重區"
"241033","AAC-255","2018/11/17 17:09:28","新北市三重區中興北街271號","121.469131666667","25.060545","6500200","三重區"
"235064","005-UY","2018/11/17 17:09:05","新北市中和區員山路36巷16-3號","121.484848333333","24.991195","6500300","中和區"
"235065","098-UM","2018/11/17 17:09:31","新北市中和區員山路36巷16-3號","121.48517","24.9911466666667","6500300","中和區"
"247012","KEA-2869","2018/11/17 17:09:36","新北市蘆洲區信義路292巷7號","121.478086666667","25.0877183333333","6501400","蘆洲區"
"247002","893-R6","2018/11/17 17:09:23","新北市蘆洲區永樂街62號","121.457288333333","25.0884716666667","6501400","蘆洲區"
"247016","546-UM","2018/11/17 17:09:36","新北市蘆洲區光華路73巷21號","121.4684","25.0821116666667","6501400","蘆洲區"
"247024","500-BY","2018/11/17 17:09:35","新北市蘆洲區長興路62號","121.463085","25.0840383333333","6501400","蘆洲區"
"247014","339-TH","2018/11/17 17:09:27","新北市蘆洲區中央路37巷15號","121.473316666667","25.08249","6501400","蘆洲區"
"247006","337-TH","2018/11/17 17:09:40","新北市蘆洲區中華街6巷3號","121.462423333333","25.0823966666667","6501400","蘆洲區"
"247020","057-VK","2018/11/17 17:09:25","新北市蘆洲區仁愛街42-8號","121.472676666667","25.0938416666667","6501400","蘆洲區"
"247010","056-VK","2018/11/17 17:09:25","新北市蘆洲區民族路30號","121.476335","25.0842183333333","6501400","蘆洲區"
"247008","053-VK","2018/11/17 17:09:38","新北市蘆洲區民生街49號","121.474943333333","25.0788133333333","6501400","蘆洲區"
"247018","007-UY","2018/11/17 17:09:32","新北市蘆洲區復興路101號","121.476618333333","25.0875533333333","6501400","蘆洲區"
"247004","002-UY","2018/11/17 17:09:33","新北市蘆洲區長安街193巷1弄2號","121.459998333333","25.0816516666667","6501400","蘆洲區"
"247022","001-UY","2018/11/17 17:09:43","新北市蘆洲區民族路526號","121.468993333333","25.08986","6501400","蘆洲區"
"228003","097-TW","2018/11/17 17:09:36","新北市貢寮區福隆里東興街10號","121.950915","25.0189066666667","6502600","貢寮區"
"228001","212-TW","2018/11/17 17:09:25","新北市貢寮區仁理村尖山腳街20號","121.924711666667","25.0470883333333","6502600","貢寮區"
"228002","585-TW","2018/11/17 17:09:37","新北市貢寮區龍崗里嵩陽街55號","121.90749","25.0165866666667","6502600","貢寮區"
"224006","676-BX","2018/11/17 17:09:33","新北市瑞芳區大寮路101-2號","121.77845","25.0992216666667","6501200","瑞芳區"
"224008","285-BY","2018/11/17 17:09:28","新北市瑞芳區侯硐路95號","121.830045","25.0890333333333","6501200","瑞芳區"
"224007","275-VK","2018/11/17 17:09:27","新北市瑞芳區粗坑口路24號","121.761326666667","25.0989716666667","6501200","瑞芳區"
"224009","273-VK","2018/11/17 17:09:33","新北市瑞芳區街頂巷36號","121.843561666667","25.11057","6501200","瑞芳區"
"224005","271-BY","2018/11/17 17:09:43","新北市瑞芳區鼻頭路245-1號","121.913273333333","25.1240166666667","6501200","瑞芳區"
"227010","642-TC","2018/11/17 17:09:26","新北市雙溪區牡丹里下坑33號","121.849988333333","25.0572516666667","6502500","雙溪區"
"227002","400-TW","2018/11/17 17:09:29","新北市雙溪區外柑里外柑腳51號","121.80837","25.0179383333333","6502500","雙溪區"
"251009","008-UM","2018/11/17 17:09:40","新北市淡水區三民街20號","121.439013333333","25.1717733333333","6501000","淡水區"
"251005","010-UM","2018/11/17 17:09:24","新北市淡水區鄧公路19-1號","121.450303333333","25.1699766666667","6501000","淡水區"
"251013","KEA-2871","2018/11/17 17:09:37","新北市淡水區大埤頭4號","121.487038333333","25.19576","6501000","淡水區"
"251016","179-VK","2018/11/17 17:09:41","新北市淡水區社厝坑3-6號","121.47496","25.1884533333333","6501000","淡水區"
"251008","181-VK","2018/11/17 17:09:31","新北市淡水區民生路169號","121.469653333333","25.1421366666667","6501000","淡水區"
"251015","182-VK","2018/11/17 17:09:31","新北市淡水區忠愛街2號","121.455911666667","25.17242","6501000","淡水區"
"251010","413-VK","2018/11/17 17:09:35","新北市淡水區中正路二段31號","121.419485","25.1815883333333","6501000","淡水區"
"251012","441-VK","2018/11/17 17:09:25","新北市淡水區中山北路一段158號","121.444266666667","25.1779133333333","6501000","淡水區"
"251007","442-VK","2018/11/17 17:09:29","新北市淡水區民權路39號","121.459651666667","25.1404566666667","6501000","淡水區"
"251004","443-VK","2018/11/17 17:09:30","新北市淡水區中正東路二段68號","121.459143333333","25.1541583333333","6501000","淡水區"
"251006","561-UM","2018/11/17 17:09:29","新北市淡水區中山路66號","121.443595","25.1705533333333","6501000","淡水區"
"251011","650-BX","2018/11/17 17:09:26","新北市淡水區坪頂路50號","121.457968333333","25.1624516666667","6501000","淡水區"
"251003","673-BX","2018/11/17 17:09:28","新北市淡水區中正路二段31號","121.419431666667","25.181545","6501000","淡水區"
"252002","178-VK","2018/11/17 17:09:35","新北市三芝區忠孝街1-18號","121.505638333333","25.2536883333333","6502100","三芝區"
"252001","292-VK","2018/11/17 17:09:31","新北市三芝區埔坪里埔頭坑33號","121.501525","25.2616283333333","6502100","三芝區"
"242036","AAC-296","2018/11/17 17:01:38","新北市新莊區新泰路357巷3弄41號","121.44216","25.04031","6500500","新莊區"
"242056","751-BX","2018/11/17 17:09:25","新北市新莊區三和路12-21號","121.442138333333","25.0385883333333","6500500","新莊區"
"242027","615-BX","2018/11/17 17:09:37","新北市新莊區新泰路357巷3弄57號","121.442008333333","25.03933","6500500","新莊區"
"242029","612-BX","2018/11/17 17:09:26","新北市新莊區新泰路255巷83號","121.442293333333","25.039165","6500500","新莊區"
"242044","566-BX","2018/11/17 17:09:29","新北市新莊區新泰路357巷3弄1號","121.442505","25.0412266666667","6500500","新莊區"
"242048","497-BY","2018/11/17 17:09:34","新北市新莊區新泰路357巷3弄49號","121.441966666667","25.0400966666667","6500500","新莊區"
"242053","441-UM","2018/11/17 17:09:31","新北市新莊區新泰路357巷3弄45號","121.441928333333","25.0401983333333","6500500","新莊區"
"242039","415-TV","2018/11/17 17:09:29","新北市新莊區三和路10號","121.44192","25.0361616666667","6500500","新莊區"
"242009","413-TV","2018/11/17 17:09:21","新北市新莊區新泰路357巷3弄57號","121.441933333333","25.0394516666667","6500500","新莊區"
"242023","362-BY","2018/11/17 17:09:29","新北市新莊區三和路12-21號","121.441705","25.0386516666667","6500500","新莊區"
"242061","353-BY","2018/11/17 17:09:33","新北市新莊區新泰路357巷3弄57號","121.441918333333","25.0392016666667","6500500","新莊區"
"242042","133-UY","2018/11/17 17:09:25","新北市新莊區新泰路255巷83號","121.44222","25.03888","6500500","新莊區"
"242046","135-UY","2018/11/17 17:09:39","新北市新莊區新泰路255巷83號","121.442125","25.0388866666667","6500500","新莊區"
"242013","173-VK","2018/11/17 17:09:43","新北市新莊區三和路12-21號","121.442005","25.0386933333333","6500500","新莊區"
"242019","175-VK","2018/11/17 17:09:29","新北市新莊區三和路12-21號","121.44194","25.0386666666667","6500500","新莊區"
"242007","176-VK","2018/11/17 17:09:24","新北市新莊區三和路12-21號","121.441946666667","25.0386266666667","6500500","新莊區"
"242017","346-TH","2018/11/17 17:09:39","新北市新莊區三和路12-21號","121.4422","25.03816","6500500","新莊區"
"242031","348-TH","2018/11/17 17:09:31","新北市新莊區新泰路357巷3弄57號","121.442075","25.0395566666667","6500500","新莊區"
"242004","349-TH","2018/11/17 17:09:26","新北市新莊區三和路12-21號","121.442201666667","25.038515","6500500","新莊區"
"242015","351-TH","2018/11/17 17:09:22","新北市新莊區新泰路357巷3弄57號","121.44184","25.0395966666667","6500500","新莊區"
"238015","755-BX","2018/11/17 17:09:29","新北市樹林區中山路三段5號","121.401738333333","24.9756283333333","6500700","樹林區"
"238023","601-UM","2018/11/17 17:09:26","新北市樹林區大安路257號","121.419253333333","24.9940533333333","6500700","樹林區"
"238019","599-UM","2018/11/17 17:09:37","新北市樹林區太平路273巷23號","121.421188333333","24.976345","6500700","樹林區"
"238018","571-TV","2018/11/17 17:09:30","新北市樹林區水源街213號","121.424088333333","24.9870766666667","6500700","樹林區"
"238022","KEA-2213","2018/11/17 17:09:37","新北市樹林區忠孝街31號","121.423735","24.98223","6500700","樹林區"
"238025","303-VK","2018/11/17 17:09:28","新北市樹林區中山路二段121號","121.408451666667","24.9799366666667","6500700","樹林區"
"238014","282-BY","2018/11/17 17:09:23","新北市樹林區中山路二段222號","121.41104","24.98215","6500700","樹林區"
"238016","169-UY","2018/11/17 17:09:21","新北市樹林區八德街1號","121.417503333333","24.9849716666667","6500700","樹林區"
"239007","AAC-297","2018/11/17 17:09:23","新北市鶯歌區信義街42號","121.353268333333","24.9555383333333","6500800","鶯歌區"
"239006","891-R6","2018/11/17 17:09:39","新北市鶯歌區八德路3-7號","121.33829","24.9484133333333","6500800","鶯歌區"
"239008","527-UM","2018/11/17 17:09:38","新北市鶯歌區尖山路57-1號","121.350015","24.9497433333333","6500800","鶯歌區"
"239005","526-UM","2018/11/17 17:08:58","新北市鶯歌區鶯桃路311號","121.333931666667","24.9609083333333","6500800","鶯歌區"
"239001","417-VK","2018/11/17 17:09:37","新北市鶯歌區尖山路140巷8號","121.346466666667","24.94909","6500800","鶯歌區"
"239003","360-BY","2018/11/17 17:09:29","新北市鶯歌區德昌二街70巷32弄89號","121.329805","24.95703","6500800","鶯歌區"
"239002","359-BY","2018/11/17 17:09:36","新北市鶯歌區建國路253號","121.348155","24.9534283333333","6500800","鶯歌區"
"239004","193-VK","2018/11/17 17:09:24","新北市鶯歌區文化路324巷1-10號","121.35131","24.9451566666667","6500800","鶯歌區"
"242002","281-VK","2018/11/17 17:09:31","新北市新莊區新泰路357巷3弄15號","121.441966666667","25.040895","6500500","新莊區"
"242034","280-VK","2018/11/17 17:09:36","新北市新莊區三和路12-21號","121.441961666667","25.0381866666667","6500500","新莊區"
