"lineid","car","time","location","longitude","latitude","cityid","cityname"
"234046","148-BY","2018/11/17 19:19:39","新北市永和區秀朗路二段86號","121.5234","25.00163","6500400","永和區"
"234007","207-UY","2018/11/17 19:19:37","新北市永和區中山路一段226號","121.508095","25.008135","6500400","永和區"
"234081","298-R6","2018/11/17 19:19:34","新北市永和區福和路41-1號","121.523548333333","25.0081033333333","6500400","永和區"
"234038","336-UY","2018/11/17 19:19:43","新北市永和區成功路二段121巷11號","121.52738","24.9985033333333","6500400","永和區"
"234064","337-UY","2018/11/17 19:19:32","新北市永和區永元路17巷6弄1號","121.52139","25.0007833333333","6500400","永和區"
"234086","338-UY","2018/11/17 19:19:28","新北市永和區永貞路45號","121.519925","25.0045616666667","6500400","永和區"
"234070","552-UM","2018/11/17 19:19:36","新北市永和區中正路696-1號","121.51665","25.0098433333333","6500400","永和區"
"234017","745-BX","2018/11/17 19:19:28","新北市永和區文化路144巷27號","121.512498333333","25.016745","6500400","永和區"
"234030","746-BX","2018/11/17 19:19:38","新北市永和區厚德街89號","121.523946666667","24.9988383333333","6500400","永和區"
"234054","KEA-2590","2018/11/17 19:19:42","新北市永和區中興街43號","121.516373333333","25.011755","6500400","永和區"
"234013","KEA-2591","2018/11/17 19:19:34","新北市永和區仁愛路115號","121.51216","25.0130983333333","6500400","永和區"
"234061","AAD-866","2018/11/17 19:19:35","新北市永和區秀朗路一段175號","121.517061666667","25.003675","6500400","永和區"
"234042","862-TW","2018/11/17 19:19:35","新北市永和區保平路151巷6弄12號","121.509741666667","25.0050716666667","6500400","永和區"
"234050","863-TW","2018/11/17 19:19:33","新北市永和區仁愛路104巷10號","121.512081666667","25.01362","6500400","永和區"
"234026","9371-KE","2018/11/17 19:19:27","新北市永和區安樂路144巷20號","121.515061666667","24.9997216666667","6500400","永和區"
"234011","9373-KE","2018/11/17 19:19:29","新北市永和區永平路218巷23號","121.510068333333","25.01112","6500400","永和區"
"249001","173-UM","2018/11/17 19:19:36","新北市八里區中華路二段145號","121.408983333333","25.1525916666667","6502300","八里區"
"249003","593-UM","2018/11/17 19:19:41","新北市八里區中山路二段466巷3號","121.39882","25.14744","6502300","八里區"
"248016","026-BX","2018/11/17 19:19:38","新北市五股區成洲五路12號","121.452316666667","25.1015466666667","6501500","五股區"
"248008","095-VK","2018/11/17 19:19:40","新北市五股區中興路二段83巷26-6號","121.460061666667","25.0752583333333","6501500","五股區"
"248020","225-UY","2018/11/17 19:19:41","新北市五股區凌雲路三段57號","121.425316666667","25.12499","6501500","五股區"
"248012","247-BX","2018/11/17 19:19:26","新北市五股區中興路四段48巷16號","121.43863","25.0833916666667","6501500","五股區"
"248004","677-BX","2018/11/17 19:19:29","新北市五股區五福路34號","121.433991666667","25.0891533333333","6501500","五股區"
"248002","678-BX","2018/11/17 19:19:45","新北市五股區凌雲路一段158巷6號","121.447838333333","25.10297","6501500","五股區"
"248010","682-TV","2018/11/17 19:19:39","新北市五股區水碓二路1號","121.43056","25.0712733333333","6501500","五股區"
"234023","9380-KE","2018/11/17 19:19:34","新北市永和區竹林路124巷20號","121.518698333333","25.0112183333333","6500400","永和區"
"234077","969-R7","2018/11/17 19:19:37","新北市永和區民治街72巷10號","121.51808","24.9985","6500400","永和區"
"234074","AAC-211","2018/11/17 19:19:30","新北市永和區竹林路101號","121.519785","25.011905","6500400","永和區"
"234067","AAC-212","2018/11/17 19:19:43","新北市永和區保平路59號","121.511623333333","25.0069933333333","6500400","永和區"
"234003","AAC-295","2018/11/17 19:19:28","新北市永和區永平路179號","121.510431666667","25.0091583333333","6500400","永和區"
"244023","069-UM","2018/11/17 19:19:38","新北市林口區仁愛路二段377號","121.370351666667","25.079945","6501700","林口區"
"244017","485-VK","2018/11/17 19:19:25","新北市林口區湖南里70-9號","121.375745","25.0894433333333","6501700","林口區"
"244011","701-TV","2018/11/17 19:19:26","新北市林口區中正路264巷11號","121.388903333333","25.0781283333333","6501700","林口區"
"243013","AAD-798","2018/11/17 19:19:26","新北市泰山區明志路三段145巷8弄2號","121.425731666667","25.039745","6501600","泰山區"
"243009","297-R6","2018/11/17 19:19:37","新北市泰山區和平街15號","121.434425","25.0646533333333","6501600","泰山區"
"243016","KEA-2801","2018/11/17 19:19:32","新北市泰山區明志路三段133號","121.425028333333","25.0404133333333","6501600","泰山區"
"243015","421-VK","2018/11/17 19:19:30","新北市泰山區公園路16號","121.42955","25.0541733333333","6501600","泰山區"
"243011","KEA-2215","2018/11/17 19:19:29","新北市泰山區中央路36巷1號","121.426241666667","25.0427366666667","6501600","泰山區"
"243010","KEA-2216","2018/11/17 19:19:42","新北市泰山區明志路一段500號","121.430398333333","25.0545433333333","6501600","泰山區"
"243012","646-TV","2018/11/17 19:19:45","新北市泰山區仁武街139巷11號","121.432461666667","25.0540316666667","6501600","泰山區"
"243014","680-BX","2018/11/17 19:19:26","新北市泰山區泰林路二段204號","121.433406666667","25.06141","6501600","泰山區"
"222003","436-BY","2018/11/17 19:19:25","新北市深坑區深南路204號","121.626596666667","25.0160083333333","6501800","深坑區"
"222002","659-BX","2018/11/17 19:19:24","新北市深坑區北深路一段177號","121.632551666667","25.01087","6501800","深坑區"
"231041","002-UM","2018/11/17 19:19:34","新北市新店區溪園路247號","121.525423333333","24.9832916666667","6500600","新店區"
"231059","046-UY","2018/11/17 19:19:32","新北市新店區安和路二段190號","121.518798333333","24.97444","6500600","新店區"
"231040","047-UY","2018/11/17 19:19:28","新北市新店區三民路40號","121.536193333333","24.9715583333333","6500600","新店區"
"231044","106-UY","2018/11/17 19:19:38","新北市新店區中興路三段313號","121.541903333333","24.986085","6500600","新店區"
"231046","107-UY","2018/11/17 19:19:36","新北市新店區華城路5-3號","121.529276666667","24.957905","6500600","新店區"
"231052","108-UY","2018/11/17 19:19:42","新北市新店區新烏路一段145號","121.549361666667","24.9215233333333","6500600","新店區"
"231062","110-UY","2018/11/17 19:19:43","新北市新店區莒光路36號","121.523318333333","24.9588966666667","6500600","新店區"
"231048","187-VK","2018/11/17 19:19:32","新北市新店區中興路二段57巷12號","121.54595","24.9707283333333","6500600","新店區"
"231054","KEA-2219","2018/11/17 19:19:25","新北市新店區國校路65巷1號","121.538351666667","24.954025","6500600","新店區"
"231042","268-BY","2018/11/17 19:19:26","新北市新店區中興路一段115號","121.541505","24.9627683333333","6500600","新店區"
"231051","278-BY","2018/11/17 19:19:30","新北市新店區中央路63號","121.532563333333","24.9771933333333","6500600","新店區"
"231050","AAD-862","2018/11/17 19:19:27","新北市新店區竹林路25巷10號","121.552381666667","24.9513766666667","6500600","新店區"
"231058","3713-VJ","2018/11/17 19:19:41","新北市新店區光明街286巷15號","121.540945","24.9636","6500600","新店區"
"231066","4716-K9","2018/11/17 19:19:25","新北市新店區安康路三段358號","121.485921666667","24.951635","6500600","新店區"
"231056","4715-K9","2018/11/17 19:19:35","新北市新店區安康路二段414巷2號","121.49583","24.957865","6500600","新店區"
"231065","512-UM","2018/11/17 19:19:36","新北市新店區安祥路110巷2號","121.474778333333","24.9569833333333","6500600","新店區"
"231049","513-UM","2018/11/17 19:19:32","新北市新店區明德路64號","121.54156","24.9794466666667","6500600","新店區"
"231063","616-UM","2018/11/17 19:19:40","新北市新店區達觀路14巷3號","121.503215","24.94175","6500600","新店區"
"231061","619-UM","2018/11/17 19:19:38","新北市新店區安康路一段167號","121.527256666667","24.9624516666667","6500600","新店區"
"231060","897-TW","2018/11/17 19:19:30","新北市新店區安康路二段130號","121.512663333333","24.9623716666667","6500600","新店區"
"231045","898-TW","2018/11/17 19:19:44","新北市新店區北宜路一段260號","121.54569","24.952735","6500600","新店區"
"231043","899-TW","2018/11/17 19:19:35","新北市新店區北新路二段165號","121.542826666667","24.9762833333333","6500600","新店區"
"231055","AKT-0513","2018/11/17 19:19:32","新北市新店區薏仁坑路6號","121.500281666667","24.9579783333333","6500600","新店區"
"241022","060-VK","2018/11/17 19:19:31","新北市三重區重陽路二段50號","121.487163333333","25.063385","6500200","三重區"
"241031","061-VK","2018/11/17 19:19:42","新北市三重區重新路四段97-1號","121.48589","25.05487","6500200","三重區"
"241017","063-VK","2018/11/17 19:19:44","新北市三重區大同北路217號","121.49171","25.066015","6500200","三重區"
"241026","066-VK","2018/11/17 19:19:35","新北市三重區泉州街84巷20號","121.496096666667","25.0542916666667","6500200","三重區"
"251014","742-BX","2018/11/17 19:19:44","新北市淡水區小中寮19-7號","121.484766666667","25.2295966666667","6501000","淡水區"
"241009","267-UM","2018/11/17 19:19:27","新北市三重區溪尾街230巷46號","121.485938333333","25.0810816666667","6500200","三重區"
"241032","269-UM","2018/11/17 19:19:38","新北市三重區新生街82號","121.484075","25.0593016666667","6500200","三重區"
"241025","271-UM","2018/11/17 19:19:34","新北市三重區中正北路406號","121.47534","25.07042","6500200","三重區"
"241035","KEA-2210","2018/11/17 19:19:24","新北市三重區信義西街138號","121.495478333333","25.0642983333333","6500200","三重區"
"241020","478-VK","2018/11/17 19:19:34","新北市三重區大智街181號","121.489631666667","25.072765","6500200","三重區"
"241006","AAD-863","2018/11/17 19:19:42","新北市三重區車路頭街162號","121.483791666667","25.0766216666667","6500200","三重區"
"241030","743-BX","2018/11/17 19:19:34","新北市三重區成功路41巷66號","121.491241666667","25.0530366666667","6500200","三重區"
"241029","942-UM","2018/11/17 19:19:26","新北市三重區重安街28號","121.490538333333","25.0579716666667","6500200","三重區"
"235066","003-UY","2018/11/17 19:19:38","新北市中和區中和路102號","121.502656666667","24.9996583333333","6500300","中和區"
"235064","005-UY","2018/11/17 19:19:36","新北市中和區泰和街8號","121.499693333333","25.0012766666667","6500300","中和區"
"235063","006-UY","2018/11/17 19:19:33","新北市中和區連勝街121巷7號","121.495295","24.99457","6500300","中和區"
"235056","096-UM","2018/11/17 19:19:26","新北市中和區中正路1171號","121.48128","25.009475","6500300","中和區"
"235039","097-UM","2018/11/17 19:19:37","新北市中和區秀峰街119巷2弄1號","121.519901666667","24.9904333333333","6500300","中和區"
"235065","098-UM","2018/11/17 19:19:31","新北市中和區中山路二段64巷3號","121.50367","25.00493","6500300","中和區"
"235058","151-BY","2018/11/17 19:19:32","新北市中和區連城路469巷79弄2號","121.483458333333","24.9937116666667","6500300","中和區"
"235055","183-VK","2018/11/17 19:19:22","新北市中和區莒光路4號","121.471908333333","25.0047","6500300","中和區"
"235038","185-VK","2018/11/17 19:19:31","新北市中和區自強路27巷1號","121.520718333333","24.992925","6500300","中和區"
"235049","186-VK","2018/11/17 19:19:44","新北市中和區景新街235號","121.508133333333","24.994535","6500300","中和區"
"235067","255-BX","2018/11/17 19:19:34","新北市中和區中正路797號","121.484855","25.0004983333333","6500300","中和區"
"235044","293-VK","2018/11/17 19:19:32","新北市中和區復興路311號","121.501175","24.99028","6500300","中和區"
"235043","352-BY","2018/11/17 19:19:36","新北市中和區景平路462號","121.50571","24.993565","6500300","中和區"
"235042","KEA-2878","2018/11/17 19:19:29","新北市永和區民有街3-2號","121.515895","24.9971866666667","6500300","中和區"
"235050","4979-A6","2018/11/17 19:19:31","新北市中和區景安路206號","121.503951666667","24.99088","6500300","中和區"
"235070","558-UM","2018/11/17 19:19:28","新北市中和區中山路二段207號","121.499618333333","25.002415","6500300","中和區"
"235045","565-BX","2018/11/17 19:19:27","新北市中和區景新街423巷33弄16號","121.513641666667","24.990365","6500300","中和區"
"235054","640-BX","2018/11/17 19:19:32","新北市中和區國光街112巷16弄2號","121.469848333333","25.001355","6500300","中和區"
"235060","647-TV","2018/11/17 19:19:35","新北市中和區中山路三段37巷33號","121.479521666667","25.004785","6500300","中和區"
"235011","732-UM","2018/11/17 19:19:30","新北市中和區景平路239巷73號","121.508213333333","24.9921166666667","6500300","中和區"
"235046","733-UM","2018/11/17 19:19:35","新北市中和區華新街109巷2號","121.508323333333","24.982605","6500300","中和區"
"235071","783-BX","2018/11/17 19:19:40","新北市中和區中正路637巷52弄7號","121.48512","24.993665","6500300","中和區"
"235062","800-TS","2018/11/17 19:19:41","新北市板橋區民生路二段206號","121.469513333333","25.020915","6500300","中和區"
"235057","801-TS","2018/11/17 19:19:37","新北市中和區員山路180號","121.481311666667","25.00016","6500300","中和區"
"235052","805-TS","2018/11/17 19:19:28","新北市中和區華新街141號","121.506458333333","24.9816833333333","6500300","中和區"
"235048","896-TW","2018/11/17 19:19:34","新北市中和區忠孝街91號","121.512111666667","24.98555","6500300","中和區"
"235053","900-TW","2018/11/17 19:19:32","新北市中和區華安街21巷2號","121.467451666667","24.99743","6500300","中和區"
"235072","911-UM","2018/11/17 19:19:36","新北市中和區連城路265巷3號","121.491538333333","24.9961183333333","6500300","中和區"
"235051","157-BY","2018/11/17 19:19:27","新北市中和區景平路239-1號","121.509733333333","24.9925283333333","6500300","中和區"
"235037","AAC-213","2018/11/17 19:19:41","新北市中和區秀朗路三段10巷37弄15號","121.524086666667","24.9956666666667","6500300","中和區"
"235059","AAC-215","2018/11/17 19:19:40","新北市中和區圓通路286巷1號","121.491501666667","24.9911566666667","6500300","中和區"
"220068","013-TV","2018/11/17 19:19:41","新北市板橋區翠華街6巷59號","121.48128","25.0249816666667","6500100","板橋區"
"220065","072-UY","2018/11/17 19:19:40","新北市板橋區國泰街75巷25號","121.467825","25.0056533333333","6500100","板橋區"
"220086","073-UY","2018/11/17 19:19:42","新北市板橋區中正路216巷48-1號","121.457371666667","25.01882","6500100","板橋區"
"220106","075-UY","2018/11/17 19:19:30","新北市板橋區雙十路三段66巷1號","121.47058","25.0319633333333","6500100","板橋區"
"220069","AAD-861","2018/11/17 19:19:41","新北市板橋區貴興路39號","121.457543333333","25.0036766666667","6500100","板橋區"
"226004","312-R5","2018/11/17 19:19:45","新北市平溪區靜安路三段256號","121.776071666667","25.04026","6502400","平溪區"
"235041","251-BX","2018/11/17 19:19:32","新北市中和區中和路294號","121.508626666667","24.9997733333333","6500300","中和區"
"228003","097-TW","2018/11/17 19:19:35","新北市貢寮區和美里和美街22-1號","121.912798333333","25.0826183333333","6502600","貢寮區"
"228001","212-TW","2018/11/17 19:19:45","新北市貢寮區真理里新港街10號","121.925511666667","25.0544033333333","6502600","貢寮區"
"228002","585-TW","2018/11/17 19:19:37","新北市貢寮區龍門里復興街14號","121.92644","25.025725","6502600","貢寮區"
"224010","AGQ-8101","2018/11/17 19:19:31","新北市瑞芳區基山街6-2號","121.84531","25.109175","6501200","瑞芳區"
"227010","642-TC","2018/11/17 19:19:43","新北市雙溪區新基里新基北街40號","121.868561666667","25.0380683333333","6502500","雙溪區"
"227002","400-TW","2018/11/17 19:19:29","新北市雙溪區平林里梅竹蹊66-1號","121.86018","25.0358083333333","6502500","雙溪區"
"253006","032-BX","2018/11/17 19:19:34","新北市石門區崁子腳26號","121.535236666667","25.2910483333333","6502200","石門區"
"253005","295-VK","2018/11/17 19:19:36","新北市石門區阿里荖42-1號","121.602543333333","25.2859933333333","6502200","石門區"
"222001","KEA-2212","2018/11/17 19:19:43","新北市深坑區北深路二段84號","121.617501666667","25.0035166666667","6501800","深坑區"
"208002","KEA-2872","2018/11/17 19:19:33","新北市金山區中正路136號","121.631673333333","25.2218","6502700","金山區"
"208003","665-BX","2018/11/17 19:19:30","新北市金山區忠孝一路56號","121.637531666667","25.2204183333333","6502700","金山區"
"208001","761-BX","2018/11/17 19:19:42","新北市金山區民生路69號","121.640091666667","25.2197066666667","6502700","金山區"
"251009","008-UM","2018/11/17 19:19:40","新北市淡水區中正路36號","121.443763333333","25.1692433333333","6501000","淡水區"
"251005","010-UM","2018/11/17 19:19:44","新北市淡水區水源街一段34巷2號","121.44328","25.1721833333333","6501000","淡水區"
"251013","KEA-2871","2018/11/17 19:19:37","新北市淡水區安子內12-1號","121.481545","25.2190866666667","6501000","淡水區"
"251016","179-VK","2018/11/17 19:13:47","新北市淡水區下圭柔山119-51號","121.45078","25.2084433333333","6501000","淡水區"
"251015","182-VK","2018/11/17 19:19:31","新北市淡水區山子邊1-2號","121.4849","25.1835716666667","6501000","淡水區"
"251010","413-VK","2018/11/17 19:19:35","新北市淡水區沙崙路30號","121.421471666667","25.181445","6501000","淡水區"
"251007","442-VK","2018/11/17 19:19:29","新北市淡水區民生路143號","121.46568","25.1384816666667","6501000","淡水區"
"251001","559-UM","2018/11/17 19:19:33","新北市淡水區自強路201巷39號","121.462108333333","25.1268116666667","6501000","淡水區"
"251003","673-BX","2018/11/17 19:19:28","新北市淡水區中山北路一段206號","121.444626666667","25.1796133333333","6501000","淡水區"
"207003","550-UM","2018/11/17 19:19:43","新北市萬里區大鵬里萬里加投79-3號","121.647341666667","25.21232","6502800","萬里區"
"207004","225-TW","2018/11/17 19:19:40","新北市萬里區萬里里成功新村44號","121.68772","25.1746183333333","6502800","萬里區"
"252002","178-VK","2018/11/17 19:19:35","新北市三芝區淡金路二段18-1號","121.502666666667","25.2594683333333","6502100","三芝區"
"252001","292-VK","2018/11/17 19:19:31","新北市三芝區長勤街9巷9弄2號","121.501771666667","25.2549616666667","6502100","三芝區"
"237004","KEA-2597","2018/11/17 19:19:25","新北市三峽區有木205-1號","121.439006666667","24.8514983333333","6500900","三峽區"
"237007","153-BY","2018/11/17 19:19:35","新北市三峽區二鬮路134號","121.359836666667","24.9080333333333","6500900","三峽區"
"237009","210-TH","2018/11/17 19:19:32","新北市三峽區信義街4號","121.370806666667","24.9360183333333","6500900","三峽區"
"237013","252-BX","2018/11/17 19:19:40","新北市三峽區大同路39巷47號","121.37849","24.9275666666667","6500900","三峽區"
"237012","275-BY","2018/11/17 19:19:45","新北市三峽區三樹路98巷189號","121.384998333333","24.9413783333333","6500900","三峽區"
"237014","433-BY","2018/11/17 19:19:37","新北市三峽區中山路281號","121.3619","24.9376083333333","6500900","三峽區"
"237006","5529-G3","2018/11/17 19:19:33","新北市三峽區大同路17號","121.377175","24.9286516666667","6500900","三峽區"
"237011","KEA-2596","2018/11/17 19:19:44","新北市三峽區介壽路三段24號","121.396028333333","24.9364933333333","6500900","三峽區"
"237016","649-BX","2018/11/17 19:19:42","新北市三峽區成福路188號","121.42553","24.9277616666667","6500900","三峽區"
"237010","706-TV","2018/11/17 19:19:32","新北市三峽區復興路88號","121.373001666667","24.9374583333333","6500900","三峽區"
"237005","AKY-6261","2018/11/17 19:19:39","新北市三峽區中山路459巷50-2號","121.356001666667","24.9377316666667","6500900","三峽區"
"236070","105-UM","2018/11/17 19:19:31","新北市土城區學成路4號","121.453518333333","24.9864466666667","6501300","土城區"
"236042","KED-0685","2018/11/17 19:19:33","新北市土城區學府路一段239號","121.45037","24.9833183333333","6501300","土城區"
"236079","166-UM","2018/11/17 19:19:33","新北市土城區中央路四段321巷38號","121.411756666667","24.9513416666667","6501300","土城區"
"236026","269-VK","2018/11/17 19:19:46","新北市土城區員林街76號","121.444435","24.97671","6501300","土城區"
"236014","270-VK","2018/11/17 19:19:45","新北市土城區學府路一段23巷25弄3號","121.457865","24.9867483333333","6501300","土城區"
"236038","271-VK","2018/11/17 19:19:26","新北市土城區清水路98巷3弄1號","121.457575","24.9812983333333","6501300","土城區"
"236021","401-BY","2018/11/17 19:19:45","新北市土城區峰廷街3號","121.469013333333","24.9873416666667","6501300","土城區"
"236059","752-BX","2018/11/17 19:19:39","新北市土城區中央路二段340號","121.440175","24.97206","6501300","土城區"
"236049","913-UM","2018/11/17 19:19:25","新北市土城區明德路一段365-1號","121.453631666667","24.9790966666667","6501300","土城區"
"236055","AAC-216","2018/11/17 19:19:28","新北市土城區學府路一段276號","121.450203333333","24.983295","6501300","土城區"
"242013","173-VK","2018/11/17 19:19:43","新北市新莊區三和路12-21號","121.441836666667","25.0386066666667","6500500","新莊區"
"242004","349-TH","2018/11/17 19:19:46","新北市新莊區新泰路277巷71號","121.44301","25.0400366666667","6500500","新莊區"
"238015","755-BX","2018/11/17 19:19:31","新北市樹林區備內街68號","121.411156666667","24.9881883333333","6500700","樹林區"
"238023","601-UM","2018/11/17 19:19:46","新北市樹林區三興路77號","121.392858333333","25.01446","6500700","樹林區"
"238019","599-UM","2018/11/17 19:19:39","新北市樹林區東榮街91巷1弄9號","121.416413333333","24.9827383333333","6500700","樹林區"
"238018","571-TV","2018/11/17 19:19:34","新北市樹林區太元街2巷9號","121.417058333333","24.980925","6500700","樹林區"
"238024","5061-A6","2018/11/17 19:19:39","新北市樹林區福德街48-14號","121.398705","24.974755","6500700","樹林區"
"238021","KEA-2539","2018/11/17 19:19:29","新北市樹林區學府路210號","121.377551666667","24.95019","6500700","樹林區"
"238025","303-VK","2018/11/17 19:19:27","新北市樹林區中山路二段157號","121.406266666667","24.978795","6500700","樹林區"
"238014","282-BY","2018/11/17 19:19:43","新北市樹林區千歲街57號","121.425736666667","24.9968033333333","6500700","樹林區"
"238026","172-UY","2018/11/17 19:19:35","新北市樹林區佳園路一段39-1號","121.393351666667","24.970875","6500700","樹林區"
"238016","169-UY","2018/11/17 19:19:41","新北市樹林區備前街27號","121.417241666667","24.9858883333333","6500700","樹林區"
"239007","AAC-297","2018/11/17 19:19:43","新北市鶯歌區大湖路余厝巷11號","121.341986666667","24.9615116666667","6500800","鶯歌區"
"239006","891-R6","2018/11/17 19:19:39","新北市鶯歌區永智街132號","121.337001666667","24.9520716666667","6500800","鶯歌區"
"239008","527-UM","2018/11/17 19:19:31","新北市鶯歌區大湖路466號","121.339668333333","24.97219","6500800","鶯歌區"
"239001","417-VK","2018/11/17 19:19:37","新北市鶯歌區建國路596巷46號","121.340435","24.9516616666667","6500800","鶯歌區"
"239003","360-BY","2018/11/17 19:19:28","新北市鶯歌區中正一路53號","121.352318333333","24.9540083333333","6500800","鶯歌區"
"239002","359-BY","2018/11/17 19:19:36","新北市鶯歌區湖山路23巷1號","121.340376666667","24.9736966666667","6500800","鶯歌區"
"239004","193-VK","2018/11/17 19:19:44","新北市鶯歌區二甲路45-3號","121.335433333333","24.9333983333333","6500800","鶯歌區"
"221036","130-UY","2018/11/17 19:19:35","新北市汐止區康寧街901號","121.651653333333","25.074915","6501100","汐止區"
"221015","131-UY","2018/11/17 19:19:40","新北市汐止區康寧街901號","121.65153","25.0749483333333","6501100","汐止區"
"221010","269-BY","2018/11/17 19:19:27","新北市汐止區康寧街901號","121.651455","25.0750133333333","6501100","汐止區"
"221012","278-VK","2018/11/17 19:19:37","新北市汐止區長江街71號","121.656955","25.0719833333333","6501100","汐止區"
"221027","281-BY","2018/11/17 19:19:37","新北市汐止區汐萬路一段273號","121.650531666667","25.0744416666667","6501100","汐止區"
"221029","298-VK","2018/11/17 19:19:41","新北市汐止區汐萬路一段256巷1號","121.651741666667","25.0748566666667","6501100","汐止區"
"221021","299-VK","2018/11/17 19:19:39","新北市汐止區康寧街901號","121.651335","25.0751","6501100","汐止區"
"221031","353-TW","2018/11/17 19:19:43","新北市汐止區康寧街901號","121.650846666667","25.0752733333333","6501100","汐止區"
"221035","622-UM","2018/11/17 19:19:29","新北市汐止區康寧街901號","121.651065","25.07518","6501100","汐止區"
"221025","623-UM","2018/11/17 19:19:33","新北市汐止區汐萬路一段39號","121.65497","25.0690516666667","6501100","汐止區"
"221038","646-BX","2018/11/17 19:19:29","新北市汐止區汐萬路一段312號","121.650698333333","25.0752766666667","6501100","汐止區"
"221002","707-TV","2018/11/17 19:19:30","新北市汐止區大同路一段337巷17弄2號","121.637233333333","25.0597983333333","6501100","汐止區"
"220079","145-BY","2018/11/17 19:19:29","新北市板橋區民權路202巷17號","121.460495","25.0165783333333","6500100","板橋區"
"220080","200-UY","2018/11/17 19:19:36","新北市板橋區大觀路二段19巷105號","121.450016666667","25.00272","6500100","板橋區"
"220091","267-BY","2018/11/17 19:19:44","新北市板橋區文聖街153號","121.478618333333","25.027855","6500100","板橋區"
"220056","276-BY","2018/11/17 19:19:36","新北市板橋區和平路21號","121.459721666667","24.9950783333333","6500100","板橋區"
"220072","277-BY","2018/11/17 19:19:40","新北市板橋區篤行路二段153號","121.429703333333","24.9879616666667","6500100","板橋區"
"220101","280-UM","2018/11/17 19:19:41","新北市板橋區縣民大道三段121巷22號","121.476601666667","25.0235016666667","6500100","板橋區"
"220064","282-UM","2018/11/17 19:19:44","新北市板橋區板新路238號","121.468228333333","25.01603","6500100","板橋區"
"220071","283-VK","2018/11/17 19:19:46","新北市板橋區忠孝路48巷7弄1-3號","121.461045","25.0004383333333","6500100","板橋區"
"220094","285-UM","2018/11/17 19:19:40","新北市板橋區吳鳳路82號","121.466965","25.0312533333333","6500100","板橋區"
"220001","285-VK","2018/11/17 19:19:41","新北市板橋區富山街40號","121.477776666667","25.0218633333333","6500100","板橋區"
"220081","287-VK","2018/11/17 19:19:41","新北市板橋區南雅西路一段126號","121.452611666667","25.0068383333333","6500100","板橋區"
"220090","288-VK","2018/11/17 19:19:41","新北市板橋區長江路一段106巷13弄4號","121.46019","25.0291066666667","6500100","板橋區"
"220061","295-UM","2018/11/17 19:19:32","新北市板橋區中山路二段326號","121.480998333333","25.0195966666667","6500100","板橋區"
"220084","296-UM","2018/11/17 19:19:32","新北市板橋區滿平街136巷2弄24號","121.428018333333","24.988255","6500100","板橋區"
"220075","303-R5","2018/11/17 19:19:43","新北市板橋區中正路275巷67號","121.452823333333","25.01786","6500100","板橋區"
"220062","305-R5","2018/11/17 19:19:37","新北市板橋區三民路二段153巷14號","121.480055","25.0149433333333","6500100","板橋區"
"220092","307-R5","2018/11/17 19:19:35","新北市板橋區松江街57號","121.468575","25.0277183333333","6500100","板橋區"
"220098","317-R6","2018/11/17 19:19:33","新北市板橋區四維路206號","121.464001666667","25.0272233333333","6500100","板橋區"
"220089","487-VK","2018/11/17 19:19:41","新北市板橋區文化路一段357號","121.466745","25.0210983333333","6500100","板橋區"
"220035","560-BX","2018/11/17 19:19:29","新北市板橋區中正路433巷25號","121.453331666667","25.02369","6500100","板橋區"
"220103","561-BX","2018/11/17 19:19:26","新北市板橋區介壽街20號","121.467646666667","25.020005","6500100","板橋區"
"220083","568-UM","2018/11/17 19:19:30","新北市板橋區龍興街95巷15號","121.443393333333","25.0026216666667","6500100","板橋區"
"220063","609-BX","2018/11/17 19:19:36","新北市板橋區三民路一段5巷23號","121.480156666667","25.02366","6500100","板橋區"
"220005","686-BX","2018/11/17 19:19:32","新北市板橋區五權街51號","121.464635","24.9936716666667","6500100","板橋區"
"220077","687-BX","2018/11/17 19:19:45","新北市板橋區僑中二街12巷2號","121.446813333333","25.0107033333333","6500100","板橋區"
"220093","689-BX","2018/11/17 19:19:35","新北市板橋區文化路一段239號","121.464098333333","25.0177583333333","6500100","板橋區"
"220054","741-BX","2018/11/17 19:19:46","新北市板橋區光明街39號","121.461243333333","25.0026266666667","6500100","板橋區"
"220070","806-UM","2018/11/17 19:19:33","新北市板橋區四川路一段281號","121.459465","25.0018366666667","6500100","板橋區"
"220055","827-TW","2018/11/17 19:19:32","新北市板橋區民族路57號","121.464671666667","25.0088066666667","6500100","板橋區"
"220067","829-TW","2018/11/17 19:19:39","新北市板橋區長安街138巷1弄52號","121.473941666667","25.010145","6500100","板橋區"
"220102","830-TW","2018/11/17 19:19:40","新北市板橋區文聖街207號","121.47979","25.0264383333333","6500100","板橋區"
"220096","831-TW","2018/11/17 19:19:45","新北市板橋區文聖街156-1號","121.478691666667","25.0274366666667","6500100","板橋區"
"220088","833-TW","2018/11/17 19:19:28","新北市板橋區三民路一段120號","121.479226666667","25.020705","6500100","板橋區"
"220074","895-R6","2018/11/17 19:19:43","新北市板橋區民權路182號","121.459171666667","25.0134216666667","6500100","板橋區"
"220073","985-R7","2018/11/17 19:19:42","新北市板橋區新生街42號","121.456626666667","25.0210916666667","6500100","板橋區"
"220097","AAC-210","2018/11/17 19:19:42","新北市板橋區幸福路60巷79號","121.459751666667","25.02202","6500100","板橋區"
"220082","AAC-253","2018/11/17 19:19:41","新北市板橋區金門街355-1號","121.428606666667","24.984945","6500100","板橋區"
"235068","KEA-2873","2018/11/17 19:19:21","新北市中和區景平路545巷1弄12號","121.498768333333","24.9987716666667","6500300","中和區"
"235061","KEA-2875","2018/11/17 19:19:25","新北市中和區民有街64號","121.47601","25.00439","6500300","中和區"
"235040","KEA-2876","2018/11/17 19:19:39","新北市中和區保健路61巷7號","121.509688333333","24.99748","6500300","中和區"
