"lineid","car","time","location","longitude","latitude","cityid","cityname"
"234046","148-BY","2018/11/17 19:29:39","新北市永和區秀朗路二段227號","121.526468333333","25.0006","6500400","永和區"
"234007","207-UY","2018/11/17 19:29:37","新北市永和區永和路184-1號","121.514196666667","25.00903","6500400","永和區"
"234081","298-R6","2018/11/17 19:29:47","新北市永和區環河東路三段52巷2弄2號","121.526595","25.00611","6500400","永和區"
"234038","336-UY","2018/11/17 19:29:25","新北市永和區民樂街38號","121.527501666667","25.00077","6500400","永和區"
"234064","337-UY","2018/11/17 19:29:30","新北市永和區得和路243巷26號","121.520848333333","25.00112","6500400","永和區"
"234086","338-UY","2018/11/17 19:29:28","新北市永和區林森路62號","121.524025","25.00414","6500400","永和區"
"234070","552-UM","2018/11/17 19:29:46","新北市永和區警光街1-1號","121.52004","25.0095933333333","6500400","永和區"
"234017","745-BX","2018/11/17 19:29:36","新北市永和區環河西路一段59號","121.513566666667","25.0181366666667","6500400","永和區"
"234030","746-BX","2018/11/17 19:29:38","新北市永和區民生路53號","121.522735","24.9976833333333","6500400","永和區"
"234054","KEA-2590","2018/11/17 19:29:42","新北市永和區復興街19巷2號","121.516121666667","25.01312","6500400","永和區"
"234013","KEA-2591","2018/11/17 19:29:42","新北市永和區信義路10號","121.514628333333","25.0120733333333","6500400","永和區"
"234061","AAD-866","2018/11/17 19:29:35","新北市永和區中正路506號","121.517378333333","25.004535","6500400","永和區"
"234042","862-TW","2018/11/17 19:29:34","新北市永和區中和路519巷8號","121.510943333333","25.00311","6500400","永和區"
"234050","863-TW","2018/11/17 19:29:33","新北市永和區信義路77號","121.512441666667","25.0132933333333","6500400","永和區"
"234026","9371-KE","2018/11/17 19:29:35","新北市中和區安樂路255號","121.514085","24.9999","6500400","永和區"
"234011","9373-KE","2018/11/17 19:29:29","新北市永和區保福路二段15巷5號","121.510675","25.0109916666667","6500400","永和區"
"249003","593-UM","2018/11/17 19:29:38","新北市八里區中山路二段506號","121.398071666667","25.1470033333333","6502300","八里區"
"248016","026-BX","2018/11/17 19:29:38","新北市五股區成泰路三段476號","121.451831666667","25.1014416666667","6501500","五股區"
"248008","095-VK","2018/11/17 19:29:40","新北市五股區中興路一段95巷15號","121.466646666667","25.0722483333333","6501500","五股區"
"248020","225-UY","2018/11/17 19:29:41","新北市五股區凌雲路三段41-2號","121.430093333333","25.11767","6501500","五股區"
"248012","247-BX","2018/11/17 19:29:36","新北市五股區成泰路二段91巷8號","121.437671666667","25.0844066666667","6501500","五股區"
"248014","261-SL","2018/11/17 19:29:36","新北市五股區民義路一段157-10號","121.432156666667","25.08725","6501500","五股區"
"248004","677-BX","2018/11/17 19:29:29","新北市五股區五福路73號","121.432505","25.0902116666667","6501500","五股區"
"248002","678-BX","2018/11/17 19:29:25","新北市五股區凌雲路一段158巷6號","121.44782","25.1030066666667","6501500","五股區"
"248010","682-TV","2018/11/17 19:29:39","新北市五股區水碓二路1號","121.430586666667","25.07126","6501500","五股區"
"234023","9380-KE","2018/11/17 19:29:34","新北市永和區竹林路91巷43弄2號","121.52123","25.01277","6500400","永和區"
"234077","969-R7","2018/11/17 19:29:37","新北市永和區民族街43巷10號","121.519008333333","24.9983216666667","6500400","永和區"
"234074","AAC-211","2018/11/17 19:29:30","新北市永和區竹林路3號","121.516308333333","25.0149083333333","6500400","永和區"
"234067","AAC-212","2018/11/17 19:29:37","新北市永和區保平路113號","121.510908333333","25.00665","6500400","永和區"
"234003","AAC-295","2018/11/17 19:29:30","新北市永和區福和路353號","121.514625","25.0073766666667","6500400","永和區"
"244023","069-UM","2018/11/17 19:29:38","新北市林口區文化三路一段553號","121.369878333333","25.075945","6501700","林口區"
"243013","AAD-798","2018/11/17 19:29:26","新北市泰山區貴子路38號","121.42598","25.0416783333333","6501600","泰山區"
"243009","297-R6","2018/11/17 19:29:37","新北市五股區成泰路一段7巷3號","121.433428333333","25.0665983333333","6501600","泰山區"
"243016","KEA-2801","2018/11/17 19:29:32","新北市泰山區明志路三段166號","121.424193333333","25.0394183333333","6501600","泰山區"
"243015","421-VK","2018/11/17 19:29:31","新北市泰山區民權街6號","121.42806","25.0509066666667","6501600","泰山區"
"243011","KEA-2215","2018/11/17 19:29:29","新北市泰山區貴子路19-1號","121.428096666667","25.0407666666667","6501600","泰山區"
"243010","KEA-2216","2018/11/17 19:29:36","新北市泰山區民生路17巷8號","121.42976","25.0521016666667","6501600","泰山區"
"243012","646-TV","2018/11/17 19:29:40","新北市泰山區仁愛路6巷5弄5號","121.430883333333","25.054155","6501600","泰山區"
"243014","680-BX","2018/11/17 19:29:26","新北市泰山區中港西路420號","121.433921666667","25.0538733333333","6501600","泰山區"
"222003","436-BY","2018/11/17 19:29:46","新北市深坑區深南路51-1號","121.621335","25.0097683333333","6501800","深坑區"
"222002","659-BX","2018/11/17 19:29:44","新北市深坑區北深路一段177號","121.632578333333","25.0108516666667","6501800","深坑區"
"231041","002-UM","2018/11/17 19:29:34","新北市新店區中正路558號","121.53364","24.9872183333333","6500600","新店區"
"231059","046-UY","2018/11/17 19:29:32","新北市新店區安和路三段7號","121.51808","24.98052","6500600","新店區"
"231040","047-UY","2018/11/17 19:29:28","新北市新店區北新路一段231號","121.540705","24.9655733333333","6500600","新店區"
"231044","106-UY","2018/11/17 19:29:30","新北市新店區中興路三段139號","121.544576666667","24.9798083333333","6500600","新店區"
"231046","107-UY","2018/11/17 19:29:36","新北市新店區中央路181-1號","121.535855","24.9691066666667","6500600","新店區"
"231052","108-UY","2018/11/17 19:29:42","新北市新店區新烏路二段331號","121.550203333333","24.91056","6500600","新店區"
"231062","110-UY","2018/11/17 19:29:43","新北市新店區莒光路59號","121.523406666667","24.95886","6500600","新店區"
"231048","187-VK","2018/11/17 19:29:41","新北市新店區五峰路129號","121.544948333333","24.96589","6500600","新店區"
"231054","KEA-2219","2018/11/17 19:29:45","新北市新店區文中路45號","121.53949","24.956545","6500600","新店區"
"231042","268-BY","2018/11/17 19:29:25","新北市新店區中興路一段72號","121.539455","24.9598983333333","6500600","新店區"
"231051","278-BY","2018/11/17 19:29:30","新北市新店區中央五街60號","121.527603333333","24.9755266666667","6500600","新店區"
"231050","AAD-862","2018/11/17 19:29:26","新北市新店區竹林路94號","121.553893333333","24.95023","6500600","新店區"
"231058","3713-VJ","2018/11/17 19:29:41","新北市新店區北新路二段228巷15號","121.543491666667","24.97712","6500600","新店區"
"231066","4716-K9","2018/11/17 19:29:45","新北市新店區安康路三段466-2號","121.484196666667","24.9510166666667","6500600","新店區"
"231056","4715-K9","2018/11/17 19:29:35","新北市新店區安康路二段320巷15弄10號","121.502956666667","24.9592333333333","6500600","新店區"
"231065","512-UM","2018/11/17 19:29:16","新北市新店區安祥路109巷1弄59號","121.478133333333","24.9608133333333","6500600","新店區"
"231049","513-UM","2018/11/17 19:29:32","新北市新店區北新路三段65巷34弄28號","121.540051666667","24.9819366666667","6500600","新店區"
"231063","616-UM","2018/11/17 19:29:40","新北市新店區達觀路16號","121.50333","24.9404666666667","6500600","新店區"
"231061","619-UM","2018/11/17 19:29:37","新北市新店區安康路二段3-7號","121.515616666667","24.9636966666667","6500600","新店區"
"231060","897-TW","2018/11/17 19:29:42","新北市新店區安康路二段118號","121.513131666667","24.96286","6500600","新店區"
"231045","898-TW","2018/11/17 19:29:44","新北市新店區北宜路二段213號","121.553238333333","24.9533333333333","6500600","新店區"
"231043","899-TW","2018/11/17 19:29:35","新北市新店區北新路二段128號","121.543071666667","24.9748766666667","6500600","新店區"
"231055","AKT-0513","2018/11/17 19:29:32","新北市新店區中華路83巷67號","121.5383","24.9672283333333","6500600","新店區"
"241028","022-UY","2018/11/17 19:29:29","新北市三重區中寮街100號","121.493455","25.057895","6500200","三重區"
"241008","059-VK","2018/11/17 19:29:28","新北市三重區永福街135巷32弄7號","121.47707","25.0770466666667","6500200","三重區"
"241022","060-VK","2018/11/17 19:29:39","新北市三重區三民街175巷1號","121.483755","25.06521","6500200","三重區"
"241031","061-VK","2018/11/17 19:29:42","新北市三重區集美街100號","121.488555","25.0541983333333","6500200","三重區"
"241017","063-VK","2018/11/17 19:29:24","新北市三重區中正北路25巷25弄1號","121.49319","25.06262","6500200","三重區"
"241026","066-VK","2018/11/17 19:29:35","新北市三重區文化南路47巷19號","121.499473333333","25.0611583333333","6500200","三重區"
"251014","742-BX","2018/11/17 19:29:44","新北市淡水區小中寮14號","121.485616666667","25.23077","6501000","淡水區"
"241009","267-UM","2018/11/17 19:29:27","新北市三重區溪尾街242巷62號","121.486256666667","25.081485","6500200","三重區"
"241032","269-UM","2018/11/17 19:29:38","新北市三重區三陽路58號","121.48424","25.0587716666667","6500200","三重區"
"241013","270-UM","2018/11/17 19:29:35","新北市三重區仁愛街127號","121.495441666667","25.0747533333333","6500200","三重區"
"241025","271-UM","2018/11/17 19:29:34","新北市三重區頂崁街210巷28弄5號","121.475823333333","25.067585","6500200","三重區"
"241007","398-BY","2018/11/17 19:29:37","新北市三重區溪尾街126巷9號","121.488993333333","25.0792783333333","6500200","三重區"
"241035","KEA-2210","2018/11/17 19:29:44","新北市三重區信義西街1巷3號","121.49811","25.0649266666667","6500200","三重區"
"241020","478-VK","2018/11/17 19:29:34","新北市三重區三和路四段42號","121.490458333333","25.0744566666667","6500200","三重區"
"241023","545-UM","2018/11/17 19:29:24","新北市三重區頂崁街99號","121.478011666667","25.0638216666667","6500200","三重區"
"241006","AAD-863","2018/11/17 19:29:43","新北市三重區國道路一段3號","121.486343333333","25.0734366666667","6500200","三重區"
"241030","743-BX","2018/11/17 19:29:34","新北市三重區環河南路254巷22-1號","121.490315","25.050975","6500200","三重區"
"241029","942-UM","2018/11/17 19:29:45","新北市三重區中正南路216號","121.49381","25.0550816666667","6500200","三重區"
"235066","003-UY","2018/11/17 19:29:38","新北市中和區景新街51號","121.504388333333","24.9990766666667","6500300","中和區"
"235064","005-UY","2018/11/17 19:29:36","新北市中和區南山路81巷58號","121.503941666667","24.9981233333333","6500300","中和區"
"235063","006-UY","2018/11/17 19:29:33","新北市中和區連城路219巷17號","121.495046666667","24.9961183333333","6500300","中和區"
"235056","096-UM","2018/11/17 19:29:46","新北市中和區民富街4號","121.477066666667","25.005925","6500300","中和區"
"235039","097-UM","2018/11/17 19:29:37","新北市中和區秀峰街103巷2弄1號","121.520553333333","24.9901333333333","6500300","中和區"
"235065","098-UM","2018/11/17 19:29:31","新北市中和區中山路二段2巷5弄3號","121.504478333333","25.0062116666667","6500300","中和區"
"235058","151-BY","2018/11/17 19:29:32","新北市中和區連城路330號","121.483193333333","24.9959033333333","6500300","中和區"
"235055","183-VK","2018/11/17 19:29:43","新北市中和區國光街32號","121.471371666667","25.000255","6500300","中和區"
"235038","185-VK","2018/11/17 19:29:31","新北市中和區自立路127號","121.521996666667","24.9940533333333","6500300","中和區"
"235049","186-VK","2018/11/17 19:29:24","新北市中和區景新街285巷18號","121.510545","24.9936266666667","6500300","中和區"
"235067","255-BX","2018/11/17 19:29:35","新北市中和區新生街286號","121.48347","24.9965766666667","6500300","中和區"
"235044","293-VK","2018/11/17 19:29:32","新北市中和區捷運路153號","121.506541666667","24.991085","6500300","中和區"
"235043","352-BY","2018/11/17 19:29:36","新北市中和區安和路47號","121.509171666667","24.9948683333333","6500300","中和區"
"235042","KEA-2878","2018/11/17 19:29:29","新北市中和區中和路350巷15弄21號","121.510908333333","25.00132","6500300","中和區"
"235050","4979-A6","2018/11/17 19:29:31","新北市中和區中正路637巷60弄61號","121.485428333333","24.9930483333333","6500300","中和區"
"235070","558-UM","2018/11/17 19:29:28","新北市中和區景平路634-1號","121.500015","24.9982183333333","6500300","中和區"
"235045","565-BX","2018/11/17 19:29:27","新北市中和區景新街383巷14號","121.513141666667","24.9904966666667","6500300","中和區"
"235054","640-BX","2018/11/17 19:29:32","新北市中和區國光街85巷2號","121.470483333333","25","6500300","中和區"
"235060","647-TV","2018/11/17 19:29:35","新北市中和區新生街114巷37弄12號","121.482388333333","25.0018766666667","6500300","中和區"
"235011","732-UM","2018/11/17 19:29:30","新北市中和區景平路259巷32號","121.507078333333","24.99276","6500300","中和區"
"235046","733-UM","2018/11/17 19:29:35","新北市中和區忠孝街37巷20號","121.511008333333","24.9839383333333","6500300","中和區"
"235071","783-BX","2018/11/17 19:29:40","新北市中和區連城路469巷21弄12號","121.48397","24.9950816666667","6500300","中和區"
"235057","801-TS","2018/11/17 19:29:37","新北市中和區員山路425號","121.480896666667","25.00343","6500300","中和區"
"235052","805-TS","2018/11/17 19:29:28","新北市中和區華新街143巷71弄31號","121.507833333333","24.9791083333333","6500300","中和區"
"235048","896-TW","2018/11/17 19:29:34","新北市中和區忠孝街113巷1號","121.51246","24.98739","6500300","中和區"
"235053","900-TW","2018/11/17 19:29:32","新北市中和區華順街17號","121.46743","24.9986816666667","6500300","中和區"
"235072","911-UM","2018/11/17 19:29:36","新北市中和區連城路265巷10弄1號","121.49168","24.99525","6500300","中和區"
"235051","157-BY","2018/11/17 19:29:27","新北市中和區景平路566號","121.501863333333","24.9953933333333","6500300","中和區"
"235037","AAC-213","2018/11/17 19:29:41","新北市中和區秀朗路三段10巷14弄46號","121.524386666667","24.9964566666667","6500300","中和區"
"235059","AAC-215","2018/11/17 19:29:40","新北市中和區圓通路252巷2-6號","121.493375","24.9915283333333","6500300","中和區"
"220068","013-TV","2018/11/17 19:29:40","新北市板橋區翠華街6巷123號","121.48177","25.024645","6500100","板橋區"
"220065","072-UY","2018/11/17 19:29:37","新北市板橋區國泰街111巷1號","121.466026666667","25.0063183333333","6500100","板橋區"
"220086","073-UY","2018/11/17 19:29:42","新北市板橋區中正路228號","121.45577","25.0186266666667","6500100","板橋區"
"220106","075-UY","2018/11/17 19:29:30","新北市板橋區文化路二段441巷2弄1號","121.474681666667","25.03339","6500100","板橋區"
"220069","AAD-861","2018/11/17 19:29:41","新北市板橋區稚暉街1號","121.45605","25.0044416666667","6500100","板橋區"
"247004","002-UY","2018/11/17 19:29:29","新北市蘆洲區長安街227號","121.45956","25.0827116666667","6501400","蘆洲區"
"226004","312-R5","2018/11/17 19:29:45","新北市平溪區十分里十分街150號","121.777768333333","25.0433283333333","6502400","平溪區"
"235041","251-BX","2018/11/17 19:29:32","新北市中和區中和路350巷10號","121.510743333333","25.00051","6500300","中和區"
"228003","097-TW","2018/11/17 19:29:35","新北市貢寮區和美里和美街33號","121.913883333333","25.082985","6502600","貢寮區"
"228001","212-TW","2018/11/17 19:29:45","新北市貢寮區真理里延平街68號","121.925363333333","25.0574433333333","6502600","貢寮區"
"224010","AGQ-8101","2018/11/17 19:29:31","新北市瑞芳區基山街165號","121.843426666667","25.1081133333333","6501200","瑞芳區"
"224002","639-TC","2018/11/17 19:29:29","新北市瑞芳區三爪子坑路13巷27號","121.814141666667","25.10692","6501200","瑞芳區"
"227010","642-TC","2018/11/17 19:29:43","新北市雙溪區新基里新基北街43號","121.86819","25.0397433333333","6502500","雙溪區"
"227002","400-TW","2018/11/17 19:29:29","新北市雙溪區雙溪里光復街22號","121.865196666667","25.03547","6502500","雙溪區"
"253006","032-BX","2018/11/17 19:29:34","新北市石門區楓林28-2號","121.541991666667","25.2889333333333","6502200","石門區"
"222001","KEA-2212","2018/11/17 19:29:43","新北市深坑區北深路二段130號","121.615913333333","25.00289","6501800","深坑區"
"208002","KEA-2872","2018/11/17 19:29:33","新北市金山區仁愛路87巷1號","121.63467","25.2214783333333","6502700","金山區"
"208003","665-BX","2018/11/17 19:29:42","新北市金山區仁愛路37-5號","121.63616","25.2197933333333","6502700","金山區"
"208001","761-BX","2018/11/17 19:29:42","新北市金山區金包里街128號","121.637866666667","25.2222616666667","6502700","金山區"
"251009","008-UM","2018/11/17 19:29:40","新北市淡水區大忠街5巷8號","121.443356666667","25.1764966666667","6501000","淡水區"
"251005","010-UM","2018/11/17 19:29:44","新北市淡水區水源街一段53巷12號","121.444106666667","25.1729833333333","6501000","淡水區"
"251013","KEA-2871","2018/11/17 19:29:37","新北市淡水區安子內18號","121.4735","25.2185483333333","6501000","淡水區"
"251016","179-VK","2018/11/17 19:13:47","新北市淡水區下圭柔山119-51號","121.45078","25.2084433333333","6501000","淡水區"
"251008","181-VK","2018/11/17 19:29:30","新北市淡水區中正路一段51號","121.424343333333","25.17752","6501000","淡水區"
"251015","182-VK","2018/11/17 19:29:31","新北市淡水區山子頂22號","121.491641666667","25.187745","6501000","淡水區"
"251010","413-VK","2018/11/17 19:29:35","新北市淡水區中正路二段130號","121.420711666667","25.1871116666667","6501000","淡水區"
"251007","442-VK","2018/11/17 19:29:29","新北市淡水區八勢路50巷21弄2-1號","121.462683333333","25.1505333333333","6501000","淡水區"
"251001","559-UM","2018/11/17 19:29:33","新北市淡水區民權路141-1號","121.459991666667","25.1363333333333","6501000","淡水區"
"251011","650-BX","2018/11/17 19:29:42","新北市淡水區中正東路二段143巷2弄1號","121.460666666667","25.1472483333333","6501000","淡水區"
"207003","550-UM","2018/11/17 19:29:23","新北市萬里區大鵬里萬里加投249號","121.64428","25.2155166666667","6502800","萬里區"
"207004","225-TW","2018/11/17 19:29:40","新北市萬里區萬里里瑪鋉路127-8號","121.688908333333","25.17774","6502800","萬里區"
"252002","178-VK","2018/11/17 19:29:35","新北市三芝區淡金路二段17號","121.502695","25.2594766666667","6502100","三芝區"
"252001","292-VK","2018/11/17 19:29:31","新北市三芝區長勤街63-1號","121.500121666667","25.2561133333333","6502100","三芝區"
"237004","KEA-2597","2018/11/17 19:29:45","新北市三峽區有木205-1號","121.439058333333","24.8515016666667","6500900","三峽區"
"237007","153-BY","2018/11/17 19:29:35","新北市三峽區二鬮路136巷20弄83號","121.35821","24.9088916666667","6500900","三峽區"
"237009","210-TH","2018/11/17 19:29:32","新北市三峽區民權街67號","121.369525","24.9331116666667","6500900","三峽區"
"237013","252-BX","2018/11/17 19:29:40","新北市三峽區介壽路一段311巷13號","121.381225","24.9309","6500900","三峽區"
"237012","275-BY","2018/11/17 19:29:25","新北市三峽區民生街2-1號","121.376413333333","24.9368683333333","6500900","三峽區"
"237014","433-BY","2018/11/17 19:29:37","新北市三峽區中園街93號","121.367881666667","24.9249233333333","6500900","三峽區"
"237006","5529-G3","2018/11/17 19:29:33","新北市三峽區中正路一段336巷15弄2號","121.369948333333","24.9249383333333","6500900","三峽區"
"237011","KEA-2596","2018/11/17 19:29:44","新北市三峽區介壽路一段207號","121.378628333333","24.9304716666667","6500900","三峽區"
"237016","649-BX","2018/11/17 19:29:42","新北市三峽區溪東路321號","121.410498333333","24.93033","6500900","三峽區"
"237010","706-TV","2018/11/17 19:29:32","新北市三峽區復興路47號","121.373398333333","24.936975","6500900","三峽區"
"237005","AKY-6261","2018/11/17 19:29:39","新北市三峽區復興路367巷1弄14號","121.364163333333","24.9376383333333","6500900","三峽區"
"236070","105-UM","2018/11/17 19:29:31","新北市土城區裕民路185巷36弄10號","121.454351666667","24.9845","6501300","土城區"
"236042","KED-0685","2018/11/17 19:29:33","新北市土城區學府路一段239號","121.45039","24.9833233333333","6501300","土城區"
"236079","166-UM","2018/11/17 19:29:33","新北市土城區中州路12巷12號","121.415081666667","24.9574083333333","6501300","土城區"
"236030","253-BX","2018/11/17 19:29:35","新北市土城區中央路一段332號","121.443168333333","24.9813716666667","6501300","土城區"
"236026","269-VK","2018/11/17 19:29:26","新北市土城區中央路二段61巷26號","121.443316666667","24.97868","6501300","土城區"
"236038","271-VK","2018/11/17 19:29:26","新北市土城區清水路98巷3弄1號","121.457593333333","24.9813233333333","6501300","土城區"
"236021","401-BY","2018/11/17 19:29:25","新北市土城區峰廷街3號","121.46904","24.9873216666667","6501300","土城區"
"236059","752-BX","2018/11/17 19:29:26","新北市土城區中央路二段86號","121.442323333333","24.9787983333333","6501300","土城區"
"236049","913-UM","2018/11/17 19:29:25","新北市土城區清水路256號","121.461505","24.9831716666667","6501300","土城區"
"236063","915-UM","2018/11/17 19:29:45","新北市土城區延平街11號","121.468231666667","24.9908933333333","6501300","土城區"
"236055","AAC-216","2018/11/17 19:29:28","新北市土城區學府路一段276號","121.450195","24.9832633333333","6501300","土城區"
"242013","173-VK","2018/11/17 19:29:23","新北市新莊區新泰路357巷3弄57號","121.442325","25.0395066666667","6500500","新莊區"
"242031","348-TH","2018/11/17 19:29:33","新北市新莊區新泰路225巷22弄1號","121.445173333333","25.0392983333333","6500500","新莊區"
"242004","349-TH","2018/11/17 19:29:26","新北市新莊區思源路155號","121.45982","25.0443966666667","6500500","新莊區"
"238015","755-BX","2018/11/17 19:29:31","新北市樹林區復興路231-1號","121.419688333333","24.9905883333333","6500700","樹林區"
"238023","601-UM","2018/11/17 19:29:46","新北市樹林區三福街25號","121.40864","25.0166916666667","6500700","樹林區"
"238019","599-UM","2018/11/17 19:29:37","新北市樹林區東榮街90號","121.415965","24.9826233333333","6500700","樹林區"
"238018","571-TV","2018/11/17 19:29:34","新北市樹林區中華路213號","121.419628333333","24.9813566666667","6500700","樹林區"
"238024","5061-A6","2018/11/17 19:29:39","新北市樹林區中山路三段155巷14弄1號","121.396128333333","24.9725466666667","6500700","樹林區"
"238021","KEA-2539","2018/11/17 19:29:37","新北市樹林區佳園路三段225號","121.385115","24.946085","6500700","樹林區"
"238025","303-VK","2018/11/17 19:29:27","新北市樹林區中山路一段73-1號","121.423583333333","24.9917483333333","6500700","樹林區"
"238014","282-BY","2018/11/17 19:29:43","新北市樹林區千歲街19巷5號","121.424643333333","24.995775","6500700","樹林區"
"238026","172-UY","2018/11/17 19:29:35","新北市樹林區佳園路三段6號","121.388246666667","24.95521","6500700","樹林區"
"238016","169-UY","2018/11/17 19:29:40","新北市樹林區復興路464巷18號","121.413038333333","24.983875","6500700","樹林區"
"239007","AAC-297","2018/11/17 19:29:43","新北市鶯歌區大湖路326巷5號","121.345565","24.9702516666667","6500800","鶯歌區"
"239006","891-R6","2018/11/17 19:29:39","新北市鶯歌區建國路401號","121.338065","24.95054","6500800","鶯歌區"
"239001","417-VK","2018/11/17 19:29:45","新北市鶯歌區尖山埔路114號","121.344171666667","24.9502216666667","6500800","鶯歌區"
"239002","359-BY","2018/11/17 19:29:36","新北市鶯歌區大湖路185巷22號","121.342696666667","24.9704716666667","6500800","鶯歌區"
"221036","130-UY","2018/11/17 19:29:35","新北市汐止區康寧街901號","121.65166","25.075025","6501100","汐止區"
"221015","131-UY","2018/11/17 19:29:40","新北市汐止區康寧街901號","121.651558333333","25.074935","6501100","汐止區"
"221010","269-BY","2018/11/17 19:29:27","新北市汐止區連峰街7號","121.646305","25.077305","6501100","汐止區"
"221012","278-VK","2018/11/17 19:29:37","新北市汐止區大同路三段457號","121.678818333333","25.0711966666667","6501100","汐止區"
"221027","281-BY","2018/11/17 19:29:37","新北市汐止區忠孝東路9號","121.658313333333","25.0659166666667","6501100","汐止區"
"221029","298-VK","2018/11/17 19:29:41","新北市汐止區汐萬路一段256巷1號","121.651741666667","25.07487","6501100","汐止區"
"221021","299-VK","2018/11/17 19:29:39","新北市汐止區康寧街901號","121.65139","25.0750016666667","6501100","汐止區"
"221031","353-TW","2018/11/17 19:29:43","新北市汐止區康寧街901號","121.650885","25.0752833333333","6501100","汐止區"
"221035","622-UM","2018/11/17 19:29:29","新北市汐止區康寧街901號","121.651138333333","25.075225","6501100","汐止區"
"221025","623-UM","2018/11/17 19:29:35","新北市汐止區秀峰路57號","121.660041666667","25.0649033333333","6501100","汐止區"
"221038","646-BX","2018/11/17 19:29:29","新北市汐止區大同路二段326號","121.656308333333","25.066965","6501100","汐止區"
"221002","707-TV","2018/11/17 19:29:30","新北市汐止區大同路一段219巷14號","121.633396666667","25.0582816666667","6501100","汐止區"
"220079","145-BY","2018/11/17 19:29:49","新北市板橋區建國街17號","121.457806666667","25.0169433333333","6500100","板橋區"
"220080","200-UY","2018/11/17 19:29:36","新北市板橋區大觀路二段3巷74號","121.449675","25.00332","6500100","板橋區"
"220091","267-BY","2018/11/17 19:29:44","新北市板橋區文聖街135巷25號","121.478998333333","25.028945","6500100","板橋區"
"220056","276-BY","2018/11/17 19:29:36","新北市板橋區信義路1巷26弄36號","121.458656666667","24.996625","6500100","板橋區"
"220072","277-BY","2018/11/17 19:29:36","新北市板橋區金門街215巷2弄52號","121.433055","24.9885416666667","6500100","板橋區"
"220101","280-UM","2018/11/17 19:29:41","新北市板橋區縣民大道三段33巷1弄5號","121.473625","25.0205633333333","6500100","板橋區"
"220064","282-UM","2018/11/17 19:29:42","新北市板橋區中山路一段72號","121.46163","25.0100216666667","6500100","板橋區"
"220071","283-VK","2018/11/17 19:29:27","新北市板橋區忠孝路3號","121.45984","25.0018683333333","6500100","板橋區"
"220094","285-UM","2018/11/17 19:29:40","新北市板橋區吳鳳路50巷39號","121.468745","25.030285","6500100","板橋區"
"220053","285-VK","2018/11/17 19:29:41","新北市板橋區永豐街245號","121.477593333333","25.0212733333333","6500100","板橋區"
"220081","287-VK","2018/11/17 19:29:47","新北市板橋區南雅南路一段106號","121.454966666667","25.00438","6500100","板橋區"
"220090","288-VK","2018/11/17 19:29:41","新北市板橋區裕民街51號","121.461191666667","25.0284783333333","6500100","板橋區"
"220061","295-UM","2018/11/17 19:29:32","新北市板橋區成功路6巷17號","121.476006666667","25.0172133333333","6500100","板橋區"
"220084","296-UM","2018/11/17 19:29:32","新北市板橋區滿平街84巷120弄25號","121.426265","24.9856033333333","6500100","板橋區"
"220075","303-R5","2018/11/17 19:29:42","新北市板橋區中正路253巷72號","121.45271","25.017195","6500100","板橋區"
"220062","305-R5","2018/11/17 19:29:37","新北市板橋區三民路二段81巷41號","121.480608333333","25.0169816666667","6500100","板橋區"
"220092","307-R5","2018/11/17 19:29:33","新北市板橋區光武街2巷16號","121.468463333333","25.0251633333333","6500100","板橋區"
"220098","317-R6","2018/11/17 19:29:33","新北市板橋區民生路三段263巷2弄2號","121.463966666667","25.0294116666667","6500100","板橋區"
"220089","487-VK","2018/11/17 19:29:35","新北市板橋區文化路一段31號","121.460181666667","25.0129183333333","6500100","板橋區"
"220035","560-BX","2018/11/17 19:29:30","新北市板橋區中正路330號","121.454386666667","25.0217283333333","6500100","板橋區"
"220103","561-BX","2018/11/17 19:29:26","新北市板橋區文化路一段210號","121.466418333333","25.0202833333333","6500100","板橋區"
"220083","568-UM","2018/11/17 19:29:30","新北市板橋區大觀路二段174巷166弄2號","121.441815","25.0033066666667","6500100","板橋區"
"220063","609-BX","2018/11/17 19:29:36","新北市板橋區中山路二段505巷24號","121.482086666667","25.0222916666667","6500100","板橋區"
"220005","686-BX","2018/11/17 19:29:41","新北市板橋區和平路29號","121.459831666667","24.9957733333333","6500100","板橋區"
"220077","687-BX","2018/11/17 19:29:43","新北市板橋區僑中二街116巷2號","121.445655","25.00649","6500100","板橋區"
"220093","689-BX","2018/11/17 19:29:35","新北市板橋區雨農路52號","121.461005","25.0241833333333","6500100","板橋區"
"220054","741-BX","2018/11/17 19:29:41","新北市中和區德光路96巷15號","121.468231666667","25.00389","6500100","板橋區"
"220070","806-UM","2018/11/17 19:29:42","新北市板橋區民族路113號","121.466931666667","25.0080333333333","6500100","板橋區"
"220055","827-TW","2018/11/17 19:29:32","新北市板橋區重慶路278巷20-3號","121.462741666667","24.999665","6500100","板橋區"
"220067","829-TW","2018/11/17 19:29:41","新北市板橋區漢生東路330-1號","121.471831666667","25.0077616666667","6500100","板橋區"
"220102","830-TW","2018/11/17 19:29:40","新北市板橋區雙十路二段130巷2弄23號","121.474736666667","25.028765","6500100","板橋區"
"220096","831-TW","2018/11/17 19:29:09","新北市板橋區萬板路165號","121.474123333333","25.02368","6500100","板橋區"
"220088","833-TW","2018/11/17 19:29:39","新北市板橋區三民路一段3巷2號","121.478978333333","25.023545","6500100","板橋區"
"220074","895-R6","2018/11/17 19:29:25","新北市板橋區倉後街1-2號","121.455595","25.0088766666667","6500100","板橋區"
"220073","985-R7","2018/11/17 19:29:42","新北市板橋區中正路242號","121.45563","25.0189683333333","6500100","板橋區"
"220097","AAC-210","2018/11/17 19:29:42","新北市板橋區漢生西路137號","121.462723333333","25.02165","6500100","板橋區"
"220082","AAC-253","2018/11/17 19:29:41","新北市板橋區金門街48號","121.433205","24.9931366666667","6500100","板橋區"
"235068","KEA-2873","2018/11/17 19:29:21","新北市中和區圓通路158巷24號","121.498343333333","24.996955","6500300","中和區"
"235061","KEA-2875","2018/11/17 19:29:25","新北市中和區員山路141號","121.480885","24.9961183333333","6500300","中和區"
"235040","KEA-2876","2018/11/17 19:29:39","新北市中和區保健路50巷1號","121.510521666667","24.996815","6500300","中和區"
