"lineid","car","time","location","longitude","latitude","cityid","cityname"
"234046","148-BY","2018/11/17 20:09:39","新北市永和區得和路326號","121.523265","24.9995483333333","6500400","永和區"
"234007","207-UY","2018/11/17 20:09:37","新北市永和區保順路37巷3號","121.503168333333","25.0104","6500400","永和區"
"234081","298-R6","2018/11/17 20:09:34","新北市永和區國中路36號","121.52465","25.0056233333333","6500400","永和區"
"234038","336-UY","2018/11/17 20:09:37","新北市永和區成功路一段47巷32號","121.527935","25.0038866666667","6500400","永和區"
"234064","337-UY","2018/11/17 20:09:29","新北市永和區秀朗路二段43號","121.52153","25.0024016666667","6500400","永和區"
"234086","338-UY","2018/11/17 20:09:28","新北市永和區中正路541號","121.516898333333","25.007975","6500400","永和區"
"234070","552-UM","2018/11/17 20:09:28","新北市永和區福和路183巷1號","121.52006","25.0072866666667","6500400","永和區"
"234017","745-BX","2018/11/17 20:09:28","新北市永和區文化路48號","121.514711666667","25.0151","6500400","永和區"
"234030","746-BX","2018/11/17 20:09:38","新北市永和區民權路84號","121.519841666667","24.99704","6500400","永和區"
"234054","KEA-2590","2018/11/17 20:09:42","新北市永和區博愛街15號","121.517108333333","25.0158533333333","6500400","永和區"
"234013","KEA-2591","2018/11/17 20:09:34","新北市永和區永貞路399號","121.507778333333","25.008985","6500400","永和區"
"234061","AAD-866","2018/11/17 20:09:40","新北市永和區中正路151巷8弄2號","121.516021666667","24.9985866666667","6500400","永和區"
"234042","862-TW","2018/11/17 20:09:39","新北市永和區雙和街64巷7號","121.509341666667","25.003375","6500400","永和區"
"234050","863-TW","2018/11/17 20:09:33","新北市永和區環河西路二段149號","121.50576","25.01401","6500400","永和區"
"234011","9373-KE","2018/11/17 20:09:29","新北市永和區仁愛路352巷122弄11號","121.50064","25.0087766666667","6500400","永和區"
"249005","172-UM","2018/11/17 20:09:37","新北市八里區下罟子58-10號","121.387705","25.1373733333333","6502300","八里區"
"249001","173-UM","2018/11/17 20:09:30","新北市八里區中華路二段305-7號","121.403406666667","25.1479266666667","6502300","八里區"
"249004","303-UY","2018/11/17 20:09:41","新北市八里區中山路一段366號","121.41239","25.15882","6502300","八里區"
"249002","305-UY","2018/11/17 20:09:42","新北市五股區成泰路四段22巷46-3號","121.457945","25.1126383333333","6502300","八里區"
"249003","593-UM","2018/11/17 20:09:38","新北市八里區中山路二段540巷9弄26號","121.396445","25.1465866666667","6502300","八里區"
"248016","026-BX","2018/11/17 20:09:38","新北市五股區成泰路三段577巷150號","121.447808333333","25.10434","6501500","五股區"
"248020","225-UY","2018/11/17 20:09:41","新北市五股區凌雲路二段14號","121.445608333333","25.1024633333333","6501500","五股區"
"248014","261-SL","2018/11/17 20:09:36","新北市五股區天乙路101-6號","121.44504","25.1070466666667","6501500","五股區"
"248004","677-BX","2018/11/17 20:09:29","新北市五股區成泰路一段149-7號","121.435333333333","25.0737683333333","6501500","五股區"
"248002","678-BX","2018/11/17 20:09:45","新北市五股區成泰路三段314號","121.449126666667","25.0959216666667","6501500","五股區"
"248010","682-TV","2018/11/17 20:09:39","新北市五股區成泰路一段7巷22號","121.433033333333","25.0668733333333","6501500","五股區"
"234023","9380-KE","2018/11/17 20:09:34","新北市永和區中正路605號","121.516368333333","25.0096783333333","6500400","永和區"
"234077","969-R7","2018/11/17 20:09:37","新北市永和區民有街24巷1弄19號","121.516655","24.9957216666667","6500400","永和區"
"234074","AAC-211","2018/11/17 20:09:30","新北市永和區豫溪街185號","121.522501666667","25.01033","6500400","永和區"
"234067","AAC-212","2018/11/17 20:09:37","新北市永和區保平路214巷10弄2號","121.509311666667","25.00641","6500400","永和區"
"234003","AAC-295","2018/11/17 20:09:28","新北市永和區中正路626號","121.517081666667","25.0079066666667","6500400","永和區"
"243013","AAD-798","2018/11/17 20:09:45","新北市泰山區貴子路2號","121.425023333333","25.0419483333333","6501600","泰山區"
"243009","297-R6","2018/11/17 20:09:37","新北市泰山區泰林路二段116巷6弄2號","121.435281666667","25.0595766666667","6501600","泰山區"
"243016","KEA-2801","2018/11/17 20:09:32","新北市泰山區明志路三段405號","121.42127","25.0340433333333","6501600","泰山區"
"243015","421-VK","2018/11/17 20:09:30","新北市泰山區明志路一段210號","121.432675","25.0615366666667","6501600","泰山區"
"243011","KEA-2215","2018/11/17 20:09:29","新北市新莊區丹鳳街36號","121.421626666667","25.029575","6501600","泰山區"
"243010","KEA-2216","2018/11/17 20:09:29","新北市泰山區明志路二段136巷1號","121.426848333333","25.0513133333333","6501600","泰山區"
"243012","646-TV","2018/11/17 20:09:39","新北市泰山區楓江路86巷9號","121.437503333333","25.0626816666667","6501600","泰山區"
"243014","680-BX","2018/11/17 20:09:25","新北市泰山區明志路一段67號","121.433608333333","25.064645","6501600","泰山區"
"222003","436-BY","2018/11/17 20:09:45","新北市深坑區埔新街62號","121.620146666667","25.00243","6501800","深坑區"
"222002","659-BX","2018/11/17 20:09:24","新北市深坑區北深路三段192巷8號","121.602051666667","25.0040666666667","6501800","深坑區"
"231041","002-UM","2018/11/17 20:09:34","新北市新店區中正路468號","121.534008333333","24.9794116666667","6500600","新店區"
"231059","046-UY","2018/11/17 20:09:32","新北市新店區安成街25號","121.51017","24.9608766666667","6500600","新店區"
"231040","047-UY","2018/11/17 20:09:28","新北市新店區北新路二段2號","121.542905","24.9708583333333","6500600","新店區"
"231044","106-UY","2018/11/17 20:09:30","新北市新店區寶慶街66號","121.542031666667","24.9868716666667","6500600","新店區"
"231052","108-UY","2018/11/17 20:09:42","新北市新店區新烏路三段寶島巷4號","121.550573333333","24.8987383333333","6500600","新店區"
"231062","110-UY","2018/11/17 20:09:43","新北市新店區安康路二段68號","121.514695","24.963605","6500600","新店區"
"231048","187-VK","2018/11/17 20:09:32","新北市新店區寶橋路59-1號","121.545113333333","24.97508","6500600","新店區"
"231054","KEA-2219","2018/11/17 20:09:25","新北市新店區檳榔路7號","121.54101","24.9648666666667","6500600","新店區"
"231042","268-BY","2018/11/17 20:09:45","新北市新店區中興路二段89號","121.547101666667","24.9714","6500600","新店區"
"231051","278-BY","2018/11/17 20:09:30","新北市新店區中央六街6號","121.530248333333","24.9744266666667","6500600","新店區"
"231050","AAD-862","2018/11/17 20:09:46","新北市新店區北新路一段72號","121.541575","24.9673383333333","6500600","新店區"
"231056","4715-K9","2018/11/17 20:09:45","新北市新店區中正路318號","121.537145","24.9747233333333","6500600","新店區"
"231067","4772-VM","2018/11/17 20:09:41","新北市新店區溪洲路6巷1-3號","121.533898333333","24.9611383333333","6500600","新店區"
"231065","512-UM","2018/11/17 20:09:36","新北市新店區安祥路106巷116號","121.4739","24.9588283333333","6500600","新店區"
"231049","513-UM","2018/11/17 20:09:32","新北市新店區北新路二段139巷9-1號","121.542181666667","24.97557","6500600","新店區"
"231063","616-UM","2018/11/17 20:09:40","新北市新店區黎明路55巷1號","121.502371666667","24.9482933333333","6500600","新店區"
"231061","619-UM","2018/11/17 20:09:37","新北市新店區安興路35號","121.51622","24.970765","6500600","新店區"
"231068","718-UY","2018/11/17 20:08:23","新北市新店區寶興路63巷31號","121.552778333333","24.97205","6500600","新店區"
"231060","897-TW","2018/11/17 20:09:30","新北市新店區安康路三段381號","121.483586666667","24.950355","6500600","新店區"
"231045","898-TW","2018/11/17 20:09:44","新北市新店區北宜路一段143號","121.541116666667","24.9529433333333","6500600","新店區"
"231043","899-TW","2018/11/17 20:09:35","新北市新店區民族路161號","121.537818333333","24.9768916666667","6500600","新店區"
"231055","AKT-0513","2018/11/17 20:09:32","新北市新店區北新路一段297巷12號","121.541021666667","24.9677183333333","6500600","新店區"
"241011","013-R5","2018/11/17 20:09:37","新北市三重區仁愛街44號","121.496318333333","25.0721916666667","6500200","三重區"
"241028","022-UY","2018/11/17 20:09:29","新北市三重區仁化街111號","121.494563333333","25.0578883333333","6500200","三重區"
"241008","059-VK","2018/11/17 20:09:28","新北市三重區永福街197巷17號","121.478856666667","25.0742966666667","6500200","三重區"
"241022","060-VK","2018/11/17 20:09:35","新北市三重區重陽路二段7號","121.4869","25.062005","6500200","三重區"
"241031","061-VK","2018/11/17 20:09:42","新北市三重區過圳街9-1號","121.488781666667","25.06008","6500200","三重區"
"241015","062-VK","2018/11/17 20:09:34","新北市三重區福德北路39號","121.502401666667","25.0648116666667","6500200","三重區"
"241017","063-VK","2018/11/17 20:09:24","新北市三重區自強路一段272號","121.492198333333","25.06777","6500200","三重區"
"241024","065-VK","2018/11/17 20:09:44","新北市三重區中正北路314號","121.4793","25.0690533333333","6500200","三重區"
"241026","066-VK","2018/11/17 20:09:35","新北市三重區福德南路65巷1號","121.502421666667","25.0605633333333","6500200","三重區"
"241002","090-VK","2018/11/17 20:09:24","新北市三重區仁忠街13號","121.49715","25.08277","6500200","三重區"
"241003","091-VK","2018/11/17 20:09:40","新北市三重區富華街18號","121.489591666667","25.0824233333333","6500200","三重區"
"251014","742-BX","2018/11/17 20:09:24","新北市淡水區石頭厝1號","121.458726666667","25.235515","6501000","淡水區"
"241005","262-UM","2018/11/17 20:09:33","新北市三重區五華街180巷36號","121.487911666667","25.08526","6500200","三重區"
"241016","266-UM","2018/11/17 20:09:30","新北市三重區大同北路55號","121.495135","25.06324","6500200","三重區"
"241009","267-UM","2018/11/17 20:09:35","新北市三重區永福街125巷30號","121.477803333333","25.07743","6500200","三重區"
"241018","268-UM","2018/11/17 20:09:41","新北市三重區正義北路256巷98號","121.493948333333","25.067965","6500200","三重區"
"241032","269-UM","2018/11/17 20:09:38","新北市三重區捷運路67號","121.483376666667","25.0555566666667","6500200","三重區"
"241013","270-UM","2018/11/17 20:09:35","新北市三重區三和路三段151巷25號","121.493136666667","25.0741233333333","6500200","三重區"
"241025","271-UM","2018/11/17 20:09:34","新北市三重區中正北路169號","121.478603333333","25.0692633333333","6500200","三重區"
"241007","398-BY","2018/11/17 20:09:37","新北市三重區三和路四段111-33號","121.486258333333","25.0774333333333","6500200","三重區"
"241035","KEA-2210","2018/11/17 20:09:28","新北市三重區平安街51號","121.497885","25.0641466666667","6500200","三重區"
"241020","478-VK","2018/11/17 20:09:34","新北市三重區後竹圍街2巷1弄6號","121.491511666667","25.0733","6500200","三重區"
"241014","543-UM","2018/11/17 20:09:39","新北市三重區長樂街116號","121.501733333333","25.069585","6500200","三重區"
"241023","545-UM","2018/11/17 20:09:44","新北市三重區頂崁街229號","121.47705","25.0683516666667","6500200","三重區"
"241001","547-UM","2018/11/17 20:09:40","新北市三重區溪尾街24-1號","121.49097","25.0763633333333","6500200","三重區"
"241019","KEA-2593","2018/11/17 20:09:40","新北市三重區自強路二段20-1號","121.489686666667","25.0692083333333","6500200","三重區"
"241006","AAD-863","2018/11/17 20:09:44","新北市三重區車路頭街135號","121.484046666667","25.0759433333333","6500200","三重區"
"241030","743-BX","2018/11/17 20:09:34","新北市三重區集美街75巷12號","121.488163333333","25.0530533333333","6500200","三重區"
"241012","941-UM","2018/11/17 20:09:40","新北市三重區仁福街64巷37號","121.497573333333","25.0758166666667","6500200","三重區"
"241029","942-UM","2018/11/17 20:09:25","新北市三重區光明路32巷28號","121.491991666667","25.05876","6500200","三重區"
"241033","AAC-255","2018/11/17 20:09:39","新北市三重區光復路一段61巷21號","121.473208333333","25.049255","6500200","三重區"
"235066","003-UY","2018/11/17 20:09:38","新北市中和區水源路119號","121.508106666667","25.00371","6500300","中和區"
"235039","097-UM","2018/11/17 20:09:36","新北市中和區立人街24-5號","121.518913333333","24.9941466666667","6500300","中和區"
"235065","098-UM","2018/11/17 20:09:31","新北市中和區福美路256巷10號","121.49817","25.0058516666667","6500300","中和區"
"235042","KEA-2878","2018/11/17 20:09:29","新北市新店區薏仁坑路自強巷1號","121.497861666667","24.95776","6500300","中和區"
"247012","KEA-2869","2018/11/17 20:09:47","新北市蘆洲區民族路248號","121.479195","25.08875","6501400","蘆洲區"
"235050","4979-A6","2018/11/17 20:09:31","新北市中和區景新街323-3號","121.511386666667","24.992045","6500300","中和區"
"235070","558-UM","2018/11/17 20:09:28","新北市中和區建一路148號","121.488105","24.9986533333333","6500300","中和區"
"235054","640-BX","2018/11/17 20:09:32","新北市五股區五工二路136號","121.45503","25.0724283333333","6500300","中和區"
"235051","157-BY","2018/11/17 20:09:47","新北市中和區捷運路12-2號","121.509108333333","24.98993","6500300","中和區"
"235037","AAC-213","2018/11/17 20:09:41","新北市中和區自立路147號","121.522473333333","24.993125","6500300","中和區"
"235059","AAC-215","2018/11/17 20:09:43","新北市中和區圓通路367巷13弄27號","121.492991666667","24.9885383333333","6500300","中和區"
"220068","013-TV","2018/11/17 20:09:40","新北市板橋區中山路二段318巷4號","121.48013","25.0191633333333","6500100","板橋區"
"247002","893-R6","2018/11/17 20:09:27","新北市蘆洲區長榮路269巷32號","121.459415","25.0858466666667","6501400","蘆洲區"
"247016","546-UM","2018/11/17 20:09:42","新北市蘆洲區光華路155號","121.465443333333","25.08209","6501400","蘆洲區"
"247024","500-BY","2018/11/17 20:09:37","新北市蘆洲區光榮路120巷9號","121.465391666667","25.088645","6501400","蘆洲區"
"247014","339-TH","2018/11/17 20:09:27","新北市蘆洲區中山二路265巷35號","121.471178333333","25.07955","6501400","蘆洲區"
"247006","337-TH","2018/11/17 20:09:48","新北市蘆洲區中山二路274號","121.469093333333","25.0782666666667","6501400","蘆洲區"
"247020","057-VK","2018/11/17 20:09:27","新北市蘆洲區民權路106巷5弄7號","121.474251666667","25.0891416666667","6501400","蘆洲區"
"247010","056-VK","2018/11/17 20:09:26","新北市蘆洲區集賢路406號","121.480113333333","25.0818083333333","6501400","蘆洲區"
"247008","053-VK","2018/11/17 20:09:38","新北市蘆洲區中山一路135巷6弄25號","121.474955","25.0809583333333","6501400","蘆洲區"
"247004","002-UY","2018/11/17 20:09:29","新北市蘆洲區永安南路二段328巷17弄16號","121.455911666667","25.0839116666667","6501400","蘆洲區"
"247022","001-UY","2018/11/17 20:09:27","新北市蘆洲區三民路171巷4號","121.470746666667","25.0870266666667","6501400","蘆洲區"
"226004","312-R5","2018/11/17 20:09:25","新北市平溪區十分里十分街311號","121.77517","25.043525","6502400","平溪區"
"224010","AGQ-8101","2018/11/17 20:09:40","新北市瑞芳區基山街2號","121.84498","25.10972","6501200","瑞芳區"
"222001","KEA-2212","2018/11/17 20:09:43","新北市深坑區北深路三段210號","121.601211666667","25.0037783333333","6501800","深坑區"
"251009","008-UM","2018/11/17 20:09:40","新北市淡水區清水街1號","121.445218333333","25.170345","6501000","淡水區"
"251005","010-UM","2018/11/17 20:09:24","新北市淡水區忠愛街2-3號","121.455993333333","25.1716933333333","6501000","淡水區"
"251013","KEA-2871","2018/11/17 20:09:37","新北市淡水區奎柔山路295號","121.459835","25.205245","6501000","淡水區"
"251016","179-VK","2018/11/17 20:09:40","新北市淡水區番子田18-4號","121.456505","25.2296216666667","6501000","淡水區"
"251008","181-VK","2018/11/17 20:09:30","新北市淡水區沙崙路152巷17弄1號","121.42419","25.182165","6501000","淡水區"
"251015","182-VK","2018/11/17 20:09:31","新北市淡水區埤島3-20號","121.44701","25.19159","6501000","淡水區"
"251010","413-VK","2018/11/17 20:09:35","新北市淡水區崁頂五路303號","121.423921666667","25.197115","6501000","淡水區"
"251007","442-VK","2018/11/17 20:09:29","新北市淡水區坪頂路27號","121.456343333333","25.1623566666667","6501000","淡水區"
"251001","559-UM","2018/11/17 20:09:33","新北市淡水區淡金路二段599號","121.445953333333","25.19244","6501000","淡水區"
"251003","673-BX","2018/11/17 20:09:28","新北市淡水區中山北路二段189巷15弄31號","121.44352","25.1839","6501000","淡水區"
"207003","550-UM","2018/11/17 20:09:44","新北市萬里區大鵬里萬里加投166號","121.643485","25.2155616666667","6502800","萬里區"
"207004","225-TW","2018/11/17 20:09:40","新北市萬里區北基里孝七街28號","121.682703333333","25.1767366666667","6502800","萬里區"
"252002","178-VK","2018/11/17 20:09:34","新北市三芝區中正路一段72號","121.50403","25.2577533333333","6502100","三芝區"
"252001","292-VK","2018/11/17 20:09:31","新北市三芝區公正街66號","121.49979","25.2574916666667","6502100","三芝區"
"237006","5529-G3","2018/11/17 20:09:33","新北市三峽區嘉添227-15號","121.370518333333","24.9113333333333","6500900","三峽區"
"237005","AKY-6261","2018/11/17 20:09:39","新北市三峽區三樹路98巷74弄91號","121.385081666667","24.938445","6500900","三峽區"
"236070","105-UM","2018/11/17 20:09:31","新北市土城區大安路20號","121.432865","24.9662266666667","6501300","土城區"
"236042","KED-0685","2018/11/17 20:09:33","新北市土城區學成路4號","121.453485","24.9864166666667","6501300","土城區"
"236079","166-UM","2018/11/17 20:09:33","新北市土城區中山路47號","121.420521666667","24.962835","6501300","土城區"
"236030","253-BX","2018/11/17 20:09:42","新北市土城區中央路一段145號","121.446736666667","24.98795","6501300","土城區"
"236026","269-VK","2018/11/17 20:09:46","新北市土城區中央路一段269-6號","121.444718333333","24.9849816666667","6501300","土城區"
"236014","270-VK","2018/11/17 20:09:45","新北市土城區德興街135號","121.455116666667","24.991755","6501300","土城區"
"236038","271-VK","2018/11/17 20:09:26","新北市土城區明德路一段48巷13號","121.464691666667","24.983625","6501300","土城區"
"236021","401-BY","2018/11/17 20:09:33","新北市土城區和城路二段253號","121.4731","24.9874383333333","6501300","土城區"
"236059","752-BX","2018/11/17 20:09:26","新北市土城區中央路二段191號","121.442135","24.9755216666667","6501300","土城區"
"236049","913-UM","2018/11/17 20:09:46","新北市土城區明德路一段365-1號","121.453586666667","24.9794283333333","6501300","土城區"
"236055","AAC-216","2018/11/17 20:09:28","新北市土城區中華路一段211號","121.442465","24.9846333333333","6501300","土城區"
"242036","AAC-296","2018/11/17 20:09:25","新北市新莊區建安街9巷16號","121.429586666667","25.0267183333333","6500500","新莊區"
"242058","986-R7","2018/11/17 20:09:34","新北市新莊區八德街145號","121.423651666667","25.0197516666667","6500500","新莊區"
"242027","615-BX","2018/11/17 20:09:28","新北市新莊區幸福路796號","121.446453333333","25.0490666666667","6500500","新莊區"
"242025","613-BX","2018/11/17 20:09:37","新北市新莊區五工路68巷9號","121.458616666667","25.0638516666667","6500500","新莊區"
"242029","612-BX","2018/11/17 20:09:42","新北市新莊區中原路301號","121.447433333333","25.0542866666667","6500500","新莊區"
"242044","566-BX","2018/11/17 20:09:41","桃園市龜山區萬壽路一段21巷10號","121.410585","25.020325","6500500","新莊區"
"242048","497-BY","2018/11/17 20:09:34","新北市新莊區四維路152巷29號","121.422131666667","25.0224216666667","6500500","新莊區"
"242053","441-UM","2018/11/17 20:09:45","新北市新莊區民安西路288號","121.4262","25.012515","6500500","新莊區"
"242039","415-TV","2018/11/17 20:09:39","新北市新莊區民安西路109號","121.426831666667","25.018375","6500500","新莊區"
"242009","413-TV","2018/11/17 20:09:41","新北市新莊區昌隆街44號","121.454503333333","25.050885","6500500","新莊區"
"242023","362-BY","2018/11/17 20:09:36","新北市新莊區化成路710號","121.465775","25.0567316666667","6500500","新莊區"
"242061","353-BY","2018/11/17 20:09:35","新北市新莊區瓊林路100巷1號","121.44348","25.0264583333333","6500500","新莊區"
"242011","132-UY","2018/11/17 20:09:45","新北市新莊區中信街54號","121.449191666667","25.0509","6500500","新莊區"
"242042","133-UY","2018/11/17 20:09:43","新北市新莊區壽山路45號","121.41471","25.0312083333333","6500500","新莊區"
"242046","135-UY","2018/11/17 20:09:39","新北市新莊區裕民街107號","121.418251666667","25.0229666666667","6500500","新莊區"
"242013","173-VK","2018/11/17 20:09:43","新北市新莊區幸福路710巷1弄8號","121.449343333333","25.0496333333333","6500500","新莊區"
"242019","175-VK","2018/11/17 20:09:29","新北市新莊區博愛路6巷2號","121.456378333333","25.0432516666667","6500500","新莊區"
"242007","176-VK","2018/11/17 20:09:44","新北市新莊區福壽街124巷41弄14號","121.459286666667","25.051755","6500500","新莊區"
"242017","346-TH","2018/11/17 20:09:30","新北市新莊區中港路340號","121.452013333333","25.04607","6500500","新莊區"
"242031","348-TH","2018/11/17 20:09:31","新北市新莊區中正路449-1號","121.443005","25.0340233333333","6500500","新莊區"
"242004","349-TH","2018/11/17 20:09:37","新北市新莊區頭前路2巷6號","121.468496666667","25.0528816666667","6500500","新莊區"
"242021","350-TH","2018/11/17 20:09:36","新北市新莊區建中街17號","121.449233333333","25.0373466666667","6500500","新莊區"
"242015","351-TH","2018/11/17 20:09:35","新北市新莊區中平路26巷44號","121.446725","25.043285","6500500","新莊區"
"238021","KEA-2539","2018/11/17 20:09:29","新北市樹林區八德街1018號","121.391213333333","24.968545","6500700","樹林區"
"221036","130-UY","2018/11/17 20:09:35","新北市汐止區福安街45號","121.663118333333","25.06458","6501100","汐止區"
"221015","131-UY","2018/11/17 20:09:40","新北市汐止區建成路52號","121.663606666667","25.0728733333333","6501100","汐止區"
"221010","269-BY","2018/11/17 20:09:27","新北市汐止區八連路一段267號","121.640508333333","25.0842333333333","6501100","汐止區"
"221012","278-VK","2018/11/17 20:09:37","新北市汐止區汐平路一段131號","121.686503333333","25.0695816666667","6501100","汐止區"
"221032","280-BY","2018/11/17 20:09:42","新北市汐止區弘道街8巷3弄2號","121.617118333333","25.0480016666667","6501100","汐止區"
"221027","281-BY","2018/11/17 20:09:37","新北市汐止區光明街28號","121.660238333333","25.0687433333333","6501100","汐止區"
"221029","298-VK","2018/11/17 20:09:41","新北市汐止區樟樹一路123巷19號","121.641351666667","25.0645283333333","6501100","汐止區"
"221021","299-VK","2018/11/17 20:09:39","新北市汐止區水源路一段239號","121.65419","25.0601883333333","6501100","汐止區"
"221031","353-TW","2018/11/17 20:09:42","新北市汐止區福德二路91巷2號","121.63273","25.06605","6501100","汐止區"
"221035","622-UM","2018/11/17 20:09:29","新北市汐止區長江街85號","121.657471666667","25.0725116666667","6501100","汐止區"
"221025","623-UM","2018/11/17 20:09:43","新北市汐止區仁愛路1-6號","121.659043333333","25.0646233333333","6501100","汐止區"
"221038","646-BX","2018/11/17 20:09:29","新北市汐止區大同路三段41號","121.666811666667","25.0764483333333","6501100","汐止區"
"221002","707-TV","2018/11/17 20:09:30","新北市汐止區康寧街753巷2弄20號","121.640215","25.0740033333333","6501100","汐止區"
"221018","753-BX","2018/11/17 20:09:36","新北市汐止區茄福街35巷23號","121.673208333333","25.0665333333333","6501100","汐止區"
"220080","200-UY","2018/11/17 20:09:45","新北市板橋區大觀路二段179巷22號","121.445768333333","24.9996833333333","6500100","板橋區"
"220101","280-UM","2018/11/17 20:09:41","新北市板橋區莊敬路47號","121.473151666667","25.026895","6500100","板橋區"
"220064","282-UM","2018/11/17 20:09:44","新北市板橋區民族路166號","121.464761666667","25.00828","6500100","板橋區"
"220081","287-VK","2018/11/17 20:09:27","新北市板橋區僑中一街124巷20弄23號","121.447171666667","25.0139266666667","6500100","板橋區"
"220061","295-UM","2018/11/17 20:09:37","新北市板橋區觀光街2-5號","121.472178333333","25.0155666666667","6500100","板橋區"
"242002","281-VK","2018/11/17 20:09:34","新北市新莊區中正路55-4號","121.461866666667","25.0396766666667","6500500","新莊區"
"220092","307-R5","2018/11/17 20:09:43","新北市板橋區文化路一段45巷1弄1-1號","121.460431666667","25.013745","6500100","板橋區"
"220089","487-VK","2018/11/17 20:09:37","新北市板橋區互助街10號","121.463066666667","25.0276816666667","6500100","板橋區"
"242034","280-VK","2018/11/17 20:09:46","新北市新莊區建中街118號","121.445713333333","25.0365383333333","6500500","新莊區"
"220103","561-BX","2018/11/17 20:09:46","新北市板橋區雨農路18巷1號","121.461765","25.02461","6500100","板橋區"
"220083","568-UM","2018/11/17 20:09:29","新北市板橋區僑中二街90巷20號","121.445335","25.0093033333333","6500100","板橋區"
"220005","686-BX","2018/11/17 20:09:32","新北市泰山區新五路一段91號","121.44085","25.0611633333333","6500100","板橋區"
"220093","689-BX","2018/11/17 20:09:46","新北市板橋區長江路一段30號","121.458091666667","25.0288366666667","6500100","板橋區"
"220070","806-UM","2018/11/17 20:09:28","新北市板橋區四川路二段245巷34號","121.45151","24.9927416666667","6500100","板橋區"
"220055","827-TW","2018/11/17 20:09:32","新北市板橋區仁愛路86巷13弄1號","121.461076666667","24.99895","6500100","板橋區"
"220067","829-TW","2018/11/17 20:09:39","新北市板橋區中山路一段208號","121.469893333333","25.013735","6500100","板橋區"
"220102","830-TW","2018/11/17 20:09:40","新北市板橋區民治街128號","121.477838333333","25.0309733333333","6500100","板橋區"
"220088","833-TW","2018/11/17 20:09:39","新北市板橋區民治街63號","121.479593333333","25.0331616666667","6500100","板橋區"
"220074","895-R6","2018/11/17 20:09:43","新北市板橋區館前西路66號","121.4577","25.00708","6500100","板橋區"
"220097","AAC-210","2018/11/17 20:09:42","新北市板橋區光正街9巷11號","121.462655","25.01656","6500100","板橋區"
"235068","KEA-2873","2018/11/17 20:09:21","新北市中和區福祥路85巷3號","121.49873","25.0057033333333","6500300","中和區"
"235040","KEA-2876","2018/11/17 20:09:39","新北市中和區保健路33巷7號","121.509095","24.998005","6500300","中和區"
