"lineid","car","time","location","longitude","latitude","cityid","cityname"
"234030","746-BX","2018/11/17 20:49:38","新北市新店區安和路三段1-1號","121.51723","24.9795383333333","6500400","永和區"
"234042","862-TW","2018/11/17 20:49:34","新北市新店區環河路550號","121.526546666667","24.9845983333333","6500400","永和區"
"234074","AAC-211","2018/11/17 20:49:41","新北市永和區環河東路二段20號","121.522318333333","25.0131566666667","6500400","永和區"
"243012","646-TV","2018/11/17 20:49:37","新北市泰山區泰林路三段745巷145號","121.40554","25.067705","6501600","泰山區"
"222003","436-BY","2018/11/17 20:49:45","新北市深坑區文山路三段48-1號","121.609956666667","24.9985466666667","6501800","深坑區"
"222002","659-BX","2018/11/17 20:49:44","新北市深坑區北深路三段93巷71號","121.60351","25.001165","6501800","深坑區"
"231059","046-UY","2018/11/17 20:49:43","新北市新店區僑愛二路1號","121.499851666667","24.9451616666667","6500600","新店區"
"231040","047-UY","2018/11/17 20:49:28","新北市新店區中正路251號","121.538941666667","24.9733583333333","6500600","新店區"
"231044","106-UY","2018/11/17 20:49:30","新北市新店區民生路149巷16號","121.52913","24.9799116666667","6500600","新店區"
"231052","108-UY","2018/11/17 20:49:42","新北市新店區屈尺路6號","121.549491666667","24.9228183333333","6500600","新店區"
"231062","110-UY","2018/11/17 20:49:43","新北市新店區和成街15巷2號","121.487796666667","24.94724","6500600","新店區"
"231048","187-VK","2018/11/17 20:49:32","新北市新店區寶元路二段1巷2號","121.550736666667","24.9840583333333","6500600","新店區"
"231054","KEA-2219","2018/11/17 20:49:25","新北市新店區北新路一段88巷1號","121.541641666667","24.967755","6500600","新店區"
"231042","268-BY","2018/11/17 20:49:45","新北市新店區寶高路120巷1號","121.554608333333","24.9760666666667","6500600","新店區"
"231051","278-BY","2018/11/17 20:49:10","新北市新店區民生路156巷101號","121.527093333333","24.9822233333333","6500600","新店區"
"231050","AAD-862","2018/11/17 20:49:27","新北市新店區三民路117巷1弄1號","121.53475","24.9718633333333","6500600","新店區"
"231058","3713-VJ","2018/11/17 20:49:41","新北市新店區三民路60巷8號","121.535538333333","24.9726566666667","6500600","新店區"
"231066","4716-K9","2018/11/17 20:49:45","新北市新店區安興路105-1號","121.514671666667","24.9777583333333","6500600","新店區"
"231056","4715-K9","2018/11/17 20:49:35","新北市新店區薏仁坑路自強巷6號","121.496791666667","24.95848","6500600","新店區"
"231067","4772-VM","2018/11/17 20:49:41","新北市新店區安華路28-1號","121.519723333333","24.9607733333333","6500600","新店區"
"231065","512-UM","2018/11/17 20:49:36","新北市新店區安祥路69巷17號","121.481921666667","24.9613166666667","6500600","新店區"
"231049","513-UM","2018/11/17 20:49:32","新北市新店區華城路34-1號","121.52898","24.95674","6500600","新店區"
"231063","616-UM","2018/11/17 20:49:40","新北市新店區富貴街11巷34號","121.494985","24.9483866666667","6500600","新店區"
"231061","619-UM","2018/11/17 20:49:37","新北市新店區新和街120號","121.521271666667","24.986595","6500600","新店區"
"231068","718-UY","2018/11/17 20:49:43","新北市新店區寶元路一段107號","121.54557","24.9828883333333","6500600","新店區"
"231060","897-TW","2018/11/17 20:49:30","新北市新店區安康路三段636號","121.477","24.9447333333333","6500600","新店區"
"231045","898-TW","2018/11/17 20:49:44","新北市新店區環河路29巷1號","121.536906666667","24.9614116666667","6500600","新店區"
"231043","899-TW","2018/11/17 20:49:35","新北市新店區建國路94號","121.540126666667","24.97755","6500600","新店區"
"241011","013-R5","2018/11/17 20:49:37","新北市三重區龍濱路249號","121.501585","25.0724783333333","6500200","三重區"
"241028","022-UY","2018/11/17 20:49:29","新北市三重區中正南路50號","121.493986666667","25.0599233333333","6500200","三重區"
"241008","059-VK","2018/11/17 20:49:28","新北市三重區永福街72巷11號","121.479435","25.0767933333333","6500200","三重區"
"241022","060-VK","2018/11/17 20:49:31","新北市三重區過圳街27-5號","121.487998333333","25.0624","6500200","三重區"
"241031","061-VK","2018/11/17 20:49:42","新北市三重區重陽路一段113巷3號","121.487593333333","25.0598166666667","6500200","三重區"
"241015","062-VK","2018/11/17 20:49:34","新北市三重區自強路一段8號","121.498926666667","25.0682533333333","6500200","三重區"
"241017","063-VK","2018/11/17 20:49:44","新北市三重區民生街14號","121.492098333333","25.0675066666667","6500200","三重區"
"241024","065-VK","2018/11/17 20:49:29","新北市三重區中正北路237號","121.475623333333","25.070735","6500200","三重區"
"241026","066-VK","2018/11/17 20:49:35","新北市三重區和平街3號","121.50019","25.0623866666667","6500200","三重區"
"241002","090-VK","2018/11/17 20:49:44","新北市三重區仁義街157巷62號","121.498331666667","25.0818066666667","6500200","三重區"
"241003","091-VK","2018/11/17 20:49:40","新北市三重區五華街141巷60號","121.49352","25.08672","6500200","三重區"
"251014","742-BX","2018/11/17 20:49:44","新北市淡水區公埔子32-8號","121.461666666667","25.23235","6501000","淡水區"
"241005","262-UM","2018/11/17 20:49:33","新北市三重區五華街141巷31號","121.492343333333","25.0856133333333","6500200","三重區"
"241016","266-UM","2018/11/17 20:49:30","新北市三重區自強路一段107號","121.495458333333","25.0663966666667","6500200","三重區"
"241009","267-UM","2018/11/17 20:49:47","新北市三重區三和路四段392-1號","121.481785","25.0790466666667","6500200","三重區"
"241018","268-UM","2018/11/17 20:49:41","新北市三重區正義北路189號","121.496305","25.0680316666667","6500200","三重區"
"241032","269-UM","2018/11/17 20:49:38","新北市三重區重陽路一段120巷35號","121.485058333333","25.0602183333333","6500200","三重區"
"241013","270-UM","2018/11/17 20:49:35","新北市三重區仁愛街129巷2號","121.49565","25.0750066666667","6500200","三重區"
"241025","271-UM","2018/11/17 20:49:34","新北市三重區貴陽街18-1號","121.484235","25.0619066666667","6500200","三重區"
"241007","398-BY","2018/11/17 20:49:37","新北市三重區慈愛街8號","121.484501666667","25.0784416666667","6500200","三重區"
"241035","KEA-2210","2018/11/17 20:49:44","新北市三重區文化北路91號","121.498113333333","25.0678933333333","6500200","三重區"
"241020","478-VK","2018/11/17 20:49:34","新北市三重區忠孝路一段101號","121.489436666667","25.0721833333333","6500200","三重區"
"241014","543-UM","2018/11/17 20:49:39","新北市三重區安和路99號","121.50084","25.0697966666667","6500200","三重區"
"241023","545-UM","2018/11/17 20:49:44","新北市三重區忠孝路三段84巷1號","121.480236666667","25.0645433333333","6500200","三重區"
"241001","547-UM","2018/11/17 20:49:40","新北市三重區三和路四段156號","121.488216666667","25.0757033333333","6500200","三重區"
"241019","KEA-2593","2018/11/17 20:49:40","新北市三重區忠孝路一段1號","121.492456666667","25.0717683333333","6500200","三重區"
"241006","AAD-863","2018/11/17 20:49:42","新北市三重區車路頭街139巷14號","121.484365","25.076205","6500200","三重區"
"241030","743-BX","2018/11/17 20:49:34","新北市三重區昌隆街26號","121.49206","25.0523183333333","6500200","三重區"
"241012","941-UM","2018/11/17 20:49:39","新北市三重區仁信街27號","121.50128","25.0755233333333","6500200","三重區"
"241029","942-UM","2018/11/17 20:49:45","新北市三重區重安街16號","121.490383333333","25.05823","6500200","三重區"
"241033","AAC-255","2018/11/17 20:49:39","新北市三重區光復路二段1號","121.472266666667","25.053315","6500200","三重區"
"247012","KEA-2869","2018/11/17 20:49:27","新北市三重區集賢路186號","121.48416","25.0883633333333","6501400","蘆洲區"
"247002","893-R6","2018/11/17 20:49:27","新北市蘆洲區永康街118號","121.457961666667","25.0852633333333","6501400","蘆洲區"
"247016","546-UM","2018/11/17 20:49:42","新北市蘆洲區中正路57號","121.470551666667","25.0828133333333","6501400","蘆洲區"
"247024","500-BY","2018/11/17 20:49:36","新北市蘆洲區長樂路136號","121.462136666667","25.0901266666667","6501400","蘆洲區"
"247014","339-TH","2018/11/17 20:49:27","新北市蘆洲區三民路95號","121.47395","25.0848716666667","6501400","蘆洲區"
"247006","337-TH","2018/11/17 20:49:35","新北市蘆洲區永安南路二段44-2號","121.466296666667","25.0773883333333","6501400","蘆洲區"
"247020","057-VK","2018/11/17 20:49:27","新北市蘆洲區仁愛街60號","121.471573333333","25.0938083333333","6501400","蘆洲區"
"247010","056-VK","2018/11/17 20:49:45","新北市蘆洲區鷺江街76號","121.476961666667","25.0838766666667","6501400","蘆洲區"
"247008","053-VK","2018/11/17 20:49:38","新北市三重區永安北路二段39號","121.482486666667","25.08252","6501400","蘆洲區"
"247004","002-UY","2018/11/17 20:49:29","新北市蘆洲區長安街103號","121.461568333333","25.0808883333333","6501400","蘆洲區"
"247022","001-UY","2018/11/17 20:49:46","新北市蘆洲區水湳街36-19號","121.47087","25.08928","6501400","蘆洲區"
"222001","KEA-2212","2018/11/17 20:49:43","新北市深坑區北深路三段125號","121.604491666667","25.0022833333333","6501800","深坑區"
"251013","KEA-2871","2018/11/17 20:49:37","新北市淡水區行忠路250號","121.45737","25.200415","6501000","淡水區"
"251016","179-VK","2018/11/17 20:49:40","新北市淡水區淡金路四段463號","121.45185","25.2234733333333","6501000","淡水區"
"251015","182-VK","2018/11/17 20:49:44","新北市淡水區淡金路四段542巷17號","121.452781666667","25.2270916666667","6501000","淡水區"
"251010","413-VK","2018/11/17 20:49:35","新北市淡水區沙崙路145號","121.423443333333","25.1830016666667","6501000","淡水區"
"251007","442-VK","2018/11/17 20:49:46","新北市淡水區鄧公路29巷1號","121.451596666667","25.1701216666667","6501000","淡水區"
"251001","559-UM","2018/11/17 20:49:33","新北市淡水區淡金路218號","121.460551666667","25.16722","6501000","淡水區"
"251011","650-BX","2018/11/17 20:49:42","新北市淡水區新民街一段13-1號","121.433023333333","25.1846066666667","6501000","淡水區"
"251002","672-BX","2018/11/17 20:49:35","新北市淡水區中正東路6號","121.447065","25.16704","6501000","淡水區"
"251003","673-BX","2018/11/17 20:49:28","新北市淡水區中山北路一段247巷78號","121.442638333333","25.1794016666667","6501000","淡水區"
"252002","178-VK","2018/11/17 20:49:34","新北市三芝區淡金路二段91號","121.50411","25.2608733333333","6502100","三芝區"
"242036","AAC-296","2018/11/17 20:49:44","新北市新莊區中正路516-5號","121.433233333333","25.0322966666667","6500500","新莊區"
"242044","566-BX","2018/11/17 20:49:41","新北市新莊區民安路46號","121.422668333333","25.02755","6500500","新莊區"
"242053","441-UM","2018/11/17 20:49:45","新北市新莊區新樹路69號","121.438841666667","25.0298866666667","6500500","新莊區"
"242039","415-TV","2018/11/17 20:49:39","新北市新莊區瓊林路170-1號","121.44111","25.023645","6500500","新莊區"
"242009","413-TV","2018/11/17 20:49:41","新北市新莊區復興路三段38號","121.461388333333","25.0445066666667","6500500","新莊區"
"242023","362-BY","2018/11/17 20:49:46","新北市三重區光復路二段188號","121.471363333333","25.0626666666667","6500500","新莊區"
"242011","132-UY","2018/11/17 20:49:45","新北市五股區成泰路一段90號","121.437526666667","25.069385","6500500","新莊區"
"242040","133-UY","2018/11/17 20:49:43","新北市新莊區壽山路45號","121.414708333333","25.0312033333333","6500500","新莊區"
"242046","135-UY","2018/11/17 20:49:39","新北市新莊區中正路829巷22弄2號","121.421455","25.0271566666667","6500500","新莊區"
"242031","348-TH","2018/11/17 20:49:31","新北市新莊區中正路535-1號","121.43761","25.0329783333333","6500500","新莊區"
"242004","349-TH","2018/11/17 20:49:46","新北市八里區下罟子8-10號","121.38488","25.145035","6500500","新莊區"
"242015","351-TH","2018/11/17 20:49:35","新北市新莊區新泰路369巷24號","121.442298333333","25.0432616666667","6500500","新莊區"
"221027","281-BY","2018/11/17 20:49:37","新北市汐止區大同路二段362號","121.657328333333","25.0671566666667","6501100","汐止區"
"221038","646-BX","2018/11/17 20:49:29","新北市汐止區汐萬路一段256巷1號","121.652035","25.0747366666667","6501100","汐止區"
"221018","753-BX","2018/11/17 20:49:36","新北市汐止區大同路二段391號","121.657798333333","25.0672766666667","6501100","汐止區"
"242002","281-VK","2018/11/17 20:49:34","新北市新莊區中港路五守新村1巷5號","121.455343333333","25.0381966666667","6500500","新莊區"
"242034","280-VK","2018/11/17 20:49:36","新北市五股區成泰路一段8巷24號","121.437916666667","25.0662983333333","6500500","新莊區"
"220083","568-UM","2018/11/17 20:49:29","新北市板橋區僑中二街108巷21號","121.444878333333","25.0073416666667","6500100","板橋區"
"220070","806-UM","2018/11/17 20:49:49","新北市林口區汕頭32號","121.36658","25.1350166666667","6500100","板橋區"
