"lineid","car","time","location","longitude","latitude","cityid","cityname"
"251008","181-VK","2018/11/17 22:29:30","新北市淡水區學府路104號","121.449851666667","25.1717716666667","6501000","淡水區"
"251010","413-VK","2018/11/17 22:29:34","新北市淡水區沙崙路200號","121.42458","25.1838533333333","6501000","淡水區"
"251007","442-VK","2018/11/17 22:29:45","新北市淡水區北新路186-3號","121.449586666667","25.1787966666667","6501000","淡水區"
"251004","443-VK","2018/11/17 22:29:41","新北市淡水區民族路33號","121.462246666667","25.1357316666667","6501000","淡水區"
"251011","650-BX","2018/11/17 22:29:41","新北市淡水區水碓街7號","121.443173333333","25.1771466666667","6501000","淡水區"
