"lineid","car","time","location","longitude","latitude","cityid","cityname"
"234044","148-BY","2018/11/20 13:07:57","新北市永和區永元路18巷31號","121.523725","25.0002416666667","6500400","永和區"
"234005","207-UY","2018/11/20 13:07:50","新北市永和區中山路一段177號","121.509303333333","25.008905","6500400","永和區"
"234078","298-R6","2018/11/20 13:07:56","新北市永和區福和路57巷14弄1號","121.522735","25.0069866666667","6500400","永和區"
"234036","336-UY","2018/11/20 13:08:03","新北市永和區民樂街71巷1號","121.527416666667","24.9975616666667","6500400","永和區"
"234062","337-UY","2018/11/20 13:08:00","新北市永和區秀朗路二段17號","121.521075","25.0026916666667","6500400","永和區"
"234084","338-UY","2018/11/20 13:07:51","新北市永和區永貞路118號","121.518698333333","25.0045116666667","6500400","永和區"
"234068","552-UM","2018/11/20 13:07:48","新北市永和區豫溪街95巷10弄3號","121.518128333333","25.01082","6500400","永和區"
"234015","745-BX","2018/11/20 13:07:50","新北市永和區文化路90巷8號","121.51399","25.015625","6500400","永和區"
"234028","746-BX","2018/11/20 13:07:54","新北市永和區民生路29號","121.52284","24.998625","6500400","永和區"
"234052","KEA-2590","2018/11/20 13:07:53","新北市永和區中興街133巷6號","121.518771666667","25.012685","6500400","永和區"
"234012","KEA-2591","2018/11/20 13:07:56","新北市永和區保福路二段58號","121.510891666667","25.0123616666667","6500400","永和區"
"234060","AAD-866","2018/11/20 13:07:55","新北市永和區安樂路304巷7號","121.514415","25.00506","6500400","永和區"
"234040","862-TW","2018/11/20 13:08:02","新北市永和區保平路93巷7號","121.511851666667","25.0065516666667","6500400","永和區"
"234048","863-TW","2018/11/20 13:07:55","新北市永和區文化路135巷4號","121.51074","25.01584","6500400","永和區"
"234025","9371-KE","2018/11/20 13:07:59","新北市永和區秀朗路一段10巷19號","121.513465","25.0061283333333","6500400","永和區"
"234010","9373-KE","2018/11/20 13:07:51","新北市永和區仁愛路31巷1號","121.514341666667","25.0130283333333","6500400","永和區"
"248017","225-UY","2018/11/20 13:08:00","新北市五股區新五路二段258號","121.44101","25.0822283333333","6501500","五股區"
"234022","9380-KE","2018/11/20 13:07:56","新北市永和區永和路二段92巷5號","121.515343333333","25.0114833333333","6500400","永和區"
"234076","969-R7","2018/11/20 13:08:03","新北市永和區民光街8號","121.515415","24.9962","6500400","永和區"
"234072","AAC-211","2018/11/20 13:08:01","新北市永和區福和路27號","121.523826666667","25.0081716666667","6500400","永和區"
"234066","AAC-212","2018/11/20 13:07:51","新北市永和區保平路12號","121.512566666667","25.0076083333333","6500400","永和區"
"234001","AAC-295","2018/11/20 13:07:56","新北市永和區中山路一段106號","121.511066666667","25.0104516666667","6500400","永和區"
"244002","410-SL","2018/11/20 13:07:58","新北市林口區頂福20-18號","121.355713333333","25.092035","6501700","林口區"
"244001","658-BX","2018/11/20 13:08:04","新北市林口區中山路206號","121.387031666667","25.0793","6501700","林口區"
"231002","002-UM","2018/11/20 13:08:01","新北市新店區安華路28-1號","121.51969","24.96085","6500600","新店區"
"231027","0293-UT","2018/11/20 13:07:47","新北市新店區安華路28-1號","121.519468333333","24.9605683333333","6500600","新店區"
"231028","046-UY","2018/11/20 13:07:43","新北市新店區安華路28-1號","121.519756666667","24.9608766666667","6500600","新店區"
"231001","047-UY","2018/11/20 13:07:58","新北市新店區安華路28-1號","121.51924","24.960935","6500600","新店區"
"231005","106-UY","2018/11/20 13:07:45","新北市新店區安華路28-1號","121.519805","24.9609383333333","6500600","新店區"
"231032","110-UY","2018/11/20 13:08:02","新北市新店區安一路一段1-1號","121.519168333333","24.9613883333333","6500600","新店區"
"231012","187-VK","2018/11/20 13:07:51","新北市新店區安一路一段1-1號","121.519653333333","24.9612966666667","6500600","新店區"
"231023","KEA-2219","2018/11/20 13:07:45","新北市新店區安一路一段1-1號","121.519981666667","24.9611933333333","6500600","新店區"
"231026","256-BX","2018/11/20 13:08:01","新北市新店區安一路一段1-1號","121.519738333333","24.9612483333333","6500600","新店區"
"231003","268-BY","2018/11/20 13:07:53","新北市新店區安一路一段1-1號","121.519701666667","24.9612483333333","6500600","新店區"
"231015","AAD-862","2018/11/20 13:08:03","新北市新店區安一路一段1-1號","121.519896666667","24.96126","6500600","新店區"
"231037","4716-K9","2018/11/20 13:08:01","新北市新店區安華路28-1號","121.519698333333","24.9607816666667","6500600","新店區"
"231025","4715-K9","2018/11/20 13:07:49","新北市新店區安一路一段1-1號","121.519671666667","24.9613816666667","6500600","新店區"
"231036","512-UM","2018/11/20 13:07:57","新北市新店區安一路一段1-1號","121.51892","24.9613483333333","6500600","新店區"
"231013","513-UM","2018/11/20 13:08:02","新北市新店區安一路一段1-1號","121.519888333333","24.9612516666667","6500600","新店區"
"231034","616-UM","2018/11/20 13:07:53","新北市新店區安華路28-1號","121.519556666667","24.9606266666667","6500600","新店區"
"231030","619-UM","2018/11/20 13:07:50","新北市新店區安華路28-1號","121.519691666667","24.9607216666667","6500600","新店區"
"231029","897-TW","2018/11/20 13:07:52","新北市新店區安華路28-1號","121.51974","24.9606566666667","6500600","新店區"
"231006","898-TW","2018/11/20 13:04:45","新北市新店區安華路28-1號","121.519338333333","24.9609283333333","6500600","新店區"
"231024","AKT-0513","2018/11/20 13:07:50","新北市新店區安華路28-1號","121.51955","24.9605416666667","6500600","新店區"
"235028","005-UY","2018/11/20 13:07:58","新北市中和區中正路277-6號","121.495","24.993775","6500300","中和區"
"235027","006-UY","2018/11/20 13:07:51","新北市中和區員山路36巷16-3號","121.48505","24.99137","6500300","中和區"
"235029","098-UM","2018/11/20 13:07:44","新北市中和區中山路二段181號","121.500945","25.0028","6500300","中和區"
"235022","151-BY","2018/11/20 13:07:51","新北市中和區圓通路367巷60-2號","121.492071666667","24.9838466666667","6500300","中和區"
"235002","185-VK","2018/11/20 13:07:50","新北市中和區立人街19號","121.521406666667","24.9941083333333","6500300","中和區"
"235031","255-BX","2018/11/20 13:07:52","新北市中和區新生街113號","121.483516666667","25.0018983333333","6500300","中和區"
"235006","KEA-2878","2018/11/20 13:07:51","新北市中和區中正路222號","121.496376666667","24.99392","6500300","中和區"
"235034","558-UM","2018/11/20 13:08:01","新北市中和區中正路281-10號","121.494216666667","24.9938","6500300","中和區"
"235009","565-BX","2018/11/20 13:07:47","新北市中和區員山路36巷13號","121.484178333333","24.9910433333333","6500300","中和區"
"235018","640-BX","2018/11/20 13:07:48","新北市中和區連城路518巷1號","121.476791666667","24.991995","6500300","中和區"
"235035","783-BX","2018/11/20 13:07:53","新北市中和區板南路520巷15號","121.483708333333","25.0089483333333","6500300","中和區"
"235026","800-TS","2018/11/20 13:07:52","新北市中和區建一路83號","121.487948333333","25.0028","6500300","中和區"
"235021","801-TS","2018/11/20 13:08:01","新北市中和區員山路36巷16-3號","121.484788333333","24.99171","6500300","中和區"
"235005","802-TS","2018/11/20 13:07:53","新北市中和區中正路418號","121.49182","24.993685","6500300","中和區"
"235016","805-TS","2018/11/20 13:08:02","新北市中和區員山路36巷16號","121.484391666667","24.9918083333333","6500300","中和區"
"235015","157-BY","2018/11/20 13:07:52","新北市中和區中正路215號","121.496631666667","24.9936633333333","6500300","中和區"
"235001","AAC-213","2018/11/20 13:07:58","新北市中和區景平路183號","121.511735","24.99267","6500300","中和區"
"235023","AAC-215","2018/11/20 13:08:01","新北市中和區員山路36巷16-3號","121.484951666667","24.9914783333333","6500300","中和區"
"247021","001-UY","2018/11/20 13:07:54","新北市五股區中興路三段2巷10號","121.449041666667","25.0808533333333","6501400","蘆洲區"
"228004","212-TW","2018/11/20 13:07:58","新北市貢寮區吉林里內寮街71號","121.891473333333","24.9730566666667","6502600","貢寮區"
"228005","828-UM","2018/11/20 13:07:48","新北市貢寮區龍門里復興街14號","121.92649","25.0256833333333","6502600","貢寮區"
"227006","282-VK","2018/11/20 13:07:47","新北市雙溪區雙溪里太平路54號","121.864773333333","25.0353916666667","6502500","雙溪區"
"207002","749-BX","2018/11/20 13:07:59","新北市萬里區崁腳里內崁路2-1號","121.639296666667","25.16044","6502800","萬里區"
"207001","662-BX","2018/11/20 13:08:03","新北市萬里區萬里里獅頭路22-1號","121.692863333333","25.1782316666667","6502800","萬里區"
"252005","AAC-283","2018/11/20 13:07:46","新北市三芝區埔頭里埔頭2-3號","121.506105","25.2505583333333","6502100","三芝區"
"221032","280-BY","2018/11/20 13:08:00","新北市汐止區大同路二段381號","121.657495","25.0672883333333","6501100","汐止區"
"221033","647-BX","2018/11/20 13:07:48","新北市汐止區秀峰路137巷6號","121.660963333333","25.06253","6501100","汐止區"
"235032","KEA-2873","2018/11/20 13:07:44","新北市中和區員山路36巷16-3號","121.485063333333","24.9914066666667","6500300","中和區"
