"lineid","car","time","location","longitude","latitude","cityid","cityname"
"234044","148-BY","2018/11/20 13:18:04","新北市永和區得和路297號","121.522868333333","24.9997183333333","6500400","永和區"
"234005","207-UY","2018/11/20 13:17:50","新北市中和區中山路二段1號","121.505565","25.0058816666667","6500400","永和區"
"234078","298-R6","2018/11/20 13:17:59","新北市永和區福和路5-8號","121.525245","25.0082333333333","6500400","永和區"
"234036","336-UY","2018/11/20 13:18:03","新北市永和區民樂街55巷2號","121.527435","24.9985166666667","6500400","永和區"
"234062","337-UY","2018/11/20 13:18:00","新北市永和區永元路17巷6弄2號","121.521368333333","25.0007083333333","6500400","永和區"
"234084","338-UY","2018/11/20 13:17:56","新北市永和區永利路31號","121.518466666667","25.00578","6500400","永和區"
"234068","552-UM","2018/11/20 13:17:50","新北市永和區豫溪街61號","121.517383333333","25.0099883333333","6500400","永和區"
"234015","745-BX","2018/11/20 13:17:50","新北市永和區文化路192巷14弄21號","121.511761666667","25.0169083333333","6500400","永和區"
"234028","746-BX","2018/11/20 13:17:43","新北市永和區厚德街98號","121.523525","24.9989133333333","6500400","永和區"
"234052","KEA-2590","2018/11/20 13:17:53","新北市永和區中興街43號","121.516405","25.0117966666667","6500400","永和區"
"234012","KEA-2591","2018/11/20 13:17:56","新北市永和區仁愛路31巷7弄2號","121.514043333333","25.0126333333333","6500400","永和區"
"234060","AAD-866","2018/11/20 13:17:55","新北市永和區中正路381號","121.517156666667","25.0037066666667","6500400","永和區"
"234040","862-TW","2018/11/20 13:18:02","新北市永和區保平路151巷2弄6-3號","121.509526666667","25.0052633333333","6500400","永和區"
"234048","863-TW","2018/11/20 13:17:55","新北市永和區保福路二段88巷9號","121.510971666667","25.0136483333333","6500400","永和區"
"234025","9371-KE","2018/11/20 13:17:59","新北市永和區豫溪街42巷8號","121.515425","25.0092916666667","6500400","永和區"
"234010","9373-KE","2018/11/20 13:17:51","新北市永和區永和路二段425巷37弄2號","121.514251666667","25.0174583333333","6500400","永和區"
"248017","225-UY","2018/11/20 13:18:00","新北市五股區御史路120-1號","121.437106666667","25.0965983333333","6501500","五股區"
"234022","9380-KE","2018/11/20 13:17:56","新北市永和區竹林路109巷7號","121.520346666667","25.0120416666667","6500400","永和區"
"234076","969-R7","2018/11/20 13:18:03","新北市永和區民有街100號","121.51754","24.995765","6500400","永和區"
"234072","AAC-211","2018/11/20 13:18:01","新北市永和區竹林路90號","121.519461666667","25.01238","6500400","永和區"
"234066","AAC-212","2018/11/20 13:18:00","新北市永和區保平路30巷4號","121.511885","25.0073866666667","6500400","永和區"
"234001","AAC-295","2018/11/20 13:17:56","新北市永和區保福路二段2號","121.511321666667","25.0106733333333","6500400","永和區"
"244002","410-SL","2018/11/20 13:17:58","新北市林口區頂福9號","121.358175","25.0805733333333","6501700","林口區"
"244001","658-BX","2018/11/20 13:18:05","新北市林口區文化一路二段52號","121.380883333333","25.077555","6501700","林口區"
"231002","002-UM","2018/11/20 13:18:01","新北市新店區安華路28-1號","121.519628333333","24.9609316666667","6500600","新店區"
"231027","0293-UT","2018/11/20 13:17:47","新北市新店區安康路一段355號","121.51984","24.9632316666667","6500600","新店區"
"231028","046-UY","2018/11/20 13:18:03","新北市新店區安華路28-1號","121.519756666667","24.9609316666667","6500600","新店區"
"231001","047-UY","2018/11/20 13:17:58","新北市新店區安一路一段1-1號","121.519138333333","24.9610383333333","6500600","新店區"
"231005","106-UY","2018/11/20 13:17:45","新北市新店區安華路28-1號","121.519778333333","24.9608366666667","6500600","新店區"
"231010","107-UY","2018/11/20 13:18:04","新北市新店區安康路一段94號","121.527716666667","24.9621116666667","6500600","新店區"
"231020","108-UY","2018/11/20 13:18:05","新北市新店區安康路一段166號","121.52596","24.9631266666667","6500600","新店區"
"231032","110-UY","2018/11/20 13:18:02","新北市新店區安一路一段1-1號","121.519171666667","24.9613683333333","6500600","新店區"
"231012","187-VK","2018/11/20 13:17:51","新北市新店區安一路一段1-1號","121.51971","24.96129","6500600","新店區"
"231023","KEA-2219","2018/11/20 13:17:45","新北市新店區安一路一段1-1號","121.519848333333","24.9614183333333","6500600","新店區"
"231026","256-BX","2018/11/20 13:18:00","新北市新店區安一路一段1-1號","121.519768333333","24.9612266666667","6500600","新店區"
"231003","268-BY","2018/11/20 13:17:53","新北市新店區安一路一段1-1號","121.519703333333","24.96124","6500600","新店區"
"231018","278-BY","2018/11/20 13:17:44","新北市新店區環河路116號","121.53703","24.9665183333333","6500600","新店區"
"231015","AAD-862","2018/11/20 13:18:03","新北市新店區安康路一段94-1號","121.527678333333","24.9621366666667","6500600","新店區"
"231038","3712-VJ","2018/11/20 13:17:54","新北市新店區安華路28-1號","121.519355","24.960715","6500600","新店區"
"231037","4716-K9","2018/11/20 13:18:01","新北市新店區安華路28-1號","121.519758333333","24.9607933333333","6500600","新店區"
"231025","4715-K9","2018/11/20 13:17:49","新北市新店區中央六街57號","121.527931666667","24.97589","6500600","新店區"
"231036","512-UM","2018/11/20 13:17:57","新北市新店區安康路二段348-1號","121.502476666667","24.9575833333333","6500600","新店區"
"231013","513-UM","2018/11/20 13:18:02","新北市新店區安一路一段1-1號","121.51978","24.9611983333333","6500600","新店區"
"231034","616-UM","2018/11/20 13:17:53","新北市新店區安華路28-1號","121.519583333333","24.96067","6500600","新店區"
"231030","619-UM","2018/11/20 13:17:50","新北市新店區安華路28-1號","121.519671666667","24.9607583333333","6500600","新店區"
"231029","897-TW","2018/11/20 13:17:52","新北市新店區安華路28-1號","121.519696666667","24.9608416666667","6500600","新店區"
"231006","898-TW","2018/11/20 13:17:54","新北市新店區安華路28-1號","121.51944","24.9607516666667","6500600","新店區"
"231024","AKT-0513","2018/11/20 13:17:50","新北市新店區環河路1-1號","121.537923333333","24.961535","6500600","新店區"
"235028","005-UY","2018/11/20 13:17:52","新北市中和區中正路150號","121.498936666667","24.993865","6500300","中和區"
"235027","006-UY","2018/11/20 13:17:51","新北市中和區員山路36巷16-3號","121.485076666667","24.9913833333333","6500300","中和區"
"235020","096-UM","2018/11/20 13:17:57","新北市中和區中正路637巷52弄1號","121.48547","24.9934683333333","6500300","中和區"
"235003","097-UM","2018/11/20 13:18:04","新北市中和區安平路28號","121.509355","24.9944133333333","6500300","中和區"
"235029","098-UM","2018/11/20 13:18:04","新北市中和區莊敬路49巷20弄24號","121.502776666667","25.0057783333333","6500300","中和區"
"235022","151-BY","2018/11/20 13:17:51","新北市中和區圓通路367巷21-1號","121.492631666667","24.9864683333333","6500300","中和區"
"235002","185-VK","2018/11/20 13:17:51","新北市中和區大智街79號","121.521588333333","24.9921916666667","6500300","中和區"
"235013","186-VK","2018/11/20 13:17:58","新北市中和區員山路36巷16-2號","121.485226666667","24.9917033333333","6500300","中和區"
"235031","255-BX","2018/11/20 13:17:52","新北市中和區員山路124巷52號","121.482606666667","24.9965633333333","6500300","中和區"
"235036","301-VK","2018/11/20 13:17:58","新北市中和區連城路301號","121.489896666667","24.9964516666667","6500300","中和區"
"235007","352-BY","2018/11/20 13:17:46","新北市中和區中正路221號","121.496331666667","24.99362","6500300","中和區"
"235006","KEA-2878","2018/11/20 13:17:50","新北市中和區景平路159巷1號","121.512646666667","24.992095","6500300","中和區"
"235014","4979-A6","2018/11/20 13:17:57","新北市中和區捷運路157號","121.506338333333","24.9911766666667","6500300","中和區"
"235034","558-UM","2018/11/20 13:18:01","新北市中和區圓通路113號","121.499395","24.9964916666667","6500300","中和區"
"235009","565-BX","2018/11/20 13:17:50","新北市中和區景安路233號","121.5042","24.99108","6500300","中和區"
"235018","640-BX","2018/11/20 13:17:48","新北市中和區民德路166號","121.468536666667","24.999805","6500300","中和區"
"235024","647-TV","2018/11/20 13:17:49","新北市中和區員山路36巷16-8號","121.48546","24.9924","6500300","中和區"
"235011","732-UM","2018/11/20 13:17:57","新北市中和區中正路305號","121.492393333333","24.99377","6500300","中和區"
"235035","783-BX","2018/11/20 13:17:33","新北市中和區中板路18巷1弄2號","121.483981666667","25.0123883333333","6500300","中和區"
"235026","800-TS","2018/11/20 13:17:52","新北市中和區橋和路177-1號","121.492498333333","25.0059733333333","6500300","中和區"
"235021","801-TS","2018/11/20 13:18:01","新北市中和區民安街83號","121.477855","24.9997116666667","6500300","中和區"
"235005","802-TS","2018/11/20 13:17:53","新北市中和區景安路9號","121.507966666667","24.9990716666667","6500300","中和區"
"235016","805-TS","2018/11/20 13:18:02","新北市中和區南山路267號","121.504033333333","24.992625","6500300","中和區"
"235012","896-TW","2018/11/20 13:17:50","新北市中和區中正路637巷60弄61號","121.485445","24.993","6500300","中和區"
"235017","900-TW","2018/11/20 13:17:59","新北市中和區員山路36巷16-2號","121.485055","24.9918066666667","6500300","中和區"
"235015","157-BY","2018/11/20 13:17:31","新北市中和區仁愛街87號","121.511823333333","24.9871216666667","6500300","中和區"
"235001","AAC-213","2018/11/20 13:17:58","新北市中和區景德街59號","121.517386666667","24.9914466666667","6500300","中和區"
"235023","AAC-215","2018/11/20 13:18:01","新北市中和區員山路36巷16-3號","121.484948333333","24.9915033333333","6500300","中和區"
"220013","072-UY","2018/11/20 13:18:02","新北市板橋區華東街1-9號","121.44818","24.9949383333333","6500100","板橋區"
"247009","056-VK","2018/11/20 13:17:52","新北市五股區中興路三段2巷10號","121.448795","25.08179","6501400","蘆洲區"
"247021","001-UY","2018/11/20 13:17:54","新北市五股區中興路三段163號","121.449048333333","25.08084","6501400","蘆洲區"
"228004","212-TW","2018/11/20 13:17:58","新北市貢寮區吉林里內寮街35號","121.900063333333","24.9811216666667","6502600","貢寮區"
"228005","828-UM","2018/11/20 13:17:48","新北市貢寮區美豐里丹裡街10號","121.917246666667","25.05554","6502600","貢寮區"
"227006","282-VK","2018/11/20 13:17:47","新北市雙溪區雙溪里太平路54號","121.864773333333","25.0353916666667","6502500","雙溪區"
"207002","749-BX","2018/11/20 13:17:59","新北市萬里區崁腳里崁腳路166號","121.64505","25.1558316666667","6502800","萬里區"
"207001","662-BX","2018/11/20 13:17:43","新北市萬里區龜吼里玉田路38號","121.679095","25.1887833333333","6502800","萬里區"
"252005","AAC-283","2018/11/20 13:17:46","新北市三芝區八賢里八連溪43-1號","121.514118333333","25.23577","6502100","三芝區"
"221032","280-BY","2018/11/20 13:18:00","新北市汐止區大同路二段184巷14號","121.653028333333","25.0631683333333","6501100","汐止區"
"221033","647-BX","2018/11/20 13:17:49","新北市汐止區新台五路一段260-1號","121.657328333333","25.0638916666667","6501100","汐止區"
"220005","686-BX","2018/11/20 13:17:59","新北市板橋區華東街1-9號","121.448186666667","24.994905","6500100","板橋區"
"220002","741-BX","2018/11/20 13:17:53","新北市板橋區華東街1-9號","121.448128333333","24.994955","6500100","板橋區"
"220030","AAC-253","2018/11/20 13:18:02","新北市板橋區華東街1-10號","121.448308333333","24.9949316666667","6500100","板橋區"
"235032","KEA-2873","2018/11/20 13:17:44","新北市中和區員山路36巷16-3號","121.484981666667","24.9913383333333","6500300","中和區"
"235025","KEA-2875","2018/11/20 13:17:45","新北市中和區連城路469巷79弄16號","121.48388","24.99375","6500300","中和區"
