"lineid","car","time","location","longitude","latitude","cityid","cityname"
"234044","148-BY","2018/11/20 13:58:04","新北市永和區成功路一段12號","121.527076666667","25.005305","6500400","永和區"
"234005","207-UY","2018/11/20 13:57:50","新北市永和區中和路393號","121.508791666667","25.0001116666667","6500400","永和區"
"234078","298-R6","2018/11/20 13:57:56","新北市永和區永亨路98號","121.522926666667","25.0046983333333","6500400","永和區"
"234036","336-UY","2018/11/20 13:58:03","新北市永和區成功路二段80號","121.526565","24.99895","6500400","永和區"
"234062","337-UY","2018/11/20 13:58:00","新北市永和區中正路412巷20弄27號","121.519081666667","25.0012816666667","6500400","永和區"
"234084","338-UY","2018/11/20 13:57:56","新北市永和區福和路266號","121.518143333333","25.007645","6500400","永和區"
"234068","552-UM","2018/11/20 13:57:48","新北市永和區國光路6號","121.519668333333","25.0086933333333","6500400","永和區"
"234015","745-BX","2018/11/20 13:57:50","新北市永和區文化路14號","121.515388333333","25.01507","6500400","永和區"
"234028","746-BX","2018/11/20 13:58:03","新北市永和區四維街75號","121.525191666667","24.9979383333333","6500400","永和區"
"234052","KEA-2590","2018/11/20 13:57:52","新北市永和區竹林路39巷33弄1號","121.520103333333","25.0152533333333","6500400","永和區"
"234012","KEA-2591","2018/11/20 13:57:56","新北市永和區保生路55號","121.504715","25.0102616666667","6500400","永和區"
"234060","AAD-866","2018/11/20 13:57:55","新北市永和區中正路151巷14號","121.515651666667","24.9988233333333","6500400","永和區"
"234040","862-TW","2018/11/20 13:58:02","新北市永和區中和路335巷8號","121.507503333333","25.0001066666667","6500400","永和區"
"234048","863-TW","2018/11/20 13:56:34","新北市永和區保安路248號","121.5065","25.0126016666667","6500400","永和區"
"234025","9371-KE","2018/11/20 13:57:59","新北市永和區自由街58號","121.513746666667","25.0059366666667","6500400","永和區"
"234010","9373-KE","2018/11/20 13:57:51","新北市永和區仁愛路352巷114號","121.500538333333","25.0083433333333","6500400","永和區"
"248017","225-UY","2018/11/20 13:58:00","新北市五股區民義路一段287巷9-2號","121.424331666667","25.0913583333333","6501500","五股區"
"234022","9380-KE","2018/11/20 13:57:56","新北市永和區永和路二段239號","121.51574","25.0146583333333","6500400","永和區"
"234076","969-R7","2018/11/20 13:58:03","新北市永和區民權路58巷2弄1號","121.519546666667","24.9983983333333","6500400","永和區"
"234072","AAC-211","2018/11/20 13:58:01","新北市永和區豫溪街183號","121.522441666667","25.0104166666667","6500400","永和區"
"234066","AAC-212","2018/11/20 13:57:51","新北市永和區永貞路358號","121.510158333333","25.0065966666667","6500400","永和區"
"234001","AAC-295","2018/11/20 13:57:56","新北市永和區福和路344號","121.515071666667","25.007465","6500400","永和區"
"244002","410-SL","2018/11/20 13:57:58","新北市林口區文化二路二段105號","121.37811","25.0805533333333","6501700","林口區"
"244001","658-BX","2018/11/20 13:57:44","新北市林口區瑞平里66號","121.346316666667","25.12793","6501700","林口區"
"231002","002-UM","2018/11/20 13:58:01","新北市新店區中正路636號","121.533958333333","24.989105","6500600","新店區"
"231027","0293-UT","2018/11/20 13:58:07","新北市新店區北宜路一段39巷20號","121.538911666667","24.9583716666667","6500600","新店區"
"231028","046-UY","2018/11/20 13:58:03","新北市新店區安和路三段22-2號","121.517946666667","24.9813516666667","6500600","新店區"
"231001","047-UY","2018/11/20 13:57:58","新北市新店區三民路43號","121.537138333333","24.9708866666667","6500600","新店區"
"231005","106-UY","2018/11/20 13:57:53","新北市新店區中興路三段160號","121.544396666667","24.9805133333333","6500600","新店區"
"231010","107-UY","2018/11/20 13:58:04","新北市新店區環河路42號","121.536878333333","24.9620716666667","6500600","新店區"
"231020","108-UY","2018/11/20 13:57:44","新北市新店區新烏路二段50巷3號","121.54813","24.9281116666667","6500600","新店區"
"231032","110-UY","2018/11/20 13:58:02","新北市新店區華城路36巷1-1號","121.527985","24.9554733333333","6500600","新店區"
"231012","187-VK","2018/11/20 13:58:04","新北市新店區中興路二段67巷16號","121.545941666667","24.971345","6500600","新店區"
"231023","KEA-2219","2018/11/20 13:58:06","新北市新店區文中路40號","121.539613333333","24.9565933333333","6500600","新店區"
"231026","256-BX","2018/11/20 13:58:00","新北市新店區環河路29巷1號","121.53668","24.961395","6500600","新店區"
"231003","268-BY","2018/11/20 13:57:53","新北市新店區中興路一段81號","121.54081","24.96186","6500600","新店區"
"231018","278-BY","2018/11/20 13:58:04","新北市新店區中央路93號","121.531606666667","24.975745","6500600","新店區"
"231015","AAD-862","2018/11/20 13:58:03","新北市新店區郵政路1巷6號","121.557321666667","24.95209","6500600","新店區"
"231038","3712-VJ","2018/11/20 13:57:54","新北市新店區安華路30巷1號","121.51955","24.9592816666667","6500600","新店區"
"231037","4716-K9","2018/11/20 13:58:01","新北市新店區安康路三段355巷16號","121.484863333333","24.9500433333333","6500600","新店區"
"231025","4715-K9","2018/11/20 13:57:49","新北市新店區中正路275巷12號","121.537318333333","24.9737983333333","6500600","新店區"
"231036","512-UM","2018/11/20 13:57:47","新北市新店區安祥路110巷30弄1號","121.473601666667","24.9565483333333","6500600","新店區"
"231013","513-UM","2018/11/20 13:58:02","新北市新店區明德路66號","121.5415","24.9795633333333","6500600","新店區"
"231034","616-UM","2018/11/20 13:57:53","新北市新店區達觀路12號","121.504575","24.940745","6500600","新店區"
"231030","619-UM","2018/11/20 13:57:50","新北市新店區安康路一段222-1號","121.522765","24.9638033333333","6500600","新店區"
"231029","897-TW","2018/11/20 13:57:52","新北市新店區安和路一段2-1號","121.517081666667","24.9645783333333","6500600","新店區"
"231006","898-TW","2018/11/20 13:57:54","新北市新店區北宜路二段225號","121.553516666667","24.9533933333333","6500600","新店區"
"231004","899-TW","2018/11/20 13:57:56","新北市新店區北新路二段115號","121.542871666667","24.9748183333333","6500600","新店區"
"231024","AKT-0513","2018/11/20 13:57:50","新北市新店區中央路151號","121.529243333333","24.972075","6500600","新店區"
"235028","005-UY","2018/11/20 13:57:52","新北市中和區泰和街30巷9號","121.499205","25.0006866666667","6500300","中和區"
"235027","006-UY","2018/11/20 13:57:51","新北市中和區中正路569號","121.486715","24.9944516666667","6500300","中和區"
"235020","096-UM","2018/11/20 13:57:57","新北市板橋區三民路二段226號","121.478873333333","25.0114983333333","6500300","中和區"
"235003","097-UM","2018/11/20 13:57:55","新北市中和區秀朗路三段179號","121.524386666667","24.9908383333333","6500300","中和區"
"235029","098-UM","2018/11/20 13:58:04","新北市中和區莊敬路33號","121.500866666667","25.0049333333333","6500300","中和區"
"235004","150-BY","2018/11/20 13:58:04","新北市中和區保健路44巷4號","121.509246666667","24.9969533333333","6500300","中和區"
"235022","151-BY","2018/11/20 13:57:51","新北市中和區員山路75號","121.48081","24.9941133333333","6500300","中和區"
"235019","183-VK","2018/11/20 13:58:00","新北市中和區中山路三段209號","121.471785","25.0063583333333","6500300","中和區"
"235002","185-VK","2018/11/20 13:57:50","新北市中和區立人街24-5號","121.518858333333","24.9942066666667","6500300","中和區"
"235013","186-VK","2018/11/20 13:57:58","新北市中和區景安路100號","121.505478333333","24.99555","6500300","中和區"
"235031","255-BX","2018/11/20 13:57:52","新北市中和區新生街268號","121.48351","24.9971683333333","6500300","中和區"
"235008","293-VK","2018/11/20 13:57:50","新北市中和區中興街161巷5弄21號","121.500746666667","24.99142","6500300","中和區"
"235036","301-VK","2018/11/20 13:57:58","新北市中和區中山路二段41號","121.504636666667","25.005055","6500300","中和區"
"235007","352-BY","2018/11/20 13:57:53","新北市中和區成功路42號","121.526035","24.9929283333333","6500300","中和區"
"235006","KEA-2878","2018/11/20 13:57:50","新北市中和區秀朗路三段10巷21弄8號","121.525196666667","24.9961216666667","6500300","中和區"
"235014","4979-A6","2018/11/20 13:57:57","新北市中和區忠孝街58巷17號","121.512338333333","24.9831216666667","6500300","中和區"
"235034","558-UM","2018/11/20 13:58:01","新北市中和區安和路177號","121.506088333333","24.9979133333333","6500300","中和區"
"235009","565-BX","2018/11/20 13:58:07","新北市中和區景新街467巷20弄130號","121.515108333333","24.9872133333333","6500300","中和區"
"235018","640-BX","2018/11/20 13:57:47","新北市中和區國光街107巷2弄32號","121.469276666667","24.9989666666667","6500300","中和區"
"235024","647-TV","2018/11/20 13:57:49","新北市中和區中山路三段124號","121.474321666667","25.0062183333333","6500300","中和區"
"235011","732-UM","2018/11/20 13:57:57","新北市中和區興南路二段54巷11弄8號","121.505501666667","24.9854183333333","6500300","中和區"
"235010","733-UM","2018/11/20 13:57:51","新北市中和區興南路二段3巷15弄3號","121.508573333333","24.98642","6500300","中和區"
"235035","783-BX","2018/11/20 13:57:55","新北市中和區立言街53號","121.488165","25.0071033333333","6500300","中和區"
"235026","800-TS","2018/11/20 13:57:52","新北市中和區中山路二段340巷52號","121.493131666667","25.00434","6500300","中和區"
"235021","801-TS","2018/11/20 13:58:01","新北市中和區民利街100巷6弄1號","121.47701","24.9984783333333","6500300","中和區"
"235005","802-TS","2018/11/20 13:57:59","新北市中和區中安街32號","121.513208333333","25.0027766666667","6500300","中和區"
"235016","805-TS","2018/11/20 13:58:02","新北市中和區興南路二段131-10號","121.50413","24.98067","6500300","中和區"
"235012","896-TW","2018/11/20 13:57:50","新北市中和區華新街47號","121.507803333333","24.98453","6500300","中和區"
"235017","900-TW","2018/11/20 13:57:59","新北市中和區壽德街20-1號","121.466288333333","24.994815","6500300","中和區"
"235015","157-BY","2018/11/20 13:57:52","新北市中和區忠孝街31巷25-2號","121.510023333333","24.98371","6500300","中和區"
"235001","AAC-213","2018/11/20 13:57:58","新北市中和區自立路99巷26號","121.523505","24.9946233333333","6500300","中和區"
"235023","AAC-215","2018/11/20 13:58:01","新北市中和區圓通路367巷18-5號","121.491861666667","24.9884716666667","6500300","中和區"
"220016","013-TV","2018/11/20 13:58:03","新北市板橋區中山路二段465巷76號","121.481208333333","25.0222433333333","6500100","板橋區"
"220013","072-UY","2018/11/20 13:58:02","新北市板橋區漢生東路321號","121.471943333333","25.0079583333333","6500100","板橋區"
"220034","073-UY","2018/11/20 13:57:55","新北市板橋區民權路308號","121.45706","25.0162383333333","6500100","板橋區"
"220105","075-UY","2018/11/20 13:57:57","新北市板橋區莊敬路86-3號","121.471508333333","25.0248133333333","6500100","板橋區"
"220017","AAD-861","2018/11/20 13:57:45","新北市板橋區大華街居安巷5號","121.458775","25.0049016666667","6500100","板橋區"
"247015","546-UM","2018/11/20 13:58:02","新北市蘆洲區光華路44號","121.4688","25.083165","6501400","蘆洲區"
"247013","339-TH","2018/11/20 13:57:53","新北市蘆洲區中正路187號","121.468536666667","25.08574","6501400","蘆洲區"
"247005","337-TH","2018/11/20 13:57:56","新北市蘆洲區永安南路二段42-1號","121.466586666667","25.0772866666667","6501400","蘆洲區"
"247019","057-VK","2018/11/20 13:57:53","新北市蘆洲區民族路422巷9弄2號","121.474011666667","25.0923","6501400","蘆洲區"
"247009","056-VK","2018/11/20 13:57:52","新北市蘆洲區集賢路224巷9號","121.482015","25.0866883333333","6501400","蘆洲區"
"247007","053-VK","2018/11/20 13:58:03","新北市蘆洲區永安北路二段12巷1號","121.481205","25.0807533333333","6501400","蘆洲區"
"247017","007-UY","2018/11/20 13:57:48","新北市蘆洲區民族路255巷12號","121.476198333333","25.0897533333333","6501400","蘆洲區"
"247003","002-UY","2018/11/20 13:58:03","新北市蘆洲區長榮路1號","121.46379","25.0820383333333","6501400","蘆洲區"
"247021","001-UY","2018/11/20 13:57:54","新北市蘆洲區中正路263巷2號","121.467401666667","25.0875083333333","6501400","蘆洲區"
"228004","212-TW","2018/11/20 13:57:58","新北市貢寮區龍崗里嵩陽街40號","121.905428333333","25.0150583333333","6502600","貢寮區"
"228005","828-UM","2018/11/20 13:54:08","新北市貢寮區美豐里土地公嶺24號","121.890923333333","25.065325","6502600","貢寮區"
"227006","282-VK","2018/11/20 13:55:29","新北市雙溪區三貂里政光路3-1號","121.850893333333","25.0630933333333","6502500","雙溪區"
"207002","749-BX","2018/11/20 13:57:39","新北市萬里區溪底里富士坪路19號","121.626363333333","25.14893","6502800","萬里區"
"207001","662-BX","2018/11/20 13:58:03","新北市萬里區磺潭里磺溪12號","121.631713333333","25.2034516666667","6502800","萬里區"
"252005","AAC-283","2018/11/20 13:57:46","新北市三芝區橫山里大坑43號","121.53519","25.2470883333333","6502100","三芝區"
"236065","105-UM","2018/11/20 13:57:47","新北市土城區金城路一段82巷1號","121.444983333333","24.9731266666667","6501300","土城區"
"236040","KED-0685","2018/11/20 13:55:03","新北市土城區中央路二段280號","121.440893333333","24.9740166666667","6501300","土城區"
"236074","166-UM","2018/11/20 13:57:56","新北市土城區永寧路32巷8號","121.429061666667","24.9607866666667","6501300","土城區"
"236029","253-BX","2018/11/20 13:57:51","新北市土城區城林路6巷80號","121.438506666667","24.979775","6501300","土城區"
"236024","269-VK","2018/11/20 13:57:59","新北市土城區中華路二段80號","121.438725","24.9757216666667","6501300","土城區"
"236013","270-VK","2018/11/20 13:58:02","新北市土城區城林路6巷80號","121.438526666667","24.979755","6501300","土城區"
"236032","271-VK","2018/11/20 13:57:59","新北市土城區城林路6巷80號","121.438478333333","24.97978","6501300","土城區"
"236017","401-BY","2018/11/20 13:57:46","新北市土城區城林路6巷80號","121.438401666667","24.9798683333333","6501300","土城區"
"236057","752-BX","2018/11/20 13:57:59","新北市土城區中央路三段226號","121.428908333333","24.9645216666667","6501300","土城區"
"236045","913-UM","2018/11/20 13:57:47","新北市土城區城林路6巷80號","121.438453333333","24.9797616666667","6501300","土城區"
"236060","915-UM","2018/11/20 13:57:57","新北市土城區城林路6巷80號","121.438423333333","24.9797716666667","6501300","土城區"
"236054","AAC-216","2018/11/20 13:57:56","新北市土城區中華路二段2號","121.438806666667","24.97986","6501300","土城區"
"221032","280-BY","2018/11/20 13:58:01","新北市汐止區仁愛路25號","121.659296666667","25.0637533333333","6501100","汐止區"
"221033","647-BX","2018/11/20 13:57:48","新北市汐止區汐萬路一段312號","121.65037","25.075475","6501100","汐止區"
"220027","145-BY","2018/11/20 13:58:00","新北市板橋區民權路260巷1弄30號","121.458691666667","25.0157616666667","6500100","板橋區"
"220028","200-UY","2018/11/20 13:57:59","新北市板橋區大觀路二段文和巷66號","121.443505","24.9985866666667","6500100","板橋區"
"220040","267-BY","2018/11/20 13:58:00","新北市板橋區雙十路二段49號","121.476506666667","25.0262483333333","6500100","板橋區"
"220004","276-BY","2018/11/20 13:58:06","新北市板橋區信義路150巷49號","121.457225","24.9917716666667","6500100","板橋區"
"220020","277-BY","2018/11/20 13:58:06","新北市板橋區篤行路一段33號","121.432031666667","24.994395","6500100","板橋區"
"220012","282-UM","2018/11/20 13:57:56","新北市板橋區板新路189號","121.46894","25.0158716666667","6500100","板橋區"
"220043","283-UM","2018/11/20 13:58:04","新北市板橋區光武街11號","121.468093333333","25.0246133333333","6500100","板橋區"
"220019","283-VK","2018/11/20 13:58:05","新北市板橋區忠孝路154巷23號","121.464366666667","25.0015983333333","6500100","板橋區"
"220029","287-VK","2018/11/20 13:58:04","新北市板橋區光華街19巷2號","121.453906666667","25.0121866666667","6500100","板橋區"
"220039","288-VK","2018/11/20 13:58:02","新北市板橋區四維路177巷4弄4號","121.463728333333","25.0262216666667","6500100","板橋區"
"220009","295-UM","2018/11/20 13:57:48","新北市板橋區富山街109巷1號","121.476185","25.0218433333333","6500100","板橋區"
"220032","296-UM","2018/11/20 13:57:58","新北市板橋區龍興街37號","121.44299","25.0004216666667","6500100","板橋區"
"220001","299-UM","2018/11/20 13:57:45","新北市板橋區中山路二段94號","121.475366666667","25.01639","6500100","板橋區"
"220023","303-R5","2018/11/20 13:57:59","新北市板橋區南興路38號","121.454588333333","25.0075333333333","6500100","板橋區"
"220010","305-R5","2018/11/20 13:57:54","新北市板橋區三民路二段245巷5號","121.479625","25.0125816666667","6500100","板橋區"
"220041","307-R5","2018/11/20 13:58:01","新北市板橋區文化路一段106號","121.46481","25.0180816666667","6500100","板橋區"
"220047","317-R6","2018/11/20 13:57:58","新北市板橋區民有街33號","121.465885","25.0254716666667","6500100","板橋區"
"220038","487-VK","2018/11/20 13:58:00","新北市板橋區文化路二段318號","121.47263","25.02982","6500100","板橋區"
"220104","560-BX","2018/11/20 13:57:57","新北市板橋區中正路379巷3弄30號","121.453166666667","25.0214616666667","6500100","板橋區"
"220052","561-BX","2018/11/20 13:57:44","新北市板橋區民生路二段121號","121.470661666667","25.018425","6500100","板橋區"
"220031","568-UM","2018/11/20 13:57:51","新北市板橋區龍興街99巷27-1號","121.443468333333","25.003385","6500100","板橋區"
"220011","609-BX","2018/11/20 13:58:01","新北市板橋區中山路二段215號","121.476608333333","25.01717","6500100","板橋區"
"220005","686-BX","2018/11/20 13:57:59","新北市板橋區館前東路80號","121.461715","25.0073616666667","6500100","板橋區"
"220025","687-BX","2018/11/20 13:57:57","新北市板橋區大觀路二段156巷75號","121.440975","25.0005183333333","6500100","板橋區"
"220042","689-BX","2018/11/20 13:57:45","新北市板橋區民生路三段54號","121.467175","25.02521","6500100","板橋區"
"220002","741-BX","2018/11/20 13:57:52","新北市板橋區重慶路93巷45號","121.463321666667","25.0059766666667","6500100","板橋區"
"220018","806-UM","2018/11/20 13:57:53","新北市板橋區四川路一段231號","121.459968333333","25.0029966666667","6500100","板橋區"
"220003","827-TW","2018/11/20 13:58:00","新北市板橋區民安街18號","121.466835","25.011585","6500100","板橋區"
"220014","829-TW","2018/11/20 13:58:05","新北市板橋區三民路二段正隆巷14號","121.477953333333","25.012935","6500100","板橋區"
"220051","830-TW","2018/11/20 13:57:51","新北市板橋區八德路二段62號","121.482073333333","25.0273483333333","6500100","板橋區"
"220045","831-TW","2018/11/20 13:57:53","新北市板橋區莒光路81號","121.471776666667","25.024185","6500100","板橋區"
"220037","833-TW","2018/11/20 13:58:06","新北市板橋區民生路二段236號","121.468391666667","25.0231516666667","6500100","板橋區"
"220022","895-R6","2018/11/20 13:58:00","新北市板橋區館前西路158-1號","121.454771666667","25.0085783333333","6500100","板橋區"
"220021","985-R7","2018/11/20 13:57:52","新北市板橋區南雅東路120號","121.453396666667","25.008725","6500100","板橋區"
"220046","AAC-210","2018/11/20 13:58:01","新北市板橋區國光路208號","121.462021666667","25.0185166666667","6500100","板橋區"
"220030","AAC-253","2018/11/20 13:58:02","新北市板橋區滿平街141號","121.429101666667","24.9881266666667","6500100","板橋區"
"235032","KEA-2873","2018/11/20 13:57:44","新北市中和區連勝街38巷16號","121.497831666667","24.9979066666667","6500300","中和區"
"235025","KEA-2875","2018/11/20 13:57:45","新北市中和區民治街134巷8號","121.474983333333","25.002065","6500300","中和區"
