"lineid","car","time","location","longitude","latitude","cityid","cityname"
"244002","410-SL","2018/11/20 15:27:09","新北市林口區粉寮路二段160巷28號","121.405181666667","25.0907116666667","6501700","林口區"
"244001","658-BX","2018/11/20 15:38:04","新北市林口區粉寮69號","121.404818333333","25.090885","6501700","林口區"
"231028","046-UY","2018/11/20 15:38:03","新北市新店區僑義路30號","121.500673333333","24.9497266666667","6500600","新店區"
"231005","106-UY","2018/11/20 15:38:05","新北市新店區民族路192號","121.536295","24.97546","6500600","新店區"
"231020","108-UY","2018/11/20 15:38:04","新北市新店區花園二路一段6號","121.55633","24.9320366666667","6500600","新店區"
"231032","110-UY","2018/11/20 15:38:02","新北市新店區雙城路31-1號","121.492548333333","24.94915","6500600","新店區"
"231012","187-VK","2018/11/20 15:37:51","新北市新店區寶元路一段109號","121.545698333333","24.9831416666667","6500600","新店區"
"231023","KEA-2219","2018/11/20 15:38:05","新北市新店區中興路一段285號","121.545326666667","24.968605","6500600","新店區"
"231003","268-BY","2018/11/20 15:37:52","新北市新店區寶高路102巷20號","121.552456666667","24.9740316666667","6500600","新店區"
"231018","278-BY","2018/11/20 15:38:03","新北市新店區中正路663巷7弄15號","121.532951666667","24.9901066666667","6500600","新店區"
"231015","AAD-862","2018/11/20 15:38:02","新北市新店區北宜路二段151-1號","121.551883333333","24.95321","6500600","新店區"
"231038","3712-VJ","2018/11/20 15:37:54","新北市新店區安康路一段351-1號","121.519393333333","24.9640933333333","6500600","新店區"
"231037","4716-K9","2018/11/20 15:38:00","新北市新店區安興路112號","121.514708333333","24.9776383333333","6500600","新店區"
"231036","512-UM","2018/11/20 15:37:46","新北市新店區薏仁坑路自強巷6號","121.49697","24.9587633333333","6500600","新店區"
"231013","513-UM","2018/11/20 15:38:02","新北市新店區永業路81巷5弄33號","121.531048333333","24.9500516666667","6500600","新店區"
"231034","616-UM","2018/11/20 15:37:53","新北市新店區玫瑰路61巷2號","121.495981666667","24.94525","6500600","新店區"
"231030","619-UM","2018/11/20 15:37:50","新北市新店區新和街107號","121.52156","24.9869916666667","6500600","新店區"
"231039","718-UY","2018/11/20 15:38:07","新北市新店區寶元路二段29號","121.54652","24.981895","6500600","新店區"
"231029","897-TW","2018/11/20 15:37:52","新北市新店區安康路三段320號","121.486783333333","24.9518766666667","6500600","新店區"
"231004","899-TW","2018/11/20 15:37:57","新北市新店區民族路108號","121.538096666667","24.9773333333333","6500600","新店區"
"241011","013-R5","2018/11/20 15:37:57","新北市三重區三和路三段1號","121.497111666667","25.0704866666667","6500200","三重區"
"241028","022-UY","2018/11/20 15:37:54","新北市三重區成功路40號","121.48946","25.05047","6500200","三重區"
"241022","060-VK","2018/11/20 15:38:06","新北市三重區重新路四段121號","121.48529","25.0521","6500200","三重區"
"241015","062-VK","2018/11/20 15:37:53","新北市三重區重新路四段121號","121.485115","25.0521316666667","6500200","三重區"
"241017","063-VK","2018/11/20 15:38:04","新北市三重區大仁街1號","121.491625","25.0635816666667","6500200","三重區"
"241024","065-VK","2018/11/20 15:37:49","新北市三重區重新路四段121號","121.484736666667","25.0524816666667","6500200","三重區"
"241026","066-VK","2018/11/20 15:38:00","新北市三重區重新路四段121號","121.484738333333","25.0525333333333","6500200","三重區"
"241003","091-VK","2018/11/20 15:38:04","新北市三重區重新路四段121號","121.484971666667","25.0519466666667","6500200","三重區"
"241016","265-UM","2018/11/20 15:37:58","新北市三重區重新路四段121號","121.485181666667","25.0522316666667","6500200","三重區"
"241013","270-UM","2018/11/20 15:37:49","新北市三重區正義北路291號","121.494931666667","25.0706266666667","6500200","三重區"
"241025","271-UM","2018/11/20 15:38:08","新北市三重區重新路四段121號","121.484778333333","25.05249","6500200","三重區"
"241007","398-BY","2018/11/20 15:38:04","新北市三重區重新路四段121號","121.4849","25.0519816666667","6500200","三重區"
"241004","475-VK","2018/11/20 15:37:48","新北市三重區重新路四段121號","121.484905","25.051935","6500200","三重區"
"241020","478-VK","2018/11/20 15:37:48","新北市三重區忠孝路二段51號","121.485508333333","25.07092","6500200","三重區"
"241014","543-UM","2018/11/20 15:37:50","新北市三重區重新路四段121號","121.485058333333","25.052135","6500200","三重區"
"241023","545-UM","2018/11/20 15:37:53","新北市三重區重新路四段121號","121.484778333333","25.0525183333333","6500200","三重區"
"241019","KEA-2593","2018/11/20 15:37:54","新北市三重區中正北路404號","121.475473333333","25.07058","6500200","三重區"
"241006","AAD-863","2018/11/20 15:38:01","新北市三重區重新路四段121號","121.48464","25.0521833333333","6500200","三重區"
"241008","887-TS","2018/11/20 15:38:07","新北市三重區重新路四段121號","121.485078333333","25.0521716666667","6500200","三重區"
"241012","941-UM","2018/11/20 15:38:03","新北市三重區正義北路110號","121.496916666667","25.0653916666667","6500200","三重區"
"241029","942-UM","2018/11/20 15:37:57","新北市三重區環河南路220-8號","121.49337","25.0527383333333","6500200","三重區"
"235054","640-BX","2018/11/20 15:38:07","新北市中和區員山路36巷16-2號","121.485035","24.99195","6500300","中和區"
"235046","733-UM","2018/11/20 15:25:48","新北市中和區員山路36巷13號","121.484156666667","24.9908683333333","6500300","中和區"
"235026","800-TS","2018/11/20 15:37:52","新北市中和區橋和路92號","121.490416666667","25.0054416666667","6500300","中和區"
"235023","AAC-215","2018/11/20 15:37:40","新北市中和區員山路11號","121.480503333333","24.983835","6500300","中和區"
"227003","400-TW","2018/11/20 15:37:54","新北市雙溪區牡丹里聖南3號","121.860038333333","25.0510033333333","6502500","雙溪區"
"236065","105-UM","2018/11/20 15:37:47","新北市土城區中央路三段140號","121.433181666667","24.9655783333333","6501300","土城區"
"236074","166-UM","2018/11/20 15:37:56","新北市土城區中央路四段183號","121.414916666667","24.9567166666667","6501300","土城區"
"236029","253-BX","2018/11/20 15:38:05","新北市土城區裕民路32巷2號","121.447698333333","24.9882516666667","6501300","土城區"
"236024","269-VK","2018/11/20 15:37:59","新北市土城區中央路一段267巷6號","121.44529","24.985125","6501300","土城區"
"236013","270-VK","2018/11/20 15:38:08","新北市土城區廣明街83號","121.454768333333","24.994195","6501300","土城區"
"236017","401-BY","2018/11/20 15:38:06","新北市土城區延吉街111巷12弄20號","121.47153","24.985385","6501300","土城區"
"236057","752-BX","2018/11/20 15:37:59","新北市土城區中央路一段158號","121.445976666667","24.9871083333333","6501300","土城區"
"236045","913-UM","2018/11/20 15:38:07","新北市中和區連城路534巷2號","121.475353333333","24.991395","6501300","土城區"
"236054","AAC-216","2018/11/20 15:37:56","新北市土城區學府路一段146號","121.45492","24.9871083333333","6501300","土城區"
