"lineid","car","time","location","longitude","latitude","cityid","cityname"
"231046","107-UY","2018/11/20 16:08:03","新北市新店區灣潭路2-4號","121.536476666667","24.95011","6500600","新店區"
"231012","187-VK","2018/11/20 16:07:51","新北市新店區安興路105號","121.515088333333","24.97813","6500600","新店區"
"231018","278-BY","2018/11/20 16:08:03","新北市新店區中正路694巷15號","121.535371666667","24.9908916666667","6500600","新店區"
"231034","616-UM","2018/11/20 16:07:53","新北市新店區如意街93號","121.495233333333","24.94708","6500600","新店區"
"241011","013-R5","2018/11/20 16:08:09","新北市三重區正義北路351號","121.493328333333","25.0717","6500200","三重區"
"241028","022-UY","2018/11/20 16:07:54","新北市三重區正義南路107號","121.498261666667","25.0586383333333","6500200","三重區"
"241022","060-VK","2018/11/20 16:08:06","新北市三重區新北大道一段7號","121.489606666667","25.0615833333333","6500200","三重區"
"241031","061-VK","2018/11/20 16:07:58","新北市三重區重新路四段121號","121.485018333333","25.052415","6500200","三重區"
"241015","062-VK","2018/11/20 16:07:53","新北市三重區成功路20巷12-3號","121.490225","25.0487883333333","6500200","三重區"
"241017","063-VK","2018/11/20 16:08:05","新北市三重區民生街80號","121.490478333333","25.0646","6500200","三重區"
"241024","065-VK","2018/11/20 16:07:50","新北市三重區力行路一段38巷6號","121.48592","25.06748","6500200","三重區"
"241026","066-VK","2018/11/20 16:08:00","新北市三重區重新路二段79號","121.497518333333","25.06155","6500200","三重區"
"241002","090-VK","2018/11/20 16:07:52","新北市三重區仁義街91號","121.4999","25.0793833333333","6500200","三重區"
"241003","091-VK","2018/11/20 16:08:04","新北市三重區仁義街241巷10號","121.496476666667","25.08311","6500200","三重區"
"241005","262-UM","2018/11/20 16:07:53","新北市三重區溪尾街305號","121.48755","25.083725","6500200","三重區"
"241016","265-UM","2018/11/20 16:07:58","新北市三重區中正北路23號","121.492353333333","25.061945","6500200","三重區"
"241009","267-UM","2018/11/20 16:08:05","新北市三重區力行路一段247號","121.482671666667","25.0707366666667","6500200","三重區"
"241018","268-UM","2018/11/20 16:07:53","新北市三重區明志街55號","121.491385","25.06395","6500200","三重區"
"241032","269-UM","2018/11/20 16:07:51","新北市三重區三陽路100巷3弄13號","121.483026666667","25.058195","6500200","三重區"
"241013","270-UM","2018/11/20 16:08:09","新北市三重區文化北路248號","121.497358333333","25.0700233333333","6500200","三重區"
"241025","271-UM","2018/11/20 16:08:08","新北市三重區忠孝路三段40巷16弄9號","121.482471666667","25.0666666666667","6500200","三重區"
"241007","398-BY","2018/11/20 16:08:04","新北市三重區慈愛街8號","121.484515","25.0783833333333","6500200","三重區"
"241004","475-VK","2018/11/20 16:08:08","新北市三重區仁愛街377巷132號","121.493561666667","25.0819266666667","6500200","三重區"
"241020","478-VK","2018/11/20 16:07:48","新北市三重區大勇街1號","121.483803333333","25.07137","6500200","三重區"
"241014","543-UM","2018/11/20 16:07:50","新北市三重區成功路20巷12-3號","121.490178333333","25.0488033333333","6500200","三重區"
"241023","545-UM","2018/11/20 16:07:54","新北市三重區力行路一段62號","121.484363333333","25.0693833333333","6500200","三重區"
"241001","547-UM","2018/11/20 16:07:56","新北市三重區自強路四段77號","121.490708333333","25.0789266666667","6500200","三重區"
"241033","557-UM","2018/11/20 16:07:52","新北市三重區重新路四段121號","121.485225","25.0522516666667","6500200","三重區"
"241019","KEA-2593","2018/11/20 16:07:54","新北市三重區自強路二段69號","121.488863333333","25.069835","6500200","三重區"
"241006","AAD-863","2018/11/20 16:08:02","新北市三重區力行路一段80號","121.484013333333","25.0695866666667","6500200","三重區"
"241008","887-TS","2018/11/20 16:08:07","新北市三重區永福街269號","121.481773333333","25.0740833333333","6500200","三重區"
"241012","941-UM","2018/11/20 16:07:50","新北市三重區文化北路132巷31號","121.497776666667","25.0666566666667","6500200","三重區"
"241029","942-UM","2018/11/20 16:07:57","新北市三重區大同南路182號","121.496821666667","25.0569916666667","6500200","三重區"
"235054","640-BX","2018/11/20 16:08:07","新北市中和區員山路36巷16-2號","121.484971666667","24.9919266666667","6500300","中和區"
"235026","800-TS","2018/11/20 16:07:52","新北市中和區建八路141號","121.490263333333","24.9986633333333","6500300","中和區"
"224007","275-VK","2018/11/20 16:08:09","新北市瑞芳區粗坑口路5號","121.761598333333","25.09824","6501200","瑞芳區"
"227009","642-TC","2018/11/20 16:07:59","新北市雙溪區三港里雙澳路57號","121.88007","25.0536216666667","6502500","雙溪區"
"227003","400-TW","2018/11/20 16:07:54","新北市雙溪區上林里內平林47號","121.833316666667","25.0304533333333","6502500","雙溪區"
"251008","181-VK","2018/11/20 16:07:57","新北市淡水區中正路一段87巷1號","121.421438333333","25.1794916666667","6501000","淡水區"
