"lineid","car","time","location","longitude","latitude","cityid","cityname"
"249005","172-UM","2018/11/20 16:48:08","新北市八里區大堀湖1-5號","121.422855","25.1549733333333","6502300","八里區"
"249004","303-UY","2018/11/20 16:47:55","新北市八里區博物館路202巷46號","121.406138333333","25.160355","6502300","八里區"
"249003","593-UM","2018/11/20 16:48:06","新北市八里區中山路二段289號","121.401558333333","25.1486466666667","6502300","八里區"
"231046","107-UY","2018/11/20 16:48:03","新北市新店區灣潭路4-1號","121.537546666667","24.9464983333333","6500600","新店區"
"241011","013-R5","2018/11/20 16:47:57","新北市三重區仁愛街53巷181號","121.500301666667","25.07289","6500200","三重區"
"241028","022-UY","2018/11/20 16:47:57","新北市三重區光興街79號","121.497738333333","25.0600066666667","6500200","三重區"
"241022","060-VK","2018/11/20 16:48:06","新北市三重區貴陽街47巷2弄9號","121.484865","25.0631416666667","6500200","三重區"
"241031","061-VK","2018/11/20 16:47:58","新北市三重區過圳街42-1號","121.488173333333","25.0598983333333","6500200","三重區"
"241015","062-VK","2018/11/20 16:47:53","新北市三重區文化北路43巷11號","121.499313333333","25.06551","6500200","三重區"
"241017","063-VK","2018/11/20 16:48:04","新北市三重區大同北路60巷24號","121.493551666667","25.0637133333333","6500200","三重區"
"241024","065-VK","2018/11/20 16:48:10","新北市三重區中正北路317巷1號","121.47408","25.0718683333333","6500200","三重區"
"241026","066-VK","2018/11/20 16:48:00","新北市三重區文化南路8-4號","121.500298333333","25.0621016666667","6500200","三重區"
"241002","090-VK","2018/11/20 16:47:52","新北市三重區仁義街241巷22號","121.496798333333","25.0830366666667","6500200","三重區"
"241003","091-VK","2018/11/20 16:48:04","新北市三重區五華街87巷42號","121.493515","25.0841733333333","6500200","三重區"
"241005","262-UM","2018/11/20 16:47:53","新北市三重區碧華街148巷17號","121.485313333333","25.0823583333333","6500200","三重區"
"241016","265-UM","2018/11/20 16:47:58","新北市三重區大同北路115巷8號","121.494065","25.064435","6500200","三重區"
"241009","267-UM","2018/11/20 16:48:05","新北市三重區三和路四段203巷282號","121.487856666667","25.081165","6500200","三重區"
"241018","268-UM","2018/11/20 16:47:51","新北市三重區安樂街71號","121.494926666667","25.069385","6500200","三重區"
"241032","269-UM","2018/11/20 16:47:51","新北市三重區新北大道一段19號","121.486705","25.061395","6500200","三重區"
"241013","270-UM","2018/11/20 16:48:09","新北市三重區仁壽街14號","121.496608333333","25.073335","6500200","三重區"
"241025","271-UM","2018/11/20 16:48:08","新北市三重區中正北路530巷27號","121.472071666667","25.0701766666667","6500200","三重區"
"241007","398-BY","2018/11/20 16:48:04","新北市三重區三和路四段157號","121.483725","25.0784383333333","6500200","三重區"
"241004","475-VK","2018/11/20 16:48:08","新北市三重區仁愛街409號","121.490803333333","25.0811433333333","6500200","三重區"
"241020","478-VK","2018/11/20 16:47:48","新北市三重區忠孝路二段34號","121.485765","25.0709633333333","6500200","三重區"
"241030","480-VK","2018/11/20 16:47:59","新北市三重區新興路8號","121.492605","25.0528333333333","6500200","三重區"
"241014","543-UM","2018/11/20 16:47:50","新北市三重區龍濱路64號","121.502511666667","25.0692","6500200","三重區"
"241023","545-UM","2018/11/20 16:47:53","新北市三重區中華路76巷31號","121.48232","25.0626483333333","6500200","三重區"
"241001","547-UM","2018/11/20 16:47:56","新北市三重區仁政街54巷31號","121.492195","25.07675","6500200","三重區"
"241033","557-UM","2018/11/20 16:47:52","新北市三重區重新路四段121號","121.485225","25.0522516666667","6500200","三重區"
"241019","KEA-2593","2018/11/20 16:47:57","新北市三重區忠孝路二段38巷20號","121.485691666667","25.069945","6500200","三重區"
"241006","AAD-863","2018/11/20 16:48:02","新北市三重區力行路二段182-3號","121.483278333333","25.077455","6500200","三重區"
"241008","887-TS","2018/11/20 16:47:56","新北市三重區永安北路一段17巷30號","121.477943333333","25.0752283333333","6500200","三重區"
"241012","941-UM","2018/11/20 16:48:10","新北市三重區仁興街11巷68號","121.501685","25.0747433333333","6500200","三重區"
"241029","942-UM","2018/11/20 16:47:56","新北市三重區中正南路201巷12號","121.492451666667","25.0540533333333","6500200","三重區"
"235054","640-BX","2018/11/20 16:48:07","新北市中和區員山路36巷16-5號","121.484923333333","24.99198","6500300","中和區"
"247016","546-UM","2018/11/20 16:48:09","新北市蘆洲區中正路69號","121.470385","25.0827833333333","6501400","蘆洲區"
"247006","337-TH","2018/11/20 16:47:49","新北市蘆洲區永安南路二段132-1號","121.462523333333","25.0785616666667","6501400","蘆洲區"
"247020","057-VK","2018/11/20 16:48:06","新北市蘆洲區民族路422巷14號","121.474155","25.0921233333333","6501400","蘆洲區"
"247010","056-VK","2018/11/20 16:48:03","新北市蘆洲區復興路323巷140號","121.48112","25.095565","6501400","蘆洲區"
"247022","001-UY","2018/11/20 16:48:10","新北市蘆洲區中正路450號","121.462581666667","25.0947433333333","6501400","蘆洲區"
"228002","663-BX","2018/11/20 16:48:08","新北市貢寮區貢寮里朝陽街120巷1號","121.90801","25.0229816666667","6502600","貢寮區"
"228003","828-UM","2018/11/20 16:48:08","新北市貢寮區貢寮里朝陽街1-2號","121.912358333333","25.02125","6502600","貢寮區"
"224006","676-BX","2018/11/20 16:48:02","新北市瑞芳區大寮路356-1號","121.784853333333","25.1032316666667","6501200","瑞芳區"
"224008","285-BY","2018/11/20 16:47:51","新北市瑞芳區傑魚坑路181-3號","121.788831666667","25.1086283333333","6501200","瑞芳區"
"224007","275-VK","2018/11/20 16:47:49","新北市瑞芳區中央路48巷162號","121.759398333333","25.1035383333333","6501200","瑞芳區"
"224009","273-VK","2018/11/20 16:47:52","新北市瑞芳區傑魚坑路134-1號","121.791618333333","25.1102566666667","6501200","瑞芳區"
"224005","271-BY","2018/11/20 16:48:03","新北市瑞芳區洞頂路99號","121.861773333333","25.120955","6501200","瑞芳區"
"227009","642-TC","2018/11/20 16:47:59","新北市雙溪區牡丹里石1-1號","121.862625","25.0478483333333","6502500","雙溪區"
"227003","400-TW","2018/11/20 16:47:54","新北市雙溪區外柑里外柑腳56號","121.807961666667","25.0178866666667","6502500","雙溪區"
"251013","KEA-2871","2018/11/20 16:47:59","新北市淡水區泉洲厝32號","121.489261666667","25.192595","6501000","淡水區"
"251016","179-VK","2018/11/20 16:48:07","新北市淡水區淡金路二段270-1號","121.446848333333","25.1885483333333","6501000","淡水區"
"251014","180-VK","2018/11/20 16:47:59","新北市淡水區淡金路四段478號","121.452435","25.22393","6501000","淡水區"
"251015","182-VK","2018/11/20 16:48:09","新北市淡水區學府路96號","121.449506666667","25.171315","6501000","淡水區"
"251012","441-VK","2018/11/20 16:48:02","新北市淡水區中正路二段31號","121.419188333333","25.1818883333333","6501000","淡水區"
"251007","577-R6","2018/11/20 16:48:02","新北市淡水區中正路20巷1號","121.437178333333","25.17309","6501000","淡水區"
"251011","650-BX","2018/11/20 16:48:08","新北市淡水區中正路二段31號","121.41932","25.1816966666667","6501000","淡水區"
"252002","178-VK","2018/11/20 16:47:55","新北市三芝區埔坪里埔頭坑78號","121.508668333333","25.2542516666667","6502100","三芝區"
"252001","292-VK","2018/11/20 16:47:58","新北市三芝區淡金路二段76-2號","121.504108333333","25.2610466666667","6502100","三芝區"
"242056","751-BX","2018/11/20 16:48:04","新北市新莊區新泰路255巷83號","121.442438333333","25.03929","6500500","新莊區"
"242029","705-TV","2018/11/20 16:48:01","新北市新莊區三和路12-16號","121.442075","25.0374033333333","6500500","新莊區"
"242007","176-VK","2018/11/20 16:47:55","新北市新莊區三和路12-21號","121.44199","25.0386433333333","6500500","新莊區"
"242015","351-TH","2018/11/20 16:47:52","新北市新莊區新泰路357巷3弄55號","121.441678333333","25.0397583333333","6500500","新莊區"
"239007","AAC-297","2018/11/20 16:47:58","新北市鶯歌區二甲路13-16號","121.34509","24.935135","6500800","鶯歌區"
"242051","280-VK","2018/11/20 16:47:58","新北市新莊區三和路12-21號","121.442056666667","25.0383166666667","6500500","新莊區"
