"lineid","car","time","location","longitude","latitude","cityid","cityname"
"249005","172-UM","2018/11/20 17:08:08","新北市八里區大堀湖28-2號","121.420398333333","25.14638","6502300","八里區"
"249001","173-UM","2018/11/20 17:07:57","新北市八里區中華路二段329號","121.401845","25.1466083333333","6502300","八里區"
"249004","303-UY","2018/11/20 17:07:55","新北市八里區忠孝路205號","121.421986666667","25.1608916666667","6502300","八里區"
"249002","305-UY","2018/11/20 17:08:04","新北市八里區米倉14-6號","121.43936","25.1499416666667","6502300","八里區"
"249003","593-UM","2018/11/20 17:08:06","新北市八里區中山路二段405號","121.397731666667","25.1466133333333","6502300","八里區"
"244007","080-UY","2018/11/20 17:08:07","新北市林口區菁埔13號","121.378315","25.0967633333333","6501700","林口區"
"244013","KEA-2802","2018/11/20 17:08:00","新北市林口區粉寮69號","121.404791666667","25.0908066666667","6501700","林口區"
"244017","485-VK","2018/11/20 17:08:01","新北市林口區粉寮69號","121.405046666667","25.090845","6501700","林口區"
"244025","837-TS","2018/11/20 17:07:49","新北市林口區粉寮路15-3號","121.398238333333","25.0805633333333","6501700","林口區"
"244021","838-TS","2018/11/20 17:07:50","新北市林口區粉寮路二段46-1號","121.403533333333","25.0870466666667","6501700","林口區"
"231046","107-UY","2018/11/20 17:08:03","新北市新店區直潭路92號","121.530886666667","24.9375983333333","6500600","新店區"
"241011","013-R5","2018/11/20 17:07:57","新北市三重區龍濱路285號","121.501078333333","25.0733583333333","6500200","三重區"
"241028","022-UY","2018/11/20 17:07:54","新北市三重區重新路三段110號","121.492316666667","25.0602683333333","6500200","三重區"
"241022","060-VK","2018/11/20 17:08:06","新北市三重區重陽路二段18巷3號","121.486513333333","25.0623916666667","6500200","三重區"
"241031","061-VK","2018/11/20 17:07:58","新北市三重區重陽路一段113巷3號","121.487516666667","25.0596616666667","6500200","三重區"
"241015","062-VK","2018/11/20 17:08:02","新北市三重區長生街4號","121.499021666667","25.0663416666667","6500200","三重區"
"241017","063-VK","2018/11/20 17:08:04","新北市三重區中正北路25巷25弄3號","121.493261666667","25.0626616666667","6500200","三重區"
"241024","065-VK","2018/11/20 17:08:10","新北市三重區中正北路165巷75號","121.479308333333","25.071055","6500200","三重區"
"241026","066-VK","2018/11/20 17:08:00","新北市三重區重新路一段112號","121.500633333333","25.0631483333333","6500200","三重區"
"241002","090-VK","2018/11/20 17:07:52","新北市三重區仁義街143巷2號","121.497371666667","25.08056","6500200","三重區"
"241003","091-VK","2018/11/20 17:08:04","新北市三重區仁義街250號","121.493731666667","25.0858616666667","6500200","三重區"
"241005","262-UM","2018/11/20 17:07:53","新北市三重區碧華街56巷1號","121.483985","25.081525","6500200","三重區"
"241016","265-UM","2018/11/20 17:08:03","新北市三重區大同北路130號","121.492846666667","25.06462","6500200","三重區"
"241009","267-UM","2018/11/20 17:08:05","新北市三重區三和路四段233號","121.481261666667","25.079955","6500200","三重區"
"241018","268-UM","2018/11/20 17:08:12","新北市三重區六張街91號","121.492666666667","25.0699133333333","6500200","三重區"
"241032","269-UM","2018/11/20 17:08:11","新北市三重區新北大道一段33號","121.4861","25.06133","6500200","三重區"
"241013","270-UM","2018/11/20 17:08:09","新北市三重區仁福街28號","121.496761666667","25.0746483333333","6500200","三重區"
"241025","271-UM","2018/11/20 17:08:08","新北市三重區中正北路560巷38號","121.471501666667","25.0682216666667","6500200","三重區"
"241007","398-BY","2018/11/20 17:08:04","新北市三重區溪尾街126巷3號","121.489078333333","25.079415","6500200","三重區"
"241004","475-VK","2018/11/20 17:07:48","新北市三重區五華街92巷3號","121.492586666667","25.0821816666667","6500200","三重區"
"241020","478-VK","2018/11/20 17:08:07","新北市三重區後竹圍街175巷2弄1號","121.485851666667","25.0721","6500200","三重區"
"241030","480-VK","2018/11/20 17:07:59","新北市三重區集成路27號","121.48899","25.0524466666667","6500200","三重區"
"241014","543-UM","2018/11/20 17:08:10","新北市三重區龍濱路154號","121.501485","25.0722566666667","6500200","三重區"
"241023","545-UM","2018/11/20 17:07:53","新北市三重區忠孝路三段84巷1號","121.48024","25.0645916666667","6500200","三重區"
"241001","547-UM","2018/11/20 17:08:04","新北市三重區仁愛街255巷87號","121.495366666667","25.0795633333333","6500200","三重區"
"241033","557-UM","2018/11/20 17:07:52","新北市三重區重新路四段121號","121.485225","25.0522516666667","6500200","三重區"
"241019","KEA-2593","2018/11/20 17:07:53","新北市三重區自強路二段74巷37號","121.487335","25.0695516666667","6500200","三重區"
"241006","AAD-863","2018/11/20 17:08:02","新北市三重區三和路四段264巷11號","121.485093333333","25.0768466666667","6500200","三重區"
"241008","887-TS","2018/11/20 17:08:07","新北市三重區力行路二段136巷17弄2號","121.481598333333","25.075625","6500200","三重區"
"241012","941-UM","2018/11/20 17:08:10","新北市三重區仁壽街158號","121.500045","25.0744983333333","6500200","三重區"
"241029","942-UM","2018/11/20 17:07:56","新北市三重區重新路四段86號","121.488033333333","25.0573766666667","6500200","三重區"
"247012","KEA-2869","2018/11/20 17:08:06","新北市蘆洲區信義路296號","121.477673333333","25.0874983333333","6501400","蘆洲區"
"235054","640-BX","2018/11/20 16:50:44","新北市中和區員山路36巷16-3號","121.484968333333","24.991905","6500300","中和區"
"247002","893-R6","2018/11/20 17:07:50","新北市蘆洲區永樂街108號","121.455696666667","25.0889183333333","6501400","蘆洲區"
"247016","546-UM","2018/11/20 17:08:09","新北市蘆洲區光華路69號","121.46816","25.0825933333333","6501400","蘆洲區"
"247024","500-BY","2018/11/20 17:08:08","新北市蘆洲區長興路146-2號","121.461983333333","25.0851566666667","6501400","蘆洲區"
"247014","339-TH","2018/11/20 17:07:58","新北市蘆洲區中央路2-1號","121.473256666667","25.082455","6501400","蘆洲區"
"247006","337-TH","2018/11/20 17:07:49","新北市蘆洲區中華街6巷24號","121.462921666667","25.08214","6501400","蘆洲區"
"247020","057-VK","2018/11/20 17:08:06","新北市蘆洲區仁愛街75號","121.471418333333","25.09386","6501400","蘆洲區"
"247010","056-VK","2018/11/20 17:08:03","新北市蘆洲區民族路26號","121.476258333333","25.0842033333333","6501400","蘆洲區"
"247008","053-VK","2018/11/20 17:08:03","新北市蘆洲區信義路59巷2號","121.475426666667","25.0800666666667","6501400","蘆洲區"
"247018","007-UY","2018/11/20 17:08:10","新北市蘆洲區復興路107號","121.476933333333","25.0877183333333","6501400","蘆洲區"
"247004","002-UY","2018/11/20 17:07:52","新北市蘆洲區長安街193巷27號","121.45961","25.0813366666667","6501400","蘆洲區"
"247022","001-UY","2018/11/20 17:08:10","新北市蘆洲區三民路175號","121.470945","25.0873433333333","6501400","蘆洲區"
"228001","212-TW","2018/11/20 17:08:06","新北市貢寮區仁理村研海街62號","121.929285","25.0346283333333","6502600","貢寮區"
"228002","663-BX","2018/11/20 17:08:08","新北市貢寮區貢寮里貢寮街2號","121.907571666667","25.01872","6502600","貢寮區"
"228003","828-UM","2018/11/20 17:08:08","新北市貢寮區福隆里東興街18-1號","121.9501","25.01812","6502600","貢寮區"
"224006","676-BX","2018/11/20 17:08:02","新北市瑞芳區大寮路101-4號","121.778165","25.0993283333333","6501200","瑞芳區"
"224008","285-BY","2018/11/20 17:07:51","新北市瑞芳區九芎橋路16號","121.832193333333","25.091595","6501200","瑞芳區"
"224007","275-VK","2018/11/20 17:08:09","新北市瑞芳區粗坑口路86巷4號","121.760675","25.099105","6501200","瑞芳區"
"224009","273-VK","2018/11/20 17:07:52","新北市瑞芳區街頂巷36號","121.843553333333","25.1105666666667","6501200","瑞芳區"
"224005","271-BY","2018/11/20 17:08:03","新北市瑞芳區鼻頭路229-1號","121.913825","25.1240383333333","6501200","瑞芳區"
"227009","642-TC","2018/11/20 17:07:59","新北市雙溪區牡丹里聖南35號","121.853141666667","25.0560666666667","6502500","雙溪區"
"227003","400-TW","2018/11/20 17:07:54","新北市雙溪區長源里柑腳13號","121.805661666667","25.014535","6502500","雙溪區"
"251005","010-UM","2018/11/20 17:07:58","新北市淡水區中正東路36-1號","121.448846666667","25.165845","6501000","淡水區"
"251013","KEA-2871","2018/11/20 17:07:59","新北市淡水區大埤頭3號","121.486601666667","25.1950183333333","6501000","淡水區"
"251016","179-VK","2018/11/20 17:08:08","新北市淡水區社厝坑3-11號","121.475218333333","25.1889083333333","6501000","淡水區"
"251014","180-VK","2018/11/20 17:07:58","新北市淡水區八里堆9號","121.464038333333","25.2233466666667","6501000","淡水區"
"251008","181-VK","2018/11/20 17:08:06","新北市淡水區樹梅坑15號","121.471101666667","25.14358","6501000","淡水區"
"251015","182-VK","2018/11/20 17:07:49","新北市淡水區忠愛街9號","121.456318333333","25.1741916666667","6501000","淡水區"
"251010","413-VK","2018/11/20 17:08:03","新北市淡水區中正路二段31號","121.419451666667","25.181515","6501000","淡水區"
"251012","441-VK","2018/11/20 17:08:02","新北市淡水區中山北路一段158號","121.444205","25.17791","6501000","淡水區"
"251004","443-VK","2018/11/20 17:07:59","新北市淡水區中正路22巷1號","121.436298333333","25.1728716666667","6501000","淡水區"
"251006","561-UM","2018/11/20 17:07:53","新北市淡水區真理街6號","121.438421666667","25.17451","6501000","淡水區"
"251009","575-R6","2018/11/20 17:07:58","新北市淡水區三民街21號","121.439146666667","25.17191","6501000","淡水區"
"251007","577-R6","2018/11/20 17:08:00","新北市淡水區民權路20號","121.4599","25.1377616666667","6501000","淡水區"
"251011","650-BX","2018/11/20 17:08:08","新北市淡水區坪頂路48號","121.457858333333","25.16243","6501000","淡水區"
"252002","178-VK","2018/11/20 17:07:55","新北市三芝區忠孝街1-18號","121.505621666667","25.253725","6502100","三芝區"
"252001","292-VK","2018/11/20 17:07:58","新北市三芝區埔頭里埔頭39-1號","121.498818333333","25.26055","6502100","三芝區"
"242058","986-R7","2018/11/20 17:07:59","新北市新莊區新泰路357巷3弄57號","121.441938333333","25.0390033333333","6500500","新莊區"
"242056","751-BX","2018/11/20 17:08:04","新北市新莊區三和路12-21號","121.442145","25.0386566666667","6500500","新莊區"
"242029","705-TV","2018/11/20 17:08:01","新北市新莊區三和路12-15號","121.442176666667","25.037295","6500500","新莊區"
"242027","615-BX","2018/11/20 17:08:11","新北市新莊區新泰路357巷3弄57號","121.44193","25.039365","6500500","新莊區"
"242044","566-BX","2018/11/20 17:08:05","新北市新莊區三和路12-21號","121.4422","25.03834","6500500","新莊區"
"242046","497-BY","2018/11/20 17:08:05","新北市新莊區新泰路357巷3弄57號","121.442141666667","25.0395633333333","6500500","新莊區"
"242009","413-TV","2018/11/20 17:07:51","新北市新莊區新泰路357巷3弄57號","121.441878333333","25.0395233333333","6500500","新莊區"
"242023","362-BY","2018/11/20 17:07:56","新北市新莊區三和路18-25號","121.44171","25.0390483333333","6500500","新莊區"
"242061","353-BY","2018/11/20 17:08:07","新北市新莊區新泰路357巷3弄57號","121.441903333333","25.039265","6500500","新莊區"
"242034","135-UY","2018/11/20 17:07:52","新北市新莊區三和路12-21號","121.441926666667","25.0388316666667","6500500","新莊區"
"242013","173-VK","2018/11/20 17:08:01","新北市新莊區三和路12-21號","121.441933333333","25.03875","6500500","新莊區"
"242019","175-VK","2018/11/20 17:07:59","新北市新莊區三和路12-21號","121.441976666667","25.0387433333333","6500500","新莊區"
"242007","176-VK","2018/11/20 17:07:55","新北市新莊區三和路12-21號","121.441961666667","25.0386083333333","6500500","新莊區"
"242017","346-TH","2018/11/20 17:08:04","新北市新莊區三和路12-21號","121.442181666667","25.0381133333333","6500500","新莊區"
"242032","348-TH","2018/11/20 17:07:48","新北市新莊區新泰路357巷3弄57號","121.442001666667","25.03958","6500500","新莊區"
"242015","351-TH","2018/11/20 17:07:52","新北市新莊區新泰路357巷3弄57號","121.441928333333","25.03956","6500500","新莊區"
"238015","755-BX","2018/11/20 17:07:51","新北市樹林區東佳路16號","121.409316666667","24.9815283333333","6500700","樹林區"
"238019","599-UM","2018/11/20 17:08:11","新北市樹林區太平路247巷26-1號","121.420366666667","24.9751283333333","6500700","樹林區"
"238018","571-TV","2018/11/20 17:08:04","新北市樹林區水源街3號","121.424891666667","24.98375","6500700","樹林區"
"238024","5061-A6","2018/11/20 17:08:03","新北市樹林區水源街213號","121.424068333333","24.9871216666667","6500700","樹林區"
"238022","KEA-2213","2018/11/20 17:08:05","新北市樹林區忠孝街51號","121.424086666667","24.9815633333333","6500700","樹林區"
"238021","KEA-2539","2018/11/20 17:08:07","新北市樹林區西圳街一段165巷20弄11號","121.395623333333","24.9601783333333","6500700","樹林區"
"238017","283-BY","2018/11/20 17:07:57","新北市樹林區大安路455號","121.415106666667","24.98805","6500700","樹林區"
"239007","AAC-297","2018/11/20 17:07:58","新北市鶯歌區中正一路53號","121.352375","24.9538916666667","6500800","鶯歌區"
"239006","891-R6","2018/11/20 17:07:52","新北市鶯歌區八德路2巷20弄2號","121.336305","24.94669","6500800","鶯歌區"
"239008","527-UM","2018/11/20 17:08:04","新北市鶯歌區尖山路57-1號","121.350081666667","24.9497616666667","6500800","鶯歌區"
"239005","526-UM","2018/11/20 17:07:53","新北市鶯歌區德昌二街73號","121.333316666667","24.9579416666667","6500800","鶯歌區"
"239001","417-VK","2018/11/20 17:08:10","新北市鶯歌區尖山路121號","121.34744","24.9490433333333","6500800","鶯歌區"
"239003","360-BY","2018/11/20 17:07:54","新北市鶯歌區八德路16號","121.330618333333","24.95547","6500800","鶯歌區"
"239002","359-BY","2018/11/20 17:07:53","新北市鶯歌區建國路149號","121.350626666667","24.95361","6500800","鶯歌區"
"239004","193-VK","2018/11/20 17:08:08","新北市鶯歌區文化路324巷11弄1號","121.350481666667","24.94515","6500800","鶯歌區"
"242002","281-VK","2018/11/20 17:07:51","新北市新莊區三和路12-21號","121.442125","25.03842","6500500","新莊區"
"242051","280-VK","2018/11/20 17:07:58","新北市新莊區三和路12-21號","121.441886666667","25.03811","6500500","新莊區"
