"lineid","car","time","location","longitude","latitude","cityid","cityname"
"234026","9371-KE","2018/11/20 17:37:58","新北市永和區中正路659號","121.5148","25.01021","6500400","永和區"
"249005","172-UM","2018/11/20 17:38:08","新北市八里區荖阡坑路34-1號","121.402745","25.12977","6502300","八里區"
"249001","173-UM","2018/11/20 17:37:56","新北市八里區龍米路二段160號","121.435031666667","25.15786","6502300","八里區"
"249004","303-UY","2018/11/20 17:37:55","新北市八里區賢二街43號","121.419078333333","25.1576616666667","6502300","八里區"
"249002","305-UY","2018/11/20 17:38:04","新北市八里區石壁腳19號","121.441711666667","25.13535","6502300","八里區"
"249003","593-UM","2018/11/20 17:38:06","新北市八里區中山路二段123號","121.405485","25.1518916666667","6502300","八里區"
"232011","375-UM","2018/11/20 17:37:51","新北市坪林區北宜路八段105號","121.70612","24.9348516666667","6502000","坪林區"
"244023","069-UM","2018/11/20 17:37:53","新北市林口區東明一街115巷13號","121.390703333333","25.07033","6501700","林口區"
"244007","080-UY","2018/11/20 17:38:07","新北市林口區林口路270號","121.386336666667","25.084625","6501700","林口區"
"244019","403-UM","2018/11/20 17:38:10","新北市林口區文化一路一段89-5號","121.371941666667","25.0703883333333","6501700","林口區"
"244013","KEA-2802","2018/11/20 17:38:00","新北市林口區中山路299號","121.3842","25.0801616666667","6501700","林口區"
"244017","485-VK","2018/11/20 17:38:03","新北市林口區忠孝路371-1號","121.369031666667","25.071805","6501700","林口區"
"244009","656-BX","2018/11/20 17:37:51","新北市林口區中北三街61號","121.384758333333","25.0855533333333","6501700","林口區"
"244011","701-TV","2018/11/20 17:37:53","新北市林口區佳林路211號","121.384213333333","25.0770833333333","6501700","林口區"
"244025","837-TS","2018/11/20 17:38:09","新北市林口區文化三路一段376-99號","121.365073333333","25.072605","6501700","林口區"
"244021","838-TS","2018/11/20 17:38:10","新北市林口區仁愛路一段211巷113號","121.397686666667","25.0743783333333","6501700","林口區"
"231046","107-UY","2018/11/20 17:38:03","新北市新店區直潭路92號","121.530911666667","24.9376016666667","6500600","新店區"
"241024","065-VK","2018/11/20 17:38:09","新北市三重區大勇街82巷15弄30號","121.48128","25.0719766666667","6500200","三重區"
"241005","262-UM","2018/11/20 17:37:53","新北市三重區永安北路二段5巷22號","121.482473333333","25.0811966666667","6500200","三重區"
"241016","265-UM","2018/11/20 17:37:57","新北市三重區正義北路32-1號","121.49749","25.0633933333333","6500200","三重區"
"241007","398-BY","2018/11/20 17:38:04","新北市三重區慈愛街141號","121.489093333333","25.0799183333333","6500200","三重區"
"241014","543-UM","2018/11/20 17:38:10","新北市三重區河邊北街72-6號","121.504368333333","25.06861","6500200","三重區"
"241023","545-UM","2018/11/20 17:37:53","新北市三重區中華路87號","121.483556666667","25.06288","6500200","三重區"
"241033","557-UM","2018/11/20 17:33:12","新北市三重區重新路四段121號","121.485225","25.0522516666667","6500200","三重區"
"241019","KEA-2593","2018/11/20 17:37:53","新北市三重區六張街255巷12號","121.487205","25.0685733333333","6500200","三重區"
"241012","941-UM","2018/11/20 17:37:50","新北市三重區仁興街39巷14-6號","121.49992","25.0760816666667","6500200","三重區"
"247012","KEA-2869","2018/11/20 17:38:06","新北市蘆洲區民權路35號","121.475876666667","25.0866033333333","6501400","蘆洲區"
"247002","893-R6","2018/11/20 17:38:10","新北市蘆洲區永平街32巷11弄34號","121.457735","25.0919333333333","6501400","蘆洲區"
"247024","500-BY","2018/11/20 17:38:08","新北市蘆洲區長樂路125-1號","121.462148333333","25.08812","6501400","蘆洲區"
"247014","339-TH","2018/11/20 17:37:58","新北市蘆洲區中山二路114號","121.47207","25.0816883333333","6501400","蘆洲區"
"247006","337-TH","2018/11/20 17:37:49","新北市蘆洲區長安街68巷29號","121.463828333333","25.0810016666667","6501400","蘆洲區"
"247020","057-VK","2018/11/20 17:38:06","新北市蘆洲區民族路464-1號","121.471833333333","25.0917083333333","6501400","蘆洲區"
"247010","056-VK","2018/11/20 17:38:03","新北市蘆洲區集賢路412號","121.479793333333","25.08142","6501400","蘆洲區"
"247008","053-VK","2018/11/20 17:38:03","新北市蘆洲區成功路1號","121.473873333333","25.077705","6501400","蘆洲區"
"247018","007-UY","2018/11/20 17:37:50","新北市蘆洲區三民路110巷53號","121.472468333333","25.088315","6501400","蘆洲區"
"247004","002-UY","2018/11/20 17:38:11","新北市蘆洲區長安街249巷29號","121.45786","25.0825916666667","6501400","蘆洲區"
"247022","001-UY","2018/11/20 17:38:10","新北市蘆洲區民族路465號","121.466975","25.0884466666667","6501400","蘆洲區"
"228001","212-TW","2018/11/20 17:38:06","新北市貢寮區仁理村仁愛路95-1號","121.92763","25.0555016666667","6502600","貢寮區"
"228002","663-BX","2018/11/20 17:38:08","新北市貢寮區福隆里龜壽谷街26號","121.952516666667","25.0090216666667","6502600","貢寮區"
"228003","828-UM","2018/11/20 17:38:08","新北市貢寮區仁理村仁和路224號","121.923896666667","25.0535616666667","6502600","貢寮區"
"224010","AGQ-8101","2018/11/20 17:37:55","新北市瑞芳區岳王路21號","121.807393333333","25.11118","6501200","瑞芳區"
"224006","676-BX","2018/11/20 17:38:05","新北市瑞芳區中山路358號","121.795673333333","25.110305","6501200","瑞芳區"
"224008","285-BY","2018/11/20 17:38:11","新北市瑞芳區瑞柑新村31號","121.829661666667","25.10711","6501200","瑞芳區"
"224009","273-VK","2018/11/20 17:38:12","新北市瑞芳區金光路374號","121.849991666667","25.1109833333333","6501200","瑞芳區"
"224005","271-BY","2018/11/20 17:38:03","新北市瑞芳區海濱路8-6號","121.83168","25.126185","6501200","瑞芳區"
"227009","642-TC","2018/11/20 17:35:40","新北市雙溪區三貂里政光路3-1號","121.850758333333","25.0633733333333","6502500","雙溪區"
"251005","010-UM","2018/11/20 17:37:58","新北市淡水區鄧公路33巷14號","121.451823333333","25.170935","6501000","淡水區"
"251002","012-UM","2018/11/20 17:37:57","新北市淡水區重建街82號","121.440001666667","25.172405","6501000","淡水區"
"251013","KEA-2871","2018/11/20 17:38:07","新北市淡水區演戲埔腳11號","121.469695","25.1947566666667","6501000","淡水區"
"251016","179-VK","2018/11/20 17:37:51","新北市淡水區埤島39-15號","121.452786666667","25.1958533333333","6501000","淡水區"
"251014","180-VK","2018/11/20 17:38:07","新北市淡水區公埔子15-1號","121.479345","25.2267466666667","6501000","淡水區"
"251008","181-VK","2018/11/20 17:38:02","新北市淡水區八勢路73巷12號","121.463551666667","25.15391","6501000","淡水區"
"251015","182-VK","2018/11/20 17:37:49","新北市淡水區三空泉17-6號","121.473941666667","25.1658683333333","6501000","淡水區"
"251010","413-VK","2018/11/20 17:38:03","新北市淡水區淡海路276號","121.420018333333","25.1883716666667","6501000","淡水區"
"251012","441-VK","2018/11/20 17:38:02","新北市淡水區北新路200巷8號","121.451756666667","25.17965","6501000","淡水區"
"251004","443-VK","2018/11/20 17:36:13","新北市淡水區中正東路二段88巷21號","121.459198333333","25.1489816666667","6501000","淡水區"
"251001","559-UM","2018/11/20 17:38:03","新北市淡水區民權路92巷35-1號","121.46212","25.1266283333333","6501000","淡水區"
"251006","561-UM","2018/11/20 17:37:59","新北市淡水區大信街30號","121.442061666667","25.1770083333333","6501000","淡水區"
"251009","575-R6","2018/11/20 17:37:58","新北市淡水區中正路32號","121.443888333333","25.16925","6501000","淡水區"
"251007","577-R6","2018/11/20 17:38:00","新北市淡水區民生路124巷30號","121.464198333333","25.13754","6501000","淡水區"
"251011","650-BX","2018/11/20 17:38:08","新北市淡水區小坪頂20-1號","121.48469","25.1576783333333","6501000","淡水區"
"251003","673-BX","2018/11/20 17:38:02","新北市淡水區中山路190號","121.44146","25.1746033333333","6501000","淡水區"
"207003","550-UM","2018/11/20 17:38:00","新北市萬里區龜吼里漁澳路26-1號","121.68587","25.1952716666667","6502800","萬里區"
"207004","225-TW","2018/11/20 17:38:07","新北市萬里區中幅里中福路43-1號","121.682256666667","25.1691933333333","6502800","萬里區"
"252002","178-VK","2018/11/20 17:37:54","新北市三芝區智成街81號","121.505013333333","25.2557233333333","6502100","三芝區"
"252001","292-VK","2018/11/20 17:37:58","新北市三芝區淡金路一段83號","121.502113333333","25.2588516666667","6502100","三芝區"
"237012","275-BY","2018/11/20 17:38:07","新北市三峽區中山路459巷163-3號","121.348915","24.9332116666667","6500900","三峽區"
"237016","649-BX","2018/11/20 17:37:52","新北市三峽區中園街237-1號","121.366851666667","24.91936","6500900","三峽區"
"237010","706-TV","2018/11/20 17:38:00","新北市三峽區中山路143號","121.36503","24.9362116666667","6500900","三峽區"
"236070","105-UM","2018/11/20 17:38:02","新北市土城區中華路二段2號","121.439651666667","24.9795383333333","6501300","土城區"
"236042","KED-0685","2018/11/20 17:37:56","新北市土城區城林路6巷80號","121.438523333333","24.9797283333333","6501300","土城區"
"236079","166-UM","2018/11/20 17:38:09","新北市土城區城林路6巷80號","121.438605","24.9797583333333","6501300","土城區"
"236014","270-VK","2018/11/20 17:37:59","新北市土城區城林路6巷80號","121.43853","24.979635","6501300","土城區"
"236038","271-VK","2018/11/20 17:37:57","新北市土城區城林路6巷80號","121.438643333333","24.97964","6501300","土城區"
"236055","AAC-216","2018/11/20 17:37:55","新北市土城區城林路6巷80號","121.438526666667","24.9796083333333","6501300","土城區"
"242037","AAC-296","2018/11/20 17:38:01","新北市新莊區後港一路147號","121.431023333333","25.0278416666667","6500500","新莊區"
"242058","986-R7","2018/11/20 17:38:06","新北市新莊區中正路671號","121.426598333333","25.0301333333333","6500500","新莊區"
"242056","751-BX","2018/11/20 17:38:07","新北市新莊區泰豐街30巷12號","121.44875","25.0320116666667","6500500","新莊區"
"242029","705-TV","2018/11/20 17:38:01","新北市新莊區復興路一段189號","121.451716666667","25.04353","6500500","新莊區"
"242027","615-BX","2018/11/20 17:37:51","新北市新莊區福壽街101號","121.45803","25.0505","6500500","新莊區"
"242025","613-BX","2018/11/20 17:37:31","新北市新莊區思源路159號","121.459546666667","25.0446066666667","6500500","新莊區"
"242044","566-BX","2018/11/20 17:38:05","新北市新莊區富國路30號","121.418828333333","25.026175","6500500","新莊區"
"242046","497-BY","2018/11/20 17:38:05","新北市新莊區福營路114號","121.436208333333","25.0325533333333","6500500","新莊區"
"242042","442-UM","2018/11/20 17:38:03","新北市新莊區中正路514巷69號","121.431741666667","25.0338816666667","6500500","新莊區"
"242054","441-UM","2018/11/20 17:37:54","新北市新莊區新樹路699巷41號","121.433051666667","25.0011383333333","6500500","新莊區"
"242039","415-TV","2018/11/20 17:38:10","新北市新莊區民安路322號","121.428981666667","25.021945","6500500","新莊區"
"242009","413-TV","2018/11/20 17:37:51","新北市新莊區昌明街14巷6弄1號","121.457383333333","25.0529816666667","6500500","新莊區"
"242023","362-BY","2018/11/20 17:37:56","新北市新莊區公園路222巷1號","121.456345","25.0405916666667","6500500","新莊區"
"242061","353-BY","2018/11/20 17:38:07","新北市新莊區瓊林南路131號","121.434558333333","25.012465","6500500","新莊區"
"242011","132-UY","2018/11/20 17:37:57","新北市新莊區中港路595號","121.451451666667","25.05262","6500500","新莊區"
"242034","135-UY","2018/11/20 17:38:04","新北市新莊區新莊路526號","121.445761666667","25.0330466666667","6500500","新莊區"
"242013","173-VK","2018/11/20 17:38:01","新北市新莊區中誠街71號","121.450586666667","25.0478833333333","6500500","新莊區"
"242019","175-VK","2018/11/20 17:37:59","新北市新莊區中港路190號","121.45483","25.0422516666667","6500500","新莊區"
"242007","176-VK","2018/11/20 17:37:55","新北市新莊區福樂街71巷1號","121.457008333333","25.0477816666667","6500500","新莊區"
"242017","346-TH","2018/11/20 17:38:04","新北市新莊區中和街30巷15號","121.448933333333","25.043905","6500500","新莊區"
"242048","347-TH","2018/11/20 17:37:57","新北市新莊區萬安街163號","121.420206666667","25.0212066666667","6500500","新莊區"
"242032","348-TH","2018/11/20 17:38:08","新北市新莊區新泰路361巷7號","121.44331","25.0430033333333","6500500","新莊區"
"242005","349-TH","2018/11/20 17:37:55","新北市新莊區自立街186號","121.456226666667","25.0454066666667","6500500","新莊區"
"242021","350-TH","2018/11/20 17:38:03","新北市新莊區中華路一段118號","121.452528333333","25.0405783333333","6500500","新莊區"
"242015","351-TH","2018/11/20 17:37:52","新北市新莊區新泰路274號","121.445853333333","25.0403066666667","6500500","新莊區"
"238015","755-BX","2018/11/20 17:38:11","新北市樹林區啟智街34號","121.420693333333","24.9931716666667","6500700","樹林區"
"238023","601-UM","2018/11/20 17:38:09","新北市樹林區三福街140號","121.40553","25.0162566666667","6500700","樹林區"
"238019","599-UM","2018/11/20 17:38:11","新北市樹林區太平路125號","121.419211666667","24.9804666666667","6500700","樹林區"
"238018","571-TV","2018/11/20 17:37:44","新北市樹林區鎮前街10號","121.426226666667","24.9934516666667","6500700","樹林區"
"238022","KEA-2213","2018/11/20 17:38:05","新北市樹林區和平街2巷20號","121.421201666667","24.980845","6500700","樹林區"
"238021","KEA-2539","2018/11/20 17:38:07","新北市樹林區柑園街一段271號","121.394208333333","24.9564","6500700","樹林區"
"238025","303-VK","2018/11/20 17:38:09","新北市樹林區保安街二段235號","121.41314","25.0046383333333","6500700","樹林區"
"238017","283-BY","2018/11/20 17:37:57","新北市樹林區三德街30巷13號","121.414648333333","25.0127233333333","6500700","樹林區"
"238026","172-UY","2018/11/20 17:38:00","新北市樹林區新興街19巷6號","121.400398333333","24.9728133333333","6500700","樹林區"
"238016","169-UY","2018/11/20 17:37:56","新北市樹林區中山路一段174號","121.421881666667","24.9889816666667","6500700","樹林區"
"239007","AAC-297","2018/11/20 17:37:58","新北市鶯歌區國光街110號","121.341403333333","24.956155","6500800","鶯歌區"
"239006","891-R6","2018/11/20 17:38:03","新北市鶯歌區鶯桃路436巷61弄2號","121.333691666667","24.966805","6500800","鶯歌區"
"239008","527-UM","2018/11/20 17:38:04","新北市鶯歌區大湖路732巷33號","121.333381666667","24.9780833333333","6500800","鶯歌區"
"239005","526-UM","2018/11/20 17:38:13","新北市鶯歌區鶯桃路二段29巷3號","121.325385","24.97222","6500800","鶯歌區"
"239001","417-VK","2018/11/20 17:38:10","新北市鶯歌區高職西街78號","121.336375","24.9419416666667","6500800","鶯歌區"
"239003","360-BY","2018/11/20 17:37:54","新北市鶯歌區鶯桃路206巷54號","121.338128333333","24.960225","6500800","鶯歌區"
"239002","359-BY","2018/11/20 17:37:53","新北市鶯歌區南雅路457號","121.346461666667","24.9540633333333","6500800","鶯歌區"
"239004","193-VK","2018/11/20 17:38:08","新北市鶯歌區三鶯路81號","121.35815","24.9430716666667","6500800","鶯歌區"
"221008","489-VK","2018/11/20 17:38:04","新北市汐止區康寧街901號","121.651481666667","25.0750466666667","6501100","汐止區"
"221010","269-BY","2018/11/20 17:37:54","新北市汐止區汐萬路一段418巷46號","121.651208333333","25.0791133333333","6501100","汐止區"
"221023","279-VK","2018/11/20 17:37:21","新北市汐止區康寧街901號","121.65166","25.0749016666667","6501100","汐止區"
"221032","280-BY","2018/11/20 17:37:59","新北市汐止區康寧街901號","121.651205","25.07507","6501100","汐止區"
"221021","299-VK","2018/11/20 17:37:56","新北市汐止區汐萬路一段256巷1號","121.651956666667","25.0748033333333","6501100","汐止區"
"221031","353-TW","2018/11/20 17:37:58","新北市汐止區康寧街901號","121.651693333333","25.0749566666667","6501100","汐止區"
"221018","753-BX","2018/11/20 17:38:11","新北市汐止區汐萬路一段312號","121.650583333333","25.0754033333333","6501100","汐止區"
"242002","281-VK","2018/11/20 17:38:01","新北市新莊區新莊路262號","121.451888333333","25.0339683333333","6500500","新莊區"
"242051","280-VK","2018/11/20 17:37:58","新北市新莊區西盛街216號","121.428071666667","25.0172983333333","6500500","新莊區"
