"lineid","car","time","location","longitude","latitude","cityid","cityname"
"234026","9371-KE","2018/11/20 17:47:58","新北市永和區和平街109巷5號","121.51057","25.0095733333333","6500400","永和區"
"249005","172-UM","2018/11/20 17:48:08","新北市八里區荖阡坑路34-1號","121.402743333333","25.1297716666667","6502300","八里區"
"249001","173-UM","2018/11/20 17:47:56","新北市八里區龍米路二段108-1號","121.443836666667","25.149455","6502300","八里區"
"249004","303-UY","2018/11/20 17:47:55","新北市八里區中華路一段309巷51-20號","121.418276666667","25.1521633333333","6502300","八里區"
"249002","305-UY","2018/11/20 17:48:04","新北市八里區龍形五街37巷3-1號","121.448718333333","25.1326016666667","6502300","八里區"
"249003","593-UM","2018/11/20 17:48:06","新北市八里區中山路二段66號","121.409173333333","25.1557866666667","6502300","八里區"
"248002","678-BX","2018/11/20 17:48:03","新北市五股區中興路二段37巷28號","121.46022","25.0749516666667","6501500","五股區"
"232011","375-UM","2018/11/20 17:47:51","新北市坪林區北宜路八段222號","121.708761666667","24.93485","6502000","坪林區"
"244023","069-UM","2018/11/20 17:47:53","新北市林口區興林路440號","121.389028333333","25.0681233333333","6501700","林口區"
"244007","080-UY","2018/11/20 17:48:07","新北市林口區林口路170號","121.387721666667","25.08256","6501700","林口區"
"244019","403-UM","2018/11/20 17:47:50","新北市林口區忠孝路542巷5號","121.373115","25.0675483333333","6501700","林口區"
"244013","KEA-2802","2018/11/20 17:48:00","新北市林口區中正路525巷7號","121.382906666667","25.0768666666667","6501700","林口區"
"244017","485-VK","2018/11/20 17:47:41","新北市林口區文化二路一段260巷1-1號","121.371445","25.07331","6501700","林口區"
"244009","656-BX","2018/11/20 17:47:51","新北市林口區竹林路564號","121.386721666667","25.0837166666667","6501700","林口區"
"244011","701-TV","2018/11/20 17:47:53","新北市林口區竹林路33號","121.386911666667","25.0775","6501700","林口區"
"244025","837-TS","2018/11/20 17:48:09","新北市林口區忠孝三路5號","121.361366666667","25.06907","6501700","林口區"
"244021","838-TS","2018/11/20 17:47:50","新北市林口區仁愛路一段61巷13號","121.398313333333","25.0695783333333","6501700","林口區"
"222002","659-BX","2018/11/20 17:47:53","新北市深坑區平埔街22巷17弄1號","121.614951666667","25.0008233333333","6501800","深坑區"
"231046","107-UY","2018/11/20 17:48:13","新北市新店區下石厝路19-2號","121.531876666667","24.9276433333333","6500600","新店區"
"231055","AKT-0513","2018/11/20 17:48:06","新北市新店區安華路1-1號","121.519495","24.960335","6500600","新店區"
"241024","065-VK","2018/11/20 17:48:09","新北市三重區力行路二段9巷4號","121.482538333333","25.0721683333333","6500200","三重區"
"241005","262-UM","2018/11/20 17:48:13","新北市三重區仁愛街519號","121.48722","25.0822433333333","6500200","三重區"
"241016","265-UM","2018/11/20 17:47:57","新北市三重區中正北路9號","121.492526666667","25.0613566666667","6500200","三重區"
"241007","398-BY","2018/11/20 17:47:44","新北市三重區國道路一段135號","121.477283333333","25.0733583333333","6500200","三重區"
"241033","557-UM","2018/11/20 17:33:12","新北市三重區重新路四段121號","121.485225","25.0522516666667","6500200","三重區"
"235063","006-UY","2018/11/20 17:48:00","新北市中和區員山路36巷16-3號","121.484905","24.9913133333333","6500300","中和區"
"235065","098-UM","2018/11/20 17:48:04","新北市中和區連城路469巷79弄30號","121.484513333333","24.9937","6500300","中和區"
"235058","151-BY","2018/11/20 17:47:52","新北市中和區員山路36巷16-2號","121.485241666667","24.99157","6500300","中和區"
"247012","KEA-2869","2018/11/20 17:48:06","新北市蘆洲區復興路132號","121.476631666667","25.087545","6501400","蘆洲區"
"235054","640-BX","2018/11/20 17:48:01","新北市中和區員山路36巷16-2號","121.48528","24.991805","6500300","中和區"
"247002","893-R6","2018/11/20 17:48:10","新北市蘆洲區環堤大道224號","121.458173333333","25.092715","6501400","蘆洲區"
"247016","546-UM","2018/11/20 17:47:49","新北市蘆洲區中正路185巷25弄8號","121.46694","25.0841716666667","6501400","蘆洲區"
"247024","500-BY","2018/11/20 17:48:08","新北市蘆洲區長樂路120巷15號","121.462585","25.089685","6501400","蘆洲區"
"247014","339-TH","2018/11/20 17:47:58","新北市蘆洲區中正路150-3號","121.469546666667","25.08562","6501400","蘆洲區"
"247006","337-TH","2018/11/20 17:48:09","新北市蘆洲區長安街22巷48號","121.465283333333","25.0804216666667","6501400","蘆洲區"
"247020","057-VK","2018/11/20 17:48:06","新北市蘆洲區民義街71巷17號","121.472683333333","25.090595","6501400","蘆洲區"
"247010","056-VK","2018/11/20 17:48:02","新北市蘆洲區民族路106號","121.478338333333","25.08522","6501400","蘆洲區"
"247008","053-VK","2018/11/20 17:48:03","新北市蘆洲區和平路29巷3號","121.472046666667","25.0789366666667","6501400","蘆洲區"
"247018","007-UY","2018/11/20 17:48:10","新北市蘆洲區復興路112號","121.476098333333","25.0871966666667","6501400","蘆洲區"
"247004","002-UY","2018/11/20 17:48:11","新北市蘆洲區長榮路166號","121.460973333333","25.08506","6501400","蘆洲區"
"247022","001-UY","2018/11/20 17:47:50","新北市蘆洲區中正路432號","121.462676666667","25.0945616666667","6501400","蘆洲區"
"228001","212-TW","2018/11/20 17:48:06","新北市貢寮區仁理村仁愛路95-1號","121.927686666667","25.0554433333333","6502600","貢寮區"
"228002","663-BX","2018/11/20 17:48:08","新北市貢寮區福隆里外隆林街14-1號","121.959103333333","25.0036216666667","6502600","貢寮區"
"228003","828-UM","2018/11/20 17:48:08","新北市貢寮區真理里美艷山街2-2號","121.927268333333","25.0596966666667","6502600","貢寮區"
"224006","676-BX","2018/11/20 17:48:01","新北市瑞芳區瑞興新村12巷1號","121.788435","25.1083116666667","6501200","瑞芳區"
"224008","285-BY","2018/11/20 17:47:51","新北市瑞芳區明燈路一段18巷1號","121.8218","25.1075216666667","6501200","瑞芳區"
"224009","273-VK","2018/11/20 17:48:12","新北市瑞芳區新山路14號","121.852243333333","25.1101783333333","6501200","瑞芳區"
"224005","271-BY","2018/11/20 17:48:03","新北市瑞芳區海濱路29-9號","121.8308","25.12431","6501200","瑞芳區"
"227009","642-TC","2018/11/20 17:35:40","新北市雙溪區三貂里政光路3-1號","121.850758333333","25.0633733333333","6502500","雙溪區"
"253006","032-BX","2018/11/20 17:48:08","新北市石門區中山路64-1號","121.567476666667","25.290455","6502200","石門區"
"208002","KEA-2872","2018/11/20 17:48:05","新北市金山區磺清路135號","121.639351666667","25.2276866666667","6502700","金山區"
"208001","761-BX","2018/11/20 17:48:05","新北市金山區磺清路135號","121.639405","25.2276016666667","6502700","金山區"
"251005","010-UM","2018/11/20 17:47:58","新北市淡水區學府路102巷15號","121.450995","25.171895","6501000","淡水區"
"251002","012-UM","2018/11/20 17:47:57","新北市淡水區中山路70-60號","121.443298333333","25.1706166666667","6501000","淡水區"
"251013","KEA-2871","2018/11/20 17:47:59","新北市淡水區泉洲厝30-3號","121.478625","25.1906766666667","6501000","淡水區"
"251016","179-VK","2018/11/20 17:37:51","新北市淡水區埤島39-15號","121.452786666667","25.1958533333333","6501000","淡水區"
"251014","180-VK","2018/11/20 17:47:58","新北市淡水區公埔子16-6號","121.481036666667","25.2245833333333","6501000","淡水區"
"251008","181-VK","2018/11/20 17:48:02","新北市淡水區八勢路一段156號","121.468133333333","25.15644","6501000","淡水區"
"251015","182-VK","2018/11/20 17:48:09","新北市淡水區糞箕湖23號","121.486253333333","25.1705583333333","6501000","淡水區"
"251010","413-VK","2018/11/20 17:48:03","新北市淡水區淡海路280巷33弄34-2號","121.418743333333","25.1886","6501000","淡水區"
"251012","441-VK","2018/11/20 17:48:02","新北市淡水區水頭43-1號","121.476838333333","25.1856916666667","6501000","淡水區"
"251004","443-VK","2018/11/20 17:44:13","新北市淡水區民權路22號","121.459441666667","25.1375816666667","6501000","淡水區"
"251001","559-UM","2018/11/20 17:48:03","新北市淡水區民權路92巷35-1號","121.462138333333","25.1266383333333","6501000","淡水區"
"251006","561-UM","2018/11/20 17:48:09","新北市淡水區中山北路一段53號","121.441253333333","25.1759716666667","6501000","淡水區"
"251009","575-R6","2018/11/20 17:47:58","新北市淡水區長興街43-1號","121.444143333333","25.1715333333333","6501000","淡水區"
"251007","577-R6","2018/11/20 17:48:00","新北市淡水區民生路16巷1-2號","121.46088","25.1375166666667","6501000","淡水區"
"251011","650-BX","2018/11/20 17:46:48","新北市淡水區吳(仔)厝10-2號","121.480951666667","25.1477833333333","6501000","淡水區"
"251003","673-BX","2018/11/20 17:48:02","新北市淡水區大忠街5巷1號","121.443065","25.1763616666667","6501000","淡水區"
"207003","550-UM","2018/11/20 17:48:00","新北市萬里區野柳里東澳路66號","121.69275","25.200925","6502800","萬里區"
"207004","225-TW","2018/11/20 17:48:07","新北市萬里區萬里里瑪鋉路79號","121.688391666667","25.1765483333333","6502800","萬里區"
"252002","178-VK","2018/11/20 17:47:54","新北市三芝區智成街47號","121.504233333333","25.2562683333333","6502100","三芝區"
"252001","292-VK","2018/11/20 17:47:58","新北市三芝區中興街一段31號","121.497375","25.2585366666667","6502100","三芝區"
"237004","KEA-2597","2018/11/20 17:47:51","新北市三峽區中山路194號","121.363578333333","24.9369216666667","6500900","三峽區"
"237009","210-TH","2018/11/20 17:47:55","新北市三峽區大勇路27號","121.367211666667","24.9363633333333","6500900","三峽區"
"237013","252-BX","2018/11/20 17:48:00","新北市三峽區愛國路2-9號","121.373561666667","24.9338266666667","6500900","三峽區"
"237012","275-BY","2018/11/20 17:48:07","新北市三峽區文化路117號","121.370238333333","24.93608","6500900","三峽區"
"237014","433-BY","2018/11/20 17:48:08","新北市三峽區文化路120巷7號","121.371021666667","24.9365433333333","6500900","三峽區"
"237006","5529-G3","2018/11/20 17:48:04","新北市三峽區介壽路二段6巷2-1號","121.38946","24.9345983333333","6500900","三峽區"
"237011","KEA-2596","2018/11/20 17:47:59","新北市三峽區文化路288號","121.364945","24.9355466666667","6500900","三峽區"
"237016","649-BX","2018/11/20 17:47:52","新北市三峽區白雞68-317號","121.392018333333","24.91003","6500900","三峽區"
"237010","706-TV","2018/11/20 17:48:00","新北市三峽區文化路232號","121.367866666667","24.9358683333333","6500900","三峽區"
"237005","AKY-6261","2018/11/20 17:47:53","新北市三峽區中山路459巷121號","121.351515","24.9352233333333","6500900","三峽區"
"236070","105-UM","2018/11/20 17:48:02","新北市土城區青雲路452號","121.459315","24.97046","6501300","土城區"
"236042","KED-0685","2018/11/20 17:47:56","新北市土城區城林路6巷80號","121.43854","24.9797266666667","6501300","土城區"
"236079","166-UM","2018/11/20 17:48:09","新北市土城區永寧路41號","121.430011666667","24.9619066666667","6501300","土城區"
"236030","253-BX","2018/11/20 17:47:55","新北市土城區城林路6巷80號","121.438665","24.97963","6501300","土城區"
"236014","270-VK","2018/11/20 17:47:59","新北市土城區城林路6巷80號","121.43855","24.9796183333333","6501300","土城區"
"236038","271-VK","2018/11/20 17:47:57","新北市土城區城林路6巷80號","121.438645","24.97963","6501300","土城區"
"236021","401-BY","2018/11/20 17:48:00","新北市土城區城林路6巷80號","121.438783333333","24.9796533333333","6501300","土城區"
"236059","752-BX","2018/11/20 17:48:08","新北市土城區中華路二段2號","121.439391666667","24.97958","6501300","土城區"
"236063","915-UM","2018/11/20 17:47:57","新北市土城區城林路6巷80號","121.438463333333","24.97975","6501300","土城區"
"236055","AAC-216","2018/11/20 17:47:55","新北市土城區城林路6巷80號","121.438541666667","24.979595","6501300","土城區"
"242037","AAC-296","2018/11/20 17:48:06","新北市新莊區後港一路103號","121.428233333333","25.0270633333333","6500500","新莊區"
"242058","986-R7","2018/11/20 17:47:59","新北市新莊區中正路700-12號","121.418551666667","25.02768","6500500","新莊區"
"242056","751-BX","2018/11/20 17:48:04","新北市新莊區瓊林路40巷29號","121.446615","25.0301566666667","6500500","新莊區"
"242029","705-TV","2018/11/20 17:48:01","新北市新莊區復興路一段29號","121.446326666667","25.041845","6500500","新莊區"
"242027","615-BX","2018/11/20 17:48:11","新北市新莊區福壽街167號","121.457966666667","25.0535733333333","6500500","新莊區"
"242025","613-BX","2018/11/20 17:46:54","新北市新莊區新北大道二段175號","121.464218333333","25.0607933333333","6500500","新莊區"
"242044","566-BX","2018/11/20 17:48:05","新北市新莊區中正路871巷9弄6號","121.418816666667","25.0269966666667","6500500","新莊區"
"242046","497-BY","2018/11/20 17:48:05","新北市新莊區建國一路80號","121.434413333333","25.0303616666667","6500500","新莊區"
"242042","442-UM","2018/11/20 17:48:03","新北市新莊區中正路614巷6弄4號","121.425646666667","25.0307283333333","6500500","新莊區"
"242054","441-UM","2018/11/20 17:47:54","新北市新莊區民安西路430號","121.429745","25.009465","6500500","新莊區"
"242039","415-TV","2018/11/20 17:48:10","新北市新莊區民安路208號","121.425808333333","25.02294","6500500","新莊區"
"242009","413-TV","2018/11/20 17:48:11","新北市新莊區昌明街40號","121.456373333333","25.0522683333333","6500500","新莊區"
"242023","362-BY","2018/11/20 17:48:09","新北市新莊區福樂街76號","121.457735","25.0466333333333","6500500","新莊區"
"242061","353-BY","2018/11/20 17:48:07","新北市新莊區瓊林南路204號","121.43411","25.0065816666667","6500500","新莊區"
"242011","132-UY","2018/11/20 17:48:06","新北市新莊區中港路683號","121.450693333333","25.05635","6500500","新莊區"
"242034","135-UY","2018/11/20 17:47:57","新北市新莊區新莊路801號","121.440831666667","25.0326683333333","6500500","新莊區"
"242013","173-VK","2018/11/20 17:48:01","新北市新莊區中誠街166巷8號","121.448105","25.047835","6500500","新莊區"
"242019","175-VK","2018/11/20 17:47:59","新北市新莊區民樂街46號","121.45797","25.04138","6500500","新莊區"
"242007","176-VK","2018/11/20 17:48:02","新北市新莊區福樂街132巷16號","121.456823333333","25.04847","6500500","新莊區"
"242017","346-TH","2018/11/20 17:48:04","新北市新莊區永安街62號","121.45114","25.0447","6500500","新莊區"
"242048","347-TH","2018/11/20 17:47:57","新北市新莊區萬安街95號","121.421011666667","25.0232816666667","6500500","新莊區"
"242032","348-TH","2018/11/20 17:48:08","新北市新莊區新泰路321巷37號","121.443018333333","25.0411733333333","6500500","新莊區"
"242005","349-TH","2018/11/20 17:47:55","新北市新莊區自立街247號","121.458656666667","25.0455883333333","6500500","新莊區"
"242021","350-TH","2018/11/20 17:48:03","新北市新莊區中華路一段66巷7號","121.45258","25.0387116666667","6500500","新莊區"
"242015","351-TH","2018/11/20 17:47:52","新北市新莊區新泰路442號","121.443365","25.0447983333333","6500500","新莊區"
"238015","755-BX","2018/11/20 17:48:11","新北市樹林區長壽街70巷1弄19號","121.421091666667","24.9945616666667","6500700","樹林區"
"238023","601-UM","2018/11/20 17:47:58","桃園市龜山區龍興街12巷3號","121.402248333333","25.0162066666667","6500700","樹林區"
"238019","599-UM","2018/11/20 17:48:11","新北市樹林區太平路96號","121.418683333333","24.97952","6500700","樹林區"
"238018","571-TV","2018/11/20 17:48:04","新北市樹林區博愛街155號","121.42552","24.9902783333333","6500700","樹林區"
"238022","KEA-2213","2018/11/20 17:48:05","新北市樹林區太順街64號","121.417826666667","24.9793183333333","6500700","樹林區"
"238021","KEA-2539","2018/11/20 17:48:07","新北市樹林區柑園街一段41號","121.403506666667","24.9601666666667","6500700","樹林區"
"238025","303-VK","2018/11/20 17:48:09","新北市樹林區三俊街88號","121.41425","25.0155633333333","6500700","樹林區"
"238017","283-BY","2018/11/20 17:47:56","新北市樹林區俊德街38號","121.415171666667","25.0140183333333","6500700","樹林區"
"238026","172-UY","2018/11/20 17:48:00","新北市樹林區新興街19巷11號","121.400785","24.97322","6500700","樹林區"
"238016","169-UY","2018/11/20 17:47:53","新北市樹林區育英街172號","121.41836","24.98957","6500700","樹林區"
"239007","AAC-297","2018/11/20 17:47:58","新北市鶯歌區鶯桃路170巷12號","121.337583333333","24.9556133333333","6500800","鶯歌區"
"239006","891-R6","2018/11/20 17:47:52","新北市鶯歌區鶯桃路413巷8號","121.331998333333","24.9641716666667","6500800","鶯歌區"
"239008","527-UM","2018/11/20 17:48:04","新北市鶯歌區香賓街7巷19號","121.336083333333","24.9793233333333","6500800","鶯歌區"
"239005","526-UM","2018/11/20 17:45:53","新北市鶯歌區鶯桃路二段14號","121.326218333333","24.972265","6500800","鶯歌區"
"239001","417-VK","2018/11/20 17:47:50","新北市鶯歌區中正三路314號","121.328293333333","24.9355516666667","6500800","鶯歌區"
"239003","360-BY","2018/11/20 17:47:54","新北市鶯歌區永吉街46巷11號","121.335296666667","24.9573633333333","6500800","鶯歌區"
"239002","359-BY","2018/11/20 17:47:53","新北市鶯歌區育智路8號","121.34499","24.9555816666667","6500800","鶯歌區"
"239004","193-VK","2018/11/20 17:48:08","新北市鶯歌區中正二路91號","121.348633333333","24.9495866666667","6500800","鶯歌區"
"221008","489-VK","2018/11/20 17:48:04","新北市汐止區康寧街901號","121.651461666667","25.0750633333333","6501100","汐止區"
"221036","130-UY","2018/11/20 17:48:02","新北市汐止區汐萬路一段158號","121.652708333333","25.0713083333333","6501100","汐止區"
"221015","131-UY","2018/11/20 17:47:52","新北市汐止區長江街101-5號","121.658903333333","25.0731266666667","6501100","汐止區"
"221010","269-BY","2018/11/20 17:47:54","新北市汐止區汐萬路二段63號","121.649235","25.0823216666667","6501100","汐止區"
"221012","278-VK","2018/11/20 17:48:11","新北市汐止區長江街101-5號","121.658868333333","25.0731233333333","6501100","汐止區"
"221023","279-VK","2018/11/20 17:47:41","新北市汐止區康寧街753巷1-1號","121.639105","25.0737683333333","6501100","汐止區"
"221032","280-BY","2018/11/20 17:47:59","新北市汐止區中興路62號","121.635218333333","25.06121","6501100","汐止區"
"221027","281-BY","2018/11/20 17:47:58","新北市汐止區汐萬路一段267號","121.650656666667","25.0742583333333","6501100","汐止區"
"221021","299-VK","2018/11/20 17:48:01","新北市汐止區大同路二段352號","121.656876666667","25.0671116666667","6501100","汐止區"
"221031","353-TW","2018/11/20 17:47:57","新北市汐止區工建路212號","121.636128333333","25.062015","6501100","汐止區"
"221035","622-UM","2018/11/20 17:47:57","新北市汐止區汐萬路一段150號","121.65272","25.07127","6501100","汐止區"
"221025","623-UM","2018/11/20 17:47:36","新北市汐止區大同路二段341-1號","121.656186666667","25.0670616666667","6501100","汐止區"
"221038","646-BX","2018/11/20 17:48:02","新北市汐止區汐萬路一段266號","121.651186666667","25.0736066666667","6501100","汐止區"
"221018","753-BX","2018/11/20 17:47:51","新北市汐止區水源路一段2號","121.656946666667","25.06718","6501100","汐止區"
"242002","281-VK","2018/11/20 17:47:58","新北市新莊區景德路192號","121.450026666667","25.03413","6500500","新莊區"
"242051","280-VK","2018/11/20 17:47:58","新北市新莊區西盛街257巷22號","121.428871666667","25.01575","6500500","新莊區"
