"lineid","car","time","location","longitude","latitude","cityid","cityname"
"234046","148-BY","2018/11/20 18:48:05","新北市永和區秀朗路二段148巷12弄16號","121.52476","25.001045","6500400","永和區"
"234081","298-R6","2018/11/20 18:48:06","新北市永和區永利路138號","121.52209","25.0028683333333","6500400","永和區"
"234038","336-UY","2018/11/20 18:47:55","新北市永和區環河東路三段56號","121.52688","25.0061233333333","6500400","永和區"
"234064","337-UY","2018/11/20 18:48:01","新北市永和區福和路1號","121.526643333333","25.0101766666667","6500400","永和區"
"234086","338-UY","2018/11/20 18:48:10","新北市永和區中正路3-1號","121.51395","24.9954516666667","6500400","永和區"
"234070","552-UM","2018/11/20 18:48:03","新北市永和區竹林路159號","121.520566666667","25.01031","6500400","永和區"
"234017","745-BX","2018/11/20 18:47:59","新北市永和區永和路二段405巷8號","121.51523","25.0174833333333","6500400","永和區"
"234030","746-BX","2018/11/20 18:48:08","新北市永和區得和路327號","121.523511666667","24.99971","6500400","永和區"
"234054","KEA-2590","2018/11/20 18:48:06","新北市永和區環河東路二段90號","121.524495","25.0106183333333","6500400","永和區"
"234013","KEA-2591","2018/11/20 18:48:10","新北市永和區保福路二段109巷23號","121.509673333333","25.01314","6500400","永和區"
"234061","AAD-866","2018/11/20 18:48:08","新北市永和區福和路61號","121.522893333333","25.0079133333333","6500400","永和區"
"234042","862-TW","2018/11/20 18:48:05","新北市永和區永貞路310號","121.511778333333","25.004905","6500400","永和區"
"234026","9371-KE","2018/11/20 18:47:58","新北市永和區自由街56號","121.51376","25.0060083333333","6500400","永和區"
"234011","9373-KE","2018/11/20 18:47:56","新北市永和區仁愛路31巷1號","121.51426","25.012995","6500400","永和區"
"249005","172-UM","2018/11/20 18:48:08","新北市八里區長道坑16-4號","121.39386","25.11717","6502300","八里區"
"249001","173-UM","2018/11/20 18:47:56","新北市八里區龍米路二段3號","121.448865","25.13909","6502300","八里區"
"248016","026-BX","2018/11/20 18:47:54","新北市五股區凌雲路一段149巷13-1號","121.448618333333","25.1008583333333","6501500","五股區"
"248006","077-UY","2018/11/20 18:47:58","新北市五股區四維路2號","121.467163333333","25.0701616666667","6501500","五股區"
"248008","095-VK","2018/11/20 18:47:56","新北市五股區中興路一段151巷53號","121.465168333333","25.0717883333333","6501500","五股區"
"248020","225-UY","2018/11/20 18:48:09","新北市五股區凌雲路三段82-1號","121.431766666667","25.11728","6501500","五股區"
"248012","247-BX","2018/11/20 18:48:03","新北市五股區成泰路二段147巷6號","121.437656666667","25.0891683333333","6501500","五股區"
"248004","677-BX","2018/11/20 18:48:09","新北市五股區民義路二段22巷2號","121.420388333333","25.0966983333333","6501500","五股區"
"248002","678-BX","2018/11/20 18:48:03","新北市五股區西雲路243號","121.449166666667","25.0977283333333","6501500","五股區"
"248010","682-TV","2018/11/20 18:48:07","新北市五股區水碓五路81號","121.430006666667","25.0719016666667","6501500","五股區"
"234023","9380-KE","2018/11/20 18:47:37","新北市永和區竹林路119巷24號","121.521166666667","25.01165","6500400","永和區"
"234077","969-R7","2018/11/20 18:48:11","新北市永和區中正路2巷29弄13號","121.513688333333","24.9940866666667","6500400","永和區"
"234067","AAC-212","2018/11/20 18:47:59","新北市永和區永和路一段22號","121.513045","25.0048416666667","6500400","永和區"
"234003","AAC-295","2018/11/20 18:48:08","新北市永和區豫溪街39號","121.516766666667","25.0098933333333","6500400","永和區"
"232011","375-UM","2018/11/20 18:48:11","新北市坪林區坪碇路71號","121.711463333333","24.9376266666667","6502000","坪林區"
"244023","069-UM","2018/11/20 18:47:53","新北市林口區文化二路二段86號","121.37858","25.0811183333333","6501700","林口區"
"244007","080-UY","2018/11/20 18:48:07","新北市林口區太平里23-3號","121.376313333333","25.1153166666667","6501700","林口區"
"244019","403-UM","2018/11/20 18:48:10","新北市林口區麗園二街3巷3-2號","121.377441666667","25.0696266666667","6501700","林口區"
"244013","KEA-2802","2018/11/20 18:48:00","新北市林口區仁愛路二段201-1號","121.377873333333","25.074705","6501700","林口區"
"244017","485-VK","2018/11/20 18:48:01","新北市林口區文化二路一段269號","121.367296666667","25.07068","6501700","林口區"
"244009","656-BX","2018/11/20 18:47:51","新北市林口區台電新村21號","121.387538333333","25.0860383333333","6501700","林口區"
"244011","701-TV","2018/11/20 18:47:53","新北市林口區仁愛路一段330-1號","121.391361666667","25.0766716666667","6501700","林口區"
"244025","837-TS","2018/11/20 18:48:09","新北市林口區忠孝一路150號","121.359808333333","25.0738433333333","6501700","林口區"
"244021","838-TS","2018/11/20 18:48:10","新北市林口區工六路19號","121.400376666667","25.0773583333333","6501700","林口區"
"243013","AAD-798","2018/11/20 18:27:53","新北市泰山區明志路三段206巷3號","121.423311666667","25.0379583333333","6501600","泰山區"
"243016","KEA-2801","2018/11/20 18:47:54","新北市泰山區明志路二段16號","121.429841666667","25.053515","6501600","泰山區"
"243015","421-VK","2018/11/20 18:47:54","新北市泰山區美寧街50號","121.430541666667","25.0644433333333","6501600","泰山區"
"243014","680-BX","2018/11/20 18:48:02","新北市泰山區犁頭窠3-1號","121.422166666667","25.0606233333333","6501600","泰山區"
"222003","436-BY","2018/11/20 18:48:03","新北市深坑區深南路56號","121.619511666667","25.009385","6501800","深坑區"
"222002","659-BX","2018/11/20 18:47:53","新北市深坑區文山路一段69號","121.626995","25.001875","6501800","深坑區"
"231041","002-UM","2018/11/20 18:47:57","新北市新店區安華路28-1號","121.51982","24.960795","6500600","新店區"
"231059","046-UY","2018/11/20 18:47:56","新北市新店區安華路28-1號","121.519688333333","24.9608983333333","6500600","新店區"
"231040","047-UY","2018/11/20 18:48:05","新北市新店區環河路64號","121.53708","24.9627483333333","6500600","新店區"
"231044","106-UY","2018/11/20 18:48:05","新北市新店區寶中路72號","121.547843333333","24.9806233333333","6500600","新店區"
"231046","107-UY","2018/11/20 18:48:03","新北市新店區直潭路25號","121.534513333333","24.9428566666667","6500600","新店區"
"231053","108-UY","2018/11/20 18:47:56","新北市新店區新烏路一段130號","121.545108333333","24.9335216666667","6500600","新店區"
"231062","110-UY","2018/11/20 18:48:05","新北市新店區安一路一段1-1號","121.519323333333","24.9612766666667","6500600","新店區"
"231048","187-VK","2018/11/20 18:47:59","新北市新店區安康路一段79巷3號","121.529965","24.9611983333333","6500600","新店區"
"231054","KEA-2219","2018/11/20 18:47:57","新北市新店區安康路一段164-1號","121.526003333333","24.9630266666667","6500600","新店區"
"231042","268-BY","2018/11/20 18:48:06","新北市新店區環河路1-2號","121.538196666667","24.9615633333333","6500600","新店區"
"231051","278-BY","2018/11/20 18:48:00","新北市新店區環河路64號","121.537026666667","24.962715","6500600","新店區"
"231050","AAD-862","2018/11/20 18:47:58","新北市新店區安康路一段122-1號","121.526978333333","24.96271","6500600","新店區"
"231058","3713-VJ","2018/11/20 18:48:08","新北市新店區北宜路一段168號","121.540375","24.9529566666667","6500600","新店區"
"231066","4716-K9","2018/11/20 18:48:00","新北市新店區安一路一段1-1號","121.519451666667","24.9614033333333","6500600","新店區"
"231056","4715-K9","2018/11/20 18:48:05","新北市新店區大同街30號","121.539058333333","24.9804666666667","6500600","新店區"
"231067","4772-VM","2018/11/20 18:47:55","新北市新店區安華路28-1號","121.519161666667","24.9606033333333","6500600","新店區"
"231065","512-UM","2018/11/20 18:48:04","新北市新店區安華路16號","121.517115","24.9581183333333","6500600","新店區"
"231049","513-UM","2018/11/20 18:47:56","新北市新店區安康路一段85號","121.529475","24.9613916666667","6500600","新店區"
"231063","616-UM","2018/11/20 18:48:02","新北市新店區安華路28-1號","121.519551666667","24.96063","6500600","新店區"
"231061","619-UM","2018/11/20 18:48:01","新北市新店區安華路28-1號","121.519661666667","24.9609233333333","6500600","新店區"
"231060","897-TW","2018/11/20 18:47:37","新北市新店區安華路28-1號","121.519716666667","24.96061","6500600","新店區"
"231045","898-TW","2018/11/20 18:48:00","新北市新店區安華路28-1號","121.51936","24.9609516666667","6500600","新店區"
"231043","899-TW","2018/11/20 18:48:09","新北市新店區安一路一段1-1號","121.519776666667","24.96206","6500600","新店區"
"231055","AKT-0513","2018/11/20 18:48:07","新北市新店區新生街10巷6號","121.540413333333","24.9663166666667","6500600","新店區"
"235066","003-UY","2018/11/20 18:48:10","新北市中和區光華街42號","121.505005","25.0038466666667","6500300","中和區"
"235064","005-UY","2018/11/20 18:48:03","新北市中和區連城路75巷6弄1號","121.49816","24.9987366666667","6500300","中和區"
"235063","006-UY","2018/11/20 18:48:00","新北市中和區連城路319巷5弄1號","121.489175","24.9953916666667","6500300","中和區"
"235056","096-UM","2018/11/20 18:48:10","新北市中和區員山路611巷5弄1號","121.477893333333","25.0111383333333","6500300","中和區"
"235039","097-UM","2018/11/20 18:47:59","新北市中和區安樂路143巷38弄1號","121.512865","24.996435","6500300","中和區"
"235065","098-UM","2018/11/20 18:48:10","新北市中和區中山路二段2巷45弄7號","121.502165","25.0067366666667","6500300","中和區"
"235058","151-BY","2018/11/20 18:48:12","新北市土城區金城路三段287巷32號","121.474905","24.9923533333333","6500300","中和區"
"235055","183-VK","2018/11/20 18:48:03","新北市中和區民生街71號","121.469293333333","25.0049966666667","6500300","中和區"
"235038","185-VK","2018/11/20 18:47:54","新北市中和區立人街12號","121.519395","24.9941833333333","6500300","中和區"
"235049","186-VK","2018/11/20 18:48:13","新北市中和區景安路177巷14號","121.505951666667","24.9942416666667","6500300","中和區"
"235067","255-BX","2018/11/20 18:48:11","新北市中和區中正路875號","121.48429","25.003985","6500300","中和區"
"235044","293-VK","2018/11/20 18:48:03","新北市中和區中興街117號","121.500038333333","24.9920733333333","6500300","中和區"
"235072","301-VK","2018/11/20 18:47:53","新北市中和區中山路二段75號","121.503791666667","25.0043566666667","6500300","中和區"
"235043","352-BY","2018/11/20 18:48:02","新北市中和區景平路19號","121.523286666667","24.99047","6500300","中和區"
"235042","KEA-2878","2018/11/20 18:48:11","新北市中和區秀朗路三段153巷4號","121.525401666667","24.9915266666667","6500300","中和區"
"235050","4979-A6","2018/11/20 18:48:03","新北市中和區忠孝街62巷42號","121.513056666667","24.9837216666667","6500300","中和區"
"235070","558-UM","2018/11/20 18:47:58","新北市中和區南山路14號","121.502025","24.9985383333333","6500300","中和區"
"235045","565-BX","2018/11/20 18:48:09","新北市中和區捷運路52-6號","121.507645","24.9905033333333","6500300","中和區"
"235054","640-BX","2018/11/20 18:48:01","新北市中和區民享街77號","121.474218333333","25.0019316666667","6500300","中和區"
"235060","647-TV","2018/11/20 18:47:53","新北市中和區中山路三段119號","121.474483333333","25.0061916666667","6500300","中和區"
"235047","732-UM","2018/11/20 18:47:59","新北市中和區興南路二段34巷71號","121.504905","24.9851166666667","6500300","中和區"
"235046","733-UM","2018/11/20 18:48:01","新北市中和區仁愛街36巷44號","121.511375","24.9862533333333","6500300","中和區"
"235062","800-TS","2018/11/20 18:47:54","新北市中和區中山路二段312巷45弄1號","121.494933333333","25.004435","6500300","中和區"
"235057","801-TS","2018/11/20 18:48:10","新北市中和區民安街42巷34弄1號","121.4793","25.001395","6500300","中和區"
"235041","802-TS","2018/11/20 18:48:07","新北市中和區中安街178巷3弄5-2號","121.510963333333","24.998895","6500300","中和區"
"235052","805-TS","2018/11/20 18:48:11","新北市中和區興南路二段399巷98弄11號","121.500001666667","24.977385","6500300","中和區"
"235048","896-TW","2018/11/20 18:48:09","新北市中和區華新街13號","121.507548333333","24.9850716666667","6500300","中和區"
"235053","900-TW","2018/11/20 18:48:03","新北市中和區華福街33號","121.466115","24.99679","6500300","中和區"
"235051","157-BY","2018/11/20 18:48:01","新北市中和區華新街109巷11弄2-4號","121.508788333333","24.9795733333333","6500300","中和區"
"235037","AAC-213","2018/11/20 18:47:56","新北市中和區秀朗路三段175巷7號","121.525035","24.991535","6500300","中和區"
"235059","AAC-215","2018/11/20 18:48:01","新北市中和區錦和路408號","121.491103333333","24.9897833333333","6500300","中和區"
"220068","013-TV","2018/11/20 18:48:09","新北市板橋區民生路二段89-6號","121.470661666667","25.0187816666667","6500100","板橋區"
"220065","072-UY","2018/11/20 18:48:03","新北市板橋區民族路151巷52號","121.470083333333","25.00844","6500100","板橋區"
"220086","073-UY","2018/11/20 18:47:56","新北市板橋區大智街62號","121.454168333333","25.01547","6500100","板橋區"
"220106","075-UY","2018/11/20 18:48:06","新北市板橋區民生路二段161巷9號","121.470181666667","25.01961","6500100","板橋區"
"220069","AAD-861","2018/11/20 18:47:56","新北市板橋區縣民大道一段96-1號","121.456418333333","25.005025","6500100","板橋區"
"226004","205-ST","2018/11/20 18:48:07","新北市平溪區平溪里三坑路38號","121.733633333333","25.0314983333333","6502400","平溪區"
"228001","212-TW","2018/11/20 18:48:06","新北市貢寮區仁理村研海街12-1號","121.923761666667","25.0515983333333","6502600","貢寮區"
"228002","663-BX","2018/11/20 18:48:08","新北市貢寮區福隆里東興街6-11號","121.950748333333","25.0210666666667","6502600","貢寮區"
"228003","828-UM","2018/11/20 18:48:08","新北市貢寮區和美里龍洞街40號","121.913996666667","25.1122783333333","6502600","貢寮區"
"224006","676-BX","2018/11/20 18:48:01","新北市瑞芳區民生街19號","121.806","25.1075133333333","6501200","瑞芳區"
"224008","285-BY","2018/11/20 18:48:11","新北市瑞芳區裕民新城6號","121.801546666667","25.1119083333333","6501200","瑞芳區"
"224007","275-VK","2018/11/20 18:48:09","新北市瑞芳區大埔路東泰新村1號","121.761345","25.10116","6501200","瑞芳區"
"224009","273-VK","2018/11/20 18:47:52","新北市瑞芳區祈堂路53-1號","121.859558333333","25.1104433333333","6501200","瑞芳區"
"224005","271-BY","2018/11/20 18:48:02","新北市瑞芳區濱二路71-1號","121.829305","25.1202833333333","6501200","瑞芳區"
"227009","642-TC","2018/11/20 18:48:04","新北市雙溪區牡丹里下坑11號","121.851038333333","25.05619","6502500","雙溪區"
"227003","400-TW","2018/11/20 18:47:58","新北市雙溪區平林里梅竹蹊17號","121.861978333333","25.03584","6502500","雙溪區"
"253006","032-BX","2018/11/20 18:48:08","新北市石門區下員坑15號","121.511633333333","25.2850083333333","6502200","石門區"
"253005","295-VK","2018/11/20 18:48:02","新北市石門區中山路28-3號","121.565691666667","25.2898766666667","6502200","石門區"
"222001","KEA-2212","2018/11/20 18:48:11","新北市深坑區松柏街37巷14號","121.637778333333","25.0119016666667","6501800","深坑區"
"208002","KEA-2872","2018/11/20 18:48:05","新北市金山區信義路66號","121.635688333333","25.2189216666667","6502700","金山區"
"208003","665-BX","2018/11/20 18:48:00","新北市金山區中山路391號","121.63355","25.2251383333333","6502700","金山區"
"208001","761-BX","2018/11/20 18:48:05","新北市金山區文化三路66巷1號","121.634171666667","25.2256266666667","6502700","金山區"
"251002","012-UM","2018/11/20 18:47:57","新北市淡水區學府路39號","121.447976666667","25.1690016666667","6501000","淡水區"
"251013","KEA-2871","2018/11/20 18:47:58","新北市淡水區頂田寮路697號","121.474661666667","25.21598","6501000","淡水區"
"251016","179-VK","2018/11/20 18:48:02","新北市淡水區下圭柔山71-3號","121.447021666667","25.2061816666667","6501000","淡水區"
"251014","180-VK","2018/11/20 18:47:58","新北市淡水區崙頂3號","121.490071666667","25.2240616666667","6501000","淡水區"
"251015","182-VK","2018/11/20 18:48:09","新北市淡水區糞箕湖22號","121.486006666667","25.17068","6501000","淡水區"
"251010","413-VK","2018/11/20 18:48:03","新北市淡水區沙崙路9號","121.421061666667","25.1813066666667","6501000","淡水區"
"251012","441-VK","2018/11/20 18:48:02","新北市淡水區新興街68號","121.441638333333","25.1801633333333","6501000","淡水區"
"251001","559-UM","2018/11/20 18:48:05","新北市淡水區自強路108-17號","121.461681666667","25.1310266666667","6501000","淡水區"
"251007","577-R6","2018/11/20 18:48:00","新北市淡水區中正東路二段161巷11弄16號","121.461375","25.1462483333333","6501000","淡水區"
"251011","650-BX","2018/11/20 18:48:08","新北市淡水區學府路41號","121.447881666667","25.169155","6501000","淡水區"
"251003","673-BX","2018/11/20 18:48:02","新北市淡水區中山北路一段186巷27弄1-1號","121.446175","25.1789166666667","6501000","淡水區"
"207003","550-UM","2018/11/20 18:48:00","新北市萬里區大鵬里頂社2-1號","121.660341666667","25.2072183333333","6502800","萬里區"
"207004","225-TW","2018/11/20 18:48:07","新北市萬里區萬里里獅頭路23號","121.693266666667","25.1782016666667","6502800","萬里區"
"252002","178-VK","2018/11/20 18:47:54","新北市三芝區中正路一段112號","121.504811666667","25.2563966666667","6502100","三芝區"
"252003","249-BX","2018/11/20 18:48:05","新北市三芝區後厝里大片頭108號","121.458446666667","25.2427383333333","6502100","三芝區"
"252001","292-VK","2018/11/20 18:47:57","新北市三芝區中正路三段9號","121.502896666667","25.2539633333333","6502100","三芝區"
"237004","KEA-2597","2018/11/20 18:48:11","新北市三峽區有木194號","121.447943333333","24.8447533333333","6500900","三峽區"
"237007","153-BY","2018/11/20 18:48:11","新北市三峽區中正路二段399號","121.36494","24.907515","6500900","三峽區"
"237013","252-BX","2018/11/20 18:48:00","新北市三峽區大同路48巷17弄8-1號","121.376713333333","24.92909","6500900","三峽區"
"237012","275-BY","2018/11/20 18:48:07","新北市樹林區佳園路三段488號","121.382661666667","24.9440516666667","6500900","三峽區"
"237008","302-VK","2018/11/20 18:48:06","新北市三峽區白雞33-60號","121.370895","24.913125","6500900","三峽區"
"237014","433-BY","2018/11/20 18:48:08","新北市三峽區隆恩街158巷68號","121.364986666667","24.9445866666667","6500900","三峽區"
"237006","5529-G3","2018/11/20 18:48:04","新北市三峽區溪東路233巷2弄1號","121.406961666667","24.9333983333333","6500900","三峽區"
"237011","KEA-2596","2018/11/20 18:47:59","新北市三峽區橫溪路8號","121.396041666667","24.9360783333333","6500900","三峽區"
"237016","649-BX","2018/11/20 18:48:12","新北市三峽區竹崙路60號","121.432086666667","24.9194116666667","6500900","三峽區"
"237010","706-TV","2018/11/20 18:48:12","新北市三峽區復興路277號","121.36625","24.9388616666667","6500900","三峽區"
"237005","AKY-6261","2018/11/20 18:47:53","新北市三峽區中山路459巷121號","121.351511666667","24.93523","6500900","三峽區"
"236070","105-UM","2018/11/20 18:48:02","新北市土城區延和路21巷43號","121.46356","24.98927","6501300","土城區"
"236042","KED-0685","2018/11/20 18:47:56","新北市土城區裕民路92巷25弄1號","121.449646666667","24.9859066666667","6501300","土城區"
"236079","166-UM","2018/11/20 18:48:09","新北市土城區中央路四段67巷26號","121.417691666667","24.95737","6501300","土城區"
"236030","253-BX","2018/11/20 18:47:55","新北市土城區忠義路26巷25號","121.43961","24.9694916666667","6501300","土城區"
"236026","269-VK","2018/11/20 18:48:09","新北市土城區光明街43號","121.442221666667","24.973795","6501300","土城區"
"236014","270-VK","2018/11/20 18:47:59","新北市土城區清水路235巷1弄2號","121.461121666667","24.9830783333333","6501300","土城區"
"236038","271-VK","2018/11/20 18:47:57","新北市土城區明德路一段235巷6號","121.463036666667","24.9780233333333","6501300","土城區"
"236021","401-BY","2018/11/20 18:48:00","新北市土城區延安街35巷1號","121.468111666667","24.9844366666667","6501300","土城區"
"236059","752-BX","2018/11/20 18:48:08","新北市土城區和平路51-1號","121.44348","24.971925","6501300","土城區"
"236049","913-UM","2018/11/20 18:47:53","新北市土城區青雲路96號","121.45933","24.986555","6501300","土城區"
"236063","915-UM","2018/11/20 18:47:57","新北市土城區延壽路13巷5號","121.470896666667","24.9903816666667","6501300","土城區"
"236055","AAC-216","2018/11/20 18:47:55","新北市土城區裕民路157號","121.45231","24.9858566666667","6501300","土城區"
"242058","986-R7","2018/11/20 18:47:59","新北市新莊區中正路887-1號","121.416918333333","25.0246566666667","6500500","新莊區"
"242027","615-BX","2018/11/20 18:29:40","新北市新莊區新泰路357巷3弄57號","121.442093333333","25.0392533333333","6500500","新莊區"
"242054","441-UM","2018/11/20 18:48:14","新北市樹林區環河路600-1號","121.40381","24.9692933333333","6500500","新莊區"
"238023","601-UM","2018/11/20 18:47:56","新北市樹林區工興街14巷1號","121.39878","25.01377","6500700","樹林區"
"238019","599-UM","2018/11/20 18:48:11","新北市樹林區中華路190-6號","121.410606666667","24.9807033333333","6500700","樹林區"
"238024","5061-A6","2018/11/20 18:48:03","新北市樹林區八德街450-1號","121.40056","24.9702866666667","6500700","樹林區"
"238022","KEA-2213","2018/11/20 18:48:05","新北市樹林區中華路379巷78弄16號","121.412951666667","24.9770016666667","6500700","樹林區"
"238025","303-VK","2018/11/20 18:48:09","新北市樹林區中山路三段22號","121.395663333333","24.9729533333333","6500700","樹林區"
"238017","283-BY","2018/11/20 18:47:56","新北市樹林區光興街83-8號","121.409863333333","25.0026666666667","6500700","樹林區"
"238026","172-UY","2018/11/20 18:48:00","新北市樹林區信和街2巷1號","121.38972","24.9709683333333","6500700","樹林區"
"238016","169-UY","2018/11/20 18:47:53","新北市樹林區八德街1號","121.417581666667","24.9849883333333","6500700","樹林區"
"239007","AAC-297","2018/11/20 18:47:58","新北市鶯歌區中正一路建德巷38號","121.364506666667","24.9578066666667","6500800","鶯歌區"
"239006","891-R6","2018/11/20 18:48:12","新北市鶯歌區鶯桃路296巷48-2號","121.335935","24.96125","6500800","鶯歌區"
"239008","527-UM","2018/11/20 18:48:04","新北市鶯歌區國際二路20巷17號","121.337056666667","24.9754116666667","6500800","鶯歌區"
"239005","526-UM","2018/11/20 18:47:52","新北市鶯歌區大湖路361巷4號","121.330733333333","24.97779","6500800","鶯歌區"
"239001","417-VK","2018/11/20 18:48:10","新北市鶯歌區鶯桃路24號","121.341885","24.9522883333333","6500800","鶯歌區"
"239003","360-BY","2018/11/20 18:47:54","新北市鶯歌區鶯桃路658巷47-1號","121.33026","24.9699316666667","6500800","鶯歌區"
"239002","359-BY","2018/11/20 18:47:53","新北市鶯歌區中正一路187號","121.353335","24.95704","6500800","鶯歌區"
"239004","193-VK","2018/11/20 18:48:08","新北市鶯歌區中正三路318巷39號","121.327136666667","24.936595","6500800","鶯歌區"
"221008","489-VK","2018/11/20 18:48:04","新北市汐止區康寧街901號","121.651393333333","25.0750266666667","6501100","汐止區"
"221036","130-UY","2018/11/20 18:48:02","新北市汐止區忠孝東路314巷33號","121.664435","25.0680083333333","6501100","汐止區"
"221015","131-UY","2018/11/20 18:47:52","新北市汐止區吉祥街1巷2號","121.667881666667","25.079915","6501100","汐止區"
"221010","269-BY","2018/11/20 18:47:54","新北市汐止區汐萬路三段213-1號","121.642686666667","25.1008716666667","6501100","汐止區"
"221012","278-VK","2018/11/20 18:48:11","新北市汐止區康寧街901號","121.651553333333","25.07495","6501100","汐止區"
"221023","279-VK","2018/11/20 18:47:21","新北市汐止區汐萬路一段256巷3號","121.652435","25.07458","6501100","汐止區"
"221032","280-BY","2018/11/20 18:47:59","新北市汐止區橫科路40-2號","121.620856666667","25.0504433333333","6501100","汐止區"
"221027","281-BY","2018/11/20 18:47:58","新北市汐止區康寧街901號","121.651488333333","25.0749716666667","6501100","汐止區"
"221029","298-VK","2018/11/20 18:48:06","新北市汐止區樟樹一路93號","121.642165","25.0634883333333","6501100","汐止區"
"221021","299-VK","2018/11/20 18:47:56","新北市汐止區汐萬路一段167號","121.652736666667","25.0709283333333","6501100","汐止區"
"221031","353-TW","2018/11/20 18:47:57","新北市汐止區福德一路300巷2弄1號","121.63104","25.0636366666667","6501100","汐止區"
"221035","622-UM","2018/11/20 18:47:54","新北市汐止區中正路307號","121.65606","25.06781","6501100","汐止區"
"221025","623-UM","2018/11/20 18:47:56","新北市汐止區仁愛路87號","121.661526666667","25.0629883333333","6501100","汐止區"
"221038","646-BX","2018/11/20 18:48:01","新北市汐止區汐萬路一段312號","121.650696666667","25.075245","6501100","汐止區"
"221002","707-TV","2018/11/20 18:48:01","新北市汐止區環河街189巷5號","121.627743333333","25.0547266666667","6501100","汐止區"
"221018","753-BX","2018/11/20 18:48:10","新北市汐止區茄苳路70號","121.666731666667","25.07063","6501100","汐止區"
"220079","145-BY","2018/11/20 18:47:59","新北市板橋區民權路202巷4弄2號","121.459693333333","25.0143116666667","6500100","板橋區"
"220080","200-UY","2018/11/20 18:48:01","新北市板橋區大觀路二段365巷13號","121.441105","24.9980433333333","6500100","板橋區"
"224002","257-TC","2018/11/20 18:48:00","新北市瑞芳區傑魚坑路311-1號","121.79457","25.1074683333333","6501200","瑞芳區"
"220056","276-BY","2018/11/20 18:48:11","新北市板橋區四川路二段41號","121.454096666667","24.9954483333333","6500100","板橋區"
"220072","277-BY","2018/11/20 18:48:02","新北市板橋區大觀路三段36巷76號","121.434515","24.9973983333333","6500100","板橋區"
"220064","282-UM","2018/11/20 18:48:09","新北市板橋區民生路二段36-1號","121.472151666667","25.01676","6500100","板橋區"
"220094","283-UM","2018/11/20 18:47:58","新北市板橋區民生路二段161巷5號","121.470198333333","25.0197016666667","6500100","板橋區"
"220071","283-VK","2018/11/20 18:48:06","新北市板橋區忠孝路176巷40號","121.465116666667","25.0016433333333","6500100","板橋區"
"220081","287-VK","2018/11/20 18:48:08","新北市板橋區光華街13巷19號","121.453385","25.0112883333333","6500100","板橋區"
"220090","288-VK","2018/11/20 18:48:02","新北市板橋區民生路二段161巷5號","121.47028","25.0197283333333","6500100","板橋區"
"220061","295-UM","2018/11/20 18:47:56","新北市板橋區民生路二段120號","121.470581666667","25.019575","6500100","板橋區"
"220084","296-UM","2018/11/20 18:48:01","新北市板橋區大觀路二段174巷102弄19號","121.44166","25.00122","6500100","板橋區"
"220053","299-UM","2018/11/20 18:48:01","新北市板橋區民生路二段123號","121.470603333333","25.0186","6500100","板橋區"
"220075","303-R5","2018/11/20 18:48:04","新北市板橋區館前西路263號","121.454003333333","25.008655","6500100","板橋區"
"220062","305-R5","2018/11/20 18:48:04","新北市板橋區觀光街2號","121.472411666667","25.0153466666667","6500100","板橋區"
"220092","307-R5","2018/11/20 18:48:08","新北市板橋區民生路二段120號","121.470641666667","25.0195066666667","6500100","板橋區"
"220098","317-R6","2018/11/20 18:48:02","新北市板橋區民生路二段120號","121.470385","25.0197283333333","6500100","板橋區"
"220035","560-BX","2018/11/20 18:48:09","新北市板橋區中正路325巷5弄7號","121.453698333333","25.019025","6500100","板橋區"
"220103","561-BX","2018/11/20 18:48:07","新北市板橋區民生路二段161巷1號","121.470088333333","25.0197883333333","6500100","板橋區"
"220083","568-UM","2018/11/20 18:47:50","新北市板橋區僑中二街96號","121.446206666667","25.0085866666667","6500100","板橋區"
"220063","609-BX","2018/11/20 18:48:07","新北市板橋區民生路二段121號","121.470686666667","25.0184516666667","6500100","板橋區"
"220057","686-BX","2018/11/20 18:47:57","新北市板橋區華東街328號","121.452773333333","25.0034016666667","6500100","板橋區"
"220077","687-BX","2018/11/20 18:47:53","新北市板橋區龍興街101巷2號","121.444481666667","25.0032466666667","6500100","板橋區"
"220093","689-BX","2018/11/20 18:48:07","新北市板橋區民生路二段161巷1號","121.470158333333","25.0201166666667","6500100","板橋區"
"220054","741-BX","2018/11/20 18:48:00","新北市板橋區館前東路21號","121.460253333333","25.007215","6500100","板橋區"
"220070","806-UM","2018/11/20 18:47:58","新北市板橋區縣民大道一段112號","121.457155","25.00583","6500100","板橋區"
"220055","827-TW","2018/11/20 18:48:08","新北市板橋區館前西路6號","121.45868","25.0076016666667","6500100","板橋區"
"220067","829-TW","2018/11/20 18:47:56","新北市板橋區中山路二段90巷47弄16號","121.477118333333","25.0149266666667","6500100","板橋區"
"220088","833-TW","2018/11/20 18:47:57","新北市板橋區民生路二段161巷1號","121.470038333333","25.01999","6500100","板橋區"
"220074","895-R6","2018/11/20 18:47:58","新北市板橋區府中路29號","121.458903333333","25.0088733333333","6500100","板橋區"
"220073","985-R7","2018/11/20 18:48:13","新北市板橋區南雅西路二段2-6號","121.45351","25.009005","6500100","板橋區"
"220097","AAC-210","2018/11/20 18:47:13","新北市板橋區民生路二段120號","121.47052","25.01987","6500100","板橋區"
"220082","AAC-253","2018/11/20 18:48:12","新北市板橋區篤行路三段玉平巷68弄5號","121.427695","24.9860316666667","6500100","板橋區"
"235068","KEA-2873","2018/11/20 18:47:59","新北市中和區中正路167巷1-1號","121.498223333333","24.9931883333333","6500300","中和區"
"235061","KEA-2875","2018/11/20 18:47:51","新北市中和區民享街28號","121.473898333333","25.003555","6500300","中和區"
