"lineid","car","time","location","longitude","latitude","cityid","cityname"
"234046","148-BY","2018/11/20 19:08:05","新北市永和區永元路18巷38弄1號","121.52399","25.00016","6500400","永和區"
"234007","207-UY","2018/11/20 19:08:12","新北市永和區中山路一段223號","121.508105","25.0079566666667","6500400","永和區"
"234081","298-R6","2018/11/20 19:08:06","新北市永和區福和路57巷14弄1號","121.52274","25.006925","6500400","永和區"
"234038","336-UY","2018/11/20 19:07:55","新北市永和區民樂街90巷2號","121.527313333333","24.9975316666667","6500400","永和區"
"234064","337-UY","2018/11/20 19:08:12","新北市永和區秀朗路一段237號","121.52027","25.0030183333333","6500400","永和區"
"234086","338-UY","2018/11/20 19:08:10","新北市永和區永貞路101號","121.517975","25.004335","6500400","永和區"
"234070","552-UM","2018/11/20 19:08:03","新北市永和區豫溪街137巷1弄22號","121.51852","25.010445","6500400","永和區"
"234017","745-BX","2018/11/20 19:08:10","新北市永和區忠孝街19號","121.51422","25.0156366666667","6500400","永和區"
"234030","746-BX","2018/11/20 19:08:08","新北市永和區四維街105號","121.523881666667","24.998245","6500400","永和區"
"234054","KEA-2590","2018/11/20 19:08:10","新北市永和區中興街133巷16號","121.518288333333","25.0125666666667","6500400","永和區"
"234013","KEA-2591","2018/11/20 19:08:10","新北市永和區永和路二段105號","121.514933333333","25.01196","6500400","永和區"
"234061","AAD-866","2018/11/20 19:08:08","新北市永和區安樂路304巷18號","121.514823333333","25.0053366666667","6500400","永和區"
"234042","862-TW","2018/11/20 19:08:05","新北市永和區保平路93巷1號","121.511693333333","25.0067316666667","6500400","永和區"
"234050","863-TW","2018/11/20 19:08:07","新北市永和區文化路135巷8號","121.51076","25.01576","6500400","永和區"
"234026","9371-KE","2018/11/20 19:07:58","新北市永和區安樂路272巷7弄3號","121.5149","25.0044366666667","6500400","永和區"
"234011","9373-KE","2018/11/20 19:07:56","新北市永和區信義路43巷22弄2號","121.512428333333","25.01213","6500400","永和區"
"249005","172-UM","2018/11/20 19:08:08","新北市八里區中華路三段134號","121.392028333333","25.1341966666667","6502300","八里區"
"249001","173-UM","2018/11/20 19:07:56","新北市八里區龍米路二段228-1號","121.432776666667","25.15844","6502300","八里區"
"249003","593-UM","2018/11/20 19:07:55","新北市八里區仁愛路10號","121.41335","25.162335","6502300","八里區"
"248016","026-BX","2018/11/20 19:07:54","新北市五股區成泰路三段543巷17號","121.450616666667","25.10242","6501500","五股區"
"248008","095-VK","2018/11/20 19:07:56","新北市五股區中興路一段118巷2號","121.46596","25.0736933333333","6501500","五股區"
"248020","225-UY","2018/11/20 19:08:09","新北市五股區凌雲路三段57號","121.425306666667","25.1249983333333","6501500","五股區"
"248012","247-BX","2018/11/20 19:08:03","新北市五股區中興路四段48巷16號","121.438633333333","25.083415","6501500","五股區"
"248004","677-BX","2018/11/20 19:08:11","新北市五股區六合街13號","121.431365","25.088645","6501500","五股區"
"248002","678-BX","2018/11/20 19:08:03","新北市五股區凌雲路一段158巷6號","121.447828333333","25.1028166666667","6501500","五股區"
"248010","682-TV","2018/11/20 19:07:58","新北市五股區水碓一路23號","121.430496666667","25.07125","6501500","五股區"
"234023","9380-KE","2018/11/20 19:08:11","新北市永和區中興街64號","121.517305","25.0117133333333","6500400","永和區"
"234077","969-R7","2018/11/20 19:07:51","新北市永和區民權路48號","121.520126666667","24.9985433333333","6500400","永和區"
"234074","AAC-211","2018/11/20 19:08:04","新北市永和區福和路46號","121.523648333333","25.0082383333333","6500400","永和區"
"234067","AAC-212","2018/11/20 19:07:59","新北市永和區永和路一段94號","121.513143333333","25.006925","6500400","永和區"
"234003","AAC-295","2018/11/20 19:08:08","新北市永和區中山路一段89號","121.51179","25.01078","6500400","永和區"
"244023","069-UM","2018/11/20 19:07:53","新北市林口區民權路12巷5號","121.371685","25.0798316666667","6501700","林口區"
"244019","403-UM","2018/11/20 19:08:10","新北市林口區四維路116號","121.3776","25.07802","6501700","林口區"
"244013","KEA-2802","2018/11/20 19:08:00","新北市林口區麗園一街9巷1號","121.376556666667","25.0713166666667","6501700","林口區"
"244017","485-VK","2018/11/20 19:08:01","新北市林口區公園路84號","121.369303333333","25.070285","6501700","林口區"
"244011","701-TV","2018/11/20 19:07:53","新北市林口區新寮2號","121.392491666667","25.07623","6501700","林口區"
"244025","837-TS","2018/11/20 19:08:09","新北市林口區文化三路一段447巷55號","121.36657","25.074975","6501700","林口區"
"243013","AAD-798","2018/11/20 19:08:09","新北市泰山區漢口街11巷1號","121.42382","25.0364866666667","6501600","泰山區"
"243009","297-R6","2018/11/20 19:08:06","新北市泰山區楓江路25巷9號","121.434446666667","25.063615","6501600","泰山區"
"243016","KEA-2801","2018/11/20 19:08:03","新北市泰山區明志路二段321號","121.42639","25.0460483333333","6501600","泰山區"
"243015","421-VK","2018/11/20 19:08:07","新北市泰山區明志路一段385號","121.430808333333","25.0577166666667","6501600","泰山區"
"243011","KEA-2215","2018/11/20 19:08:09","新北市泰山區明志路二段322號","121.426183333333","25.045965","6501600","泰山區"
"243012","646-TV","2018/11/20 19:08:01","新北市泰山區吳厝窠1號","121.428026666667","25.0585516666667","6501600","泰山區"
"243014","680-BX","2018/11/20 19:08:01","新北市泰山區泰林路二段445號","121.425961666667","25.064065","6501600","泰山區"
"222003","436-BY","2018/11/20 19:08:11","新北市深坑區深南路138號","121.62315","25.0143766666667","6501800","深坑區"
"222002","659-BX","2018/11/20 19:08:10","新北市深坑區紅葉街14巷1號","121.632845","25.0120916666667","6501800","深坑區"
"231041","002-UM","2018/11/20 19:07:57","新北市新店區溪園路397號","121.52373","24.9776983333333","6500600","新店區"
"231059","046-UY","2018/11/20 19:07:56","新北市新店區安康路一段355號","121.519858333333","24.9637683333333","6500600","新店區"
"231040","047-UY","2018/11/20 19:08:11","新北市新店區三民路100號","121.533951666667","24.973775","6500600","新店區"
"231044","106-UY","2018/11/20 19:08:07","新北市新店區中興路三段156號","121.544486666667","24.98049","6500600","新店區"
"231046","107-UY","2018/11/20 19:08:03","新北市新店區永業路91號","121.529003333333","24.9489216666667","6500600","新店區"
"231053","108-UY","2018/11/20 19:07:56","新北市新店區屈尺路55-2號","121.546001666667","24.9225633333333","6500600","新店區"
"231062","110-UY","2018/11/20 19:08:05","新北市新店區安和路二段88號","121.518798333333","24.96871","6500600","新店區"
"231048","187-VK","2018/11/20 19:07:59","新北市新店區德正街27巷36號","121.545701666667","24.9715033333333","6500600","新店區"
"231054","KEA-2219","2018/11/20 19:07:57","新北市新店區新店路78號","121.537226666667","24.953985","6500600","新店區"
"231042","268-BY","2018/11/20 19:08:06","新北市新店區中興路一段199號","121.54342","24.9652766666667","6500600","新店區"
"231051","278-BY","2018/11/20 19:08:00","新北市新店區中正路384號","121.534708333333","24.9770383333333","6500600","新店區"
"231050","AAD-862","2018/11/20 19:07:58","新北市新店區竹林路2巷27弄2號","121.550068333333","24.9506666666667","6500600","新店區"
"231058","3713-VJ","2018/11/20 19:08:08","新北市新店區中興路一段139號","121.54207","24.963585","6500600","新店區"
"231066","4716-K9","2018/11/20 19:08:00","新北市新店區安豐路30-1號","121.500658333333","24.9568683333333","6500600","新店區"
"231056","4715-K9","2018/11/20 19:08:05","新北市新店區二十張路119號","121.536076666667","24.9795133333333","6500600","新店區"
"231067","4772-VM","2018/11/20 19:07:55","新北市新店區安康路一段281巷2號","121.523651666667","24.9632283333333","6500600","新店區"
"231065","512-UM","2018/11/20 19:08:04","新北市新店區安祥路111號","121.475575","24.9568183333333","6500600","新店區"
"231049","513-UM","2018/11/20 19:07:56","新北市新店區二十張路24號","121.538458333333","24.98176","6500600","新店區"
"231063","616-UM","2018/11/20 19:08:02","新北市新店區車子路110號","121.50525","24.95209","6500600","新店區"
"231061","619-UM","2018/11/20 19:08:01","新北市新店區安康路一段355-1號","121.51897","24.9639233333333","6500600","新店區"
"231060","897-TW","2018/11/20 19:07:57","新北市新店區安豐路45號","121.500235","24.95513","6500600","新店區"
"231045","898-TW","2018/11/20 19:08:05","新北市新店區北宜路一段109巷2-1號","121.539795","24.9548466666667","6500600","新店區"
"231043","899-TW","2018/11/20 19:08:09","新北市新店區寶橋路25-1號","121.544105","24.97416","6500600","新店區"
"231055","AKT-0513","2018/11/20 19:08:06","新北市新店區柴埕路52巷1-2號","121.512355","24.9645366666667","6500600","新店區"
"241026","066-VK","2018/11/20 19:08:05","新北市三重區泉州街72號","121.494705","25.0548983333333","6500200","三重區"
"241035","KEA-2210","2018/11/20 19:07:54","新北市三重區新北大道一段7號","121.489595","25.0612783333333","6500200","三重區"
"241029","942-UM","2018/11/20 19:07:57","新北市三重區集美街222號","121.491945","25.0553266666667","6500200","三重區"
"235066","003-UY","2018/11/20 19:08:11","新北市中和區廣福路8號","121.505881666667","25.003025","6500300","中和區"
"235064","005-UY","2018/11/20 19:08:03","新北市中和區泰和街38巷2號","121.499195","25.00031","6500300","中和區"
"235063","006-UY","2018/11/20 19:08:00","新北市中和區連城路249-1號","121.493228333333","24.9968783333333","6500300","中和區"
"235056","096-UM","2018/11/20 19:08:10","新北市板橋區三民路二段228號","121.478795","25.0113716666667","6500300","中和區"
"235039","097-UM","2018/11/20 19:07:59","新北市中和區景平路64巷18號","121.522416666667","24.99129","6500300","中和區"
"235065","098-UM","2018/11/20 19:08:04","新北市中和區中山路二段2巷45弄7號","121.502078333333","25.0066433333333","6500300","中和區"
"235058","151-BY","2018/11/20 19:07:52","新北市中和區連城路469巷70弄26號","121.482371666667","24.9938466666667","6500300","中和區"
"235055","183-VK","2018/11/20 19:08:04","新北市中和區德光路47號","121.470218333333","25.0040833333333","6500300","中和區"
"235038","185-VK","2018/11/20 19:08:13","新北市中和區大仁街20巷22號","121.518678333333","24.9931983333333","6500300","中和區"
"235049","186-VK","2018/11/20 19:08:13","新北市中和區景新街163號","121.506453333333","24.9959166666667","6500300","中和區"
"235067","255-BX","2018/11/20 19:07:51","新北市中和區新生街176巷17號","121.482748333333","24.9998866666667","6500300","中和區"
"235044","293-VK","2018/11/20 19:08:03","新北市中和區復興路327巷4號","121.500768333333","24.9897883333333","6500300","中和區"
"235072","301-VK","2018/11/20 19:08:13","新北市中和區連城路49號","121.49847","25.0018816666667","6500300","中和區"
"235043","352-BY","2018/11/20 19:08:11","新北市中和區景平路120號","121.519243333333","24.991715","6500300","中和區"
"235042","KEA-2878","2018/11/20 19:08:03","新北市中和區自立路117巷2弄2號","121.522308333333","24.9944083333333","6500300","中和區"
"235050","4979-A6","2018/11/20 19:08:03","新北市中和區復興路249巷11弄3號","121.503546666667","24.98971","6500300","中和區"
"235070","558-UM","2018/11/20 19:07:58","新北市中和區中和路81號","121.500906666667","25.000795","6500300","中和區"
"235045","565-BX","2018/11/20 19:08:11","新北市中和區景新街428號","121.51307","24.988645","6500300","中和區"
"235054","640-BX","2018/11/20 19:08:01","新北市中和區民德路105號","121.468915","25.0007716666667","6500300","中和區"
"235060","647-TV","2018/11/20 19:08:13","新北市中和區民有街1號","121.475593333333","25.0059216666667","6500300","中和區"
"235047","732-UM","2018/11/20 19:07:59","新北市中和區興南路一段52號","121.510741666667","24.9907883333333","6500300","中和區"
"235046","733-UM","2018/11/20 19:08:01","新北市中和區興南路二段31巷6號","121.507876666667","24.9855416666667","6500300","中和區"
"235071","783-BX","2018/11/20 19:08:05","新北市中和區連城路469-1號","121.483518333333","24.9957716666667","6500300","中和區"
"235062","800-TS","2018/11/20 19:07:54","新北市中和區中山路二段417號","121.485893333333","25.004855","6500300","中和區"
"235057","801-TS","2018/11/20 19:08:02","新北市中和區民利街100巷2弄1號","121.477306666667","24.99809","6500300","中和區"
"235041","802-TS","2018/11/20 19:08:07","新北市中和區中和路236號","121.507098333333","24.9996183333333","6500300","中和區"
"235052","805-TS","2018/11/20 19:08:11","新北市中和區興南路二段142巷19弄9號","121.502885","24.9833583333333","6500300","中和區"
"235048","896-TW","2018/11/20 19:08:09","新北市中和區忠孝街2-9號","121.509251666667","24.982965","6500300","中和區"
"235053","900-TW","2018/11/20 19:08:03","新北市板橋區重慶路378號","121.464461666667","24.9967916666667","6500300","中和區"
"235051","157-BY","2018/11/20 19:08:01","新北市中和區忠孝街31巷56號","121.509701666667","24.9856333333333","6500300","中和區"
"235037","AAC-213","2018/11/20 19:07:56","新北市中和區秀朗路三段60巷42號","121.524946666667","24.9949183333333","6500300","中和區"
"235059","AAC-215","2018/11/20 19:08:01","新北市中和區圓通路296巷6號","121.48802","24.989585","6500300","中和區"
"220068","013-TV","2018/11/20 19:08:09","新北市板橋區中山路二段443巷2號","121.481035","25.0205383333333","6500100","板橋區"
"220065","072-UY","2018/11/20 19:08:07","新北市板橋區民族路151巷57號","121.469366666667","25.0084166666667","6500100","板橋區"
"220086","073-UY","2018/11/20 19:07:56","新北市板橋區國光路184號","121.46097","25.01837","6500100","板橋區"
"220106","075-UY","2018/11/20 19:08:06","新北市板橋區文化路二段263巷12號","121.470985","25.0294233333333","6500100","板橋區"
"220069","AAD-861","2018/11/20 19:07:56","新北市板橋區四川路一段104號","121.45956","25.0046516666667","6500100","板橋區"
"226004","205-ST","2018/11/20 19:08:07","新北市平溪區靜安路二段440號","121.74002","25.0248966666667","6502400","平溪區"
"228001","212-TW","2018/11/20 19:08:06","新北市貢寮區真理里新港街10號","121.92551","25.054365","6502600","貢寮區"
"228002","663-BX","2018/11/20 19:08:08","新北市貢寮區福隆里福隆街32-1號","121.94509","25.0173833333333","6502600","貢寮區"
"228003","828-UM","2018/11/20 19:08:08","新北市貢寮區和美里和美街43號","121.914656666667","25.0920483333333","6502600","貢寮區"
"224010","AGQ-8101","2018/11/20 19:07:55","新北市瑞芳區金光路334號","121.848396666667","25.1097816666667","6501200","瑞芳區"
"224006","676-BX","2018/11/20 19:08:08","新北市瑞芳區中山路174號","121.801746666667","25.106625","6501200","瑞芳區"
"224008","285-BY","2018/11/20 19:08:11","新北市瑞芳區一坑路458號","121.80232","25.1098816666667","6501200","瑞芳區"
"224007","275-VK","2018/11/20 19:08:09","新北市瑞芳區瑞竹路46號","121.76351","25.10335","6501200","瑞芳區"
"224009","273-VK","2018/11/20 19:08:12","新北市瑞芳區洞頂路101巷12號","121.860683333333","25.1211366666667","6501200","瑞芳區"
"227009","642-TC","2018/11/20 19:08:04","新北市雙溪區牡丹里中正路24號","121.864443333333","25.037725","6502500","雙溪區"
"227003","400-TW","2018/11/20 19:07:54","新北市雙溪區平林里外平林9-5號","121.859145","25.0379916666667","6502500","雙溪區"
"253006","032-BX","2018/11/20 19:08:08","新北市石門區崁子腳58-22號","121.531528333333","25.2875116666667","6502200","石門區"
"253005","295-VK","2018/11/20 19:08:02","新北市石門區阿里荖41-1號","121.604863333333","25.283905","6502200","石門區"
"222001","KEA-2212","2018/11/20 19:08:11","新北市深坑區北深路一段300號","121.624371666667","25.0057916666667","6501800","深坑區"
"208002","KEA-2872","2018/11/20 19:08:05","新北市金山區中華路122巷14號","121.63385","25.22092","6502700","金山區"
"208003","665-BX","2018/11/20 19:07:56","新北市金山區中正路59號","121.63421","25.221895","6502700","金山區"
"208001","761-BX","2018/11/20 19:08:05","新北市金山區金包里街68號","121.63909","25.2215266666667","6502700","金山區"
"251005","010-UM","2018/11/20 19:07:58","新北市淡水區中山路132號","121.441558333333","25.1710866666667","6501000","淡水區"
"251002","012-UM","2018/11/20 19:07:57","新北市淡水區中山路87巷1號","121.442631666667","25.1705216666667","6501000","淡水區"
"251013","KEA-2871","2018/11/20 19:07:58","新北市淡水區安子內12-1號","121.481531666667","25.21909","6501000","淡水區"
"251016","179-VK","2018/11/20 19:07:42","新北市淡水區淡金路三段46巷13弄1號","121.448141666667","25.1992933333333","6501000","淡水區"
"251014","180-VK","2018/11/20 19:07:58","新北市淡水區小中寮39號","121.487171666667","25.2272783333333","6501000","淡水區"
"251015","182-VK","2018/11/20 19:07:49","新北市淡水區南勢埔6-3號","121.482933333333","25.1808633333333","6501000","淡水區"
"251010","413-VK","2018/11/20 19:08:03","新北市淡水區中正路一段156巷1號","121.421121666667","25.180225","6501000","淡水區"
"251001","559-UM","2018/11/20 19:08:03","新北市淡水區自強路201巷39號","121.462133333333","25.12679","6501000","淡水區"
"251009","575-R6","2018/11/20 19:07:58","新北市淡水區清水街147-2號","121.440223333333","25.17162","6501000","淡水區"
"251007","577-R6","2018/11/20 19:08:00","新北市淡水區民生路145巷54號","121.467605","25.1389433333333","6501000","淡水區"
"251003","673-BX","2018/11/20 19:08:02","新北市淡水區中山北路一段173號","121.443656666667","25.1777933333333","6501000","淡水區"
"207003","550-UM","2018/11/20 19:08:00","新北市萬里區大鵬里萬里加投25-1號","121.648176666667","25.20652","6502800","萬里區"
"207004","225-TW","2018/11/20 19:08:07","新北市萬里區萬里里瑪鋉下街33號","121.69137","25.1790866666667","6502800","萬里區"
"252002","178-VK","2018/11/20 19:07:54","新北市三芝區中正路一段67-1號","121.503925","25.2573433333333","6502100","三芝區"
"252003","249-BX","2018/11/20 19:08:05","新北市三芝區錫板里南勢崗6號","121.479546666667","25.2619583333333","6502100","三芝區"
"252001","292-VK","2018/11/20 19:07:57","新北市三芝區長勤街82號","121.50029","25.25507","6502100","三芝區"
"237004","KEA-2597","2018/11/20 19:08:11","新北市三峽區有木206號","121.439103333333","24.8514616666667","6500900","三峽區"
"237007","153-BY","2018/11/20 19:07:54","新北市三峽區中正路二段42巷84號","121.364288333333","24.9205783333333","6500900","三峽區"
"237013","252-BX","2018/11/20 19:08:00","新北市三峽區光明路69巷25號","121.376745","24.9291283333333","6500900","三峽區"
"237012","275-BY","2018/11/20 19:08:07","新北市三峽區三樹路222巷236弄23號","121.391396666667","24.9430416666667","6500900","三峽區"
"237008","302-VK","2018/11/20 19:08:06","新北市三峽區大同路100號","121.374708333333","24.9271733333333","6500900","三峽區"
"237014","433-BY","2018/11/20 19:08:08","新北市三峽區中山路234號","121.362546666667","24.9373466666667","6500900","三峽區"
"237006","5529-G3","2018/11/20 19:08:04","新北市三峽區溪東路45巷11弄19號","121.400926666667","24.9356433333333","6500900","三峽區"
"237011","KEA-2596","2018/11/20 19:07:59","新北市三峽區介壽路三段107號","121.39549","24.9392683333333","6500900","三峽區"
"237016","649-BX","2018/11/20 19:07:52","新北市三峽區安坑46-1號","121.456308333333","24.9321233333333","6500900","三峽區"
"237010","706-TV","2018/11/20 19:07:59","新北市三峽區民生街68號","121.374706666667","24.9359816666667","6500900","三峽區"
"237005","AKY-6261","2018/11/20 19:08:13","新北市三峽區中山路459巷163-3號","121.348641666667","24.93289","6500900","三峽區"
"236070","105-UM","2018/11/20 19:08:02","新北市土城區裕生路84巷10號","121.44679","24.9856133333333","6501300","土城區"
"236042","KED-0685","2018/11/20 19:07:56","新北市土城區學府路一段239號","121.450376666667","24.9832833333333","6501300","土城區"
"236079","166-UM","2018/11/20 19:08:09","新北市土城區中央路四段321巷34弄5號","121.412743333333","24.9509216666667","6501300","土城區"
"236026","269-VK","2018/11/20 19:08:08","新北市土城區金城路一段129巷33號","121.444946666667","24.9746216666667","6501300","土城區"
"236014","270-VK","2018/11/20 19:07:59","新北市土城區學府路一段37巷7號","121.457888333333","24.9880233333333","6501300","土城區"
"236021","401-BY","2018/11/20 19:08:00","新北市土城區延峰街31巷1號","121.469568333333","24.984955","6501300","土城區"
"236059","752-BX","2018/11/20 19:08:08","新北市土城區金城路一段141號","121.445345","24.9742533333333","6501300","土城區"
"236049","913-UM","2018/11/20 19:08:13","新北市土城區明德路一段365-1號","121.453648333333","24.9790766666667","6501300","土城區"
"236055","AAC-216","2018/11/20 19:08:14","新北市土城區學府路一段181號","121.45234","24.9851316666667","6501300","土城區"
"242013","173-VK","2018/11/20 19:08:01","新北市新莊區三和路12-21號","121.441981666667","25.0386866666667","6500500","新莊區"
"238023","601-UM","2018/11/20 19:07:56","新北市樹林區三興路41號","121.39593","25.0145266666667","6500700","樹林區"
"238019","599-UM","2018/11/20 19:08:11","新北市樹林區東榮街91巷4弄8號","121.416091666667","24.98192","6500700","樹林區"
"238024","5061-A6","2018/11/20 19:08:02","新北市樹林區中山路二段249巷23號","121.402901666667","24.9755766666667","6500700","樹林區"
"238022","KEA-2213","2018/11/20 19:08:05","新北市樹林區中山路二段151巷14弄1號","121.407901666667","24.9777316666667","6500700","樹林區"
"238021","KEA-2539","2018/11/20 19:08:06","新北市樹林區柑園街二段394號","121.366861666667","24.9485283333333","6500700","樹林區"
"238025","303-VK","2018/11/20 19:08:09","新北市樹林區中山路三段212號","121.382591666667","24.9662583333333","6500700","樹林區"
"238017","283-BY","2018/11/20 19:07:56","新北市樹林區光興街155巷16號","121.407266666667","25.003335","6500700","樹林區"
"238026","172-UY","2018/11/20 19:08:00","新北市樹林區佳園路一段75巷9號","121.394036666667","24.9702","6500700","樹林區"
"238016","169-UY","2018/11/20 19:07:53","新北市樹林區文化街25巷24號","121.418143333333","24.9866783333333","6500700","樹林區"
"239007","AAC-297","2018/11/20 19:07:58","新北市鶯歌區中山路48號","121.352141666667","24.9570233333333","6500800","鶯歌區"
"239006","891-R6","2018/11/20 19:07:52","新北市鶯歌區鶯桃路141號","121.33778","24.9548383333333","6500800","鶯歌區"
"239008","527-UM","2018/11/20 19:08:04","新北市鶯歌區國際二路4巷18號","121.339255","24.9734816666667","6500800","鶯歌區"
"239005","526-UM","2018/11/20 19:07:53","新北市鶯歌區東湖路19-1號","121.357888333333","24.973635","6500800","鶯歌區"
"239001","417-VK","2018/11/20 19:08:10","新北市鶯歌區永智街43巷11號","121.336968333333","24.9539866666667","6500800","鶯歌區"
"239003","360-BY","2018/11/20 19:07:54","新北市鶯歌區尖山路174巷35弄20衖5號","121.34341","24.9488583333333","6500800","鶯歌區"
"239002","359-BY","2018/11/20 19:07:53","新北市鶯歌區湖山路27巷22號","121.339546666667","24.9744216666667","6500800","鶯歌區"
"239004","193-VK","2018/11/20 19:08:08","新北市鶯歌區中正三路291巷6號","121.329625","24.9359466666667","6500800","鶯歌區"
"221008","489-VK","2018/11/20 19:08:04","新北市汐止區康寧街451號","121.63125","25.06822","6501100","汐止區"
"221036","130-UY","2018/11/20 19:08:02","新北市汐止區康寧街901號","121.651615","25.0749883333333","6501100","汐止區"
"221015","131-UY","2018/11/20 19:08:12","新北市汐止區汐萬路一段115巷2號","121.654305","25.0708416666667","6501100","汐止區"
"221010","269-BY","2018/11/20 19:07:54","新北市汐止區康寧街901號","121.65151","25.0750133333333","6501100","汐止區"
"221012","278-VK","2018/11/20 19:08:11","新北市汐止區康寧街901號","121.650823333333","25.0752933333333","6501100","汐止區"
"221023","279-VK","2018/11/20 19:07:41","新北市汐止區康寧街901號","121.651726666667","25.0749433333333","6501100","汐止區"
"221027","281-BY","2018/11/20 19:07:58","新北市汐止區康寧街901號","121.65147","25.0749633333333","6501100","汐止區"
"221029","298-VK","2018/11/20 19:08:06","新北市汐止區汐萬路一段333巷23號","121.648111666667","25.0762066666667","6501100","汐止區"
"221021","299-VK","2018/11/20 19:07:56","新北市汐止區康寧街901號","121.651373333333","25.074985","6501100","汐止區"
"221031","353-TW","2018/11/20 19:07:57","新北市汐止區福德一路1-1號","121.639631666667","25.070965","6501100","汐止區"
"221025","623-UM","2018/11/20 19:07:56","新北市汐止區康寧街901號","121.651616666667","25.07487","6501100","汐止區"
"221038","646-BX","2018/11/20 19:08:01","新北市汐止區康寧街901號","121.65075","25.0752733333333","6501100","汐止區"
"221002","707-TV","2018/11/20 19:08:01","新北市汐止區大同路一段154-1號","121.631923333333","25.0557983333333","6501100","汐止區"
"221018","753-BX","2018/11/20 19:08:10","新北市汐止區康寧街901號","121.650883333333","25.07525","6501100","汐止區"
"220079","145-BY","2018/11/20 19:07:59","新北市板橋區民權路260巷30號","121.458881666667","25.015275","6500100","板橋區"
"220080","200-UY","2018/11/20 19:08:03","新北市板橋區大觀路二段7巷62號","121.449226666667","25.0031616666667","6500100","板橋區"
"220101","245-BX","2018/11/20 19:07:54","新北市板橋區萬板路13號","121.470491666667","25.0210266666667","6500100","板橋區"
"220091","267-BY","2018/11/20 19:08:03","新北市板橋區萬板路518號","121.48068","25.0263616666667","6500100","板橋區"
"220056","276-BY","2018/11/20 19:07:53","新北市板橋區信義路74巷3弄1號","121.457005","24.99303","6500100","板橋區"
"220072","277-BY","2018/11/20 19:08:02","新北市板橋區金門街280巷11號","121.429111666667","24.9862366666667","6500100","板橋區"
"220064","282-UM","2018/11/20 19:08:10","新北市板橋區板新路84號","121.472745","25.0145116666667","6500100","板橋區"
"220094","283-UM","2018/11/20 19:07:58","新北市板橋區光武街117號","121.466448333333","25.0278166666667","6500100","板橋區"
"220071","283-VK","2018/11/20 19:08:06","新北市板橋區重慶路337號","121.46397","24.9981716666667","6500100","板橋區"
"220081","287-VK","2018/11/20 19:08:03","新北市板橋區南雅西路二段156巷10號","121.452288333333","25.013175","6500100","板橋區"
"220090","288-VK","2018/11/20 19:08:02","新北市板橋區裕民街45巷3-1號","121.461556666667","25.0283516666667","6500100","板橋區"
"220061","295-UM","2018/11/20 19:07:56","新北市板橋區懷仁街85巷6號","121.477748333333","25.0184983333333","6500100","板橋區"
"220084","296-UM","2018/11/20 19:08:11","新北市板橋區篤行路二段128-2號","121.430996666667","24.990625","6500100","板橋區"
"220053","299-UM","2018/11/20 19:08:01","新北市板橋區懷仁街37號","121.476693333333","25.0195216666667","6500100","板橋區"
"220075","303-R5","2018/11/20 19:08:10","新北市板橋區南雅南路一段3巷60號","121.456481666667","25.0056783333333","6500100","板橋區"
"220062","305-R5","2018/11/20 19:08:04","新北市板橋區三民路二段245巷4弄2號","121.480991666667","25.0121866666667","6500100","板橋區"
"220092","307-R5","2018/11/20 19:08:08","新北市板橋區文化路二段225巷60弄3號","121.469231666667","25.02861","6500100","板橋區"
"220098","317-R6","2018/11/20 19:08:01","新北市板橋區四維路103巷27號","121.464443333333","25.0238933333333","6500100","板橋區"
"220089","487-VK","2018/11/20 19:08:05","新北市板橋區文化路二段431號","121.4749","25.0329666666667","6500100","板橋區"
"220035","560-BX","2018/11/20 19:08:06","新北市板橋區瑞安街49號","121.455383333333","25.02233","6500100","板橋區"
"220103","561-BX","2018/11/20 19:08:07","新北市板橋區文化路一段188巷7弄42號","121.468226666667","25.01934","6500100","板橋區"
"220083","568-UM","2018/11/20 19:08:10","新北市板橋區大觀路二段174巷173弄11號","121.441165","25.0038966666667","6500100","板橋區"
"220063","609-BX","2018/11/20 19:07:47","新北市板橋區三民路二段140號","121.479165","25.0158716666667","6500100","板橋區"
"220057","686-BX","2018/11/20 19:07:58","新北市板橋區重慶路305號","121.463851666667","24.9988466666667","6500100","板橋區"
"220077","687-BX","2018/11/20 19:08:12","新北市板橋區大觀路二段95號","121.446278333333","25.0018966666667","6500100","板橋區"
"220093","689-BX","2018/11/20 19:08:07","新北市板橋區民生路三段207號","121.465206666667","25.0279616666667","6500100","板橋區"
"220054","741-BX","2018/11/20 19:08:00","新北市板橋區重慶路71-4號","121.46213","25.0068766666667","6500100","板橋區"
"220070","806-UM","2018/11/20 19:07:58","新北市板橋區四川路一段246號","121.459121666667","25.0015016666667","6500100","板橋區"
"220055","827-TW","2018/11/20 19:08:08","新北市板橋區新民街9號","121.46372","25.0098333333333","6500100","板橋區"
"220067","829-TW","2018/11/20 19:07:55","新北市板橋區三民路二段正隆巷71號","121.47623","25.0131016666667","6500100","板橋區"
"220102","830-TW","2018/11/20 19:08:06","新北市板橋區萬板路818巷9號","121.482998333333","25.0266783333333","6500100","板橋區"
"220096","831-TW","2018/11/20 19:08:08","新北市板橋區雙十路二段45號","121.476508333333","25.02615","6500100","板橋區"
"220088","833-TW","2018/11/20 19:08:06","新北市板橋區文化路二段182巷1弄19號","121.471386666667","25.02806","6500100","板橋區"
"220074","895-R6","2018/11/20 19:08:06","新北市板橋區中正路自強新村44-1號","121.454933333333","25.0137416666667","6500100","板橋區"
"220073","985-R7","2018/11/20 19:08:13","新北市板橋區新生街89巷30號","121.456983333333","25.0226183333333","6500100","板橋區"
"220097","AAC-210","2018/11/20 19:07:53","新北市板橋區新海路135巷4號","121.459783333333","25.022915","6500100","板橋區"
"220082","AAC-253","2018/11/20 19:07:52","新北市板橋區溪崑二街27號","121.428613333333","24.9912616666667","6500100","板橋區"
"235068","KEA-2873","2018/11/20 19:07:56","新北市中和區圓通路162巷37弄3號","121.496441666667","24.9955283333333","6500300","中和區"
"235061","KEA-2875","2018/11/20 19:07:51","新北市中和區中山路三段117號","121.474551666667","25.0060666666667","6500300","中和區"
