"lineid","car","time","location","longitude","latitude","cityid","cityname"
"234007","207-UY","2018/11/20 20:48:11","新北市永和區環河東路四段92號","121.528643333333","24.9969833333333","6500400","永和區"
"249004","303-UY","2018/11/20 20:48:14","新北市八里區中山路一段63號","121.418305","25.1594533333333","6502300","八里區"
"249002","305-UY","2018/11/20 20:48:04","新北市八里區中山路三段378號","121.368605","25.1366183333333","6502300","八里區"
"234023","9380-KE","2018/11/20 20:48:11","新北市永和區光復街60巷20弄2號","121.517598333333","25.017705","6500400","永和區"
"234074","AAC-211","2018/11/20 20:48:04","新北市永和區竹林路75巷4弄34號","121.521708333333","25.0140233333333","6500400","永和區"
"222003","436-BY","2018/11/20 20:47:54","新北市深坑區文山路三段48-1號","121.609945","24.9985266666667","6501800","深坑區"
"222002","659-BX","2018/11/20 20:48:13","新北市深坑區北深路三段93巷73號","121.603406666667","25.001185","6501800","深坑區"
"231059","046-UY","2018/11/20 20:47:56","新北市新店區僑愛三路24號","121.49919","24.9447166666667","6500600","新店區"
"231040","047-UY","2018/11/20 20:48:05","新北市新店區中正路268號","121.538968333333","24.9735766666667","6500600","新店區"
"231044","106-UY","2018/11/20 20:48:05","新北市新店區中正路348號","121.53623","24.975315","6500600","新店區"
"231053","108-UY","2018/11/20 20:47:56","新北市新店區新烏路一段100號","121.544876666667","24.9367333333333","6500600","新店區"
"231062","110-UY","2018/11/20 20:48:05","新北市新店區雙城路4巷12號","121.490511666667","24.9508583333333","6500600","新店區"
"231048","187-VK","2018/11/20 20:47:59","新北市新店區寶元路一段109號","121.545691666667","24.98312","6500600","新店區"
"231054","KEA-2219","2018/11/20 20:47:57","新北市新店區北新路一段96巷23號","121.542938333333","24.9687433333333","6500600","新店區"
"231057","256-BX","2018/11/20 20:47:59","新北市新店區新烏路一段58-2號","121.546023333333","24.94708","6500600","新店區"
"231042","268-BY","2018/11/20 20:48:06","新北市新店區寶高路120巷1號","121.554573333333","24.97607","6500600","新店區"
"231051","278-BY","2018/11/20 20:48:00","新北市新店區溪園路247號","121.525808333333","24.983455","6500600","新店區"
"231050","AAD-862","2018/11/20 20:47:58","新北市新店區三民路20巷3號","121.537393333333","24.9707766666667","6500600","新店區"
"231058","3713-VJ","2018/11/20 20:48:08","新北市新店區平等街89號","121.535395","24.9724233333333","6500600","新店區"
"231066","4716-K9","2018/11/20 20:47:59","新北市新店區安興路105-1號","121.514633333333","24.977705","6500600","新店區"
"231056","4715-K9","2018/11/20 20:48:05","新北市新店區安興路112號","121.515085","24.9775533333333","6500600","新店區"
"231067","4772-VM","2018/11/20 20:47:55","新北市新店區安華路28-1號","121.519645","24.9608583333333","6500600","新店區"
"231065","512-UM","2018/11/20 20:48:04","新北市新店區安祥路104巷6弄22號","121.48229","24.962435","6500600","新店區"
"231049","513-UM","2018/11/20 20:47:56","新北市新店區華潭街26巷1弄1號","121.52946","24.9536183333333","6500600","新店區"
"231063","616-UM","2018/11/20 20:48:06","新北市新店區如意街11號","121.495038333333","24.9484133333333","6500600","新店區"
"231061","619-UM","2018/11/20 20:48:01","新北市新店區新和街94號","121.520716666667","24.9861066666667","6500600","新店區"
"231068","718-UY","2018/11/20 20:48:15","新北市新店區寶元路一段84巷1號","121.544526666667","24.98374","6500600","新店區"
"231060","897-TW","2018/11/20 20:47:57","新北市新店區安康路三段571巷2-1號","121.474193333333","24.942285","6500600","新店區"
"231045","898-TW","2018/11/20 20:47:59","新北市新店區北新路一段199號","121.540331666667","24.96485","6500600","新店區"
"231043","899-TW","2018/11/20 20:48:09","新北市新店區建國路95號","121.5405","24.9767816666667","6500600","新店區"
"241011","013-R5","2018/11/20 20:47:56","新北市三重區龍濱路205巷8號","121.50244","25.071845","6500200","三重區"
"241028","022-UY","2018/11/20 20:47:54","新北市三重區中正南路50號","121.493995","25.05992","6500200","三重區"
"241022","060-VK","2018/11/20 20:48:06","新北市三重區過圳街27-5號","121.487978333333","25.0623866666667","6500200","三重區"
"241031","061-VK","2018/11/20 20:47:58","新北市三重區重陽路一段113巷2弄2號","121.487525","25.059945","6500200","三重區"
"241015","062-VK","2018/11/20 20:48:04","新北市三重區自強路一段12號","121.498843333333","25.0682166666667","6500200","三重區"
"241017","063-VK","2018/11/20 20:48:04","新北市三重區民生街14號","121.492073333333","25.0674833333333","6500200","三重區"
"241024","065-VK","2018/11/20 20:48:09","新北市三重區中正北路262號","121.481333333333","25.0683733333333","6500200","三重區"
"241002","090-VK","2018/11/20 20:47:52","新北市三重區仁義街211巷57號","121.498493333333","25.0828683333333","6500200","三重區"
"241003","091-VK","2018/11/20 20:48:02","新北市三重區五華街141巷58號","121.493538333333","25.0867466666667","6500200","三重區"
"241005","262-UM","2018/11/20 20:48:13","新北市三重區五華街141巷38號","121.492475","25.0858633333333","6500200","三重區"
"241016","265-UM","2018/11/20 20:47:57","新北市三重區正義北路176號","121.496578333333","25.0666983333333","6500200","三重區"
"241009","267-UM","2018/11/20 20:48:04","新北市三重區三和路四段390巷11號","121.48141","25.078955","6500200","三重區"
"241018","268-UM","2018/11/20 20:48:11","新北市三重區正義北路253號","121.495571666667","25.0695983333333","6500200","三重區"
"241032","269-UM","2018/11/20 20:47:58","新北市三重區重陽路一段120巷37號","121.485071666667","25.0602566666667","6500200","三重區"
"241013","270-UM","2018/11/20 20:47:57","新北市三重區仁愛街129巷2號","121.49561","25.0749766666667","6500200","三重區"
"241025","271-UM","2018/11/20 20:48:12","新北市三重區貴陽街14號","121.48421","25.0618783333333","6500200","三重區"
"241007","398-BY","2018/11/20 20:48:04","新北市三重區三和路四段115號","121.485328333333","25.07751","6500200","三重區"
"241035","KEA-2210","2018/11/20 20:48:06","新北市三重區文化北路129號","121.497778333333","25.0689116666667","6500200","三重區"
"241004","475-VK","2018/11/20 20:47:57","新北市三重區仁愛街406巷3號","121.490678333333","25.0812416666667","6500200","三重區"
"241020","478-VK","2018/11/20 20:48:07","新北市三重區忠孝路一段101號","121.489441666667","25.07214","6500200","三重區"
"241030","480-VK","2018/11/20 20:47:59","新北市三重區昌隆街26號","121.491946666667","25.0522966666667","6500200","三重區"
"241014","543-UM","2018/11/20 20:48:10","新北市三重區萬全街55號","121.501085","25.0702083333333","6500200","三重區"
"241023","545-UM","2018/11/20 20:48:13","新北市三重區忠孝路三段84巷1號","121.480275","25.0645816666667","6500200","三重區"
"241001","547-UM","2018/11/20 20:48:14","新北市三重區自強路三段97號","121.487663333333","25.075195","6500200","三重區"
"241033","557-UM","2018/11/20 20:48:04","新北市三重區光復路二段2號","121.472105","25.0532516666667","6500200","三重區"
"241019","KEA-2593","2018/11/20 20:48:13","新北市三重區忠孝路一段2號","121.492686666667","25.07164","6500200","三重區"
"241006","AAD-863","2018/11/20 20:48:02","新北市三重區車路頭街139巷14號","121.484276666667","25.076245","6500200","三重區"
"241008","887-TS","2018/11/20 20:48:07","新北市三重區永福街72巷11號","121.479461666667","25.0768233333333","6500200","三重區"
"241012","941-UM","2018/11/20 20:48:10","新北市三重區仁信街27號","121.501266666667","25.07552","6500200","三重區"
"241029","942-UM","2018/11/20 20:47:54","新北市三重區重安街14號","121.490316666667","25.0581966666667","6500200","三重區"
"247012","KEA-2869","2018/11/20 20:47:57","新北市蘆洲區集賢路200號","121.483586666667","25.0875883333333","6501400","蘆洲區"
"247002","893-R6","2018/11/20 20:48:06","新北市蘆洲區長榮路288號","121.459958333333","25.086875","6501400","蘆洲區"
"247016","546-UM","2018/11/20 20:48:09","新北市蘆洲區中正路71號","121.470496666667","25.0827916666667","6501400","蘆洲區"
"247024","500-BY","2018/11/20 20:47:59","新北市蘆洲區長樂路235號","121.462068333333","25.0901033333333","6501400","蘆洲區"
"247014","339-TH","2018/11/20 20:48:12","新北市蘆洲區三民路97號","121.473591666667","25.0851933333333","6501400","蘆洲區"
"247006","337-TH","2018/11/20 20:47:58","新北市蘆洲區九芎街82號","121.466266666667","25.0794683333333","6501400","蘆洲區"
"247020","057-VK","2018/11/20 20:47:59","新北市蘆洲區仁愛街66號","121.471556666667","25.09385","6501400","蘆洲區"
"247010","056-VK","2018/11/20 20:48:06","新北市蘆洲區鷺江街93號","121.476878333333","25.08383","6501400","蘆洲區"
"247008","053-VK","2018/11/20 20:48:11","新北市三重區永安北路二段1號","121.48082","25.0801933333333","6501400","蘆洲區"
"247004","002-UY","2018/11/20 20:48:11","新北市蘆洲區長安街109號","121.461523333333","25.0809066666667","6501400","蘆洲區"
"247022","001-UY","2018/11/20 20:48:00","新北市蘆洲區民權路131巷10號","121.471258333333","25.0898666666667","6501400","蘆洲區"
"222001","KEA-2212","2018/11/20 20:48:11","新北市深坑區北深路三段137號","121.603955","25.0025516666667","6501800","深坑區"
"251005","010-UM","2018/11/20 20:47:58","新北市淡水區中正東路一段3巷2號","121.450605","25.1648366666667","6501000","淡水區"
"251002","012-UM","2018/11/20 20:47:57","新北市淡水區中正東路6號","121.447036666667","25.1670016666667","6501000","淡水區"
"251013","KEA-2871","2018/11/20 20:47:58","新北市淡水區行忠路167號","121.4571","25.2009783333333","6501000","淡水區"
"251016","179-VK","2018/11/20 20:48:03","新北市淡水區淡金路四段231號","121.45177","25.22283","6501000","淡水區"
"251014","180-VK","2018/11/20 20:47:58","新北市淡水區公埔子32-8號","121.461636666667","25.23237","6501000","淡水區"
"251015","182-VK","2018/11/20 20:48:09","新北市淡水區淡金路四段542巷17號","121.45273","25.2270883333333","6501000","淡水區"
"251010","413-VK","2018/11/20 20:48:02","新北市淡水區沙崙路145號","121.423376666667","25.18303","6501000","淡水區"
"251012","441-VK","2018/11/20 20:48:02","新北市淡水區淡金路四段211號","121.45177","25.2221383333333","6501000","淡水區"
"251001","559-UM","2018/11/20 20:48:03","新北市淡水區淡金路218號","121.46054","25.1672033333333","6501000","淡水區"
"251009","575-R6","2018/11/20 20:47:57","新北市淡水區民權路187巷17號","121.460348333333","25.1334316666667","6501000","淡水區"
"251007","577-R6","2018/11/20 20:47:59","新北市淡水區鄧公路23巷2號","121.451226666667","25.170085","6501000","淡水區"
"251011","650-BX","2018/11/20 20:48:09","新北市淡水區新民街一段25-1號","121.432783333333","25.1855216666667","6501000","淡水區"
"251003","673-BX","2018/11/20 20:48:02","新北市淡水區中山北路一段247巷118號","121.441493333333","25.1795416666667","6501000","淡水區"
"252002","178-VK","2018/11/20 20:47:54","新北市三芝區淡金路二段89-1號","121.504058333333","25.2607866666667","6502100","三芝區"
"242037","AAC-296","2018/11/20 20:47:54","新北市新莊區福營路103號","121.433733333333","25.03211","6500500","新莊區"
"242056","751-BX","2018/11/20 20:48:04","新北市新莊區新莊路751巷104號","121.442351666667","25.0303833333333","6500500","新莊區"
"242029","705-TV","2018/11/20 20:48:13","新北市新莊區新北大道四段219號","121.443575","25.0571533333333","6500500","新莊區"
"242044","566-BX","2018/11/20 20:48:09","新北市新莊區福營路324號","121.422065","25.0270083333333","6500500","新莊區"
"242042","442-UM","2018/11/20 20:48:03","新北市新莊區雙鳳路12號","121.417171666667","25.0270166666667","6500500","新莊區"
"242054","441-UM","2018/11/20 20:48:14","新北市新莊區新樹路229號","121.435226666667","25.022605","6500500","新莊區"
"242009","413-TV","2018/11/20 20:48:06","新北市新莊區思源路221號","121.459786666667","25.0462233333333","6500500","新莊區"
"242023","362-BY","2018/11/20 20:48:06","新北市三重區光復路二段49號","121.472151666667","25.0560266666667","6500500","新莊區"
"242011","132-UY","2018/11/20 20:47:57","新北市泰山區楓里路12號","121.441943333333","25.0594183333333","6500500","新莊區"
"242034","135-UY","2018/11/20 20:47:58","新北市新莊區中正路224號","121.44853","25.0354483333333","6500500","新莊區"
"242005","349-TH","2018/11/20 20:48:15","新北市五股區成泰路三段625-2號","121.454386666667","25.1044416666667","6500500","新莊區"
"221036","130-UY","2018/11/20 20:48:01","新北市汐止區康寧街901號","121.650876666667","25.075265","6501100","汐止區"
"221027","281-BY","2018/11/20 20:47:57","新北市汐止區大同路二段362號","121.657398333333","25.0671666666667","6501100","汐止區"
"221029","298-VK","2018/11/20 20:48:06","新北市汐止區樟樹二路355-1號","121.644483333333","25.074685","6501100","汐止區"
"221035","622-UM","2018/11/20 20:48:14","新北市汐止區汐萬路一段222號","121.65164","25.0729633333333","6501100","汐止區"
"221038","646-BX","2018/11/20 20:48:01","新北市汐止區汐萬路一段256巷3號","121.652085","25.0747566666667","6501100","汐止區"
"221033","647-BX","2018/11/20 20:48:10","新北市汐止區合順街18巷8弄5號","121.620338333333","25.041935","6501100","汐止區"
"221002","707-TV","2018/11/20 20:48:01","新北市汐止區福德二路二段170號","121.629486666667","25.0649766666667","6501100","汐止區"
"221018","753-BX","2018/11/20 20:48:10","新北市汐止區大同路二段535號","121.661848333333","25.069165","6501100","汐止區"
"220081","287-VK","2018/11/20 20:48:03","新北市八里區荖阡坑路20-9號","121.398541666667","25.137845","6500100","板橋區"
"242002","281-VK","2018/11/20 20:48:13","新北市新莊區中港路五守新村23巷2號","121.45494","25.0384966666667","6500500","新莊區"
"242051","280-VK","2018/11/20 20:48:12","新北市新莊區新樹路210號","121.433695","25.0204316666667","6500500","新莊區"
"220070","806-UM","2018/11/20 20:47:58","新北市樹林區中山路三段210-2號","121.381646666667","24.9654933333333","6500100","板橋區"
