"lineid","car","time","location","longitude","latitude","cityid","cityname"
"234040","862-TW","2018/11/20 22:04:02","新北市永和區福和路1號","121.526313333333","25.0097033333333","6500400","永和區"
"241002","090-VK","2018/11/20 22:28:12","新北市五股區中興路三段2巷10號","121.449115","25.081115","6500200","三重區"
"251008","181-VK","2018/11/20 22:28:02","新北市淡水區學府路104號","121.449851666667","25.171775","6501000","淡水區"
"251010","413-VK","2018/11/20 22:28:02","新北市淡水區沙崙路200號","121.424666666667","25.183925","6501000","淡水區"
"251004","443-VK","2018/11/20 22:28:07","新北市淡水區民族路33號","121.462261666667","25.1358083333333","6501000","淡水區"
"251007","577-R6","2018/11/20 22:27:59","新北市淡水區北新路139號","121.4495","25.1788533333333","6501000","淡水區"
"251011","650-BX","2018/11/20 22:28:09","新北市淡水區水碓街7號","121.443206666667","25.1771216666667","6501000","淡水區"
