"lineid","car","time","location","longitude","latitude","cityid","cityname"
"248005","653-BX","2018/09/06 09:59:53","新北市五股區成泰路一段241巷15號","121.435676666667","25.081105","6501500","五股區"
"244018","403-UM","2018/09/06 09:59:36","新北市林口區麗園二街1巷5-2號","121.377575","25.0700433333333","6501700","林口區"
"244023","483-VK","2018/09/06 09:59:38","新北市林口區文林六街30號","121.371293333333","25.0807733333333","6501700","林口區"
"244016","485-VK","2018/09/06 09:59:52","新北市林口區忠孝路132-1號","121.367078333333","25.0735683333333","6501700","林口區"
"222006","289-BY","2018/09/06 09:59:40","新北市深坑區王軍寮1-10號","121.618596666667","24.98934","6501800","深坑區"
"231069","189-VK","2018/09/06 09:59:55","新北市新店區新潭路三段215巷25號","121.50813","24.9040683333333","6500600","新店區"
"231008","192-VK","2018/09/06 09:59:48","新北市新店區平廣路一段50號","121.53388","24.901005","6500600","新店區"
"231053","719-UY","2018/09/06 09:59:42","新北市新店區安康路一段266巷4號","121.520208333333","24.9639733333333","6500600","新店區"
"223008","406-TH","2018/09/06 09:56:54","新北市石碇區小粗坑(潭邊里)9-2號","121.679031666667","24.98608","6501900","石碇區"
"252004","249-BX","2018/09/06 09:59:36","新北市三芝區福德里土地公埔39號","121.510338333333","25.2349483333333","6502100","三芝區"
"252007","AAC-283","2018/09/06 09:59:44","新北市三芝區新庄里新庄子56號","121.505668333333","25.27581","6502100","三芝區"
"237001","159-UY","2018/09/06 09:59:47","新北市三峽區國際二街39號","121.371725","24.94277","6500900","三峽區"
"236005","498-BY","2018/09/06 09:59:46","新北市土城區忠義路45巷2號","121.44124","24.96938","6501300","土城區"
"242043","566-BX","2018/09/06 09:59:47","新北市新莊區龍安路92號","121.41767","25.0207816666667","6500500","新莊區"
"242047","497-BY","2018/09/06 09:59:39","新北市新莊區建國二路1號","121.435006666667","25.0238316666667","6500500","新莊區"
"242030","348-TH","2018/09/06 09:59:42","新北市新莊區中正路559號","121.434985","25.0327133333333","6500500","新莊區"
"242003","349-TH","2018/09/06 09:59:53","新北市新莊區環河路116-1號","121.460631666667","25.0379383333333","6500500","新莊區"
