"lineid","car","time","location","longitude","latitude","cityid","cityname"
"234044","148-BY","2018/09/06 12:49:46","新北市永和區秀朗路二段128號","121.524875","25.001355","6500400","永和區"
"234070","149-BY","2018/09/06 12:49:44","新北市永和區福和路1號","121.526255","25.0098783333333","6500400","永和區"
"234005","207-UY","2018/09/06 12:49:49","新北市永和區永和路二段245號","121.515703333333","25.0149633333333","6500400","永和區"
"234078","298-R6","2018/09/06 12:49:53","新北市永和區永利路130號","121.521738333333","25.0030283333333","6500400","永和區"
"234036","336-UY","2018/09/06 12:49:48","新北市永和區成功路二段89號","121.52682","24.99931","6500400","永和區"
"234062","337-UY","2018/09/06 12:49:46","新北市永和區豫溪街217巷19號","121.524896666667","25.01016","6500400","永和區"
"234084","338-UY","2018/09/06 12:49:49","新北市永和區中正路59號","121.514646666667","24.9964916666667","6500400","永和區"
"234068","552-UM","2018/09/06 12:49:48","新北市永和區竹林路96巷7號","121.519181666667","25.0120683333333","6500400","永和區"
"234015","745-BX","2018/09/06 12:49:49","新北市永和區光復街33巷3號","121.516316666667","25.0180333333333","6500400","永和區"
"234028","746-BX","2018/09/06 12:49:49","新北市永和區得和路327號","121.523475","24.999625","6500400","永和區"
"234052","KEA-2590","2018/09/06 12:49:43","新北市永和區竹林路39巷35號","121.5204","25.0154866666667","6500400","永和區"
"234060","AAD-866","2018/09/06 12:49:49","新北市永和區福和路299號","121.516481666667","25.007275","6500400","永和區"
"234012","847-RS","2018/09/06 12:49:53","新北市永和區保福路二段133巷1號","121.509533333333","25.0138183333333","6500400","永和區"
"234040","862-TW","2018/09/06 12:49:52","新北市永和區永貞路308號","121.51185","25.00486","6500400","永和區"
"234025","9371-KE","2018/09/06 12:49:41","新北市永和區永和路一段202號","121.51428","25.0092116666667","6500400","永和區"
"234010","9373-KE","2018/09/06 12:49:48","新北市永和區保福路二段156號","121.50919","25.0150516666667","6500400","永和區"
"248013","025-BX","2018/09/06 12:49:58","新北市五股區中興路二段63巷17號","121.460205","25.0753016666667","6501500","五股區"
"248007","095-VK","2018/09/06 12:49:39","新北市五股區中興路二段37巷28號","121.460215","25.075125","6501500","五股區"
"248017","225-UY","2018/09/06 12:49:47","新北市五股區中興路二段83巷26-6號","121.460108333333","25.07527","6501500","五股區"
"248011","247-BX","2018/09/06 12:49:55","新北市五股區中興路二段37巷28號","121.460258333333","25.0749266666667","6501500","五股區"
"248015","261-SL","2018/09/06 12:46:12","新北市五股區中興路二段83巷26-6號","121.460103333333","25.0751733333333","6501500","五股區"
"248009","682-TV","2018/09/06 12:49:46","新北市五股區中興路二段83巷15號","121.459876666667","25.07623","6501500","五股區"
"234022","9380-KE","2018/09/06 12:49:46","新北市永和區竹林路119巷53弄13號","121.522261666667","25.0121966666667","6500400","永和區"
"234076","969-R7","2018/09/06 12:49:49","新北市永和區中正路4號","121.512405","24.993505","6500400","永和區"
"234066","AAC-212","2018/09/06 12:49:45","新北市永和區永和路一段22號","121.513025","25.0048333333333","6500400","永和區"
"234001","AAC-295","2018/09/06 12:49:53","新北市永和區永和路二段5號","121.514293333333","25.0101883333333","6500400","永和區"
"244003","248-BX","2018/09/06 12:49:42","新北市林口區粉寮路二段160巷28號","121.405386666667","25.0907266666667","6501700","林口區"
"231028","046-UY","2018/09/06 12:49:54","新北市新店區安華路28-1號","121.519623333333","24.960835","6500600","新店區"
"231001","047-UY","2018/09/06 12:49:43","新北市新店區安華路28-1號","121.519006666667","24.96089","6500600","新店區"
"231005","106-UY","2018/09/06 12:49:56","新北市新店區安華路3號","121.51919","24.9597216666667","6500600","新店區"
"231010","107-UY","2018/09/06 12:49:48","新北市新店區安一路一段1-1號","121.519263333333","24.9611866666667","6500600","新店區"
"231035","110-UY","2018/09/06 12:49:44","新北市新店區安一路一段1-1號","121.519351666667","24.9613116666667","6500600","新店區"
"231023","KEA-2219","2018/09/06 12:49:48","新北市新店區安華路28-1號","121.520131666667","24.9610566666667","6500600","新店區"
"231003","268-BY","2018/09/06 12:49:44","新北市新店區安華路28-1號","121.519373333333","24.960675","6500600","新店區"
"231017","AAD-862","2018/09/06 12:49:58","新北市新店區安一路一段1-1號","121.519963333333","24.9611783333333","6500600","新店區"
"231037","4716-K9","2018/09/06 12:49:48","新北市新店區安一路一段1-1號","121.519181666667","24.9611416666667","6500600","新店區"
"231013","513-UM","2018/09/06 12:49:48","新北市新店區安一路一段1-1號","121.51968","24.9612316666667","6500600","新店區"
"231030","619-UM","2018/09/06 12:49:57","新北市新店區安華路28-1號","121.519325","24.960975","6500600","新店區"
"231029","897-TW","2018/09/06 12:49:41","新北市新店區安華路28-1號","121.51945","24.9606916666667","6500600","新店區"
"235027","006-UY","2018/09/06 12:49:43","新北市中和區員山路36巷16-3號","121.484948333333","24.9912216666667","6500300","中和區"
"235029","098-UM","2018/09/06 12:49:39","新北市中和區建八路28-1號","121.487041666667","24.99863","6500300","中和區"
"235002","185-VK","2018/09/06 12:49:46","新北市中和區中正路561號","121.486945","24.9942133333333","6500300","中和區"
"235031","255-BX","2018/09/06 12:49:56","新北市中和區新民街90號","121.48194","25.0074816666667","6500300","中和區"
"235028","551-UM","2018/09/06 12:49:57","新北市中和區員山路36巷16-3號","121.485018333333","24.9914916666667","6500300","中和區"
"235035","783-BX","2018/09/06 12:49:48","新北市中和區員山路36巷16-3號","121.485035","24.9913383333333","6500300","中和區"
"228005","097-TW","2018/09/06 12:49:51","新北市貢寮區福連里福連街34-1號","121.988676666667","25.0111133333333","6502600","貢寮區"
"228004","212-TW","2018/09/06 12:49:57","新北市貢寮區吉林里內寮街20-1號","121.889808333333","24.9947066666667","6502600","貢寮區"
"207002","749-BX","2018/09/06 12:49:48","新北市萬里區雙興里二坪路32號","121.644675","25.1687066666667","6502800","萬里區"
"207001","662-BX","2018/09/06 12:49:56","新北市萬里區萬里里瑪鋉路219號","121.690018333333","25.1795166666667","6502800","萬里區"
"236005","498-BY","2018/09/06 12:50:00","新北市土城區永寧路11號","121.43048","24.9641133333333","6501300","土城區"
"221015","131-UY","2018/09/06 12:49:42","新北市汐止區汐萬路二段40號","121.649605","25.0814233333333","6501100","汐止區"
"221010","269-BY","2018/09/06 12:49:38","新北市汐止區忠三街8號","121.624631666667","25.0785016666667","6501100","汐止區"
"221032","280-BY","2018/09/06 12:49:59","新北市汐止區建成路39號","121.663088333333","25.072995","6501100","汐止區"
"221027","281-BY","2018/09/06 12:49:56","新北市汐止區保長路1號","121.671181666667","25.0800533333333","6501100","汐止區"
"221033","297-VK","2018/09/06 12:49:41","新北市汐止區汐萬路一段160號","121.65265","25.07149","6501100","汐止區"
"235032","KEA-2873","2018/09/06 12:49:43","新北市中和區員山路36巷16-3號","121.484951666667","24.9911916666667","6500300","中和區"
