"lineid","car","time","location","longitude","latitude","cityid","cityname"
"234044","148-BY","2018/09/06 13:29:26","新北市永和區秀朗路二段229號","121.526511666667","25.0003716666667","6500400","永和區"
"234070","149-BY","2018/09/06 13:29:24","新北市永和區得和路372號","121.524418333333","24.9991833333333","6500400","永和區"
"234005","207-UY","2018/09/06 13:29:28","新北市永和區永貞路375號","121.508213333333","25.0083233333333","6500400","永和區"
"234078","298-R6","2018/09/06 13:29:13","新北市永和區環河東路三段54號","121.526618333333","25.0061366666667","6500400","永和區"
"234036","336-UY","2018/09/06 13:29:30","新北市永和區民樂街30巷2號","121.527551666667","25.001255","6500400","永和區"
"234062","337-UY","2018/09/06 13:29:26","新北市永和區中正路368巷1弄88號","121.52046","25.0007683333333","6500400","永和區"
"234084","338-UY","2018/09/06 13:29:29","新北市永和區林森路62號","121.524015","25.0041883333333","6500400","永和區"
"234068","552-UM","2018/09/06 13:29:28","新北市永和區警光街12號","121.519693333333","25.0095533333333","6500400","永和區"
"234015","745-BX","2018/09/06 13:29:29","新北市永和區永和路二段425巷16號","121.514903333333","25.017795","6500400","永和區"
"234028","746-BX","2018/09/06 13:29:28","新北市永和區得和路322號","121.52308","24.99959","6500400","永和區"
"234052","KEA-2590","2018/09/06 13:29:23","新北市永和區復興街19巷4號","121.516165","25.0131766666667","6500400","永和區"
"234060","AAD-866","2018/09/06 13:29:29","新北市永和區中正路568號","121.51717","25.00622","6500400","永和區"
"234012","847-RS","2018/09/06 13:29:13","新北市永和區永和路二段94號","121.515036666667","25.0115333333333","6500400","永和區"
"234040","862-TW","2018/09/06 13:29:12","新北市永和區中和路573號","121.5116","25.0034166666667","6500400","永和區"
"234048","863-TW","2018/09/06 13:29:27","新北市永和區信義路115號","121.512235","25.01481","6500400","永和區"
"234025","9371-KE","2018/09/06 13:29:20","新北市永和區中山路一段17巷4弄16號","121.513123333333","25.0101816666667","6500400","永和區"
"234010","9373-KE","2018/09/06 13:29:28","新北市永和區忠孝街34巷12弄2號","121.514643333333","25.0165333333333","6500400","永和區"
"248013","025-BX","2018/09/06 13:29:17","新北市五股區成泰路一段106-1號","121.435711666667","25.0718166666667","6501500","五股區"
"248005","077-UY","2018/09/06 13:29:07","新北市五股區四維路56號","121.467383333333","25.07219","6501500","五股區"
"248007","095-VK","2018/09/06 13:29:18","新北市五股區四維路185巷42弄7號","121.463688333333","25.07685","6501500","五股區"
"248017","225-UY","2018/09/06 13:29:27","新北市五股區御史路269號","121.421876666667","25.1061583333333","6501500","五股區"
"248011","247-BX","2018/09/06 13:29:15","新北市五股區御史路39巷2號","121.442283333333","25.0922366666667","6501500","五股區"
"248015","261-SL","2018/09/06 13:29:26","新北市五股區凌雲路一段83巷7弄2號","121.449875","25.1007183333333","6501500","五股區"
"248003","677-BX","2018/09/06 13:29:16","新北市五股區民義路一段185-1號","121.431136666667","25.0885783333333","6501500","五股區"
"248001","678-BX","2018/09/06 13:29:16","新北市五股區西雲路163號","121.446176666667","25.0944266666667","6501500","五股區"
"248009","682-TV","2018/09/06 13:29:26","新北市五股區水碓路14號","121.433683333333","25.0725433333333","6501500","五股區"
"234022","9380-KE","2018/09/06 13:29:26","新北市永和區竹林路91巷45號","121.521316666667","25.0128766666667","6500400","永和區"
"234076","969-R7","2018/09/06 13:29:29","新北市永和區智光街28號","121.517898333333","24.9989066666667","6500400","永和區"
"234072","AAC-211","2018/09/06 13:29:22","新北市永和區光復街42號","121.516666666667","25.0176716666667","6500400","永和區"
"234066","AAC-212","2018/09/06 13:29:29","新北市永和區保平路174巷8號","121.510601666667","25.0070316666667","6500400","永和區"
"234001","AAC-295","2018/09/06 13:29:13","新北市永和區永和路一段107號","121.513915","25.0079383333333","6500400","永和區"
"244003","248-BX","2018/09/06 13:28:42","新北市林口區瑞平里5鄰38號","121.353356666667","25.1182233333333","6501700","林口區"
"243005","AAD-798","2018/09/06 13:26:35","新北市泰山區明志路三段206巷1號","121.423338333333","25.0379383333333","6501600","泰山區"
"243008","KEA-2801","2018/09/06 13:29:13","新北市泰山區犁頭窠3-1號","121.422128333333","25.060425","6501600","泰山區"
"231002","002-UM","2018/09/06 13:29:22","新北市新店區環河路66號","121.536896666667","24.9627933333333","6500600","新店區"
"231027","0293-UT","2018/09/06 13:29:13","新北市新店區新店後街120號","121.537713333333","24.9556466666667","6500600","新店區"
"231028","046-UY","2018/09/06 13:29:14","新北市新店區安華路28-1號","121.519511666667","24.9609033333333","6500600","新店區"
"231001","047-UY","2018/09/06 13:29:03","新北市新店區力行路15號","121.537083333333","24.965605","6500600","新店區"
"231005","106-UY","2018/09/06 13:29:16","新北市新店區力行路11巷57號","121.53862","24.9617933333333","6500600","新店區"
"231010","107-UY","2018/09/06 13:29:28","新北市新店區中央路11號","121.53339","24.9784816666667","6500600","新店區"
"231021","108-UY","2018/09/06 13:29:27","新北市新店區新烏路一段73-1號","121.546415","24.9422","6500600","新店區"
"231035","110-UY","2018/09/06 13:29:24","新北市新店區安華路28-1號","121.519855","24.9610083333333","6500600","新店區"
"231011","187-VK","2018/09/06 13:29:31","新北市新店區北新路二段80號","121.542955","24.9727083333333","6500600","新店區"
"231023","KEA-2219","2018/09/06 13:29:29","新北市新店區新店路13號","121.540268333333","24.9528533333333","6500600","新店區"
"231026","256-BX","2018/09/06 13:29:13","新北市新店區光明街31號","121.538398333333","24.95972","6500600","新店區"
"231003","268-BY","2018/09/06 13:29:24","新北市新店區安康路一段85號","121.529328333333","24.9614683333333","6500600","新店區"
"231018","278-BY","2018/09/06 13:29:17","新北市新店區中央路63號","121.532568333333","24.9770233333333","6500600","新店區"
"231017","AAD-862","2018/09/06 13:29:25","新北市新店區北宜路二段56巷3弄1號","121.54912","24.9509083333333","6500600","新店區"
"231038","3712-VJ","2018/09/06 13:11:12","新北市新店區安華路28-1號","121.519146666667","24.9606133333333","6500600","新店區"
"231037","4716-K9","2018/09/06 13:29:28","新北市新店區安康路二段327號","121.49971","24.95472","6500600","新店區"
"231025","4715-K9","2018/09/06 13:29:14","新北市新店區中央六街56號","121.527935","24.975805","6500600","新店區"
"231036","512-UM","2018/09/06 13:29:23","新北市新店區建業路102-1號","121.47905","24.9553033333333","6500600","新店區"
"231013","513-UM","2018/09/06 13:29:08","新北市新店區力行路15號","121.537073333333","24.9658416666667","6500600","新店區"
"231006","617-UM","2018/09/06 13:29:18","新北市新店區安康路一段89號","121.529211666667","24.9614766666667","6500600","新店區"
"231030","619-UM","2018/09/06 13:29:17","新北市新店區安華路28-1號","121.519648333333","24.9607783333333","6500600","新店區"
"231034","641-BX","2018/09/06 13:29:10","新北市新店區安華路1-1號","121.519571666667","24.9600166666667","6500600","新店區"
"231031","720-UM","2018/09/06 13:29:13","新北市新店區安豐路48號","121.500408333333","24.9541666666667","6500600","新店區"
"231029","897-TW","2018/09/06 13:29:29","新北市新店區安忠路205巷8號","121.508728333333","24.9548166666667","6500600","新店區"
"231004","899-TW","2018/09/06 13:29:12","新北市新店區安康路一段218號","121.523883333333","24.9635333333333","6500600","新店區"
"231024","AKT-0513","2018/09/06 13:29:27","新北市新店區中正路170號","121.541201666667","24.9719916666667","6500600","新店區"
"235030","003-UY","2018/09/06 13:29:17","新北市中和區中山路二段120號","121.502631666667","25.0038166666667","6500300","中和區"
"235027","006-UY","2018/09/06 13:29:23","新北市中和區連城路347巷3號","121.488331666667","24.9954533333333","6500300","中和區"
"235020","096-UM","2018/09/06 13:29:22","新北市中和區中正路752號","121.48537","24.9986116666667","6500300","中和區"
"235003","097-UM","2018/09/06 13:29:26","新北市中和區大勇街27巷5號","121.517063333333","24.9935566666667","6500300","中和區"
"235029","098-UM","2018/09/06 13:29:19","新北市中和區莊敬路49巷18號","121.501576666667","25.0060816666667","6500300","中和區"
"235004","150-BY","2018/09/06 13:29:12","新北市中和區安平路59號","121.50946","24.99518","6500300","中和區"
"235022","151-BY","2018/09/06 13:29:18","新北市中和區圓通路369巷152號","121.487961666667","24.981555","6500300","中和區"
"235019","183-VK","2018/09/06 13:29:21","新北市中和區民享街245號","121.47202","24.9962266666667","6500300","中和區"
"235002","185-VK","2018/09/06 13:29:26","新北市中和區立人街63號","121.520096666667","24.9942916666667","6500300","中和區"
"235013","186-VK","2018/09/06 13:29:11","新北市中和區景安路142號","121.50512","24.99412","6500300","中和區"
"235031","255-BX","2018/09/06 13:29:16","新北市中和區新生街242巷11弄8號","121.48289","24.9974583333333","6500300","中和區"
"235036","301-VK","2018/09/06 13:29:15","新北市中和區連城路249-1號","121.493328333333","24.996935","6500300","中和區"
"235007","352-BY","2018/09/06 13:29:14","新北市中和區景平路323號","121.505906666667","24.9930666666667","6500300","中和區"
"235006","KEA-2878","2018/09/06 13:29:25","新北市中和區秀朗路三段150巷13號","121.52374","24.9909583333333","6500300","中和區"
"247011","KEA-2869","2018/09/06 13:29:21","新北市五股區中興路三段163號","121.449103333333","25.08082","6501400","蘆洲區"
"235014","4979-A6","2018/09/06 13:29:23","新北市中和區景新街410巷18弄21號","121.511808333333","24.9898","6500300","中和區"
"235033","4980-A6","2018/09/06 13:29:15","新北市中和區連城路127巷17號","121.496666666667","24.9983566666667","6500300","中和區"
"235028","551-UM","2018/09/06 13:29:17","新北市中和區圓通路138號","121.498326666667","24.9958","6500300","中和區"
"235034","558-UM","2018/09/06 13:29:19","新北市中和區南華路45號","121.503833333333","24.9966433333333","6500300","中和區"
"235009","565-BX","2018/09/06 13:29:19","新北市中和區南山路236巷24弄30號","121.504833333333","24.988915","6500300","中和區"
"235018","640-BX","2018/09/06 13:29:18","新北市中和區民享街90巷1號","121.47479","25.000195","6500300","中和區"
"235011","732-UM","2018/09/06 13:29:16","新北市中和區南山路320巷3號","121.507613333333","24.9865033333333","6500300","中和區"
"235035","783-BX","2018/09/06 13:29:08","新北市板橋區光環路二段22-3號","121.48245","25.0142483333333","6500300","中和區"
"235026","800-TS","2018/09/06 13:29:23","新北市中和區景平路999巷1號","121.495528333333","25.00587","6500300","中和區"
"235021","801-TS","2018/09/06 13:29:17","新北市中和區民享街97巷12號","121.47515","24.99963","6500300","中和區"
"235005","802-TS","2018/09/06 13:29:14","新北市中和區中和路324巷3弄1號","121.50998","25.0009083333333","6500300","中和區"
"235016","805-TS","2018/09/06 13:29:31","新北市中和區興南路二段96號","121.505136666667","24.9841916666667","6500300","中和區"
"235012","896-TW","2018/09/06 13:29:22","新北市中和區中正路637巷52弄1號","121.48539","24.9935","6500300","中和區"
"235017","900-TW","2018/09/06 13:29:15","新北市土城區金城路三段257號","121.471851666667","24.9900583333333","6500300","中和區"
"235024","911-UM","2018/09/06 13:29:21","新北市中和區員山路287號","121.481183333333","24.999835","6500300","中和區"
"235015","157-BY","2018/09/06 13:29:28","新北市中和區興南路二段142巷25弄22號","121.502675","24.984245","6500300","中和區"
"235001","AAC-213","2018/09/06 13:29:10","新北市中和區景德街88號","121.516153333333","24.9914533333333","6500300","中和區"
"235023","AAC-215","2018/09/06 13:29:21","新北市中和區員山路36巷16-3號","121.484935","24.9914","6500300","中和區"
"220013","072-UY","2018/09/06 13:29:21","新北市板橋區南雅南路二段116號","121.453298333333","25.000415","6500100","板橋區"
"220017","AAD-861","2018/09/06 13:29:12","新北市板橋區華東街1-10號","121.448346666667","24.9951333333333","6500100","板橋區"
"247023","500-BY","2018/09/06 13:29:12","新北市五股區中興路三段2巷10號","121.449086666667","25.0808983333333","6501400","蘆洲區"
"247009","056-VK","2018/09/06 13:29:30","新北市五股區中興路三段2巷10號","121.449106666667","25.0811333333333","6501400","蘆洲區"
"228005","097-TW","2018/09/06 13:29:11","新北市貢寮區美豐里文秀坑8號","121.90259","25.0504333333333","6502600","貢寮區"
"228004","212-TW","2018/09/06 13:29:16","新北市貢寮區龍崗里石壁坑街17號","121.910366666667","24.98947","6502600","貢寮區"
"253003","6232-TK","2018/09/06 13:29:24","新北市石門區內石門83號","121.56919","25.2643116666667","6502200","石門區"
"253001","6251-TK","2018/09/06 13:29:31","新北市石門區下員坑33-2號","121.519543333333","25.2831216666667","6502200","石門區"
"253002","637-UY","2018/09/06 13:29:16","新北市石門區老崩山40-2號","121.561916666667","25.26762","6502200","石門區"
"253004","8270-PC","2018/09/06 13:29:16","新北市石門區竹子湖11號","121.617273333333","25.25757","6502200","石門區"
"207002","749-BX","2018/09/06 13:29:09","新北市萬里區崁腳里崁腳路166號","121.645088333333","25.155835","6502800","萬里區"
"207001","662-BX","2018/09/06 13:28:16","新北市萬里區龜吼里石角路43號","121.684618333333","25.19265","6502800","萬里區"
"252005","AAC-283","2018/09/06 13:29:22","新北市三芝區福德里土地公埔69號","121.51967","25.224815","6502100","三芝區"
"236005","498-BY","2018/09/06 13:29:20","新北市土城區亞洲路11巷3弄1號","121.435231666667","24.9712833333333","6501300","土城區"
"242049","172-VK","2018/09/06 13:29:09","新北市新莊區成功街139-2號","121.42425","25.0172266666667","6500500","新莊區"
"221015","131-UY","2018/09/06 13:29:22","新北市汐止區汐萬路二段267號","121.646181666667","25.08879","6501100","汐止區"
"221010","269-BY","2018/09/06 13:29:18","新北市汐止區汐萬路一段256巷3號","121.653365","25.07482","6501100","汐止區"
"221032","280-BY","2018/09/06 13:29:19","新北市汐止區水源路一段56號","121.657386666667","25.0655533333333","6501100","汐止區"
"221027","281-BY","2018/09/06 13:29:16","新北市汐止區大同路三段369巷42號","121.675953333333","25.0739633333333","6501100","汐止區"
"221033","297-VK","2018/09/06 13:29:21","新北市汐止區大同路一段22號","121.621806666667","25.0547033333333","6501100","汐止區"
"220027","145-BY","2018/09/06 13:29:25","新北市板橋區板城路271號","121.450146666667","24.99793","6500100","板橋區"
"220028","200-UY","2018/09/06 13:29:12","新北市板橋區華東街1-9號","121.448156666667","24.994875","6500100","板橋區"
"220030","610-BX","2018/09/06 13:29:09","新北市板橋區華東街1-10號","121.448248333333","24.9949516666667","6500100","板橋區"
"220019","283-VK","2018/09/06 13:29:19","新北市板橋區華東街1-9號","121.448095","24.994915","6500100","板橋區"
"220031","286-VK","2018/09/06 13:29:10","新北市板橋區華東街1-10號","121.448313333333","24.99509","6500100","板橋區"
"220029","287-VK","2018/09/06 13:29:21","新北市板橋區華東街1-10號","121.448251666667","24.9950483333333","6500100","板橋區"
"220010","299-UM","2018/09/06 13:29:30","新北市板橋區民生路二段120號","121.47035","25.0200983333333","6500100","板橋區"
"220023","303-R5","2018/09/06 13:29:13","新北市板橋區華東街1-10號","121.448276666667","24.995","6500100","板橋區"
"220012","486-VK","2018/09/06 13:29:22","新北市板橋區南雅南路二段120-1號","121.452391666667","24.99971","6500100","板橋區"
"220104","560-BX","2018/09/06 13:29:22","新北市板橋區南雅南路二段116號","121.453276666667","25.000455","6500100","板橋區"
"220005","686-BX","2018/09/06 13:29:16","新北市板橋區華東街1-9號","121.448218333333","24.994885","6500100","板橋區"
"220002","741-BX","2018/09/06 13:29:23","新北市板橋區華東街1-9號","121.448075","24.9949133333333","6500100","板橋區"
"220003","827-TW","2018/09/06 13:29:15","新北市板橋區華東街1-10號","121.448703333333","24.9950266666667","6500100","板橋區"
"220022","895-R6","2018/09/06 13:29:14","新北市板橋區華東街1-10號","121.448275","24.9949866666667","6500100","板橋區"
"220021","985-R7","2018/09/06 13:29:18","新北市板橋區華東街1-10號","121.448285","24.9949466666667","6500100","板橋區"
"235032","KEA-2873","2018/09/06 13:29:20","新北市中和區圓通路220號","121.495266666667","24.9930516666667","6500300","中和區"
"235025","KEA-2875","2018/09/06 13:29:05","新北市中和區民享街90巷20號","121.473585","25.00011","6500300","中和區"
