"lineid","car","time","location","longitude","latitude","cityid","cityname"
"234070","149-BY","2018/09/06 14:49:44","新北市八里區中山路三段390號","121.368285","25.1349516666667","6500400","永和區"
"234025","9371-KE","2018/09/06 14:49:41","新北市永和區雙和街52巷1-1號","121.509125","25.0032266666667","6500400","永和區"
"248013","025-BX","2018/09/06 14:49:43","新北市五股區五福路6巷21號","121.435485","25.088565","6501500","五股區"
"248007","095-VK","2018/09/06 14:49:58","新北市五股區四維路183號","121.468245","25.075745","6501500","五股區"
"248017","225-UY","2018/09/06 14:32:47","新北市五股區外寮路13-1號","121.42476","25.0810566666667","6501500","五股區"
"248011","247-BX","2018/09/06 14:49:55","新北市五股區六合街118號","121.430275","25.0908466666667","6501500","五股區"
"248015","261-SL","2018/09/06 14:49:46","新北市五股區成泰路三段577巷80弄48號","121.449826666667","25.1050983333333","6501500","五股區"
"248003","677-BX","2018/09/06 14:49:56","新北市五股區成泰路一段104號","121.435743333333","25.07173","6501500","五股區"
"248001","678-BX","2018/09/06 14:49:56","新北市五股區成泰路三段165號","121.445215","25.0918383333333","6501500","五股區"
"248009","682-TV","2018/09/06 14:49:46","新北市五股區成泰路一段93號","121.435265","25.0689783333333","6501500","五股區"
"244003","248-BX","2018/09/06 14:49:42","新北市林口區竹林路267號","121.389548333333","25.0808466666667","6501700","林口區"
"243005","AAD-798","2018/09/06 14:49:50","新北市泰山區貴子路2號","121.424988333333","25.042175","6501600","泰山區"
"243001","297-R6","2018/09/06 14:49:59","新北市泰山區泰林路二段115號","121.434423333333","25.05944","6501600","泰山區"
"243008","KEA-2801","2018/09/06 14:50:02","新北市泰山區新北大道六段282號","121.42576","25.03557","6501600","泰山區"
"243007","421-VK","2018/09/06 14:49:51","新北市泰山區明志路一段482號","121.430598333333","25.054875","6501600","泰山區"
"243003","KEA-2215","2018/09/06 14:49:56","新北市泰山區明志路三段197號","121.424148333333","25.03867","6501600","泰山區"
"243002","KEA-2216","2018/09/06 14:49:44","新北市泰山區明志路二段255巷2弄3號","121.427568333333","25.047275","6501600","泰山區"
"243004","646-TV","2018/09/06 14:49:56","新北市泰山區楓江路158號","121.440615","25.06621","6501600","泰山區"
"243006","680-BX","2018/09/06 14:49:49","新北市泰山區明志路一段135號","121.43344","25.0630566666667","6501600","泰山區"
"231002","002-UM","2018/09/06 14:49:42","新北市新店區民權路123號","121.535713333333","24.9828316666667","6500600","新店區"
"231027","0291-UT","2018/09/06 14:49:55","新北市新店區中正路135號","121.541836666667","24.9714283333333","6500600","新店區"
"231028","046-UY","2018/09/06 14:49:54","新北市新店區安德街106號","121.50931","24.960985","6500600","新店區"
"231001","047-UY","2018/09/06 14:49:43","新北市新店區三民路80號","121.534656666667","24.9725016666667","6500600","新店區"
"231005","106-UY","2018/09/06 14:49:56","新北市新店區復興路2號","121.532488333333","24.9882816666667","6500600","新店區"
"231021","108-UY","2018/09/06 14:49:56","新北市新店區新烏路二段300號","121.548726666667","24.91295","6500600","新店區"
"231035","110-UY","2018/09/06 14:49:44","新北市新店區安利街32號","121.519053333333","24.97485","6500600","新店區"
"231011","187-VK","2018/09/06 14:49:51","新北市新店區寶橋路76-1號","121.546823333333","24.9750316666667","6500600","新店區"
"231023","KEA-2219","2018/09/06 14:49:48","新北市新店區檳榔路109號","121.54442","24.9617166666667","6500600","新店區"
"231026","256-BX","2018/09/06 14:49:58","新北市新店區安康路一段110巷2號","121.52722","24.9626333333333","6500600","新店區"
"231003","268-BY","2018/09/06 14:49:44","新北市新店區中興路二段197號","121.548265","24.9739016666667","6500600","新店區"
"231018","278-BY","2018/09/06 14:42:37","新北市新店區中央七街6號","121.530441666667","24.9746033333333","6500600","新店區"
"231017","AAD-862","2018/09/06 14:49:58","新北市新店區銀河路21號","121.572921666667","24.9571716666667","6500600","新店區"
"231038","3712-VJ","2018/09/06 14:49:56","新北市新店區安華路28-1號","121.519625","24.9609433333333","6500600","新店區"
"231037","4716-K9","2018/09/06 14:49:48","新北市新店區柴埕路52巷5-1號","121.511715","24.9647","6500600","新店區"
"231036","512-UM","2018/09/06 14:49:43","新北市新店區安祥路106巷200弄4號","121.47437","24.9602383333333","6500600","新店區"
"231013","513-UM","2018/09/06 14:49:48","新北市新店區北新路二段68號","121.542903333333","24.9724433333333","6500600","新店區"
"231006","617-UM","2018/09/06 14:49:58","新北市新店區北宜路一段136號","121.539743333333","24.9547516666667","6500600","新店區"
"231030","619-UM","2018/09/06 14:49:57","新北市新店區安民街279號","121.51755","24.9732166666667","6500600","新店區"
"231034","641-BX","2018/09/06 14:49:49","新北市新店區安康路二段362號","121.501793333333","24.9574516666667","6500600","新店區"
"231039","718-UY","2018/09/06 14:49:49","新北市新店區安康路一段258-2號","121.520441666667","24.96562","6500600","新店區"
"231029","897-TW","2018/09/06 14:49:49","新北市新店區錦秀路11巷94弄2號","121.48018","24.942425","6500600","新店區"
"231004","899-TW","2018/09/06 14:49:52","新北市新店區民族路104號","121.539088333333","24.9781066666667","6500600","新店區"
"231024","AKT-0513","2018/09/06 14:49:50","新北市新店區中華路83巷67號","121.53824","24.96724","6500600","新店區"
"235030","003-UY","2018/09/06 14:49:57","新北市中和區南工路36號","121.505788333333","25.001145","6500300","中和區"
"235020","096-UM","2018/09/06 14:50:01","新北市中和區中山路三段114巷68號","121.475886666667","25.00759","6500300","中和區"
"235003","097-UM","2018/09/06 14:49:41","新北市中和區安樂路139號","121.514543333333","24.9967716666667","6500300","中和區"
"235029","098-UM","2018/09/06 14:49:59","新北市中和區永和路88-4號","121.497216666667","25.0054033333333","6500300","中和區"
"235004","150-BY","2018/09/06 14:49:52","新北市中和區安平路38號","121.509781666667","24.9949966666667","6500300","中和區"
"235022","151-BY","2018/09/06 14:49:58","新北市中和區員山路225號","121.481265","24.9980866666667","6500300","中和區"
"235019","183-VK","2018/09/06 14:50:01","新北市中和區民德路12號","121.468738333333","25.0027016666667","6500300","中和區"
"235002","185-VK","2018/09/06 14:49:46","新北市永和區民族街81巷64號","121.520556666667","24.9962466666667","6500300","中和區"
"235013","186-VK","2018/09/06 14:49:53","新北市中和區中正路4號","121.503121666667","24.9939083333333","6500300","中和區"
"235031","255-BX","2018/09/06 14:49:43","新北市中和區中正路751巷3弄12號","121.484311666667","24.9993666666667","6500300","中和區"
"235008","293-VK","2018/09/06 14:49:48","新北市中和區南山路255號","121.503828333333","24.992825","6500300","中和區"
"235036","301-VK","2018/09/06 14:49:55","新北市中和區保平路330號","121.506885","25.0042116666667","6500300","中和區"
"235007","352-BY","2018/09/06 14:49:54","新北市中和區安和路9號","121.511463333333","24.9934233333333","6500300","中和區"
"247011","KEA-2869","2018/09/06 14:49:41","新北市蘆洲區中正路520巷30-16號","121.470075","25.098475","6501400","蘆洲區"
"235014","4979-A6","2018/09/06 14:49:42","新北市中和區景平路241巷84弄54號","121.506095","24.992335","6500300","中和區"
"235028","551-UM","2018/09/06 14:49:57","新北市中和區圓通路33號","121.50104","24.9977316666667","6500300","中和區"
"235034","558-UM","2018/09/06 14:49:59","新北市中和區連勝街59號","121.497593333333","24.99715","6500300","中和區"
"235018","640-BX","2018/09/06 14:49:58","新北市中和區莒光路65號","121.472328333333","25.00349","6500300","中和區"
"235011","732-UM","2018/09/06 14:49:56","新北市中和區和平街65號","121.505965","24.991775","6500300","中和區"
"235010","733-UM","2018/09/06 14:49:53","新北市中和區仁愛街34號","121.510923333333","24.9884166666667","6500300","中和區"
"235035","783-BX","2018/09/06 14:49:49","新北市中和區建六路72號","121.486498333333","25.0019383333333","6500300","中和區"
"235026","800-TS","2018/09/06 14:49:54","新北市中和區中山路二段411號","121.486","25.0042533333333","6500300","中和區"
"235016","805-TS","2018/09/06 14:49:51","新北市中和區華新街30巷16號","121.506851666667","24.9843966666667","6500300","中和區"
"235012","896-TW","2018/09/06 14:49:42","新北市中和區忠孝街113巷2號","121.512591666667","24.9875166666667","6500300","中和區"
"235017","900-TW","2018/09/06 14:49:55","新北市中和區國光街215巷7-3號","121.466596666667","25.001465","6500300","中和區"
"235024","911-UM","2018/09/06 14:49:53","新北市中和區中正路860號","121.484256666667","25.0052316666667","6500300","中和區"
"235015","157-BY","2018/09/06 14:49:45","新北市中和區景安路225號","121.504288333333","24.9913416666667","6500300","中和區"
"235001","AAC-213","2018/09/06 14:49:50","新北市中和區秀朗路三段173-2號","121.524436666667","24.9913466666667","6500300","中和區"
"235023","AAC-215","2018/09/06 14:50:01","新北市中和區圓通路305巷5弄53號","121.495016666667","24.990115","6500300","中和區"
"220016","013-TV","2018/09/06 14:49:54","新北市板橋區中山路二段412巷29弄26號","121.484693333333","25.0201966666667","6500100","板橋區"
"220013","072-UY","2018/09/06 14:49:42","新北市板橋區民族路276巷1弄2號","121.469856666667","25.0064833333333","6500100","板橋區"
"220105","075-UY","2018/09/06 14:49:50","新北市板橋區文化路二段650巷19號","121.47795","25.03488","6500100","板橋區"
"220017","AAD-861","2018/09/06 14:49:53","新北市板橋區南雅南路二段28號","121.454338333333","25.0031616666667","6500100","板橋區"
"247001","893-R6","2018/09/06 14:49:44","新北市蘆洲區長安街246巷47號","121.458991666667","25.0866533333333","6501400","蘆洲區"
"247013","339-TH","2018/09/06 14:49:42","新北市蘆洲區得勝街68號","121.47257","25.0835333333333","6501400","蘆洲區"
"247007","336-TH","2018/09/06 14:49:58","新北市蘆洲區信義路77號","121.476271666667","25.0795933333333","6501400","蘆洲區"
"247019","057-VK","2018/09/06 14:49:58","新北市蘆洲區民義街69號","121.47307","25.09018","6501400","蘆洲區"
"247021","001-UY","2018/09/06 14:49:57","新北市蘆洲區中正路516巷38-5號","121.461383333333","25.0982933333333","6501400","蘆洲區"
"228005","097-TW","2018/09/06 14:50:00","新北市貢寮區美豐里丹裡街65號","121.909046666667","25.0589083333333","6502600","貢寮區"
"228004","212-TW","2018/09/06 14:49:57","新北市貢寮區福隆里裕隆街3號","121.946313333333","25.0158033333333","6502600","貢寮區"
"253003","6232-TK","2018/09/06 14:49:44","新北市石門區尖子鹿91號","121.580318333333","25.28894","6502200","石門區"
"253001","6251-TK","2018/09/06 14:49:50","新北市石門區崁子腳53-2號","121.537136666667","25.2825533333333","6502200","石門區"
"253002","637-UY","2018/09/06 14:49:56","新北市石門區楓林46號","121.543015","25.2786466666667","6502200","石門區"
"253004","8270-PC","2018/09/06 14:49:50","新北市石門區內阿里磅14號","121.593236666667","25.2495283333333","6502200","石門區"
"207002","749-BX","2018/09/06 14:47:28","新北市萬里區溪底里香員林路17-1號","121.635411666667","25.15999","6502800","萬里區"
"207001","662-BX","2018/09/06 14:45:36","新北市萬里區雙興里豐稟路22-1號","121.640135","25.1843633333333","6502800","萬里區"
"252005","AAC-283","2018/09/06 14:49:42","新北市三芝區埔坪里埔頭坑114號","121.516093333333","25.2458383333333","6502100","三芝區"
"236068","105-UM","2018/09/06 14:49:49","新北市土城區明德路二段65號","121.451956666667","24.980695","6501300","土城區"
"236040","107-UM","2018/09/06 14:49:46","新北市土城區裕民路136巷6弄1號","121.450811666667","24.98533","6501300","土城區"
"236040","137-TH","2018/09/06 14:49:42","新北市土城區中華路二段6號","121.439408333333","24.9788183333333","6501300","土城區"
"236074","166-UM","2018/09/06 14:49:54","新北市土城區中央路四段185巷32弄1號","121.415821666667","24.9558033333333","6501300","土城區"
"236029","253-BX","2018/09/06 14:49:58","新北市土城區忠義路38號","121.440436666667","24.9698016666667","6501300","土城區"
"236024","269-VK","2018/09/06 14:49:55","新北市土城區光明街43號","121.44219","24.973815","6501300","土城區"
"236012","270-VK","2018/09/06 14:50:00","新北市土城區金城路二段356號","121.461501666667","24.9850616666667","6501300","土城區"
"236032","271-VK","2018/09/06 14:49:43","新北市土城區仁愛路54巷1-3號","121.462425","24.9786216666667","6501300","土城區"
"236017","401-BY","2018/09/06 14:49:57","新北市土城區延吉街208號","121.46759","24.985175","6501300","土城區"
"236057","912-UM","2018/09/06 14:49:48","新北市土城區中央路三段93號","121.437445","24.9677233333333","6501300","土城區"
"236045","913-UM","2018/09/06 14:49:52","新北市板橋區信義路170巷10號","121.45981","24.9906133333333","6501300","土城區"
"236060","915-UM","2018/09/06 14:49:41","新北市土城區延和路201號","121.469585","24.9901883333333","6501300","土城區"
"236054","AAC-216","2018/09/06 14:49:51","新北市土城區裕民路177號","121.45337","24.9847633333333","6501300","土城區"
"221015","131-UY","2018/09/06 14:50:02","新北市汐止區大同路一段349號","121.638941666667","25.0598033333333","6501100","汐止區"
"221010","269-BY","2018/09/06 14:49:58","新北市汐止區汐萬路一段312號","121.650106666667","25.0751016666667","6501100","汐止區"
"221027","281-BY","2018/09/06 14:49:55","新北市五股區五工一路115號","121.455825","25.073815","6501100","汐止區"
"221033","297-VK","2018/09/06 14:49:41","新北市汐止區汐萬路一段256巷3號","121.652723333333","25.0745066666667","6501100","汐止區"
"220027","145-BY","2018/09/06 14:49:45","新北市板橋區建國街101號","121.459983333333","25.01752","6500100","板橋區"
"220028","200-UY","2018/09/06 14:49:52","新北市板橋區大觀路二段153巷27號","121.446571666667","25.0004","6500100","板橋區"
"220030","610-BX","2018/09/06 14:49:48","新北市板橋區大觀路三段191號","121.431983333333","24.9936783333333","6500100","板橋區"
"220050","245-BX","2018/09/06 14:49:49","新北市板橋區縣民大道三段93巷18-1號","121.475208333333","25.0223016666667","6500100","板橋區"
"220004","276-BY","2018/09/06 14:49:43","新北市板橋區德興街37巷9號","121.453923333333","24.993885","6500100","板橋區"
"220019","283-VK","2018/09/06 14:49:59","新北市板橋區五權街30巷24弄33號","121.463628333333","24.993985","6500100","板橋區"
"220043","285-UM","2018/09/06 14:49:47","新北市板橋區長江路一段224號","121.463243333333","25.0310116666667","6500100","板橋區"
"220001","285-VK","2018/09/06 14:49:56","新北市板橋區中山路二段90巷10號","121.475363333333","25.0159066666667","6500100","板橋區"
"220031","286-VK","2018/09/06 14:49:53","新北市板橋區僑中二街8巷26號","121.446058333333","25.0113716666667","6500100","板橋區"
"220029","287-VK","2018/09/06 14:49:58","新北市板橋區大觀路一段28巷107-1號","121.449923333333","25.0122","6500100","板橋區"
"220039","288-VK","2018/09/06 14:49:42","新北市板橋區龍泉街108巷104號","121.455386666667","25.0255816666667","6500100","板橋區"
"220009","295-UM","2018/09/06 14:49:45","新北市板橋區中山路一段283巷2弄25號","121.47054","25.01544","6500100","板橋區"
"220032","296-UM","2018/09/06 14:49:44","新北市板橋區溪崑二街92巷20弄1號","121.426088333333","24.9897616666667","6500100","板橋區"
"220010","299-UM","2018/09/06 14:49:40","新北市板橋區三民路二段81巷27弄31號","121.481395","25.0176833333333","6500100","板橋區"
"220023","303-R5","2018/09/06 14:49:53","新北市板橋區金華街1號","121.455446666667","25.02004","6500100","板橋區"
"220041","307-R5","2018/09/06 14:49:55","新北市板橋區四維路259巷73號","121.46049","25.0266766666667","6500100","板橋區"
"220047","317-R6","2018/09/06 14:49:45","新北市板橋區新海路385巷14號","121.458266666667","25.0257633333333","6500100","板橋區"
"220012","486-VK","2018/09/06 14:49:42","新北市板橋區實踐路91號","121.464053333333","25.0054683333333","6500100","板橋區"
"220037","491-VK","2018/09/06 14:49:45","新北市板橋區民治街29號","121.478245","25.0342933333333","6500100","板橋區"
"220104","560-BX","2018/09/06 14:49:46","新北市板橋區新生街87巷23號","121.456673333333","25.0220466666667","6500100","板橋區"
"220052","561-BX","2018/09/06 14:49:55","新北市板橋區陽明街29巷36號","121.463613333333","25.0227183333333","6500100","板橋區"
"220011","609-BX","2018/09/06 14:50:00","新北市板橋區翠華街4巷1號","121.480215","25.02381","6500100","板橋區"
"220040","637-BX","2018/09/06 14:49:49","新北市板橋區懷德街174巷27號","121.478333333333","25.029185","6500100","板橋區"
"220005","686-BX","2018/09/06 14:49:56","新北市板橋區廣和街65號","121.462643333333","24.9929183333333","6500100","板橋區"
"220025","687-BX","2018/09/06 14:49:43","新北市板橋區僑中三街2號","121.446956666667","25.004665","6500100","板橋區"
"220042","689-BX","2018/09/06 14:49:53","新北市板橋區長江路一段141號","121.460676666667","25.0302466666667","6500100","板橋區"
"220002","741-BX","2018/09/06 14:49:43","新北市板橋區忠孝路忠義巷18弄1號","121.466381666667","25.0038083333333","6500100","板橋區"
"220051","KEA-2699","2018/09/06 14:49:56","新北市板橋區文化路二段410巷13號","121.474533333333","25.030965","6500100","板橋區"
"220003","827-TW","2018/09/06 14:49:55","新北市板橋區仁愛路62巷15弄2號","121.460005","24.9984633333333","6500100","板橋區"
"220014","830-TW","2018/09/06 14:49:57","新北市板橋區長安街331巷17號","121.473808333333","25.0125483333333","6500100","板橋區"
"220045","831-TW","2018/09/06 14:49:59","新北市板橋區莒光路40巷20號","121.470133333333","25.023435","6500100","板橋區"
"220038","833-TW","2018/09/06 14:49:47","新北市板橋區英士路192號","121.457938333333","25.023625","6500100","板橋區"
"220022","895-R6","2018/09/06 14:49:54","新北市板橋區文化路一段52巷29號","121.461448333333","25.011205","6500100","板橋區"
"220021","985-R7","2018/09/06 14:49:58","新北市板橋區大仁街41號","121.454871666667","25.0165016666667","6500100","板橋區"
"220046","AAC-210","2018/09/06 14:49:50","新北市板橋區漢生西路56號","121.463008333333","25.0187883333333","6500100","板橋區"
"220018","AAC-253","2018/09/06 14:49:42","新北市板橋區民族路253號","121.47031","25.0070033333333","6500100","板橋區"
"235032","KEA-2873","2018/09/06 14:49:42","新北市中和區福美路256巷16弄18號","121.498551666667","25.0060616666667","6500300","中和區"
