"lineid","car","time","location","longitude","latitude","cityid","cityname"
"234070","149-BY","2018/09/06 15:07:24","新北市八里區荖阡坑路34-2號","121.401183333333","25.1302733333333","6500400","永和區"
"234025","9371-KE","2018/09/06 15:09:40","新北市永和區保平路268巷21號","121.50811","25.0057","6500400","永和區"
"248007","095-VK","2018/09/06 15:09:58","新北市五股區中興路一段1巷13號","121.469726666667","25.0714483333333","6501500","五股區"
"248017","225-UY","2018/09/06 15:09:47","新北市五股區登林路120-5號","121.412533333333","25.0776533333333","6501500","五股區"
"248003","677-BX","2018/09/06 15:09:56","新北市五股區成泰路一段194-1號","121.43551","25.077775","6501500","五股區"
"244003","248-BX","2018/09/06 15:09:42","新北市林口區竹林路265號","121.389498333333","25.0807616666667","6501700","林口區"
"243001","297-R6","2018/09/06 15:09:59","新北市泰山區泰林路二段385巷1號","121.42757","25.0642083333333","6501600","泰山區"
"243008","KEA-2801","2018/09/06 15:10:02","新北市泰山區新生路27號","121.427321666667","25.0455266666667","6501600","泰山區"
"243007","421-VK","2018/09/06 15:09:51","新北市泰山區泰林路二段280巷1號","121.431405","25.06253","6501600","泰山區"
"243003","KEA-2215","2018/09/06 15:09:56","新北市泰山區新北大道六段313巷9號","121.424213333333","25.0333933333333","6501600","泰山區"
"243004","646-TV","2018/09/06 15:09:49","新北市泰山區泰林路二段2-10號","121.420315","25.06463","6501600","泰山區"
"243006","680-BX","2018/09/06 15:09:47","新北市泰山區泰林路三段745巷145號","121.405606666667","25.0678733333333","6501600","泰山區"
"231002","002-UM","2018/09/06 15:10:02","新北市新店區中正路539-5號","121.533413333333","24.9865533333333","6500600","新店區"
"231028","046-UY","2018/09/06 15:09:58","新北市新店區僑信路132巷25號","121.500035","24.9454166666667","6500600","新店區"
"231001","047-UY","2018/09/06 15:09:54","新北市新店區中正路190號","121.540668333333","24.9724066666667","6500600","新店區"
"231005","106-UY","2018/09/06 15:09:56","新北市新店區順安街13-1號","121.54097","24.9853133333333","6500600","新店區"
"231021","108-UY","2018/09/06 15:09:56","新北市新店區永福路54-2號","121.559281666667","24.92819","6500600","新店區"
"231035","110-UY","2018/09/06 15:09:44","新北市新店區安和路三段120巷20號","121.517963333333","24.985895","6500600","新店區"
"231011","187-VK","2018/09/06 15:09:51","新北市新店區中興路三段312號","121.54222","24.9857166666667","6500600","新店區"
"231023","KEA-2219","2018/09/06 15:09:48","新北市新店區檳榔路109號","121.544545","24.96159","6500600","新店區"
"231026","256-BX","2018/09/06 15:09:58","新北市新店區建安街26號","121.539665","24.9755616666667","6500600","新店區"
"231003","268-BY","2018/09/06 15:09:44","新北市新店區寶橋路209號","121.548488333333","24.9770133333333","6500600","新店區"
"231018","278-BY","2018/09/06 15:09:57","新北市新店區中央七街103號","121.526085","24.9775133333333","6500600","新店區"
"231017","AAD-862","2018/09/06 15:03:37","新北市新店區明山路29號","121.56472","24.9565633333333","6500600","新店區"
"231038","3712-VJ","2018/09/06 15:09:56","新北市新店區安華路28-1號","121.519655","24.9609016666667","6500600","新店區"
"231025","4715-K9","2018/09/06 15:09:54","新北市新店區民權路107-3號","121.536331666667","24.98206","6500600","新店區"
"231036","512-UM","2018/09/06 15:09:43","新北市新店區安祥路102巷129號","121.486416666667","24.9648083333333","6500600","新店區"
"231006","617-UM","2018/09/06 15:09:58","新北市新店區新坡一街18巷7弄3號","121.550373333333","24.9612933333333","6500600","新店區"
"231030","619-UM","2018/09/06 15:09:57","新北市新店區安民街341-1號","121.516866666667","24.974975","6500600","新店區"
"231034","641-BX","2018/09/06 15:09:50","新北市新店區玫瑰路4-1號","121.493648333333","24.9514233333333","6500600","新店區"
"231039","718-UY","2018/09/06 15:09:49","新北市新店區中興路三段256號","121.542868333333","24.9842433333333","6500600","新店區"
"231031","720-UM","2018/09/06 15:09:53","新北市新店區安泰路60巷55弄1號","121.484305","24.9455766666667","6500600","新店區"
"231029","897-TW","2018/09/06 15:09:49","新北市新店區安康路三段738號","121.473803333333","24.9420433333333","6500600","新店區"
"231004","899-TW","2018/09/06 15:10:01","新北市新店區建國路30號","121.540525","24.9745916666667","6500600","新店區"
"231024","AKT-0513","2018/09/06 15:09:50","新北市新店區北新路一段297巷26號","121.540683333333","24.9681166666667","6500600","新店區"
"235030","003-UY","2018/09/06 15:09:57","新北市中和區水源路127巷2弄2號","121.508083333333","25.0040783333333","6500300","中和區"
"235003","097-UM","2018/09/06 15:09:41","新北市中和區安樂路217巷40弄2號","121.51353","24.9981216666667","6500300","中和區"
"235029","098-UM","2018/09/06 15:09:59","新北市中和區中正路226號","121.496115","24.99387","6500300","中和區"
"235004","150-BY","2018/09/06 15:09:52","新北市中和區保健路19巷25號","121.508546666667","24.998695","6500300","中和區"
"235007","352-BY","2018/09/06 15:09:54","新北市中和區興南路二段159巷10號","121.504955","24.9832","6500300","中和區"
"247011","KEA-2869","2018/09/06 15:09:41","新北市八里區中山路三段386號","121.368493333333","25.13587","6501400","蘆洲區"
"235014","4979-A6","2018/09/06 15:10:02","新北市中和區安樂路11號","121.511778333333","24.9920933333333","6500300","中和區"
"235033","4980-A6","2018/09/06 15:09:54","新北市中和區景新街64巷7弄10號","121.504376666667","24.9984816666667","6500300","中和區"
"235034","558-UM","2018/09/06 15:09:59","新北市中和區圓通路208號","121.496093333333","24.99392","6500300","中和區"
"235018","640-BX","2018/09/06 15:09:58","新北市中和區莒光路4號","121.47206","25.00464","6500300","中和區"
"235011","732-UM","2018/09/06 15:09:56","新北市新店區薏仁坑路10-1號","121.49928","24.9590516666667","6500300","中和區"
"235035","783-BX","2018/09/06 15:09:48","新北市中和區中正路909號","121.483371666667","25.0063983333333","6500300","中和區"
"235026","800-TS","2018/09/06 15:09:54","新北市中和區中山路二段321-1號","121.493685","25.002025","6500300","中和區"
"235012","896-TW","2018/09/06 15:09:42","新北市中和區興南路一段164號","121.508013333333","24.9866","6500300","中和區"
"235001","AAC-213","2018/09/06 15:09:50","新北市中和區自強路52號","121.520115","24.9947883333333","6500300","中和區"
"235023","AAC-215","2018/09/06 15:09:41","新北市中和區圓通路335巷13號","121.493385","24.9895083333333","6500300","中和區"
"220016","013-TV","2018/09/06 15:09:46","新北市板橋區光復街234-1號","121.484586666667","25.0215216666667","6500100","板橋區"
"220017","AAD-861","2018/09/06 15:09:52","新北市板橋區大明街18-5號","121.458725","25.0029766666667","6500100","板橋區"
"228004","212-TW","2018/09/06 15:09:56","新北市貢寮區雙玉里田寮洋街16-2號","121.921851666667","25.0251666666667","6502600","貢寮區"
"253003","6232-TK","2018/09/06 15:09:44","新北市石門區小坑12號","121.591825","25.2890266666667","6502200","石門區"
"253001","6251-TK","2018/09/06 15:09:50","新北市石門區小坑9號","121.594536666667","25.289135","6502200","石門區"
"253002","637-UY","2018/09/06 15:09:56","新北市石門區中央路37-2號","121.56853","25.2948916666667","6502200","石門區"
"253004","8270-PC","2018/09/06 15:09:48","新北市石門區小坑25號","121.594503333333","25.2772233333333","6502200","石門區"
"207002","749-BX","2018/09/06 15:09:48","新北市萬里區崁腳里崁腳路61-1號","121.649006666667","25.159875","6502800","萬里區"
"207001","662-BX","2018/09/06 15:09:55","新北市萬里區雙興里麗水路3-1號","121.653206666667","25.1798666666667","6502800","萬里區"
"236068","105-UM","2018/09/06 15:09:49","新北市土城區學成路146號","121.44884","24.98955","6501300","土城區"
"236040","107-UM","2018/09/06 15:09:45","新北市土城區金城路二段210號","121.45553","24.98226","6501300","土城區"
"236040","137-TH","2018/09/06 15:00:23","新北市土城區永和街35號","121.434875","24.9606983333333","6501300","土城區"
"236074","166-UM","2018/09/06 15:09:54","新北市土城區中州路3巷11弄1號","121.414271666667","24.957035","6501300","土城區"
"236029","253-BX","2018/09/06 15:09:58","新北市土城區福祥街58號","121.441473333333","24.98146","6501300","土城區"
"236024","269-VK","2018/09/06 15:09:55","新北市土城區中央路二段157號","121.442013333333","24.9764433333333","6501300","土城區"
"236012","270-VK","2018/09/06 15:10:00","新北市土城區學府路一段37巷18號","121.45765","24.9877483333333","6501300","土城區"
"236032","271-VK","2018/09/06 15:10:03","新北市土城區國際路52號","121.466326666667","24.97867","6501300","土城區"
"236017","401-BY","2018/09/06 15:09:58","新北市土城區延吉街185號","121.469181666667","24.9854466666667","6501300","土城區"
"236057","912-UM","2018/09/06 15:09:48","新北市土城區明德路一段385-1號","121.452826666667","24.98041","6501300","土城區"
"236045","913-UM","2018/09/06 15:09:53","新北市土城區清水路202號","121.460448333333","24.9819183333333","6501300","土城區"
"236060","915-UM","2018/09/06 15:09:41","新北市土城區延平街38號","121.468136666667","24.9919766666667","6501300","土城區"
"236054","AAC-216","2018/09/06 15:09:51","新北市土城區學府路一段276號","121.450225","24.9833283333333","6501300","土城區"
"238010","601-UM","2018/09/06 15:09:55","新北市樹林區文化街120巷1號","121.415978333333","24.9897916666667","6500700","樹林區"
"238005","571-TV","2018/09/06 15:09:45","新北市板橋區大觀路三段59巷57號","121.435183333333","24.9944066666667","6500700","樹林區"
"238011","5061-A6","2018/09/06 15:09:57","新北市樹林區水源街213號","121.424235","24.9872233333333","6500700","樹林區"
"238009","KEA-2213","2018/09/06 15:09:53","新北市樹林區國凱街130號","121.423133333333","24.9802983333333","6500700","樹林區"
"238008","KEA-2539","2018/09/06 15:09:46","新北市樹林區西圳街一段165巷20弄11號","121.395586666667","24.9602066666667","6500700","樹林區"
"238025","303-VK","2018/09/06 15:09:49","新北市樹林區中山路一段249號","121.420401666667","24.9864416666667","6500700","樹林區"
"238004","283-BY","2018/09/06 15:09:50","新北市樹林區文化街91巷12號","121.415796666667","24.9894366666667","6500700","樹林區"
"238001","282-BY","2018/09/06 15:09:52","新北市樹林區大安路537巷8號","121.412785","24.9845","6500700","樹林區"
"238007","268-VK","2018/09/06 15:09:42","新北市板橋區大觀路三段59巷42號","121.435215","24.9945583333333","6500700","樹林區"
"238013","172-UY","2018/09/06 15:09:44","新北市樹林區東大街174號","121.409141666667","24.9761766666667","6500700","樹林區"
"238003","169-UY","2018/09/06 15:09:57","新北市樹林區八德街1號","121.417635","24.98497","6500700","樹林區"
"221015","131-UY","2018/09/06 15:09:38","新北市汐止區汐萬路一段256巷1號","121.651936666667","25.0749016666667","6501100","汐止區"
"221027","281-BY","2018/09/06 15:09:55","新北市汐止區汐萬路一段256巷3號","121.652433333333","25.0746766666667","6501100","汐止區"
"220030","610-BX","2018/09/06 15:09:48","新北市板橋區大觀路三段104號","121.432536666667","24.9944483333333","6500100","板橋區"
"220050","245-BX","2018/09/06 15:09:49","新北市板橋區雙十路二段47巷8弄20號","121.474298333333","25.026135","6500100","板橋區"
"220043","285-UM","2018/09/06 15:09:47","新北市板橋區陽明街30號","121.466233333333","25.0218716666667","6500100","板橋區"
"220001","285-VK","2018/09/06 15:09:56","新北市板橋區中山路二段494號","121.485835","25.0221383333333","6500100","板橋區"
"220031","286-VK","2018/09/06 15:09:49","新北市板橋區僑中二街92巷28號","121.444886666667","25.0091083333333","6500100","板橋區"
"220029","287-VK","2018/09/06 15:10:01","新北市板橋區僑中一街102巷7弄18號","121.446198333333","25.0129883333333","6500100","板橋區"
"220009","295-UM","2018/09/06 15:09:45","新北市板橋區中山路二段17號","121.472238333333","25.015035","6500100","板橋區"
"220041","307-R5","2018/09/06 15:10:03","新北市板橋區文化路一段45巷5號","121.460095","25.0137866666667","6500100","板橋區"
"220012","486-VK","2018/09/06 15:09:42","新北市板橋區中山路一段206巷80號","121.472723333333","25.0131216666667","6500100","板橋區"
"220037","491-VK","2018/09/06 15:09:45","新北市板橋區懷德街56號","121.477451666667","25.0323516666667","6500100","板橋區"
"220052","561-BX","2018/09/06 15:09:54","新北市板橋區陽明街279巷23-4號","121.461125","25.025705","6500100","板橋區"
"220011","609-BX","2018/09/06 15:10:00","新北市板橋區中山路二段326號","121.48094","25.0196383333333","6500100","板橋區"
"220025","687-BX","2018/09/06 15:09:43","新北市板橋區僑中一街124巷69號","121.44668","25.017185","6500100","板橋區"
"220042","689-BX","2018/09/06 15:09:53","新北市板橋區民治街57巷32-1號","121.481178333333","25.0360133333333","6500100","板橋區"
"220051","KEA-2699","2018/09/06 15:09:56","新北市板橋區民治街124號","121.477923333333","25.0309516666667","6500100","板橋區"
"220003","827-TW","2018/09/06 15:09:57","新北市板橋區國慶路149巷37弄2號","121.460798333333","24.9980466666667","6500100","板橋區"
"220045","831-TW","2018/09/06 15:09:58","新北市板橋區莒光路79巷6號","121.471946666667","25.0244433333333","6500100","板橋區"
"220038","833-TW","2018/09/06 15:09:51","新北市板橋區新海路431巷31號","121.457711666667","25.02645","6500100","板橋區"
"220046","AAC-210","2018/09/06 15:09:50","新北市板橋區光正街42號","121.461788333333","25.0175333333333","6500100","板橋區"
"220018","AAC-253","2018/09/06 15:10:02","新北市板橋區四川路一段146號","121.459963333333","25.00358","6500100","板橋區"
