"lineid","car","time","location","longitude","latitude","cityid","cityname"
"234070","149-BY","2018/09/06 16:39:30","新北市永和區福和路1號","121.526176666667","25.0099016666667","6500400","永和區"
"234023","9381-KE","2018/09/06 16:39:25","新北市永和區保生路55-8號","121.504078333333","25.010425","6500400","永和區"
"249005","172-UM","2018/09/06 16:39:21","新北市八里區渡船頭街3-1號","121.434396666667","25.1582416666667","6502300","八里區"
"231046","107-UY","2018/09/06 16:39:21","新北市新店區灣潭路15-1號","121.540111666667","24.94229","6500600","新店區"
"241011","013-R5","2018/09/06 16:39:33","新北市三重區秀江街232號","121.49664","25.0714266666667","6500200","三重區"
"241028","022-UY","2018/09/06 16:39:28","新北市三重區中正南路6號","121.49347","25.0607216666667","6500200","三重區"
"241008","059-VK","2018/09/06 16:39:31","新北市三重區永安北路一段27巷10號","121.476995","25.0755483333333","6500200","三重區"
"241031","061-VK","2018/09/06 16:39:31","新北市三重區重新路四段41巷24號","121.487421666667","25.05839","6500200","三重區"
"241015","062-VK","2018/09/06 16:39:34","新北市三重區文化北路37-2號","121.498966666667","25.0651433333333","6500200","三重區"
"241017","063-VK","2018/09/06 16:39:32","新北市三重區中正北路23號","121.492391666667","25.0620016666667","6500200","三重區"
"241024","065-VK","2018/09/06 16:39:17","新北市三重區中正北路315巷6弄60號","121.475818333333","25.0725966666667","6500200","三重區"
"241026","066-VK","2018/09/06 16:39:13","新北市三重區和平街55號","121.50193","25.0626316666667","6500200","三重區"
"241002","090-VK","2018/09/06 16:39:29","新北市三重區自強路五段93號","121.49544","25.0821266666667","6500200","三重區"
"241003","091-VK","2018/09/06 16:39:17","新北市三重區五華街118號","121.492075","25.0831333333333","6500200","三重區"
"241022","265-UM","2018/09/06 16:39:29","新北市三重區三民街76號","121.48551","25.06267","6500200","三重區"
"241016","266-UM","2018/09/06 16:39:19","新北市三重區大智街9號","121.494591666667","25.0651333333333","6500200","三重區"
"241009","267-UM","2018/09/06 16:39:24","新北市三重區三和路四段203巷62號","121.483405","25.0798816666667","6500200","三重區"
"241018","268-UM","2018/09/06 16:39:29","新北市三重區正義北路338巷50號","121.493076666667","25.070225","6500200","三重區"
"241032","269-UM","2018/09/06 16:39:27","新北市三重區三民街19號","121.485755","25.0612633333333","6500200","三重區"
"241013","270-UM","2018/09/06 16:39:17","新北市三重區三和路三段101巷11號","121.494906666667","25.07247","6500200","三重區"
"241025","271-UM","2018/09/06 16:39:27","新北市三重區中正北路428巷14號","121.474626666667","25.0703616666667","6500200","三重區"
"241007","398-BY","2018/09/06 16:39:32","新北市三重區三和路四段167巷84號","121.485245","25.0794833333333","6500200","三重區"
"241004","475-VK","2018/09/06 16:39:25","新北市三重區五福街1號","121.493098333333","25.08175","6500200","三重區"
"241020","478-VK","2018/09/06 16:39:17","新北市三重區車路頭街62巷5號","121.484043333333","25.07255","6500200","三重區"
"241030","480-VK","2018/09/06 16:39:29","新北市三重區成功路50巷31號","121.488266666667","25.0496316666667","6500200","三重區"
"241014","543-UM","2018/09/06 16:39:28","新北市三重區龍濱路21號","121.502971666667","25.067955","6500200","三重區"
"241023","545-UM","2018/09/06 16:39:33","新北市三重區忠孝路三段50巷47號","121.482918333333","25.0644283333333","6500200","三重區"
"241001","547-UM","2018/09/06 16:39:22","新北市三重區仁愛街202號","121.493855","25.0774","6500200","三重區"
"241019","KEA-2593","2018/09/06 16:39:32","新北市三重區安慶街325號","121.488006666667","25.0669466666667","6500200","三重區"
"241006","AAD-863","2018/09/06 16:39:19","新北市三重區車路頭街138-2號","121.483626666667","25.0754866666667","6500200","三重區"
"241005","887-TS","2018/09/06 16:39:24","新北市三重區仁華街107號","121.486393333333","25.0828633333333","6500200","三重區"
"241012","941-UM","2018/09/06 16:39:20","新北市三重區仁興街4巷5號","121.499691666667","25.0737866666667","6500200","三重區"
"241029","942-UM","2018/09/06 16:39:27","新北市三重區集美街112巷13號","121.489471666667","25.0541383333333","6500200","三重區"
"241033","AAC-255","2018/09/06 16:39:25","新北市三重區光復路二段45號","121.47215","25.0556483333333","6500200","三重區"
"235064","551-UM","2018/09/06 16:39:23","新北市中和區員山路36巷16-2號","121.485313333333","24.9913666666667","6500300","中和區"
"235026","800-TS","2018/09/06 16:39:34","新北市中和區建八路166號","121.49021","24.9985416666667","6500300","中和區"
"247024","500-BY","2018/09/06 16:39:25","新北市蘆洲區長興路296-8號","121.460581666667","25.090265","6501400","蘆洲區"
"247008","336-TH","2018/09/06 16:39:15","新北市蘆洲區永安南路二段150號","121.462215","25.07865","6501400","蘆洲區"
"247010","056-VK","2018/09/06 16:39:27","新北市五股區中興路三段3-8號","121.449473333333","25.0797466666667","6501400","蘆洲區"
"228002","663-BX","2018/09/06 16:39:30","新北市貢寮區貢寮里朝陽街28-2號","121.911108333333","25.02166","6502600","貢寮區"
"224007","275-VK","2018/09/06 16:39:25","新北市瑞芳區中央路14號","121.76196","25.10364","6501200","瑞芳區"
"224005","271-BY","2018/09/06 16:39:17","新北市瑞芳區籠山路214-1號","121.850921666667","25.125695","6501200","瑞芳區"
"227010","642-TC","2018/09/06 16:39:14","新北市雙溪區牡丹里中正路63號","121.865573333333","25.0433933333333","6502500","雙溪區"
"227004","400-TW","2018/09/06 16:39:33","新北市雙溪區外柑里外柑腳56號","121.807953333333","25.01788","6502500","雙溪區"
"251013","KEA-2871","2018/09/06 16:39:25","新北市淡水區楓樹湖3-3號","121.496588333333","25.1865033333333","6501000","淡水區"
"251016","179-VK","2018/09/06 16:39:30","新北市淡水區新春街196號","121.443638333333","25.1807116666667","6501000","淡水區"
"251014","180-VK","2018/09/06 16:39:21","新北市淡水區新市二路四段130號","121.443901666667","25.1923733333333","6501000","淡水區"
"251008","443-VK","2018/09/06 16:39:27","新北市淡水區民生路169號","121.470061666667","25.1425116666667","6501000","淡水區"
"252002","178-VK","2018/09/06 16:39:21","新北市三芝區芝柏路16號","121.512123333333","25.25538","6502100","三芝區"
"242023","362-BY","2018/09/06 16:39:25","新北市新莊區三和路12-21號","121.442176666667","25.0384433333333","6500500","新莊區"
"242031","348-TH","2018/09/06 16:39:32","新北市新莊區新泰路255巷83號","121.442143333333","25.03909","6500500","新莊區"
"238018","571-TV","2018/09/06 16:27:08","新北市樹林區育德街78-1號","121.387821666667","24.968165","6500700","樹林區"
"238025","303-VK","2018/09/06 16:39:32","新北市樹林區中正路22-1號","121.427955","24.9992666666667","6500700","樹林區"
"238004","283-BY","2018/09/06 16:39:30","新北市樹林區中正路433-1號","121.41491","25.0079766666667","6500700","樹林區"
"238001","282-BY","2018/09/06 16:39:32","新北市樹林區大慶街99-1號","121.427716666667","24.9996416666667","6500700","樹林區"
