"lineid","car","time","location","longitude","latitude","cityid","cityname"
"234070","149-BY","2018/09/06 16:59:19","新北市永和區福和路1號","121.52647","25.0098733333333","6500400","永和區"
"234023","9381-KE","2018/09/06 16:59:25","新北市永和區保生路55-8號","121.503986666667","25.0105766666667","6500400","永和區"
"249005","172-UM","2018/09/06 16:59:21","新北市八里區渡船頭3-16號","121.434315","25.15286","6502300","八里區"
"249001","173-UM","2018/09/06 16:59:26","新北市八里區中山路三段109號","121.39021","25.14212","6502300","八里區"
"249004","303-UY","2018/09/06 16:59:30","新北市八里區挖子尾街38號","121.415583333333","25.1658666666667","6502300","八里區"
"249002","305-UY","2018/09/06 16:58:36","新北市八里區牛寮埔28-5號","121.43241","25.1433716666667","6502300","八里區"
"249003","593-UM","2018/09/06 16:59:33","新北市八里區中山路二段398號","121.400538333333","25.1478016666667","6502300","八里區"
"244007","080-UY","2018/09/06 16:59:19","新北市林口區文化二路二段557號","121.383721666667","25.0902316666667","6501700","林口區"
"244019","403-UM","2018/09/06 16:59:19","新北市林口區仁愛路二段80號","121.384406666667","25.0753366666667","6501700","林口區"
"244025","837-TS","2018/09/06 16:59:22","新北市林口區粉寮路二段88巷99-20號","121.408276666667","25.0901566666667","6501700","林口區"
"231046","107-UY","2018/09/06 16:59:21","新北市新店區新潭路一段39巷8號","121.524693333333","24.94188","6500600","新店區"
"241011","013-R5","2018/09/06 16:59:33","新北市三重區仁愛街55巷136號","121.499088333333","25.0728666666667","6500200","三重區"
"241028","022-UY","2018/09/06 16:59:28","新北市三重區光興街207號","121.494795","25.0595216666667","6500200","三重區"
"241008","059-VK","2018/09/06 16:59:30","新北市三重區永安北路一段3巷29號","121.47733","25.0746633333333","6500200","三重區"
"241031","061-VK","2018/09/06 16:59:30","新北市三重區三寧街50號","121.490065","25.06038","6500200","三重區"
"241015","062-VK","2018/09/06 16:59:14","新北市三重區三和路二段2號","121.501526666667","25.0664483333333","6500200","三重區"
"241017","063-VK","2018/09/06 16:59:32","新北市三重區國隆路12巷7號","121.492606666667","25.06375","6500200","三重區"
"241024","065-VK","2018/09/06 16:59:17","新北市三重區力行路二段23號","121.481906666667","25.0725983333333","6500200","三重區"
"241026","066-VK","2018/09/06 16:59:13","新北市三重區文化南路42號","121.500411666667","25.0602333333333","6500200","三重區"
"241002","090-VK","2018/09/06 16:59:29","新北市三重區仁義街101巷42號","121.499261666667","25.0805783333333","6500200","三重區"
"241003","091-VK","2018/09/06 16:59:17","新北市三重區五華街141巷60號","121.493561666667","25.086835","6500200","三重區"
"241022","265-UM","2018/09/06 16:59:28","新北市三重區貴陽街25號","121.484371666667","25.0620316666667","6500200","三重區"
"241016","266-UM","2018/09/06 16:59:19","新北市三重區大智街12號","121.495375","25.0644783333333","6500200","三重區"
"241009","267-UM","2018/09/06 16:59:24","新北市三重區仁美街109號","121.485701666667","25.08086","6500200","三重區"
"241018","268-UM","2018/09/06 16:59:29","新北市三重區六張街126巷2弄24號","121.492553333333","25.0696033333333","6500200","三重區"
"241032","269-UM","2018/09/06 16:59:27","新北市三重區三民街1號","121.485768333333","25.0605016666667","6500200","三重區"
"241013","270-UM","2018/09/06 16:59:17","新北市三重區仁愛街83號","121.495816666667","25.0732933333333","6500200","三重區"
"241025","271-UM","2018/09/06 16:59:27","新北市三重區中正北路510號","121.472635","25.0715933333333","6500200","三重區"
"241007","398-BY","2018/09/06 16:59:32","新北市三重區溪尾街164號","121.488775","25.0802816666667","6500200","三重區"
"241004","475-VK","2018/09/06 16:59:25","新北市三重區五華街98巷25-1號","121.49145","25.0817266666667","6500200","三重區"
"241020","478-VK","2018/09/06 16:59:17","新北市三重區後竹圍街175巷1號","121.48589","25.0720833333333","6500200","三重區"
"241030","480-VK","2018/09/06 16:59:29","新北市三重區昌隆街62號","121.491155","25.051115","6500200","三重區"
"241014","543-UM","2018/09/06 16:59:28","新北市三重區介壽路39巷94號","121.500708333333","25.07058","6500200","三重區"
"241023","545-UM","2018/09/06 16:59:33","新北市三重區新北大道一段170號","121.483213333333","25.06153","6500200","三重區"
"241001","547-UM","2018/09/06 16:59:22","新北市三重區仁愛街162號","121.494281666667","25.0763833333333","6500200","三重區"
"241019","KEA-2593","2018/09/06 16:59:32","新北市三重區三張街104號","121.487908333333","25.0699166666667","6500200","三重區"
"241006","AAD-863","2018/09/06 16:59:19","新北市三重區車路頭街117巷40號","121.485188333333","25.0757533333333","6500200","三重區"
"241005","887-TS","2018/09/06 16:59:24","新北市三重區仁華街63號","121.484266666667","25.0826383333333","6500200","三重區"
"241012","941-UM","2018/09/06 16:59:20","新北市三重區仁和街132號","121.500393333333","25.0749433333333","6500200","三重區"
"241029","942-UM","2018/09/06 16:59:27","新北市三重區泉州街57號","121.494523333333","25.0547733333333","6500200","三重區"
"241033","AAC-255","2018/09/06 16:59:25","新北市三重區中興北街271號","121.469091666667","25.0606933333333","6500200","三重區"
"235065","098-UM","2018/09/06 16:59:19","新北市中和區員山路36巷16-3號","121.485121666667","24.9912016666667","6500300","中和區"
"247012","KEA-2869","2018/09/06 16:59:34","新北市蘆洲區復興路325號","121.484158333333","25.0911916666667","6501400","蘆洲區"
"235064","551-UM","2018/09/06 16:53:42","新北市中和區員山路36巷16-3號","121.48517","24.9913716666667","6500300","中和區"
"235026","800-TS","2018/09/06 16:59:13","新北市中和區中正路368號","121.493026666667","24.994305","6500300","中和區"
"247016","546-UM","2018/09/06 16:59:33","新北市蘆洲區光華路41巷23號","121.469713333333","25.08243","6501400","蘆洲區"
"247024","500-BY","2018/09/06 16:59:25","新北市蘆洲區長興路255號","121.460528333333","25.087515","6501400","蘆洲區"
"247014","339-TH","2018/09/06 16:59:22","新北市蘆洲區中山二路36巷40號","121.47399","25.08354","6501400","蘆洲區"
"247006","337-TH","2018/09/06 16:59:23","新北市蘆洲區永安南路二段240號","121.460355","25.0799066666667","6501400","蘆洲區"
"247008","336-TH","2018/09/06 16:59:15","新北市蘆洲區信義路57號","121.475141666667","25.0797233333333","6501400","蘆洲區"
"247020","057-VK","2018/09/06 16:59:18","新北市蘆洲區民族路422巷82弄14號","121.473923333333","25.0938966666667","6501400","蘆洲區"
"247010","056-VK","2018/09/06 16:59:27","新北市蘆洲區信義路154號","121.479306666667","25.08338","6501400","蘆洲區"
"247018","007-UY","2018/09/06 16:59:26","新北市蘆洲區民族路227巷14號","121.47705","25.0893016666667","6501400","蘆洲區"
"247004","002-UY","2018/09/06 16:59:30","新北市蘆洲區長安街131巷7號","121.460468333333","25.0811216666667","6501400","蘆洲區"
"247022","001-UY","2018/09/06 16:59:20","新北市蘆洲區三民路128巷166-1號","121.468366666667","25.0925566666667","6501400","蘆洲區"
"228003","097-TW","2018/09/06 16:59:33","新北市貢寮區福隆里興隆街24-1號","121.944423333333","25.016645","6502600","貢寮區"
"228001","212-TW","2018/09/06 16:59:23","新北市貢寮區貢寮里朝陽街1-2號","121.912195","25.0212816666667","6502600","貢寮區"
"228002","663-BX","2018/09/06 16:59:30","新北市貢寮區貢寮里朝陽街1號","121.90998","25.0212383333333","6502600","貢寮區"
"224006","676-BX","2018/09/06 16:59:26","新北市瑞芳區大寮路42-1號","121.782181666667","25.098575","6501200","瑞芳區"
"224008","285-BY","2018/09/06 16:59:30","新北市瑞芳區明燈路一段257號","121.817281666667","25.108335","6501200","瑞芳區"
"224007","275-VK","2018/09/06 16:59:14","新北市瑞芳區瑞竹路5-1號","121.765143333333","25.103205","6501200","瑞芳區"
"224009","273-VK","2018/09/06 16:59:30","新北市瑞芳區濱二路28-2號","121.839645","25.1143716666667","6501200","瑞芳區"
"224005","271-BY","2018/09/06 16:59:18","新北市瑞芳區明里路54號","121.869236666667","25.1227533333333","6501200","瑞芳區"
"227010","642-TC","2018/09/06 16:59:14","新北市雙溪區牡丹里石1-1號","121.864098333333","25.0480533333333","6502500","雙溪區"
"227004","400-TW","2018/09/06 16:59:33","新北市雙溪區長源里柑腳8號","121.80467","25.0146","6502500","雙溪區"
"251009","008-UM","2018/09/06 16:59:16","新北市淡水區中正路二段31號","121.419216666667","25.18181","6501000","淡水區"
"251004","009-UM","2018/09/06 16:59:20","新北市淡水區中正路二段12號","121.420381666667","25.180705","6501000","淡水區"
"251005","010-UM","2018/09/06 16:59:20","新北市淡水區中正路二段31號","121.419008333333","25.1821033333333","6501000","淡水區"
"251013","KEA-2871","2018/09/06 16:59:25","新北市淡水區泉洲厝32號","121.489266666667","25.1925716666667","6501000","淡水區"
"251016","179-VK","2018/09/06 16:59:30","新北市淡水區瓦坑3號","121.47762","25.180815","6501000","淡水區"
"251014","180-VK","2018/09/06 16:59:21","新北市淡水區八里堆3-5號","121.454965","25.22461","6501000","淡水區"
"251015","181-VK","2018/09/06 16:59:21","新北市淡水區忠愛街3-1號","121.45724","25.1717866666667","6501000","淡水區"
"251010","413-VK","2018/09/06 16:59:27","新北市淡水區中正路二段31號","121.419526666667","25.1815033333333","6501000","淡水區"
"251012","441-VK","2018/09/06 16:59:31","新北市淡水區沙崙路242號","121.425845","25.1848383333333","6501000","淡水區"
"251007","442-VK","2018/09/06 16:59:14","新北市淡水區中正東路40號","121.449835","25.1653566666667","6501000","淡水區"
"251008","443-VK","2018/09/06 16:59:27","新北市淡水區樹梅坑9號","121.472725","25.1427","6501000","淡水區"
"251006","561-UM","2018/09/06 16:59:28","新北市淡水區中正路二段31號","121.419405","25.18161","6501000","淡水區"
"251011","650-BX","2018/09/06 16:59:20","新北市淡水區文化路61號","121.43834","25.1729033333333","6501000","淡水區"
"252002","178-VK","2018/09/06 16:59:21","新北市三芝區忠孝街178-1號","121.506271666667","25.2597116666667","6502100","三芝區"
"252001","292-VK","2018/09/06 16:59:24","新北市三芝區淡金路二段81號","121.503721666667","25.2607516666667","6502100","三芝區"
"242056","751-BX","2018/09/06 16:59:24","新北市新莊區三和路18-25號","121.44161","25.0390216666667","6500500","新莊區"
"242013","566-BX","2018/09/06 16:59:18","新北市新莊區三和路18-23號","121.441783333333","25.038885","6500500","新莊區"
"242023","362-BY","2018/09/06 16:59:25","新北市新莊區三和路12-21號","121.44232","25.0385216666667","6500500","新莊區"
"242042","133-UY","2018/09/06 16:59:18","新北市新莊區三和路12-21號","121.441948333333","25.0386983333333","6500500","新莊區"
"242019","175-VK","2018/09/06 16:59:21","新北市新莊區三和路12-21號","121.44196","25.0385483333333","6500500","新莊區"
"242031","348-TH","2018/09/06 16:59:32","新北市新莊區新泰路357巷3弄57號","121.441995","25.0392666666667","6500500","新莊區"
"242015","351-TH","2018/09/06 16:59:29","新北市新莊區新泰路357巷3弄57號","121.441908333333","25.0394216666667","6500500","新莊區"
"238018","571-TV","2018/09/06 16:59:18","新北市樹林區八德街369號","121.416255","24.9722233333333","6500700","樹林區"
"238025","303-VK","2018/09/06 16:59:32","新北市樹林區中正路22-1號","121.427905","24.9992816666667","6500700","樹林區"
"238017","283-BY","2018/09/06 16:59:30","新北市樹林區光武街3-1號","121.415045","25.0044916666667","6500700","樹林區"
"238001","282-BY","2018/09/06 16:59:32","新北市樹林區中正路22-6號","121.427916666667","24.9997583333333","6500700","樹林區"
"239007","AAC-297","2018/09/06 16:59:24","新北市鶯歌區二甲路12-2號","121.345635","24.935105","6500800","鶯歌區"
"239001","417-VK","2018/09/06 16:59:29","新北市鶯歌區二甲路13-16號","121.345395","24.9353283333333","6500800","鶯歌區"
