"lineid","car","time","location","longitude","latitude","cityid","cityname"
"234070","149-BY","2018/09/06 17:06:05","新北市永和區福和路1號","121.526425","25.0099933333333","6500400","永和區"
"234023","9381-KE","2018/09/06 17:08:44","新北市永和區保生路55-8號","121.504031666667","25.0105383333333","6500400","永和區"
"249005","172-UM","2018/09/06 17:09:01","新北市八里區大堀湖28號","121.419411666667","25.1455933333333","6502300","八里區"
"249001","173-UM","2018/09/06 17:08:53","新北市八里區中華路二段249-1號","121.403973333333","25.1483566666667","6502300","八里區"
"249004","303-UY","2018/09/06 17:08:49","新北市八里區忠孝路199號","121.422243333333","25.1609133333333","6502300","八里區"
"249002","305-UY","2018/09/06 17:08:56","新北市八里區龍米路二段147巷6號","121.442338333333","25.15022","6502300","八里區"
"249003","593-UM","2018/09/06 17:08:53","新北市八里區訊塘路37號","121.397415","25.1459016666667","6502300","八里區"
"244007","080-UY","2018/09/06 17:08:59","新北市林口區菁埔路39號","121.375335","25.09735","6501700","林口區"
"244019","403-UM","2018/09/06 17:08:59","新北市林口區公園路233-4號","121.376228333333","25.0756083333333","6501700","林口區"
"244023","483-VK","2018/09/06 17:08:58","新北市林口區仁愛路一段667巷45號","121.38708","25.0763433333333","6501700","林口區"
"244017","485-VK","2018/09/06 17:08:46","新北市林口區粉寮路二段88巷100-12號","121.409708333333","25.0901966666667","6501700","林口區"
"244009","656-BX","2018/09/06 17:08:42","新北市林口區民享路411號","121.384211666667","25.0886083333333","6501700","林口區"
"244025","837-TS","2018/09/06 17:09:03","新北市林口區中山路135號","121.388421666667","25.0790366666667","6501700","林口區"
"244021","838-TS","2018/09/06 17:08:50","新北市林口區粉寮路55號","121.40585","25.087955","6501700","林口區"
"231046","107-UY","2018/09/06 17:09:01","新北市新店區直潭路92號","121.530926666667","24.9375966666667","6500600","新店區"
"241011","013-R5","2018/09/06 17:08:53","新北市三重區龍濱路285號","121.501083333333","25.0733366666667","6500200","三重區"
"241028","022-UY","2018/09/06 17:08:48","新北市三重區重新路三段110號","121.492275","25.0603383333333","6500200","三重區"
"241008","059-VK","2018/09/06 17:08:50","新北市三重區力行路二段136巷17弄6號","121.481543333333","25.075645","6500200","三重區"
"241031","061-VK","2018/09/06 17:09:02","新北市三重區重陽路一段113巷1弄1號","121.487241666667","25.05986","6500200","三重區"
"241015","062-VK","2018/09/06 17:08:54","新北市三重區長生街6號","121.499051666667","25.06639","6500200","三重區"
"241017","063-VK","2018/09/06 17:08:52","新北市三重區大同北路108號","121.493281666667","25.0638566666667","6500200","三重區"
"241024","065-VK","2018/09/06 17:08:57","新北市三重區大勇街82巷26弄19-2號","121.47861","25.0722383333333","6500200","三重區"
"241026","066-VK","2018/09/06 17:08:53","新北市三重區重新路二段8號","121.499771666667","25.06261","6500200","三重區"
"241002","090-VK","2018/09/06 17:08:49","新北市三重區仁義街223號","121.49654","25.0821516666667","6500200","三重區"
"241003","091-VK","2018/09/06 17:06:56","新北市三重區進安街192號","121.49408","25.0863033333333","6500200","三重區"
"241022","265-UM","2018/09/06 17:08:48","新北市三重區三民街108號","121.485226666667","25.0633433333333","6500200","三重區"
"241016","266-UM","2018/09/06 17:08:59","新北市三重區大同北路133巷2號","121.493043333333","25.0644466666667","6500200","三重區"
"241009","267-UM","2018/09/06 17:09:04","新北市三重區三和路四段215巷14號","121.482288333333","25.07998","6500200","三重區"
"241018","268-UM","2018/09/06 17:08:48","新北市三重區六張街85-9號","121.49217","25.0699866666667","6500200","三重區"
"241032","269-UM","2018/09/06 17:08:55","新北市三重區重陽路一段126號","121.486691666667","25.0603183333333","6500200","三重區"
"241013","270-UM","2018/09/06 17:08:57","新北市三重區仁孝街62號","121.49726","25.074475","6500200","三重區"
"241025","271-UM","2018/09/06 17:08:47","新北市三重區中正北路560巷53號","121.470905","25.0698583333333","6500200","三重區"
"241007","398-BY","2018/09/06 17:08:52","新北市三重區三和路四段163巷42號","121.485746666667","25.0793316666667","6500200","三重區"
"241004","475-VK","2018/09/06 17:08:45","新北市三重區五華街98巷6號","121.492098333333","25.0820116666667","6500200","三重區"
"241020","478-VK","2018/09/06 17:08:57","新北市三重區力行路一段257號","121.482458333333","25.0709483333333","6500200","三重區"
"241030","480-VK","2018/09/06 17:08:50","新北市三重區集成路19號","121.488881666667","25.0522466666667","6500200","三重區"
"241014","543-UM","2018/09/06 17:08:48","新北市三重區龍濱路142號","121.501618333333","25.0719966666667","6500200","三重區"
"241023","545-UM","2018/09/06 17:08:53","新北市三重區忠孝路三段84巷1號","121.480228333333","25.0645783333333","6500200","三重區"
"241001","547-UM","2018/09/06 17:08:42","新北市三重區仁愛街255巷58號","121.494275","25.078975","6500200","三重區"
"241019","KEA-2593","2018/09/06 17:08:52","新北市三重區力行路一段153巷12號","121.485683333333","25.068965","6500200","三重區"
"241006","AAD-863","2018/09/06 17:08:59","新北市三重區三和路四段264巷11號","121.485133333333","25.0768583333333","6500200","三重區"
"241005","887-TS","2018/09/06 17:08:44","新北市三重區碧華街39號","121.48435","25.0814666666667","6500200","三重區"
"241012","941-UM","2018/09/06 17:09:00","新北市三重區仁壽街166號","121.500235","25.0745833333333","6500200","三重區"
"241029","942-UM","2018/09/06 17:08:47","新北市三重區重安街66號","121.491243333333","25.0572566666667","6500200","三重區"
"241033","AAC-255","2018/09/06 17:08:46","新北市三重區中興北街271號","121.46914","25.060615","6500200","三重區"
"235065","098-UM","2018/09/06 17:08:59","新北市中和區員山路36巷16-3號","121.485198333333","24.991165","6500300","中和區"
"247012","KEA-2869","2018/09/06 17:08:54","新北市蘆洲區信義路278號","121.477931666667","25.0871616666667","6501400","蘆洲區"
"235064","551-UM","2018/09/06 17:08:42","新北市中和區員山路36巷16-3號","121.485111666667","24.9914366666667","6500300","中和區"
"247002","893-R6","2018/09/06 17:08:52","新北市蘆洲區永樂街108號","121.455758333333","25.088905","6501400","蘆洲區"
"247016","546-UM","2018/09/06 17:08:52","新北市蘆洲區光華路75號","121.468056666667","25.0825733333333","6501400","蘆洲區"
"247024","500-BY","2018/09/06 17:09:05","新北市蘆洲區長興路52號","121.463523333333","25.08352","6501400","蘆洲區"
"247014","339-TH","2018/09/06 17:09:02","新北市蘆洲區中央路26號","121.473531666667","25.08283","6501400","蘆洲區"
"247006","337-TH","2018/09/06 17:08:43","新北市蘆洲區長安街102巷5弄12號","121.461546666667","25.0820166666667","6501400","蘆洲區"
"247008","336-TH","2018/09/06 17:08:55","新北市蘆洲區信義路30巷28號","121.474453333333","25.0785716666667","6501400","蘆洲區"
"247020","057-VK","2018/09/06 17:08:58","新北市蘆洲區仁愛街62巷6號","121.471803333333","25.09405","6501400","蘆洲區"
"247010","056-VK","2018/09/06 17:08:47","新北市蘆洲區民族路7號","121.475776666667","25.0840833333333","6501400","蘆洲區"
"247018","007-UY","2018/09/06 17:08:46","新北市蘆洲區復興路160號","121.477435","25.08815","6501400","蘆洲區"
"247004","002-UY","2018/09/06 17:08:50","新北市蘆洲區長安街144號","121.46008","25.0822316666667","6501400","蘆洲區"
"247022","001-UY","2018/09/06 17:09:00","新北市蘆洲區民族路528號","121.468971666667","25.08986","6501400","蘆洲區"
"228003","097-TW","2018/09/06 17:08:59","新北市貢寮區福隆里東興街6-14號","121.952141666667","25.0204416666667","6502600","貢寮區"
"228001","212-TW","2018/09/06 17:09:03","新北市貢寮區仁理村研海街45號","121.92625","25.041175","6502600","貢寮區"
"228002","663-BX","2018/09/06 17:08:50","新北市貢寮區龍崗里嵩陽街38號","121.910288333333","25.01703","6502600","貢寮區"
"224006","676-BX","2018/09/06 17:08:59","新北市瑞芳區大寮路108號","121.781535","25.0978116666667","6501200","瑞芳區"
"224008","285-BY","2018/09/06 17:09:01","新北市瑞芳區侯硐路127-1號","121.831463333333","25.0901366666667","6501200","瑞芳區"
"224007","275-VK","2018/09/06 17:08:54","新北市瑞芳區粗坑口路80號","121.761006666667","25.0990583333333","6501200","瑞芳區"
"224009","273-VK","2018/09/06 17:08:50","新北市瑞芳區八號巷22號","121.84245","25.1104816666667","6501200","瑞芳區"
"224005","271-BY","2018/09/06 17:08:58","新北市瑞芳區南雅路1號","121.894788333333","25.119745","6501200","瑞芳區"
"227010","642-TC","2018/09/06 17:08:55","新北市雙溪區牡丹里下坑11號","121.851018333333","25.0562433333333","6502500","雙溪區"
"227004","400-TW","2018/09/06 17:08:53","新北市雙溪區外柑里外柑腳37號","121.809901666667","25.0184","6502500","雙溪區"
"251009","008-UM","2018/09/06 17:08:57","新北市淡水區三民街22號","121.439063333333","25.1717816666667","6501000","淡水區"
"251004","009-UM","2018/09/06 17:09:00","新北市淡水區中正路223號","121.437125","25.1723616666667","6501000","淡水區"
"251005","010-UM","2018/09/06 17:09:01","新北市淡水區水源街一段34巷1號","121.443178333333","25.1722583333333","6501000","淡水區"
"251013","KEA-2871","2018/09/06 17:09:05","新北市淡水區大埤頭4號","121.48757","25.1951166666667","6501000","淡水區"
"251016","179-VK","2018/09/06 17:09:03","新北市淡水區社厝坑3-7號","121.47535","25.1891","6501000","淡水區"
"251014","180-VK","2018/09/06 17:09:01","新北市淡水區八里堆6-6號","121.459743333333","25.2252233333333","6501000","淡水區"
"251015","181-VK","2018/09/06 17:09:01","新北市淡水區鄧公路278巷11號","121.46289","25.16853","6501000","淡水區"
"251010","413-VK","2018/09/06 17:08:47","新北市淡水區中正路二段31號","121.419545","25.1814916666667","6501000","淡水區"
"251012","441-VK","2018/09/06 17:08:51","新北市淡水區中山北路一段158號","121.444235","25.17788","6501000","淡水區"
"251007","442-VK","2018/09/06 17:08:54","新北市淡水區民權路20號","121.459906666667","25.1378083333333","6501000","淡水區"
"251008","443-VK","2018/09/06 17:08:47","新北市淡水區民生路169號","121.4696","25.1420716666667","6501000","淡水區"
"251006","561-UM","2018/09/06 17:08:48","新北市淡水區真理街6號","121.438401666667","25.1744883333333","6501000","淡水區"
"251011","650-BX","2018/09/06 17:09:00","新北市淡水區坪頂路52巷10號","121.45783","25.1624166666667","6501000","淡水區"
"252002","178-VK","2018/09/06 17:09:01","新北市三芝區忠孝街1-16號","121.5056","25.2538883333333","6502100","三芝區"
"252001","292-VK","2018/09/06 17:09:05","新北市三芝區埔頭里埔頭18號","121.494025","25.2602766666667","6502100","三芝區"
"242058","986-R7","2018/09/06 17:08:51","新北市新莊區新泰路255巷83號","121.442258333333","25.03904","6500500","新莊區"
"242056","751-BX","2018/09/06 17:09:04","新北市新莊區三和路12-9號","121.442318333333","25.036645","6500500","新莊區"
"242027","615-BX","2018/09/06 17:08:56","新北市新莊區三和路12-21號","121.442191666667","25.03867","6500500","新莊區"
"242013","566-BX","2018/09/06 17:08:58","新北市新莊區中正路481號","121.441336666667","25.033815","6500500","新莊區"
"242048","497-BY","2018/09/06 17:08:43","新北市新莊區中正路475號","121.441513333333","25.03384","6500500","新莊區"
"242053","441-UM","2018/09/06 17:09:06","新北市新莊區新莊路771巷10號","121.442028333333","25.03189","6500500","新莊區"
"242039","415-TV","2018/09/06 17:08:49","新北市新莊區中正路475號","121.441498333333","25.0338033333333","6500500","新莊區"
"242023","362-BY","2018/09/06 17:08:45","新北市新莊區三和路12-21號","121.4424","25.0382416666667","6500500","新莊區"
"242061","353-BY","2018/09/06 17:08:51","新北市新莊區中正路473-1號","121.442035","25.033005","6500500","新莊區"
"242042","133-UY","2018/09/06 17:08:58","新北市新莊區三和路12-21號","121.442015","25.03872","6500500","新莊區"
"242051","172-VK","2018/09/06 17:08:51","新北市新莊區新樹路132號","121.435741666667","25.0237566666667","6500500","新莊區"
"242019","175-VK","2018/09/06 17:09:01","新北市新莊區三和路12-21號","121.441976666667","25.0386033333333","6500500","新莊區"
"242007","176-VK","2018/09/06 17:08:47","新北市新莊區三和路12-21號","121.442055","25.0386733333333","6500500","新莊區"
"242015","347-TH","2018/09/06 17:09:03","新北市新莊區三和路12-16號","121.441948333333","25.03748","6500500","新莊區"
"242031","348-TH","2018/09/06 17:08:52","新北市新莊區新泰路357巷3弄57號","121.442","25.03952","6500500","新莊區"
"242015","351-TH","2018/09/06 17:08:49","新北市新莊區新泰路357巷3弄57號","121.441908333333","25.039435","6500500","新莊區"
"238019","599-UM","2018/09/06 17:08:45","新北市樹林區太平路277號","121.419141666667","24.972815","6500700","樹林區"
"238018","571-TV","2018/09/06 17:08:58","新北市樹林區博愛街257號","121.424571666667","24.9845933333333","6500700","樹林區"
"238022","KEA-2213","2018/09/06 17:08:53","新北市樹林區忠孝街91號","121.42429","24.981125","6500700","樹林區"
"238021","KEA-2539","2018/09/06 17:08:46","新北市樹林區西圳街一段165巷22號","121.395863333333","24.96105","6500700","樹林區"
"238025","303-VK","2018/09/06 17:08:52","新北市樹林區中正路22-1號","121.427926666667","24.9993183333333","6500700","樹林區"
"238017","283-BY","2018/09/06 17:08:50","新北市樹林區光武街26-10號","121.415873333333","25.0052566666667","6500700","樹林區"
"238001","282-BY","2018/09/06 17:08:52","新北市樹林區中正路22-1號","121.427768333333","24.9996633333333","6500700","樹林區"
"238020","268-VK","2018/09/06 17:09:02","新北市樹林區八德街1004號","121.391535","24.96851","6500700","樹林區"
"238026","172-UY","2018/09/06 17:08:48","新北市樹林區八德街1014號","121.391313333333","24.968475","6500700","樹林區"
"238016","169-UY","2018/09/06 17:08:57","新北市樹林區八德街1號","121.417613333333","24.9849983333333","6500700","樹林區"
"239007","AAC-297","2018/09/06 17:08:44","新北市鶯歌區信義街60號","121.353446666667","24.954705","6500800","鶯歌區"
"239006","891-R6","2018/09/06 17:09:04","新北市鶯歌區八德路2巷37弄10號","121.337148333333","24.9464783333333","6500800","鶯歌區"
"239008","527-UM","2018/09/06 17:08:53","新北市鶯歌區尖山路68號","121.349083333333","24.9494983333333","6500800","鶯歌區"
"239005","526-UM","2018/09/06 17:08:49","新北市鶯歌區鶯桃路311號","121.333738333333","24.96066","6500800","鶯歌區"
"239001","417-VK","2018/09/06 17:08:50","新北市鶯歌區尖山路140巷8號","121.34639","24.94921","6500800","鶯歌區"
"239002","359-BY","2018/09/06 17:08:46","新北市鶯歌區建國路170號","121.35006","24.9535566666667","6500800","鶯歌區"
"239004","193-VK","2018/09/06 17:08:45","新北市鶯歌區文化路324巷6-5號","121.350263333333","24.9449033333333","6500800","鶯歌區"
"242013","281-VK","2018/09/06 17:09:01","新北市新莊區三和路12-16號","121.442271666667","25.0373866666667","6500500","新莊區"
