"lineid","car","time","location","longitude","latitude","cityid","cityname"
"234026","9371-KE","2018/09/06 17:39:02","新北市永和區豫溪街86號","121.518268333333","25.0099483333333","6500400","永和區"
"234023","9381-KE","2018/09/06 17:39:05","新北市永和區保生路55-8號","121.504013333333","25.0104766666667","6500400","永和區"
"249005","172-UM","2018/09/06 17:39:01","新北市八里區荖阡坑路34-1號","121.402778333333","25.1297266666667","6502300","八里區"
"249001","173-UM","2018/09/06 17:38:53","新北市八里區龍米路二段189號","121.434193333333","25.1582483333333","6502300","八里區"
"249004","303-UY","2018/09/06 17:38:49","新北市八里區大崁二街30號","121.417751666667","25.1579233333333","6502300","八里區"
"249002","305-UY","2018/09/06 17:38:56","新北市八里區龍形五街37巷20號","121.446238333333","25.1334083333333","6502300","八里區"
"249003","593-UM","2018/09/06 17:38:53","新北市八里區中山路二段153號","121.405026666667","25.15093","6502300","八里區"
"248006","077-UY","2018/09/06 17:39:01","新北市五股區中興路二段83巷26-3號","121.460058333333","25.07564","6501500","五股區"
"232011","375-UM","2018/09/06 17:38:48","新北市坪林區北宜路八段103號","121.70611","24.93483","6502000","坪林區"
"244013","069-UM","2018/09/06 17:38:48","新北市林口區文化一路二段90號","121.381531666667","25.07861","6501700","林口區"
"244007","080-UY","2018/09/06 17:38:59","新北市林口區文化一路二段341號","121.386383333333","25.08686","6501700","林口區"
"244019","403-UM","2018/09/06 17:38:58","新北市林口區忠孝路512-1號","121.371808333333","25.069185","6501700","林口區"
"244023","483-VK","2018/09/06 17:38:58","新北市林口區東明二街61號","121.389701666667","25.0694833333333","6501700","林口區"
"244017","485-VK","2018/09/06 17:38:46","新北市林口區文化二路一段240號","121.370121666667","25.0729083333333","6501700","林口區"
"244009","656-BX","2018/09/06 17:39:02","新北市林口區民享路174號","121.382186666667","25.0835466666667","6501700","林口區"
"244011","657-BX","2018/09/06 17:38:50","新北市林口區佳林路211號","121.384228333333","25.0771083333333","6501700","林口區"
"244025","837-TS","2018/09/06 17:39:03","新北市林口區南勢街21-1號","121.364661666667","25.0734083333333","6501700","林口區"
"244021","838-TS","2018/09/06 17:38:56","新北市林口區粉寮路一段40號","121.39638","25.0763116666667","6501700","林口區"
"231046","107-UY","2018/09/06 17:39:01","新北市新店區直潭路92號","121.530903333333","24.9375966666667","6500600","新店區"
"241017","063-VK","2018/09/06 17:38:57","新北市三重區大同北路32號","121.495178333333","25.06253","6500200","三重區"
"241016","266-UM","2018/09/06 17:38:59","新北市三重區正義北路49號","121.497386666667","25.0639716666667","6500200","三重區"
"241013","270-UM","2018/09/06 17:38:57","新北市三重區仁義街22號","121.499381666667","25.0765416666667","6500200","三重區"
"241007","398-BY","2018/09/06 17:38:52","新北市三重區聯華街143號","121.484286666667","25.075105","6500200","三重區"
"241020","413-TH","2018/09/06 17:38:55","新北市三重區國道路一段6號","121.486231666667","25.07337","6500200","三重區"
"241014","543-UM","2018/09/06 17:38:47","新北市三重區河邊北街82號","121.50432","25.0689916666667","6500200","三重區"
"241023","545-UM","2018/09/06 17:38:53","新北市三重區中華路121號","121.483663333333","25.0637316666667","6500200","三重區"
"241005","887-TS","2018/09/06 17:39:04","新北市三重區永安北路二段5巷33號","121.482685","25.0811566666667","6500200","三重區"
"241012","941-UM","2018/09/06 17:39:00","新北市三重區仁興街39巷34號","121.500681666667","25.0763966666667","6500200","三重區"
"241033","AAC-255","2018/09/06 17:38:46","新北市三重區興德路131巷10號","121.470005","25.05335","6500200","三重區"
"235065","098-UM","2018/09/06 17:38:59","新北市中和區員山路36巷16-3號","121.485145","24.9911783333333","6500300","中和區"
"247012","KEA-2869","2018/09/06 17:38:54","新北市蘆洲區民權路34號","121.476313333333","25.0862766666667","6501400","蘆洲區"
"235064","551-UM","2018/09/06 17:17:04","新北市中和區員山路36巷16-3號","121.485123333333","24.99142","6500300","中和區"
"247002","893-R6","2018/09/06 17:38:55","新北市蘆洲區永平街32巷11弄36號","121.457585","25.09223","6501400","蘆洲區"
"247024","500-BY","2018/09/06 17:39:05","新北市蘆洲區長樂路125-1號","121.462083333333","25.0880716666667","6501400","蘆洲區"
"247014","339-TH","2018/09/06 17:39:02","新北市蘆洲區中山二路135號","121.471876666667","25.0816233333333","6501400","蘆洲區"
"247006","337-TH","2018/09/06 17:39:03","新北市蘆洲區九芎街189號","121.464663333333","25.0785133333333","6501400","蘆洲區"
"247008","336-TH","2018/09/06 17:38:55","新北市蘆洲區民生街109號","121.473361666667","25.0786466666667","6501400","蘆洲區"
"247020","057-VK","2018/09/06 17:38:58","新北市蘆洲區民族路351號","121.47227","25.0917116666667","6501400","蘆洲區"
"247010","056-VK","2018/09/06 17:38:47","新北市蘆洲區中山一路74巷49號","121.479648333333","25.0814433333333","6501400","蘆洲區"
"247018","007-UY","2018/09/06 17:38:46","新北市蘆洲區三民路98巷7號","121.472508333333","25.0870316666667","6501400","蘆洲區"
"247004","002-UY","2018/09/06 17:38:50","新北市蘆洲區長安街249巷34號","121.457958333333","25.0827066666667","6501400","蘆洲區"
"247022","001-UY","2018/09/06 17:39:01","新北市蘆洲區民族路449號","121.467481666667","25.0887383333333","6501400","蘆洲區"
"228003","097-TW","2018/09/06 17:38:53","新北市貢寮區仁理村仁和路37號","121.92397","25.053935","6502600","貢寮區"
"228001","212-TW","2018/09/06 17:39:03","新北市貢寮區仁理村仁愛路95-1號","121.927636666667","25.0554183333333","6502600","貢寮區"
"228002","663-BX","2018/09/06 17:38:50","新北市貢寮區福隆里龜壽谷街12號","121.955605","25.0063733333333","6502600","貢寮區"
"224010","AGQ-8101","2018/09/06 17:34:49","新北市瑞芳區逢甲路149號","121.807018333333","25.110095","6501200","瑞芳區"
"224006","676-BX","2018/09/06 17:38:59","新北市瑞芳區傑魚坑路38號","121.794015","25.11056","6501200","瑞芳區"
"224008","285-BY","2018/09/06 17:39:01","新北市瑞芳區瑞柑新村51號","121.828766666667","25.1064533333333","6501200","瑞芳區"
"224009","273-VK","2018/09/06 17:38:50","新北市瑞芳區金光路376號","121.850566666667","25.111365","6501200","瑞芳區"
"224005","271-BY","2018/09/06 17:38:58","新北市瑞芳區海濱路2巷1號","121.8398","25.1277016666667","6501200","瑞芳區"
"227010","642-TC","2018/09/06 17:38:54","新北市雙溪區三貂里定福路1-2號","121.850726666667","25.06334","6502500","雙溪區"
"251009","008-UM","2018/09/06 17:38:57","新北市淡水區中正路38-1號","121.443745","25.1692716666667","6501000","淡水區"
"251004","009-UM","2018/09/06 17:36:30","新北市淡水區中正東路二段115號","121.459871666667","25.1508466666667","6501000","淡水區"
"251005","010-UM","2018/09/06 17:39:00","新北市淡水區鄧公路33巷5號","121.451665","25.17102","6501000","淡水區"
"251013","KEA-2871","2018/09/06 17:39:05","新北市淡水區大竹圍2-3號","121.467235","25.19548","6501000","淡水區"
"251016","179-VK","2018/09/06 17:38:50","新北市淡水區埤島39-15號","121.45277","25.1958866666667","6501000","淡水區"
"251014","180-VK","2018/09/06 17:38:41","新北市淡水區公埔子15-1號","121.479156666667","25.226665","6501000","淡水區"
"251015","181-VK","2018/09/06 17:39:01","新北市淡水區糞箕湖23號","121.486155","25.1705866666667","6501000","淡水區"
"251010","413-VK","2018/09/06 17:38:47","新北市淡水區淡海路280巷23號","121.419773333333","25.1899216666667","6501000","淡水區"
"251012","441-VK","2018/09/06 17:38:51","新北市淡水區北新路200巷8號","121.451758333333","25.1797116666667","6501000","淡水區"
"251007","442-VK","2018/09/06 17:38:54","新北市淡水區民族路35巷1號","121.464535","25.1371783333333","6501000","淡水區"
"251008","443-VK","2018/09/06 17:38:27","新北市淡水區八勢路一段98-2號","121.467553333333","25.1557566666667","6501000","淡水區"
"251001","559-UM","2018/09/06 17:38:47","新北市淡水區民權路92巷35-1號","121.462256666667","25.126625","6501000","淡水區"
"251006","561-UM","2018/09/06 17:38:48","新北市淡水區大信街24巷2號","121.442021666667","25.1766983333333","6501000","淡水區"
"251011","650-BX","2018/09/06 17:39:00","新北市淡水區小坪頂69-1號","121.484631666667","25.1585316666667","6501000","淡水區"
"251002","672-BX","2018/09/06 17:38:50","新北市淡水區文化路16號","121.439823333333","25.1726166666667","6501000","淡水區"
"251003","766-UM","2018/09/06 17:39:00","新北市淡水區中山北路一段52號","121.441861666667","25.1756216666667","6501000","淡水區"
"207003","550-UM","2018/09/06 17:39:02","新北市萬里區龜吼里漁澳路10號","121.686253333333","25.1947116666667","6502800","萬里區"
"207004","225-TW","2018/09/06 17:39:03","新北市萬里區中幅里中福路19-1號","121.682936666667","25.1647866666667","6502800","萬里區"
"252002","178-VK","2018/09/06 17:39:01","新北市三芝區中正路二段2號","121.504943333333","25.255735","6502100","三芝區"
"252001","292-VK","2018/09/06 17:38:44","新北市三芝區育英街3號","121.501883333333","25.258605","6502100","三芝區"
"237013","252-BX","2018/09/06 17:38:44","新北市三峽區愛國路33-9號","121.374938333333","24.9329616666667","6500900","三峽區"
"237012","275-BY","2018/09/06 17:38:52","新北市三峽區中山路459巷163-3號","121.348868333333","24.93317","6500900","三峽區"
"237008","302-VK","2018/09/06 17:39:01","新北市三峽區中山路222-1號","121.363001666667","24.9372266666667","6500900","三峽區"
"237006","5529-G3","2018/09/06 17:38:59","新北市三峽區介壽路一段198號","121.377585","24.9308383333333","6500900","三峽區"
"237011","KEA-2596","2018/09/06 17:38:52","新北市三峽區大智路65號","121.360498333333","24.9360266666667","6500900","三峽區"
"237016","649-BX","2018/09/06 17:39:01","新北市三峽區正義街1號","121.370043333333","24.9201733333333","6500900","三峽區"
"237010","706-TV","2018/09/06 17:39:05","新北市三峽區中山路186號","121.363918333333","24.9367416666667","6500900","三峽區"
"236070","105-UM","2018/09/06 17:38:52","新北市土城區城林路6巷80號","121.438656666667","24.979995","6501300","土城區"
"236042","107-UM","2018/09/06 17:38:47","新北市土城區城林路6巷80號","121.438805","24.979585","6501300","土城區"
"236078","166-UM","2018/09/06 17:38:54","新北市土城區城林路6巷80號","121.43851","24.9797183333333","6501300","土城區"
"236030","253-BX","2018/09/06 17:38:51","新北市土城區城林路6巷80號","121.438685","24.979755","6501300","土城區"
"236014","270-VK","2018/09/06 17:38:46","新北市土城區城林路6巷80號","121.438436666667","24.9795983333333","6501300","土城區"
"236059","912-UM","2018/09/06 17:38:51","新北市土城區城林路6巷80號","121.438561666667","24.979725","6501300","土城區"
"236049","913-UM","2018/09/06 17:39:06","新北市土城區城林路6巷80號","121.438463333333","24.9795816666667","6501300","土城區"
"236055","AAC-216","2018/09/06 17:38:51","新北市土城區城林路6巷80號","121.438393333333","24.97959","6501300","土城區"
"242036","AAC-296","2018/09/06 17:38:58","新北市新莊區後港一路122號","121.429011666667","25.0271566666667","6500500","新莊區"
"242058","986-R7","2018/09/06 17:38:51","新北市新莊區中正路867-8號","121.41821","25.027295","6500500","新莊區"
"242056","751-BX","2018/09/06 17:39:03","新北市新莊區泰豐街21號","121.448315","25.0318416666667","6500500","新莊區"
"242027","615-BX","2018/09/06 17:38:56","新北市新莊區福壽街116號","121.458005","25.0508066666667","6500500","新莊區"
"242044","566-BX","2018/09/06 17:38:58","新北市新莊區富國路26號","121.418556666667","25.0262733333333","6500500","新莊區"
"242048","497-BY","2018/09/06 17:39:02","新北市新莊區萬安街133號","121.420646666667","25.022185","6500500","新莊區"
"242053","441-UM","2018/09/06 17:39:03","新北市新莊區新樹路699巷15號","121.432755","25.00167","6500500","新莊區"
"242002","440-UM","2018/09/06 17:39:05","新北市新莊區新莊路232號","121.452533333333","25.034185","6500500","新莊區"
"242039","415-TV","2018/09/06 17:38:57","新北市新莊區民安東路18號","121.428238333333","25.02089","6500500","新莊區"
"242009","413-TV","2018/09/06 17:39:00","新北市新莊區昌明街14巷18號","121.45737","25.05345","6500500","新莊區"
"242023","362-BY","2018/09/06 17:38:45","新北市新莊區公園路238號","121.457488333333","25.0407783333333","6500500","新莊區"
"242061","353-BY","2018/09/06 17:38:51","新北市新莊區瓊林南路35-1號","121.435635","25.016885","6500500","新莊區"
"242011","132-UY","2018/09/06 17:38:52","新北市新莊區中港路518號","121.451646666667","25.0520066666667","6500500","新莊區"
"242042","133-UY","2018/09/06 17:38:58","新北市新莊區中正路514巷17號","121.433083333333","25.033005","6500500","新莊區"
"242034","135-UY","2018/09/06 17:38:55","新北市新莊區新莊路637號","121.445248333333","25.0328683333333","6500500","新莊區"
"242051","172-VK","2018/09/06 17:38:51","新北市新莊區西盛街216號","121.427948333333","25.0174433333333","6500500","新莊區"
"242019","175-VK","2018/09/06 17:39:01","新北市新莊區中港路217號","121.454741666667","25.042265","6500500","新莊區"
"242007","176-VK","2018/09/06 17:38:54","新北市新莊區福樂街118巷16號","121.45755","25.048305","6500500","新莊區"
"242017","346-TH","2018/09/06 17:38:55","新北市新莊區復興路一段149巷22弄2號","121.450273333333","25.044065","6500500","新莊區"
"242046","347-TH","2018/09/06 17:39:03","新北市新莊區建國一路21號","121.433878333333","25.0315266666667","6500500","新莊區"
"242031","348-TH","2018/09/06 17:38:52","新北市新莊區新泰路355號","121.444536666667","25.0424716666667","6500500","新莊區"
"242004","349-TH","2018/09/06 17:38:53","新北市新莊區自立街186號","121.456261666667","25.0454383333333","6500500","新莊區"
"242021","350-TH","2018/09/06 17:38:46","新北市新莊區中華路一段55號","121.451988333333","25.0387433333333","6500500","新莊區"
"242015","351-TH","2018/09/06 17:38:53","新北市新莊區新泰路281號","121.445605","25.0404783333333","6500500","新莊區"
"238015","755-BX","2018/09/06 17:38:52","新北市樹林區啟智街18號","121.421033333333","24.9937083333333","6500700","樹林區"
"238023","601-UM","2018/09/06 17:39:00","新北市樹林區三福街140號","121.405531666667","25.0163716666667","6500700","樹林區"
"238019","599-UM","2018/09/06 17:38:45","新北市樹林區太平路97號","121.419113333333","24.9812683333333","6500700","樹林區"
"238018","571-TV","2018/09/06 17:38:58","新北市樹林區鎮前街124號","121.424855","24.9908283333333","6500700","樹林區"
"238024","5061-A6","2018/09/06 17:38:50","新北市樹林區太平路269號","121.419661666667","24.9731516666667","6500700","樹林區"
"238022","KEA-2213","2018/09/06 17:38:53","新北市樹林區太元街30號","121.418006666667","24.9802133333333","6500700","樹林區"
"238021","KEA-2539","2018/09/06 17:38:46","新北市樹林區柑園街一段244號","121.391996666667","24.9563516666667","6500700","樹林區"
"238025","303-VK","2018/09/06 17:38:52","新北市樹林區保安街二段261號","121.413023333333","25.0052933333333","6500700","樹林區"
"238017","283-BY","2018/09/06 17:38:50","新北市樹林區三德街30巷11號","121.414611666667","25.0127633333333","6500700","樹林區"
"238014","282-BY","2018/09/06 17:38:52","新北市樹林區保安街一段336巷25號","121.417693333333","24.9991083333333","6500700","樹林區"
"238020","268-VK","2018/09/06 17:39:02","新北市樹林區俊英街160巷17號","121.427498333333","25.0069133333333","6500700","樹林區"
"238026","172-UY","2018/09/06 17:38:48","新北市樹林區新興街19巷34弄31號","121.402656666667","24.9724416666667","6500700","樹林區"
"238016","169-UY","2018/09/06 17:38:57","新北市樹林區文化街56號","121.417991666667","24.9885683333333","6500700","樹林區"
"239007","AAC-297","2018/09/06 17:39:04","新北市鶯歌區鶯桃路180號","121.337053333333","24.95558","6500800","鶯歌區"
"239006","891-R6","2018/09/06 17:39:04","新北市鶯歌區莒光街20號","121.332463333333","24.96633","6500800","鶯歌區"
"239008","527-UM","2018/09/06 17:38:53","新北市鶯歌區大湖路379號","121.331008333333","24.9785366666667","6500800","鶯歌區"
"239005","526-UM","2018/09/06 17:38:49","新北市鶯歌區福隆二街58號","121.324513333333","24.971465","6500800","鶯歌區"
"239001","417-VK","2018/09/06 17:38:50","新北市鶯歌區中正三路234-4號","121.330738333333","24.9370933333333","6500800","鶯歌區"
"239003","360-BY","2018/09/06 17:38:50","新北市鶯歌區鶯桃路206巷6號","121.337466666667","24.9592583333333","6500800","鶯歌區"
"239002","359-BY","2018/09/06 17:38:50","新北市鶯歌區育英街15號","121.346833333333","24.9551866666667","6500800","鶯歌區"
"239004","193-VK","2018/09/06 17:38:45","新北市鶯歌區三鶯路115號","121.359601666667","24.9443233333333","6500800","鶯歌區"
"221008","489-VK","2018/09/06 17:38:55","新北市汐止區康寧街901號","121.651335","25.0750516666667","6501100","汐止區"
"221015","131-UY","2018/09/06 17:38:46","新北市汐止區汐萬路一段256巷1號","121.651768333333","25.07489","6501100","汐止區"
"221010","269-BY","2018/09/06 17:38:55","新北市汐止區汐萬路一段418巷30號","121.650085","25.0788333333333","6501100","汐止區"
"221032","280-BY","2018/09/06 17:38:47","新北市汐止區樟樹二路332號","121.64149","25.0703083333333","6501100","汐止區"
"221021","299-VK","2018/09/06 17:38:52","新北市汐止區汐萬路一段256巷1號","121.651985","25.0749266666667","6501100","汐止區"
"242013","281-VK","2018/09/06 17:39:01","新北市新莊區中誠街99號","121.449925","25.0477316666667","6500500","新莊區"
