"lineid","car","time","location","longitude","latitude","cityid","cityname"
"234026","9371-KE","2018/09/06 17:59:02","新北市永和區永和路一段180號","121.51424","25.0089483333333","6500400","永和區"
"234023","9381-KE","2018/09/06 17:59:05","新北市永和區保生路55-8號","121.504088333333","25.01052","6500400","永和區"
"249005","172-UM","2018/09/06 17:59:01","新北市八里區荖阡坑路22-7號","121.399186666667","25.1362283333333","6502300","八里區"
"249001","173-UM","2018/09/06 17:58:53","新北市八里區龍米路二段35號","121.448415","25.1399966666667","6502300","八里區"
"249004","303-UY","2018/09/06 17:58:49","新北市八里區中山路一段18-1號","121.423098333333","25.158995","6502300","八里區"
"249002","305-UY","2018/09/06 17:58:36","新北市八里區龍米路一段257號","121.450751666667","25.1335666666667","6502300","八里區"
"249003","593-UM","2018/09/06 17:59:01","新北市八里區中華路二段258巷1號","121.404758333333","25.14997","6502300","八里區"
"248014","025-BX","2018/09/06 17:58:54","新北市五股區更洲路47-1號","121.453991666667","25.0784366666667","6501500","五股區"
"248006","077-UY","2018/09/06 17:59:01","新北市五股區中興路二段83巷26-3號","121.460011666667","25.07536","6501500","五股區"
"248008","095-VK","2018/09/06 17:58:57","新北市五股區中興路二段150號","121.458618333333","25.07855","6501500","五股區"
"248020","225-UY","2018/09/06 17:59:00","新北市五股區中興路二段83巷26-6號","121.459935","25.075335","6501500","五股區"
"248012","247-BX","2018/09/06 17:59:01","新北市五股區中興路二段37巷28號","121.4602","25.07473","6501500","五股區"
"248016","261-SL","2018/09/06 17:59:01","新北市五股區中興路二段83巷26-6號","121.460028333333","25.0752716666667","6501500","五股區"
"248004","677-BX","2018/09/06 17:58:59","新北市五股區中興路二段103巷16號","121.458711666667","25.0761416666667","6501500","五股區"
"248002","678-BX","2018/09/06 17:58:59","新北市五股區中興路二段37巷28號","121.460155","25.0749","6501500","五股區"
"248010","682-TV","2018/09/06 17:58:43","新北市五股區中興路二段83巷26-6號","121.459943333333","25.075285","6501500","五股區"
"232011","375-UM","2018/09/06 17:58:48","新北市坪林區北宜路八段227號","121.70894","24.9349566666667","6502000","坪林區"
"244013","069-UM","2018/09/06 17:58:48","新北市林口區中山路53號","121.394278333333","25.0784933333333","6501700","林口區"
"244007","080-UY","2018/09/06 17:58:59","新北市林口區竹林路267號","121.389496666667","25.0809566666667","6501700","林口區"
"244019","403-UM","2018/09/06 17:58:59","新北市林口區文化一路一段124號","121.374821666667","25.0722033333333","6501700","林口區"
"244023","483-VK","2018/09/06 17:58:58","新北市林口區隆林街242號","121.383676666667","25.074315","6501700","林口區"
"244017","485-VK","2018/09/06 17:59:06","新北市林口區忠孝路470號","121.370028333333","25.0707083333333","6501700","林口區"
"244009","656-BX","2018/09/06 17:59:02","新北市林口區佳林路56巷13-6號","121.385463333333","25.0812683333333","6501700","林口區"
"244011","657-BX","2018/09/06 17:58:50","新北市林口區中正路130號","121.39307","25.077305","6501700","林口區"
"244025","837-TS","2018/09/06 17:59:02","新北市林口區三民路77-3號","121.358466666667","25.0685816666667","6501700","林口區"
"244021","838-TS","2018/09/06 17:51:10","新北市林口區仁愛路一段2-1號","121.398061666667","25.0671566666667","6501700","林口區"
"243013","AAD-798","2018/09/06 17:58:48","新北市泰山區黎明路25號","121.421903333333","25.0607716666667","6501600","泰山區"
"222003","436-BY","2018/09/06 17:58:42","新北市深坑區炮子崙24-1號","121.605665","24.9880666666667","6501800","深坑區"
"222002","659-BX","2018/09/06 17:58:59","新北市深坑區深坑街35號","121.616033333333","25.0018716666667","6501800","深坑區"
"231040","047-UY","2018/09/06 17:59:03","新北市新店區安華路28-1號","121.519083333333","24.9608483333333","6500600","新店區"
"231046","107-UY","2018/09/06 17:59:01","新北市新店區康雅崙路24號","121.535325","24.9267266666667","6500600","新店區"
"231058","3713-VJ","2018/09/06 17:59:00","新北市新店區安華路28-1號","121.519176666667","24.9606716666667","6500600","新店區"
"231055","AKT-0513","2018/09/06 17:58:57","新北市新店區安華路28-1號","121.519435","24.9605866666667","6500600","新店區"
"241016","266-UM","2018/09/06 17:58:59","新北市三重區新北大道一段226號","121.482163333333","25.0617816666667","6500200","三重區"
"241020","413-TH","2018/09/06 17:58:55","新北市三重區忠孝路一段181號","121.48726","25.0719033333333","6500200","三重區"
"241024","462-BY","2018/09/06 17:58:55","新北市三重區車路頭街70號","121.484211666667","25.073065","6500200","三重區"
"241033","AAC-255","2018/09/06 17:59:05","新北市三重區重新路五段552號","121.4704","25.045935","6500200","三重區"
"235065","098-UM","2018/09/06 17:58:59","新北市中和區景平路999巷2號","121.495031666667","25.0064283333333","6500300","中和區"
"235058","151-BY","2018/09/06 17:58:49","新北市中和區錦和路350-1號","121.490438333333","24.9935316666667","6500300","中和區"
"235038","185-VK","2018/09/06 17:58:56","新北市中和區錦和路216號","121.49038","24.994135","6500300","中和區"
"235042","KEA-2878","2018/09/06 17:58:49","新北市中和區和城路一段271巷1號","121.485491666667","24.99186","6500300","中和區"
"247012","KEA-2869","2018/09/06 17:58:54","新北市蘆洲區民族路155號","121.479468333333","25.0880116666667","6501400","蘆洲區"
"235064","551-UM","2018/09/06 17:58:52","新北市中和區員山路36巷16-3號","121.48509","24.99141","6500300","中和區"
"235070","558-UM","2018/09/06 17:58:43","新北市中和區員山路36巷16-3號","121.484928333333","24.991765","6500300","中和區"
"235054","640-BX","2018/09/06 17:59:03","新北市中和區員山路36巷16-2號","121.485283333333","24.99182","6500300","中和區"
"235047","732-UM","2018/09/06 17:59:07","新北市中和區員山路36巷16-2號","121.48513","24.9915233333333","6500300","中和區"
"235071","783-BX","2018/09/06 17:58:59","新北市中和區員山路36巷16-3號","121.485175","24.99121","6500300","中和區"
"235062","800-TS","2018/09/06 17:59:03","新北市中和區員山路36巷16-3號","121.484908333333","24.9915716666667","6500300","中和區"
"235051","157-BY","2018/09/06 17:58:50","新北市中和區員山路36巷13號","121.484181666667","24.9909283333333","6500300","中和區"
"235037","AAC-213","2018/09/06 17:58:54","新北市中和區錦和路350-1號","121.490578333333","24.99356","6500300","中和區"
"247002","893-R6","2018/09/06 17:59:01","新北市蘆洲區永平街32巷57弄26號","121.458801666667","25.093345","6501400","蘆洲區"
"247016","546-UM","2018/09/06 17:58:52","新北市蘆洲區中正路185巷82號","121.465845","25.0840633333333","6501400","蘆洲區"
"247024","500-BY","2018/09/06 17:59:05","新北市蘆洲區光復路30巷20號","121.46386","25.084175","6501400","蘆洲區"
"247014","339-TH","2018/09/06 17:59:02","新北市蘆洲區三民路155號","121.4714","25.0867066666667","6501400","蘆洲區"
"247008","336-TH","2018/09/06 17:58:55","新北市蘆洲區信義路27巷1號","121.473946666667","25.0792683333333","6501400","蘆洲區"
"247010","056-VK","2018/09/06 17:58:47","新北市蘆洲區信義路273號","121.478871666667","25.0850133333333","6501400","蘆洲區"
"226004","312-R5","2018/09/06 17:59:03","新北市平溪區石底里公園街18-3號","121.733378333333","25.0257866666667","6502400","平溪區"
"228003","097-TW","2018/09/06 17:58:53","新北市貢寮區真理里美艷山街6-2號","121.928848333333","25.0607383333333","6502600","貢寮區"
"228001","212-TW","2018/09/06 17:59:02","新北市貢寮區仁理村仁愛路106巷36號","121.929535","25.0544116666667","6502600","貢寮區"
"228002","663-BX","2018/09/06 17:58:50","新北市貢寮區福連里香蘭街2-1號","121.97095","25.02423","6502600","貢寮區"
"224006","676-BX","2018/09/06 17:58:59","新北市瑞芳區大寮路356-1號","121.784858333333","25.10317","6501200","瑞芳區"
"224008","285-BY","2018/09/06 17:59:01","新北市瑞芳區明燈路一段45巷71號","121.821908333333","25.1048433333333","6501200","瑞芳區"
"224009","273-VK","2018/09/06 17:58:50","新北市瑞芳區金光路117號","121.853355","25.10614","6501200","瑞芳區"
"224005","271-BY","2018/09/06 17:58:57","新北市瑞芳區建基路一段50巷6-1號","121.817996666667","25.1280683333333","6501200","瑞芳區"
"227010","642-TC","2018/09/06 17:58:54","新北市雙溪區三貂里定福路1-2號","121.850728333333","25.0633666666667","6502500","雙溪區"
"253006","032-BX","2018/09/06 17:58:50","新北市石門區大丘田45-2號","121.549786666667","25.2748583333333","6502200","石門區"
"253005","295-VK","2018/09/06 17:58:58","新北市石門區中山路62-11號","121.567538333333","25.2896766666667","6502200","石門區"
"222001","KEA-2212","2018/09/06 17:59:01","新北市深坑區北深路三段34號","121.609138333333","25.00109","6501800","深坑區"
"208002","KEA-2872","2018/09/06 17:59:02","新北市金山區三界壇路25號","121.627903333333","25.2278316666667","6502700","金山區"
"208003","665-BX","2018/09/06 17:58:49","新北市金山區磺港里磺港路308號","121.643938333333","25.227415","6502700","金山區"
"208001","761-BX","2018/09/06 17:58:58","新北市金山區磺港里青年路1號","121.64179","25.2248666666667","6502700","金山區"
"251009","008-UM","2018/09/06 17:58:57","新北市淡水區大仁街6巷1號","121.442438333333","25.1745866666667","6501000","淡水區"
"251004","009-UM","2018/09/06 17:58:51","新北市淡水區民權路20號","121.459623333333","25.1377933333333","6501000","淡水區"
"251005","010-UM","2018/09/06 17:59:00","新北市淡水區英專路126號","121.446273333333","25.1726383333333","6501000","淡水區"
"251013","KEA-2871","2018/09/06 17:58:45","新北市淡水區泉洲厝31號","121.479486666667","25.19103","6501000","淡水區"
"251016","179-VK","2018/09/06 17:58:49","新北市淡水區埤島30-14號","121.448185","25.1981066666667","6501000","淡水區"
"251014","180-VK","2018/09/06 17:59:01","新北市淡水區公埔子16-6號","121.481016666667","25.2245816666667","6501000","淡水區"
"251015","181-VK","2018/09/06 17:59:01","新北市淡水區興福寮88巷1號","121.485348333333","25.1649633333333","6501000","淡水區"
"251010","413-VK","2018/09/06 17:58:47","新北市淡水區中正路一段87巷1號","121.421736666667","25.1791316666667","6501000","淡水區"
"251012","441-VK","2018/09/06 17:58:51","新北市淡水區北新路三段38巷7號","121.484585","25.1870316666667","6501000","淡水區"
"251007","442-VK","2018/09/06 17:58:54","新北市淡水區民生路117巷34號","121.464971666667","25.13962","6501000","淡水區"
"251008","443-VK","2018/09/06 17:59:07","新北市淡水區八勢一街43-8號","121.461863333333","25.1558516666667","6501000","淡水區"
"251001","559-UM","2018/09/06 17:58:47","新北市淡水區民權路94巷1號","121.463231666667","25.1248566666667","6501000","淡水區"
"251006","561-UM","2018/09/06 17:58:48","新北市淡水區新生街30巷1號","121.438915","25.173125","6501000","淡水區"
"251011","650-BX","2018/09/06 17:59:00","新北市淡水區三空泉7-1號","121.476683333333","25.162485","6501000","淡水區"
"251002","672-BX","2018/09/06 17:58:50","新北市淡水區鼻頭街9號","121.446981666667","25.1669316666667","6501000","淡水區"
"251003","766-UM","2018/09/06 17:59:00","新北市淡水區大忠街51號","121.444893333333","25.17648","6501000","淡水區"
"207003","550-UM","2018/09/06 17:59:02","新北市萬里區港東路野柳風景區攤販153號","121.690766666667","25.2054633333333","6502800","萬里區"
"207004","225-TW","2018/09/06 17:59:03","新北市萬里區中幅里中福路48號","121.683223333333","25.1740216666667","6502800","萬里區"
"252002","178-VK","2018/09/06 17:59:01","新北市三芝區中山路二段47巷5號","121.502765","25.254835","6502100","三芝區"
"252001","292-VK","2018/09/06 17:58:44","新北市三芝區中興街二段2號","121.498386666667","25.256635","6502100","三芝區"
"237007","153-BY","2018/09/06 17:58:49","新北市三峽區中園街110號","121.367088333333","24.9229383333333","6500900","三峽區"
"237009","210-TH","2018/09/06 17:58:49","新北市三峽區中山路106巷7號","121.366071666667","24.9360866666667","6500900","三峽區"
"237013","252-BX","2018/09/06 17:58:44","新北市三峽區介壽路一段51號","121.375598333333","24.9329733333333","6500900","三峽區"
"237012","275-BY","2018/09/06 17:58:52","新北市三峽區民生街17號","121.376255","24.936685","6500900","三峽區"
"237008","302-VK","2018/09/06 17:59:01","新北市三峽區白雞30-3號","121.369623333333","24.91239","6500900","三峽區"
"237014","433-BY","2018/09/06 17:59:02","新北市三峽區復興路101巷1弄79號","121.370986666667","24.9375883333333","6500900","三峽區"
"237006","5529-G3","2018/09/06 17:58:59","新北市三峽區介壽路二段138巷1弄88號","121.39786","24.932015","6500900","三峽區"
"237011","KEA-2596","2018/09/06 17:58:52","新北市三峽區中正路一段34號","121.375688333333","24.9307266666667","6500900","三峽區"
"237016","649-BX","2018/09/06 17:59:01","新北市三峽區紫微路139號","121.406108333333","24.9110966666667","6500900","三峽區"
"237010","706-TV","2018/09/06 17:58:45","新北市三峽區仁愛街2號","121.368436666667","24.9339733333333","6500900","三峽區"
"237005","AKY-6261","2018/09/06 17:58:47","新北市三峽區和平街91-3號","121.370088333333","24.9375583333333","6500900","三峽區"
"236070","105-UM","2018/09/06 17:58:52","新北市土城區青雲路474號","121.463215","24.9664983333333","6501300","土城區"
"236042","107-UM","2018/09/06 17:58:47","新北市土城區城林路6巷80號","121.438636666667","24.979695","6501300","土城區"
"236078","166-UM","2018/09/06 17:58:54","新北市土城區永寧路57-1號","121.429081666667","24.95971","6501300","土城區"
"236030","253-BX","2018/09/06 17:58:51","新北市土城區城林路6巷80號","121.438671666667","24.9797116666667","6501300","土城區"
"236026","269-VK","2018/09/06 17:59:04","新北市土城區承天路18號","121.439428333333","24.96346","6501300","土城區"
"236014","270-VK","2018/09/06 17:59:06","新北市土城區城林路6巷80號","121.438418333333","24.97959","6501300","土城區"
"236038","271-VK","2018/09/06 17:59:03","新北市土城區城林路6巷80號","121.438551666667","24.9797516666667","6501300","土城區"
"236021","401-BY","2018/09/06 17:58:59","新北市土城區城林路6巷80號","121.43877","24.9796783333333","6501300","土城區"
"236021","752-BX","2018/09/06 17:58:45","新北市土城區永豐路147-3號","121.467206666667","24.9828283333333","6501300","土城區"
"236059","912-UM","2018/09/06 17:58:54","新北市土城區中央路三段231-9號","121.428301666667","24.9641483333333","6501300","土城區"
"236049","913-UM","2018/09/06 17:58:47","新北市土城區中央路二段280號","121.440708333333","24.9740116666667","6501300","土城區"
"236063","915-UM","2018/09/06 17:59:01","新北市土城區城林路6巷80號","121.438453333333","24.9795283333333","6501300","土城區"
"236055","AAC-216","2018/09/06 17:58:51","新北市土城區城林路6巷80號","121.438426666667","24.9795933333333","6501300","土城區"
"242036","AAC-296","2018/09/06 17:58:58","新北市新莊區建福路5號","121.426053333333","25.0295333333333","6500500","新莊區"
"242058","986-R7","2018/09/06 17:59:05","新北市新莊區壽山路160巷21號","121.417388333333","25.03198","6500500","新莊區"
"242056","751-BX","2018/09/06 17:59:04","新北市新莊區豐年街124巷18號","121.445553333333","25.0298783333333","6500500","新莊區"
"242027","615-BX","2018/09/06 17:58:56","新北市新莊區思源路353號","121.459925","25.0505433333333","6500500","新莊區"
"242025","613-BX","2018/09/06 17:58:49","新北市新莊區五工路58號","121.458821666667","25.0628666666667","6500500","新莊區"
"242044","566-BX","2018/09/06 17:58:58","新北市新莊區雙鳳路19號","121.416853333333","25.0268783333333","6500500","新莊區"
"242048","497-BY","2018/09/06 17:59:03","新北市新莊區萬安街47巷1號","121.421916666667","25.024575","6500500","新莊區"
"242053","441-UM","2018/09/06 17:58:46","新北市新莊區光華街12號","121.428776666667","25.0108166666667","6500500","新莊區"
"242002","440-UM","2018/09/06 17:59:05","新北市新莊區大觀街42巷12號","121.454476666667","25.0359916666667","6500500","新莊區"
"242039","415-TV","2018/09/06 17:58:57","新北市新莊區民安西路2號","121.426411666667","25.0218466666667","6500500","新莊區"
"242009","413-TV","2018/09/06 17:59:00","新北市新莊區中華路二段212號","121.45285","25.052545","6500500","新莊區"
"242023","362-BY","2018/09/06 17:58:45","新北市新莊區福壽街63號","121.458248333333","25.049235","6500500","新莊區"
"242061","353-BY","2018/09/06 17:58:51","新北市新莊區新樹路595號","121.433063333333","25.0064283333333","6500500","新莊區"
"242011","132-UY","2018/09/06 17:58:52","新北市新莊區中港路636號","121.450915","25.0554083333333","6500500","新莊區"
"242042","133-UY","2018/09/06 17:58:58","新北市新莊區中正路723-9號","121.422886666667","25.0290566666667","6500500","新莊區"
"242034","135-UY","2018/09/06 17:58:51","新北市新莊區福海街22號","121.445311666667","25.033965","6500500","新莊區"
"242051","172-VK","2018/09/06 17:58:51","新北市新莊區龍安路496號","121.42647","25.0171216666667","6500500","新莊區"
"242019","175-VK","2018/09/06 17:59:01","新北市新莊區明中街49巷14號","121.456651666667","25.03908","6500500","新莊區"
"242007","176-VK","2018/09/06 17:58:47","新北市新莊區自信街28號","121.454221666667","25.0482633333333","6500500","新莊區"
"242017","346-TH","2018/09/06 17:59:04","新北市新莊區永樂街186號","121.44819","25.04467","6500500","新莊區"
"242046","347-TH","2018/09/06 17:59:03","新北市新莊區福營路195巷24號","121.431866666667","25.0298166666667","6500500","新莊區"
"242031","348-TH","2018/09/06 17:58:54","新北市新莊區新泰路289巷7號","121.445118333333","25.0405183333333","6500500","新莊區"
"242004","349-TH","2018/09/06 17:58:53","新北市新莊區福樂街78號","121.457785","25.046785","6500500","新莊區"
"242021","350-TH","2018/09/06 17:58:49","新北市新莊區中正路160號","121.451523333333","25.0359666666667","6500500","新莊區"
"242015","351-TH","2018/09/06 17:58:49","新北市新莊區中平路119巷2號","121.44454","25.0467116666667","6500500","新莊區"
"238015","755-BX","2018/09/06 17:58:50","新北市樹林區啟智街80巷8號","121.41909","24.9923333333333","6500700","樹林區"
"238023","601-UM","2018/09/06 17:58:55","新北市樹林區龍興街46巷13號","121.402546666667","25.0153266666667","6500700","樹林區"
"238019","599-UM","2018/09/06 17:58:45","新北市樹林區太平路273巷23號","121.421136666667","24.9761983333333","6500700","樹林區"
"238018","571-TV","2018/09/06 17:58:58","新北市樹林區樹新路106巷1號","121.430006666667","24.9978266666667","6500700","樹林區"
"238022","KEA-2213","2018/09/06 17:58:53","新北市樹林區太平路150巷17號","121.417778333333","24.9776433333333","6500700","樹林區"
"238021","KEA-2539","2018/09/06 17:58:46","新北市樹林區田尾街90號","121.408231666667","24.956945","6500700","樹林區"
"238025","303-VK","2018/09/06 17:58:52","新北市樹林區俊興街232號","121.41786","25.0154266666667","6500700","樹林區"
"238017","283-BY","2018/09/06 17:58:50","新北市樹林區中正路628號","121.410056666667","25.015975","6500700","樹林區"
"238014","282-BY","2018/09/06 17:58:59","新北市樹林區大安路47-1號","121.424175","24.9996266666667","6500700","樹林區"
"238020","268-VK","2018/09/06 17:59:01","新北市樹林區三俊街233號","121.421678333333","25.0147366666667","6500700","樹林區"
"238026","172-UY","2018/09/06 17:58:48","新北市樹林區中山路三段125-1號","121.397411666667","24.9731133333333","6500700","樹林區"
"238016","169-UY","2018/09/06 17:58:57","新北市樹林區育英街128號","121.41977","24.9893233333333","6500700","樹林區"
"239007","AAC-297","2018/09/06 17:59:04","新北市鶯歌區尖山埔路219號","121.34504","24.9503916666667","6500800","鶯歌區"
"239006","891-R6","2018/09/06 17:59:04","新北市鶯歌區鶯桃路413巷68弄6號","121.329663333333","24.9634483333333","6500800","鶯歌區"
"239008","527-UM","2018/09/06 17:58:53","新北市鶯歌區欣欣街4-3號","121.335591666667","24.9773383333333","6500800","鶯歌區"
"239005","526-UM","2018/09/06 17:58:49","新北市鶯歌區鶯桃路二段9號","121.32594","24.9720833333333","6500800","鶯歌區"
"239001","417-VK","2018/09/06 17:58:49","新北市鶯歌區中正三路215號","121.335258333333","24.9392933333333","6500800","鶯歌區"
"239003","360-BY","2018/09/06 17:58:50","新北市鶯歌區永吉街15號","121.336088333333","24.9578716666667","6500800","鶯歌區"
"239002","359-BY","2018/09/06 17:58:46","新北市鶯歌區國華路37號","121.342856666667","24.9554783333333","6500800","鶯歌區"
"221008","489-VK","2018/09/06 17:58:55","新北市汐止區明峰街27號","121.634211666667","25.071395","6501100","汐止區"
"221036","130-UY","2018/09/06 17:58:53","新北市汐止區大同路三段56號","121.667555","25.0770283333333","6501100","汐止區"
"221015","131-UY","2018/09/06 17:58:46","新北市汐止區長江街309-1號","121.666168333333","25.0814916666667","6501100","汐止區"
"221010","269-BY","2018/09/06 17:58:55","新北市汐止區汐萬路二段245巷33號","121.644128333333","25.08757","6501100","汐止區"
"221012","278-VK","2018/09/06 17:58:48","新北市汐止區長興街二段30號","121.673281666667","25.0814483333333","6501100","汐止區"
"221023","279-VK","2018/09/06 17:58:57","新北市汐止區明峰街141號","121.629671666667","25.0707033333333","6501100","汐止區"
"221032","280-BY","2018/09/06 17:58:47","新北市汐止區橫科路73巷31號","121.619353333333","25.0512233333333","6501100","汐止區"
"221027","281-BY","2018/09/06 17:59:00","新北市汐止區大同路二段370號","121.657653333333","25.0671483333333","6501100","汐止區"
"221033","297-VK","2018/09/06 17:58:47","新北市汐止區合順街39巷2號","121.62074","25.0432516666667","6501100","汐止區"
"221029","298-VK","2018/09/06 17:59:03","新北市汐止區樟樹二路334號","121.641551666667","25.0703766666667","6501100","汐止區"
"221021","299-VK","2018/09/06 17:58:52","新北市汐止區新興路16號","121.65631","25.06462","6501100","汐止區"
"221031","353-TW","2018/09/06 17:59:03","新北市汐止區中興路143號","121.631433333333","25.0657083333333","6501100","汐止區"
"221035","622-UM","2018/09/06 17:58:52","新北市汐止區新江北路30巷22弄5號","121.651661666667","25.06981","6501100","汐止區"
"221025","623-UM","2018/09/06 17:58:45","新北市汐止區仁愛路10號","121.659328333333","25.063585","6501100","汐止區"
"221038","646-BX","2018/09/06 17:58:56","新北市汐止區連興街128巷7弄1號","121.653481666667","25.0614933333333","6501100","汐止區"
"221002","707-TV","2018/09/06 17:59:04","新北市汐止區中興路31號","121.634803333333","25.06181","6501100","汐止區"
"221018","753-BX","2018/09/06 17:58:58","新北市汐止區招商街1號","121.666348333333","25.0692483333333","6501100","汐止區"
"242013","281-VK","2018/09/06 17:59:01","新北市新莊區中和街125巷7號","121.44697","25.0485516666667","6500500","新莊區"
