"lineid","car","time","location","longitude","latitude","cityid","cityname"
"234026","9371-KE","2018/09/06 18:08:22","新北市永和區永和路一段1號","121.51295","25.0050716666667","6500400","永和區"
"234023","9381-KE","2018/09/06 18:08:25","新北市永和區保生路55-8號","121.503955","25.01047","6500400","永和區"
"249005","172-UM","2018/09/06 18:08:21","新北市八里區荖阡坑路17-6號","121.401896666667","25.1379016666667","6502300","八里區"
"249001","173-UM","2018/09/06 18:08:33","新北市八里區龍米路二段35號","121.448415","25.1399966666667","6502300","八里區"
"249004","303-UY","2018/09/06 18:08:30","新北市八里區龍米路二段159-2號","121.439228333333","25.15406","6502300","八里區"
"249002","305-UY","2018/09/06 18:08:16","新北市八里區龍米路一段356巷40號","121.452128333333","25.130535","6502300","八里區"
"249003","593-UM","2018/09/06 18:08:33","新北市八里區松子腳13號","121.402716666667","25.1457966666667","6502300","八里區"
"248014","025-BX","2018/09/06 18:08:34","新北市五股區成泰路一段231-13號","121.435383333333","25.0778133333333","6501500","五股區"
"248006","077-UY","2018/09/06 18:08:21","新北市五股區中興路二段95號","121.460441666667","25.0774483333333","6501500","五股區"
"248008","095-VK","2018/09/06 18:08:17","新北市蘆洲區永安南路二段294號","121.457271666667","25.0818216666667","6501500","五股區"
"248020","225-UY","2018/09/06 18:08:20","新北市蘆洲區環堤大道365號","121.45524","25.0967266666667","6501500","五股區"
"248012","247-BX","2018/09/06 18:08:21","新北市五股區中興路三段198號","121.441163333333","25.08218","6501500","五股區"
"248016","261-SL","2018/09/06 18:08:21","新北市五股區新五路三段26號","121.44401","25.0872866666667","6501500","五股區"
"248004","677-BX","2018/09/06 18:08:25","新北市五股區成泰路二段101號","121.438328333333","25.0842416666667","6501500","五股區"
"248002","678-BX","2018/09/06 18:08:20","新北市五股區新五路二段258號","121.440743333333","25.0822933333333","6501500","五股區"
"248010","682-TV","2018/09/06 18:08:23","新北市五股區成泰路一段212號","121.436456666667","25.07922","6501500","五股區"
"232011","375-UM","2018/09/06 18:08:28","新北市坪林區坪林街16-1號","121.712545","24.9362966666667","6502000","坪林區"
"244013","069-UM","2018/09/06 18:08:28","新北市林口區中山路150-1號","121.391113333333","25.0787783333333","6501700","林口區"
"244007","080-UY","2018/09/06 18:08:19","新北市林口區林口路124巷10弄1號","121.389088333333","25.0818816666667","6501700","林口區"
"244019","403-UM","2018/09/06 18:08:18","新北市林口區麗園路54號","121.373695","25.0695083333333","6501700","林口區"
"244023","483-VK","2018/09/06 18:08:18","新北市林口區東湖路155號","121.383115","25.0731516666667","6501700","林口區"
"244017","485-VK","2018/09/06 18:08:26","新北市林口區八德路48巷7號","121.366763333333","25.0665316666667","6501700","林口區"
"244009","656-BX","2018/09/06 18:08:22","新北市林口區中山路490號","121.380036666667","25.0824983333333","6501700","林口區"
"244011","657-BX","2018/09/06 18:08:30","新北市林口區中山路1號","121.396776666667","25.0780083333333","6501700","林口區"
"244025","837-TS","2018/09/06 18:08:22","新北市林口區文化北路一段299巷36號","121.358886666667","25.0725483333333","6501700","林口區"
"244021","838-TS","2018/09/06 17:51:10","新北市林口區仁愛路一段2-1號","121.398061666667","25.0671566666667","6501700","林口區"
"243013","AAD-798","2018/09/06 18:08:28","新北市泰山區犁頭窠18號","121.419441666667","25.0501216666667","6501600","泰山區"
"222003","436-BY","2018/09/06 18:08:22","新北市深坑區阿柔洋49-1號","121.611545","24.996405","6501800","深坑區"
"222002","659-BX","2018/09/06 18:08:19","新北市深坑區文化街42號","121.61912","25.0016066666667","6501800","深坑區"
"231041","002-UM","2018/09/06 18:08:18","新北市新店區安華路28-1號","121.519675","24.9608983333333","6500600","新店區"
"231059","046-UY","2018/09/06 18:08:33","新北市新店區安華路28-1號","121.519703333333","24.960965","6500600","新店區"
"231040","047-UY","2018/09/06 18:08:23","新北市新店區安華路28-1號","121.519305","24.96099","6500600","新店區"
"231044","106-UY","2018/09/06 18:08:26","新北市新店區安華路28-1號","121.51963","24.9607066666667","6500600","新店區"
"231046","107-UY","2018/09/06 18:08:21","新北市新店區直潭七街60號","121.532291666667","24.9397883333333","6500600","新店區"
"231052","108-UY","2018/09/06 18:08:29","新北市新店區安一路一段1-1號","121.51972","24.9610816666667","6500600","新店區"
"231064","110-UY","2018/09/06 18:08:29","新北市新店區安一路一段1-1號","121.519295","24.961435","6500600","新店區"
"231047","187-VK","2018/09/06 18:08:23","新北市新店區安一路一段1-1號","121.519653333333","24.9613533333333","6500600","新店區"
"231054","KEA-2219","2018/09/06 18:08:14","新北市新店區安一路一段1-1號","121.51987","24.961395","6500600","新店區"
"231042","268-BY","2018/09/06 18:08:19","新北市新店區安華路28-1號","121.51957","24.9608066666667","6500600","新店區"
"231050","AAD-862","2018/09/06 18:08:30","新北市新店區安一路一段1-1號","121.520015","24.9611516666667","6500600","新店區"
"231058","3713-VJ","2018/09/06 18:08:19","新北市新店區安華路28-1號","121.519205","24.9606516666667","6500600","新店區"
"231066","4716-K9","2018/09/06 18:08:34","新北市新店區安一路一段1-1號","121.519468333333","24.9613866666667","6500600","新店區"
"231056","4715-K9","2018/09/06 18:08:27","新北市新店區安康路一段287號","121.523105","24.9636333333333","6500600","新店區"
"231049","513-UM","2018/09/06 18:08:30","新北市新店區安一路一段1-1號","121.519811666667","24.9613083333333","6500600","新店區"
"231061","619-UM","2018/09/06 18:08:34","新北市新店區安華路28-1號","121.519623333333","24.960675","6500600","新店區"
"231060","897-TW","2018/09/06 18:08:20","新北市新店區安華路28-1號","121.519591666667","24.9607933333333","6500600","新店區"
"231043","899-TW","2018/09/06 18:08:37","新北市新店區安華路28-1號","121.519258333333","24.9608166666667","6500600","新店區"
"231055","AKT-0513","2018/09/06 18:08:17","新北市新店區安華路28-1號","121.519473333333","24.96056","6500600","新店區"
"241020","413-TH","2018/09/06 18:08:15","新北市三重區忠孝路一段131號","121.488656666667","25.0718133333333","6500200","三重區"
"241024","462-BY","2018/09/06 18:08:35","新北市三重區中正北路193巷35弄21號","121.476963333333","25.0710166666667","6500200","三重區"
"241033","AAC-255","2018/09/06 18:08:25","新北市三重區光復路一段61巷2號","121.47211","25.0493533333333","6500200","三重區"
"235066","003-UY","2018/09/06 18:08:24","新北市中和區圓通路177號","121.497578333333","24.9950066666667","6500300","中和區"
"235063","006-UY","2018/09/06 18:08:29","新北市中和區員山路36巷16-3號","121.485078333333","24.99134","6500300","中和區"
"235056","096-UM","2018/09/06 18:08:24","新北市中和區員山路36巷16-8號","121.48548","24.9924433333333","6500300","中和區"
"235039","097-UM","2018/09/06 18:08:27","新北市中和區和城路一段271巷1號","121.485443333333","24.9921833333333","6500300","中和區"
"235065","098-UM","2018/09/06 18:08:18","新北市中和區莊敬路49巷18號","121.501693333333","25.0061733333333","6500300","中和區"
"235040","150-BY","2018/09/06 18:08:32","新北市中和區中正路571巷2弄5號","121.486386666667","24.993455","6500300","中和區"
"235058","151-BY","2018/09/06 18:08:29","新北市中和區圓通路367巷33弄43號","121.495568333333","24.9856316666667","6500300","中和區"
"235038","185-VK","2018/09/06 18:08:16","新北市中和區景平路131號","121.514866666667","24.9921016666667","6500300","中和區"
"235043","352-BY","2018/09/06 18:08:28","新北市中和區中正路637巷52弄1號","121.485508333333","24.9934116666667","6500300","中和區"
"235042","KEA-2878","2018/09/06 18:08:29","新北市中和區景平路291號","121.507235","24.9931966666667","6500300","中和區"
"247012","KEA-2869","2018/09/06 18:08:14","新北市蘆洲區三民路21號","121.475685","25.0824616666667","6501400","蘆洲區"
"235050","4979-A6","2018/09/06 18:08:28","新北市中和區錦和路350-1號","121.490528333333","24.9935883333333","6500300","中和區"
"235064","551-UM","2018/09/06 18:08:32","新北市中和區中正路273號","121.49574","24.9937316666667","6500300","中和區"
"235070","558-UM","2018/09/06 18:08:24","新北市中和區中正路256號","121.495463333333","24.9939583333333","6500300","中和區"
"235045","565-BX","2018/09/06 18:08:34","新北市中和區錦和路350-1號","121.490421666667","24.9935833333333","6500300","中和區"
"235054","640-BX","2018/09/06 18:08:23","新北市中和區連城路599號","121.478588333333","24.9931783333333","6500300","中和區"
"235047","732-UM","2018/09/06 18:08:27","新北市中和區中正路273號","121.495658333333","24.9937383333333","6500300","中和區"
"235071","783-BX","2018/09/06 18:08:19","新北市中和區員山路36巷16-3號","121.485203333333","24.9911966666667","6500300","中和區"
"235062","800-TS","2018/09/06 18:08:23","新北市中和區新生街165號","121.483638333333","25.0010183333333","6500300","中和區"
"235057","801-TS","2018/09/06 18:08:20","新北市中和區和城路一段271巷1號","121.485401666667","24.9917166666667","6500300","中和區"
"235041","802-TS","2018/09/06 18:08:16","新北市中和區和城路一段271巷1號","121.485615","24.991765","6500300","中和區"
"235052","805-TS","2018/09/06 18:08:21","新北市中和區中正路589巷15號","121.485725","24.993475","6500300","中和區"
"235053","900-TW","2018/09/06 18:08:20","新北市中和區員山路36巷16-2號","121.485038333333","24.9919033333333","6500300","中和區"
"235051","157-BY","2018/09/06 18:08:30","新北市中和區板南路122號","121.50299","24.99258","6500300","中和區"
"235037","AAC-213","2018/09/06 18:08:34","新北市中和區景平路157號","121.51294","24.9923716666667","6500300","中和區"
"220069","AAD-861","2018/09/06 18:08:14","新北市板橋區華東街1-10號","121.448363333333","24.9951233333333","6500100","板橋區"
"226004","312-R5","2018/09/06 18:08:23","新北市平溪區白石里白石腳5號","121.721508333333","25.0214733333333","6502400","平溪區"
"228003","097-TW","2018/09/06 18:08:33","新北市貢寮區真理里美艷山街6-2號","121.928883333333","25.0607516666667","6502600","貢寮區"
"228001","212-TW","2018/09/06 18:08:22","新北市貢寮區真理里新港街26巷55弄2-1號","121.927415","25.05286","6502600","貢寮區"
"228002","663-BX","2018/09/06 18:08:29","新北市貢寮區福連里馬崗街1號","121.996346666667","25.01669","6502600","貢寮區"
"224006","676-BX","2018/09/06 18:08:27","新北市瑞芳區中山路71號","121.804066666667","25.1061066666667","6501200","瑞芳區"
"224002","639-TC","2018/09/06 18:08:18","新北市瑞芳區三爪子坑路48號","121.810651666667","25.1057733333333","6501200","瑞芳區"
"224008","285-BY","2018/09/06 18:08:21","新北市瑞芳區員山子路23號","121.82135","25.103045","6501200","瑞芳區"
"224009","273-VK","2018/09/06 18:08:30","新北市瑞芳區金光路117號","121.853606666667","25.106225","6501200","瑞芳區"
"224005","271-BY","2018/09/06 18:08:17","新北市瑞芳區深澳路14號","121.81894","25.13072","6501200","瑞芳區"
"227010","642-TC","2018/09/06 18:08:14","新北市雙溪區三貂里定福路1-2號","121.850731666667","25.0633783333333","6502500","雙溪區"
"253006","032-BX","2018/09/06 18:08:29","新北市石門區老梅路52巷25弄2-1號","121.546788333333","25.287115","6502200","石門區"
"253005","295-VK","2018/09/06 18:08:18","新北市石門區福安街33號","121.568721666667","25.292195","6502200","石門區"
"222001","KEA-2212","2018/09/06 18:08:20","新北市深坑區深坑街142號","121.613056666667","25.0015416666667","6501800","深坑區"
"208002","KEA-2872","2018/09/06 18:08:29","新北市金山區三界壇路97巷1號","121.619338333333","25.2274316666667","6502700","金山區"
"208003","665-BX","2018/09/06 18:08:28","新北市金山區磺港里磺港路54號","121.64783","25.2282683333333","6502700","金山區"
"208001","761-BX","2018/09/06 18:08:18","新北市金山區磺港里磺港路115號","121.646081666667","25.2265883333333","6502700","金山區"
"251009","008-UM","2018/09/06 18:08:16","新北市淡水區大忠街34巷13號","121.443866666667","25.175605","6501000","淡水區"
"251004","009-UM","2018/09/06 18:08:30","新北市淡水區民權路187巷38號","121.460848333333","25.1335266666667","6501000","淡水區"
"251005","010-UM","2018/09/06 18:08:20","新北市淡水區水源街一段118號","121.4472","25.1718366666667","6501000","淡水區"
"251013","KEA-2871","2018/09/06 18:08:25","新北市淡水區泉洲厝31號","121.479498333333","25.1910216666667","6501000","淡水區"
"251016","179-VK","2018/09/06 18:08:30","新北市淡水區下圭柔山13號","121.451283333333","25.2008366666667","6501000","淡水區"
"251014","180-VK","2018/09/06 18:08:21","新北市淡水區南平14-1號","121.48564","25.22081","6501000","淡水區"
"251015","181-VK","2018/09/06 18:08:21","新北市淡水區興福寮88巷1號","121.485365","25.1649466666667","6501000","淡水區"
"251010","413-VK","2018/09/06 18:08:27","新北市淡水區淡海路160號","121.420925","25.18326","6501000","淡水區"
"251012","441-VK","2018/09/06 18:08:31","新北市淡水區北新路三段176號","121.492866666667","25.19285","6501000","淡水區"
"251007","442-VK","2018/09/06 18:08:34","新北市淡水區中正東路二段143巷2弄1號","121.460698333333","25.1471466666667","6501000","淡水區"
"251008","443-VK","2018/09/06 18:08:27","新北市淡水區坪頂路70巷41號","121.460703333333","25.1604333333333","6501000","淡水區"
"251001","559-UM","2018/09/06 18:08:27","新北市淡水區自立路12-3號","121.463283333333","25.1289983333333","6501000","淡水區"
"251006","561-UM","2018/09/06 18:08:28","新北市淡水區真理街3巷24-1號","121.437906666667","25.1765233333333","6501000","淡水區"
"251011","650-BX","2018/09/06 18:08:20","新北市淡水區三空泉9-2號","121.474115","25.1635616666667","6501000","淡水區"
"251002","672-BX","2018/09/06 18:08:30","新北市淡水區中正東路一段74號","121.452956666667","25.1614583333333","6501000","淡水區"
"251003","766-UM","2018/09/06 18:08:20","新北市淡水區大忠街113巷18號","121.447201666667","25.177495","6501000","淡水區"
"207003","550-UM","2018/09/06 18:08:22","新北市萬里區野柳里港西路10號","121.68509","25.2040983333333","6502800","萬里區"
"207004","225-TW","2018/09/06 18:08:32","新北市萬里區中幅里中福路84號","121.676068333333","25.1706783333333","6502800","萬里區"
"252003","249-BX","2018/09/06 18:08:32","新北市三芝區埔坪里埔頭坑33號","121.501288333333","25.2616333333333","6502100","三芝區"
"252001","292-VK","2018/09/06 18:08:24","新北市三芝區中興街二段2號","121.498405","25.256675","6502100","三芝區"
"237007","153-BY","2018/09/06 18:08:29","新北市三峽區中正路二段370巷39號","121.364633333333","24.9109583333333","6500900","三峽區"
"237009","210-TH","2018/09/06 18:08:29","新北市三峽區大仁路50巷22號","121.365318333333","24.9382583333333","6500900","三峽區"
"237013","252-BX","2018/09/06 18:08:24","新北市三峽區長泰街30號","121.378665","24.9320383333333","6500900","三峽區"
"237012","275-BY","2018/09/06 18:08:32","新北市三峽區民生街1巷1-17號","121.377715","24.9358533333333","6500900","三峽區"
"237008","302-VK","2018/09/06 18:08:20","新北市三峽區白雞44-37號","121.377445","24.91033","6500900","三峽區"
"237014","433-BY","2018/09/06 18:08:22","新北市三峽區復興路80巷16號","121.373595","24.937695","6500900","三峽區"
"237006","5529-G3","2018/09/06 18:08:19","新北市三峽區橫溪路62號","121.397205","24.9352266666667","6500900","三峽區"
"237011","KEA-2596","2018/09/06 18:08:32","新北市三峽區介壽路二段6巷2-1號","121.389451666667","24.9346366666667","6500900","三峽區"
"237016","649-BX","2018/09/06 18:08:01","新北市三峽區紫微路42-1號","121.422298333333","24.9199783333333","6500900","三峽區"
"237010","706-TV","2018/09/06 18:08:25","新北市三峽區大同路202-1號","121.367913333333","24.92769","6500900","三峽區"
"237005","AKY-6261","2018/09/06 18:08:27","新北市三峽區忠孝街8號","121.370756666667","24.9344983333333","6500900","三峽區"
"236070","105-UM","2018/09/06 18:08:32","新北市土城區青雲路480號","121.458756666667","24.9733","6501300","土城區"
"236042","107-UM","2018/09/06 18:08:27","新北市土城區城林路6巷80號","121.438578333333","24.9797366666667","6501300","土城區"
"236078","166-UM","2018/09/06 18:08:34","新北市土城區永寧路53號","121.429723333333","24.9612866666667","6501300","土城區"
"236030","253-BX","2018/09/06 18:08:31","新北市土城區城林路6巷80號","121.438506666667","24.9796583333333","6501300","土城區"
"236026","269-VK","2018/09/06 18:08:24","新北市土城區承天路18號","121.439456666667","24.96346","6501300","土城區"
"236014","270-VK","2018/09/06 18:08:26","新北市土城區學府路一段193號","121.452051666667","24.984885","6501300","土城區"
"236038","271-VK","2018/09/06 18:08:23","新北市土城區金城路一段112號","121.446568333333","24.9758983333333","6501300","土城區"
"236021","401-BY","2018/09/06 18:08:19","新北市土城區城林路6巷80號","121.43877","24.9797","6501300","土城區"
"236059","912-UM","2018/09/06 18:08:31","新北市土城區中央路四段208號","121.415931666667","24.9575283333333","6501300","土城區"
"236049","913-UM","2018/09/06 18:08:27","新北市土城區明德路一段365-1號","121.453563333333","24.9790166666667","6501300","土城區"
"236063","915-UM","2018/09/06 18:08:21","新北市土城區中正路75號","121.445361666667","24.9757216666667","6501300","土城區"
"236055","AAC-216","2018/09/06 18:08:32","新北市土城區城林路6巷80號","121.438236666667","24.979875","6501300","土城區"
"242036","AAC-296","2018/09/06 18:08:17","新北市新莊區建福路48巷10號","121.425891666667","25.02759","6500500","新莊區"
"242058","986-R7","2018/09/06 18:08:31","新北市新莊區中山路三段619號","121.41285","25.02517","6500500","新莊區"
"242056","751-BX","2018/09/06 18:08:24","新北市新莊區豐年街豐1巷6號","121.44687","25.0311366666667","6500500","新莊區"
"242027","615-BX","2018/09/06 18:08:16","新北市新莊區幸福路511號","121.455765","25.0493083333333","6500500","新莊區"
"242025","613-BX","2018/09/06 18:08:34","新北市新莊區五權一路112號","121.459993333333","25.06789","6500500","新莊區"
"242044","566-BX","2018/09/06 18:08:33","新北市新莊區雙鳳路170號","121.41266","25.0269083333333","6500500","新莊區"
"242048","497-BY","2018/09/06 18:08:23","新北市新莊區富國路154號","121.423213333333","25.0249533333333","6500500","新莊區"
"242053","441-UM","2018/09/06 18:08:26","新北市新莊區民安西路327巷3號","121.427861666667","25.0113783333333","6500500","新莊區"
"242002","440-UM","2018/09/06 18:08:25","新北市新莊區明中街11號","121.458693333333","25.0383383333333","6500500","新莊區"
"242039","415-TV","2018/09/06 18:08:33","新北市新莊區民安西路38巷36號","121.426196666667","25.02022","6500500","新莊區"
"242009","413-TV","2018/09/06 18:08:20","新北市新莊區中華路二段208號","121.452981666667","25.0522716666667","6500500","新莊區"
"242023","362-BY","2018/09/06 18:08:25","新北市新莊區新泰路528號","121.442023333333","25.0471033333333","6500500","新莊區"
"242061","353-BY","2018/09/06 18:08:31","新北市新莊區新樹路399號","121.432865","25.0161616666667","6500500","新莊區"
"242011","132-UY","2018/09/06 18:08:32","新北市新莊區中榮街56巷13弄2號","121.449153333333","25.0535","6500500","新莊區"
"242042","133-UY","2018/09/06 18:08:18","新北市新莊區壽山路31號","121.420063333333","25.0288983333333","6500500","新莊區"
"242034","135-UY","2018/09/06 18:08:31","新北市新莊區新莊路492號","121.44647","25.0334033333333","6500500","新莊區"
"242051","172-VK","2018/09/06 18:08:31","新北市新莊區民本街27巷17號","121.429183333333","25.0192566666667","6500500","新莊區"
"242019","175-VK","2018/09/06 18:08:21","新北市新莊區中港路132巷12號","121.455905","25.04067","6500500","新莊區"
"242007","176-VK","2018/09/06 18:08:27","新北市新莊區自立街79巷14號","121.454453333333","25.0459816666667","6500500","新莊區"
"242046","347-TH","2018/09/06 18:08:22","新北市新莊區福營路303號","121.42675","25.0290266666667","6500500","新莊區"
"242031","348-TH","2018/09/06 18:08:32","新北市新莊區新泰路277巷7號","121.445361666667","25.0402316666667","6500500","新莊區"
"242004","349-TH","2018/09/06 18:08:33","新北市新莊區自立街84號","121.454658333333","25.0453033333333","6500500","新莊區"
"242021","350-TH","2018/09/06 18:08:26","新北市新莊區中華路一段63巷42號","121.449966666667","25.03923","6500500","新莊區"
"242015","351-TH","2018/09/06 18:08:32","新北市新莊區中平路132巷7號","121.44584","25.0467616666667","6500500","新莊區"
"238015","755-BX","2018/09/06 18:08:30","新北市樹林區大安路407號","121.415641666667","24.98894","6500700","樹林區"
"238023","601-UM","2018/09/06 18:08:15","新北市樹林區三福街85巷11號","121.407315","25.0154916666667","6500700","樹林區"
"238019","599-UM","2018/09/06 18:08:25","新北市樹林區水源街75號","121.425618333333","24.981585","6500700","樹林區"
"238018","571-TV","2018/09/06 18:08:18","新北市板橋區溪崑二街16巷14-1號","121.428353333333","24.9921816666667","6500700","樹林區"
"238024","5061-A6","2018/09/06 18:08:32","新北市樹林區豐林街64號","121.422118333333","24.998085","6500700","樹林區"
"238022","KEA-2213","2018/09/06 18:08:33","新北市樹林區太平路207號","121.41865","24.9779366666667","6500700","樹林區"
"238021","KEA-2539","2018/09/06 18:08:26","新北市樹林區柑園街一段262-3號","121.390565","24.9564616666667","6500700","樹林區"
"238025","303-VK","2018/09/06 18:08:32","新北市樹林區保安街二段269號","121.412926666667","25.0053683333333","6500700","樹林區"
"238017","283-BY","2018/09/06 18:08:30","新北市樹林區中正路648號","121.409775","25.0163466666667","6500700","樹林區"
"238014","282-BY","2018/09/06 18:08:32","新北市樹林區潭興街105號","121.425125","24.9988816666667","6500700","樹林區"
"238020","268-VK","2018/09/06 18:08:27","新北市樹林區三俊街200號","121.419681666667","25.0155583333333","6500700","樹林區"
"238026","172-UY","2018/09/06 18:08:28","新北市樹林區育德街41號","121.391785","24.9702416666667","6500700","樹林區"
"238016","169-UY","2018/09/06 18:08:17","新北市樹林區文化街30號","121.41904","24.9879833333333","6500700","樹林區"
"239007","AAC-297","2018/09/06 18:08:24","新北市鶯歌區育英街53號","121.347115","24.9526966666667","6500800","鶯歌區"
"239006","891-R6","2018/09/06 18:08:24","新北市鶯歌區鶯桃路405號","121.332931666667","24.9643283333333","6500800","鶯歌區"
"239008","527-UM","2018/09/06 18:08:33","新北市鶯歌區朝陽街53巷24號","121.338795","24.97772","6500800","鶯歌區"
"239005","526-UM","2018/09/06 18:08:29","新北市鶯歌區鶯桃路668巷73號","121.329883333333","24.9718066666667","6500800","鶯歌區"
"239001","417-VK","2018/09/06 18:08:29","新北市鶯歌區國中街87號","121.341961666667","24.94178","6500800","鶯歌區"
"239003","360-BY","2018/09/06 18:08:30","新北市鶯歌區福安街34號","121.334863333333","24.9638733333333","6500800","鶯歌區"
"239002","359-BY","2018/09/06 18:08:26","新北市鶯歌區中山路249巷4弄71號","121.347895","24.9565833333333","6500800","鶯歌區"
"221008","489-VK","2018/09/06 18:08:15","新北市汐止區康寧街315號","121.627083333333","25.06787","6501100","汐止區"
"221036","130-UY","2018/09/06 18:08:32","新北市汐止區大同路三段147號","121.669633333333","25.0777383333333","6501100","汐止區"
"221015","131-UY","2018/09/06 18:08:26","新北市汐止區鄉長路二段33號","121.667801666667","25.0833816666667","6501100","汐止區"
"221010","269-BY","2018/09/06 18:08:35","新北市汐止區汐萬路二段256號","121.645916666667","25.0892166666667","6501100","汐止區"
"221012","278-VK","2018/09/06 18:08:28","新北市汐止區保一街51號","121.674521666667","25.080055","6501100","汐止區"
"221023","279-VK","2018/09/06 18:08:26","新北市汐止區明峰街190號","121.628188333333","25.0697516666667","6501100","汐止區"
"221032","280-BY","2018/09/06 18:08:27","新北市汐止區力行街14號","121.61703","25.050915","6501100","汐止區"
"221027","281-BY","2018/09/06 18:08:35","新北市汐止區大同路二段509號","121.661416666667","25.0687366666667","6501100","汐止區"
"221033","297-VK","2018/09/06 18:08:27","新北市汐止區宜興街20巷21號","121.622293333333","25.040985","6501100","汐止區"
"221029","298-VK","2018/09/06 18:08:22","新北市汐止區樟樹二路132號","121.639926666667","25.0655783333333","6501100","汐止區"
"221021","299-VK","2018/09/06 18:08:31","新北市汐止區龍安路16號","121.655763333333","25.0643116666667","6501100","汐止區"
"221031","353-TW","2018/09/06 18:08:19","新北市汐止區中興路151號","121.631305","25.0659216666667","6501100","汐止區"
"221035","622-UM","2018/09/06 18:08:32","新北市汐止區大同路二段200號","121.653208333333","25.0647133333333","6501100","汐止區"
"221025","623-UM","2018/09/06 18:08:25","新北市汐止區秀峰路151巷1號","121.660761666667","25.06193","6501100","汐止區"
"221038","646-BX","2018/09/06 18:08:16","新北市汐止區水源路一段273號","121.65411","25.0589183333333","6501100","汐止區"
"221002","707-TV","2018/09/06 18:08:24","新北市汐止區福德一路197號","121.635501666667","25.065595","6501100","汐止區"
"221018","753-BX","2018/09/06 18:08:19","新北市汐止區忠孝東路386號","121.665551666667","25.0702883333333","6501100","汐止區"
