"lineid","car","time","location","longitude","latitude","cityid","cityname"
"234081","298-R6","2018/09/06 18:18:19","新北市永和區福和路1號","121.526563333333","25.0102133333333","6500400","永和區"
"234030","746-BX","2018/09/06 18:18:28","新北市永和區福和路1號","121.526463333333","25.00973","6500400","永和區"
"234026","9371-KE","2018/09/06 18:18:22","新北市永和區大新街19巷4號","121.515055","25.0089083333333","6500400","永和區"
"234023","9381-KE","2018/09/06 18:18:25","新北市永和區保順路11號","121.504806666667","25.0096433333333","6500400","永和區"
"234011","9373-KE","2018/09/06 18:18:33","新北市永和區豫溪街217巷21號","121.524795","25.0102183333333","6500400","永和區"
"249005","172-UM","2018/09/06 18:18:21","新北市八里區荖阡坑路15-40號","121.401666666667","25.139895","6502300","八里區"
"249001","173-UM","2018/09/06 18:18:33","新北市八里區龍米路一段268號","121.451661666667","25.1290666666667","6502300","八里區"
"249004","303-UY","2018/09/06 18:18:30","新北市八里區龍米路二段232巷3號","121.431555","25.1589833333333","6502300","八里區"
"249002","305-UY","2018/09/06 18:18:36","新北市八里區龍形三街2號","121.450605","25.1320933333333","6502300","八里區"
"248014","025-BX","2018/09/06 18:18:34","新北市五股區自強路19巷11號","121.434663333333","25.0737216666667","6501500","五股區"
"248006","077-UY","2018/09/06 18:18:21","新北市五股區中興路一段164-1號","121.464103333333","25.0739566666667","6501500","五股區"
"248008","095-VK","2018/09/06 18:18:37","新北市五股區更洲路32巷8弄14號","121.459263333333","25.079655","6501500","五股區"
"248020","225-UY","2018/09/06 18:18:20","新北市五股區孝義路47巷11號","121.45328","25.1100016666667","6501500","五股區"
"248012","247-BX","2018/09/06 18:18:21","新北市五股區御成路33號","121.441111666667","25.0912016666667","6501500","五股區"
"248016","261-SL","2018/09/06 18:18:21","新北市五股區成泰路三段477巷18號","121.449933333333","25.09893","6501500","五股區"
"248004","677-BX","2018/09/06 18:18:20","新北市五股區成泰路二段151號","121.439258333333","25.0857166666667","6501500","五股區"
"248002","678-BX","2018/09/06 18:18:20","新北市五股區西雲路46號","121.443516666667","25.0909933333333","6501500","五股區"
"248010","682-TV","2018/09/06 18:18:23","新北市五股區成泰路一段145號","121.435423333333","25.0731333333333","6501500","五股區"
"232011","375-UM","2018/09/06 18:18:28","新北市坪林區坪雙路一段41號","121.711718333333","24.942445","6502000","坪林區"
"244013","069-UM","2018/09/06 18:18:28","新北市林口區佳林路101巷36號","121.387041666667","25.08002","6501700","林口區"
"244007","080-UY","2018/09/06 18:18:19","新北市林口區竹林路548號","121.387608333333","25.0847366666667","6501700","林口區"
"244019","403-UM","2018/09/06 18:18:18","新北市林口區忠孝路566號","121.374603333333","25.0678866666667","6501700","林口區"
"244023","483-VK","2018/09/06 18:18:18","新北市林口區仁愛路二段62巷37號","121.383878333333","25.0762266666667","6501700","林口區"
"244017","485-VK","2018/09/06 18:18:26","新北市林口區公園路39號","121.367138333333","25.0681416666667","6501700","林口區"
"244009","656-BX","2018/09/06 18:18:22","新北市林口區民生路166號","121.379681666667","25.0876066666667","6501700","林口區"
"244011","657-BX","2018/09/06 18:18:30","新北市林口區新生街19號","121.394156666667","25.0765633333333","6501700","林口區"
"244025","837-TS","2018/09/06 18:18:22","新北市林口區南勢七街28號","121.355285","25.0692116666667","6501700","林口區"
"244021","838-TS","2018/09/06 17:51:10","新北市林口區仁愛路一段2-1號","121.398061666667","25.0671566666667","6501700","林口區"
"243013","AAD-798","2018/09/06 18:17:08","新北市泰山區致遠新村55-1號","121.416616666667","25.0427483333333","6501600","泰山區"
"222003","436-BY","2018/09/06 18:18:22","新北市深坑區旺耽路67號","121.626271666667","25.0030066666667","6501800","深坑區"
"222002","659-BX","2018/09/06 18:18:19","新北市深坑區文化街17巷7弄18號","121.621018333333","25.00025","6501800","深坑區"
"231041","002-UM","2018/09/06 18:18:17","新北市新店區安華路28-1號","121.519826666667","24.960885","6500600","新店區"
"231059","046-UY","2018/09/06 18:18:33","新北市新店區安華路28-1號","121.519698333333","24.960995","6500600","新店區"
"231040","047-UY","2018/09/06 18:18:23","新北市新店區安一路一段1-1號","121.519176666667","24.9610283333333","6500600","新店區"
"231044","106-UY","2018/09/06 18:18:26","新北市新店區安華路28-1號","121.519723333333","24.9608083333333","6500600","新店區"
"231046","107-UY","2018/09/06 18:18:21","新北市新店區直潭七街60號","121.532286666667","24.9397783333333","6500600","新店區"
"231052","108-UY","2018/09/06 18:18:29","新北市新店區安康路一段105號","121.528968333333","24.9616283333333","6500600","新店區"
"231064","110-UY","2018/09/06 18:18:29","新北市新店區安一路一段1-1號","121.519205","24.9612883333333","6500600","新店區"
"231047","187-VK","2018/09/06 18:18:23","新北市新店區安一路一段1-1號","121.51973","24.961285","6500600","新店區"
"231054","KEA-2219","2018/09/06 18:18:34","新北市新店區安一路一段1-1號","121.51988","24.961375","6500600","新店區"
"231057","256-BX","2018/09/06 18:18:19","新北市新店區安一路一段1-1號","121.519771666667","24.96119","6500600","新店區"
"231042","268-BY","2018/09/06 18:18:19","新北市新店區安華路28-1號","121.519496666667","24.9606666666667","6500600","新店區"
"231051","278-BY","2018/09/06 18:18:15","新北市新店區安一路一段1-1號","121.51985","24.96125","6500600","新店區"
"231050","AAD-862","2018/09/06 18:18:30","新北市新店區安一路一段1-1號","121.519948333333","24.9611983333333","6500600","新店區"
"231058","3713-VJ","2018/09/06 18:18:19","新北市新店區環河路29巷1號","121.53727","24.961295","6500600","新店區"
"231066","4716-K9","2018/09/06 18:18:34","新北市新店區安華路28-1號","121.519618333333","24.961","6500600","新店區"
"231056","4715-K9","2018/09/06 18:18:27","新北市新店區中央路57號","121.532751666667","24.97743","6500600","新店區"
"231067","4772-VM","2018/09/06 18:18:25","新北市新店區安華路28-1號","121.51921","24.9606633333333","6500600","新店區"
"231049","513-UM","2018/09/06 18:18:30","新北市新店區安一路一段1-1號","121.51981","24.9612983333333","6500600","新店區"
"231045","617-UM","2018/09/06 18:18:33","新北市新店區安一路一段1-1號","121.519541666667","24.96103","6500600","新店區"
"231061","619-UM","2018/09/06 18:18:34","新北市新店區安華路28-1號","121.519718333333","24.9607783333333","6500600","新店區"
"231063","641-BX","2018/09/06 18:18:32","新北市新店區安華路28-1號","121.519665","24.9606133333333","6500600","新店區"
"231062","720-UM","2018/09/06 18:18:25","新北市新店區安一路一段1-1號","121.519433333333","24.9614916666667","6500600","新店區"
"231060","897-TW","2018/09/06 18:18:20","新北市新店區安華路28-1號","121.519653333333","24.9607016666667","6500600","新店區"
"231043","899-TW","2018/09/06 18:18:17","新北市新店區安華路28-1號","121.518875","24.9609133333333","6500600","新店區"
"231055","AKT-0513","2018/09/06 18:18:17","新北市新店區北新路一段91號","121.538698333333","24.9618116666667","6500600","新店區"
"241033","AAC-255","2018/09/06 18:18:25","新北市三重區中興北街52-2號","121.468781666667","25.0504933333333","6500200","三重區"
"235066","003-UY","2018/09/06 18:18:24","新北市中和區中山路二段120號","121.502826666667","25.0037683333333","6500300","中和區"
"235063","006-UY","2018/09/06 18:18:29","新北市中和區中正路589巷1號","121.4859","24.9943483333333","6500300","中和區"
"235056","096-UM","2018/09/06 18:18:24","新北市中和區新生街7-1號","121.483196666667","25.0046233333333","6500300","中和區"
"235039","097-UM","2018/09/06 18:18:27","新北市中和區景平路353號","121.504755","24.9934033333333","6500300","中和區"
"235065","098-UM","2018/09/06 18:18:18","新北市中和區莊敬路49巷18號","121.501635","25.0061633333333","6500300","中和區"
"235040","150-BY","2018/09/06 18:18:12","新北市中和區安平路59號","121.509661666667","24.995065","6500300","中和區"
"235058","151-BY","2018/09/06 18:18:29","新北市中和區圓通路367巷29號","121.492545","24.9853583333333","6500300","中和區"
"235055","183-VK","2018/09/06 18:18:34","新北市中和區連城路469巷79弄26號","121.484163333333","24.9936883333333","6500300","中和區"
"235038","185-VK","2018/09/06 18:18:19","新北市中和區自立路46號","121.522885","24.99215","6500300","中和區"
"235049","186-VK","2018/09/06 18:18:32","新北市中和區員山路36巷16-8號","121.485385","24.992235","6500300","中和區"
"235072","301-VK","2018/09/06 18:18:23","新北市中和區連城路271號","121.490668333333","24.996475","6500300","中和區"
"235043","352-BY","2018/09/06 18:18:28","新北市中和區景平路381號","121.503985","24.993355","6500300","中和區"
"235042","KEA-2878","2018/09/06 18:18:29","新北市中和區大仁街20巷25弄20號","121.519263333333","24.9936083333333","6500300","中和區"
"247012","KEA-2869","2018/09/06 18:18:34","新北市五股區成泰路四段2號","121.45278","25.1061266666667","6501400","蘆洲區"
"235050","4979-A6","2018/09/06 18:18:28","新北市中和區捷運路61巷18號","121.508928333333","24.9892183333333","6500300","中和區"
"235069","4980-A6","2018/09/06 18:18:22","新北市中和區中正路460號","121.490248333333","24.9942233333333","6500300","中和區"
"235064","551-UM","2018/09/06 18:18:32","新北市中和區圓通路189號","121.497398333333","24.994425","6500300","中和區"
"235070","558-UM","2018/09/06 18:18:24","新北市中和區圓通路113號","121.499401666667","24.9964666666667","6500300","中和區"
"235045","565-BX","2018/09/06 18:18:34","新北市中和區景安路200巷1弄2號","121.503785","24.991455","6500300","中和區"
"235054","640-BX","2018/09/06 18:18:23","新北市中和區莒光路203號","121.472428333333","24.9986916666667","6500300","中和區"
"235047","732-UM","2018/09/06 18:18:27","新北市中和區南山路479號","121.508023333333","24.988325","6500300","中和區"
"235071","783-BX","2018/09/06 18:18:19","新北市中和區員山路36巷16-3號","121.485226666667","24.9911383333333","6500300","中和區"
"235062","800-TS","2018/09/06 18:18:23","新北市中和區景平路999巷2號","121.49538","25.00596","6500300","中和區"
"235057","801-TS","2018/09/06 18:18:20","新北市中和區民安街133號","121.47609","24.9998733333333","6500300","中和區"
"235041","802-TS","2018/09/06 18:18:16","新北市中和區中正路211巷2號","121.496776666667","24.993485","6500300","中和區"
"235052","805-TS","2018/09/06 18:18:21","新北市中和區南山路273號","121.50402","24.9924783333333","6500300","中和區"
"235048","896-TW","2018/09/06 18:18:37","新北市中和區中正路571巷1弄2號","121.486633333333","24.9934983333333","6500300","中和區"
"235053","900-TW","2018/09/06 18:18:20","新北市中和區員山路36巷16-2號","121.48517","24.9918316666667","6500300","中和區"
"235060","911-UM","2018/09/06 18:18:03","新北市中和區連城路515號","121.482196666667","24.9953466666667","6500300","中和區"
"235051","157-BY","2018/09/06 18:18:30","新北市中和區仁愛街89號","121.511936666667","24.9870733333333","6500300","中和區"
"235037","AAC-213","2018/09/06 18:18:34","新北市中和區景德街74號","121.516696666667","24.99145","6500300","中和區"
"220065","072-UY","2018/09/06 18:18:26","新北市板橋區華東街1-9號","121.448208333333","24.994965","6500100","板橋區"
"220069","AAD-861","2018/09/06 18:18:34","新北市板橋區華東街1-10號","121.448416666667","24.9951066666667","6500100","板橋區"
"226004","312-R5","2018/09/06 18:18:23","新北市平溪區靜安路二段30號","121.712558333333","25.0200966666667","6502400","平溪區"
"228003","097-TW","2018/09/06 18:18:33","新北市貢寮區真理里美艷山街61-3號","121.923168333333","25.0697233333333","6502600","貢寮區"
"228001","212-TW","2018/09/06 18:18:22","新北市貢寮區真理里新港街26巷55弄2-1號","121.927406666667","25.0528483333333","6502600","貢寮區"
"228002","663-BX","2018/09/06 18:18:29","新北市貢寮區福連里馬崗街1號","121.99605","25.0163766666667","6502600","貢寮區"
"224006","676-BX","2018/09/06 18:18:32","新北市瑞芳區三爪子坑路106巷1-1號","121.808045","25.1047416666667","6501200","瑞芳區"
"224002","639-TC","2018/09/06 18:18:18","新北市瑞芳區三爪子坑路93號","121.811286666667","25.1073633333333","6501200","瑞芳區"
"224008","285-BY","2018/09/06 18:18:21","新北市瑞芳區逢甲路38號","121.81136","25.1084133333333","6501200","瑞芳區"
"224007","275-VK","2018/09/06 18:18:34","新北市瑞芳區大埔路67巷3-1號","121.76445","25.101515","6501200","瑞芳區"
"224009","273-VK","2018/09/06 18:18:30","新北市瑞芳區五號路4號","121.854806666667","25.1103866666667","6501200","瑞芳區"
"224005","271-BY","2018/09/06 18:18:17","新北市瑞芳區建基路二段71號","121.806356666667","25.1336783333333","6501200","瑞芳區"
"227010","642-TC","2018/09/06 18:18:14","新北市雙溪區牡丹里牡丹73號","121.85173","25.0593366666667","6502500","雙溪區"
"253006","032-BX","2018/09/06 18:18:29","新北市石門區老梅路78號","121.54704","25.2891883333333","6502200","石門區"
"253005","295-VK","2018/09/06 18:18:18","新北市石門區中央路13號","121.567828333333","25.2923716666667","6502200","石門區"
"222001","KEA-2212","2018/09/06 18:18:20","新北市深坑區北深路二段66號","121.619001666667","25.0041333333333","6501800","深坑區"
"208002","KEA-2872","2018/09/06 18:18:24","新北市金山區清泉里清水路60巷9號","121.633003333333","25.2345566666667","6502700","金山區"
"208003","665-BX","2018/09/06 18:18:28","新北市金山區民生路128號","121.647508333333","25.223675","6502700","金山區"
"208001","761-BX","2018/09/06 18:18:18","新北市金山區中山路16號","121.641661666667","25.2177983333333","6502700","金山區"
"251004","009-UM","2018/09/06 18:18:30","新北市淡水區民族路51號","121.46284","25.1352816666667","6501000","淡水區"
"251005","010-UM","2018/09/06 18:18:20","新北市淡水區水源街一段122巷39號","121.44724","25.1703966666667","6501000","淡水區"
"251013","KEA-2871","2018/09/06 18:18:25","新北市淡水區後寮9號","121.477613333333","25.1988116666667","6501000","淡水區"
"251016","179-VK","2018/09/06 18:18:30","新北市淡水區淡金路三段228巷22-5號","121.449658333333","25.2049233333333","6501000","淡水區"
"251014","180-VK","2018/09/06 18:18:21","新北市淡水區南平18號","121.491581666667","25.2193883333333","6501000","淡水區"
"251015","181-VK","2018/09/06 18:18:21","新北市淡水區興福寮88巷1號","121.485225","25.164945","6501000","淡水區"
"251010","413-VK","2018/09/06 18:18:27","新北市淡水區淡海路200號","121.4203","25.1854616666667","6501000","淡水區"
"251012","441-VK","2018/09/06 18:18:31","新北市淡水區北新路二段77-5號","121.480565","25.1856","6501000","淡水區"
"251007","442-VK","2018/09/06 18:18:14","新北市淡水區中正東路二段143巷2弄1號","121.460661666667","25.1471183333333","6501000","淡水區"
"251008","443-VK","2018/09/06 18:18:27","新北市淡水區水源街二段232號","121.460658333333","25.176365","6501000","淡水區"
"251001","559-UM","2018/09/06 18:18:27","新北市淡水區自立路6-2號","121.462536666667","25.1293416666667","6501000","淡水區"
"251006","561-UM","2018/09/06 18:18:28","新北市淡水區新民街76巷36弄1號","121.43952","25.1780366666667","6501000","淡水區"
"251011","650-BX","2018/09/06 18:18:20","新北市淡水區坪頂路82號","121.461265","25.163705","6501000","淡水區"
"251002","672-BX","2018/09/06 18:18:30","新北市淡水區中正東路一段77號","121.45277","25.162095","6501000","淡水區"
"251003","766-UM","2018/09/06 18:18:20","新北市淡水區北新路137號","121.449423333333","25.17885","6501000","淡水區"
"207003","550-UM","2018/09/06 18:18:32","新北市萬里區野柳里港東新村1-1號","121.686113333333","25.20303","6502800","萬里區"
"207004","225-TW","2018/09/06 18:18:23","新北市萬里區中幅里中福路185號","121.67387","25.1655333333333","6502800","萬里區"
"252003","249-BX","2018/09/06 18:18:32","新北市三芝區錫板里南勢崗2號","121.481403333333","25.2635733333333","6502100","三芝區"
"252001","292-VK","2018/09/06 18:18:24","新北市三芝區中興街二段2號","121.498368333333","25.2566483333333","6502100","三芝區"
"237007","153-BY","2018/09/06 18:18:29","新北市三峽區中正路二段586號","121.359286666667","24.9058933333333","6500900","三峽區"
"237009","210-TH","2018/09/06 18:18:29","新北市三峽區大仁路13巷2號","121.366491666667","24.9371033333333","6500900","三峽區"
"237013","252-BX","2018/09/06 18:18:24","新北市三峽區永安街33號","121.37678","24.9304633333333","6500900","三峽區"
"237012","275-BY","2018/09/06 18:18:32","新北市三峽區民生街19巷7弄16號","121.37696","24.9356683333333","6500900","三峽區"
"237008","302-VK","2018/09/06 18:18:20","新北市三峽區白雞53號","121.38466","24.9125933333333","6500900","三峽區"
"237014","433-BY","2018/09/06 18:18:22","新北市三峽區復興路80巷13號","121.373505","24.93777","6500900","三峽區"
"237006","5529-G3","2018/09/06 18:18:19","新北市三峽區溪東路235號","121.40649","24.932655","6500900","三峽區"
"237011","KEA-2596","2018/09/06 18:18:32","新北市三峽區溪東路208號","121.407193333333","24.9323416666667","6500900","三峽區"
"237016","649-BX","2018/09/06 18:18:21","新北市三峽區紫新路19號","121.42318","24.920715","6500900","三峽區"
"237010","706-TV","2018/09/06 18:18:25","新北市三峽區民族街17號","121.369408333333","24.9308733333333","6500900","三峽區"
"237005","AKY-6261","2018/09/06 18:18:27","新北市三峽區秀川街84號","121.370425","24.933525","6500900","三峽區"
"236070","105-UM","2018/09/06 18:18:32","新北市土城區永豐路230號","121.467075","24.98126","6501300","土城區"
"236042","107-UM","2018/09/06 18:18:27","新北市土城區裕生路21巷6弄23號","121.448698333333","24.98681","6501300","土城區"
"236078","166-UM","2018/09/06 18:18:14","新北市土城區永平街17號","121.428241666667","24.9625583333333","6501300","土城區"
"236030","253-BX","2018/09/06 18:18:35","新北市土城區順風路31號","121.440813333333","24.9766833333333","6501300","土城區"
"236026","269-VK","2018/09/06 18:18:24","新北市土城區承天路67號","121.439646666667","24.9634483333333","6501300","土城區"
"236014","270-VK","2018/09/06 18:18:26","新北市土城區青雲路39巷7號","121.460281666667","24.98744","6501300","土城區"
"236038","271-VK","2018/09/06 18:18:23","新北市土城區青雲路451巷8弄12號","121.459498333333","24.9741416666667","6501300","土城區"
"236021","401-BY","2018/09/06 18:18:19","新北市土城區明德路二段143號","121.448633333333","24.982915","6501300","土城區"
"236059","912-UM","2018/09/06 18:18:31","新北市土城區中央路四段466號","121.40993","24.9506183333333","6501300","土城區"
"236049","913-UM","2018/09/06 18:18:27","新北市土城區明德路一段375-3號","121.454033333333","24.9786216666667","6501300","土城區"
"236063","915-UM","2018/09/06 18:18:21","新北市土城區金城路三段208號","121.471673333333","24.9897416666667","6501300","土城區"
"236055","AAC-216","2018/09/06 18:18:32","新北市土城區中華路二段92號","121.438253333333","24.9747816666667","6501300","土城區"
"242036","AAC-296","2018/09/06 18:18:17","新北市新莊區後港一路51號","121.426066666667","25.0264166666667","6500500","新莊區"
"242058","986-R7","2018/09/06 18:18:31","桃園市龜山區萬壽路一段32號","121.409433333333","25.0200566666667","6500500","新莊區"
"242056","751-BX","2018/09/06 18:18:23","新北市新莊區豐年街53巷2號","121.446495","25.0315083333333","6500500","新莊區"
"242027","615-BX","2018/09/06 18:18:32","新北市新莊區幸福路821號","121.445346666667","25.0490466666667","6500500","新莊區"
"242025","613-BX","2018/09/06 18:18:29","新北市新莊區五權一路12巷9弄13號","121.457668333333","25.0650283333333","6500500","新莊區"
"242044","566-BX","2018/09/06 18:18:18","新北市新莊區天泉二街11號","121.415023333333","25.02495","6500500","新莊區"
"242048","497-BY","2018/09/06 18:18:23","新北市樹林區俊興街302號","121.418691666667","25.0183466666667","6500500","新莊區"
"242053","441-UM","2018/09/06 18:18:26","新北市新莊區民安西路410巷12弄4號","121.427901666667","25.0091216666667","6500500","新莊區"
"242002","440-UM","2018/09/06 18:18:25","新北市新莊區新莊路185號","121.455891666667","25.0358083333333","6500500","新莊區"
"242039","415-TV","2018/09/06 18:18:17","新北市新莊區新樹路222號","121.43359","25.0202916666667","6500500","新莊區"
"242009","413-TV","2018/09/06 18:18:20","新北市新莊區中華路二段116號","121.453088333333","25.0483183333333","6500500","新莊區"
"242023","362-BY","2018/09/06 18:09:45","新北市新莊區中環路二段392-1號","121.44201","25.0457733333333","6500500","新莊區"
"242061","353-BY","2018/09/06 18:18:31","新北市新莊區新樹路207-7號","121.43587","25.0239033333333","6500500","新莊區"
"242011","132-UY","2018/09/06 18:18:32","新北市新莊區中港路585號","121.451045","25.0523766666667","6500500","新莊區"
"242042","133-UY","2018/09/06 18:18:27","新北市新莊區天祥街135巷8弄2號","121.413731666667","25.0294333333333","6500500","新莊區"
"242051","172-VK","2018/09/06 18:18:31","新北市新莊區民本街12號","121.427805","25.0197666666667","6500500","新莊區"
"242046","347-TH","2018/09/06 18:18:22","新北市新莊區中正路829巷20號","121.421315","25.02725","6500500","新莊區"
"242031","348-TH","2018/09/06 18:18:34","新北市新莊區新泰路277巷57弄7號","121.4433","25.0397733333333","6500500","新莊區"
"242004","349-TH","2018/09/06 18:18:33","新北市新莊區新泰路354號","121.444675","25.0426666666667","6500500","新莊區"
"242021","350-TH","2018/09/06 18:18:26","新北市新莊區新興街14號","121.450735","25.0361616666667","6500500","新莊區"
"242015","351-TH","2018/09/06 18:18:29","新北市新莊區中平路184巷10弄18號","121.44551","25.0483","6500500","新莊區"
"238015","755-BX","2018/09/06 18:18:30","新北市樹林區文化街116巷26號","121.416823333333","24.9900583333333","6500700","樹林區"
"238023","601-UM","2018/09/06 18:18:35","新北市樹林區忠信街2號","121.409623333333","25.01531","6500700","樹林區"
"238019","599-UM","2018/09/06 18:18:25","新北市樹林區國凱街140巷13號","121.424118333333","24.9800833333333","6500700","樹林區"
"238018","571-TV","2018/09/06 18:17:58","新北市樹林區保安街一段20巷40號","121.428546666667","24.9948433333333","6500700","樹林區"
"238024","5061-A6","2018/09/06 18:18:31","新北市樹林區中山路一段137巷7號","121.422793333333","24.9895416666667","6500700","樹林區"
"238025","303-VK","2018/09/06 18:18:32","新北市樹林區保安街一段348號","121.4179","24.9981966666667","6500700","樹林區"
"238017","283-BY","2018/09/06 18:18:30","新北市樹林區保安街二段337巷9號","121.411191666667","25.00824","6500700","樹林區"
"238020","268-VK","2018/09/06 18:18:26","新北市樹林區三龍街131號","121.417931666667","25.0182516666667","6500700","樹林區"
"238026","172-UY","2018/09/06 18:18:28","新北市樹林區佳園路一段75巷12-11號","121.395296666667","24.9703716666667","6500700","樹林區"
"238016","169-UY","2018/09/06 18:18:17","新北市樹林區文化街27號","121.419098333333","24.9876383333333","6500700","樹林區"
"239007","AAC-297","2018/09/06 18:18:24","新北市鶯歌區重慶街86號","121.348423333333","24.95214","6500800","鶯歌區"
"239006","891-R6","2018/09/06 18:18:24","新北市鶯歌區鶯桃路365巷56號","121.331748333333","24.9623316666667","6500800","鶯歌區"
"239008","527-UM","2018/09/06 18:18:33","新北市鶯歌區國際一路179號","121.33624","24.9765366666667","6500800","鶯歌區"
"239005","526-UM","2018/09/06 18:18:29","新北市鶯歌區鶯桃路668巷73號","121.329895","24.9718016666667","6500800","鶯歌區"
"239001","417-VK","2018/09/06 18:18:29","新北市鶯歌區國中街142號","121.339245","24.9397433333333","6500800","鶯歌區"
"239003","360-BY","2018/09/06 18:18:30","新北市鶯歌區福安街58號","121.335656666667","24.965285","6500800","鶯歌區"
"239002","359-BY","2018/09/06 18:18:26","新北市鶯歌區國華路15號","121.342883333333","24.9561533333333","6500800","鶯歌區"
"239004","193-VK","2018/09/06 18:18:25","新北市鶯歌區尖山路166巷13號","121.345195","24.948645","6500800","鶯歌區"
"221008","489-VK","2018/09/06 18:18:35","新北市汐止區康寧街901號","121.651431666667","25.0750466666667","6501100","汐止區"
"221036","130-UY","2018/09/06 18:18:32","新北市汐止區長興街一段12號","121.669628333333","25.0786983333333","6501100","汐止區"
"221015","131-UY","2018/09/06 18:18:26","新北市汐止區鄉長路二段23巷13號","121.667706666667","25.0827033333333","6501100","汐止區"
"221010","269-BY","2018/09/06 18:18:35","新北市汐止區祥雲街20號","121.646545","25.090075","6501100","汐止區"
"221012","278-VK","2018/09/06 18:18:28","新北市汐止區保一街9巷8弄15號","121.674036666667","25.0805216666667","6501100","汐止區"
"221023","279-VK","2018/09/06 18:18:17","新北市汐止區康寧街395號","121.629401666667","25.068105","6501100","汐止區"
"221032","280-BY","2018/09/06 18:18:27","新北市汐止區橫科路63號","121.618796666667","25.0508616666667","6501100","汐止區"
"221027","281-BY","2018/09/06 18:18:28","新北市汐止區和平街9號","121.663193333333","25.070705","6501100","汐止區"
"221033","297-VK","2018/09/06 18:18:27","新北市汐止區宜興街50巷1號","121.622505","25.0424283333333","6501100","汐止區"
"221029","298-VK","2018/09/06 18:18:22","新北市汐止區汐萬路一段333巷23號","121.648233333333","25.0762083333333","6501100","汐止區"
"221021","299-VK","2018/09/06 18:18:31","新北市汐止區連興街120號","121.653633333333","25.0625","6501100","汐止區"
"221031","353-TW","2018/09/06 18:18:19","新北市汐止區大同路一段160號","121.633243333333","25.0570183333333","6501100","汐止區"
"221035","622-UM","2018/09/06 18:18:32","新北市汐止區大同路二段179號","121.652038333333","25.0642233333333","6501100","汐止區"
"221025","623-UM","2018/09/06 18:18:25","新北市汐止區勤進路12巷31號","121.659186666667","25.0625616666667","6501100","汐止區"
"221038","646-BX","2018/09/06 18:18:16","新北市汐止區新台五路二段85巷7號","121.664408333333","25.0672033333333","6501100","汐止區"
"221002","707-TV","2018/09/06 18:18:24","新北市汐止區福德一路201巷27號","121.635841666667","25.064715","6501100","汐止區"
"221018","753-BX","2018/09/06 18:18:19","新北市汐止區茄苳路104號","121.667643333333","25.0703566666667","6501100","汐止區"
"235068","KEA-2873","2018/09/06 18:18:28","新北市中和區員山路36巷16-3號","121.485088333333","24.991245","6500300","中和區"
