"lineid","car","time","location","longitude","latitude","cityid","cityname"
"234046","148-BY","2018/09/06 19:09:26","新北市永和區得和路373巷31弄12號","121.524231666667","25.00042","6500400","永和區"
"234007","207-UY","2018/09/06 19:09:20","新北市永和區中山路一段177號","121.509405","25.0090133333333","6500400","永和區"
"234081","298-R6","2018/09/06 19:09:20","新北市永和區福和路57巷14弄1號","121.522805","25.0069766666667","6500400","永和區"
"234038","336-UY","2018/09/06 19:09:20","新北市永和區民樂街71巷1號","121.527401666667","24.99753","6500400","永和區"
"234064","337-UY","2018/09/06 19:09:26","新北市永和區秀朗路二段13巷2號","121.521108333333","25.0028283333333","6500400","永和區"
"234086","338-UY","2018/09/06 19:09:35","新北市永和區永貞路122號","121.518656666667","25.0044366666667","6500400","永和區"
"234070","552-UM","2018/09/06 19:09:31","新北市永和區豫溪街137巷1弄6號","121.519406666667","25.0105116666667","6500400","永和區"
"234017","745-BX","2018/09/06 19:09:35","新北市永和區文化路90巷15號","121.513783333333","25.016045","6500400","永和區"
"234030","746-BX","2018/09/06 19:09:31","新北市永和區民生路29號","121.522818333333","24.9984733333333","6500400","永和區"
"234054","KEA-2590","2018/09/06 19:09:23","新北市永和區中興街133巷10號","121.518588333333","25.012785","6500400","永和區"
"234061","AAD-866","2018/09/06 19:09:32","新北市永和區安樂路304巷7號","121.514553333333","25.0052616666667","6500400","永和區"
"234013","847-RS","2018/09/06 19:09:19","新北市永和區保福路二段30號","121.511066666667","25.0116916666667","6500400","永和區"
"234042","862-TW","2018/09/06 19:09:15","新北市永和區永貞路334-1號","121.511366666667","25.0056433333333","6500400","永和區"
"234050","863-TW","2018/09/06 19:09:29","新北市永和區文化路135巷9號","121.510698333333","25.01442","6500400","永和區"
"234026","9371-KE","2018/09/06 19:09:22","新北市永和區安樂路431號","121.514405","25.0042216666667","6500400","永和區"
"234023","9381-KE","2018/09/06 19:09:25","新北市永和區仁愛路141巷30弄3號","121.511806666667","25.011515","6500400","永和區"
"234011","9373-KE","2018/09/06 19:09:33","新北市永和區仁愛路141巷15號","121.51216","25.0115466666667","6500400","永和區"
"249005","172-UM","2018/09/06 19:09:20","新北市八里區中華路三段99巷1號","121.393808333333","25.138525","6502300","八里區"
"249001","173-UM","2018/09/06 19:09:33","新北市八里區龍米路二段228-1號","121.432735","25.158465","6502300","八里區"
"249003","593-UM","2018/09/06 19:09:21","新北市八里區博物館路181號","121.405945","25.1569216666667","6502300","八里區"
"248006","077-UY","2018/09/06 19:09:21","新北市五股區四維路112號","121.467765","25.0739483333333","6501500","五股區"
"248008","095-VK","2018/09/06 19:09:37","新北市五股區中興路一段164-1號","121.463943333333","25.0740666666667","6501500","五股區"
"248020","225-UY","2018/09/06 19:09:20","新北市五股區凌雲路三段57號","121.425305","25.1249766666667","6501500","五股區"
"248012","247-BX","2018/09/06 19:09:21","新北市五股區中興路四段48巷16號","121.438568333333","25.0834433333333","6501500","五股區"
"248016","261-SL","2018/09/06 19:09:21","新北市五股區成泰路三段559巷36弄1號","121.45068","25.1027316666667","6501500","五股區"
"248004","677-BX","2018/09/06 19:09:19","新北市五股區五福路7-1號","121.434241666667","25.0880333333333","6501500","五股區"
"248002","678-BX","2018/09/06 19:09:20","新北市五股區凌雲路一段158巷6號","121.447788333333","25.1029733333333","6501500","五股區"
"248010","682-TV","2018/09/06 19:09:23","新北市五股區水碓二路1號","121.430531666667","25.0713133333333","6501500","五股區"
"234023","9380-KE","2018/09/06 19:09:34","新北市永和區中興街10巷11號","121.515568333333","25.0112483333333","6500400","永和區"
"234077","969-R7","2018/09/06 19:09:36","新北市永和區民權路34號","121.520195","24.9988666666667","6500400","永和區"
"234074","AAC-211","2018/09/06 19:09:36","新北市永和區竹林路222號","121.52078","25.0081283333333","6500400","永和區"
"234067","AAC-212","2018/09/06 19:09:20","新北市永和區保平路39號","121.51201","25.0072266666667","6500400","永和區"
"234003","AAC-295","2018/09/06 19:09:25","新北市永和區保福路一段75號","121.511996666667","25.01037","6500400","永和區"
"232011","375-UM","2018/09/06 19:09:28","新北市坪林區北宜路八段558號","121.716821666667","24.9087316666667","6502000","坪林區"
"244013","069-UM","2018/09/06 19:09:28","新北市林口區麗園一街2巷1號","121.375715","25.071775","6501700","林口區"
"244019","403-UM","2018/09/06 19:09:18","新北市林口區公園路233-4號","121.3759","25.0759133333333","6501700","林口區"
"244023","483-VK","2018/09/06 19:09:18","新北市林口區文化三路一段555巷50號","121.369818333333","25.077045","6501700","林口區"
"244017","485-VK","2018/09/06 19:09:26","新北市林口區公園路133-3號","121.369511666667","25.07064","6501700","林口區"
"244011","657-BX","2018/09/06 19:09:30","新北市林口區竹林路74號","121.387805","25.0785066666667","6501700","林口區"
"244025","837-TS","2018/09/06 19:09:27","新北市林口區文化北路一段526巷21號","121.367865","25.07898","6501700","林口區"
"243013","AAD-798","2018/09/06 19:09:25","新北市泰山區漢口街1號","121.423216666667","25.0367116666667","6501600","泰山區"
"243009","297-R6","2018/09/06 19:09:24","新北市泰山區明志路一段117巷7號","121.434011666667","25.0634233333333","6501600","泰山區"
"243016","KEA-2801","2018/09/06 19:09:21","新北市泰山區明志路二段346號","121.426061666667","25.0453283333333","6501600","泰山區"
"243015","421-VK","2018/09/06 19:09:16","新北市泰山區明志路一段454號","121.430705","25.0556783333333","6501600","泰山區"
"243011","KEA-2215","2018/09/06 19:09:18","新北市泰山區明志路二段366號","121.425496666667","25.045065","6501600","泰山區"
"243010","KEA-2216","2018/09/06 19:09:24","新北市泰山區明志路一段481號","121.431031666667","25.0553333333333","6501600","泰山區"
"243012","646-TV","2018/09/06 19:09:19","新北市泰山區吳厝窠1號","121.428026666667","25.0586483333333","6501600","泰山區"
"243014","680-BX","2018/09/06 19:09:17","新北市泰山區泰林路二段370號","121.428445","25.0638783333333","6501600","泰山區"
"222003","436-BY","2018/09/06 19:09:22","新北市深坑區深南路162號","121.626095","25.0149633333333","6501800","深坑區"
"222002","659-BX","2018/09/06 19:09:19","新北市深坑區北深路一段199號","121.630841666667","25.0093916666667","6501800","深坑區"
"231041","002-UM","2018/09/06 19:09:17","新北市新店區溪園路393號","121.524046666667","24.97908","6500600","新店區"
"231059","046-UY","2018/09/06 19:09:33","新北市新店區安康路一段351-1號","121.519483333333","24.9641233333333","6500600","新店區"
"231040","047-UY","2018/09/06 19:09:32","新北市新店區三民路98-3號","121.534133333333","24.973475","6500600","新店區"
"231044","106-UY","2018/09/06 19:09:26","新北市新店區中興路三段182號","121.544055","24.9813533333333","6500600","新店區"
"231046","107-UY","2018/09/06 19:09:21","新北市新店區永業路111號","121.52861","24.9482833333333","6500600","新店區"
"231052","108-UY","2018/09/06 19:09:29","新北市新店區屈尺路87巷2號","121.545496666667","24.9227916666667","6500600","新店區"
"231064","110-UY","2018/09/06 19:09:29","新北市新店區安忠路38號","121.513096666667","24.9595266666667","6500600","新店區"
"231047","187-VK","2018/09/06 19:09:23","新北市新店區德正街27巷29弄135號","121.54572","24.9732716666667","6500600","新店區"
"231054","KEA-2219","2018/09/06 19:09:34","新北市新店區新店路108號","121.5372","24.9546466666667","6500600","新店區"
"231057","256-BX","2018/09/06 19:09:28","新北市新店區花園一路一段2號","121.553133333333","24.9324483333333","6500600","新店區"
"231042","268-BY","2018/09/06 19:09:18","新北市新店區大新街9巷28號","121.544306666667","24.9668333333333","6500600","新店區"
"231051","278-BY","2018/09/06 19:09:35","新北市新店區中正路382巷19號","121.535373333333","24.97808","6500600","新店區"
"231050","AAD-862","2018/09/06 19:09:30","新北市新店區竹林路26巷26-1號","121.551921666667","24.9500916666667","6500600","新店區"
"231058","3713-VJ","2018/09/06 19:09:20","新北市新店區光明街286巷21號","121.541165","24.9634383333333","6500600","新店區"
"231066","4716-K9","2018/09/06 19:09:34","新北市新店區安康路二段341巷3號","121.497293333333","24.9554383333333","6500600","新店區"
"231056","4715-K9","2018/09/06 19:09:27","新北市新店區民權路107-1號","121.536343333333","24.98245","6500600","新店區"
"231067","4772-VM","2018/09/06 19:09:25","新北市新店區安康路一段281巷15號","121.523768333333","24.9627733333333","6500600","新店區"
"231065","512-UM","2018/09/06 19:09:35","新北市新店區安祥路147巷29號","121.475865","24.9566883333333","6500600","新店區"
"231049","513-UM","2018/09/06 19:09:30","新北市新店區二十張路25巷3號","121.538918333333","24.9821433333333","6500600","新店區"
"231045","617-UM","2018/09/06 19:09:33","新北市新店區北宜路一段146號","121.540166666667","24.9539733333333","6500600","新店區"
"231061","619-UM","2018/09/06 19:09:34","新北市新店區安康路一段355-10號","121.520828333333","24.9637983333333","6500600","新店區"
"231063","641-BX","2018/09/06 19:09:32","新北市新店區車子路121號","121.505381666667","24.9512783333333","6500600","新店區"
"231062","720-UM","2018/09/06 19:09:25","新北市新店區安和路二段66號","121.518245","24.9679883333333","6500600","新店區"
"231060","897-TW","2018/09/06 19:09:25","新北市新店區安康路二段360號","121.502118333333","24.9574466666667","6500600","新店區"
"231043","899-TW","2018/09/06 19:09:17","新北市新店區寶橋路48號","121.54587","24.975225","6500600","新店區"
"241026","066-VK","2018/09/06 19:09:33","新北市三重區泉州街72號","121.494833333333","25.0549433333333","6500200","三重區"
"241035","KEA-2210","2018/09/06 19:09:33","新北市三重區中正北路2號","121.489408333333","25.062965","6500200","三重區"
"241020","413-TH","2018/09/06 19:09:23","新北市三重區忠孝路一段183號","121.487221666667","25.0717383333333","6500200","三重區"
"241029","942-UM","2018/09/06 19:09:23","新北市三重區重安街87巷12號","121.493088333333","25.0552166666667","6500200","三重區"
"235066","003-UY","2018/09/06 19:09:24","新北市中和區廣福路30號","121.504716666667","25.0023883333333","6500300","中和區"
"235063","006-UY","2018/09/06 19:09:29","新北市中和區連城路363號","121.48765","24.995995","6500300","中和區"
"235056","096-UM","2018/09/06 19:09:24","新北市中和區員山路546號","121.4788","25.01017","6500300","中和區"
"235039","097-UM","2018/09/06 19:09:26","新北市中和區景平路64巷9號","121.522105","24.9912416666667","6500300","中和區"
"235065","098-UM","2018/09/06 19:09:18","新北市中和區中山路二段136巷70號","121.500558333333","25.0044516666667","6500300","中和區"
"235040","150-BY","2018/09/06 19:09:32","新北市中和區宜安路112號","121.510406666667","24.9979016666667","6500300","中和區"
"235058","151-BY","2018/09/06 19:09:29","新北市中和區員山路145號","121.48107","24.99619","6500300","中和區"
"235055","183-VK","2018/09/06 19:09:34","新北市中和區德光路69號","121.469601666667","25.00381","6500300","中和區"
"235038","185-VK","2018/09/06 19:09:16","新北市中和區大仁街20巷32號","121.519106666667","24.993155","6500300","中和區"
"235049","186-VK","2018/09/06 19:09:31","新北市中和區明禮街16號","121.504875","24.9959716666667","6500300","中和區"
"235067","255-BX","2018/09/06 19:09:21","新北市中和區新生街176巷20號","121.482706666667","25.0000116666667","6500300","中和區"
"235044","293-VK","2018/09/06 19:09:36","新北市中和區中興街235巷2號","121.50072","24.9894033333333","6500300","中和區"
"235072","301-VK","2018/09/06 19:09:23","新北市中和區福祥路30號","121.499425","25.003635","6500300","中和區"
"235043","352-BY","2018/09/06 19:09:28","新北市中和區景平路96號","121.520371666667","24.991305","6500300","中和區"
"235042","KEA-2878","2018/09/06 19:09:28","新北市中和區自強路15巷3號","121.520978333333","24.9936383333333","6500300","中和區"
"235050","4979-A6","2018/09/06 19:09:28","新北市中和區復興路280巷18弄22號","121.501856666667","24.992125","6500300","中和區"
"235069","4980-A6","2018/09/06 19:09:22","新北市中和區中和路217巷16號","121.50469","25.00036","6500300","中和區"
"235064","551-UM","2018/09/06 19:09:32","新北市中和區泰和街30巷14號","121.499123333333","25.00095","6500300","中和區"
"235070","558-UM","2018/09/06 19:09:24","新北市中和區中和路27號","121.499871666667","25.001835","6500300","中和區"
"235045","565-BX","2018/09/06 19:09:34","新北市中和區景新街449號","121.51331","24.9885366666667","6500300","中和區"
"235054","640-BX","2018/09/06 19:09:23","新北市中和區民享街30巷1號","121.47385","25.00344","6500300","中和區"
"235047","732-UM","2018/09/06 19:09:27","新北市中和區興南路一段56巷3弄1號","121.510628333333","24.9909416666667","6500300","中和區"
"235046","733-UM","2018/09/06 19:09:24","新北市中和區忠孝街1巷50號","121.508403333333","24.9843833333333","6500300","中和區"
"235071","783-BX","2018/09/06 19:09:19","新北市中和區連城路314號","121.483503333333","24.9962483333333","6500300","中和區"
"235062","800-TS","2018/09/06 19:09:23","新北市中和區中山路二段359巷2號","121.488516666667","25.004375","6500300","中和區"
"235057","801-TS","2018/09/06 19:09:19","新北市中和區民利街100巷2弄1號","121.47739","24.9980783333333","6500300","中和區"
"235041","802-TS","2018/09/06 19:09:36","新北市中和區景安路6號","121.507695","24.9989666666667","6500300","中和區"
"235052","805-TS","2018/09/06 19:09:21","新北市中和區興南路二段142巷31弄83號","121.501633333333","24.983675","6500300","中和區"
"235048","896-TW","2018/09/06 19:09:17","新北市中和區華新街170號","121.5073","24.98225","6500300","中和區"
"235053","900-TW","2018/09/06 19:09:20","新北市中和區華福街86號","121.467505","24.9964316666667","6500300","中和區"
"235060","911-UM","2018/09/06 19:09:23","新北市中和區中山路三段145號","121.473863333333","25.0059983333333","6500300","中和區"
"235051","157-BY","2018/09/06 19:09:30","新北市中和區興南路一段71號","121.51013","24.9892433333333","6500300","中和區"
"235037","AAC-213","2018/09/06 19:09:33","新北市中和區秀朗路三段60巷30號","121.525336666667","24.9950466666667","6500300","中和區"
"235059","AAC-215","2018/09/06 19:09:29","新北市中和區圓通路294巷17-5號","121.48866","24.9904383333333","6500300","中和區"
"220068","013-TV","2018/09/06 19:09:38","新北市板橋區三民路一段31巷36弄7號","121.480825","25.0228116666667","6500100","板橋區"
"220065","072-UY","2018/09/06 19:09:26","新北市板橋區民族路219巷46號","121.469413333333","25.0087366666667","6500100","板橋區"
"220086","073-UY","2018/09/06 19:09:30","新北市板橋區中正路236巷105號","121.460011666667","25.0199566666667","6500100","板橋區"
"220106","075-UY","2018/09/06 19:09:32","新北市板橋區雙十路三段9號","121.471708333333","25.0302966666667","6500100","板橋區"
"220069","AAD-861","2018/09/06 19:09:34","新北市板橋區四川路一段100號","121.459643333333","25.0048066666667","6500100","板橋區"
"226004","312-R5","2018/09/06 19:09:23","新北市平溪區嶺腳里嶺腳寮1-5號","121.745486666667","25.0280083333333","6502400","平溪區"
"228003","097-TW","2018/09/06 19:09:33","新北市貢寮區和美里和美街38號","121.912271666667","25.0890483333333","6502600","貢寮區"
"228001","212-TW","2018/09/06 19:09:02","新北市貢寮區真理里新港街10號","121.925528333333","25.0543666666667","6502600","貢寮區"
"228002","663-BX","2018/09/06 19:09:29","新北市貢寮區福隆里虎子山街21號","121.93852","25.0185033333333","6502600","貢寮區"
"224010","AGQ-8101","2018/09/06 19:06:09","新北市瑞芳區市下巷20號","121.844038333333","25.1087516666667","6501200","瑞芳區"
"224006","676-BX","2018/09/06 19:09:19","新北市瑞芳區中山路208號","121.8008","25.106825","6501200","瑞芳區"
"224008","285-BY","2018/09/06 19:09:21","新北市瑞芳區瑞芳街104號","121.801656666667","25.11065","6501200","瑞芳區"
"224007","275-VK","2018/09/06 19:09:34","新北市瑞芳區瑞竹路46號","121.763505","25.103405","6501200","瑞芳區"
"224009","273-VK","2018/09/06 19:09:30","新北市瑞芳區洞頂路188號","121.861526666667","25.1197316666667","6501200","瑞芳區"
"227010","642-TC","2018/09/06 19:09:34","新北市雙溪區牡丹里中正路34號","121.864645","25.038295","6502500","雙溪區"
"227004","400-TW","2018/09/06 19:09:33","新北市雙溪區平林里梅竹蹊56-4號","121.860736666667","25.03669","6502500","雙溪區"
"253006","032-BX","2018/09/06 19:09:29","新北市石門區海灣新城20號","121.52595","25.2847183333333","6502200","石門區"
"253005","295-VK","2018/09/06 19:09:38","新北市石門區阿里荖42-1號","121.605473333333","25.28297","6502200","石門區"
"222001","KEA-2212","2018/09/06 19:09:20","新北市深坑區北深路一段300號","121.624288333333","25.00565","6501800","深坑區"
"208002","KEA-2872","2018/09/06 19:09:22","新北市金山區仁愛路67巷24號","121.634271666667","25.2210916666667","6502700","金山區"
"208003","665-BX","2018/09/06 19:09:28","新北市金山區中正路130號","121.632335","25.22155","6502700","金山區"
"208001","761-BX","2018/09/06 19:09:25","新北市金山區溫泉路4號","121.639611666667","25.2219183333333","6502700","金山區"
"251009","008-UM","2018/09/06 19:09:36","新北市淡水區重建街66號","121.439881666667","25.1719416666667","6501000","淡水區"
"251005","010-UM","2018/09/06 19:09:20","新北市淡水區原德路11號","121.442125","25.1712883333333","6501000","淡水區"
"251013","KEA-2871","2018/09/06 19:06:05","新北市淡水區安子內12-1號","121.481481666667","25.21914","6501000","淡水區"
"251016","179-VK","2018/09/06 19:09:29","新北市淡水區下圭柔山119-51號","121.45065","25.2085","6501000","淡水區"
"251014","180-VK","2018/09/06 19:09:21","新北市淡水區小中寮19-1號","121.483841666667","25.2291283333333","6501000","淡水區"
"251015","181-VK","2018/09/06 19:09:21","新北市淡水區南勢埔27-2號","121.483628333333","25.1805216666667","6501000","淡水區"
"251010","413-VK","2018/09/06 19:09:27","新北市淡水區中正路一段156巷10-3號","121.42156","25.180225","6501000","淡水區"
"251007","442-VK","2018/09/06 19:09:34","新北市淡水區民生路182號","121.465363333333","25.138705","6501000","淡水區"
"251008","443-VK","2018/09/06 19:09:27","新北市淡水區中正路二段96號","121.417945","25.18585","6501000","淡水區"
"251001","559-UM","2018/09/06 19:09:27","新北市淡水區自強路201巷39號","121.46208","25.12684","6501000","淡水區"
"251002","672-BX","2018/09/06 19:09:30","新北市淡水區中山路93-2號","121.442216666667","25.1704516666667","6501000","淡水區"
"251003","766-UM","2018/09/06 19:09:19","新北市淡水區中山北路一段129號","121.442788333333","25.1768733333333","6501000","淡水區"
"207003","550-UM","2018/09/06 19:09:22","新北市萬里區大鵬里萬里加投24-2號","121.649151666667","25.207355","6502800","萬里區"
"207004","225-TW","2018/09/06 19:09:23","新北市萬里區萬里里瑪鋉下街52號","121.69159","25.1795266666667","6502800","萬里區"
"252002","178-VK","2018/09/06 19:09:21","新北市三芝區埔坪里埔頭坑84號","121.508113333333","25.2542666666667","6502100","三芝區"
"252003","249-BX","2018/09/06 19:09:31","新北市三芝區錫板里南勢崗7號","121.479403333333","25.261785","6502100","三芝區"
"252001","292-VK","2018/09/06 19:09:24","新北市三芝區長勤街45巷2號","121.500473333333","25.2551633333333","6502100","三芝區"
"237004","KEA-2597","2018/09/06 19:09:29","新北市三峽區有木153-1號","121.447011666667","24.8475816666667","6500900","三峽區"
"237007","153-BY","2018/09/06 19:09:29","新北市三峽區中正路二段42巷84號","121.364235","24.92047","6500900","三峽區"
"237013","252-BX","2018/09/06 19:09:24","新北市三峽區光明路69巷24號","121.376475","24.92909","6500900","三峽區"
"237012","275-BY","2018/09/06 19:09:31","新北市三峽區三樹路222巷236弄8-3號","121.391401666667","24.9429866666667","6500900","三峽區"
"237008","302-VK","2018/09/06 19:09:20","新北市三峽區大同路137號","121.371875","24.9266933333333","6500900","三峽區"
"237014","433-BY","2018/09/06 19:09:22","新北市三峽區中山路331號","121.359848333333","24.9387583333333","6500900","三峽區"
"237006","5529-G3","2018/09/06 19:09:19","新北市三峽區溪北街109號","121.398381666667","24.93544","6500900","三峽區"
"237011","KEA-2596","2018/09/06 19:09:31","新北市三峽區介壽路三段107號","121.395511666667","24.93957","6500900","三峽區"
"237016","649-BX","2018/09/06 19:09:21","新北市三峽區建安28號","121.446446666667","24.927235","6500900","三峽區"
"237010","706-TV","2018/09/06 19:09:25","新北市三峽區國光街326號","121.372306666667","24.9393183333333","6500900","三峽區"
"237005","AKY-6261","2018/09/06 19:09:27","新北市三峽區中山路459巷163-3號","121.348818333333","24.932965","6500900","三峽區"
"236070","105-UM","2018/09/06 19:09:32","新北市土城區裕生路84巷3號","121.446981666667","24.9853883333333","6501300","土城區"
"236078","166-UM","2018/09/06 19:06:14","新北市土城區龍泉路43號","121.417178333333","24.9432383333333","6501300","土城區"
"236026","269-VK","2018/09/06 19:09:24","新北市土城區中正路39號","121.443796666667","24.9755733333333","6501300","土城區"
"236014","270-VK","2018/09/06 19:09:26","新北市土城區永豐路11號","121.46139","24.9888533333333","6501300","土城區"
"236038","271-VK","2018/09/06 19:09:23","新北市土城區清水路100號","121.457521666667","24.9814183333333","6501300","土城區"
"236021","401-BY","2018/09/06 19:09:34","新北市土城區延峰街29巷2號","121.469481666667","24.9851166666667","6501300","土城區"
"236059","912-UM","2018/09/06 19:09:31","新北市土城區金城路一段25-1號","121.43985","24.9692633333333","6501300","土城區"
"236049","913-UM","2018/09/06 19:09:27","新北市土城區明德路一段365-1號","121.453658333333","24.9791016666667","6501300","土城區"
"242048","497-BY","2018/09/06 19:09:23","新北市新莊區福營路350號","121.421366666667","25.0266666666667","6500500","新莊區"
"238015","755-BX","2018/09/06 19:09:35","新北市樹林區光明街8號","121.411003333333","24.9889783333333","6500700","樹林區"
"238023","601-UM","2018/09/06 19:09:35","新北市樹林區大慶街38號","121.397028333333","25.0143116666667","6500700","樹林區"
"238019","599-UM","2018/09/06 19:09:36","新北市樹林區東華街69號","121.415426666667","24.9812633333333","6500700","樹林區"
"238018","571-TV","2018/09/06 18:47:48","新北市樹林區太平路48號","121.419046666667","24.9825316666667","6500700","樹林區"
"238024","5061-A6","2018/09/06 19:09:30","新北市樹林區中山路二段249巷34號","121.403536666667","24.9754183333333","6500700","樹林區"
"238022","KEA-2213","2018/09/06 19:09:37","新北市樹林區中山路二段151巷8弄9號","121.406398333333","24.9778683333333","6500700","樹林區"
"238021","KEA-2539","2018/09/06 19:09:18","新北市樹林區柑園街二段386巷1號","121.367713333333","24.9489716666667","6500700","樹林區"
"238025","303-VK","2018/09/06 19:09:32","新北市樹林區民和街32號","121.384803333333","24.9688083333333","6500700","樹林區"
"238017","283-BY","2018/09/06 19:09:30","新北市樹林區保安街二段165號","121.41523","25.002965","6500700","樹林區"
"238014","282-BY","2018/09/06 19:09:32","新北市樹林區千歲街92巷7弄13號","121.427291666667","24.9978383333333","6500700","樹林區"
"238020","268-VK","2018/09/06 19:09:21","新北市樹林區俊英街200號","121.425516666667","25.0087983333333","6500700","樹林區"
"238026","172-UY","2018/09/06 19:09:28","新北市樹林區佳園路一段41巷28弄3號","121.394653333333","24.97075","6500700","樹林區"
"238016","169-UY","2018/09/06 19:09:30","新北市樹林區中山路一段356巷8號","121.4189","24.9864116666667","6500700","樹林區"
"239007","AAC-297","2018/09/06 19:09:24","新北市鶯歌區國光街98號","121.341248333333","24.9574633333333","6500800","鶯歌區"
"239006","891-R6","2018/09/06 19:09:24","新北市鶯歌區鶯桃路296巷72弄18號","121.337128333333","24.9611133333333","6500800","鶯歌區"
"239008","527-UM","2018/09/06 19:09:33","新北市鶯歌區國際二路6巷9號","121.338676666667","24.97376","6500800","鶯歌區"
"239005","526-UM","2018/09/06 19:09:29","新北市鶯歌區大湖路361巷24弄12號","121.33012","24.9779666666667","6500800","鶯歌區"
"239001","417-VK","2018/09/06 19:09:29","新北市鶯歌區永智街14號","121.336888333333","24.954925","6500800","鶯歌區"
"239003","360-BY","2018/09/06 19:09:29","新北市鶯歌區八德路1-2號","121.338875","24.94822","6500800","鶯歌區"
"239004","193-VK","2018/09/06 19:09:25","新北市鶯歌區中正三路318巷30號","121.326591666667","24.937245","6500800","鶯歌區"
"221008","489-VK","2018/09/06 19:09:35","新北市汐止區康寧街442號","121.631201666667","25.068155","6501100","汐止區"
"221036","130-UY","2018/09/06 19:09:32","新北市汐止區汐萬路一段256巷3號","121.652421666667","25.074625","6501100","汐止區"
"221010","269-BY","2018/09/06 19:09:35","新北市汐止區康寧街901號","121.65148","25.07505","6501100","汐止區"
"221012","278-VK","2018/09/06 19:09:28","新北市汐止區康寧街901號","121.650765","25.0752166666667","6501100","汐止區"
"221023","279-VK","2018/09/06 19:09:17","新北市汐止區康寧街901號","121.650973333333","25.0750783333333","6501100","汐止區"
"221027","281-BY","2018/09/06 19:09:21","新北市汐止區康寧街901號","121.650928333333","25.07519","6501100","汐止區"
"221029","298-VK","2018/09/06 19:09:22","新北市汐止區康寧街901號","121.651106666667","25.075215","6501100","汐止區"
"221021","299-VK","2018/09/06 19:09:31","新北市汐止區康寧街901號","121.651418333333","25.0750533333333","6501100","汐止區"
"221031","353-TW","2018/09/06 19:09:19","新北市汐止區福德一路86巷18號","121.637303333333","25.0692466666667","6501100","汐止區"
"221025","623-UM","2018/09/06 19:09:25","新北市汐止區康寧街901號","121.651586666667","25.0749533333333","6501100","汐止區"
"221038","646-BX","2018/09/06 19:09:36","新北市汐止區汐萬路一段312號","121.650626666667","25.0753066666667","6501100","汐止區"
"221002","707-TV","2018/09/06 19:09:24","新北市汐止區大同路一段161號","121.632428333333","25.0563166666667","6501100","汐止區"
"220079","145-BY","2018/09/06 19:09:24","新北市板橋區民權路260巷54號","121.459925","25.0151066666667","6500100","板橋區"
"220080","200-UY","2018/09/06 19:09:35","新北市板橋區大觀路二段1巷12號","121.448871666667","25.0037766666667","6500100","板橋區"
"220082","610-BX","2018/09/06 19:09:17","新北市板橋區溪崑二街89號","121.427245","24.9895","6500100","板橋區"
"220101","245-BX","2018/09/06 19:09:18","新北市板橋區萬板路15號","121.470548333333","25.0211566666667","6500100","板橋區"
"220056","276-BY","2018/09/06 19:09:18","新北市板橋區信義路74巷1弄1號","121.457255","24.993175","6500100","板橋區"
"220072","277-BY","2018/09/06 19:09:29","新北市板橋區金門街260巷2號","121.429798333333","24.9870866666667","6500100","板橋區"
"220071","283-VK","2018/09/06 19:09:29","新北市板橋區重慶路269巷13號","121.463846666667","24.9994216666667","6500100","板橋區"
"220094","285-UM","2018/09/06 19:09:29","新北市板橋區光武街153號","121.465508333333","25.0295683333333","6500100","板橋區"
"220053","285-VK","2018/09/06 19:09:29","新北市板橋區富山街53巷2弄2號","121.477413333333","25.0203383333333","6500100","板橋區"
"220083","286-VK","2018/09/06 19:09:29","新北市板橋區大觀路二段174巷176弄9號","121.442616666667","25.0033016666667","6500100","板橋區"
"220081","287-VK","2018/09/06 19:09:39","新北市板橋區南雅西路二段156巷7號","121.452185","25.0133516666667","6500100","板橋區"
"220090","288-VK","2018/09/06 19:09:29","新北市板橋區裕民街54號","121.461395","25.028675","6500100","板橋區"
"220061","295-UM","2018/09/06 19:09:29","新北市板橋區懷仁街85巷8號","121.477731666667","25.018665","6500100","板橋區"
"220084","296-UM","2018/09/06 19:09:36","新北市板橋區溪崑二街17號","121.429011666667","24.991585","6500100","板橋區"
"220062","299-UM","2018/09/06 19:09:34","新北市板橋區三民路二段245巷69弄2號","121.481125","25.0128783333333","6500100","板橋區"
"242013","281-VK","2018/09/06 19:09:21","新北市新莊區三和路12-21號","121.442206666667","25.0383833333333","6500500","新莊區"
"220075","303-R5","2018/09/06 19:09:31","新北市板橋區南雅南路一段5巷6號","121.45596","25.0054783333333","6500100","板橋區"
"220092","307-R5","2018/09/06 19:09:18","新北市板橋區文化路二段65號","121.469243333333","25.0256216666667","6500100","板橋區"
"220098","317-R6","2018/09/06 19:09:29","新北市板橋區自由路51巷12號","121.464826666667","25.0235766666667","6500100","板橋區"
"220064","486-VK","2018/09/06 19:09:32","新北市板橋區民生路一段35號","121.47587","25.0126216666667","6500100","板橋區"
"220088","491-VK","2018/09/06 19:09:35","新北市板橋區雙十路二段217號","121.473415","25.0290266666667","6500100","板橋區"
"220035","560-BX","2018/09/06 19:09:28","新北市板橋區中正路330號","121.454361666667","25.021725","6500100","板橋區"
"220103","561-BX","2018/09/06 19:09:20","新北市板橋區文化路一段188巷7弄42號","121.468215","25.0193133333333","6500100","板橋區"
"220063","609-BX","2018/09/06 19:09:32","新北市板橋區三民路二段218號","121.478866666667","25.0116733333333","6500100","板橋區"
"220091","637-BX","2018/09/06 19:09:22","新北市板橋區縣民大道247巷41號","121.48209","25.0269666666667","6500100","板橋區"
"220057","686-BX","2018/09/06 19:09:25","新北市板橋區重慶路293號","121.463445","24.9993483333333","6500100","板橋區"
"220077","687-BX","2018/09/06 19:09:21","新北市板橋區大觀路二段22號","121.446683333333","25.003235","6500100","板橋區"
"220093","689-BX","2018/09/06 19:09:25","新北市板橋區民生路三段191號","121.465246666667","25.02753","6500100","板橋區"
"220054","741-BX","2018/09/06 19:09:36","新北市板橋區重慶路71號","121.461816666667","25.0068866666667","6500100","板橋區"
"220102","KEA-2699","2018/09/06 19:09:21","新北市板橋區田單街51號","121.482631666667","25.027895","6500100","板橋區"
"220055","827-TW","2018/09/06 19:09:30","新北市板橋區新民街7巷14號","121.463628333333","25.010405","6500100","板橋區"
"220067","830-TW","2018/09/06 19:09:37","新北市板橋區三民路二段正隆巷65號","121.476423333333","25.013215","6500100","板橋區"
"220096","831-TW","2018/09/06 19:09:36","新北市板橋區雙十路二段35號","121.476606666667","25.02575","6500100","板橋區"
"220089","833-TW","2018/09/06 19:09:32","新北市板橋區文化路二段503號","121.476006666667","25.0345133333333","6500100","板橋區"
"220074","895-R6","2018/09/06 19:08:53","新北市板橋區中正路自強新村43號","121.455105","25.01384","6500100","板橋區"
"220073","985-R7","2018/09/06 19:09:20","新北市板橋區中正路360巷61號","121.456723333333","25.0228333333333","6500100","板橋區"
"220097","AAC-210","2018/09/06 19:09:20","新北市板橋區幸福路60巷73號","121.459853333333","25.0217033333333","6500100","板橋區"
"220070","AAC-253","2018/09/06 19:09:33","新北市板橋區忠孝路56號","121.46094","25.0019716666667","6500100","板橋區"
"235068","KEA-2873","2018/09/06 19:09:28","新北市中和區圓通路158巷1弄3號","121.497423333333","24.9957766666667","6500300","中和區"
"235061","KEA-2875","2018/09/06 19:09:25","新北市中和區民享街79巷2號","121.474455","25.0018916666667","6500300","中和區"
