"lineid","car","time","location","longitude","latitude","cityid","cityname"
"234023","9381-KE","2018/09/06 20:53:40","新北市永和區保生路55-8號","121.50412","25.0105083333333","6500400","永和區"
"234077","969-R7","2018/09/06 20:58:56","新北市八里區中山路三段409號","121.36865","25.13475","6500400","永和區"
"231059","046-UY","2018/09/06 20:58:54","新北市新店區僑信路105號","121.50032","24.9467","6500600","新店區"
"231040","047-UY","2018/09/06 20:59:03","新北市新店區中正路186號","121.541025","24.9723033333333","6500600","新店區"
"231052","108-UY","2018/09/06 20:59:09","新北市新店區環河路17號","121.53755","24.9614566666667","6500600","新店區"
"231064","110-UY","2018/09/06 20:59:08","新北市新店區安民街269巷12號","121.516835","24.97314","6500600","新店區"
"231047","187-VK","2018/09/06 20:59:03","新北市新店區寶元路二段1巷1-2號","121.547365","24.9830983333333","6500600","新店區"
"231054","KEA-2219","2018/09/06 20:58:54","新北市新店區中正路75巷71號","121.543133333333","24.9687833333333","6500600","新店區"
"231042","268-BY","2018/09/06 20:58:58","新北市新店區寶橋路138號","121.547688333333","24.9764583333333","6500600","新店區"
"231051","278-BY","2018/09/06 20:58:55","新北市新店區中正路663巷1弄2號","121.532888333333","24.99002","6500600","新店區"
"231050","AAD-862","2018/09/06 20:59:10","新北市新店區三民路75巷4弄2號","121.535535","24.9709116666667","6500600","新店區"
"231066","4716-K9","2018/09/06 20:58:54","新北市新店區吉安街10號","121.516806666667","24.9657966666667","6500600","新店區"
"231067","4772-VM","2018/09/06 20:59:05","新北市新店區安德街1號","121.512546666667","24.96254","6500600","新店區"
"231065","512-UM","2018/09/06 20:58:56","新北市新店區安祥路69巷39號","121.481911666667","24.960365","6500600","新店區"
"231061","619-UM","2018/09/06 20:58:59","新北市新店區新和街75號","121.5204","24.9860383333333","6500600","新店區"
"231063","641-BX","2018/09/06 20:58:52","新北市新店區玫瑰路16號","121.494625","24.9503083333333","6500600","新店區"
"231068","718-UY","2018/09/06 20:59:04","新北市新店區寶元路二段31巷2號","121.5467","24.9816616666667","6500600","新店區"
"231062","720-UM","2018/09/06 20:59:05","新北市新店區裕合街79號","121.489086666667","24.9495916666667","6500600","新店區"
"231060","897-TW","2018/09/06 20:58:59","新北市新店區安康路三段489號","121.482693333333","24.9492633333333","6500600","新店區"
"231043","899-TW","2018/09/06 20:58:57","新北市新店區中央路206號","121.53042","24.9740366666667","6500600","新店區"
"241011","013-R5","2018/09/06 20:59:03","新北市三重區秀江街117號","121.499726666667","25.0721866666667","6500200","三重區"
"241028","022-UY","2018/09/06 20:58:57","新北市三重區重新路三段7號","121.495408333333","25.0615833333333","6500200","三重區"
"241008","059-VK","2018/09/06 20:58:51","新北市三重區車路頭街137號","121.483963333333","25.0761666666667","6500200","三重區"
"241031","061-VK","2018/09/06 20:58:50","新北市三重區重陽路一段113巷2弄2號","121.487488333333","25.0599716666667","6500200","三重區"
"241015","062-VK","2018/09/06 20:59:05","新北市三重區福德北路46號","121.502048333333","25.06542","6500200","三重區"
"241017","063-VK","2018/09/06 20:58:51","新北市三重區自強路一段256號","121.492518333333","25.067635","6500200","三重區"
"241024","065-VK","2018/09/06 20:58:58","新北市三重區國道路一段58巷13號","121.481316666667","25.07212","6500200","三重區"
"241026","066-VK","2018/09/06 20:58:53","新北市三重區文化南路3號","121.50008","25.0623966666667","6500200","三重區"
"241002","090-VK","2018/09/06 20:59:05","新北市三重區五華街1巷8號","121.495886666667","25.0798016666667","6500200","三重區"
"241003","091-VK","2018/09/06 20:58:56","新北市三重區進安街198號","121.494066666667","25.0860216666667","6500200","三重區"
"241022","265-UM","2018/09/06 20:58:51","新北市三重區中正北路20巷10號","121.488091666667","25.0625616666667","6500200","三重區"
"241016","266-UM","2018/09/06 20:58:59","新北市三重區自強路一段107號","121.495453333333","25.0665083333333","6500200","三重區"
"241009","267-UM","2018/09/06 20:59:04","新北市三重區三和路四段165-2號","121.48332","25.0786916666667","6500200","三重區"
"241018","268-UM","2018/09/06 20:59:05","新北市三重區雙園街93號","121.493935","25.0673933333333","6500200","三重區"
"241032","269-UM","2018/09/06 20:59:03","新北市三重區三陽路135號","121.483108333333","25.0589116666667","6500200","三重區"
"241013","270-UM","2018/09/06 20:58:56","新北市三重區仁愛街129巷3號","121.495738333333","25.0750333333333","6500200","三重區"
"241025","271-UM","2018/09/06 20:59:06","新北市三重區貴陽街16號","121.484088333333","25.0617983333333","6500200","三重區"
"241007","398-BY","2018/09/06 20:58:52","新北市三重區慈愛街1號","121.484631666667","25.0784466666667","6500200","三重區"
"241020","413-TH","2018/09/06 20:59:03","新北市三重區忠孝路一段101號","121.489535","25.072155","6500200","三重區"
"241004","475-VK","2018/09/06 20:59:05","新北市三重區仁愛街423-1號","121.490403333333","25.081455","6500200","三重區"
"241030","480-VK","2018/09/06 20:58:49","新北市三重區環河南路220-8號","121.493368333333","25.0527283333333","6500200","三重區"
"241014","543-UM","2018/09/06 20:59:07","新北市三重區長壽街120巷11號","121.502538333333","25.06916","6500200","三重區"
"241023","545-UM","2018/09/06 20:58:52","新北市三重區忠孝路三段84巷1號","121.480206666667","25.06463","6500200","三重區"
"241001","547-UM","2018/09/06 20:58:56","新北市三重區自強路三段87巷26號","121.4886","25.0751233333333","6500200","三重區"
"241019","KEA-2593","2018/09/06 20:58:59","新北市三重區自強路二段74巷19號","121.487956666667","25.06994","6500200","三重區"
"241005","887-TS","2018/09/06 20:59:04","新北市三重區五華街189號","121.489935","25.0852866666667","6500200","三重區"
"241012","941-UM","2018/09/06 20:59:00","新北市三重區仁信街27號","121.501265","25.0755716666667","6500200","三重區"
"241029","942-UM","2018/09/06 20:59:03","新北市三重區正義南路111號","121.498285","25.0586183333333","6500200","三重區"
"241033","AAC-255","2018/09/06 20:59:05","新北市三重區光復路一段138-1號","121.472218333333","25.0531916666667","6500200","三重區"
"247012","KEA-2869","2018/09/06 20:59:02","新北市蘆洲區民權路6號","121.476926666667","25.0855","6501400","蘆洲區"
"235069","4980-A6","2018/09/06 20:59:02","新北市中和區中正路637巷32號","121.484951666667","24.99463","6500300","中和區"
"247002","893-R6","2018/09/06 20:58:55","新北市蘆洲區永樂街46號","121.457733333333","25.0884783333333","6501400","蘆洲區"
"247016","546-UM","2018/09/06 20:58:51","新北市蘆洲區正和街61號","121.468778333333","25.08119","6501400","蘆洲區"
"247024","500-BY","2018/09/06 20:58:59","新北市蘆洲區長興路213號","121.461163333333","25.0863633333333","6501400","蘆洲區"
"247014","339-TH","2018/09/06 20:59:02","新北市蘆洲區得勝街107號","121.472891666667","25.0834033333333","6501400","蘆洲區"
"247006","337-TH","2018/09/06 20:58:58","新北市蘆洲區永安南路二段18號","121.467731666667","25.0771233333333","6501400","蘆洲區"
"247008","336-TH","2018/09/06 20:59:04","新北市蘆洲區中山一路293-1號","121.471578333333","25.0791566666667","6501400","蘆洲區"
"247020","057-VK","2018/09/06 20:58:51","新北市蘆洲區民族路488號","121.471138333333","25.0913316666667","6501400","蘆洲區"
"247010","056-VK","2018/09/06 20:59:02","新北市蘆洲區鷺江街91號","121.476821666667","25.0836766666667","6501400","蘆洲區"
"247018","007-UY","2018/09/06 20:59:06","新北市蘆洲區民權路87-2號","121.473031666667","25.08871","6501400","蘆洲區"
"247004","002-UY","2018/09/06 20:58:49","新北市蘆洲區永安南路二段268號","121.458686666667","25.0807466666667","6501400","蘆洲區"
"247022","001-UY","2018/09/06 20:59:04","新北市蘆洲區水湳街36-2號","121.47083","25.0895166666667","6501400","蘆洲區"
"222001","KEA-2212","2018/09/06 20:59:00","新北市深坑區北深路三段25巷13-3號","121.608688333333","25.0002733333333","6501800","深坑區"
"251009","008-UM","2018/09/06 20:58:56","新北市淡水區民族路112巷70號","121.46171","25.1339383333333","6501000","淡水區"
"251005","010-UM","2018/09/06 20:59:00","新北市淡水區學府路51巷2弄11號","121.447808333333","25.16993","6501000","淡水區"
"251013","KEA-2871","2018/09/06 20:59:05","新北市淡水區番子厝13號","121.46143","25.2015816666667","6501000","淡水區"
"251016","179-VK","2018/09/06 20:59:00","新北市淡水區牛埔子11-1號","121.45019","25.2184583333333","6501000","淡水區"
"251014","180-VK","2018/09/06 20:59:01","新北市淡水區溪口7-3號","121.455608333333","25.2366066666667","6501000","淡水區"
"251015","181-VK","2018/09/06 20:59:01","新北市淡水區淡金路四段542巷17號","121.452721666667","25.2270883333333","6501000","淡水區"
"251010","413-VK","2018/09/06 20:58:55","新北市淡水區淡海路27號","121.423636666667","25.1792316666667","6501000","淡水區"
"251012","441-VK","2018/09/06 20:58:53","新北市淡水區淡金路五段108號","121.45649","25.2366216666667","6501000","淡水區"
"251007","442-VK","2018/09/06 20:58:51","新北市淡水區水源街一段139號","121.447061666667","25.1718933333333","6501000","淡水區"
"251008","443-VK","2018/09/06 20:58:00","新北市淡水區淡金路二段599號","121.446448333333","25.1919","6501000","淡水區"
"251001","559-UM","2018/09/06 20:58:47","新北市淡水區淡金路二段66-1號","121.45063","25.182395","6501000","淡水區"
"251011","650-BX","2018/09/06 20:59:06","新北市淡水區新民街322巷1號","121.435273333333","25.183815","6501000","淡水區"
"251002","672-BX","2018/09/06 20:59:10","新北市淡水區英專路56-1號","121.445693333333","25.1708983333333","6501000","淡水區"
"251003","766-UM","2018/09/06 20:58:59","新北市淡水區新春街123號","121.441293333333","25.1822166666667","6501000","淡水區"
"242004","349-TH","2018/09/06 20:58:53","新北市樹林區中山路三段214號","121.380338333333","24.9680783333333","6500500","新莊區"
"221029","298-VK","2018/09/06 20:59:02","新北市汐止區汐萬路一段256巷3號","121.652405","25.0746683333333","6501100","汐止區"
"221002","707-TV","2018/09/06 20:59:03","新北市汐止區汐萬路一段256巷3號","121.652371666667","25.0746333333333","6501100","汐止區"
"220070","AAC-253","2018/09/06 20:58:47","新北市八里區中山路三段409號","121.368538333333","25.1349316666667","6500100","板橋區"
