"lineid","car","time","location","longitude","latitude","cityid","cityname"
"251004","009-UM","2018/09/06 22:29:25","新北市淡水區民族路33號","121.462301666667","25.1358266666667","6501000","淡水區"
"251010","413-VK","2018/09/06 22:29:26","新北市淡水區沙崙路200號","121.42456","25.1838433333333","6501000","淡水區"
"251007","442-VK","2018/09/06 22:29:31","新北市淡水區北新路137號","121.449488333333","25.1788233333333","6501000","淡水區"
"251008","443-VK","2018/09/06 22:29:39","新北市淡水區學府路104號","121.449836666667","25.1718116666667","6501000","淡水區"
"251011","650-BX","2018/09/06 22:29:25","新北市淡水區水碓街7號","121.443131666667","25.1772066666667","6501000","淡水區"
