"lineid","car","time","location","longitude","latitude","cityid","cityname"
"232014","291-BY","2018/03/22 06:39:39","新北市坪林區北宜路八段558號","121.718031666667","24.9096","6502000","坪林區"
"232010","375-UM","2018/03/22 06:39:35","新北市坪林區北宜路八段558號","121.718026666667","24.90931","6502000","坪林區"
"232018","705-BZ","2018/03/22 06:39:49","新北市坪林區北宜路八段558號","121.717868333333","24.9093333333333","6502000","坪林區"
"232007","758-BX","2018/03/22 06:39:42","新北市坪林區北宜路八段558號","121.717921666667","24.9096333333333","6502000","坪林區"
"244003","248-BX","2018/03/22 06:39:35","新北市林口區粉寮69號","121.405115","25.0908116666667","6501700","林口區"
"235001","611-BX","2018/03/22 06:39:45","新北市中和區圓通路435巷3-7號","121.488571666667","24.9872966666667","6500300","中和區"
"223006","022-BY","2018/03/22 06:39:46","新北市石碇區楓子林1-2號","121.64261","25.0086283333333","6501900","石碇區"
"223008","406-TH","2018/03/22 06:39:51","新北市石碇區碇坪路一段52號","121.656648333333","24.9920683333333","6501900","石碇區"
"223007","661-BX","2018/03/22 06:39:37","新北市石碇區雙溪80-1號","121.653695","25.0071333333333","6501900","石碇區"
"227007","282-VK","2018/03/22 06:39:50","新北市雙溪區牡丹里聖南8號","121.85902","25.0526216666667","6502500","雙溪區"
"220064","282-UM","2018/03/22 06:39:45","新北市板橋區縣民大道一段185巷1號","121.458123333333","25.0071666666667","6500100","板橋區"
