"lineid","car","time","location","longitude","latitude","cityid","cityname"
"234001","149-BY","2018/09/11 09:47:37","新北市永和區福和路1號","121.526318333333","25.0097183333333","6500400","永和區"
"231007","188-VK","2018/09/11 10:09:19","新北市新店區新潭路三段215巷25號","121.508128333333","24.9040666666667","6500600","新店區"
"231009","192-VK","2018/09/11 10:09:22","新北市新店區小坑一路22號","121.5331","24.9137966666667","6500600","新店區"
"227006","282-VK","2018/09/11 09:57:47","新北市雙溪區長源里盤山坑17-2號","121.774545","24.997685","6502500","雙溪區"
"227012","030-BX","2018/09/11 10:09:22","新北市雙溪區泰平里料角坑40號","121.793143333333","24.95964","6502500","雙溪區"
"252004","249-BX","2018/09/11 10:09:23","新北市三芝區福德里埔尾2-1號","121.501738333333","25.2477616666667","6502100","三芝區"
"252007","AAC-283","2018/09/11 10:09:27","新北市三芝區古庄里茂興店74號","121.49306","25.2667733333333","6502100","三芝區"
"237001","159-UY","2018/09/11 10:09:20","新北市三峽區國際一街39號","121.373103333333","24.941985","6500900","三峽區"
"221012","246-BX","2018/09/11 10:09:27","新北市汐止區福德一路2巷25號","121.639411666667","25.070605","6501100","汐止區"
