"lineid","car","time","location","longitude","latitude","cityid","cityname"
"231007","188-VK","2018/09/11 10:39:19","新北市新店區新潭路三段80巷31-1號","121.501373333333","24.90997","6500600","新店區"
"231009","192-VK","2018/09/11 10:39:28","新北市新店區成功路265號","121.5276","24.8860333333333","6500600","新店區"
"227006","282-VK","2018/09/11 10:39:27","新北市雙溪區新基里新基北街72-2號","121.876996666667","25.0442733333333","6502500","雙溪區"
"237001","159-UY","2018/09/11 10:39:20","新北市三峽區中山路459巷163-3號","121.348788333333","24.93311","6500900","三峽區"
"221012","246-BX","2018/09/11 10:39:27","新北市汐止區工建路192號","121.637455","25.0633216666667","6501100","汐止區"
