"lineid","car","time","location","longitude","latitude","cityid","cityname"
"231007","188-VK","2018/09/11 11:18:59","新北市新店區新潭路一段27號","121.523283333333","24.9424716666667","6500600","新店區"
"231009","192-VK","2018/09/11 11:19:02","新北市新店區頂石厝路72號","121.535305","24.9184466666667","6500600","新店區"
"235016","805-TS","2018/09/11 11:15:37","新北市中和區員山路36巷16號","121.4845","24.9914116666667","6500300","中和區"
"227006","282-VK","2018/09/11 11:18:57","新北市雙溪區魚行里公館12-1號","121.880486666667","25.0234983333333","6502500","雙溪區"
"221012","246-BX","2018/09/11 11:18:47","新北市汐止區樟樹一路118號","121.642146666667","25.0640833333333","6501100","汐止區"
