"lineid","car","time","location","longitude","latitude","cityid","cityname"
"234044","148-BY","2018/09/11 13:59:25","新北市永和區成功路一段30號","121.527051666667","25.00472","6500400","永和區"
"234001","149-BY","2018/09/11 13:59:19","新北市永和區民治街62號","121.518043333333","24.998","6500400","永和區"
"234005","207-UY","2018/09/11 13:59:31","新北市永和區中和路385號","121.508655","25.0000616666667","6500400","永和區"
"234078","298-R6","2018/09/11 13:59:36","新北市永和區林森路112巷12弄2號","121.522438333333","25.0043583333333","6500400","永和區"
"234036","336-UY","2018/09/11 13:59:27","新北市永和區成功路二段126號","121.52661","24.9976916666667","6500400","永和區"
"234062","337-UY","2018/09/11 13:59:24","新北市永和區中正路412巷20弄21號","121.518988333333","25.0013766666667","6500400","永和區"
"234084","338-UY","2018/09/11 13:59:36","新北市永和區福和路72號","121.523145","25.0080783333333","6500400","永和區"
"234068","552-UM","2018/09/11 13:59:36","新北市永和區國光路14號","121.519188333333","25.0084116666667","6500400","永和區"
"234015","745-BX","2018/09/11 13:59:31","新北市永和區文化路32號","121.515081666667","25.0150933333333","6500400","永和區"
"234028","746-BX","2018/09/11 13:59:37","新北市永和區民生路47巷23號","121.524563333333","24.9977966666667","6500400","永和區"
"234052","KEA-2590","2018/09/11 13:59:22","新北市永和區竹林路39巷42弄1號","121.520045","25.0151766666667","6500400","永和區"
"234012","KEA-2591","2018/09/11 13:59:23","新北市永和區保順路11號","121.504691666667","25.0098733333333","6500400","永和區"
"234060","AAD-866","2018/09/11 13:59:25","新北市永和區中正路151巷8弄1號","121.515948333333","24.9987033333333","6500400","永和區"
"234040","862-TW","2018/09/11 13:59:32","新北市永和區中和路335巷12號","121.507561666667","25.0002033333333","6500400","永和區"
"234048","863-TW","2018/09/11 13:59:27","新北市永和區保安路151號","121.506945","25.0130633333333","6500400","永和區"
"234025","9371-KE","2018/09/11 13:59:32","新北市永和區自由街38號","121.513941666667","25.00624","6500400","永和區"
"234010","9373-KE","2018/09/11 13:59:22","新北市永和區仁愛路352巷112弄7號","121.500806666667","25.0084283333333","6500400","永和區"
"248017","225-UY","2018/09/11 13:59:21","新北市五股區民義路一段287巷9-2號","121.424361666667","25.091325","6501500","五股區"
"234022","9380-KE","2018/09/11 13:59:23","新北市永和區永和路二段278號","121.516006666667","25.0153083333333","6500400","永和區"
"234076","969-R7","2018/09/11 13:59:39","新北市永和區民族街43巷6號","121.518748333333","24.998435","6500400","永和區"
"234072","AAC-211","2018/09/11 13:59:39","新北市永和區豫溪街155號","121.521315","25.0104283333333","6500400","永和區"
"234066","AAC-212","2018/09/11 13:59:27","新北市永和區永貞路354號","121.510283333333","25.0064033333333","6500400","永和區"
"234001","AAC-295","2018/09/11 13:59:30","新北市永和區福和路310-1號","121.516205","25.007415","6500400","永和區"
"244002","248-BX","2018/09/11 13:59:32","新北市林口區文化二路二段72號","121.37838","25.0805133333333","6501700","林口區"
"231002","002-UM","2018/09/11 13:59:30","新北市新店區中正路603號","121.533826666667","24.9883833333333","6500600","新店區"
"231027","0291-UT","2018/09/11 13:59:35","新北市新店區中興路一段24號","121.538633333333","24.9584466666667","6500600","新店區"
"231028","046-UY","2018/09/11 13:59:26","新北市新店區安和路三段7號","121.518136666667","24.9805666666667","6500600","新店區"
"231001","047-UY","2018/09/11 13:59:31","新北市新店區三民路24號","121.53713","24.9710116666667","6500600","新店區"
"231005","106-UY","2018/09/11 13:59:36","新北市新店區中興路三段216號","121.54364","24.982465","6500600","新店區"
"231010","107-UY","2018/09/11 13:59:27","新北市新店區環河路182-3號","121.534311666667","24.96981","6500600","新店區"
"231020","108-UY","2018/09/11 13:59:21","新北市新店區自強路74巷4號","121.545933333333","24.9249516666667","6500600","新店區"
"231012","187-VK","2018/09/11 13:59:24","新北市新店區中興路二段57巷7號","121.546045","24.9706233333333","6500600","新店區"
"231023","KEA-2219","2018/09/11 13:59:24","新北市新店區文中路45號","121.539538333333","24.9566016666667","6500600","新店區"
"231026","256-BX","2018/09/11 13:59:28","新北市新店區安康路一段156號","121.52626","24.9629866666667","6500600","新店區"
"231003","268-BY","2018/09/11 13:59:29","新北市新店區中興路一段57-1號","121.539985","24.9606216666667","6500600","新店區"
"231018","278-BY","2018/09/11 13:59:25","新北市新店區中央路192號","121.530906666667","24.97481","6500600","新店區"
"231015","AAD-862","2018/09/11 13:59:26","新北市新店區郵政路40號","121.555868333333","24.95154","6500600","新店區"
"231038","3712-VJ","2018/09/11 13:59:29","新北市新店區安華路30巷1號","121.519558333333","24.9592583333333","6500600","新店區"
"231037","4716-K9","2018/09/11 13:59:24","新北市新店區安康路三段359巷10弄1號","121.484405","24.9502583333333","6500600","新店區"
"231025","4715-K9","2018/09/11 13:59:17","新北市新店區中正路328巷42弄14號","121.538583333333","24.9758233333333","6500600","新店區"
"231036","512-UM","2018/09/11 13:59:25","新北市新店區安祥路110巷26號","121.47432","24.9562833333333","6500600","新店區"
"231013","513-UM","2018/09/11 13:59:32","新北市新店區明德路64號","121.541553333333","24.9794216666667","6500600","新店區"
"231006","617-UM","2018/09/11 13:59:22","新北市新店區北宜路二段211號","121.553188333333","24.9534466666667","6500600","新店區"
"231030","619-UM","2018/09/11 13:59:39","新北市新店區安康路一段258號","121.52064","24.9639716666667","6500600","新店區"
"231034","641-BX","2018/09/11 13:59:25","新北市新店區達觀路8巷5號","121.503788333333","24.9438466666667","6500600","新店區"
"231035","719-UM","2018/09/11 13:59:25","新北市新店區安忠路2號","121.514485","24.963525","6500600","新店區"
"231032","720-UM","2018/09/11 13:59:23","新北市新店區華城路36號","121.528445","24.955535","6500600","新店區"
"231029","897-TW","2018/09/11 13:59:28","新北市新店區安和路一段1號","121.516526666667","24.9637783333333","6500600","新店區"
"231004","899-TW","2018/09/11 13:59:36","新北市新店區北新路二段184號","121.542925","24.9763066666667","6500600","新店區"
"231024","AKT-0513","2018/09/11 13:59:31","新北市新店區安興路141號","121.51665","24.9794116666667","6500600","新店區"
"235030","003-UY","2018/09/11 13:59:26","新北市中和區中山路二段131巷5弄14號","121.503256666667","25.00313","6500300","中和區"
"235027","006-UY","2018/09/11 13:59:38","新北市中和區中正路508號","121.488526666667","24.9943933333333","6500300","中和區"
"235020","096-UM","2018/09/11 13:59:21","新北市中和區中正路1224號","121.479543333333","25.0107183333333","6500300","中和區"
"235003","097-UM","2018/09/11 13:59:28","新北市中和區景平路4號","121.524398333333","24.9905233333333","6500300","中和區"
"235029","098-UM","2018/09/11 13:59:26","新北市中和區莊敬路37號","121.500811666667","25.004955","6500300","中和區"
"235004","150-BY","2018/09/11 13:59:29","新北市中和區保健路67巷3弄3號","121.509721666667","24.9973066666667","6500300","中和區"
"235022","151-BY","2018/09/11 13:59:22","新北市中和區員山路86號","121.480886666667","24.994255","6500300","中和區"
"235019","183-VK","2018/09/11 13:59:20","新北市中和區中山路三段218號","121.471321666667","25.006575","6500300","中和區"
"235002","185-VK","2018/09/11 13:59:29","新北市中和區立人街16號","121.519278333333","24.994225","6500300","中和區"
"235013","186-VK","2018/09/11 13:59:35","新北市中和區明仁街4號","121.50588","24.9955083333333","6500300","中和區"
"235031","255-BX","2018/09/11 13:59:35","新北市中和區新生街264號","121.48356","24.99721","6500300","中和區"
"235008","293-VK","2018/09/11 13:59:30","新北市中和區中興街161巷10弄2號","121.501206666667","24.9908683333333","6500300","中和區"
"235036","301-VK","2018/09/11 13:59:29","新北市中和區中山路二段47號","121.504465","25.004985","6500300","中和區"
"235007","352-BY","2018/09/11 13:59:32","新北市中和區成功路1巷4號","121.526483333333","24.994515","6500300","中和區"
"235006","KEA-2878","2018/09/11 13:59:21","新北市中和區自立路141巷36號","121.524061666667","24.993715","6500300","中和區"
"247011","KEA-2869","2018/09/11 13:59:19","新北市蘆洲區民族路150號","121.479468333333","25.0860033333333","6501400","蘆洲區"
"235014","4979-A6","2018/09/11 13:59:25","新北市中和區忠孝街60巷2弄9號","121.511805","24.9834216666667","6500300","中和區"
"235033","4980-A6","2018/09/11 13:59:27","新北市中和區圓通路77號","121.500016666667","24.99689","6500300","中和區"
"235034","558-UM","2018/09/11 13:59:33","新北市中和區中和路212號","121.506008333333","24.9994866666667","6500300","中和區"
"235009","565-BX","2018/09/11 13:59:28","新北市中和區景新街467巷20弄21號","121.514993333333","24.987315","6500300","中和區"
"235018","640-BX","2018/09/11 13:59:28","新北市中和區國光街8巷2號","121.471723333333","25.000315","6500300","中和區"
"235011","732-UM","2018/09/11 13:59:22","新北市中和區興南路二段54巷11弄12號","121.505438333333","24.9852383333333","6500300","中和區"
"235010","733-UM","2018/09/11 13:59:24","新北市中和區興南路一段135巷17號","121.50942","24.98702","6500300","中和區"
"235035","783-BX","2018/09/11 13:59:33","新北市中和區立德街98巷48號","121.488166666667","25.009135","6500300","中和區"
"235026","800-TS","2018/09/11 13:59:34","新北市中和區中山路二段366巷10號","121.491853333333","25.0041933333333","6500300","中和區"
"235021","801-TS","2018/09/11 13:59:24","新北市中和區民利街102號","121.477586666667","24.99778","6500300","中和區"
"235005","802-TS","2018/09/11 13:59:27","新北市中和區永貞路239巷6號","121.51291","25.0035916666667","6500300","中和區"
"235016","805-TS","2018/09/11 13:59:30","新北市中和區興南路二段261巷6號","121.504236666667","24.9803866666667","6500300","中和區"
"235012","896-TW","2018/09/11 13:59:23","新北市中和區華新街69號","121.508118333333","24.984025","6500300","中和區"
"235017","900-TW","2018/09/11 13:59:37","新北市中和區和平路200巷35弄1號","121.465296666667","24.9945833333333","6500300","中和區"
"235024","911-UM","2018/09/11 13:59:26","新北市中和區中山路三段178-1號","121.472655","25.006625","6500300","中和區"
"235015","157-BY","2018/09/11 13:59:24","新北市中和區忠孝街19巷23號","121.509835","24.9842316666667","6500300","中和區"
"235001","AAC-213","2018/09/11 13:59:23","新北市中和區秀朗路三段10巷14弄92號","121.523693333333","24.9966533333333","6500300","中和區"
"235023","AAC-215","2018/09/11 13:59:29","新北市中和區圓通路367巷20弄31號","121.491266666667","24.988045","6500300","中和區"
"220013","072-UY","2018/09/11 13:59:33","新北市板橋區漢生東路342號","121.47179","25.0074033333333","6500100","板橋區"
"220034","073-UY","2018/09/11 13:59:34","新北市板橋區中正路236巷8號","121.456168333333","25.01902","6500100","板橋區"
"220105","075-UY","2018/09/11 13:59:28","新北市板橋區莒光路33號","121.470368333333","25.02454","6500100","板橋區"
"220017","AAD-861","2018/09/11 13:59:25","新北市板橋區華興街68號","121.457416666667","25.0049183333333","6500100","板橋區"
"220039","120-SR","2018/09/11 13:59:33","新北市板橋區四維路177巷4弄22號","121.463391666667","25.0267666666667","6500100","板橋區"
"247015","546-UM","2018/09/11 13:59:35","新北市蘆洲區光華路20號","121.469523333333","25.0833816666667","6501400","蘆洲區"
"247013","339-TH","2018/09/11 13:59:18","新北市蘆洲區中正路102號","121.469826666667","25.0842766666667","6501400","蘆洲區"
"247005","337-TH","2018/09/11 13:59:29","新北市蘆洲區永安南路二段58號","121.465438333333","25.077885","6501400","蘆洲區"
"247007","336-TH","2018/09/11 13:59:34","新北市蘆洲區集賢路271號","121.481061666667","25.0838066666667","6501400","蘆洲區"
"247019","057-VK","2018/09/11 13:59:23","新北市蘆洲區民族路422巷19號","121.47369","25.0930183333333","6501400","蘆洲區"
"247009","056-VK","2018/09/11 13:58:41","新北市蘆洲區中興街55號","121.481436666667","25.0873483333333","6501400","蘆洲區"
"247017","007-UY","2018/09/11 13:59:29","新北市蘆洲區民族路255巷16號","121.476053333333","25.08949","6501400","蘆洲區"
"247003","002-UY","2018/09/11 13:59:30","新北市蘆洲區長榮路63號","121.46238","25.083405","6501400","蘆洲區"
"247021","001-UY","2018/09/11 13:59:25","新北市蘆洲區中正路261號","121.467498333333","25.0874433333333","6501400","蘆洲區"
"228004","212-TW","2018/09/11 13:59:27","新北市貢寮區龍崗里嵩陽街40號","121.906231666667","25.0157583333333","6502600","貢寮區"
"228005","828-UM","2018/09/11 13:52:48","新北市貢寮區美豐里雞母嶺街52號","121.89111","25.066235","6502600","貢寮區"
"207002","749-BX","2018/09/11 13:59:33","新北市萬里區溪底里溪底路8號","121.622433333333","25.14759","6502800","萬里區"
"207001","662-BX","2018/09/11 13:59:36","新北市萬里區磺潭里磺溪12-1號","121.631058333333","25.202365","6502800","萬里區"
"252005","AAC-283","2018/09/11 13:59:25","新北市三芝區橫山里橫山49號","121.534823333333","25.2572733333333","6502100","三芝區"
"236065","105-UM","2018/09/11 13:59:27","新北市土城區金城路一段70號","121.44367","24.972285","6501300","土城區"
"236040","107-UM","2018/09/11 13:59:30","新北市土城區城林路6巷80號","121.438513333333","24.979705","6501300","土城區"
"236074","166-UM","2018/09/11 13:59:34","新北市土城區永寧路32巷10弄23號","121.428866666667","24.9610816666667","6501300","土城區"
"236029","253-BX","2018/09/11 13:59:35","新北市土城區城林路6巷80號","121.438565","24.9798033333333","6501300","土城區"
"236024","269-VK","2018/09/11 13:59:33","新北市土城區中華路二段26號","121.439261666667","24.97821","6501300","土城區"
"236013","270-VK","2018/09/11 13:59:27","新北市土城區城林路6巷80號","121.438573333333","24.9797666666667","6501300","土城區"
"236032","271-VK","2018/09/11 13:59:28","新北市土城區員福街50號","121.44067","24.9790333333333","6501300","土城區"
"236017","401-BY","2018/09/11 13:59:28","新北市土城區城林路6巷80號","121.43854","24.9798483333333","6501300","土城區"
"236006","498-BY","2018/09/11 13:59:30","新北市土城區中央路一段289-2號","121.444191666667","24.9840683333333","6501300","土城區"
"236057","752-BX","2018/09/11 13:59:38","新北市土城區中央路三段260號","121.427166666667","24.9639833333333","6501300","土城區"
"236045","913-UM","2018/09/11 13:59:23","新北市土城區中華路二段32-1號","121.439238333333","24.9780083333333","6501300","土城區"
"236060","915-UM","2018/09/11 13:59:31","新北市土城區城林路6巷80號","121.43842","24.9797866666667","6501300","土城區"
"236054","AAC-216","2018/09/11 13:59:25","新北市土城區城林路6巷80號","121.43858","24.9797833333333","6501300","土城區"
"221032","280-BY","2018/09/11 13:59:25","新北市汐止區汐萬路一段220號","121.651796666667","25.0727116666667","6501100","汐止區"
"220027","145-BY","2018/09/11 13:59:24","新北市板橋區民權路202巷12弄1號","121.460555","25.0156566666667","6500100","板橋區"
"220028","200-UY","2018/09/11 13:59:37","新北市板橋區大觀路二段265巷1弄52號","121.445065","24.997935","6500100","板橋區"
"220030","610-BX","2018/09/11 13:59:30","新北市板橋區滿平街86號","121.427606666667","24.9891166666667","6500100","板橋區"
"220050","245-BX","2018/09/11 13:59:29","新北市板橋區莊敬路103號","121.472565","25.025985","6500100","板橋區"
"220040","267-BY","2018/09/11 13:59:21","新北市板橋區莒光路165巷46號","121.474663333333","25.025285","6500100","板橋區"
"220004","276-BY","2018/09/11 13:59:29","新北市板橋區信義路138號","121.458715","24.992125","6500100","板橋區"
"220020","277-BY","2018/09/11 13:59:25","新北市板橋區溪北路142號","121.430058333333","24.9886066666667","6500100","板橋區"
"220019","283-VK","2018/09/11 13:59:24","新北市板橋區忠孝路154巷1號","121.464066666667","25.0021516666667","6500100","板橋區"
"220043","285-UM","2018/09/11 13:59:36","新北市板橋區文化路二段45號","121.46896","25.0250633333333","6500100","板橋區"
"220001","285-VK","2018/09/11 13:59:21","新北市板橋區中山路二段89巷58號","121.473808333333","25.0173416666667","6500100","板橋區"
"220031","286-VK","2018/09/11 13:59:19","新北市板橋區大觀路一段38巷158號","121.442285","25.00455","6500100","板橋區"
"220029","287-VK","2018/09/11 13:59:36","新北市板橋區光華街44巷2-1號","121.45376","25.012925","6500100","板橋區"
"220009","293-UM","2018/09/11 13:59:22","新北市板橋區懷仁街11號","121.476216666667","25.020095","6500100","板橋區"
"220032","296-UM","2018/09/11 13:59:33","新北市板橋區大觀路三段50巷47號","121.432851666667","24.995865","6500100","板橋區"
"220046","299-UM","2018/09/11 13:59:25","新北市板橋區國光路205號","121.461863333333","25.0185633333333","6500100","板橋區"
"220023","303-R5","2018/09/11 13:59:31","新北市板橋區大智街25巷36號","121.454021666667","25.014925","6500100","板橋區"
"220010","305-R5","2018/09/11 13:59:34","新北市板橋區三民路二段245巷29號","121.480225","25.0126066666667","6500100","板橋區"
"220041","307-R5","2018/09/11 13:59:31","新北市板橋區漢生東路15號","121.464818333333","25.0174483333333","6500100","板橋區"
"220047","317-R6","2018/09/11 13:59:34","新北市板橋區民有街50-2號","121.465721666667","25.025985","6500100","板橋區"
"220012","486-VK","2018/09/11 13:59:16","新北市板橋區縣民大道二段106號","121.466983333333","25.0154333333333","6500100","板橋區"
"220037","491-VK","2018/09/11 13:59:21","新北市板橋區民生路二段210號","121.469573333333","25.0212383333333","6500100","板橋區"
"220104","560-BX","2018/09/11 13:59:25","新北市板橋區中正路375巷27號","121.453826666667","25.0202","6500100","板橋區"
"220052","561-BX","2018/09/11 13:59:24","新北市板橋區介壽街106號","121.47057","25.01815","6500100","板橋區"
"220011","609-BX","2018/09/11 13:59:17","新北市板橋區中山路二段265號","121.477601666667","25.017585","6500100","板橋區"
"220005","686-BX","2018/09/11 13:59:24","新北市板橋區重慶路103號","121.462185","25.0054616666667","6500100","板橋區"
"220025","687-BX","2018/09/11 13:59:39","新北市板橋區大觀路一段38巷2號","121.443593333333","25.0044383333333","6500100","板橋區"
"220042","689-BX","2018/09/11 13:59:31","新北市板橋區民生路三段120-2號","121.466368333333","25.0266716666667","6500100","板橋區"
"220002","741-BX","2018/09/11 13:59:34","新北市板橋區重慶路139巷12號","121.462981666667","25.0045233333333","6500100","板橋區"
"220051","KEA-2699","2018/09/11 13:59:36","新北市板橋區田單街2巷32號","121.481423333333","25.0276366666667","6500100","板橋區"
"220003","827-TW","2018/09/11 13:59:26","新北市板橋區中山路一段158巷27號","121.466631666667","25.0112066666667","6500100","板橋區"
"220014","829-TW","2018/09/11 13:59:37","新北市板橋區三民路二段正隆巷35號","121.477143333333","25.013405","6500100","板橋區"
"220016","830-TW","2018/09/11 13:59:35","新北市板橋區中山路二段465巷64號","121.481215","25.02186","6500100","板橋區"
"220045","831-TW","2018/09/11 13:59:32","新北市板橋區莒光路101號","121.472581666667","25.0241383333333","6500100","板橋區"
"220038","833-TW","2018/09/11 13:59:26","新北市板橋區文化路二段315號","121.472143333333","25.0297816666667","6500100","板橋區"
"220022","895-R6","2018/09/11 13:59:31","新北市板橋區西門街59號","121.454418333333","25.0091666666667","6500100","板橋區"
"220021","985-R7","2018/09/11 13:59:22","新北市板橋區西門街2號","121.455886666667","25.0115383333333","6500100","板橋區"
"220018","AAC-253","2018/09/11 13:59:21","新北市板橋區四川路一段262號","121.459043333333","25.00118","6500100","板橋區"
"235032","KEA-2873","2018/09/11 13:59:38","新北市中和區連勝街8號","121.498896666667","24.9985333333333","6500300","中和區"
"235025","KEA-2875","2018/09/11 13:59:20","新北市中和區自治街1號","121.474878333333","25.003265","6500300","中和區"
