"lineid","car","time","location","longitude","latitude","cityid","cityname"
"234001","149-BY","2018/09/11 14:58:59","新北市八里區中山路三段195號","121.383566666667","25.1408166666667","6500400","永和區"
"234025","9371-KE","2018/09/11 14:58:52","新北市永和區水源街27巷12號","121.511323333333","25.0037883333333","6500400","永和區"
"248017","225-UY","2018/09/11 14:59:01","新北市五股區登林路106巷11號","121.426661666667","25.0715583333333","6501500","五股區"
"244002","248-BX","2018/09/11 14:58:52","新北市林口區竹林路269號","121.38957","25.0809683333333","6501700","林口區"
"231002","002-UM","2018/09/11 14:58:50","新北市新店區民權路56號","121.53872","24.98297","6500600","新店區"
"231028","046-UY","2018/09/11 14:59:06","新北市新店區安康路二段350-3號","121.503313333333","24.957705","6500600","新店區"
"231001","047-UY","2018/09/11 14:58:51","新北市新店區中正路272號","121.538945","24.9736566666667","6500600","新店區"
"231005","106-UY","2018/09/11 14:58:56","新北市新店區復興路66號","121.537786666667","24.9868033333333","6500600","新店區"
"231020","108-UY","2018/09/11 14:59:01","新北市新店區永福路30-1號","121.548601666667","24.9289916666667","6500600","新店區"
"231012","187-VK","2018/09/11 14:59:04","新北市新店區中興路二段252號","121.547393333333","24.9758983333333","6500600","新店區"
"231023","KEA-2219","2018/09/11 14:59:04","新北市新店區檳榔路150號","121.544251666667","24.9616066666667","6500600","新店區"
"231026","256-BX","2018/09/11 14:58:51","新北市新店區博愛街1號","121.540518333333","24.9727066666667","6500600","新店區"
"231003","268-BY","2018/09/11 14:59:08","新北市新店區五峰路57-1號","121.546898333333","24.970795","6500600","新店區"
"231018","278-BY","2018/09/11 14:59:05","新北市新店區中央六街7號","121.530275","24.9745716666667","6500600","新店區"
"231015","AAD-862","2018/09/11 14:59:06","新北市新店區銀河路40號","121.574403333333","24.957455","6500600","新店區"
"231038","3712-VJ","2018/09/11 14:59:09","新北市新店區安華路28-1號","121.519691666667","24.9608583333333","6500600","新店區"
"231037","4716-K9","2018/09/11 14:57:24","新北市新店區柴埕路60巷15-1號","121.508281666667","24.96529","6500600","新店區"
"231025","4715-K9","2018/09/11 14:58:58","新北市新店區大同街30號","121.539038333333","24.98046","6500600","新店區"
"231036","512-UM","2018/09/11 14:59:05","新北市新店區安祥路102巷30弄15號","121.484628333333","24.9635283333333","6500600","新店區"
"231006","617-UM","2018/09/11 14:59:02","新北市新店區新坡一街85號","121.548971666667","24.9645216666667","6500600","新店區"
"231030","619-UM","2018/09/11 14:58:58","新北市新店區安民街341-1號","121.516778333333","24.9749","6500600","新店區"
"231034","641-BX","2018/09/11 14:59:05","新北市新店區玫瑰路4-1號","121.49364","24.9513633333333","6500600","新店區"
"231039","718-UY","2018/09/11 14:59:02","新北市新店區寶中路45-3號","121.545231666667","24.9789166666667","6500600","新店區"
"231035","719-UM","2018/09/11 14:59:05","新北市新店區安業街19號","121.516891666667","24.9777266666667","6500600","新店區"
"231029","897-TW","2018/09/11 14:59:08","新北市新店區錦秀路19號","121.479358333333","24.9444816666667","6500600","新店區"
"231004","899-TW","2018/09/11 14:58:56","新北市新店區民族路56號","121.539926666667","24.978555","6500600","新店區"
"231024","AKT-0513","2018/09/11 14:58:51","新北市新店區中華路83巷15號","121.538695","24.9682016666667","6500600","新店區"
"235030","003-UY","2018/09/11 14:59:06","新北市中和區中山路二段67號","121.504008333333","25.004475","6500300","中和區"
"235020","096-UM","2018/09/11 14:59:06","新北市中和區漢民路406號","121.47218","25.0070016666667","6500300","中和區"
"235003","097-UM","2018/09/11 14:59:08","新北市中和區安樂路217巷54號","121.512876666667","24.9975616666667","6500300","中和區"
"235029","098-UM","2018/09/11 14:59:06","新北市中和區永和路67-1號","121.496538333333","25.005405","6500300","中和區"
"235004","150-BY","2018/09/11 14:58:48","新北市中和區保健路10巷23弄1號","121.507881666667","24.99672","6500300","中和區"
"235008","293-VK","2018/09/11 14:58:50","新北市中和區板南路174號","121.501205","24.9927416666667","6500300","中和區"
"235036","301-VK","2018/09/11 14:59:09","新北市中和區板南路411號","121.492721666667","24.9998366666667","6500300","中和區"
"235007","352-BY","2018/09/11 14:58:52","新北市中和區華新街228號","121.506125","24.9817783333333","6500300","中和區"
"235014","4979-A6","2018/09/11 14:59:05","新北市中和區景平路163號","121.512398333333","24.9924166666667","6500300","中和區"
"235033","4980-A6","2018/09/11 14:59:06","新北市中和區圓通路78號","121.49999","24.9970133333333","6500300","中和區"
"235034","558-UM","2018/09/11 14:58:53","新北市中和區圓通路143號","121.498738333333","24.9957516666667","6500300","中和區"
"235010","733-UM","2018/09/11 14:59:04","新北市中和區興南路一段105巷20弄16號","121.510348333333","24.9855033333333","6500300","中和區"
"235035","783-BX","2018/09/11 14:58:53","新北市中和區建三路38號","121.486008333333","25.0015833333333","6500300","中和區"
"235005","802-TS","2018/09/11 14:59:07","新北市中和區景平路177號","121.511855","24.9924683333333","6500300","中和區"
"235016","805-TS","2018/09/11 14:58:50","新北市中和區忠孝街2-8號","121.509191666667","24.9830116666667","6500300","中和區"
"235012","896-TW","2018/09/11 14:59:03","新北市中和區忠孝街1巷2-1號","121.509218333333","24.9830833333333","6500300","中和區"
"235015","157-BY","2018/09/11 14:59:04","新北市中和區復興路52號","121.504141666667","24.9903283333333","6500300","中和區"
"235001","AAC-213","2018/09/11 14:59:03","新北市中和區自立路99巷6號","121.522428333333","24.994775","6500300","中和區"
"235023","AAC-215","2018/09/11 14:59:09","新北市中和區圓通路365號","121.491336666667","24.989705","6500300","中和區"
"220013","072-UY","2018/09/11 14:59:00","新北市板橋區長安街3號","121.466005","25.00859","6500100","板橋區"
"220105","075-UY","2018/09/11 14:58:48","新北市板橋區文聖街11巷8號","121.475748333333","25.0325783333333","6500100","板橋區"
"220017","AAD-861","2018/09/11 14:59:05","新北市板橋區大明街39-2號","121.457953333333","25.0027716666667","6500100","板橋區"
"220039","120-SR","2018/09/11 14:58:51","新北市板橋區幸福路32巷51號","121.460475","25.0219366666667","6500100","板橋區"
"228004","212-TW","2018/09/11 14:59:07","新北市貢寮區雙玉里田寮洋街24號","121.92895","25.0177383333333","6502600","貢寮區"
"207002","749-BX","2018/09/11 14:58:53","新北市萬里區崁腳里崁腳路73號","121.647573333333","25.1595566666667","6502800","萬里區"
"207001","662-BX","2018/09/11 14:58:55","新北市萬里區雙興里二坪路11號","121.646135","25.1750166666667","6502800","萬里區"
"236065","105-UM","2018/09/11 14:59:07","新北市土城區裕生路90號","121.447186666667","24.9850016666667","6501300","土城區"
"236040","107-UM","2018/09/11 14:59:10","新北市土城區裕民路214巷32號","121.452196666667","24.983375","6501300","土城區"
"236074","166-UM","2018/09/11 14:58:54","新北市土城區中央路四段55-12號","121.418548333333","24.9575","6501300","土城區"
"236029","253-BX","2018/09/11 14:58:55","新北市土城區慶利街17號","121.439251666667","24.9739183333333","6501300","土城區"
"236024","269-VK","2018/09/11 14:58:53","新北市土城區金城路一段129巷33號","121.444905","24.9746466666667","6501300","土城區"
"236013","270-VK","2018/09/11 14:59:07","新北市土城區永豐路25號","121.462875","24.988235","6501300","土城區"
"236032","271-VK","2018/09/11 14:59:08","新北市土城區清水路171號","121.45929","24.981505","6501300","土城區"
"236017","401-BY","2018/09/11 14:58:48","新北市土城區延吉街170號","121.46839","24.9853166666667","6501300","土城區"
"236057","752-BX","2018/09/11 14:59:07","新北市土城區金城路二段248號","121.457","24.983315","6501300","土城區"
"236045","913-UM","2018/09/11 14:59:03","新北市土城區明德路一段365-1號","121.453888333333","24.9795933333333","6501300","土城區"
"236054","AAC-216","2018/09/11 14:59:06","新北市土城區學成路98號","121.450246666667","24.989005","6501300","土城區"
"220027","145-BY","2018/09/11 14:59:04","新北市板橋區南雅西路二段114號","121.45211","25.0122633333333","6500100","板橋區"
"220028","200-UY","2018/09/11 14:58:57","新北市板橋區大觀路二段42號","121.445456666667","25.0008216666667","6500100","板橋區"
"220030","610-BX","2018/09/11 14:59:10","新北市板橋區篤行路一段39號","121.43209","24.9940333333333","6500100","板橋區"
"220050","245-BX","2018/09/11 14:58:55","新北市板橋區莒光路167-4號","121.474355","25.023465","6500100","板橋區"
"220040","267-BY","2018/09/11 14:59:05","新北市板橋區文聖街89巷32號","121.478468333333","25.0304116666667","6500100","板橋區"
"220019","283-VK","2018/09/11 14:59:04","新北市板橋區和平路21號","121.459555","24.995025","6500100","板橋區"
"220043","285-UM","2018/09/11 14:58:55","新北市板橋區陽明街251號","121.462776666667","25.0252983333333","6500100","板橋區"
"220001","285-VK","2018/09/11 14:59:01","新北市板橋區永豐街50-2號","121.474706666667","25.019775","6500100","板橋區"
"220031","286-VK","2018/09/11 14:58:58","新北市板橋區僑中二街48巷12號","121.445838333333","25.0103466666667","6500100","板橋區"
"220029","287-VK","2018/09/11 14:58:56","新北市板橋區僑中一街80巷7弄5號","121.447513333333","25.012785","6500100","板橋區"
"220009","293-UM","2018/09/11 14:58:59","新北市板橋區中山路一段158號","121.465701666667","25.011865","6500100","板橋區"
"220046","299-UM","2018/09/11 14:59:08","新北市板橋區光正街20巷3號","121.462565","25.0176966666667","6500100","板橋區"
"220041","307-R5","2018/09/11 14:58:52","新北市板橋區幸福路60巷55號","121.460035","25.0212933333333","6500100","板橋區"
"220047","317-R6","2018/09/11 14:58:54","新北市板橋區溪頭街2號","121.457351666667","25.0288566666667","6500100","板橋區"
"220012","486-VK","2018/09/11 14:59:02","新北市板橋區區運路37號","121.466276666667","25.0102933333333","6500100","板橋區"
"220037","491-VK","2018/09/11 14:59:02","新北市板橋區大同街71號","121.47945","25.0280916666667","6500100","板橋區"
"220052","561-BX","2018/09/11 14:59:04","新北市板橋區自由路43號","121.465626666667","25.0232633333333","6500100","板橋區"
"220011","609-BX","2018/09/11 14:58:58","新北市板橋區中山路二段385號","121.48013","25.0193266666667","6500100","板橋區"
"220005","686-BX","2018/09/11 14:59:04","新北市板橋區四川路二段113號","121.451573333333","24.994225","6500100","板橋區"
"220025","687-BX","2018/09/11 14:59:02","新北市板橋區僑中一街124巷53號","121.446453333333","25.0155083333333","6500100","板橋區"
"220042","689-BX","2018/09/11 14:59:07","新北市板橋區長江路二段216號","121.46775","25.0323183333333","6500100","板橋區"
"220051","KEA-2699","2018/09/11 14:58:56","新北市板橋區文聖街42號","121.47642","25.0313583333333","6500100","板橋區"
"220003","827-TW","2018/09/11 14:59:07","新北市板橋區仁愛路86巷6號","121.460983333333","24.999285","6500100","板橋區"
"220014","829-TW","2018/09/11 14:59:07","新北市板橋區漢生東路161巷3號","121.469743333333","25.0126516666667","6500100","板橋區"
"220016","830-TW","2018/09/11 14:58:55","新北市板橋區中山路二段320號","121.480818333333","25.0193083333333","6500100","板橋區"
"220045","831-TW","2018/09/11 14:58:53","新北市板橋區莒光路79巷12號","121.472133333333","25.0246083333333","6500100","板橋區"
"220038","833-TW","2018/09/11 14:59:06","新北市板橋區龍泉街55巷42號","121.458071666667","25.024485","6500100","板橋區"
"220021","985-R7","2018/09/11 14:59:01","新北市板橋區南雅西路二段2-1號","121.453095","25.0089783333333","6500100","板橋區"
"220018","AAC-253","2018/09/11 14:59:01","新北市板橋區成都街3號","121.460148333333","25.004805","6500100","板橋區"
"235032","KEA-2873","2018/09/11 14:58:38","新北市中和區永和路39巷2號","121.49803","25.004885","6500300","中和區"
