"lineid","car","time","location","longitude","latitude","cityid","cityname"
"234001","149-BY","2018/09/11 15:18:39","新北市中和區環河西路三段123號","121.489236666667","25.0105183333333","6500400","永和區"
"248017","225-UY","2018/09/11 15:18:21","新北市五股區自強路45號","121.433376666667","25.0737566666667","6501500","五股區"
"231002","002-UM","2018/09/11 15:18:30","新北市新店區中正路700巷3號","121.533735","24.9912716666667","6500600","新店區"
"231028","046-UY","2018/09/11 15:18:36","新北市新店區吉祥街15巷60號","121.499805","24.94516","6500600","新店區"
"231001","047-UY","2018/09/11 15:18:31","新北市新店區北新路一段311號","121.541571666667","24.9679483333333","6500600","新店區"
"231005","106-UY","2018/09/11 15:18:36","新北市新店區民族路47號","121.540325","24.978595","6500600","新店區"
"231020","108-UY","2018/09/11 15:18:21","新北市新店區湖興路128-7號","121.560731666667","24.9303583333333","6500600","新店區"
"231012","187-VK","2018/09/11 15:18:24","新北市新店區中興路三段328號","121.54206","24.9863516666667","6500600","新店區"
"231023","KEA-2219","2018/09/11 15:18:24","新北市新店區北新路一段64巷39弄2號","121.54245","24.9658666666667","6500600","新店區"
"231026","256-BX","2018/09/11 15:18:32","新北市新店區中正路247巷4弄9號","121.538301666667","24.973135","6500600","新店區"
"231003","268-BY","2018/09/11 15:18:29","新北市新店區寶橋路230號","121.551518333333","24.9788216666667","6500600","新店區"
"231018","278-BY","2018/09/11 15:18:41","新北市新店區中央八街88號","121.52684","24.9774","6500600","新店區"
"231015","AAD-862","2018/09/11 15:18:26","新北市新店區明山路45號","121.563456666667","24.9557716666667","6500600","新店區"
"231038","3712-VJ","2018/09/11 15:18:29","新北市新店區安華路28-1號","121.519766666667","24.9607483333333","6500600","新店區"
"231037","4716-K9","2018/09/11 15:18:24","新北市新店區安興路56號","121.516593333333","24.974845","6500600","新店區"
"231025","4715-K9","2018/09/11 15:18:38","新北市新店區環河路105-12號","121.531848333333","24.97002","6500600","新店區"
"231036","512-UM","2018/09/11 15:18:24","新北市新店區安祥路69巷15號","121.481936666667","24.96142","6500600","新店區"
"231006","617-UM","2018/09/11 15:18:22","新北市新店區檳榔路38號","121.541453333333","24.9637633333333","6500600","新店區"
"231030","619-UM","2018/09/11 15:18:39","新北市新店區安民街341-1號","121.516821666667","24.97492","6500600","新店區"
"231034","641-BX","2018/09/11 15:18:29","新北市新店區如意街2巷2號","121.495845","24.9496883333333","6500600","新店區"
"231039","718-UY","2018/09/11 15:18:22","新北市新店區寶元路一段61號","121.542118333333","24.9858583333333","6500600","新店區"
"231035","719-UM","2018/09/11 15:17:45","新北市新店區永平街23巷10號","121.516703333333","24.9830433333333","6500600","新店區"
"231032","720-UM","2018/09/11 15:18:03","新北市新店區安泰路170-2號","121.4888","24.9370533333333","6500600","新店區"
"231029","897-TW","2018/09/11 15:18:28","新北市新店區安康路三段595-1號","121.471766666667","24.9404033333333","6500600","新店區"
"231004","899-TW","2018/09/11 15:18:36","新北市新店區建國路29號","121.540185","24.9740783333333","6500600","新店區"
"231024","AKT-0513","2018/09/11 15:18:31","新北市新店區新明街2號","121.541165","24.96806","6500600","新店區"
"241011","013-R5","2018/09/11 15:18:40","新北市三重區重新路四段121號","121.484711666667","25.0521633333333","6500200","三重區"
"241006","AAD-863","2018/09/11 15:18:37","新北市三重區重新路四段121號","121.484578333333","25.0524616666667","6500200","三重區"
"235030","003-UY","2018/09/11 15:18:26","新北市中和區保平路326巷1號","121.507206666667","25.0042616666667","6500300","中和區"
"235004","150-BY","2018/09/11 15:18:28","新北市中和區景安路79巷21號","121.506966666667","24.9967216666667","6500300","中和區"
"235007","352-BY","2018/09/11 15:18:32","新北市中和區南山路320巷1號","121.507761666667","24.9864283333333","6500300","中和區"
"235014","4979-A6","2018/09/11 15:18:25","新北市中和區景平路464巷2弄1-4號","121.50582","24.9939566666667","6500300","中和區"
"235033","4980-A6","2018/09/11 15:18:27","新北市中和區圓通路198巷2弄2號","121.496238333333","24.9947683333333","6500300","中和區"
"235012","896-TW","2018/09/11 15:18:23","新北市中和區興南路一段58號","121.510865","24.9905016666667","6500300","中和區"
"235001","AAC-213","2018/09/11 15:18:23","新北市新店區安興路81號","121.515576666667","24.9753883333333","6500300","中和區"
"235023","AAC-215","2018/09/11 15:18:29","新北市中和區圓通路435巷2-10號","121.487453333333","24.9866916666667","6500300","中和區"
"220013","072-UY","2018/09/11 15:18:33","新北市板橋區華東街262號","121.452623333333","25.0006983333333","6500100","板橋區"
"220017","AAD-861","2018/09/11 15:18:24","新北市新莊區幸福路914號","121.442381666667","25.0487416666667","6500100","板橋區"
"207002","749-BX","2018/09/11 15:18:33","新北市萬里區崁腳里內中福路29號","121.659911666667","25.1650883333333","6502800","萬里區"
"207001","662-BX","2018/09/11 15:18:36","新北市萬里區大鵬里萬里加投28-1號","121.647958333333","25.2036883333333","6502800","萬里區"
"236065","105-UM","2018/09/11 15:18:27","新北市土城區裕民路185巷36弄10號","121.454355","24.9844633333333","6501300","土城區"
"236040","107-UM","2018/09/11 15:18:30","新北市土城區學成路4號","121.453585","24.9864633333333","6501300","土城區"
"236074","166-UM","2018/09/11 15:18:34","新北市土城區溪頭路58巷2號","121.411995","24.955035","6501300","土城區"
"236029","253-BX","2018/09/11 15:18:35","新北市土城區中央路一段250巷7號","121.443981666667","24.9847233333333","6501300","土城區"
"236024","269-VK","2018/09/11 15:18:33","新北市土城區員林街69號","121.444253333333","24.977235","6501300","土城區"
"236013","270-VK","2018/09/11 15:18:27","新北市土城區學府路一段24巷1號","121.458501666667","24.9883883333333","6501300","土城區"
"236032","271-VK","2018/09/11 15:18:37","新北市土城區國際路139巷6號","121.4685","24.9766366666667","6501300","土城區"
"236017","401-BY","2018/09/11 15:18:28","新北市土城區峰廷街8號","121.468683333333","24.98774","6501300","土城區"
"236057","752-BX","2018/09/11 15:18:38","新北市土城區中央路二段388號","121.439765","24.9711516666667","6501300","土城區"
"236045","913-UM","2018/09/11 15:18:23","新北市土城區明德路一段109號","121.465598333333","24.9822333333333","6501300","土城區"
"236060","915-UM","2018/09/11 15:18:31","新北市土城區延和路191-1號","121.469278333333","24.990225","6501300","土城區"
"236054","AAC-216","2018/09/11 15:18:25","新北市土城區學府路一段83號","121.456598333333","24.98809","6501300","土城區"
"220050","245-BX","2018/09/11 15:18:29","新北市板橋區漢生東路83巷1號","121.46646","25.016015","6500100","板橋區"
"220031","286-VK","2018/09/11 15:18:38","新北市板橋區僑中二街102巷40號","121.444615","25.008475","6500100","板橋區"
"220052","561-BX","2018/09/11 15:18:24","新北市板橋區漢生西路77-1號","121.462881666667","25.0190116666667","6500100","板橋區"
"220011","609-BX","2018/09/11 15:18:18","新北市板橋區民生路二段171號","121.469685","25.0200933333333","6500100","板橋區"
"220042","689-BX","2018/09/11 15:18:27","新北市板橋區長江路二段126號","121.465725","25.0316716666667","6500100","板橋區"
"220051","KEA-2699","2018/09/11 15:18:36","新北市板橋區文化路一段112號","121.464798333333","25.0183633333333","6500100","板橋區"
"220038","833-TW","2018/09/11 15:18:31","新北市板橋區四維路156號","121.464868333333","25.0258683333333","6500100","板橋區"
"220018","AAC-253","2018/09/11 15:18:21","新北市板橋區南雅南路二段144巷21號","121.450888333333","24.9956583333333","6500100","板橋區"
