"lineid","car","time","location","longitude","latitude","cityid","cityname"
"234001","149-BY","2018/09/11 15:28:32","新北市永和區環河西路二段179號","121.504045","25.0126583333333","6500400","永和區"
"231002","002-UM","2018/09/11 15:28:30","新北市新店區環河路152號","121.535411666667","24.9662766666667","6500600","新店區"
"231028","046-UY","2018/09/11 15:28:26","新北市新店區僑信路110號","121.500123333333","24.946915","6500600","新店區"
"231005","106-UY","2018/09/11 15:28:36","新北市新店區建國路293巷1號","121.536733333333","24.9861816666667","6500600","新店區"
"231020","108-UY","2018/09/11 15:28:21","新北市新店區湖興路109號","121.560268333333","24.9355933333333","6500600","新店區"
"231012","187-VK","2018/09/11 15:28:24","新北市新店區寶元路一段52號","121.543931666667","24.984705","6500600","新店區"
"231023","KEA-2219","2018/09/11 15:28:24","新北市新店區北新路一段339號","121.541953333333","24.968745","6500600","新店區"
"231026","256-BX","2018/09/11 15:28:32","新北市新店區三民路117巷7弄1號","121.534136666667","24.971075","6500600","新店區"
"231003","268-BY","2018/09/11 15:28:29","新北市新店區寶高路120巷1號","121.554588333333","24.976115","6500600","新店區"
"231018","278-BY","2018/09/11 15:28:25","新北市新店區民生路126號","121.52978","24.9822816666667","6500600","新店區"
"231015","AAD-862","2018/09/11 15:28:26","新北市新店區明山路45號","121.56348","24.9557783333333","6500600","新店區"
"231038","3712-VJ","2018/09/11 15:28:29","新北市新店區安華路28-1號","121.519845","24.9606633333333","6500600","新店區"
"231037","4716-K9","2018/09/11 15:28:24","新北市新店區安興路91巷71號","121.511888333333","24.9744883333333","6500600","新店區"
"231025","4715-K9","2018/09/11 15:28:18","新北市新店區安康路二段5號","121.515178333333","24.96371","6500600","新店區"
"231036","512-UM","2018/09/11 15:28:25","新北市新店區安祥路67巷50弄2號","121.484831666667","24.95904","6500600","新店區"
"231030","619-UM","2018/09/11 15:28:25","新北市新店區新和街41號","121.519343333333","24.985085","6500600","新店區"
"231034","641-BX","2018/09/11 15:28:25","新北市新店區富貴街6巷2號","121.494615","24.950165","6500600","新店區"
"231039","718-UY","2018/09/11 15:28:22","新北市新店區寶元路一段85巷4號","121.543075","24.9857633333333","6500600","新店區"
"231035","719-UM","2018/09/11 15:28:25","新北市新店區安興路83號","121.515223333333","24.9754033333333","6500600","新店區"
"231032","720-UM","2018/09/11 15:28:23","新北市新店區和成街19巷22號","121.487625","24.9460533333333","6500600","新店區"
"231029","897-TW","2018/09/11 15:28:28","新北市新店區安康路三段527號","121.482443333333","24.9471766666667","6500600","新店區"
"231004","899-TW","2018/09/11 15:28:36","新北市新店區中正路334巷17號","121.537041666667","24.9758","6500600","新店區"
"231024","AKT-0513","2018/09/11 15:28:31","新北市新店區安光路10-1號","121.51356","24.9642133333333","6500600","新店區"
"241011","013-R5","2018/09/11 15:28:20","新北市三重區竹圍(仔)街17-5號","121.487113333333","25.0474216666667","6500200","三重區"
"241028","022-UY","2018/09/11 15:28:32","新北市三重區重新路四段121號","121.48462","25.0523483333333","6500200","三重區"
"241015","062-VK","2018/09/11 15:28:38","新北市三重區重新路四段121號","121.484775","25.0525033333333","6500200","三重區"
"241017","063-VK","2018/09/11 15:28:38","新北市三重區重新路四段146號","121.486371666667","25.05636","6500200","三重區"
"241018","268-UM","2018/09/11 15:28:29","新北市三重區重新路四段121號","121.484751666667","25.052725","6500200","三重區"
"241013","270-UM","2018/09/11 15:28:37","新北市三重區忠孝路三段126號","121.479841666667","25.0628083333333","6500200","三重區"
"241006","AAD-863","2018/09/11 15:28:17","新北市三重區重新路四段121號","121.484568333333","25.0522833333333","6500200","三重區"
"241033","AAC-255","2018/09/11 15:28:21","新北市三重區成功路92號","121.487915","25.0513833333333","6500200","三重區"
"235030","003-UY","2018/09/11 15:28:26","新北市中和區光華街69號","121.506658333333","25.002835","6500300","中和區"
"235007","352-BY","2018/09/11 15:28:32","新北市中和區連城路263巷26號","121.492668333333","24.9941533333333","6500300","中和區"
"235014","4979-A6","2018/09/11 15:28:25","新北市中和區南華路32號","121.503423333333","24.9962133333333","6500300","中和區"
"235033","4980-A6","2018/09/11 15:28:27","新北市中和區連城路347巷16弄11號","121.48813","24.9948516666667","6500300","中和區"
"235046","733-UM","2018/09/11 15:23:52","新北市中和區員山路36巷13號","121.484168333333","24.9909116666667","6500300","中和區"
"235023","AAC-215","2018/09/11 15:28:34","新北市中和區員山路28-5號","121.482165","24.9869133333333","6500300","中和區"
"220017","AAD-861","2018/09/11 15:28:24","新北市五股區孝義路9-17號","121.44915","25.106995","6500100","板橋區"
"236065","105-UM","2018/09/11 15:28:27","新北市土城區中央路二段192巷5號","121.441251666667","24.9759466666667","6501300","土城區"
"236040","107-UM","2018/09/11 15:28:30","新北市土城區學成路4號","121.453566666667","24.9864066666667","6501300","土城區"
"236074","166-UM","2018/09/11 15:28:34","新北市土城區龍泉路13號","121.41024","24.9490633333333","6501300","土城區"
"236029","253-BX","2018/09/11 15:28:35","新北市土城區日新街8巷2號","121.445335","24.98718","6501300","土城區"
"236024","269-VK","2018/09/11 15:28:33","新北市土城區裕生路102巷18號","121.446405","24.9847916666667","6501300","土城區"
"236013","270-VK","2018/09/11 15:28:27","新北市土城區廣明街14號","121.455881666667","24.9920766666667","6501300","土城區"
"236032","271-VK","2018/09/11 15:28:28","新北市土城區延吉街355號","121.464535","24.9840216666667","6501300","土城區"
"236017","401-BY","2018/09/11 15:28:37","新北市土城區延吉街137巷2弄2號","121.470703333333","24.98611","6501300","土城區"
"236057","752-BX","2018/09/11 15:28:38","新北市土城區中央路二段16-3號","121.442928333333","24.9805766666667","6501300","土城區"
"236045","913-UM","2018/09/11 15:28:36","新北市土城區金城路二段374號","121.46295","24.9854483333333","6501300","土城區"
"236060","915-UM","2018/09/11 15:28:31","新北市土城區立德路107號","121.463846666667","24.987655","6501300","土城區"
"236054","AAC-216","2018/09/11 15:28:29","新北市土城區延和路252號","121.469881666667","24.989645","6501300","土城區"
"220050","245-BX","2018/09/11 15:28:29","新北市板橋區民生路二段56-6號","121.471101666667","25.0190666666667","6500100","板橋區"
"220031","286-VK","2018/09/11 15:28:38","新北市板橋區僑中二街108巷4-3號","121.445645","25.0073566666667","6500100","板橋區"
"220052","561-BX","2018/09/11 15:28:25","新北市板橋區漢生東路33巷8號","121.465661666667","25.0172133333333","6500100","板橋區"
"220042","689-BX","2018/09/11 15:28:27","新北市板橋區長江路一段112號","121.459825","25.0296516666667","6500100","板橋區"
"220051","KEA-2699","2018/09/11 15:28:36","新北市板橋區文化路一段322-1號","121.46804","25.0225083333333","6500100","板橋區"
"220038","833-TW","2018/09/11 15:28:26","新北市板橋區四維路296號","121.462745","25.0293166666667","6500100","板橋區"
