"lineid","car","time","location","longitude","latitude","cityid","cityname"
"234001","149-BY","2018/09/11 16:39:34","新北市永和區福和路1號","121.526466666667","25.0098216666667","6500400","永和區"
"249005","172-UM","2018/09/11 16:39:37","新北市八里區忠孝路201號","121.422105","25.1609116666667","6502300","八里區"
"249003","593-UM","2018/09/11 16:39:42","新北市八里區中山路一段2號","121.423451666667","25.15889","6502300","八里區"
"231046","107-UY","2018/09/11 16:39:27","新北市新店區灣潭路15-2號","121.542653333333","24.9436433333333","6500600","新店區"
"241011","013-R5","2018/09/11 16:39:20","新北市三重區仁愛街45號","121.496695","25.071675","6500200","三重區"
"241028","022-UY","2018/09/11 16:39:32","新北市三重區重新路三段80號","121.493173333333","25.0610433333333","6500200","三重區"
"241008","059-VK","2018/09/11 16:39:30","新北市三重區永安北路一段27巷10號","121.477008333333","25.0755733333333","6500200","三重區"
"241022","060-VK","2018/09/11 16:39:23","新北市三重區三民街88號","121.485525","25.0629366666667","6500200","三重區"
"241031","061-VK","2018/09/11 16:39:19","新北市三重區重新路四段41巷24號","121.487405","25.058195","6500200","三重區"
"241015","062-VK","2018/09/11 16:39:38","新北市三重區文化北路37-2號","121.498945","25.0651416666667","6500200","三重區"
"241017","063-VK","2018/09/11 16:39:38","新北市三重區中正北路25巷9號","121.492625","25.0621583333333","6500200","三重區"
"241024","065-VK","2018/09/11 16:39:32","新北市三重區中正北路315巷6弄38號","121.476665","25.072385","6500200","三重區"
"241026","066-VK","2018/09/11 16:39:39","新北市三重區和平街34號","121.501795","25.06265","6500200","三重區"
"241002","090-VK","2018/09/11 16:39:36","新北市三重區仁義街241巷28號","121.496935","25.08306","6500200","三重區"
"241003","091-VK","2018/09/11 16:39:27","新北市三重區五華街87巷18號","121.492568333333","25.08373","6500200","三重區"
"241009","265-UM","2018/09/11 16:39:22","新北市三重區三和路四段203巷114號","121.485156666667","25.0803683333333","6500200","三重區"
"241016","266-UM","2018/09/11 16:39:29","新北市三重區大智街24號","121.494733333333","25.0648233333333","6500200","三重區"
"241029","267-UM","2018/09/11 16:39:31","新北市三重區集美街112巷13號","121.48945","25.0541316666667","6500200","三重區"
"241018","268-UM","2018/09/11 16:39:29","新北市三重區六張街71號","121.49358","25.0701633333333","6500200","三重區"
"241032","269-UM","2018/09/11 16:39:33","新北市三重區中山路40巷1-1號","121.485991666667","25.0612666666667","6500200","三重區"
"241013","270-UM","2018/09/11 16:39:37","新北市三重區仁愛街75號","121.496181666667","25.0730066666667","6500200","三重區"
"241025","271-UM","2018/09/11 16:39:30","新北市三重區中正北路428巷14號","121.474576666667","25.0703033333333","6500200","三重區"
"241007","398-BY","2018/09/11 16:39:41","新北市三重區仁美街84號","121.485975","25.0796483333333","6500200","三重區"
"241004","475-VK","2018/09/11 16:39:24","新北市三重區五福街21號","121.492485","25.081445","6500200","三重區"
"241020","478-VK","2018/09/11 16:39:25","新北市三重區車路頭街53號","121.483986666667","25.072275","6500200","三重區"
"241030","480-VK","2018/09/11 16:39:36","新北市三重區成功路50巷31號","121.488316666667","25.0496466666667","6500200","三重區"
"241014","543-UM","2018/09/11 16:39:29","新北市三重區龍濱路37號","121.50283","25.0683216666667","6500200","三重區"
"241023","545-UM","2018/09/11 16:39:26","新北市三重區忠孝路三段50巷47號","121.48294","25.0644733333333","6500200","三重區"
"241001","547-UM","2018/09/11 16:39:34","新北市三重區仁愛街264巷9號","121.4927","25.078175","6500200","三重區"
"241019","KEA-2593","2018/09/11 16:39:30","新北市三重區力行路一段81號","121.48679","25.0677116666667","6500200","三重區"
"241006","AAD-863","2018/09/11 16:39:37","新北市三重區車路頭街136巷1號","121.483466666667","25.075465","6500200","三重區"
"241005","887-TS","2018/09/11 16:39:37","新北市三重區仁華街122號","121.486188333333","25.083155","6500200","三重區"
"241012","941-UM","2018/09/11 16:39:32","新北市三重區仁興街4巷23號","121.499328333333","25.073745","6500200","三重區"
"241033","AAC-255","2018/09/11 16:39:21","新北市三重區光復路二段74號","121.472191666667","25.0564483333333","6500200","三重區"
"247012","KEA-2869","2018/09/11 16:39:31","新北市五股區中興路三段163號","121.449233333333","25.080775","6501400","蘆洲區"
"235026","800-TS","2018/09/11 16:39:33","新北市中和區連城路220號","121.491333333333","24.996495","6500300","中和區"
"247008","336-TH","2018/09/11 16:39:33","新北市五股區工商路8號","121.44084","25.0825183333333","6501400","蘆洲區"
"247010","056-VK","2018/09/11 16:39:20","新北市五股區中興路三段163號","121.449365","25.0802566666667","6501400","蘆洲區"
"247022","001-UY","2018/09/11 16:39:20","新北市五股區中興路三段2巷10號","121.44942","25.0808683333333","6501400","蘆洲區"
"228002","663-BX","2018/09/11 16:39:36","新北市貢寮區貢寮里朝陽街42號","121.910873333333","25.02164","6502600","貢寮區"
"224007","275-VK","2018/09/11 16:39:37","新北市瑞芳區月眉路24號","121.760575","25.107825","6501200","瑞芳區"
"224005","271-BY","2018/09/11 16:39:23","新北市瑞芳區海濱路3巷2-9號","121.843283333333","25.1266916666667","6501200","瑞芳區"
"227009","642-TC","2018/09/11 16:39:26","新北市雙溪區牡丹里中正路69號","121.864548333333","25.0440616666667","6502500","雙溪區"
"227003","400-TW","2018/09/11 16:39:36","新北市雙溪區外柑里外柑腳51號","121.808245","25.0179383333333","6502500","雙溪區"
"251013","KEA-2871","2018/09/11 16:39:36","新北市淡水區楓樹湖3-3號","121.496545","25.1865216666667","6501000","淡水區"
"251016","179-VK","2018/09/11 16:39:37","新北市淡水區中山北路一段257號","121.444243333333","25.180805","6501000","淡水區"
"251014","180-VK","2018/09/11 16:39:34","新北市淡水區淡金路三段344號","121.44925","25.208755","6501000","淡水區"
"251008","443-VK","2018/09/11 16:39:24","台北市北投區中央北路四段30巷150-3號","121.473546666667","25.1398366666667","6501000","淡水區"
"252002","178-VK","2018/09/11 16:39:15","新北市三芝區觀海街2號","121.510198333333","25.2581766666667","6502100","三芝區"
"238025","303-VK","2018/09/11 16:39:33","新北市樹林區中山路三段198號","121.387453333333","24.9686133333333","6500700","樹林區"
