"lineid","car","time","location","longitude","latitude","cityid","cityname"
"234046","148-BY","2018/09/11 18:48:30","新北市永和區秀朗路二段151號","121.524871666667","25.0016333333333","6500400","永和區"
"234007","207-UY","2018/09/11 18:48:27","新北市永和區文化路123號","121.512166666667","25.01531","6500400","永和區"
"234081","298-R6","2018/09/11 18:48:41","新北市永和區永利路85-1號","121.521406666667","25.0032933333333","6500400","永和區"
"234038","336-UY","2018/09/11 18:48:41","新北市永和區環河東路三段58號","121.526898333333","25.00607","6500400","永和區"
"234086","338-UY","2018/09/11 18:48:36","新北市永和區中正路50號","121.513095","24.9945566666667","6500400","永和區"
"234070","552-UM","2018/09/11 18:48:31","新北市永和區環河東路二段90號","121.524423333333","25.0106766666667","6500400","永和區"
"234017","745-BX","2018/09/11 18:48:38","新北市永和區永和路二段405巷6號","121.51525","25.017455","6500400","永和區"
"234030","746-BX","2018/09/11 18:48:28","新北市永和區得和路321號","121.523361666667","24.99958","6500400","永和區"
"234054","KEA-2590","2018/09/11 18:48:28","新北市永和區環河東路二段102號","121.524565","25.01052","6500400","永和區"
"234013","KEA-2591","2018/09/11 18:48:24","新北市永和區保福路二段133巷2號","121.509535","25.0138366666667","6500400","永和區"
"234061","AAD-866","2018/09/11 18:48:25","新北市永和區福和路135號","121.521251666667","25.00777","6500400","永和區"
"234042","862-TW","2018/09/11 18:48:32","新北市永和區永貞路267號","121.511861666667","25.0047816666667","6500400","永和區"
"234050","863-TW","2018/09/11 18:48:34","新北市永和區豫溪街217巷3號","121.525203333333","25.0098466666667","6500400","永和區"
"234026","9371-KE","2018/09/11 18:48:32","新北市永和區自由街58號","121.513803333333","25.0059333333333","6500400","永和區"
"234011","9373-KE","2018/09/11 18:48:41","新北市永和區文化路124號","121.513063333333","25.0154433333333","6500400","永和區"
"249005","172-UM","2018/09/11 18:48:36","新北市八里區長道坑7-3號","121.393015","25.1242133333333","6502300","八里區"
"249001","173-UM","2018/09/11 18:48:35","新北市八里區龍米路二段16號","121.448996666667","25.1391433333333","6502300","八里區"
"249003","593-UM","2018/09/11 18:38:45","新北市八里區博物館路10-1號","121.41508","25.1640383333333","6502300","八里區"
"248006","077-UY","2018/09/11 18:48:34","新北市五股區中興路二段9巷33號","121.463606666667","25.0717916666667","6501500","五股區"
"248008","095-VK","2018/09/11 18:48:39","新北市五股區中興路一段151巷27號","121.46524","25.07233","6501500","五股區"
"248020","225-UY","2018/09/11 18:43:50","新北市五股區孝義路87號","121.444211666667","25.119855","6501500","五股區"
"248012","247-BX","2018/09/11 18:48:33","新北市五股區工商路50號","121.439146666667","25.0840283333333","6501500","五股區"
"248016","261-SL","2018/09/11 18:48:41","新北市五股區凌雲路一段149巷42號","121.44859","25.1009333333333","6501500","五股區"
"248010","272-BY","2018/09/11 18:48:36","新北市五股區水碓七路81號","121.429736666667","25.072215","6501500","五股區"
"248004","677-BX","2018/09/11 18:48:09","新北市五股區民義路二段16號","121.420881666667","25.0964566666667","6501500","五股區"
"248002","678-BX","2018/09/11 18:48:39","新北市五股區成泰路三段350號","121.450668333333","25.0988083333333","6501500","五股區"
"234023","9380-KE","2018/09/11 18:48:27","新北市永和區竹林路119巷45號","121.521876666667","25.0118383333333","6500400","永和區"
"234077","969-R7","2018/09/11 18:48:27","新北市永和區中正路3-1號","121.513938333333","24.9954883333333","6500400","永和區"
"234067","AAC-212","2018/09/11 18:48:28","新北市永和區中和路625號","121.513016666667","25.0049083333333","6500400","永和區"
"234003","AAC-295","2018/09/11 18:48:25","新北市永和區中正路659號","121.514701666667","25.0101716666667","6500400","永和區"
"232011","375-UM","2018/09/11 18:48:35","新北市坪林區坪林街39號","121.711631666667","24.9371166666667","6502000","坪林區"
"244023","069-UM","2018/09/11 18:48:27","新北市林口區文化一路二段2號","121.380208333333","25.0763616666667","6501700","林口區"
"244007","080-UY","2018/09/11 18:48:30","新北市林口區太平里5-15號","121.380526666667","25.1139466666667","6501700","林口區"
"244019","403-UM","2018/09/11 18:48:35","新北市林口區麗園二街85號","121.382401666667","25.0674466666667","6501700","林口區"
"244013","KEA-2802","2018/09/11 18:48:38","新北市林口區文化一路一段122號","121.374635","25.0716233333333","6501700","林口區"
"244017","485-VK","2018/09/11 18:48:35","新北市林口區文化二路一段102號","121.367086666667","25.0704616666667","6501700","林口區"
"244009","656-BX","2018/09/11 18:48:37","新北市林口區竹林路326巷82號","121.392733333333","25.0824983333333","6501700","林口區"
"244011","657-BX","2018/09/11 18:48:27","新北市林口區中正路57巷10號","121.395278333333","25.0766983333333","6501700","林口區"
"244025","837-TS","2018/09/11 18:48:35","新北市林口區南勢街149號","121.360016666667","25.0747666666667","6501700","林口區"
"244021","838-TS","2018/09/11 18:48:23","新北市林口區工六路86號","121.400648333333","25.0769766666667","6501700","林口區"
"243013","AAD-798","2018/09/11 18:32:00","新北市泰山區明志路三段206巷3號","121.423313333333","25.0379516666667","6501600","泰山區"
"243016","KEA-2801","2018/09/11 18:48:35","新北市泰山區明志路一段350號","121.430683333333","25.058415","6501600","泰山區"
"243015","421-VK","2018/09/11 18:48:31","新北市泰山區泰林路二段469號","121.425321666667","25.0640266666667","6501600","泰山區"
"243012","646-TV","2018/09/11 18:48:29","新北市泰山區泰林路二段73巷25號","121.434445","25.0579383333333","6501600","泰山區"
"222003","436-BY","2018/09/11 18:48:30","新北市深坑區深南路49號","121.62136","25.009435","6501800","深坑區"
"222002","659-BX","2018/09/11 18:48:41","新北市深坑區文山路一段69號","121.626995","25.0019183333333","6501800","深坑區"
"231041","002-UM","2018/09/11 18:48:37","新北市新店區安華路28-1號","121.519686666667","24.9608266666667","6500600","新店區"
"231059","046-UY","2018/09/11 18:48:25","新北市新店區安華路28-1號","121.519525","24.9607816666667","6500600","新店區"
"231040","047-UY","2018/09/11 18:48:31","新北市新店區環河路100號","121.536975","24.964025","6500600","新店區"
"231044","106-UY","2018/09/11 18:48:29","新北市新店區寶中路47-3號","121.545771666667","24.9793766666667","6500600","新店區"
"231046","107-UY","2018/09/11 18:48:27","新北市新店區直潭二街1號","121.535268333333","24.94304","6500600","新店區"
"231053","108-UY","2018/09/11 18:48:37","新北市新店區永興路21號","121.544375","24.9388633333333","6500600","新店區"
"231048","187-VK","2018/09/11 18:48:42","新北市新店區環河路1-5號","121.538286666667","24.9616483333333","6500600","新店區"
"231054","KEA-2219","2018/09/11 18:48:28","新北市新店區安康路一段132號","121.526716666667","24.96284","6500600","新店區"
"231042","268-BY","2018/09/11 18:48:34","新北市新店區環河路1-2號","121.538183333333","24.9615416666667","6500600","新店區"
"231051","278-BY","2018/09/11 18:48:35","新北市新店區中央路65號","121.532655","24.9769583333333","6500600","新店區"
"231050","AAD-862","2018/09/11 18:48:30","新北市新店區安康路一段52巷2號","121.53015","24.9611383333333","6500600","新店區"
"231058","3713-VJ","2018/09/11 18:48:42","新北市新店區北宜路一段97號","121.53928","24.9555483333333","6500600","新店區"
"231066","4716-K9","2018/09/11 18:48:28","新北市新店區安一路一段1-1號","121.519305","24.9611216666667","6500600","新店區"
"231056","4715-K9","2018/09/11 18:48:39","新北市新店區建國路216-1號","121.538246666667","24.9811366666667","6500600","新店區"
"231067","4772-VM","2018/09/11 18:48:36","新北市新店區安華路28-1號","121.519405","24.960635","6500600","新店區"
"231065","512-UM","2018/09/11 18:48:30","新北市新店區安一路一段1-1號","121.519603333333","24.9611333333333","6500600","新店區"
"231049","513-UM","2018/09/11 18:48:35","新北市新店區環河路100號","121.536986666667","24.9640733333333","6500600","新店區"
"231045","617-UM","2018/09/11 18:48:29","新北市新店區安康路一段355號","121.519931666667","24.9635616666667","6500600","新店區"
"231061","619-UM","2018/09/11 18:48:38","新北市新店區安華路28-1號","121.519708333333","24.9609433333333","6500600","新店區"
"231063","641-BX","2018/09/11 18:48:37","新北市新店區安華路28-1號","121.519511666667","24.960585","6500600","新店區"
"231064","719-UM","2018/09/11 18:48:24","新北市新店區安一路一段1-1號","121.519501666667","24.9611933333333","6500600","新店區"
"231062","720-UM","2018/09/11 18:48:41","新北市新店區安一路一段1-1號","121.519211666667","24.9614133333333","6500600","新店區"
"231060","897-TW","2018/09/11 18:48:22","新北市新店區安華路28-1號","121.519536666667","24.9605933333333","6500600","新店區"
"231043","899-TW","2018/09/11 18:48:33","新北市新店區安一路一段1-1號","121.519645","24.9614733333333","6500600","新店區"
"231055","AKT-0513","2018/09/11 18:48:32","新北市新店區北新路一段271巷3號","121.540638333333","24.9666766666667","6500600","新店區"
"235066","003-UY","2018/09/11 18:48:30","新北市中和區水源路7巷29號","121.504111666667","25.0039566666667","6500300","中和區"
"235063","006-UY","2018/09/11 18:48:33","新北市中和區連城路399號","121.486298333333","24.99615","6500300","中和區"
"235056","096-UM","2018/09/11 18:48:27","新北市中和區員山路611巷1號","121.477881666667","25.0112033333333","6500300","中和區"
"235039","097-UM","2018/09/11 18:48:37","新北市中和區宜安路32-1號","121.513","24.9962966666667","6500300","中和區"
"235065","098-UM","2018/09/11 18:48:26","新北市中和區中山路二段2巷43號","121.502505","25.0070633333333","6500300","中和區"
"235040","150-BY","2018/09/11 18:48:36","新北市中和區保健路106巷73號","121.511295","24.9946116666667","6500300","中和區"
"235058","151-BY","2018/09/11 18:48:30","新北市中和區連城路607號","121.477945","24.9931466666667","6500300","中和區"
"235055","183-VK","2018/09/11 18:48:43","新北市中和區民生街42號","121.46962","25.005195","6500300","中和區"
"235038","185-VK","2018/09/11 18:48:35","新北市中和區大仁街38號","121.517818333333","24.9938933333333","6500300","中和區"
"235049","186-VK","2018/09/11 18:48:38","新北市中和區景安路157號","121.505315","24.9948416666667","6500300","中和區"
"235067","255-BX","2018/09/11 18:48:40","新北市中和區中正路832號","121.484676666667","25.004135","6500300","中和區"
"235008","293-VK","2018/09/11 18:48:30","新北市中和區中興街117號","121.49993","24.9920483333333","6500300","中和區"
"235072","301-VK","2018/09/11 18:48:25","新北市永和區保生路2號","121.506956666667","25.0072116666667","6500300","中和區"
"235043","352-BY","2018/09/11 18:48:35","新北市中和區景平路3號","121.523733333333","24.990365","6500300","中和區"
"235042","KEA-2878","2018/09/11 18:48:33","新北市中和區秀朗路三段70巷54號","121.52482","24.9943116666667","6500300","中和區"
"235050","4979-A6","2018/09/11 18:48:17","新北市中和區景新街496巷33弄2號","121.51345","24.9858216666667","6500300","中和區"
"235069","4980-A6","2018/09/11 18:48:35","新北市中和區中和路77號","121.500826666667","25.00085","6500300","中和區"
"235070","558-UM","2018/09/11 18:48:41","新北市中和區南山路14號","121.502055","24.9984916666667","6500300","中和區"
"235045","565-BX","2018/09/11 18:48:31","新北市中和區捷運路189號","121.505315","24.9913733333333","6500300","中和區"
"235054","640-BX","2018/09/11 18:48:37","新北市中和區民享街68巷4號","121.473845","25.0016666666667","6500300","中和區"
"235047","732-UM","2018/09/11 18:48:36","新北市中和區興南路二段34巷75號","121.505053333333","24.9849616666667","6500300","中和區"
"235046","733-UM","2018/09/11 18:48:41","新北市中和區仁愛街36巷42號","121.511345","24.98638","6500300","中和區"
"235062","800-TS","2018/09/11 18:48:30","新北市中和區中山路二段312巷16號","121.49524","25.003875","6500300","中和區"
"235057","801-TS","2018/09/11 18:48:43","新北市中和區民安街22巷25號","121.479456666667","25.00152","6500300","中和區"
"235041","802-TS","2018/09/11 18:48:29","新北市中和區宜安路118巷26號","121.511111666667","24.998915","6500300","中和區"
"235052","805-TS","2018/09/11 18:48:40","新北市中和區興南路三段25號","121.496886666667","24.9786616666667","6500300","中和區"
"235048","896-TW","2018/09/11 18:48:39","新北市中和區南山路290號","121.507908333333","24.9874233333333","6500300","中和區"
"235053","900-TW","2018/09/11 18:48:31","新北市中和區華福街40號","121.466411666667","24.9965833333333","6500300","中和區"
"235060","911-UM","2018/09/11 18:48:29","新北市中和區中山路三段209號","121.47187","25.00631","6500300","中和區"
"235051","157-BY","2018/09/11 18:48:33","新北市中和區華新街109巷22號","121.508405","24.9807533333333","6500300","中和區"
"235037","AAC-213","2018/09/11 18:48:38","新北市中和區秀朗路三段128巷2號","121.524711666667","24.9923916666667","6500300","中和區"
"235059","AAC-215","2018/09/11 18:48:41","新北市中和區圓通路385號","121.490201666667","24.9892766666667","6500300","中和區"
"220065","072-UY","2018/09/11 18:48:41","新北市板橋區海山路45號","121.467035","25.01004","6500100","板橋區"
"220086","073-UY","2018/09/11 18:48:22","新北市板橋區大智街71巷9號","121.453035","25.01441","6500100","板橋區"
"220106","075-UY","2018/09/11 18:48:33","新北市板橋區民生路二段161巷9號","121.470308333333","25.0196783333333","6500100","板橋區"
"220069","AAD-861","2018/09/11 18:48:26","新北市板橋區南雅南路一段1巷1弄1號","121.457363333333","25.00625","6500100","板橋區"
"220090","120-SR","2018/09/11 18:48:35","新北市板橋區民生路二段161巷3號","121.469995","25.0197116666667","6500100","板橋區"
"226004","205-ST","2018/09/11 18:48:37","新北市平溪區平溪里三坑路51號","121.734805","25.029385","6502400","平溪區"
"228001","212-TW","2018/09/11 18:48:43","新北市貢寮區仁理村仁義街8號","121.923745","25.0519366666667","6502600","貢寮區"
"228002","663-BX","2018/09/11 18:48:36","新北市貢寮區福隆里東興街6-11號","121.950768333333","25.0210966666667","6502600","貢寮區"
"228003","828-UM","2018/09/11 18:48:30","新北市貢寮區和美里龍洞街53號","121.912425","25.113665","6502600","貢寮區"
"224010","AGQ-8101","2018/09/11 18:45:57","新北市瑞芳區金光路334號","121.848403333333","25.1097333333333","6501200","瑞芳區"
"224006","676-BX","2018/09/11 18:48:30","新北市瑞芳區中山路15號","121.804853333333","25.1079083333333","6501200","瑞芳區"
"224002","639-TC","2018/09/11 18:48:27","新北市瑞芳區八分寮路6-1號","121.796021666667","25.09449","6501200","瑞芳區"
"224008","285-BY","2018/09/11 18:48:39","新北市瑞芳區瑞芳街150號","121.801125","25.111615","6501200","瑞芳區"
"224007","275-VK","2018/09/11 18:48:37","新北市瑞芳區大埔路188-1號","121.761516666667","25.10106","6501200","瑞芳區"
"224009","273-VK","2018/09/11 18:48:32","新北市瑞芳區五號路253-1號","121.856018333333","25.112835","6501200","瑞芳區"
"224005","271-BY","2018/09/11 18:48:42","新北市瑞芳區濱二路73號","121.828783333333","25.1209016666667","6501200","瑞芳區"
"227009","642-TC","2018/09/11 18:48:26","新北市雙溪區牡丹里下坑23號","121.852215","25.0560483333333","6502500","雙溪區"
"227003","400-TW","2018/09/11 18:48:35","新北市雙溪區平林里梅竹蹊28號","121.861621666667","25.0360133333333","6502500","雙溪區"
"253006","032-BX","2018/09/11 18:48:29","新北市石門區下員坑15-7號","121.511505","25.28506","6502200","石門區"
"253005","295-VK","2018/09/11 18:48:27","新北市石門區中山路28號","121.565741666667","25.289945","6502200","石門區"
"222001","KEA-2212","2018/09/11 18:47:54","新北市深坑區松柏街43巷1號","121.63869","25.0117416666667","6501800","深坑區"
"208002","KEA-2872","2018/09/11 18:48:46","新北市金山區信義路60號","121.635763333333","25.2190033333333","6502700","金山區"
"208003","665-BX","2018/09/11 18:48:36","新北市金山區中山路379號","121.63426","25.2247466666667","6502700","金山區"
"208001","761-BX","2018/09/11 18:48:40","新北市金山區文化三路66巷1號","121.634238333333","25.2256016666667","6502700","金山區"
"251002","012-UM","2018/09/11 18:48:43","新北市淡水區學府路59號","121.448275","25.1694416666667","6501000","淡水區"
"251013","KEA-2871","2018/09/11 18:48:36","新北市淡水區小坑子頭9號","121.48154","25.214485","6501000","淡水區"
"251016","179-VK","2018/09/11 18:48:37","新北市淡水區下圭柔山71-3號","121.447036666667","25.206205","6501000","淡水區"
"251014","180-VK","2018/09/11 18:48:41","新北市淡水區崙頂2-3號","121.491915","25.2240466666667","6501000","淡水區"
"251015","181-VK","2018/09/11 18:48:28","新北市淡水區興福寮66巷160號","121.487476666667","25.162165","6501000","淡水區"
"251010","413-VK","2018/09/11 18:48:32","新北市淡水區沙崙路24號","121.421458333333","25.1810766666667","6501000","淡水區"
"251012","441-VK","2018/09/11 18:48:27","新北市淡水區新興街1號","121.443838333333","25.1802233333333","6501000","淡水區"
"251001","559-UM","2018/09/11 18:48:46","新北市淡水區自立路8-6號","121.46318","25.12944","6501000","淡水區"
"251009","575-R6","2018/09/11 18:48:25","新北市淡水區重建街199號","121.441131666667","25.1746433333333","6501000","淡水區"
"251007","577-R6","2018/09/11 18:48:38","新北市淡水區中正東路二段143巷2弄1號","121.46057","25.147225","6501000","淡水區"
"251011","650-BX","2018/09/11 18:48:36","新北市淡水區學府路67號","121.448425","25.1696266666667","6501000","淡水區"
"251003","673-BX","2018/09/11 18:48:37","新北市淡水區中山北路一段212巷36號","121.44623","25.17913","6501000","淡水區"
"207003","550-UM","2018/09/11 18:48:40","新北市萬里區大鵬里頂社24-5號","121.65884","25.2082166666667","6502800","萬里區"
"207004","225-TW","2018/09/11 18:48:37","新北市萬里區萬里里獅頭路23號","121.69334","25.178265","6502800","萬里區"
"252002","178-VK","2018/09/11 18:48:35","新北市三芝區中正路一段112號","121.504863333333","25.25641","6502100","三芝區"
"252003","249-BX","2018/09/11 18:48:27","新北市三芝區後厝里大片頭83-5號","121.45891","25.2438733333333","6502100","三芝區"
"252001","292-VK","2018/09/11 18:48:29","新北市三芝區中正路三段7號","121.503125","25.254065","6502100","三芝區"
"237007","153-BY","2018/09/11 18:48:24","新北市三峽區柑樹路2巷2號","121.3618","24.90556","6500900","三峽區"
"237013","252-BX","2018/09/11 18:48:25","新北市三峽區光明路69巷31號","121.376871666667","24.9291883333333","6500900","三峽區"
"237012","275-BY","2018/09/11 18:48:32","新北市三峽區三樹路358號","121.383911666667","24.9434816666667","6500900","三峽區"
"237008","302-VK","2018/09/11 18:48:35","新北市三峽區白雞33-60號","121.370893333333","24.9130866666667","6500900","三峽區"
"237014","433-BY","2018/09/11 18:48:43","新北市三峽區隆恩街247號","121.357156666667","24.94034","6500900","三峽區"
"237004","280-TH","2018/09/11 18:48:36","新北市三峽區有木130-2號","121.435135","24.8582633333333","6500900","三峽區"
"237006","5529-G3","2018/09/11 18:48:26","新北市三峽區溪東路233巷2弄1號","121.4068","24.933325","6500900","三峽區"
"237011","KEA-2596","2018/09/11 18:48:38","新北市三峽區介壽路三段52號","121.395788333333","24.9371683333333","6500900","三峽區"
"237016","649-BX","2018/09/11 18:48:34","新北市三峽區竹崙路80號","121.432298333333","24.9188116666667","6500900","三峽區"
"237010","706-TV","2018/09/11 18:48:24","新北市三峽區復興路305號","121.365473333333","24.9388633333333","6500900","三峽區"
"237005","AKY-6261","2018/09/11 18:48:36","新北市三峽區中山路459巷131號","121.351101666667","24.93515","6500900","三峽區"
"236070","105-UM","2018/09/11 18:48:28","新北市土城區延和路21巷45號","121.463501666667","24.9893933333333","6501300","土城區"
"236042","107-UM","2018/09/11 18:48:38","新北市土城區裕民路114巷1-2號","121.450773333333","24.9861366666667","6501300","土城區"
"236079","166-UM","2018/09/11 18:48:36","新北市土城區中央路四段52巷60號","121.418188333333","24.9599733333333","6501300","土城區"
"236030","253-BX","2018/09/11 18:48:40","新北市土城區忠義路26巷10號","121.439796666667","24.96991","6501300","土城區"
"236026","269-VK","2018/09/11 18:48:38","新北市土城區和平路5巷2號","121.442715","24.9745016666667","6501300","土城區"
"236014","270-VK","2018/09/11 18:48:35","新北市土城區清水路276號","121.462065","24.9834533333333","6501300","土城區"
"236038","271-VK","2018/09/11 18:48:39","新北市土城區明德路一段291巷14號","121.46033","24.9766466666667","6501300","土城區"
"236021","401-BY","2018/09/11 18:48:36","新北市土城區延吉街253巷1號","121.467681666667","24.984745","6501300","土城區"
"236059","752-BX","2018/09/11 18:47:59","新北市土城區中央路三段93號","121.43733","24.9675466666667","6501300","土城區"
"236049","913-UM","2018/09/11 18:48:42","新北市土城區金城路三段3號","121.4644","24.9863066666667","6501300","土城區"
"236063","915-UM","2018/09/11 18:48:36","新北市土城區延和路177巷23號","121.470306666667","24.99106","6501300","土城區"
"236055","AAC-216","2018/09/11 18:48:40","新北市土城區裕民路217號","121.453865","24.9838733333333","6501300","土城區"
"242058","986-R7","2018/09/11 18:48:31","新北市泰山區中山路六段767-3號","121.428155","25.03824","6500500","新莊區"
"242027","615-BX","2018/09/11 18:21:23","新北市新莊區新泰路255巷83號","121.442231666667","25.0388233333333","6500500","新莊區"
"238023","601-UM","2018/09/11 18:48:28","新北市樹林區工興街14巷1號","121.398855","25.0137766666667","6500700","樹林區"
"238024","5061-A6","2018/09/11 18:48:32","新北市樹林區八德街236號","121.412381666667","24.9705483333333","6500700","樹林區"
"238022","KEA-2213","2018/09/11 18:48:40","新北市樹林區中華路379巷76號","121.413903333333","24.9775816666667","6500700","樹林區"
"238025","303-VK","2018/09/11 18:48:33","新北市樹林區中山路三段22號","121.39566","24.973085","6500700","樹林區"
"238017","283-BY","2018/09/11 18:48:30","新北市樹林區光興街83-8號","121.40977","25.0025816666667","6500700","樹林區"
"238014","282-BY","2018/09/11 18:48:34","新北市樹林區大安路111巷6號","121.423106666667","24.997445","6500700","樹林區"
"238020","268-VK","2018/09/11 18:48:24","新北市樹林區俊興街288號","121.418275","25.017065","6500700","樹林區"
"238026","172-UY","2018/09/11 18:48:28","新北市樹林區中和街21巷15號","121.391106666667","24.97233","6500700","樹林區"
"238016","169-UY","2018/09/11 18:48:28","新北市樹林區日新街182號","121.419911666667","24.9876583333333","6500700","樹林區"
"239007","AAC-297","2018/09/11 18:48:41","新北市鶯歌區中正一路建德二巷2號","121.364076666667","24.9565116666667","6500800","鶯歌區"
"239006","891-R6","2018/09/11 18:48:34","新北市鶯歌區鶯桃路296巷102號","121.337013333333","24.9621966666667","6500800","鶯歌區"
"239008","527-UM","2018/09/11 18:48:32","新北市鶯歌區國際二路38號","121.335865","24.9754233333333","6500800","鶯歌區"
"239005","526-UM","2018/09/11 18:48:42","新北市鶯歌區大湖路361巷24弄2-1號","121.33037","24.9781033333333","6500800","鶯歌區"
"239001","417-VK","2018/09/11 18:48:36","新北市鶯歌區鶯桃路132號","121.338118333333","24.9546883333333","6500800","鶯歌區"
"239003","360-BY","2018/09/11 18:48:35","新北市鶯歌區鶯桃路658巷1號","121.329228333333","24.9693216666667","6500800","鶯歌區"
"239002","359-BY","2018/09/11 18:48:25","新北市鶯歌區中正一路310號","121.35662","24.9569966666667","6500800","鶯歌區"
"239004","193-VK","2018/09/11 18:48:27","新北市鶯歌區中正三路268號","121.32906","24.936525","6500800","鶯歌區"
"221008","489-VK","2018/09/11 18:48:29","新北市汐止區康寧街901號","121.651411666667","25.0750233333333","6501100","汐止區"
"221036","130-UY","2018/09/11 18:48:42","新北市汐止區忠孝東路314巷3號","121.664586666667","25.0688583333333","6501100","汐止區"
"221015","131-UY","2018/09/11 18:48:39","新北市汐止區橋東街61號","121.66555","25.0749816666667","6501100","汐止區"
"221010","269-BY","2018/09/11 18:48:33","新北市汐止區汐萬路一段256巷3號","121.652478333333","25.074525","6501100","汐止區"
"221012","278-VK","2018/09/11 18:48:28","新北市汐止區汐萬路一段256巷3號","121.653441666667","25.0748116666667","6501100","汐止區"
"221023","279-VK","2018/09/11 18:48:14","新北市汐止區伯爵街2巷7號","121.642293333333","25.0754483333333","6501100","汐止區"
"221032","280-BY","2018/09/11 18:48:37","新北市汐止區橫科路385巷11號","121.624465","25.047785","6501100","汐止區"
"221027","281-BY","2018/09/11 18:48:37","新北市汐止區汐萬路一段256巷3號","121.653386666667","25.07471","6501100","汐止區"
"221029","298-VK","2018/09/11 18:48:42","新北市汐止區樟樹一路91號","121.642123333333","25.06321","6501100","汐止區"
"221021","299-VK","2018/09/11 18:48:30","新北市汐止區新江北路17號","121.652853333333","25.0705883333333","6501100","汐止區"
"221031","353-TW","2018/09/11 18:48:27","新北市汐止區福德一路300巷23號","121.630631666667","25.0641516666667","6501100","汐止區"
"221035","622-UM","2018/09/11 18:48:41","新北市汐止區汐萬路一段121號","121.654116666667","25.0711433333333","6501100","汐止區"
"221025","623-UM","2018/09/11 18:48:40","新北市汐止區仁愛路34號","121.660441666667","25.062745","6501100","汐止區"
"221038","646-BX","2018/09/11 18:48:30","新北市汐止區汐萬路一段312號","121.650668333333","25.0753133333333","6501100","汐止區"
"221002","707-TV","2018/09/11 18:48:40","新北市汐止區大同路一段150號","121.63165","25.0556766666667","6501100","汐止區"
"221018","753-BX","2018/09/11 18:48:27","新北市汐止區茄苳路45號","121.665953333333","25.0708983333333","6501100","汐止區"
"220079","145-BY","2018/09/11 18:48:33","新北市板橋區民權路202巷6弄2號","121.460008333333","25.0145316666667","6500100","板橋區"
"220080","200-UY","2018/09/11 18:48:24","新北市板橋區大觀路二段365巷12號","121.440988333333","24.997885","6500100","板橋區"
"220082","610-BX","2018/09/11 18:48:29","新北市板橋區篤行路三段玉平巷57號","121.428531666667","24.9865183333333","6500100","板橋區"
"220091","267-BY","2018/09/11 18:48:35","新北市板橋區民生路二段161巷1號","121.470141666667","25.0199116666667","6500100","板橋區"
"220056","276-BY","2018/09/11 18:48:34","新北市板橋區四川路二段23-3號","121.4545","24.9956266666667","6500100","板橋區"
"220072","277-BY","2018/09/11 18:48:34","新北市板橋區大觀路三段36巷30弄3號","121.43422","24.99662","6500100","板橋區"
"220071","283-VK","2018/09/11 18:48:35","新北市板橋區忠孝路103號","121.462575","25.0022366666667","6500100","板橋區"
"220094","285-UM","2018/09/11 18:48:39","新北市板橋區民生路二段120號","121.470961666667","25.0197066666667","6500100","板橋區"
"220083","286-VK","2018/09/11 18:48:34","新北市板橋區僑中二街108巷2號","121.44589","25.007305","6500100","板橋區"
"220081","287-VK","2018/09/11 18:48:40","新北市板橋區光華街7號","121.454115","25.0115483333333","6500100","板橋區"
"220061","293-UM","2018/09/11 18:48:42","新北市板橋區介壽街109號","121.470368333333","25.0187633333333","6500100","板橋區"
"220084","296-UM","2018/09/11 18:48:26","新北市板橋區大觀路二段150巷68號","121.44149","25.00091","6500100","板橋區"
"220075","303-R5","2018/09/11 18:48:41","新北市板橋區館前西路269號","121.453756666667","25.0086983333333","6500100","板橋區"
"220062","305-R5","2018/09/11 18:48:34","新北市板橋區中山路二段21號","121.472331666667","25.01518","6500100","板橋區"
"220098","317-R6","2018/09/11 18:48:27","新北市板橋區民生路二段120號","121.470531666667","25.019585","6500100","板橋區"
"220064","486-VK","2018/09/11 18:48:33","新北市板橋區民生路二段36-1號","121.472048333333","25.0167216666667","6500100","板橋區"
"220035","560-BX","2018/09/11 18:48:32","新北市板橋區中正路275巷77號","121.45232","25.0181566666667","6500100","板橋區"
"220063","609-BX","2018/09/11 18:48:24","新北市板橋區民生路二段121號","121.47065","25.018375","6500100","板橋區"
"220057","686-BX","2018/09/11 18:48:34","新北市板橋區南雅南路一段7巷23號","121.456216666667","25.0050916666667","6500100","板橋區"
"220077","687-BX","2018/09/11 18:48:28","新北市板橋區龍興街97巷2號","121.44429","25.002685","6500100","板橋區"
"220093","689-BX","2018/09/11 18:48:30","新北市板橋區民生路二段188號","121.470273333333","25.020405","6500100","板橋區"
"220054","741-BX","2018/09/11 18:48:36","新北市板橋區館前西路60號","121.458013333333","25.006955","6500100","板橋區"
"220102","KEA-2699","2018/09/11 18:48:30","新北市板橋區縣民大道三段310號","121.478745","25.0238233333333","6500100","板橋區"
"220055","827-TW","2018/09/11 18:48:31","新北市板橋區縣民大道一段193號","121.459181666667","25.0082333333333","6500100","板橋區"
"220067","829-TW","2018/09/11 18:48:38","新北市板橋區三民路二段正隆巷75號","121.475985","25.0129716666667","6500100","板橋區"
"220074","895-R6","2018/09/11 18:48:31","新北市板橋區館前西路269號","121.453641666667","25.00865","6500100","板橋區"
"220073","985-R7","2018/09/11 18:48:34","新北市板橋區林園街20號","121.454121666667","25.0099316666667","6500100","板橋區"
"220070","AAC-253","2018/09/11 18:48:39","新北市板橋區館前西路60號","121.458241666667","25.00704","6500100","板橋區"
"235068","KEA-2873","2018/09/11 18:48:14","新北市中和區中正路221號","121.496261666667","24.99378","6500300","中和區"
"235061","KEA-2875","2018/09/11 18:48:34","新北市中和區民享街26號","121.47391","25.0036183333333","6500300","中和區"
