"lineid","car","time","location","longitude","latitude","cityid","cityname"
"234046","148-BY","2018/09/11 18:58:30","新北市永和區得和路373巷31弄6號","121.52484","25.0005766666667","6500400","永和區"
"234007","207-UY","2018/09/11 18:58:28","新北市永和區永和路二段127號","121.514983333333","25.012055","6500400","永和區"
"234081","298-R6","2018/09/11 18:58:41","新北市永和區國中路156號","121.522555","25.0066383333333","6500400","永和區"
"234038","336-UY","2018/09/11 18:58:41","新北市永和區成功路二段199-2號","121.526546666667","24.9960516666667","6500400","永和區"
"234064","337-UY","2018/09/11 18:58:25","新北市永和區中正路478號","121.517588333333","25.0034933333333","6500400","永和區"
"234086","338-UY","2018/09/11 18:58:36","新北市永和區中正路338號","121.517623333333","25.0000616666667","6500400","永和區"
"234070","552-UM","2018/09/11 18:58:40","新北市永和區中興街68巷5弄4號","121.518448333333","25.0114816666667","6500400","永和區"
"234017","745-BX","2018/09/11 18:58:38","新北市永和區永和路二段297號","121.51597","25.016055","6500400","永和區"
"234030","746-BX","2018/09/11 18:58:28","新北市永和區秀朗路二段289號","121.526178333333","24.9980966666667","6500400","永和區"
"234054","KEA-2590","2018/09/11 18:58:28","新北市永和區竹林路64號","121.51827","25.0135","6500400","永和區"
"234013","KEA-2591","2018/09/11 18:58:45","新北市永和區信義路19號","121.514175","25.012065","6500400","永和區"
"234061","AAD-866","2018/09/11 18:58:25","新北市永和區福和路311號","121.516148333333","25.0070566666667","6500400","永和區"
"234042","862-TW","2018/09/11 18:58:36","新北市永和區永貞路306號","121.51188","25.0048233333333","6500400","永和區"
"234050","863-TW","2018/09/11 18:58:34","新北市永和區文化路208號","121.510283333333","25.0165516666667","6500400","永和區"
"234026","9371-KE","2018/09/11 18:58:32","新北市永和區自由街58號","121.513841666667","25.00592","6500400","永和區"
"234011","9373-KE","2018/09/11 18:58:41","新北市永和區文化路103號","121.51302","25.01522","6500400","永和區"
"249005","172-UM","2018/09/11 18:58:36","新北市八里區長道坑15號","121.394565","25.1183216666667","6502300","八里區"
"249001","173-UM","2018/09/11 18:58:38","新北市八里區龍米路二段208號","121.433398333333","25.1585016666667","6502300","八里區"
"249003","593-UM","2018/09/11 18:38:45","新北市八里區博物館路10-1號","121.41508","25.1640383333333","6502300","八里區"
"248006","077-UY","2018/09/11 18:58:34","新北市五股區中興路一段13號","121.469208333333","25.0723316666667","6501500","五股區"
"248008","095-VK","2018/09/11 18:58:39","新北市五股區中興路一段128巷32號","121.465718333333","25.0751516666667","6501500","五股區"
"248020","225-UY","2018/09/11 18:58:30","新北市五股區凌雲路三段88號","121.428406666667","25.1188183333333","6501500","五股區"
"248012","247-BX","2018/09/11 18:58:33","新北市五股區中興路四段48巷19號","121.438576666667","25.083545","6501500","五股區"
"248016","261-SL","2018/09/11 18:58:41","新北市五股區成泰路三段543巷16號","121.450965","25.1022333333333","6501500","五股區"
"248010","272-BY","2018/09/11 18:58:36","新北市五股區水碓二路1號","121.43058","25.07123","6501500","五股區"
"248004","677-BX","2018/09/11 18:58:29","新北市五股區民義路二段93-9號","121.407083333333","25.106865","6501500","五股區"
"248002","678-BX","2018/09/11 18:58:39","新北市五股區凌雲路一段139號","121.449358333333","25.1021866666667","6501500","五股區"
"234023","9380-KE","2018/09/11 18:58:27","新北市永和區竹林路75巷33弄3號","121.520555","25.0142983333333","6500400","永和區"
"234077","969-R7","2018/09/11 18:58:27","新北市永和區中正路264號","121.516876666667","24.9987816666667","6500400","永和區"
"234074","AAC-211","2018/09/11 18:58:43","新北市永和區環河東路二段92號","121.524503333333","25.0105633333333","6500400","永和區"
"234067","AAC-212","2018/09/11 18:58:28","新北市永和區中和路625號","121.512995","25.0049466666667","6500400","永和區"
"234003","AAC-295","2018/09/11 18:58:45","新北市永和區和平街34號","121.513173333333","25.0099333333333","6500400","永和區"
"232011","375-UM","2018/09/11 18:58:35","新北市坪林區水聳淒坑20-2號","121.711358333333","24.93401","6502000","坪林區"
"244023","069-UM","2018/09/11 18:58:27","新北市林口區文化二路二段112號","121.379475","25.0816833333333","6501700","林口區"
"244007","080-UY","2018/09/11 18:58:09","新北市林口區太平嶺26-2號","121.376128333333","25.1165983333333","6501700","林口區"
"244019","403-UM","2018/09/11 18:58:35","新北市林口區麗園二街1巷4-2號","121.377508333333","25.0701","6501700","林口區"
"244013","KEA-2802","2018/09/11 18:58:38","新北市林口區麗園二街1巷3-1號","121.37697","25.0702183333333","6501700","林口區"
"244017","485-VK","2018/09/11 18:58:35","新北市林口區文化二路一段18號","121.365071666667","25.0670983333333","6501700","林口區"
"244009","656-BX","2018/09/11 18:58:37","新北市林口區竹林路358巷15號","121.39258","25.084075","6501700","林口區"
"244011","657-BX","2018/09/11 18:58:07","新北市林口區仁愛路一段285巷116號","121.395101666667","25.0757733333333","6501700","林口區"
"244025","837-TS","2018/09/11 18:58:35","新北市林口區南勢街192號","121.361678333333","25.0749666666667","6501700","林口區"
"243013","AAD-798","2018/09/11 18:58:37","新北市泰山區明志路三段206巷3號","121.423298333333","25.037905","6501600","泰山區"
"243009","297-R6","2018/09/11 18:58:38","新北市泰山區泰林路二段365號","121.427965","25.0637466666667","6501600","泰山區"
"243016","KEA-2801","2018/09/11 18:58:35","新北市泰山區明志路二段152-1號","121.4276","25.0507333333333","6501600","泰山區"
"243015","421-VK","2018/09/11 18:58:31","新北市泰山區美寧街48號","121.430425","25.0644016666667","6501600","泰山區"
"243011","KEA-2215","2018/09/11 18:58:27","新北市泰山區明志路二段246巷1號","121.426705","25.048045","6501600","泰山區"
"243010","KEA-2216","2018/09/11 18:58:23","新北市泰山區辭修路24號","121.429065","25.05815","6501600","泰山區"
"243012","646-TV","2018/09/11 18:58:29","新北市泰山區福興三街193號","121.433503333333","25.0573416666667","6501600","泰山區"
"243014","680-BX","2018/09/11 18:58:27","新北市泰山區黎明路13號","121.421053333333","25.0631883333333","6501600","泰山區"
"222003","436-BY","2018/09/11 18:58:30","新北市深坑區深南路51-1號","121.621398333333","25.0101833333333","6501800","深坑區"
"222002","659-BX","2018/09/11 18:58:41","新北市深坑區文山路一段33號","121.62961","25.0036966666667","6501800","深坑區"
"231041","002-UM","2018/09/11 18:58:37","新北市新店區環河路62號","121.537038333333","24.9626733333333","6500600","新店區"
"231059","046-UY","2018/09/11 18:58:25","新北市新店區安華路28-1號","121.519505","24.9607883333333","6500600","新店區"
"231040","047-UY","2018/09/11 18:58:31","新北市新店區中央路17號","121.533358333333","24.9782283333333","6500600","新店區"
"231044","106-UY","2018/09/11 18:58:29","新北市新店區寶中路72號","121.547801666667","24.9805983333333","6500600","新店區"
"231046","107-UY","2018/09/11 18:58:38","新北市新店區直潭五街58號","121.532891666667","24.94112","6500600","新店區"
"231053","108-UY","2018/09/11 18:58:44","新北市新店區屈尺路8號","121.549041666667","24.9226","6500600","新店區"
"231048","187-VK","2018/09/11 18:58:42","新北市新店區德正街23巷4號","121.544261666667","24.9719583333333","6500600","新店區"
"231054","KEA-2219","2018/09/11 18:58:28","新北市新店區新店路15號","121.540258333333","24.9527983333333","6500600","新店區"
"231042","268-BY","2018/09/11 18:58:34","新北市新店區中正路75巷61號","121.543345","24.96948","6500600","新店區"
"231051","278-BY","2018/09/11 18:58:35","新北市新店區百忍街11號","121.53468","24.97551","6500600","新店區"
"231050","AAD-862","2018/09/11 18:58:30","新北市新店區新烏路一段11巷7號","121.547371666667","24.951315","6500600","新店區"
"231058","3713-VJ","2018/09/11 18:58:22","新北市新店區中興路一段146號","121.542536666667","24.96369","6500600","新店區"
"231066","4716-K9","2018/09/11 18:58:28","新北市新店區安豐路22巷20號","121.503315","24.9544733333333","6500600","新店區"
"231056","4715-K9","2018/09/11 18:58:35","新北市新店區建國路210-1號","121.537776666667","24.9810583333333","6500600","新店區"
"231067","4772-VM","2018/09/11 18:58:37","新北市新店區安康路一段355-10號","121.520243333333","24.96379","6500600","新店區"
"231065","512-UM","2018/09/11 18:58:30","新北市新店區安康路三段172號","121.489535","24.951825","6500600","新店區"
"231049","513-UM","2018/09/11 18:58:35","新北市新店區中正路454-5號","121.534445","24.9790333333333","6500600","新店區"
"231045","617-UM","2018/09/11 18:58:29","新北市新店區光明街57號","121.53857","24.9603566666667","6500600","新店區"
"231061","619-UM","2018/09/11 18:58:38","新北市新店區安華路1-1號","121.51955","24.9603816666667","6500600","新店區"
"231063","641-BX","2018/09/11 18:58:37","新北市新店區安華路28-1號","121.5195","24.9605666666667","6500600","新店區"
"231064","719-UM","2018/09/11 18:58:44","新北市新店區安一路一段1-1號","121.519516666667","24.9611916666667","6500600","新店區"
"231062","720-UM","2018/09/11 18:58:41","新北市新店區安豐路56-3號","121.499281666667","24.9544433333333","6500600","新店區"
"231060","897-TW","2018/09/11 18:58:41","新北市新店區安華路30巷1號","121.519541666667","24.9598533333333","6500600","新店區"
"231043","899-TW","2018/09/11 18:58:33","新北市新店區北新路一段128號","121.542265","24.9699383333333","6500600","新店區"
"231055","AKT-0513","2018/09/11 18:58:32","新北市新店區力行路12號","121.53939","24.9647216666667","6500600","新店區"
"241026","066-VK","2018/09/11 18:58:26","新北市三重區泉州街106號","121.494931666667","25.0537233333333","6500200","三重區"
"241029","267-UM","2018/09/11 18:58:36","新北市三重區重安街14號","121.49025","25.0580983333333","6500200","三重區"
"241035","462-BY","2018/09/11 18:58:38","新北市三重區重新路四段121號","121.48433","25.0523583333333","6500200","三重區"
"235066","003-UY","2018/09/11 18:58:30","新北市中和區中山路二段131巷7號","121.50274","25.0026633333333","6500300","中和區"
"235063","006-UY","2018/09/11 18:58:33","新北市中和區連城路319巷11弄4號","121.489295","24.9949216666667","6500300","中和區"
"235056","096-UM","2018/09/11 18:58:27","新北市中和區中山路二段596巷44號","121.481586666667","25.0063733333333","6500300","中和區"
"235039","097-UM","2018/09/11 18:58:37","新北市永和區安樂路100巷5號","121.514211666667","24.9993683333333","6500300","中和區"
"235065","098-UM","2018/09/11 18:58:26","新北市中和區勝利路35巷1弄4號","121.499153333333","25.0073516666667","6500300","中和區"
"235040","150-BY","2018/09/11 18:58:41","新北市中和區保健路106巷85號","121.51121","24.9944016666667","6500300","中和區"
"235058","151-BY","2018/09/11 18:58:29","新北市中和區員山路75號","121.480753333333","24.9941733333333","6500300","中和區"
"235055","183-VK","2018/09/11 18:58:23","新北市中和區民德路19號","121.468836666667","25.0028433333333","6500300","中和區"
"235038","185-VK","2018/09/11 18:58:35","新北市中和區立人街24-5號","121.518855","24.99416","6500300","中和區"
"235049","186-VK","2018/09/11 18:58:38","新北市中和區景安路177巷21號","121.506365","24.994535","6500300","中和區"
"235067","255-BX","2018/09/11 18:58:27","新北市中和區民樂路81號","121.484913333333","25.0015333333333","6500300","中和區"
"235008","293-VK","2018/09/11 18:58:30","新北市中和區復興路280巷33弄3號","121.501425","24.9914766666667","6500300","中和區"
"235072","301-VK","2018/09/11 18:58:45","新北市中和區中山路二段227號","121.498446666667","25.00243","6500300","中和區"
"235043","352-BY","2018/09/11 18:58:35","新北市中和區秀朗路三段24號","121.526445","24.996205","6500300","中和區"
"235042","KEA-2878","2018/09/11 18:58:33","新北市中和區秀朗路三段50巷2弄7號","121.526016666667","24.9959016666667","6500300","中和區"
"235050","4979-A6","2018/09/11 18:58:37","新北市中和區忠孝街58巷18號","121.512215","24.9828333333333","6500300","中和區"
"235069","4980-A6","2018/09/11 18:58:35","新北市中和區景平路459巷2弄1號","121.500293333333","24.9964283333333","6500300","中和區"
"235070","558-UM","2018/09/11 18:58:41","新北市中和區安和路205號","121.506013333333","24.9986266666667","6500300","中和區"
"235045","565-BX","2018/09/11 18:58:31","新北市中和區景新街377號","121.512336666667","24.99039","6500300","中和區"
"235054","640-BX","2018/09/11 18:58:38","新北市中和區中山路三段147號","121.473731666667","25.0060533333333","6500300","中和區"
"235047","732-UM","2018/09/11 18:58:36","新北市中和區興南路二段36號","121.506911666667","24.9854833333333","6500300","中和區"
"235046","733-UM","2018/09/11 18:58:41","新北市中和區興南路一段135巷22弄18號","121.508851666667","24.9866283333333","6500300","中和區"
"235071","783-BX","2018/09/11 18:58:36","新北市中和區員山路36巷16-2號","121.485541666667","24.9910083333333","6500300","中和區"
"235062","800-TS","2018/09/11 18:58:30","新北市中和區中山路二段330號","121.494901666667","25.00227","6500300","中和區"
"235057","801-TS","2018/09/11 18:58:43","新北市中和區民安街53-3號","121.479118333333","24.9999583333333","6500300","中和區"
"235041","802-TS","2018/09/11 18:58:29","新北市中和區安平路107號","121.511546666667","24.9973933333333","6500300","中和區"
"235052","805-TS","2018/09/11 18:58:40","新北市中和區興南路二段399巷63-1號","121.501243333333","24.9754666666667","6500300","中和區"
"235048","896-TW","2018/09/11 18:58:39","新北市中和區華新街64號","121.50817","24.9837983333333","6500300","中和區"
"235053","900-TW","2018/09/11 18:58:31","新北市中和區華順街142號","121.464798333333","24.995795","6500300","中和區"
"235060","911-UM","2018/09/11 18:58:28","新北市中和區民治街9巷1號","121.47514","25.0045583333333","6500300","中和區"
"235051","157-BY","2018/09/11 18:58:33","新北市中和區忠孝街4號","121.509956666667","24.9827466666667","6500300","中和區"
"235037","AAC-213","2018/09/11 18:58:38","新北市中和區自立路99巷10號","121.522593333333","24.994755","6500300","中和區"
"235059","AAC-215","2018/09/11 18:58:41","新北市中和區圓通路367巷18-2號","121.49179","24.9887383333333","6500300","中和區"
"220065","072-UY","2018/09/11 18:58:41","新北市板橋區民族路247巷9弄2號","121.471291666667","25.0078633333333","6500100","板橋區"
"220086","073-UY","2018/09/11 18:58:42","新北市板橋區中正路80巷7號","121.457183333333","25.0146316666667","6500100","板橋區"
"220106","075-UY","2018/09/11 18:58:33","新北市板橋區莊敬路66號","121.47169","25.0254466666667","6500100","板橋區"
"220069","AAD-861","2018/09/11 18:58:33","新北市板橋區縣民大道一段114號","121.457111666667","25.005925","6500100","板橋區"
"220090","120-SR","2018/09/11 18:58:35","新北市板橋區民有街17號","121.466183333333","25.0249766666667","6500100","板橋區"
"226004","205-ST","2018/09/11 18:58:37","新北市平溪區平溪里平溪街16號","121.738803333333","25.0250583333333","6502400","平溪區"
"228001","212-TW","2018/09/11 18:58:43","新北市貢寮區仁理村保健街71號","121.923736666667","25.05162","6502600","貢寮區"
"228002","663-BX","2018/09/11 18:58:36","新北市貢寮區福隆里東興街106巷25弄1號","121.946401666667","25.018305","6502600","貢寮區"
"228003","828-UM","2018/09/11 18:58:30","新北市貢寮區和美里龍洞街60號","121.914313333333","25.1163566666667","6502600","貢寮區"
"224010","AGQ-8101","2018/09/11 18:56:30","新北市瑞芳區基山街31巷10號","121.845488333333","25.1096333333333","6501200","瑞芳區"
"224006","676-BX","2018/09/11 18:58:30","新北市瑞芳區中正路40號","121.806888333333","25.10734","6501200","瑞芳區"
"224002","639-TC","2018/09/11 18:58:27","新北市平溪區新寮里五分寮10-3號","121.799621666667","25.0765683333333","6501200","瑞芳區"
"224008","285-BY","2018/09/11 18:58:39","新北市瑞芳區逢甲路337號","121.80096","25.11215","6501200","瑞芳區"
"224007","275-VK","2018/09/11 18:58:37","新北市瑞芳區中央路48巷180號","121.758141666667","25.1033383333333","6501200","瑞芳區"
"224009","273-VK","2018/09/11 18:58:31","新北市瑞芳區長仁路38號","121.864378333333","25.117175","6501200","瑞芳區"
"224005","271-BY","2018/09/11 18:58:42","新北市瑞芳區豎崎路32-5號","121.824408333333","25.1210116666667","6501200","瑞芳區"
"227009","642-TC","2018/09/11 18:58:26","新北市雙溪區牡丹里中正路58巷25號","121.86651","25.0416733333333","6502500","雙溪區"
"227003","400-TW","2018/09/11 18:58:35","新北市雙溪區平林里康福家園10號","121.858825","25.0373483333333","6502500","雙溪區"
"253006","032-BX","2018/09/11 18:58:29","新北市石門區八甲11-1號","121.522143333333","25.281365","6502200","石門區"
"253005","295-VK","2018/09/11 18:58:27","新北市石門區中央路10號","121.566641666667","25.2912733333333","6502200","石門區"
"222001","KEA-2212","2018/09/11 18:58:34","新北市深坑區北深路一段168號","121.633976666667","25.0107866666667","6501800","深坑區"
"208002","KEA-2872","2018/09/11 18:58:26","新北市金山區信義路72號","121.635175","25.2194983333333","6502700","金山區"
"208003","665-BX","2018/09/11 18:58:32","新北市金山區中正路53號","121.634595","25.2219633333333","6502700","金山區"
"208001","761-BX","2018/09/11 18:58:40","新北市金山區中山路163號","121.63874","25.220535","6502700","金山區"
"251002","012-UM","2018/09/11 18:58:43","新北市淡水區學府路1號","121.44735","25.167805","6501000","淡水區"
"251013","KEA-2871","2018/09/11 18:58:36","新北市淡水區安子內3-2號","121.484756666667","25.2165383333333","6501000","淡水區"
"251016","179-VK","2018/09/11 18:58:37","新北市淡水區淡金路三段331巷2-2號","121.448466666667","25.206305","6501000","淡水區"
"251014","180-VK","2018/09/11 18:58:34","新北市淡水區小中寮22號","121.489278333333","25.2295516666667","6501000","淡水區"
"251015","181-VK","2018/09/11 18:58:28","新北市淡水區糞箕湖62號","121.485228333333","25.1722783333333","6501000","淡水區"
"251010","413-VK","2018/09/11 18:58:32","新北市淡水區中正路二段22巷43號","121.42135","25.182375","6501000","淡水區"
"251001","559-UM","2018/09/11 18:58:41","新北市淡水區自強路325號","121.463236666667","25.1322666666667","6501000","淡水區"
"251009","575-R6","2018/09/11 18:58:25","新北市淡水區重建街83號","121.439846666667","25.1722533333333","6501000","淡水區"
"251007","577-R6","2018/09/11 18:58:40","新北市淡水區民生路113巷1弄55號","121.462515","25.13836","6501000","淡水區"
"251011","650-BX","2018/09/11 18:58:36","新北市淡水區中正東路二段141號","121.459621666667","25.1477916666667","6501000","淡水區"
"251003","673-BX","2018/09/11 18:58:37","新北市淡水區中山北路一段149巷33號","121.443075","25.1780283333333","6501000","淡水區"
"207003","550-UM","2018/09/11 18:58:40","新北市萬里區大鵬里頂社29號","121.656571666667","25.2107633333333","6502800","萬里區"
"207004","225-TW","2018/09/11 18:58:37","新北市萬里區萬里里獅頭路23號","121.693298333333","25.1783116666667","6502800","萬里區"
"252002","178-VK","2018/09/11 18:58:35","新北市三芝區中正路一段74號","121.503968333333","25.2574933333333","6502100","三芝區"
"252003","249-BX","2018/09/11 18:58:27","新北市三芝區後厝里北勢子22-16號","121.472905","25.2531516666667","6502100","三芝區"
"252001","292-VK","2018/09/11 18:58:29","新北市三芝區中興街二段260號","121.501691666667","25.25309","6502100","三芝區"
"237007","153-BY","2018/09/11 18:58:24","新北市三峽區大埔路155號","121.36664","24.9057466666667","6500900","三峽區"
"237013","252-BX","2018/09/11 18:58:45","新北市三峽區光明路69巷27號","121.376803333333","24.9292716666667","6500900","三峽區"
"237012","275-BY","2018/09/11 18:58:32","新北市三峽區三樹路222巷138號","121.385491666667","24.9426233333333","6500900","三峽區"
"237008","302-VK","2018/09/11 18:58:35","新北市三峽區中正路一段415號","121.370243333333","24.92044","6500900","三峽區"
"237014","433-BY","2018/09/11 18:58:43","新北市三峽區隆恩街168-10號","121.363255","24.943265","6500900","三峽區"
"237004","280-TH","2018/09/11 18:58:36","新北市三峽區有木205-1號","121.439025","24.8516916666667","6500900","三峽區"
"237006","5529-G3","2018/09/11 18:58:45","新北市三峽區溪東路205巷2號","121.404608333333","24.933665","6500900","三峽區"
"237011","KEA-2596","2018/09/11 18:58:38","新北市三峽區介壽路三段231-9號","121.406331666667","24.94746","6500900","三峽區"
"237016","649-BX","2018/09/11 18:58:34","新北市三峽區建安25-3號","121.445503333333","24.9273183333333","6500900","三峽區"
"237010","706-TV","2018/09/11 18:58:24","新北市三峽區國光街362號","121.371033333333","24.9398516666667","6500900","三峽區"
"237005","AKY-6261","2018/09/11 18:58:36","新北市三峽區中山路459巷163-3號","121.348635","24.9327466666667","6500900","三峽區"
"236070","105-UM","2018/09/11 18:58:28","新北市土城區清水路68號","121.456195","24.9816466666667","6501300","土城區"
"236042","107-UM","2018/09/11 18:58:38","新北市土城區裕民路214巷18弄10號","121.452445","24.9843016666667","6501300","土城區"
"236079","166-UM","2018/09/11 18:58:27","新北市土城區中央路四段67巷60號","121.418213333333","24.9566833333333","6501300","土城區"
"236030","253-BX","2018/09/11 18:58:40","新北市土城區中央路二段320號","121.440385","24.97288","6501300","土城區"
"236026","269-VK","2018/09/11 18:58:38","新北市土城區慶安街23號","121.4416","24.9733633333333","6501300","土城區"
"236014","270-VK","2018/09/11 18:58:38","新北市土城區永豐路98巷8號","121.46297","24.9871716666667","6501300","土城區"
"236038","271-VK","2018/09/11 18:58:39","新北市土城區仁愛路38號","121.461666666667","24.9794083333333","6501300","土城區"
"236021","401-BY","2018/09/11 18:58:36","新北市土城區明峰街57號","121.467846666667","24.98672","6501300","土城區"
"236059","752-BX","2018/09/11 18:58:34","新北市土城區金城路二段188號","121.453515","24.980805","6501300","土城區"
"236049","913-UM","2018/09/11 18:58:44","新北市土城區青雲路35號","121.460216666667","24.9887966666667","6501300","土城區"
"236063","915-UM","2018/09/11 18:58:41","新北市土城區延和路41巷2弄1號","121.46599","24.9897866666667","6501300","土城區"
"236055","AAC-216","2018/09/11 18:58:41","新北市土城區學成路150號","121.448393333333","24.98941","6501300","土城區"
"238023","601-UM","2018/09/11 18:58:28","新北市樹林區大慶街156號","121.397045","25.0133033333333","6500700","樹林區"
"238022","KEA-2213","2018/09/11 18:58:40","新北市樹林區東興街57巷6號","121.411516666667","24.977235","6500700","樹林區"
"238021","KEA-2539","2018/09/11 18:57:51","新北市樹林區柑園街二段276巷22號","121.372765","24.95319","6500700","樹林區"
"238025","303-VK","2018/09/11 18:58:33","新北市樹林區中山路三段22號","121.395656666667","24.9730816666667","6500700","樹林區"
"238017","283-BY","2018/09/11 18:58:30","新北市樹林區光興街83-8號","121.40984","25.00266","6500700","樹林區"
"238014","282-BY","2018/09/11 18:58:34","新北市樹林區潭興街143巷14-8號","121.425301666667","25.00009","6500700","樹林區"
"238020","268-VK","2018/09/11 18:58:44","新北市樹林區俊英街280號","121.423768333333","25.013305","6500700","樹林區"
"238026","172-UY","2018/09/11 18:58:41","新北市樹林區吉祥街21號","121.395351666667","24.97371","6500700","樹林區"
"238016","169-UY","2018/09/11 18:58:28","新北市樹林區文化街25巷29號","121.418096666667","24.986395","6500700","樹林區"
"239007","AAC-297","2018/09/11 18:58:41","新北市鶯歌區中正一路333-1號","121.356615","24.9578266666667","6500800","鶯歌區"
"239006","891-R6","2018/09/11 18:58:39","新北市鶯歌區鶯桃路91巷8號","121.338943333333","24.9532966666667","6500800","鶯歌區"
"239008","527-UM","2018/09/11 18:58:32","新北市鶯歌區國際二路10巷22號","121.338475","24.9743883333333","6500800","鶯歌區"
"239005","526-UM","2018/09/11 18:58:22","新北市鶯歌區大湖路382號","121.345458333333","24.97318","6500800","鶯歌區"
"239001","417-VK","2018/09/11 18:58:36","新北市鶯歌區永安街10號","121.337961666667","24.9555366666667","6500800","鶯歌區"
"239003","360-BY","2018/09/11 18:58:35","新北市鶯歌區鶯桃路336號","121.333906666667","24.96222","6500800","鶯歌區"
"239002","359-BY","2018/09/11 18:58:25","新北市鶯歌區西湖街182-1號","121.3384","24.9648966666667","6500800","鶯歌區"
"239004","193-VK","2018/09/11 18:58:27","新北市鶯歌區二橋新村47號","121.329411666667","24.934445","6500800","鶯歌區"
"221008","489-VK","2018/09/11 18:58:29","新北市汐止區汐萬路一段329號","121.649911666667","25.0757","6501100","汐止區"
"221036","130-UY","2018/09/11 18:58:42","新北市汐止區大同路二段132號","121.651625","25.0635416666667","6501100","汐止區"
"221015","131-UY","2018/09/11 18:58:39","新北市汐止區汐萬路一段256巷3號","121.652385","25.0745683333333","6501100","汐止區"
"221010","269-BY","2018/09/11 18:58:33","新北市汐止區康寧街901號","121.651628333333","25.0749016666667","6501100","汐止區"
"221012","278-VK","2018/09/11 18:58:28","新北市汐止區康寧街901號","121.65079","25.075245","6501100","汐止區"
"221023","279-VK","2018/09/11 18:58:34","新北市汐止區汐萬路一段256巷3號","121.652288333333","25.0746466666667","6501100","汐止區"
"221032","280-BY","2018/09/11 18:58:37","新北市汐止區橫科路407巷25弄7號","121.625821666667","25.0485016666667","6501100","汐止區"
"221027","281-BY","2018/09/11 18:51:50","新北市汐止區康寧街901號","121.65087","25.075225","6501100","汐止區"
"221029","298-VK","2018/09/11 18:58:42","新北市汐止區樟樹一路230號","121.642405","25.066665","6501100","汐止區"
"221021","299-VK","2018/09/11 18:58:30","新北市汐止區康寧街901號","121.651416666667","25.074985","6501100","汐止區"
"221031","353-TW","2018/09/11 18:58:27","新北市汐止區中興路181巷29弄8號","121.629898333333","25.0658283333333","6501100","汐止區"
"221035","622-UM","2018/09/11 18:58:41","新北市汐止區汐萬路一段256巷3號","121.652703333333","25.07452","6501100","汐止區"
"221025","623-UM","2018/09/11 18:58:40","新北市汐止區汐萬路一段167號","121.652771666667","25.0709116666667","6501100","汐止區"
"221038","646-BX","2018/09/11 18:58:30","新北市汐止區汐萬路一段312號","121.650698333333","25.07534","6501100","汐止區"
"221002","707-TV","2018/09/11 18:58:40","新北市汐止區大同路一段3號","121.62104","25.0551383333333","6501100","汐止區"
"221018","753-BX","2018/09/11 18:58:27","新北市汐止區汐萬路一段186號","121.652246666667","25.0719283333333","6501100","汐止區"
"220079","145-BY","2018/09/11 18:58:29","新北市板橋區民權路202巷9弄10號","121.460013333333","25.015485","6500100","板橋區"
"220080","200-UY","2018/09/11 18:58:44","新北市板橋區大觀路二段265巷1弄18號","121.443688333333","24.9983633333333","6500100","板橋區"
"220082","610-BX","2018/09/11 18:58:40","新北市板橋區溪崑一街126號","121.429128333333","24.9882916666667","6500100","板橋區"
"220101","245-BX","2018/09/11 18:58:37","新北市板橋區文化路二段182巷1弄2號","121.471206666667","25.027345","6500100","板橋區"
"220091","267-BY","2018/09/11 18:58:35","新北市板橋區莒光路165巷4號","121.47424","25.0240116666667","6500100","板橋區"
"220056","276-BY","2018/09/11 18:58:41","新北市板橋區信義路104號","121.458125","24.9927616666667","6500100","板橋區"
"220072","277-BY","2018/09/11 18:58:34","新北市板橋區篤行路二段135號","121.430465","24.9894233333333","6500100","板橋區"
"220071","283-VK","2018/09/11 18:58:35","新北市板橋區忠孝路176巷15號","121.464931666667","25.0017333333333","6500100","板橋區"
"220094","285-UM","2018/09/11 18:58:39","新北市板橋區文化路二段76號","121.469463333333","25.0250233333333","6500100","板橋區"
"220053","285-VK","2018/09/11 18:58:26","新北市板橋區中山路二段87號","121.474141666667","25.0158633333333","6500100","板橋區"
"220083","286-VK","2018/09/11 18:58:40","新北市板橋區大觀路一段38巷156弄61-1號","121.442301666667","25.0069766666667","6500100","板橋區"
"220081","287-VK","2018/09/11 18:58:40","新北市板橋區光華街19巷1號","121.453745","25.012095","6500100","板橋區"
"220061","293-UM","2018/09/11 18:58:42","新北市板橋區縣民大道三段128巷2號","121.474488333333","25.02056","6500100","板橋區"
"220084","296-UM","2018/09/11 18:58:29","新北市板橋區龍興街65巷9號","121.443126666667","25.0013716666667","6500100","板橋區"
"220097","299-UM","2018/09/11 18:58:36","新北市板橋區漢生東路83巷2號","121.466686666667","25.015795","6500100","板橋區"
"220075","303-R5","2018/09/11 18:58:41","新北市板橋區茶館街36號","121.45621","25.0105666666667","6500100","板橋區"
"220062","305-R5","2018/09/11 18:58:36","新北市板橋區民享街123號","121.477775","25.0165566666667","6500100","板橋區"
"220092","307-R5","2018/09/11 18:58:39","新北市板橋區縣民大道二段101號","121.46664","25.0156216666667","6500100","板橋區"
"220098","317-R6","2018/09/11 18:58:36","新北市板橋區民有街12號","121.466393333333","25.0247383333333","6500100","板橋區"
"220064","486-VK","2018/09/11 18:58:45","新北市板橋區板新路191號","121.468931666667","25.0157916666667","6500100","板橋區"
"220035","560-BX","2018/09/11 18:58:32","新北市板橋區中正路325巷6號","121.45446","25.02002","6500100","板橋區"
"220103","561-BX","2018/09/11 18:58:31","新北市板橋區縣民大道二段281號","121.4701","25.0179333333333","6500100","板橋區"
"220063","609-BX","2018/09/11 18:58:25","新北市板橋區中山路二段113號","121.47477","25.0162616666667","6500100","板橋區"
"220057","686-BX","2018/09/11 18:58:34","新北市板橋區重慶路80號","121.461985","25.0060616666667","6500100","板橋區"
"220077","687-BX","2018/09/11 18:58:28","新北市板橋區大觀路二段142號","121.44271","24.9991616666667","6500100","板橋區"
"220093","689-BX","2018/09/11 18:58:30","新北市板橋區民生路三段66-3號","121.466983333333","25.0257933333333","6500100","板橋區"
"220054","741-BX","2018/09/11 18:58:36","新北市板橋區重慶路139巷2號","121.462571666667","25.0045166666667","6500100","板橋區"
"220102","KEA-2699","2018/09/11 18:58:30","新北市板橋區萬板路710號","121.481911666667","25.0273183333333","6500100","板橋區"
"220055","827-TW","2018/09/11 18:58:31","新北市板橋區新站路1號","121.467086666667","25.0111766666667","6500100","板橋區"
"220067","829-TW","2018/09/11 18:58:38","新北市板橋區三民路二段正隆巷12弄10號","121.478021666667","25.01328","6500100","板橋區"
"220068","830-TW","2018/09/11 18:58:36","新北市板橋區三民路一段31巷42號","121.481111666667","25.0229733333333","6500100","板橋區"
"220096","831-TW","2018/09/11 18:58:43","新北市板橋區莒光路93號","121.472215","25.0240566666667","6500100","板橋區"
"220089","833-TW","2018/09/11 18:58:30","新北市板橋區文化路二段260號","121.471205","25.02849","6500100","板橋區"
"220074","895-R6","2018/09/11 18:58:31","新北市板橋區林園街2號","121.454126666667","25.0092883333333","6500100","板橋區"
"220073","985-R7","2018/09/11 18:58:34","新北市板橋區民權路214號","121.458876666667","25.0140166666667","6500100","板橋區"
"220070","AAC-253","2018/09/11 18:58:39","新北市板橋區四川路一段278號","121.458903333333","25.0009133333333","6500100","板橋區"
"235068","KEA-2873","2018/09/11 18:58:44","新北市中和區中正路211巷36弄1號","121.497436666667","24.9927116666667","6500300","中和區"
"235061","KEA-2875","2018/09/11 18:58:34","新北市中和區民治街134巷12號","121.474825","25.0020283333333","6500300","中和區"
