"lineid","car","time","location","longitude","latitude","cityid","cityname"
"234046","148-BY","2018/09/11 19:18:30","新北市永和區得和路313號","121.52317","24.9996316666667","6500400","永和區"
"234007","207-UY","2018/09/11 19:18:27","新北市永和區中山路一段320號","121.506608333333","25.0068166666667","6500400","永和區"
"234081","298-R6","2018/09/11 19:18:41","新北市永和區福和路57巷2號","121.522923333333","25.0076816666667","6500400","永和區"
"234038","336-UY","2018/09/11 19:18:21","新北市永和區民樂街70號","121.527426666667","24.9983316666667","6500400","永和區"
"234064","337-UY","2018/09/11 19:18:28","新北市永和區永元路17巷8號","121.521546666667","25.0004966666667","6500400","永和區"
"234086","338-UY","2018/09/11 19:18:36","新北市永和區永貞路105號","121.517911666667","25.004325","6500400","永和區"
"234070","552-UM","2018/09/11 19:18:31","新北市永和區豫溪街53號","121.51711","25.0098733333333","6500400","永和區"
"234017","745-BX","2018/09/11 19:18:38","新北市永和區文化路144巷31弄8號","121.512423333333","25.01677","6500400","永和區"
"234030","746-BX","2018/09/11 19:18:31","新北市永和區厚德街97號","121.523526666667","24.998885","6500400","永和區"
"234054","KEA-2590","2018/09/11 19:18:28","新北市永和區中興街50號","121.516681666667","25.0115716666667","6500400","永和區"
"234013","KEA-2591","2018/09/11 19:18:24","新北市永和區信義路23號","121.513821666667","25.0121683333333","6500400","永和區"
"234061","AAD-866","2018/09/11 19:18:45","新北市永和區秀朗路一段175號","121.517036666667","25.0036966666667","6500400","永和區"
"234042","862-TW","2018/09/11 19:18:39","新北市永和區保平路177巷6弄1號","121.509903333333","25.004845","6500400","永和區"
"234050","863-TW","2018/09/11 19:18:34","新北市永和區仁愛路144號","121.510841666667","25.01345","6500400","永和區"
"234026","9371-KE","2018/09/11 19:18:32","新北市永和區安樂路144巷21號","121.514726666667","25.0001166666667","6500400","永和區"
"234011","9373-KE","2018/09/11 19:18:41","新北市永和區永平路218巷23號","121.510043333333","25.0111766666667","6500400","永和區"
"249005","172-UM","2018/09/11 19:18:36","新北市八里區中華路三段98-1號","121.392641666667","25.13712","6502300","八里區"
"249001","173-UM","2018/09/11 19:18:35","新北市八里區中華路一段333-1號","121.412533333333","25.1547716666667","6502300","八里區"
"249003","593-UM","2018/09/11 19:18:14","新北市八里區中山路二段466巷36弄20號","121.398776666667","25.1486266666667","6502300","八里區"
"248008","095-VK","2018/09/11 19:18:39","新北市五股區中興路二段83巷26-6號","121.459963333333","25.075345","6501500","五股區"
"248020","225-UY","2018/09/11 19:18:30","新北市五股區凌雲路三段57號","121.42531","25.1249933333333","6501500","五股區"
"248012","247-BX","2018/09/11 19:18:33","新北市五股區中興路四段48巷11號","121.438533333333","25.0835316666667","6501500","五股區"
"248016","261-SL","2018/09/11 19:18:41","新北市五股區成洲五路12號","121.452388333333","25.101545","6501500","五股區"
"248010","272-BY","2018/09/11 19:18:36","新北市五股區水碓二路1號","121.430553333333","25.0712683333333","6501500","五股區"
"248004","677-BX","2018/09/11 19:18:37","新北市五股區五福路54號","121.433573333333","25.089635","6501500","五股區"
"248002","678-BX","2018/09/11 19:18:39","新北市五股區凌雲路一段158巷14-1號","121.447891666667","25.1035666666667","6501500","五股區"
"234023","9380-KE","2018/09/11 19:18:27","新北市永和區竹林路126號","121.51994","25.0113733333333","6500400","永和區"
"234077","969-R7","2018/09/11 19:18:27","新北市永和區民族街42號","121.51839","24.9988183333333","6500400","永和區"
"234074","AAC-211","2018/09/11 19:18:43","新北市永和區竹林路100-1號","121.519615","25.0120666666667","6500400","永和區"
"234067","AAC-212","2018/09/11 19:18:44","新北市永和區保平路30巷12號","121.511666666667","25.0076333333333","6500400","永和區"
"234003","AAC-295","2018/09/11 19:18:25","新北市永和區永平路174號","121.51069","25.0091016666667","6500400","永和區"
"244023","069-UM","2018/09/11 19:18:27","新北市林口區文林六街62巷26號","121.371813333333","25.0818483333333","6501700","林口區"
"244019","403-UM","2018/09/11 19:18:35","新北市林口區文化一路二段188號","121.382735","25.0803366666667","6501700","林口區"
"244017","485-VK","2018/09/11 19:18:35","新北市林口區忠孝路371-1號","121.369148333333","25.0717166666667","6501700","林口區"
"244011","657-BX","2018/09/11 19:18:27","新北市林口區中正路264巷11號","121.389021666667","25.0781483333333","6501700","林口區"
"244025","837-TS","2018/09/11 19:18:35","新北市林口區文化北路一段542巷55弄33號","121.369821666667","25.0791416666667","6501700","林口區"
"243013","AAD-798","2018/09/11 19:18:37","新北市泰山區明志路三段145巷2弄11號","121.425211666667","25.0395266666667","6501600","泰山區"
"243009","297-R6","2018/09/11 19:18:38","新北市泰山區和平街9-2號","121.43416","25.0646016666667","6501600","泰山區"
"243016","KEA-2801","2018/09/11 19:18:35","新北市泰山區明志路三段83號","121.425093333333","25.0416716666667","6501600","泰山區"
"243015","421-VK","2018/09/11 19:18:32","新北市泰山區公園路67-1號","121.426633333333","25.05516","6501600","泰山區"
"243011","KEA-2215","2018/09/11 19:18:26","新北市泰山區中央路7巷2號","121.426505","25.0433283333333","6501600","泰山區"
"243010","KEA-2216","2018/09/11 19:18:23","新北市泰山區明志路一段494號","121.430285","25.05466","6501600","泰山區"
"243012","646-TV","2018/09/11 19:18:31","新北市泰山區仁愛路88號","121.433033333333","25.0552666666667","6501600","泰山區"
"243014","680-BX","2018/09/11 19:18:27","新北市泰山區泰林路二段186號","121.433631666667","25.0608833333333","6501600","泰山區"
"222003","436-BY","2018/09/11 19:18:30","新北市深坑區深南路204號","121.626623333333","25.0160383333333","6501800","深坑區"
"222002","659-BX","2018/09/11 19:18:40","新北市深坑區北深路一段210號","121.632621666667","25.0109083333333","6501800","深坑區"
"231041","002-UM","2018/09/11 19:18:37","新北市新店區溪園路247號","121.525441666667","24.983325","6500600","新店區"
"231059","046-UY","2018/09/11 19:18:25","新北市新店區安和路二段138-3號","121.519408333333","24.9718183333333","6500600","新店區"
"231040","047-UY","2018/09/11 19:18:31","新北市新店區三民路98-4號","121.53395","24.9733683333333","6500600","新店區"
"231044","106-UY","2018/09/11 19:18:29","新北市新店區中興路三段322號","121.542068333333","24.9860733333333","6500600","新店區"
"231046","107-UY","2018/09/11 19:18:27","新北市新店區華城路5-3號","121.52926","24.957955","6500600","新店區"
"231053","108-UY","2018/09/11 19:18:37","新北市新店區櫻花街150號","121.54773","24.920805","6500600","新店區"
"231048","187-VK","2018/09/11 19:18:42","新北市新店區中興路二段67巷3號","121.546328333333","24.97092","6500600","新店區"
"231054","KEA-2219","2018/09/11 19:18:28","新北市新店區國校路65巷1號","121.538375","24.954065","6500600","新店區"
"231042","268-BY","2018/09/11 19:18:36","新北市新店區中興路一段123號","121.541825","24.96324","6500600","新店區"
"231051","278-BY","2018/09/11 19:18:35","新北市新店區中央路103號","121.531005","24.9748916666667","6500600","新店區"
"231050","AAD-862","2018/09/11 19:18:30","新北市新店區竹林路30號","121.552343333333","24.9512766666667","6500600","新店區"
"231058","3713-VJ","2018/09/11 19:18:42","新北市新店區北新路一段293號","121.541275","24.9670883333333","6500600","新店區"
"231066","4716-K9","2018/09/11 19:18:28","新北市新店區安康路二段458號","121.493986666667","24.9541483333333","6500600","新店區"
"231056","4715-K9","2018/09/11 19:18:35","新北市新店區安和路三段4巷3號","121.518965","24.98101","6500600","新店區"
"231067","4772-VM","2018/09/11 19:18:37","新北市新店區安康路一段195巷7號","121.526381666667","24.9624516666667","6500600","新店區"
"231065","512-UM","2018/09/11 19:18:30","新北市新店區安祥路110巷30弄3號","121.47409","24.9565816666667","6500600","新店區"
"231049","513-UM","2018/09/11 19:18:35","新北市新店區明德路64號","121.541585","24.9794266666667","6500600","新店區"
"231045","617-UM","2018/09/11 19:18:29","新北市新店區北宜路一段260號","121.545725","24.9527933333333","6500600","新店區"
"231061","619-UM","2018/09/11 19:18:38","新北市新店區安康路一段107-2號","121.528683333333","24.9616633333333","6500600","新店區"
"231063","641-BX","2018/09/11 19:18:37","新北市新店區達觀路14巷7號","121.503185","24.9430766666667","6500600","新店區"
"231064","719-UM","2018/09/11 19:18:44","新北市新店區安忠路65巷1號","121.511463333333","24.957895","6500600","新店區"
"231062","720-UM","2018/09/11 19:18:41","新北市新店區安康路一段222號","121.52379","24.9636","6500600","新店區"
"231060","897-TW","2018/09/11 19:18:32","新北市新店區安康路二段170號","121.511906666667","24.9606383333333","6500600","新店區"
"231043","899-TW","2018/09/11 19:18:33","新北市新店區寶橋路15號","121.543818333333","24.97387","6500600","新店區"
"231055","AKT-0513","2018/09/11 19:18:32","新北市新店區安德街148巷31號","121.50697","24.9610583333333","6500600","新店區"
"241022","060-VK","2018/09/11 19:18:37","新北市三重區重陽路二段72號","121.487191666667","25.0641316666667","6500200","三重區"
"241031","061-VK","2018/09/11 19:18:39","新北市三重區重新路四段206-5號","121.485961666667","25.05442","6500200","三重區"
"241017","063-VK","2018/09/11 19:18:38","新北市三重區大同北路168號","121.491936666667","25.0655633333333","6500200","三重區"
"241026","066-VK","2018/09/11 19:18:26","新北市三重區環河南路127號","121.49684","25.055095","6500200","三重區"
"241009","265-UM","2018/09/11 19:18:42","新北市三重區溪尾街230巷42-3號","121.486071666667","25.0810833333333","6500200","三重區"
"241029","267-UM","2018/09/11 19:18:42","新北市三重區重安街15號","121.490625","25.0575583333333","6500200","三重區"
"241032","269-UM","2018/09/11 19:18:33","新北市三重區新生街96號","121.483386666667","25.059375","6500200","三重區"
"241025","271-UM","2018/09/11 19:18:43","新北市三重區中正北路271號","121.47506","25.0709166666667","6500200","三重區"
"241007","398-BY","2018/09/11 19:18:31","新北市三重區慈愛街54號","121.486498333333","25.07932","6500200","三重區"
"241035","462-BY","2018/09/11 19:18:38","新北市三重區大仁街68號","121.492336666667","25.0650466666667","6500200","三重區"
"241020","478-VK","2018/09/11 19:18:44","新北市三重區大智街161號","121.489908333333","25.0723316666667","6500200","三重區"
"241030","480-VK","2018/09/11 19:18:36","新北市三重區新興路40號","121.491651666667","25.0535466666667","6500200","三重區"
"235066","003-UY","2018/09/11 19:18:30","新北市中和區中和路102號","121.502775","24.99971","6500300","中和區"
"235063","006-UY","2018/09/11 19:18:33","新北市中和區連城路234號","121.488926666667","24.9962933333333","6500300","中和區"
"235056","096-UM","2018/09/11 19:18:27","新北市中和區中山路二段561號","121.480835","25.00562","6500300","中和區"
"235039","097-UM","2018/09/11 19:18:37","新北市中和區秀峰街79巷1號","121.522011666667","24.9901366666667","6500300","中和區"
"235065","098-UM","2018/09/11 19:18:26","新北市中和區中山路二段2巷3弄1號","121.504766666667","25.0060283333333","6500300","中和區"
"235040","150-BY","2018/09/11 19:18:36","新北市中和區保健路67巷3弄4號","121.509778333333","24.9974833333333","6500300","中和區"
"235058","151-BY","2018/09/11 19:18:29","新北市中和區連城路469巷89號","121.484483333333","24.993445","6500300","中和區"
"235055","183-VK","2018/09/11 19:18:43","新北市中和區德光路36號","121.470293333333","25.0042833333333","6500300","中和區"
"235038","185-VK","2018/09/11 19:18:35","新北市中和區大仁街20巷59號","121.519855","24.9934166666667","6500300","中和區"
"235049","186-VK","2018/09/11 19:18:38","新北市中和區景新街135號","121.5059","24.9970916666667","6500300","中和區"
"235067","255-BX","2018/09/11 19:18:27","新北市中和區新生街148巷1號","121.483386666667","25.00064","6500300","中和區"
"235008","293-VK","2018/09/11 19:18:30","新北市中和區中興街230巷11號","121.499576666667","24.9881983333333","6500300","中和區"
"235072","301-VK","2018/09/11 19:18:25","新北市中和區連城路261-4號","121.492233333333","24.9966283333333","6500300","中和區"
"235043","352-BY","2018/09/11 19:18:35","新北市中和區景平路356號","121.511306666667","24.9928516666667","6500300","中和區"
"235042","KEA-2878","2018/09/11 19:18:33","新北市中和區安樂路191巷22號","121.514315","24.99787","6500300","中和區"
"235050","4979-A6","2018/09/11 19:18:37","新北市中和區景安路208巷44號","121.502308333333","24.9921683333333","6500300","中和區"
"235069","4980-A6","2018/09/11 19:18:35","新北市中和區中山路二段136巷2號","121.50207","25.003505","6500300","中和區"
"235070","558-UM","2018/09/11 19:18:41","新北市中和區連城路47-3號","121.497983333333","25.0016233333333","6500300","中和區"
"235045","565-BX","2018/09/11 19:18:31","新北市中和區景新街423巷35弄16號","121.514021666667","24.990025","6500300","中和區"
"235054","640-BX","2018/09/11 19:18:37","新北市中和區國光街107巷2弄25號","121.46965","24.99927","6500300","中和區"
"235047","732-UM","2018/09/11 19:18:36","新北市中和區和平街38巷8號","121.509341666667","24.9908283333333","6500300","中和區"
"235046","733-UM","2018/09/11 19:18:44","新北市中和區忠孝街2巷5號","121.510171666667","24.9824533333333","6500300","中和區"
"235071","783-BX","2018/09/11 19:18:36","新北市中和區中正路633號","121.485375","24.9951366666667","6500300","中和區"
"235062","800-TS","2018/09/11 19:18:38","新北市中和區立言街37號","121.485573333333","25.0061966666667","6500300","中和區"
"235057","801-TS","2018/09/11 19:18:43","新北市中和區員山路172號","121.481296666667","24.999915","6500300","中和區"
"235041","802-TS","2018/09/11 19:18:29","新北市中和區中和路298號","121.508683333333","24.9998616666667","6500300","中和區"
"235052","805-TS","2018/09/11 19:18:40","新北市中和區興南路二段128巷1弄8號","121.503686666667","24.98354","6500300","中和區"
"235048","896-TW","2018/09/11 19:18:41","新北市中和區忠孝街60巷2弄2號","121.51162","24.9837666666667","6500300","中和區"
"235053","900-TW","2018/09/11 19:18:31","新北市中和區華安街19巷9號","121.467205","24.9979566666667","6500300","中和區"
"235060","911-UM","2018/09/11 19:18:28","新北市中和區台新街5號","121.47932","25.0055633333333","6500300","中和區"
"235051","157-BY","2018/09/11 19:18:13","新北市中和區和平街2巷4弄1號","121.510083333333","24.9907283333333","6500300","中和區"
"235037","AAC-213","2018/09/11 19:18:37","新北市中和區秀朗路三段10巷37弄4號","121.52403","24.9958616666667","6500300","中和區"
"235059","AAC-215","2018/09/11 19:18:41","新北市中和區圓通路365號","121.491273333333","24.9896116666667","6500300","中和區"
"220065","072-UY","2018/09/11 19:18:41","新北市板橋區民族路129巷10號","121.467616666667","25.0084933333333","6500100","板橋區"
"220086","073-UY","2018/09/11 19:18:42","新北市板橋區中正路216巷98號","121.458753333333","25.018995","6500100","板橋區"
"220106","075-UY","2018/09/11 19:18:33","新北市板橋區雙十路三段70巷1號","121.470278333333","25.0324166666667","6500100","板橋區"
"220069","AAD-861","2018/09/11 19:18:26","新北市板橋區貴興路8號","121.457698333333","25.0043133333333","6500100","板橋區"
"220090","120-SR","2018/09/11 19:18:35","新北市板橋區長江路一段106巷13弄24號","121.46103","25.0295283333333","6500100","板橋區"
"226004","205-ST","2018/09/11 19:18:37","新北市平溪區靜安路三段52巷6-2號","121.764366666667","25.033305","6502400","平溪區"
"228001","212-TW","2018/09/11 19:18:43","新北市貢寮區真理里新港街10號","121.92553","25.0543733333333","6502600","貢寮區"
"228002","663-BX","2018/09/11 19:18:36","新北市貢寮區龍門里復興街46-4號","121.928026666667","25.0288783333333","6502600","貢寮區"
"228003","828-UM","2018/09/11 19:18:30","新北市貢寮區和美里和美街22-1號","121.91283","25.082625","6502600","貢寮區"
"224010","AGQ-8101","2018/09/11 18:56:30","新北市瑞芳區基山街31巷10號","121.845488333333","25.1096333333333","6501200","瑞芳區"
"224008","285-BY","2018/09/11 19:18:39","新北市瑞芳區一坑路317-2號","121.801436666667","25.1090516666667","6501200","瑞芳區"
"227009","642-TC","2018/09/11 19:18:26","新北市雙溪區新基里新基北街40號","121.868541666667","25.0380666666667","6502500","雙溪區"
"227003","400-TW","2018/09/11 19:18:35","新北市雙溪區平林里梅竹蹊66-1號","121.860221666667","25.03585","6502500","雙溪區"
"253006","032-BX","2018/09/11 19:18:29","新北市石門區楓林17-6號","121.536571666667","25.29288","6502200","石門區"
"253005","295-VK","2018/09/11 19:18:27","新北市石門區阿里荖5-7號","121.609028333333","25.27992","6502200","石門區"
"222001","KEA-2212","2018/09/11 19:18:34","新北市深坑區北深路二段76號","121.617796666667","25.0036466666667","6501800","深坑區"
"208002","KEA-2872","2018/09/11 19:18:46","新北市金山區中正路110號","121.632783333333","25.2217683333333","6502700","金山區"
"208003","665-BX","2018/09/11 19:18:32","新北市金山區忠孝一路44號","121.637863333333","25.22012","6502700","金山區"
"208001","761-BX","2018/09/11 19:18:40","新北市金山區金包里街1-5號","121.639985","25.2204766666667","6502700","金山區"
"251005","010-UM","2018/09/11 19:18:41","新北市淡水區水源街一段31號","121.44329","25.172495","6501000","淡水區"
"251013","KEA-2871","2018/09/11 19:18:36","新北市淡水區安子內12-1號","121.481575","25.2191266666667","6501000","淡水區"
"251016","179-VK","2018/09/11 19:18:37","新北市淡水區下圭柔山119-51號","121.450728333333","25.2084733333333","6501000","淡水區"
"251014","180-VK","2018/09/11 19:18:34","新北市淡水區小中寮19-7號","121.484781666667","25.2295966666667","6501000","淡水區"
"251015","181-VK","2018/09/11 19:18:28","新北市淡水區南勢埔47號","121.48457","25.1809","6501000","淡水區"
"251010","413-VK","2018/09/11 19:18:32","新北市淡水區沙崙路23號","121.42143","25.1815233333333","6501000","淡水區"
"251001","559-UM","2018/09/11 19:18:41","新北市淡水區自強路209號","121.463711666667","25.1264066666667","6501000","淡水區"
"251009","575-R6","2018/09/11 19:18:25","新北市淡水區中正路28號","121.444456666667","25.169125","6501000","淡水區"
"251007","577-R6","2018/09/11 19:18:38","新北市淡水區民生路117巷9號","121.464906666667","25.13916","6501000","淡水區"
"251003","673-BX","2018/09/11 19:18:41","新北市淡水區中山北路一段160號","121.444196666667","25.178355","6501000","淡水區"
"207003","550-UM","2018/09/11 19:18:40","新北市萬里區大鵬里萬里加投79-3號","121.647356666667","25.21236","6502800","萬里區"
"207004","225-TW","2018/09/11 19:18:37","新北市萬里區萬里里成功新村65號","121.68832","25.1745766666667","6502800","萬里區"
"252002","178-VK","2018/09/11 19:18:34","新北市三芝區淡金路二段18-1號","121.502706666667","25.2595183333333","6502100","三芝區"
"252001","292-VK","2018/09/11 19:18:29","新北市三芝區長勤街9巷9弄2號","121.501755","25.2549216666667","6502100","三芝區"
"237007","153-BY","2018/09/11 19:18:44","新北市三峽區中正路二段42巷12-1號","121.364161666667","24.920645","6500900","三峽區"
"237009","210-TH","2018/09/11 19:18:39","新北市三峽區信義街26號","121.370836666667","24.9353066666667","6500900","三峽區"
"237013","252-BX","2018/09/11 19:18:45","新北市三峽區光明路75巷21號","121.377383333333","24.9280683333333","6500900","三峽區"
"237012","275-BY","2018/09/11 19:18:31","新北市三峽區三樹路222巷236弄2號","121.390736666667","24.94305","6500900","三峽區"
"237008","302-VK","2018/09/11 19:18:35","新北市三峽區光明路106巷39號","121.375596666667","24.9269083333333","6500900","三峽區"
"237014","433-BY","2018/09/11 19:18:23","新北市三峽區中山路277巷16號","121.36166","24.936935","6500900","三峽區"
"237004","280-TH","2018/09/11 19:18:36","新北市三峽區有木206號","121.439076666667","24.85151","6500900","三峽區"
"237006","5529-G3","2018/09/11 19:18:26","新北市三峽區中正路一段336巷15弄2號","121.369958333333","24.9249283333333","6500900","三峽區"
"237011","KEA-2596","2018/09/11 19:18:38","新北市三峽區介壽路一段172號","121.377041666667","24.9311033333333","6500900","三峽區"
"237016","649-BX","2018/09/11 19:18:34","新北市三峽區安坑63號","121.4723","24.926835","6500900","三峽區"
"237010","706-TV","2018/09/11 19:18:44","新北市三峽區復興路162號","121.371236666667","24.93828","6500900","三峽區"
"237005","AKY-6261","2018/09/11 19:18:36","新北市三峽區隆恩街245號","121.357746666667","24.9407933333333","6500900","三峽區"
"236070","105-UM","2018/09/11 19:18:28","新北市土城區學府路一段126巷81號","121.45221","24.9885566666667","6501300","土城區"
"236042","107-UM","2018/09/11 19:18:38","新北市土城區學府路一段239號","121.450483333333","24.98345","6501300","土城區"
"236079","166-UM","2018/09/11 19:18:27","新北市土城區中央路四段321巷32-2號","121.411808333333","24.9512333333333","6501300","土城區"
"236026","269-VK","2018/09/11 19:18:38","新北市土城區中央路二段242號","121.441931666667","24.9749783333333","6501300","土城區"
"236014","270-VK","2018/09/11 19:18:35","新北市土城區學府路一段23巷23號","121.45774","24.98701","6501300","土城區"
"236021","401-BY","2018/09/11 19:18:36","新北市土城區金城路三段198號","121.468663333333","24.987835","6501300","土城區"
"236059","752-BX","2018/09/11 19:18:34","新北市土城區中央路二段229號","121.440355","24.9724883333333","6501300","土城區"
"236049","913-UM","2018/09/11 19:18:42","新北市土城區明德路一段365-1號","121.453665","24.979095","6501300","土城區"
"242048","497-BY","2018/09/11 19:18:37","新北市新莊區後港一路3號","121.424113333333","25.02623","6500500","新莊區"
"242013","173-VK","2018/09/11 19:18:37","新北市新莊區三和路12-21號","121.441941666667","25.03889","6500500","新莊區"
"242032","348-TH","2018/09/11 19:18:43","新北市新莊區三和路12-21號","121.442345","25.0380783333333","6500500","新莊區"
"238015","755-BX","2018/09/11 19:18:39","新北市樹林區大安路568-4號","121.412096666667","24.9839083333333","6500700","樹林區"
"238023","601-UM","2018/09/11 19:18:28","桃園市龜山區萬壽路一段436號","121.398848333333","25.016105","6500700","樹林區"
"238018","571-TV","2018/09/11 19:18:41","新北市樹林區太平路56巷5號","121.418851666667","24.9817633333333","6500700","樹林區"
"238024","5061-A6","2018/09/11 19:18:32","新北市樹林區福德街36-1號","121.400385","24.9752733333333","6500700","樹林區"
"238022","KEA-2213","2018/09/11 19:18:40","新北市樹林區中山路二段151巷6弄3號","121.406476666667","24.9783033333333","6500700","樹林區"
"238021","KEA-2539","2018/09/11 19:18:32","新北市樹林區柑園街二段247巷18號","121.375216666667","24.9502","6500700","樹林區"
"238025","303-VK","2018/09/11 19:18:33","新北市樹林區中山路三段48號","121.394196666667","24.9725066666667","6500700","樹林區"
"238017","283-BY","2018/09/11 19:18:30","新北市樹林區光興街322號","121.407593333333","25.00553","6500700","樹林區"
"238014","282-BY","2018/09/11 19:18:34","新北市樹林區中正路22-1號","121.427761666667","24.9994016666667","6500700","樹林區"
"238020","268-VK","2018/09/11 19:18:44","新北市樹林區俊英街123巷1號","121.424473333333","25.010625","6500700","樹林區"
"238026","172-UY","2018/09/11 19:18:28","新北市樹林區佳園路一段71-3號","121.393238333333","24.970145","6500700","樹林區"
"238016","169-UY","2018/09/11 19:18:28","新北市樹林區復興路497巷26號","121.414473333333","24.9840983333333","6500700","樹林區"
"239007","AAC-297","2018/09/11 19:18:41","新北市鶯歌區中山路300號","121.342823333333","24.9570233333333","6500800","鶯歌區"
"239006","891-R6","2018/09/11 19:18:34","新北市鶯歌區永昌街92號","121.341461666667","24.9497566666667","6500800","鶯歌區"
"239005","526-UM","2018/09/11 19:18:42","新北市鶯歌區中湖街319號","121.348881666667","24.9754016666667","6500800","鶯歌區"
"239001","417-VK","2018/09/11 19:18:37","新北市鶯歌區建國路546號","121.338453333333","24.9502366666667","6500800","鶯歌區"
"239003","360-BY","2018/09/11 19:18:35","新北市鶯歌區文化路33號","121.359783333333","24.9569783333333","6500800","鶯歌區"
"239002","359-BY","2018/09/11 19:18:25","新北市鶯歌區大湖路185巷22號","121.34267","24.97049","6500800","鶯歌區"
"239004","193-VK","2018/09/11 19:18:27","新北市鶯歌區二甲路20-2號","121.33912","24.93587","6500800","鶯歌區"
"221008","489-VK","2018/09/11 19:18:29","新北市汐止區康寧街342號","121.628013333333","25.0674816666667","6501100","汐止區"
"221036","130-UY","2018/09/11 19:18:42","新北市汐止區汐萬路一段256巷1號","121.651791666667","25.0748783333333","6501100","汐止區"
"221015","131-UY","2018/09/11 19:18:39","新北市汐止區康寧街901號","121.651458333333","25.0749666666667","6501100","汐止區"
"221010","269-BY","2018/09/11 19:18:33","新北市汐止區康寧街901號","121.651673333333","25.0748966666667","6501100","汐止區"
"221012","278-VK","2018/09/11 19:18:28","新北市汐止區汐萬路一段271號","121.650616666667","25.0743366666667","6501100","汐止區"
"221023","279-VK","2018/09/11 19:18:34","新北市汐止區康寧街901號","121.651003333333","25.075155","6501100","汐止區"
"221027","281-BY","2018/09/11 19:18:27","新北市汐止區康寧街901號","121.650863333333","25.075235","6501100","汐止區"
"221029","298-VK","2018/09/11 19:18:42","新北市汐止區康寧街901號","121.65164","25.074845","6501100","汐止區"
"221021","299-VK","2018/09/11 19:18:30","新北市汐止區康寧街901號","121.651443333333","25.0750016666667","6501100","汐止區"
"221031","353-TW","2018/09/11 19:18:27","新北市汐止區康寧街901號","121.651023333333","25.0751783333333","6501100","汐止區"
"221035","622-UM","2018/09/11 19:18:41","新北市汐止區康寧街901號","121.651175","25.075145","6501100","汐止區"
"221025","623-UM","2018/09/11 19:18:40","新北市汐止區康寧街901號","121.651536666667","25.074995","6501100","汐止區"
"221038","646-BX","2018/09/11 19:18:30","新北市汐止區汐萬路一段312號","121.650701666667","25.0753033333333","6501100","汐止區"
"221002","707-TV","2018/09/11 19:18:40","新北市汐止區大同路一段255號","121.635843333333","25.0581966666667","6501100","汐止區"
"220079","145-BY","2018/09/11 19:18:28","新北市板橋區民權路202巷17弄21號","121.459886666667","25.0164716666667","6500100","板橋區"
"220080","200-UY","2018/09/11 19:18:44","新北市板橋區大觀路二段19巷78號","121.448746666667","25.00289","6500100","板橋區"
"220082","610-BX","2018/09/11 19:18:28","新北市板橋區篤行路三段99號","121.426258333333","24.9847166666667","6500100","板橋區"
"220101","245-BX","2018/09/11 19:18:36","新北市板橋區莊敬路75巷4號","121.473236666667","25.02665","6500100","板橋區"
"220091","267-BY","2018/09/11 19:18:35","新北市板橋區萬板路476號","121.479928333333","25.0259816666667","6500100","板橋區"
"220056","276-BY","2018/09/11 19:18:39","新北市板橋區信義路209號","121.459356666667","24.9915866666667","6500100","板橋區"
"220072","277-BY","2018/09/11 19:18:34","新北市板橋區篤行路二段161巷5號","121.429783333333","24.987605","6500100","板橋區"
"220071","283-VK","2018/09/11 19:18:35","新北市板橋區重慶路353巷7號","121.464843333333","24.998075","6500100","板橋區"
"220094","285-UM","2018/09/11 19:18:40","新北市板橋區吳鳳路64號","121.467526666667","25.030655","6500100","板橋區"
"220053","285-VK","2018/09/11 19:18:30","新北市板橋區富山街7巷2號","121.478321666667","25.02173","6500100","板橋區"
"220083","286-VK","2018/09/11 19:18:34","新北市板橋區大觀路二段174巷194號","121.442303333333","25.0039533333333","6500100","板橋區"
"220081","287-VK","2018/09/11 19:18:40","新北市板橋區南雅西路一段88號","121.45327","25.00583","6500100","板橋區"
"220061","293-UM","2018/09/11 19:18:42","新北市板橋區中山路二段318巷18號","121.480378333333","25.0188066666667","6500100","板橋區"
"220084","296-UM","2018/09/11 19:18:26","新北市板橋區溪北路75號","121.428206666667","24.9896","6500100","板橋區"
"220097","299-UM","2018/09/11 19:18:44","新北市板橋區幸福路60巷5-1號","121.460921666667","25.0204333333333","6500100","板橋區"
"220075","303-R5","2018/09/11 19:18:41","新北市板橋區南雅西路二段145巷11號","121.451655","25.0113266666667","6500100","板橋區"
"220062","305-R5","2018/09/11 19:18:34","新北市板橋區三民路二段153巷36弄2號","121.481208333333","25.0141283333333","6500100","板橋區"
"220092","307-R5","2018/09/11 19:18:44","新北市板橋區光武街48巷47弄2號","121.468353333333","25.0273266666667","6500100","板橋區"
"220098","317-R6","2018/09/11 19:18:27","新北市板橋區四維路251號","121.463563333333","25.0277916666667","6500100","板橋區"
"220064","486-VK","2018/09/11 19:18:33","新北市板橋區中山路一段139-1號","121.462791666667","25.010845","6500100","板橋區"
"220088","491-VK","2018/09/11 19:18:41","新北市板橋區雙十路二段4號","121.477205","25.0254733333333","6500100","板橋區"
"220035","560-BX","2018/09/11 19:18:32","新北市板橋區中正路360巷27號","121.455386666667","25.0234533333333","6500100","板橋區"
"220103","561-BX","2018/09/11 19:18:40","新北市板橋區文化路一段188巷7弄13號","121.46753","25.01988","6500100","板橋區"
"220063","609-BX","2018/09/11 19:18:25","新北市板橋區三民路二段140號","121.479151666667","25.0160183333333","6500100","板橋區"
"220057","686-BX","2018/09/11 19:18:34","新北市中和區華順街136號","121.46483","24.99591","6500100","板橋區"
"220077","687-BX","2018/09/11 19:18:28","新北市板橋區僑中二街8巷2-5號","121.447166666667","25.0111866666667","6500100","板橋區"
"220093","689-BX","2018/09/11 19:18:30","新北市板橋區文化路一段383號","121.46727","25.0216533333333","6500100","板橋區"
"220054","741-BX","2018/09/11 19:18:36","新北市板橋區重慶路182號","121.46246","25.0034383333333","6500100","板橋區"
"220102","KEA-2699","2018/09/11 19:18:30","新北市板橋區文聖街207號","121.479675","25.02641","6500100","板橋區"
"220055","827-TW","2018/09/11 19:18:31","新北市板橋區館前東路156巷9號","121.464351666667","25.0072266666667","6500100","板橋區"
"220067","829-TW","2018/09/11 19:18:37","新北市板橋區長安街176號","121.473966666667","25.011225","6500100","板橋區"
"220068","830-TW","2018/09/11 19:18:33","新北市板橋區翠華街6巷57號","121.481361666667","25.02486","6500100","板橋區"
"220096","831-TW","2018/09/11 19:18:28","新北市板橋區大同街33號","121.477813333333","25.02719","6500100","板橋區"
"220089","833-TW","2018/09/11 19:18:30","新北市板橋區文化路一段360號","121.468433333333","25.0236766666667","6500100","板橋區"
"220074","895-R6","2018/09/11 19:18:31","新北市板橋區中正路1巷18-1號","121.455203333333","25.0116","6500100","板橋區"
"220073","985-R7","2018/09/11 19:18:34","新北市板橋區新生街30號","121.456166666667","25.0211166666667","6500100","板橋區"
"220070","AAC-253","2018/09/11 19:18:39","新北市板橋區忠孝路136號","121.46352","25.0023216666667","6500100","板橋區"
"235068","KEA-2873","2018/09/11 19:18:44","新北市中和區圓通路172號","121.497291666667","24.9945733333333","6500300","中和區"
"235061","KEA-2875","2018/09/11 19:18:35","新北市中和區員山路312號","121.481471666667","25.0028666666667","6500300","中和區"
