"lineid","car","time","location","longitude","latitude","cityid","cityname"
"234046","148-BY","2018/09/11 20:09:30","新北市永和區得和路321號","121.523408333333","24.9996166666667","6500400","永和區"
"234007","207-UY","2018/09/11 20:09:27","新北市永和區保順路37巷9號","121.50305","25.01027","6500400","永和區"
"234081","298-R6","2018/09/11 20:09:41","新北市永和區國中路101號","121.524205","25.006205","6500400","永和區"
"234038","336-UY","2018/09/11 20:09:41","新北市永和區成功路一段47巷14號","121.527581666667","25.00391","6500400","永和區"
"234064","337-UY","2018/09/11 20:09:44","新北市永和區永利路118號","121.52159","25.003165","6500400","永和區"
"234086","338-UY","2018/09/11 20:09:23","新北市永和區福和路143號","121.52076","25.007715","6500400","永和區"
"234070","552-UM","2018/09/11 20:09:31","新北市永和區中正路638號","121.51701","25.0082466666667","6500400","永和區"
"234017","745-BX","2018/09/11 20:09:38","新北市永和區文化路78號","121.514093333333","25.0152033333333","6500400","永和區"
"234030","746-BX","2018/09/11 20:09:28","新北市永和區民權路49巷33號","121.521773333333","24.997545","6500400","永和區"
"234054","KEA-2590","2018/09/11 20:09:28","新北市永和區博愛街20巷2號","121.517838333333","25.0158116666667","6500400","永和區"
"234013","KEA-2591","2018/09/11 20:09:45","新北市永和區永貞路424號","121.508223333333","25.0087116666667","6500400","永和區"
"234061","AAD-866","2018/09/11 20:09:45","新北市永和區中正路151巷1-1號","121.5164","24.99825","6500400","永和區"
"234042","862-TW","2018/09/11 20:09:32","新北市永和區雙和街18-1號","121.509456666667","25.002115","6500400","永和區"
"234050","863-TW","2018/09/11 20:09:34","新北市永和區環河西路二段151號","121.505668333333","25.0140216666667","6500400","永和區"
"234026","9371-KE","2018/09/11 20:09:32","新北市永和區保生路55號","121.504673333333","25.0106966666667","6500400","永和區"
"234011","9373-KE","2018/09/11 20:09:21","新北市永和區環河西路二段243號","121.500475","25.009195","6500400","永和區"
"249005","172-UM","2018/09/11 20:09:36","新北市八里區下罟子58-10號","121.387718333333","25.1375083333333","6502300","八里區"
"249001","173-UM","2018/09/11 20:09:33","新北市八里區中華路二段326號","121.403298333333","25.14788","6502300","八里區"
"249004","303-UY","2018/09/11 20:09:37","新北市八里區中山路一段203號","121.411473333333","25.1581633333333","6502300","八里區"
"249002","305-UY","2018/09/11 20:09:39","新北市五股區成泰路四段22巷46-3號","121.458361666667","25.1129383333333","6502300","八里區"
"249003","593-UM","2018/09/11 20:09:34","新北市八里區中山路二段540巷9弄2號","121.39683","25.14708","6502300","八里區"
"248014","025-BX","2018/09/11 20:09:37","新北市五股區成泰路三段436號","121.4519","25.0989183333333","6501500","五股區"
"248008","095-VK","2018/09/11 20:09:39","新北市五股區中興路一段1巷31-1號","121.469435","25.07","6501500","五股區"
"248020","225-UY","2018/09/11 20:09:41","新北市五股區凌雲路三段24-5號","121.435158333333","25.1042216666667","6501500","五股區"
"248012","247-BX","2018/09/11 20:09:13","新北市五股區六合街118號","121.430268333333","25.0907983333333","6501500","五股區"
"248016","261-SL","2018/09/11 20:09:41","新北市五股區凌雲路一段158巷57弄2號","121.447133333333","25.1045016666667","6501500","五股區"
"248010","272-BY","2018/09/11 20:09:36","新北市五股區成泰路一段7巷48弄8號","121.43274","25.0678816666667","6501500","五股區"
"248004","677-BX","2018/09/11 20:09:29","新北市五股區成泰路一段142-1號","121.435026666667","25.07619","6501500","五股區"
"248002","678-BX","2018/09/11 20:09:41","新北市五股區成泰路三段267號","121.446998333333","25.093915","6501500","五股區"
"234023","9380-KE","2018/09/11 20:09:26","新北市永和區中正路662巷25號","121.517665","25.0088416666667","6500400","永和區"
"234077","969-R7","2018/09/11 20:09:27","新北市永和區智光街107巷15號","121.515805","24.996","6500400","永和區"
"234074","AAC-211","2018/09/11 20:09:22","新北市永和區豫溪街185號","121.522508333333","25.0103716666667","6500400","永和區"
"234067","AAC-212","2018/09/11 20:09:44","新北市永和區保平路214巷4號","121.509671666667","25.00611","6500400","永和區"
"234003","AAC-295","2018/09/11 20:09:45","新北市永和區中正路609巷3-1號","121.5162","25.0093533333333","6500400","永和區"
"243013","AAD-798","2018/09/11 20:09:37","新北市泰山區明志路三段72號","121.424621666667","25.0417983333333","6501600","泰山區"
"243009","297-R6","2018/09/11 20:09:38","新北市泰山區泰林路二段117號","121.434376666667","25.059565","6501600","泰山區"
"243016","KEA-2801","2018/09/11 20:09:41","新北市泰山區貴陽街4-1號","121.421735","25.0332116666667","6501600","泰山區"
"243015","421-VK","2018/09/11 20:09:44","新北市泰山區明志路一段418號","121.430751666667","25.0566583333333","6501600","泰山區"
"243011","KEA-2215","2018/09/11 20:09:26","新北市泰山區明志路三段531巷2號","121.421413333333","25.0297083333333","6501600","泰山區"
"243010","KEA-2216","2018/09/11 20:09:43","新北市泰山區明志路二段136巷14號","121.42679","25.0513683333333","6501600","泰山區"
"243012","646-TV","2018/09/11 20:09:28","新北市泰山區楓江路86巷16-1號","121.437306666667","25.0624616666667","6501600","泰山區"
"243014","680-BX","2018/09/11 20:09:27","新北市泰山區明志路一段75號","121.433646666667","25.0645183333333","6501600","泰山區"
"222003","436-BY","2018/09/11 20:09:30","新北市深坑區埔新街69號","121.619966666667","25.0022766666667","6501800","深坑區"
"222002","659-BX","2018/09/11 20:09:40","新北市深坑區北深路三段158巷28號","121.601966666667","25.004265","6501800","深坑區"
"231041","002-UM","2018/09/11 20:09:37","新北市新店區中正路460號","121.534026666667","24.97938","6500600","新店區"
"231059","046-UY","2018/09/11 20:09:45","新北市新店區安成街26-1號","121.51017","24.960925","6500600","新店區"
"231040","047-UY","2018/09/11 20:09:31","新北市新店區中正路106號","121.54311","24.97056","6500600","新店區"
"231044","106-UY","2018/09/11 20:09:29","新北市新店區寶慶街58巷2號","121.542045","24.986835","6500600","新店區"
"231046","107-UY","2018/09/11 20:09:27","新北市新店區吉安街39號","121.515391666667","24.9663666666667","6500600","新店區"
"231053","108-UY","2018/09/11 20:09:37","新北市新店區新烏路三段266號","121.550301666667","24.9002066666667","6500600","新店區"
"231048","187-VK","2018/09/11 20:09:42","新北市新店區寶橋路59-1號","121.545078333333","24.9750883333333","6500600","新店區"
"231054","KEA-2219","2018/09/11 20:09:32","新北市新店區檳榔路24號","121.541411666667","24.9639983333333","6500600","新店區"
"231057","256-BX","2018/09/11 20:09:29","新北市新店區花園一路一段2號","121.553126666667","24.9324233333333","6500600","新店區"
"231042","268-BY","2018/09/11 20:09:33","新北市新店區中興路二段89號","121.547113333333","24.971435","6500600","新店區"
"231051","278-BY","2018/09/11 20:09:35","新北市新店區中央路232號","121.52949","24.9725866666667","6500600","新店區"
"231050","AAD-862","2018/09/11 20:09:30","新北市新店區北新路一段90號","121.541821666667","24.9684283333333","6500600","新店區"
"231058","3713-VJ","2018/09/11 20:09:42","新北市新店區安康路二段320巷15弄2號","121.50373","24.9595016666667","6500600","新店區"
"231056","4715-K9","2018/09/11 20:09:35","新北市新店區中正路275巷26號","121.536933333333","24.9731866666667","6500600","新店區"
"231067","4772-VM","2018/09/11 20:09:36","新北市新店區溪洲路6巷88號","121.53324","24.9636483333333","6500600","新店區"
"231065","512-UM","2018/09/11 20:09:30","新北市新店區安祥路106巷210號","121.474068333333","24.9605066666667","6500600","新店區"
"231049","513-UM","2018/09/11 20:09:35","新北市新店區北新路二段121巷4號","121.542201666667","24.9750183333333","6500600","新店區"
"231045","617-UM","2018/09/11 20:09:29","新北市新店區北宜路一段201號","121.547336666667","24.9522083333333","6500600","新店區"
"231061","619-UM","2018/09/11 20:09:38","新北市新店區安興路92號","121.515213333333","24.9761","6500600","新店區"
"231063","641-BX","2018/09/11 20:09:37","新北市新店區黎明路55巷1號","121.502391666667","24.9482416666667","6500600","新店區"
"231068","718-UY","2018/09/11 20:09:23","新北市新店區中興路三段88號","121.545403333333","24.978785","6500600","新店區"
"231064","719-UM","2018/09/11 20:01:24","新北市新店區安民街14號","121.515466666667","24.9646216666667","6500600","新店區"
"231062","720-UM","2018/09/11 20:09:41","新北市新店區安康路一段186號","121.524771666667","24.963345","6500600","新店區"
"231060","897-TW","2018/09/11 20:09:41","新北市新店區安康路三段237號","121.487251666667","24.9518116666667","6500600","新店區"
"231043","899-TW","2018/09/11 20:09:33","新北市新店區民族路188號","121.536738333333","24.97605","6500600","新店區"
"231055","AKT-0513","2018/09/11 20:09:32","新北市新店區北新路一段297巷35號","121.540341666667","24.9684266666667","6500600","新店區"
"241011","013-R5","2018/09/11 20:09:34","新北市三重區仁愛街30號","121.496366666667","25.0717333333333","6500200","三重區"
"241028","022-UY","2018/09/11 20:09:33","新北市三重區仁化街174號","121.494795","25.057045","6500200","三重區"
"241008","059-VK","2018/09/11 20:09:30","新北市三重區永福街197巷17號","121.47881","25.0743416666667","6500200","三重區"
"241022","060-VK","2018/09/11 20:09:37","新北市三重區重陽路二段7號","121.486916666667","25.0619883333333","6500200","三重區"
"241031","061-VK","2018/09/11 20:09:39","新北市三重區過圳街9-1號","121.488761666667","25.0601116666667","6500200","三重區"
"241015","062-VK","2018/09/11 20:09:41","新北市三重區福德北路20號","121.502313333333","25.06471","6500200","三重區"
"241017","063-VK","2018/09/11 20:09:38","新北市三重區長壽西街189號","121.492215","25.06646","6500200","三重區"
"241024","065-VK","2018/09/11 20:09:32","新北市三重區中正北路284號","121.480526666667","25.068625","6500200","三重區"
"241026","066-VK","2018/09/11 20:09:26","新北市三重區福德南路53號","121.502993333333","25.0615433333333","6500200","三重區"
"241002","090-VK","2018/09/11 20:09:36","新北市三重區仁義街233號","121.496493333333","25.082425","6500200","三重區"
"241003","091-VK","2018/09/11 20:09:47","新北市三重區富華街18號","121.489616666667","25.0824866666667","6500200","三重區"
"241009","265-UM","2018/09/11 20:09:42","新北市三重區三和路四段382巷149號","121.479173333333","25.0781033333333","6500200","三重區"
"241016","266-UM","2018/09/11 20:09:29","新北市三重區中正北路25巷25弄5號","121.493393333333","25.0626983333333","6500200","三重區"
"241029","267-UM","2018/09/11 20:09:36","新北市三重區光明路34號","121.491388333333","25.058495","6500200","三重區"
"241018","268-UM","2018/09/11 20:09:32","新北市三重區正義北路256巷103號","121.493803333333","25.0679566666667","6500200","三重區"
"241032","269-UM","2018/09/11 20:09:33","新北市三重區捷運路65號","121.483415","25.055555","6500200","三重區"
"241013","270-UM","2018/09/11 20:09:46","新北市三重區三和路三段139巷40號","121.494171666667","25.0741133333333","6500200","三重區"
"241025","271-UM","2018/09/11 20:09:22","新北市三重區中正北路430號","121.474613333333","25.0710866666667","6500200","三重區"
"241007","398-BY","2018/09/11 20:09:31","新北市三重區三和路四段111-8號","121.48639","25.07757","6500200","三重區"
"241035","462-BY","2018/09/11 20:09:38","新北市三重區文化北路22-2號","121.499061666667","25.064305","6500200","三重區"
"241004","475-VK","2018/09/11 20:09:44","新北市三重區自強路四段80號","121.490583333333","25.0789366666667","6500200","三重區"
"241020","478-VK","2018/09/11 20:09:44","新北市三重區三和路三段170巷63號","121.490388333333","25.0725983333333","6500200","三重區"
"241030","480-VK","2018/09/11 20:09:35","新北市三重區成功路145巷35號","121.487731666667","25.0532533333333","6500200","三重區"
"241014","543-UM","2018/09/11 20:09:28","新北市三重區長樂街75號","121.501298333333","25.0693966666667","6500200","三重區"
"241023","545-UM","2018/09/11 20:09:33","新北市三重區頂崁街218號","121.476926666667","25.0680166666667","6500200","三重區"
"241001","547-UM","2018/09/11 20:09:37","新北市三重區三和路四段83號","121.489131666667","25.0756066666667","6500200","三重區"
"241019","KEA-2593","2018/09/11 20:09:32","新北市三重區自強路二段33巷13號","121.490068333333","25.0696333333333","6500200","三重區"
"241006","AAD-863","2018/09/11 20:09:37","新北市三重區車路頭街139巷14號","121.484286666667","25.0762333333333","6500200","三重區"
"241005","887-TS","2018/09/11 20:09:36","新北市三重區碧華街294巷15號","121.488793333333","25.0845183333333","6500200","三重區"
"241012","941-UM","2018/09/11 20:09:45","新北市三重區仁愛街125巷40號","121.498231666667","25.07626","6500200","三重區"
"241033","AAC-255","2018/09/11 20:09:37","新北市三重區光復路一段68巷2號","121.471846666667","25.04927","6500200","三重區"
"235066","003-UY","2018/09/11 20:09:30","新北市中和區水源路127巷2弄2號","121.50812","25.004085","6500300","中和區"
"235039","097-UM","2018/09/11 20:09:37","新北市中和區立人街24-4號","121.51896","24.9941816666667","6500300","中和區"
"235065","098-UM","2018/09/11 20:09:26","新北市中和區永和路90巷11號","121.497741666667","25.006035","6500300","中和區"
"235040","150-BY","2018/09/11 20:09:36","新北市中和區宜安路170號","121.508881666667","24.99906","6500300","中和區"
"235058","151-BY","2018/09/11 20:09:29","新北市中和區員山路146-4號","121.481286666667","24.997095","6500300","中和區"
"235044","293-VK","2018/09/11 20:09:30","新北市中和區圓通路141巷48弄15號","121.49815","24.9937983333333","6500300","中和區"
"247012","KEA-2869","2018/09/11 20:09:25","新北市蘆洲區民族路266號","121.478808333333","25.0889333333333","6501400","蘆洲區"
"235050","4979-A6","2018/09/11 20:09:37","新北市中和區安樂路66號","121.512185","24.9932133333333","6500300","中和區"
"235069","4980-A6","2018/09/11 20:09:34","新北市中和區景新街96巷6號","121.504615","24.9983083333333","6500300","中和區"
"235070","558-UM","2018/09/11 20:09:41","新北市中和區中正路426號","121.491553333333","24.99427","6500300","中和區"
"235046","733-UM","2018/09/11 20:09:40","新北市中和區忠孝街33號","121.510531666667","24.98317","6500300","中和區"
"235041","802-TS","2018/09/11 20:09:29","新北市中和區景新街447-1號","121.513063333333","24.9886866666667","6500300","中和區"
"235051","157-BY","2018/09/11 20:09:33","新北市中和區景安路220巷4弄2號","121.503395","24.9909166666667","6500300","中和區"
"235037","AAC-213","2018/09/11 20:09:37","新北市永和區民權路53-1號","121.520655","24.99665","6500300","中和區"
"235059","AAC-215","2018/09/11 20:09:41","新北市中和區圓通路335巷73號","121.493948333333","24.9893766666667","6500300","中和區"
"220065","072-UY","2018/09/11 20:09:44","新北市板橋區區運路30號","121.465641666667","25.0096433333333","6500100","板橋區"
"220069","AAD-861","2018/09/11 20:09:26","新北市板橋區南雅南路二段18號","121.454658333333","25.003545","6500100","板橋區"
"247002","893-R6","2018/09/11 20:09:26","新北市蘆洲區永康街58號","121.459191666667","25.0860116666667","6501400","蘆洲區"
"247024","500-BY","2018/09/11 20:09:38","新北市蘆洲區光榮路118號","121.464811666667","25.0887983333333","6501400","蘆洲區"
"247006","337-TH","2018/09/11 20:09:44","新北市蘆洲區永安南路二段16巷8號","121.467823333333","25.07728","6501400","蘆洲區"
"247008","336-TH","2018/09/11 20:09:29","新北市蘆洲區中山一路135巷6弄27號","121.474813333333","25.0808733333333","6501400","蘆洲區"
"247020","057-VK","2018/09/11 20:09:36","新北市蘆洲區民義街68巷30號","121.474183333333","25.089215","6501400","蘆洲區"
"247010","056-VK","2018/09/11 20:09:26","新北市蘆洲區集賢路378號","121.480468333333","25.0827033333333","6501400","蘆洲區"
"247018","007-UY","2018/09/11 20:09:39","新北市蘆洲區民族路314巷14號","121.477796666667","25.0903316666667","6501400","蘆洲區"
"247004","002-UY","2018/09/11 20:09:44","新北市蘆洲區長安街285巷23號","121.457283333333","25.0840366666667","6501400","蘆洲區"
"226004","205-ST","2018/09/11 20:09:37","新北市平溪區十分里十分街311號","121.77512","25.04357","6502400","平溪區"
"224010","AGQ-8101","2018/09/11 20:07:37","新北市瑞芳區烏勢巷145號","121.84725","25.1083483333333","6501200","瑞芳區"
"222001","KEA-2212","2018/09/11 20:09:34","新北市深坑區北深路三段204號","121.601346666667","25.0037216666667","6501800","深坑區"
"208002","KEA-2872","2018/09/11 20:09:45","新北市金山區環金路466號","121.629978333333","25.22484","6502700","金山區"
"251004","009-UM","2018/09/11 20:09:12","新北市淡水區民生路52巷12弄13號","121.462076666667","25.1371716666667","6501000","淡水區"
"251005","010-UM","2018/09/11 20:09:41","新北市淡水區學府路100巷2號","121.450143333333","25.17178","6501000","淡水區"
"251013","KEA-2871","2018/09/11 20:09:36","新北市淡水區奎柔山路75號","121.453528333333","25.2059983333333","6501000","淡水區"
"251016","179-VK","2018/09/11 20:09:37","新北市淡水區番子田18-6號","121.456196666667","25.2298283333333","6501000","淡水區"
"251014","180-VK","2018/09/11 20:09:34","新北市淡水區石頭厝1號","121.458731666667","25.2355433333333","6501000","淡水區"
"251015","181-VK","2018/09/11 20:09:28","新北市淡水區埤島76-2號","121.451923333333","25.1930416666667","6501000","淡水區"
"251010","413-VK","2018/09/11 20:09:31","新北市淡水區新市二路二段2號","121.42502","25.1964483333333","6501000","淡水區"
"251012","441-VK","2018/09/11 20:09:27","新北市淡水區淡金路三段266號","121.448951666667","25.2066183333333","6501000","淡水區"
"251008","443-VK","2018/09/11 20:09:23","新北市淡水區沙崙路131巷11號","121.421941666667","25.183005","6501000","淡水區"
"251001","559-UM","2018/09/11 20:09:41","新北市淡水區新市二路四段265號","121.445743333333","25.1924683333333","6501000","淡水區"
"251006","561-UM","2018/09/11 20:09:37","新北市淡水區北新路141巷29號","121.448185","25.17963","6501000","淡水區"
"251009","575-R6","2018/09/11 20:09:45","新北市淡水區清水街9-3號","121.444798333333","25.1702733333333","6501000","淡水區"
"251007","577-R6","2018/09/11 20:09:38","新北市淡水區淡金路一段69號","121.458078333333","25.173555","6501000","淡水區"
"251011","650-BX","2018/09/11 20:09:32","新北市淡水區崁頂78-5號","121.429318333333","25.207355","6501000","淡水區"
"251003","673-BX","2018/09/11 20:09:37","新北市淡水區中山北路二段189巷15弄29號","121.443456666667","25.1841916666667","6501000","淡水區"
"207003","550-UM","2018/09/11 20:09:40","新北市萬里區大鵬里萬里加投205-5號","121.643246666667","25.2158483333333","6502800","萬里區"
"207004","225-TW","2018/09/11 20:09:37","新北市萬里區北基里大勇路13號","121.681826666667","25.1766266666667","6502800","萬里區"
"252002","178-VK","2018/09/11 20:09:34","新北市三芝區中正路一段72號","121.504035","25.2577583333333","6502100","三芝區"
"252001","292-VK","2018/09/11 20:09:29","新北市三芝區公正街9號","121.499755","25.2575033333333","6502100","三芝區"
"237007","153-BY","2018/09/11 19:58:04","新北市三峽區麻園15-1號","121.36311","24.9136216666667","6500900","三峽區"
"237006","5529-G3","2018/09/11 20:09:45","新北市三峽區嘉添51號","121.368685","24.91102","6500900","三峽區"
"237016","649-BX","2018/09/11 20:09:34","新北市三峽區介壽路二段138巷1弄162號","121.402565","24.9281333333333","6500900","三峽區"
"237005","AKY-6261","2018/09/11 20:09:36","新北市三峽區三樹路98巷74弄91號","121.385086666667","24.9384633333333","6500900","三峽區"
"236070","105-UM","2018/09/11 20:09:28","新北市土城區大安路37-1號","121.432698333333","24.9662366666667","6501300","土城區"
"236042","107-UM","2018/09/11 20:09:38","新北市土城區學享街72號","121.452623333333","24.9861233333333","6501300","土城區"
"236079","166-UM","2018/09/11 20:09:41","新北市土城區三民路43號","121.420075","24.96388","6501300","土城區"
"236030","253-BX","2018/09/11 20:09:40","新北市土城區中央路一段118巷1弄10號","121.445781666667","24.9879016666667","6501300","土城區"
"236026","269-VK","2018/09/11 20:09:38","新北市土城區裕生路71-1號","121.44696","24.9846233333333","6501300","土城區"
"236014","270-VK","2018/09/11 20:09:35","新北市土城區廣明街2號","121.456076666667","24.9917383333333","6501300","土城區"
"236038","271-VK","2018/09/11 20:09:39","新北市土城區延吉街351號","121.464606666667","24.9838916666667","6501300","土城區"
"236021","401-BY","2018/09/11 20:09:36","新北市土城區和城路二段255巷140號","121.476138333333","24.988","6501300","土城區"
"236059","752-BX","2018/09/11 20:09:32","新北市土城區中央路二段215號","121.441226666667","24.9741","6501300","土城區"
"236049","913-UM","2018/09/11 20:09:42","新北市土城區清水路148號","121.459218333333","24.9814233333333","6501300","土城區"
"236063","915-UM","2018/09/11 20:09:36","新北市土城區立德路135巷5弄2號","121.464945","24.9870766666667","6501300","土城區"
"236055","AAC-216","2018/09/11 20:09:40","新北市土城區中華路一段178號","121.44118","24.9825033333333","6501300","土城區"
"242037","AAC-296","2018/09/11 20:08:14","新北市新莊區建安街9巷12號","121.429408333333","25.0266683333333","6500500","新莊區"
"242058","986-R7","2018/09/11 20:09:30","新北市新莊區八德街135號","121.4238","25.0203166666667","6500500","新莊區"
"242056","751-BX","2018/09/11 20:09:38","新北市新莊區新莊路649巷15弄1號","121.444963333333","25.0314766666667","6500500","新莊區"
"242027","615-BX","2018/09/11 20:09:31","新北市新莊區幸福路732號","121.448721666667","25.0492216666667","6500500","新莊區"
"242025","613-BX","2018/09/11 20:09:40","新北市新莊區五權一路12巷25弄10號","121.458231666667","25.06426","6500500","新莊區"
"242044","566-BX","2018/09/11 20:09:34","新北市新莊區中正路929巷7弄10號","121.411308333333","25.0204483333333","6500500","新莊區"
"242048","497-BY","2018/09/11 20:09:37","新北市新莊區四維路182巷6號","121.421928333333","25.0218583333333","6500500","新莊區"
"242054","441-UM","2018/09/11 20:09:27","新北市新莊區西盛街416巷2號","121.42726","25.0122316666667","6500500","新莊區"
"242002","440-UM","2018/09/11 20:09:35","新北市新莊區中正路121-1號","121.459885","25.03853","6500500","新莊區"
"242039","415-TV","2018/09/11 20:09:41","新北市新莊區龍安路497號","121.42598","25.0180933333333","6500500","新莊區"
"242009","413-TV","2018/09/11 20:09:32","新北市新莊區昌平街53號","121.45469","25.0528933333333","6500500","新莊區"
"242046","400-BY","2018/09/11 20:09:27","新北市新莊區裕民街103巷11號","121.419025","25.0229783333333","6500500","新莊區"
"242023","362-BY","2018/09/11 20:09:38","新北市新莊區化成路652號","121.466046666667","25.055715","6500500","新莊區"
"242061","353-BY","2018/09/11 20:09:46","新北市新莊區瓊林北路6號","121.44088","25.0229866666667","6500500","新莊區"
"242011","132-UY","2018/09/11 20:09:30","新北市新莊區中信街61號","121.449261666667","25.0507583333333","6500500","新莊區"
"242034","135-UY","2018/09/11 20:09:37","新北市新莊區中正路318巷2號","121.446183333333","25.0350666666667","6500500","新莊區"
"242051","172-VK","2018/09/11 20:09:34","新北市新莊區民安西路175號","121.426091666667","25.0159683333333","6500500","新莊區"
"242013","173-VK","2018/09/11 20:08:57","新北市新莊區幸福路671巷2弄20號","121.449816666667","25.0489366666667","6500500","新莊區"
"242019","175-VK","2018/09/11 20:09:44","新北市新莊區博愛路2巷2號","121.45656","25.0427516666667","6500500","新莊區"
"242017","346-TH","2018/09/11 20:09:09","新北市新莊區中港路360-2號","121.452111666667","25.04678","6500500","新莊區"
"242042","347-TH","2018/09/11 20:09:31","新北市新莊區新北大道七段316號","121.41364","25.0304683333333","6500500","新莊區"
"242032","348-TH","2018/09/11 20:09:43","新北市新莊區中正路449號","121.443121666667","25.03405","6500500","新莊區"
"242005","349-TH","2018/09/11 20:09:42","新北市新莊區頭興街3巷2號","121.463155","25.05358","6500500","新莊區"
"242021","350-TH","2018/09/11 20:09:35","新北市新莊區中正路210號","121.448995","25.0354583333333","6500500","新莊區"
"242015","351-TH","2018/09/11 20:09:34","新北市新莊區中平路26巷13號","121.445468333333","25.0432933333333","6500500","新莊區"
"221008","489-VK","2018/09/11 20:09:29","台北市內湖區康樂街133號","121.619673333333","25.0738733333333","6501100","汐止區"
"221036","130-UY","2018/09/11 20:09:42","新北市汐止區福安街5號","121.662325","25.0656166666667","6501100","汐止區"
"221015","131-UY","2018/09/11 20:09:39","新北市汐止區建成路152號","121.662048333333","25.073305","6501100","汐止區"
"221010","269-BY","2018/09/11 20:09:33","新北市汐止區八連路一段121-2號","121.64317","25.0797116666667","6501100","汐止區"
"221012","278-VK","2018/09/11 20:09:31","新北市汐止區汐平路二段32號","121.69479","25.0654066666667","6501100","汐止區"
"221023","279-VK","2018/09/11 20:09:34","新北市汐止區明峰街298巷10弄1號","121.624985","25.0688933333333","6501100","汐止區"
"221032","280-BY","2018/09/11 20:09:37","新北市汐止區弘道街8巷5弄4號","121.617328333333","25.04785","6501100","汐止區"
"221027","281-BY","2018/09/11 20:09:27","新北市汐止區中正路106號","121.660893333333","25.0694783333333","6501100","汐止區"
"221033","297-VK","2018/09/11 20:09:31","新北市汐止區東勢街201巷129弄2號","121.633478333333","25.0428383333333","6501100","汐止區"
"221029","298-VK","2018/09/11 20:09:42","新北市汐止區樟樹一路123巷19號","121.641288333333","25.064555","6501100","汐止區"
"221021","299-VK","2018/09/11 20:09:38","新北市汐止區連興街126號","121.653831666667","25.0618866666667","6501100","汐止區"
"221031","353-TW","2018/09/11 20:09:27","新北市汐止區原興路76巷1號","121.631895","25.066435","6501100","汐止區"
"221035","622-UM","2018/09/11 20:09:41","新北市汐止區長江街79巷12號","121.657678333333","25.07285","6501100","汐止區"
"221025","623-UM","2018/09/11 20:09:40","新北市汐止區水源路一段235號","121.654278333333","25.0603633333333","6501100","汐止區"
"221038","646-BX","2018/09/11 20:09:30","新北市汐止區大同路三段41號","121.666825","25.0763966666667","6501100","汐止區"
"221002","707-TV","2018/09/11 20:09:40","新北市汐止區康寧街753巷2弄22號","121.640136666667","25.0745466666667","6501100","汐止區"
"221018","753-BX","2018/09/11 20:09:27","新北市汐止區茄福街35巷39號","121.673628333333","25.0661866666667","6501100","汐止區"
"220101","245-BX","2018/09/11 20:09:36","新北市板橋區雙十路二段47巷31號","121.475181666667","25.025525","6500100","板橋區"
"220071","283-VK","2018/09/11 20:09:39","新北市板橋區和平路174巷47號","121.465576666667","24.9937416666667","6500100","板橋區"
"220053","285-VK","2018/09/11 20:09:26","新北市板橋區懷仁街89號","121.477445","25.01821","6500100","板橋區"
"220083","286-VK","2018/09/11 20:09:33","新北市板橋區僑中二街92巷10號","121.445828333333","25.0090533333333","6500100","板橋區"
"220081","287-VK","2018/09/11 20:09:40","新北市板橋區僑中一街124巷18弄24號","121.44709","25.0136233333333","6500100","板橋區"
"220061","293-UM","2018/09/11 20:09:42","新北市板橋區觀光街2號","121.47241","25.01536","6500100","板橋區"
"220097","299-UM","2018/09/11 20:09:36","新北市板橋區光正街16巷34-1號","121.463445","25.0178966666667","6500100","板橋區"
"220092","307-R5","2018/09/11 20:09:39","新北市板橋區文化路一段81巷7號","121.460608333333","25.0141583333333","6500100","板橋區"
"220064","486-VK","2018/09/11 20:09:34","新北市板橋區長安街331巷9號","121.474111666667","25.0123366666667","6500100","板橋區"
"242007","280-VK","2018/09/11 20:09:39","新北市新莊區思源路419巷1弄15號","121.45924","25.0521866666667","6500500","新莊區"
"220088","491-VK","2018/09/11 20:09:38","新北市板橋區萬板路562號","121.481141666667","25.0266266666667","6500100","板橋區"
"220103","561-BX","2018/09/11 20:09:31","新北市板橋區陽明街88號","121.464298333333","25.0229","6500100","板橋區"
"220093","689-BX","2018/09/11 20:09:37","新北市板橋區長江路一段56號","121.45895","25.0291483333333","6500100","板橋區"
"220102","KEA-2699","2018/09/11 20:09:30","新北市板橋區民治街132號","121.477706666667","25.0308083333333","6500100","板橋區"
"220055","827-TW","2018/09/11 20:09:31","新北市板橋區仁愛路86巷13弄1號","121.46112","24.9988933333333","6500100","板橋區"
"220067","829-TW","2018/09/11 20:09:37","新北市板橋區中山路一段206巷66弄2號","121.471938333333","25.0131683333333","6500100","板橋區"
"220068","830-TW","2018/09/11 20:09:30","新北市板橋區中山路二段318巷2弄2號","121.480356666667","25.019245","6500100","板橋區"
"220089","833-TW","2018/09/11 20:09:30","新北市板橋區互助街68號","121.461038333333","25.0266716666667","6500100","板橋區"
"220074","895-R6","2018/09/11 20:09:31","新北市板橋區府中路67號","121.458118333333","25.009395","6500100","板橋區"
"220073","985-R7","2018/09/11 20:09:34","新北市新莊區三和路12-9號","121.442276666667","25.036675","6500100","板橋區"
"220070","AAC-253","2018/09/11 20:09:39","新北市板橋區德興街33號","121.453543333333","24.993885","6500100","板橋區"
"235068","KEA-2873","2018/09/11 20:09:43","新北市中和區中山路二段250巷13號","121.497251666667","25.00327","6500300","中和區"
