"lineid","car","time","location","longitude","latitude","cityid","cityname"
"234081","298-R6","2018/09/11 20:29:41","新北市永和區福和路59號","121.523005","25.00789","6500400","永和區"
"234064","337-UY","2018/09/11 20:29:24","新北市永和區中正路435號","121.517153333333","25.005135","6500400","永和區"
"234086","338-UY","2018/09/11 20:29:36","新北市永和區光復街21號","121.516496666667","25.0173983333333","6500400","永和區"
"234070","552-UM","2018/09/11 20:29:35","新北市永和區永寧街10號","121.52032","25.0066183333333","6500400","永和區"
"234030","746-BX","2018/09/11 20:29:28","新北市永和區民族街81巷62號","121.520256666667","24.996565","6500400","永和區"
"234054","KEA-2590","2018/09/11 20:29:28","新北市永和區光復街60巷20弄2號","121.517725","25.017495","6500400","永和區"
"234061","AAD-866","2018/09/11 20:29:27","新北市永和區安樂路194巷39弄8號","121.51626","25.00148","6500400","永和區"
"234042","862-TW","2018/09/11 20:29:32","新北市永和區安樂路250號","121.51462","25.0035966666667","6500400","永和區"
"234050","863-TW","2018/09/11 20:29:42","新北市永和區新生路124號","121.506905","25.0144833333333","6500400","永和區"
"249001","173-UM","2018/09/11 20:29:33","新北市八里區下罟子5-11號","121.386871666667","25.1423033333333","6502300","八里區"
"249004","303-UY","2018/09/11 20:29:37","新北市八里區中山路一段336號","121.412641666667","25.1589466666667","6502300","八里區"
"249002","305-UY","2018/09/11 20:29:39","新北市八里區龍米路二段125巷23號","121.445825","25.1454966666667","6502300","八里區"
"249003","593-UM","2018/09/11 20:29:34","新北市八里區華峰一街27-1號","121.399335","25.1465983333333","6502300","八里區"
"234023","9380-KE","2018/09/11 20:29:26","新北市永和區博愛街32巷17-1號","121.518845","25.0152066666667","6500400","永和區"
"234077","969-R7","2018/09/11 20:29:27","新北市中和區中正路561號","121.486941666667","24.9944116666667","6500400","永和區"
"234074","AAC-211","2018/09/11 20:29:43","新北市永和區豫溪街217巷11號","121.52467","25.009725","6500400","永和區"
"234067","AAC-212","2018/09/11 20:29:28","新北市永和區保平路292巷46弄2號","121.507501666667","25.00539","6500400","永和區"
"234003","AAC-295","2018/09/11 20:29:45","新北市永和區大新街61巷2號","121.516071666667","25.0083266666667","6500400","永和區"
"244018","403-UM","2018/09/11 20:12:11","新北市林口區粉寮路二段88巷100-12號","121.409555","25.0902333333333","6501700","林口區"
"243013","AAD-798","2018/09/11 20:29:37","新北市泰山區明志路二段137號","121.427653333333","25.050695","6501600","泰山區"
"243009","297-R6","2018/09/11 20:29:42","新北市泰山區忠孝街16巷8號","121.428103333333","25.065015","6501600","泰山區"
"243016","KEA-2801","2018/09/11 20:29:40","新北市泰山區明志路二段306號","121.426405","25.0462983333333","6501600","泰山區"
"243015","421-VK","2018/09/11 20:29:30","新北市泰山區福興三街21號","121.434468333333","25.0574166666667","6501600","泰山區"
"243011","KEA-2215","2018/09/11 20:29:26","新北市泰山區中山路二段841號","121.425576666667","25.03528","6501600","泰山區"
"243010","KEA-2216","2018/09/11 20:29:43","新北市泰山區新生路31巷10號","121.427673333333","25.0460916666667","6501600","泰山區"
"243012","646-TV","2018/09/11 20:29:28","新北市泰山區明志路一段151號","121.433471666667","25.0627233333333","6501600","泰山區"
"243014","680-BX","2018/09/11 20:29:27","新北市泰山區泰林路二段2-7號","121.4198","25.0651233333333","6501600","泰山區"
"222003","436-BY","2018/09/11 20:29:30","新北市深坑區深坑街27號","121.615966666667","25.0023366666667","6501800","深坑區"
"222002","659-BX","2018/09/11 20:29:40","新北市深坑區萬福路63巷8號","121.600641666667","25.0080216666667","6501800","深坑區"
"231041","002-UM","2018/09/11 20:29:46","新北市新店區中正路508號","121.533921666667","24.983005","6500600","新店區"
"231059","046-UY","2018/09/11 20:29:45","新北市新店區安康路二段237號","121.508241666667","24.9585983333333","6500600","新店區"
"231040","047-UY","2018/09/11 20:29:31","新北市新店區中正路348號","121.536296666667","24.9752616666667","6500600","新店區"
"231044","106-UY","2018/09/11 20:29:29","新北市新店區建國路187號","121.538023333333","24.97962","6500600","新店區"
"231053","108-UY","2018/09/11 20:29:37","新北市新店區松林路38號","121.5463","24.9102533333333","6500600","新店區"
"231048","187-VK","2018/09/11 20:29:42","新北市新店區寶慶街58巷21-1號","121.542015","24.9873266666667","6500600","新店區"
"231054","KEA-2219","2018/09/11 20:29:28","新北市新店區檳榔路109號","121.544573333333","24.9616316666667","6500600","新店區"
"231057","256-BX","2018/09/11 20:29:29","新北市新店區花園五路二段3號","121.553601666667","24.9342666666667","6500600","新店區"
"231042","268-BY","2018/09/11 20:29:43","新北市新店區寶橋路103號","121.548258333333","24.9767916666667","6500600","新店區"
"231051","278-BY","2018/09/11 20:29:35","新北市新店區中央七街59號","121.52818","24.9762166666667","6500600","新店區"
"231050","AAD-862","2018/09/11 20:29:30","新北市新店區建興街9巷1號","121.539906666667","24.97636","6500600","新店區"
"231058","3713-VJ","2018/09/11 20:29:42","新北市新店區自由街27-1號","121.53497","24.9742283333333","6500600","新店區"
"231066","4716-K9","2018/09/11 20:29:28","新北市新店區安興路105-1號","121.514683333333","24.977745","6500600","新店區"
"231056","4715-K9","2018/09/11 20:29:35","新北市新店區中央路17號","121.533181666667","24.9783166666667","6500600","新店區"
"231067","4772-VM","2018/09/11 20:29:36","新北市新店區安華路28-1號","121.519596666667","24.9609216666667","6500600","新店區"
"231065","512-UM","2018/09/11 20:29:30","新北市新店區安祥路102巷42弄35號","121.48526","24.9634516666667","6500600","新店區"
"231049","513-UM","2018/09/11 20:29:35","新北市新店區永業路81巷5弄1號","121.530086666667","24.9490433333333","6500600","新店區"
"231045","617-UM","2018/09/11 20:29:28","新北市新店區新坡一街6號","121.5487","24.9614633333333","6500600","新店區"
"231061","619-UM","2018/09/11 20:29:38","新北市新店區新和街33號","121.519035","24.98474","6500600","新店區"
"231063","641-BX","2018/09/11 20:29:37","新北市新店區安康路二段382號","121.500393333333","24.9571083333333","6500600","新店區"
"231068","718-UY","2018/09/11 20:29:43","新北市新店區民權路8號","121.542496666667","24.9829383333333","6500600","新店區"
"231064","719-UM","2018/09/11 20:29:44","新北市新店區新和街59巷17號","121.519266666667","24.98596","6500600","新店區"
"231062","720-UM","2018/09/11 20:29:41","新北市新店區安泰路11巷1號","121.485648333333","24.950365","6500600","新店區"
"231060","897-TW","2018/09/11 20:29:41","新北市新店區錦秀路56號","121.479018333333","24.943135","6500600","新店區"
"231043","899-TW","2018/09/11 20:29:43","新北市新店區明德路67巷17號","121.540496666667","24.9770616666667","6500600","新店區"
"231055","AKT-0513","2018/09/11 20:29:32","新北市新店區薏仁坑路10-1號","121.499241666667","24.9589966666667","6500600","新店區"
"241011","013-R5","2018/09/11 20:29:34","新北市三重區龍門路42號","121.496138333333","25.0724633333333","6500200","三重區"
"241028","022-UY","2018/09/11 20:29:33","新北市三重區光興街61號","121.498755","25.060235","6500200","三重區"
"241008","059-VK","2018/09/11 20:29:35","新北市三重區下竹圍街93巷1號","121.481111666667","25.07468","6500200","三重區"
"241022","060-VK","2018/09/11 20:29:37","新北市三重區中正北路20巷12號","121.488018333333","25.0624866666667","6500200","三重區"
"241031","061-VK","2018/09/11 20:29:39","新北市三重區三寧街25號","121.489536666667","25.059855","6500200","三重區"
"241015","062-VK","2018/09/11 20:29:41","新北市三重區長元街2-2號","121.49876","25.065845","6500200","三重區"
"241017","063-VK","2018/09/11 20:29:38","新北市三重區自強路一段207號","121.491595","25.0684016666667","6500200","三重區"
"241024","065-VK","2018/09/11 20:29:32","新北市三重區三民街260號","121.479131666667","25.0679983333333","6500200","三重區"
"241026","066-VK","2018/09/11 20:29:26","新北市三重區福德南路8巷18號","121.503531666667","25.0636133333333","6500200","三重區"
"241002","090-VK","2018/09/11 20:29:36","新北市三重區仁義街211巷55號","121.498348333333","25.0827533333333","6500200","三重區"
"241003","091-VK","2018/09/11 20:29:27","新北市三重區富華街214號","121.49347","25.0852066666667","6500200","三重區"
"241009","265-UM","2018/09/11 20:29:42","新北市三重區三和路四段400巷34號","121.479845","25.0790566666667","6500200","三重區"
"241016","266-UM","2018/09/11 20:29:29","新北市三重區正義北路86號","121.497105","25.0645133333333","6500200","三重區"
"241029","267-UM","2018/09/11 20:29:36","新北市三重區集美街225號","121.492071666667","25.0550866666667","6500200","三重區"
"241018","268-UM","2018/09/11 20:29:32","新北市三重區正義北路218號","121.496068333333","25.0675866666667","6500200","三重區"
"241032","269-UM","2018/09/11 20:29:33","新北市三重區重陽路一段120巷35號","121.485143333333","25.0602116666667","6500200","三重區"
"241013","270-UM","2018/09/11 20:29:34","新北市三重區溪尾街5巷23號","121.49261","25.0745933333333","6500200","三重區"
"241025","271-UM","2018/09/11 20:29:42","新北市三重區頂崁街210巷23弄1號","121.475881666667","25.0681433333333","6500200","三重區"
"241007","398-BY","2018/09/11 20:29:31","新北市三重區自強路四段14號","121.488471666667","25.0763083333333","6500200","三重區"
"241035","462-BY","2018/09/11 20:29:38","新北市三重區正義北路104號","121.496991666667","25.0650033333333","6500200","三重區"
"241004","475-VK","2018/09/11 20:29:44","新北市三重區溪尾街253號","121.487928333333","25.08162","6500200","三重區"
"241020","478-VK","2018/09/11 20:29:44","新北市三重區三和路三段170巷8弄22號","121.492633333333","25.0724533333333","6500200","三重區"
"241030","480-VK","2018/09/11 20:29:35","新北市三重區成功路62號","121.488591666667","25.0509","6500200","三重區"
"241014","543-UM","2018/09/11 20:29:28","新北市三重區長興街103號","121.501875","25.0691866666667","6500200","三重區"
"241023","545-UM","2018/09/11 20:29:45","新北市三重區自由街17巷1號","121.47995","25.066705","6500200","三重區"
"241001","547-UM","2018/09/11 20:29:37","新北市三重區聯華街124號","121.485043333333","25.074775","6500200","三重區"
"241019","KEA-2593","2018/09/11 20:29:32","新北市三重區重陽路四段81號","121.492531666667","25.0710266666667","6500200","三重區"
"241006","AAD-863","2018/09/11 20:29:37","新北市三重區車路頭街139巷14號","121.484273333333","25.0762016666667","6500200","三重區"
"241005","887-TS","2018/09/11 20:29:36","新北市三重區碧華街382號","121.491261666667","25.0845233333333","6500200","三重區"
"241012","941-UM","2018/09/11 20:29:38","新北市三重區龍濱路269號","121.501455","25.0730683333333","6500200","三重區"
"241033","AAC-255","2018/09/11 20:29:37","新北市三重區五谷王北街82號","121.476073333333","25.052735","6500200","三重區"
"235066","003-UY","2018/09/11 20:29:30","新北市中和區光華街66號","121.505818333333","25.0035683333333","6500300","中和區"
"235065","098-UM","2018/09/11 20:29:45","新北市中和區福美路315號","121.496766666667","25.00475","6500300","中和區"
"235040","150-BY","2018/09/11 20:29:36","新北市中和區景平路151巷3號","121.514158333333","24.9919283333333","6500300","中和區"
"247012","KEA-2869","2018/09/11 20:29:44","新北市蘆洲區復興路239號","121.480363333333","25.0898383333333","6501400","蘆洲區"
"235050","4979-A6","2018/09/11 20:29:37","新北市中和區景新街160巷8-2號","121.505275","24.996965","6500300","中和區"
"235069","4980-A6","2018/09/11 20:29:34","新北市中和區中正路434號","121.491371666667","24.9942616666667","6500300","中和區"
"235059","AAC-215","2018/09/11 20:29:21","新北市中和區員山路32-4號","121.481215","24.9879066666667","6500300","中和區"
"247002","893-R6","2018/09/11 20:29:26","新北市蘆洲區長安街361巷8號","121.45682","25.08757","6501400","蘆洲區"
"247016","546-UM","2018/09/11 20:29:11","新北市蘆洲區光華路67號","121.468238333333","25.0827133333333","6501400","蘆洲區"
"247024","500-BY","2018/09/11 20:29:38","新北市蘆洲區光復路70巷23號","121.464896666667","25.0851216666667","6501400","蘆洲區"
"247014","339-TH","2018/09/11 20:29:29","新北市蘆洲區中山二路44號","121.47412","25.08216","6501400","蘆洲區"
"247006","337-TH","2018/09/11 20:29:44","新北市蘆洲區光華路175巷48號","121.46538","25.0811533333333","6501400","蘆洲區"
"247008","336-TH","2018/09/11 20:29:29","新北市蘆洲區重陽街91號","121.482455","25.0853566666667","6501400","蘆洲區"
"247020","057-VK","2018/09/11 20:29:35","新北市蘆洲區仁愛街161巷33-1號","121.468608333333","25.094275","6501400","蘆洲區"
"247010","056-VK","2018/09/11 20:29:26","新北市蘆洲區信義路222巷59號","121.48113","25.0853483333333","6501400","蘆洲區"
"247018","007-UY","2018/09/11 20:29:38","新北市蘆洲區民族路327巷73號","121.475311666667","25.0898166666667","6501400","蘆洲區"
"247004","002-UY","2018/09/11 20:29:44","新北市蘆洲區長安街297號","121.458053333333","25.0848933333333","6501400","蘆洲區"
"222001","KEA-2212","2018/09/11 20:29:34","新北市深坑區北深路三段345號","121.597165","25.0050466666667","6501800","深坑區"
"251002","012-UM","2018/09/11 20:29:43","新北市淡水區中正路17號","121.442698333333","25.1696133333333","6501000","淡水區"
"251013","KEA-2871","2018/09/11 20:29:36","新北市淡水區奎柔山路411號","121.463566666667","25.204935","6501000","淡水區"
"251016","179-VK","2018/09/11 20:29:37","新北市淡水區新埔子11-7號","121.44742","25.2285333333333","6501000","淡水區"
"251014","180-VK","2018/09/11 20:29:33","新北市淡水區石頭厝2-7號","121.46014","25.2363366666667","6501000","淡水區"
"251015","181-VK","2018/09/11 20:29:28","新北市淡水區淡金路三段374號","121.449593333333","25.2099366666667","6501000","淡水區"
"251010","413-VK","2018/09/11 20:29:31","新北市淡水區沙崙路181巷1號","121.42401","25.1843766666667","6501000","淡水區"
"251012","441-VK","2018/09/11 20:29:32","新北市淡水區頂田寮路3號","121.453545","25.216715","6501000","淡水區"
"251008","443-VK","2018/09/11 20:29:43","新北市淡水區淡海路111號","121.42174","25.1827116666667","6501000","淡水區"
"251001","559-UM","2018/09/11 20:29:41","新北市淡水區淡金路二段30號","121.452256666667","25.1809766666667","6501000","淡水區"
"251006","561-UM","2018/09/11 20:29:37","新北市淡水區商工路296號","121.460655","25.186125","6501000","淡水區"
"251009","575-R6","2018/09/11 20:29:25","新北市淡水區民權路187巷17號","121.460463333333","25.133405","6501000","淡水區"
"251007","577-R6","2018/09/11 20:29:38","新北市淡水區淡金路一段69號","121.458068333333","25.1735733333333","6501000","淡水區"
"251003","673-BX","2018/09/11 20:29:37","新北市淡水區新生街47號","121.440295","25.1748216666667","6501000","淡水區"
"252002","178-VK","2018/09/11 20:29:34","新北市三芝區淡金路二段47-2號","121.503685","25.260535","6502100","三芝區"
"252001","292-VK","2018/09/11 20:29:29","新北市三芝區中山路一段31號","121.500626666667","25.2580283333333","6502100","三芝區"
"236014","270-VK","2018/09/11 20:29:35","新北市土城區廣明街100號","121.454701666667","24.9944666666667","6501300","土城區"
"242037","AAC-296","2018/09/11 20:29:26","新北市新莊區後港一路56巷12號","121.4265","25.0258433333333","6500500","新莊區"
"242058","986-R7","2018/09/11 20:29:30","新北市新莊區四維路205-2號","121.421796666667","25.0202816666667","6500500","新莊區"
"242056","751-BX","2018/09/11 20:29:38","新北市新莊區瓊泰路152號","121.443203333333","25.0324166666667","6500500","新莊區"
"242027","615-BX","2018/09/11 20:29:31","新北市新莊區思源路259號","121.459883333333","25.0474366666667","6500500","新莊區"
"242025","613-BX","2018/09/11 20:29:45","新北市新莊區五工三路7號","121.459768333333","25.0643","6500500","新莊區"
"242044","566-BX","2018/09/11 20:29:34","新北市新莊區中正路新建巷15弄36號","121.414775","25.0215616666667","6500500","新莊區"
"242048","497-BY","2018/09/11 20:29:37","新北市新莊區中正路871巷1號","121.418163333333","25.0270683333333","6500500","新莊區"
"242054","441-UM","2018/09/11 20:29:31","新北市新莊區西盛街344巷2號","121.42787","25.0141366666667","6500500","新莊區"
"242002","440-UM","2018/09/11 20:29:35","新北市新莊區中正路78-1號","121.458451666667","25.0377983333333","6500500","新莊區"
"242039","415-TV","2018/09/11 20:29:40","新北市新莊區民安路211號","121.426403333333","25.022205","6500500","新莊區"
"242009","413-TV","2018/09/11 20:29:33","新北市新莊區福壽街99巷15弄7號","121.456808333333","25.0501383333333","6500500","新莊區"
"242046","400-BY","2018/09/11 20:29:41","新北市新莊區中正路881-16號","121.417631666667","25.02466","6500500","新莊區"
"242023","362-BY","2018/09/11 20:29:40","新北市新莊區化成路812號","121.46504","25.0597233333333","6500500","新莊區"
"242061","353-BY","2018/09/11 20:29:41","新北市新莊區民安東路41號","121.429036666667","25.020935","6500500","新莊區"
"242011","132-UY","2018/09/11 20:29:30","新北市新莊區中義街16號","121.451051666667","25.051245","6500500","新莊區"
"242034","135-UY","2018/09/11 20:29:37","新北市新莊區中正路289號","121.44867","25.035315","6500500","新莊區"
"242051","172-VK","2018/09/11 20:29:34","新北市新莊區西盛街280巷3-1號","121.427565","25.0153066666667","6500500","新莊區"
"242013","173-VK","2018/09/11 20:29:37","新北市新莊區中平路302巷14號","121.445338333333","25.0521616666667","6500500","新莊區"
"242019","175-VK","2018/09/11 20:29:44","新北市新莊區民樂街87巷9號","121.457318333333","25.0433466666667","6500500","新莊區"
"242017","346-TH","2018/09/11 20:29:29","新北市新莊區中港二街45號","121.450531666667","25.04591","6500500","新莊區"
"242042","347-TH","2018/09/11 20:29:31","新北市新莊區中正路694巷3弄2號","121.418391666667","25.0283033333333","6500500","新莊區"
"242032","348-TH","2018/09/11 20:29:44","新北市新莊區三和路8-9號","121.44088","25.035925","6500500","新莊區"
"242005","349-TH","2018/09/11 20:29:35","新北市新莊區化成路766號","121.46527","25.0588133333333","6500500","新莊區"
"242021","350-TH","2018/09/11 20:29:39","新北市新莊區公園路80號","121.450115","25.0397466666667","6500500","新莊區"
"242015","351-TH","2018/09/11 20:29:34","新北市新莊區中平路36巷21號","121.44565","25.0436133333333","6500500","新莊區"
"221008","489-VK","2018/09/11 20:29:29","新北市汐止區康寧街511號","121.633115","25.0686216666667","6501100","汐止區"
"221036","130-UY","2018/09/11 20:29:42","新北市汐止區新台五路二段138號","121.663895","25.0663883333333","6501100","汐止區"
"221015","131-UY","2018/09/11 20:29:39","新北市汐止區建成路142巷19弄7號","121.662058333333","25.073825","6501100","汐止區"
"221010","269-BY","2018/09/11 20:28:33","新北市汐止區八連路二段610巷17號","121.62501","25.1119433333333","6501100","汐止區"
"221012","278-VK","2018/09/11 20:29:28","新北市汐止區大同路三段188號","121.674831666667","25.07386","6501100","汐止區"
"221023","279-VK","2018/09/11 20:29:34","新北市汐止區湖東街5巷7號","121.63394","25.0729366666667","6501100","汐止區"
"221032","280-BY","2018/09/11 20:29:37","新北市汐止區弘道街53巷22號","121.618795","25.0495016666667","6501100","汐止區"
"221027","281-BY","2018/09/11 20:29:27","新北市汐止區中正路214號","121.658288333333","25.0688783333333","6501100","汐止區"
"221033","297-VK","2018/09/11 20:29:31","新北市汐止區林森街72號","121.623086666667","25.0407316666667","6501100","汐止區"
"221029","298-VK","2018/09/11 20:29:42","新北市汐止區樟樹一路129巷32號","121.640505","25.0651183333333","6501100","汐止區"
"221021","299-VK","2018/09/11 20:29:30","新北市汐止區水源路一段284號","121.654253333333","25.05834","6501100","汐止區"
"221031","353-TW","2018/09/11 20:29:27","新北市汐止區中興路110巷36號","121.634345","25.064705","6501100","汐止區"
"221035","622-UM","2018/09/11 20:29:40","新北市汐止區長江街101-5號","121.658703333333","25.0732166666667","6501100","汐止區"
"221025","623-UM","2018/09/11 20:29:40","新北市汐止區水源路二段110巷1號","121.656713333333","25.0554066666667","6501100","汐止區"
"221038","646-BX","2018/09/11 20:29:30","新北市汐止區水源路一段56號","121.65732","25.0654883333333","6501100","汐止區"
"221002","707-TV","2018/09/11 20:29:40","新北市汐止區原興路72號","121.632298333333","25.06585","6501100","汐止區"
"221018","753-BX","2018/09/11 20:29:27","新北市汐止區茄苳路225巷11弄33號","121.670448333333","25.0700883333333","6501100","汐止區"
"220071","283-VK","2018/09/11 20:29:35","新北市泰山區新五路一段25號","121.442198333333","25.05892","6500100","板橋區"
"220083","286-VK","2018/09/11 20:29:42","新北市板橋區僑中二街106巷22-2號","121.444936666667","25.0077933333333","6500100","板橋區"
"220061","293-UM","2018/09/11 20:29:42","新北市板橋區文華街16號","121.457745","25.0005566666667","6500100","板橋區"
"242007","280-VK","2018/09/11 20:29:39","新北市新莊區思源路243號","121.459593333333","25.0468416666667","6500500","新莊區"
"220103","561-BX","2018/09/11 20:29:31","新北市板橋區漢生東路35號","121.465521666667","25.0171166666667","6500100","板橋區"
"220089","833-TW","2018/09/11 20:29:41","新北市板橋區四維路318號","121.462415","25.030085","6500100","板橋區"
"220070","AAC-253","2018/09/11 20:29:39","新北市新莊區瓊泰路63巷19號","121.442471666667","25.0285866666667","6500100","板橋區"
