"lineid","car","time","location","longitude","latitude","cityid","cityname"
"234030","746-BX","2018/09/11 20:49:27","新北市新莊區五工一路99號","121.460515","25.068285","6500400","永和區"
"234077","969-R7","2018/09/11 20:49:27","新北市八里區下罟子17號","121.379341666667","25.1428233333333","6500400","永和區"
"234074","AAC-211","2018/09/11 20:49:43","新北市永和區環河東路二段30號","121.522565","25.0126783333333","6500400","永和區"
"222003","436-BY","2018/09/11 20:49:30","新北市深坑區文山路三段48-1號","121.609948333333","24.9985216666667","6501800","深坑區"
"222002","659-BX","2018/09/11 20:49:40","新北市深坑區北深路三段93巷57號","121.604128333333","25.0006633333333","6501800","深坑區"
"231059","046-UY","2018/09/11 20:49:25","新北市新店區僑愛一路1號","121.499958333333","24.9447416666667","6500600","新店區"
"231040","047-UY","2018/09/11 20:49:31","新北市新店區中正路268號","121.539013333333","24.9735516666667","6500600","新店區"
"231044","106-UY","2018/09/11 20:49:29","新北市新店區中正路403號","121.534308333333","24.9775333333333","6500600","新店區"
"231053","108-UY","2018/09/11 20:49:37","新北市新店區新烏路一段100-2號","121.546388333333","24.9371333333333","6500600","新店區"
"231048","187-VK","2018/09/11 20:49:42","新北市新店區寶元路一段109號","121.545721666667","24.98312","6500600","新店區"
"231054","KEA-2219","2018/09/11 20:49:28","新北市新店區北新路一段96巷23號","121.543035","24.9688033333333","6500600","新店區"
"231057","256-BX","2018/09/11 20:49:29","新北市新店區新烏路一段60號","121.545951666667","24.948285","6500600","新店區"
"231042","268-BY","2018/09/11 20:49:33","新北市新店區寶高路120巷1號","121.554563333333","24.97607","6500600","新店區"
"231051","278-BY","2018/09/11 20:49:35","新北市新店區民生路156巷111號","121.526923333333","24.9823383333333","6500600","新店區"
"231050","AAD-862","2018/09/11 20:49:30","新北市新店區三民路20巷32號","121.538055","24.9713683333333","6500600","新店區"
"231058","3713-VJ","2018/09/11 20:49:42","新北市新店區三民路159巷19弄2號","121.532753333333","24.9742483333333","6500600","新店區"
"231066","4716-K9","2018/09/11 20:49:28","新北市新店區安興路112號","121.5148","24.97766","6500600","新店區"
"231056","4715-K9","2018/09/11 20:49:35","新北市新店區薏仁坑路自強巷6號","121.49718","24.958825","6500600","新店區"
"231067","4772-VM","2018/09/11 20:49:36","新北市新店區安華路28-1號","121.520006666667","24.960775","6500600","新店區"
"231065","512-UM","2018/09/11 20:49:30","新北市新店區安祥路104巷6弄27號","121.482266666667","24.962775","6500600","新店區"
"231049","513-UM","2018/09/11 20:49:35","新北市新店區華潭街22號","121.529183333333","24.9528466666667","6500600","新店區"
"231045","617-UM","2018/09/11 20:49:28","新北市新店區檳榔路2號","121.540935","24.9650083333333","6500600","新店區"
"231061","619-UM","2018/09/11 20:49:38","新北市新店區新和街77號","121.52064","24.9860866666667","6500600","新店區"
"231063","641-BX","2018/09/11 20:49:37","新北市新店區如意街8號","121.49487","24.9482366666667","6500600","新店區"
"231068","718-UY","2018/09/11 20:49:43","新北市新店區中興路三段228巷28號","121.544748333333","24.9834816666667","6500600","新店區"
"231064","719-UM","2018/09/11 20:49:18","新北市新店區安民街377號","121.516285","24.97629","6500600","新店區"
"231062","720-UM","2018/09/11 20:49:41","新北市新店區和成街17-1號","121.48765","24.9466816666667","6500600","新店區"
"231060","897-TW","2018/09/11 20:49:41","新北市新店區安康路三段567-1號","121.475545","24.9432666666667","6500600","新店區"
"231043","899-TW","2018/09/11 20:49:33","新北市新店區建國路95號","121.540473333333","24.9768016666667","6500600","新店區"
"241011","013-R5","2018/09/11 20:49:34","新北市三重區龍濱路211號","121.501843333333","25.0718016666667","6500200","三重區"
"241028","022-UY","2018/09/11 20:49:33","新北市三重區中正南路41巷1號","121.493811666667","25.05989","6500200","三重區"
"241008","059-VK","2018/09/11 20:49:30","新北市三重區永福街72巷11號","121.47941","25.0768066666667","6500200","三重區"
"241022","060-VK","2018/09/11 20:49:37","新北市三重區重陽路二段19巷12號","121.48807","25.0624466666667","6500200","三重區"
"241031","061-VK","2018/09/11 20:49:39","新北市三重區重陽路一段113巷1弄1號","121.487491666667","25.059825","6500200","三重區"
"241015","062-VK","2018/09/11 20:49:41","新北市三重區三和路二段172號","121.49905","25.0686483333333","6500200","三重區"
"241017","063-VK","2018/09/11 20:49:38","新北市三重區自強路一段272號","121.49217","25.0677116666667","6500200","三重區"
"241024","065-VK","2018/09/11 20:49:32","新北市三重區三民街326號","121.47663","25.0693583333333","6500200","三重區"
"241026","066-VK","2018/09/11 20:49:46","新北市三重區文化南路3號","121.500071666667","25.0624116666667","6500200","三重區"
"241002","090-VK","2018/09/11 20:49:36","新北市三重區仁義街157巷23號","121.497845","25.081295","6500200","三重區"
"241009","265-UM","2018/09/11 20:49:42","新北市三重區三和路四段197號","121.48212","25.0792616666667","6500200","三重區"
"241016","266-UM","2018/09/11 20:49:29","新北市三重區自強路一段99號","121.495733333333","25.0663316666667","6500200","三重區"
"241029","267-UM","2018/09/11 20:49:36","新北市三重區重安街14號","121.49026","25.05819","6500200","三重區"
"241018","268-UM","2018/09/11 20:49:32","新北市三重區正義北路243號","121.495706666667","25.0693933333333","6500200","三重區"
"241032","269-UM","2018/09/11 20:49:33","新北市三重區重陽路一段120巷35號","121.48513","25.06022","6500200","三重區"
"241013","270-UM","2018/09/11 20:49:34","新北市三重區仁賢街12-1號","121.495681666667","25.07489","6500200","三重區"
"241025","271-UM","2018/09/11 20:49:22","新北市三重區貴陽街21號","121.484281666667","25.06191","6500200","三重區"
"241007","398-BY","2018/09/11 20:49:31","新北市三重區慈愛街10號","121.484528333333","25.07839","6500200","三重區"
"241035","462-BY","2018/09/11 20:49:38","新北市三重區三和路二段228號","121.497626666667","25.069795","6500200","三重區"
"241004","475-VK","2018/09/11 20:49:44","新北市三重區分子尾街19號","121.48955","25.08102","6500200","三重區"
"241020","478-VK","2018/09/11 20:49:44","新北市三重區忠孝路一段101號","121.489456666667","25.0721016666667","6500200","三重區"
"241030","480-VK","2018/09/11 20:49:35","新北市三重區昌隆街26號","121.491988333333","25.052235","6500200","三重區"
"241014","543-UM","2018/09/11 20:49:28","新北市三重區萬全街81號","121.501573333333","25.0703533333333","6500200","三重區"
"241023","545-UM","2018/09/11 20:49:25","新北市三重區忠孝路三段99巷4號","121.480173333333","25.064205","6500200","三重區"
"241001","547-UM","2018/09/11 20:49:37","新北市三重區三和路四段120號","121.48918","25.07485","6500200","三重區"
"241019","KEA-2593","2018/09/11 20:49:32","新北市三重區大智街190號","121.490531666667","25.0708133333333","6500200","三重區"
"241006","AAD-863","2018/09/11 20:49:37","新北市三重區車路頭街139巷14號","121.484265","25.0761916666667","6500200","三重區"
"241005","887-TS","2018/09/11 20:49:36","新北市三重區五華街141巷1號","121.491078333333","25.084705","6500200","三重區"
"241012","941-UM","2018/09/11 20:49:44","新北市三重區仁信街27號","121.50131","25.0755883333333","6500200","三重區"
"241033","AAC-255","2018/09/11 20:49:37","新北市三重區興德路100號","121.472335","25.0532233333333","6500200","三重區"
"247012","KEA-2869","2018/09/11 20:49:44","新北市蘆洲區集賢路224巷28號","121.48156","25.0875283333333","6501400","蘆洲區"
"235069","4980-A6","2018/09/11 20:49:28","新北市中和區員山路381巷1弄18號","121.480918333333","25.0022566666667","6500300","中和區"
"247002","893-R6","2018/09/11 20:49:46","新北市蘆洲區長安街315號","121.457463333333","25.0860233333333","6501400","蘆洲區"
"247016","546-UM","2018/09/11 20:49:29","新北市蘆洲區中正路69號","121.470448333333","25.0827333333333","6501400","蘆洲區"
"247024","500-BY","2018/09/11 20:49:38","新北市蘆洲區長樂路140號","121.46223","25.0902166666667","6501400","蘆洲區"
"247014","339-TH","2018/09/11 20:49:29","新北市蘆洲區三民路97號","121.473655","25.0851133333333","6501400","蘆洲區"
"247006","337-TH","2018/09/11 20:49:44","新北市蘆洲區永安南路二段16巷8號","121.467746666667","25.0771733333333","6501400","蘆洲區"
"247008","336-TH","2018/09/11 20:49:29","新北市三重區永安北路二段5巷1-1號","121.481471666667","25.080855","6501400","蘆洲區"
"247020","057-VK","2018/09/11 20:49:35","新北市蘆洲區仁愛街66號","121.471541666667","25.0938433333333","6501400","蘆洲區"
"247010","056-VK","2018/09/11 20:49:33","新北市蘆洲區鷺江街101號","121.476831666667","25.083995","6501400","蘆洲區"
"247004","002-UY","2018/09/11 20:49:43","新北市蘆洲區長安街103號","121.461538333333","25.0808316666667","6501400","蘆洲區"
"247022","001-UY","2018/09/11 20:49:48","新北市蘆洲區水湳街36-6號","121.47114","25.0896733333333","6501400","蘆洲區"
"222001","KEA-2212","2018/09/11 20:49:34","新北市深坑區北深路三段137號","121.603948333333","25.00256","6501800","深坑區"
"251002","012-UM","2018/09/11 20:49:43","新北市淡水區中正東路6號","121.447043333333","25.1670683333333","6501000","淡水區"
"251013","KEA-2871","2018/09/11 20:49:36","新北市淡水區埤島41號","121.451993333333","25.19785","6501000","淡水區"
"251016","179-VK","2018/09/11 20:49:37","新北市淡水區興仁路165號","121.451498333333","25.2200766666667","6501000","淡水區"
"251014","180-VK","2018/09/11 20:49:33","新北市淡水區公埔子32-8號","121.461661666667","25.2323733333333","6501000","淡水區"
"251015","181-VK","2018/09/11 20:49:28","新北市淡水區淡金路四段542巷17號","121.452718333333","25.227085","6501000","淡水區"
"251010","413-VK","2018/09/11 20:49:31","新北市淡水區沙崙路141-1號","121.423306666667","25.1830433333333","6501000","淡水區"
"251012","441-VK","2018/09/11 20:49:46","新北市淡水區淡金路四段516號","121.452006666667","25.2259066666667","6501000","淡水區"
"251001","559-UM","2018/09/11 20:49:41","新北市淡水區淡金路一段69號","121.458826666667","25.1731033333333","6501000","淡水區"
"251006","561-UM","2018/09/11 20:49:37","新北市淡水區沙崙路300號","121.428516666667","25.1867033333333","6501000","淡水區"
"251009","575-R6","2018/09/11 20:49:25","新北市淡水區民權路187巷17號","121.46045","25.1334933333333","6501000","淡水區"
"251007","577-R6","2018/09/11 20:49:38","新北市淡水區鄧公路29巷26號","121.45275","25.170235","6501000","淡水區"
"251011","650-BX","2018/09/11 20:49:32","新北市淡水區新民街一段13-1號","121.433075","25.184565","6501000","淡水區"
"251003","673-BX","2018/09/11 20:49:37","新北市淡水區中山北路一段247巷86號","121.442471666667","25.17958","6501000","淡水區"
"242037","AAC-296","2018/09/11 20:49:45","新北市新莊區中正路455號","121.442746666667","25.03397","6500500","新莊區"
"242027","615-BX","2018/09/11 20:49:30","新北市板橋區金門街215巷111弄24號","121.434386666667","24.9874466666667","6500500","新莊區"
"242044","566-BX","2018/09/11 20:49:34","新北市新莊區龍安路108號","121.418373333333","25.0204966666667","6500500","新莊區"
"242054","441-UM","2018/09/11 20:49:27","新北市新莊區環漢路四段1號","121.435091666667","25.0004","6500500","新莊區"
"242002","440-UM","2018/09/11 20:49:35","新北市新莊區中港路五守新村1巷5號","121.455331666667","25.03821","6500500","新莊區"
"242009","413-TV","2018/09/11 20:49:33","新北市新莊區思源路69號","121.459913333333","25.0406433333333","6500500","新莊區"
"242023","362-BY","2018/09/11 20:49:37","新北市新莊區環河路116-1號","121.46041","25.0375983333333","6500500","新莊區"
"242011","132-UY","2018/09/11 20:49:30","新北市新莊區中原路656號","121.443921666667","25.0543933333333","6500500","新莊區"
"242034","135-UY","2018/09/11 20:49:37","新北市新莊區中正路222號","121.448678333333","25.0354033333333","6500500","新莊區"
"242051","172-VK","2018/09/11 20:49:34","新北市新莊區新樹路337號","121.433058333333","25.0186866666667","6500500","新莊區"
"242019","175-VK","2018/09/11 20:49:44","新北市新莊區瓊林路59-87號","121.443211666667","25.0242516666667","6500500","新莊區"
"242042","347-TH","2018/09/11 20:49:30","新北市新莊區天祥街44號","121.416835","25.02889","6500500","新莊區"
"242032","348-TH","2018/09/11 20:49:43","新北市新莊區中正路535-11號","121.437528333333","25.03301","6500500","新莊區"
"242015","351-TH","2018/09/11 20:49:34","新北市新莊區復興路一段85號","121.448438333333","25.042675","6500500","新莊區"
"221015","131-UY","2018/09/11 20:49:39","新北市汐止區鄉長路一段289號","121.669005","25.0790466666667","6501100","汐止區"
"221027","281-BY","2018/09/11 20:49:47","新北市汐止區大同路二段361號","121.657206666667","25.0673","6501100","汐止區"
"221033","297-VK","2018/09/11 20:49:31","新北市汐止區合順街18巷8弄5號","121.620311666667","25.0419383333333","6501100","汐止區"
"221029","298-VK","2018/09/11 20:49:42","新北市汐止區樟樹二路355號","121.644258333333","25.0741666666667","6501100","汐止區"
"221035","622-UM","2018/09/11 20:49:40","新北市汐止區康寧街901號","121.651375","25.075","6501100","汐止區"
"221025","623-UM","2018/09/11 20:49:40","新北市汐止區汐萬路一段284號","121.650785","25.0742433333333","6501100","汐止區"
"221038","646-BX","2018/09/11 20:49:30","新北市汐止區汐萬路一段256巷3號","121.652053333333","25.0747716666667","6501100","汐止區"
"221002","707-TV","2018/09/11 20:49:40","新北市汐止區福德一路310巷7弄1-1號","121.629325","25.064505","6501100","汐止區"
"221018","753-BX","2018/09/11 20:49:47","新北市汐止區大同路二段387號","121.657681666667","25.0672316666667","6501100","汐止區"
"220071","283-VK","2018/09/11 20:49:35","新北市林口區太平里180號","121.366495","25.134405","6500100","板橋區"
"220070","AAC-253","2018/09/11 20:49:39","新北市林口區汕頭32號","121.366495","25.1350166666667","6500100","板橋區"
