"lineid","car","time","location","longitude","latitude","cityid","cityname"
"234030","746-BX","2018/09/11 20:59:27","新北市八里區商港路88-4號","121.393663333333","25.1488933333333","6500400","永和區"
"234077","969-R7","2018/09/11 20:59:47","新北市八里區中山路三段409號","121.368385","25.134885","6500400","永和區"
"231059","046-UY","2018/09/11 20:59:45","新北市新店區僑信路124號","121.500581666667","24.9462366666667","6500600","新店區"
"231040","047-UY","2018/09/11 20:59:31","新北市新店區中正路177號","121.540873333333","24.9721333333333","6500600","新店區"
"231053","108-UY","2018/09/11 20:59:37","新北市新店區安康路一段3-1號","121.534733333333","24.9609083333333","6500600","新店區"
"231048","187-VK","2018/09/11 20:59:42","新北市新店區寶元路一段109號","121.545718333333","24.98312","6500600","新店區"
"231054","KEA-2219","2018/09/11 20:59:28","新北市新店區北新路一段96巷23號","121.542985","24.9686983333333","6500600","新店區"
"231042","268-BY","2018/09/11 20:59:33","新北市新店區中興路二段225號","121.547925","24.9746666666667","6500600","新店區"
"231051","278-BY","2018/09/11 20:59:35","新北市新店區中正路663巷1弄2號","121.532956666667","24.9900166666667","6500600","新店區"
"231050","AAD-862","2018/09/11 20:59:30","新北市新店區三民路75巷5弄1號","121.535578333333","24.970875","6500600","新店區"
"231066","4716-K9","2018/09/11 20:59:48","新北市新店區吉安街14號","121.516731666667","24.96577","6500600","新店區"
"231067","4772-VM","2018/09/11 20:59:36","新北市新店區安德街148巷18號","121.507668333333","24.9602566666667","6500600","新店區"
"231065","512-UM","2018/09/11 20:59:30","新北市新店區安祥路69巷67號","121.482583333333","24.9597016666667","6500600","新店區"
"231049","513-UM","2018/09/11 20:59:35","新北市新店區柴埕路38-8號","121.513346666667","24.964975","6500600","新店區"
"231061","619-UM","2018/09/11 20:59:38","新北市新店區永安街109巷9號","121.52133","24.9858916666667","6500600","新店區"
"231063","641-BX","2018/09/11 20:59:37","新北市新店區玫瑰路51巷1號","121.495841666667","24.948015","6500600","新店區"
"231068","718-UY","2018/09/11 20:59:43","新北市新店區寶元路二段64巷1號","121.547256666667","24.9810616666667","6500600","新店區"
"231064","719-UM","2018/09/11 20:58:04","新北市新店區安民街303巷9弄2號","121.516921666667","24.9733933333333","6500600","新店區"
"231062","720-UM","2018/09/11 20:59:41","新北市新店區裕合街92號","121.490373333333","24.948805","6500600","新店區"
"231060","897-TW","2018/09/11 20:59:41","新北市新店區安康路三段318號","121.486881666667","24.9519416666667","6500600","新店區"
"231043","899-TW","2018/09/11 20:59:33","新北市新店區中央路151號","121.529463333333","24.97234","6500600","新店區"
"241011","013-R5","2018/09/11 20:59:34","新北市三重區介壽路26號","121.499736666667","25.0721516666667","6500200","三重區"
"241028","022-UY","2018/09/11 20:59:33","新北市三重區重新路三段82號","121.49311","25.0609016666667","6500200","三重區"
"241008","059-VK","2018/09/11 20:59:30","新北市三重區力行路二段162巷7號","121.482585","25.0765766666667","6500200","三重區"
"241022","060-VK","2018/09/11 20:59:37","新北市三重區重陽路二段19巷12號","121.488078333333","25.0624516666667","6500200","三重區"
"241031","061-VK","2018/09/11 20:59:39","新北市三重區重陽路一段113巷1弄1號","121.487458333333","25.0598416666667","6500200","三重區"
"241015","062-VK","2018/09/11 20:59:41","新北市三重區福德北路63號","121.502095","25.0655233333333","6500200","三重區"
"241017","063-VK","2018/09/11 20:59:38","新北市三重區大仁街23號","121.49207","25.0645116666667","6500200","三重區"
"241024","065-VK","2018/09/11 20:59:32","新北市三重區國道路一段58巷20號","121.481245","25.0720016666667","6500200","三重區"
"241026","066-VK","2018/09/11 20:59:30","新北市三重區文化南路22號","121.500266666667","25.0616733333333","6500200","三重區"
"241002","090-VK","2018/09/11 20:59:36","新北市三重區五華街11號","121.494965","25.0802683333333","6500200","三重區"
"241003","091-VK","2018/09/11 20:59:27","新北市三重區進安街198號","121.493835","25.0860066666667","6500200","三重區"
"241009","265-UM","2018/09/11 20:59:42","新北市三重區力行路二段145號","121.483591666667","25.077405","6500200","三重區"
"241016","266-UM","2018/09/11 20:59:29","新北市三重區正義北路176號","121.496481666667","25.0664416666667","6500200","三重區"
"241029","267-UM","2018/09/11 20:59:36","新北市三重區正義南路111號","121.49828","25.0585566666667","6500200","三重區"
"241018","268-UM","2018/09/11 20:59:32","新北市三重區雙園街136號","121.493875","25.0672683333333","6500200","三重區"
"241032","269-UM","2018/09/11 20:59:41","新北市三重區三陽路112號","121.483118333333","25.0587783333333","6500200","三重區"
"241013","270-UM","2018/09/11 20:59:34","新北市三重區仁賢街12-1號","121.495695","25.0748833333333","6500200","三重區"
"241025","271-UM","2018/09/11 20:59:42","新北市三重區貴陽街18號","121.484145","25.0618483333333","6500200","三重區"
"241007","398-BY","2018/09/11 20:59:40","新北市三重區慈愛街51號","121.486248333333","25.0790516666667","6500200","三重區"
"241004","475-VK","2018/09/11 20:59:44","新北市三重區仁愛街423-1號","121.490401666667","25.0814516666667","6500200","三重區"
"241020","478-VK","2018/09/11 20:59:44","新北市三重區忠孝路二段31號","121.48597","25.0710766666667","6500200","三重區"
"241030","480-VK","2018/09/11 20:59:35","新北市三重區中正南路252巷5號","121.493418333333","25.0526733333333","6500200","三重區"
"241014","543-UM","2018/09/11 20:59:28","新北市三重區長榮路75號","121.502565","25.0691533333333","6500200","三重區"
"241023","545-UM","2018/09/11 20:59:25","新北市三重區洛陽街45巷15號","121.482378333333","25.0637866666667","6500200","三重區"
"241001","547-UM","2018/09/11 20:59:37","新北市三重區自強路三段87巷23號","121.488395","25.074995","6500200","三重區"
"241019","KEA-2593","2018/09/11 20:59:32","新北市三重區自強路二段74巷19號","121.488055","25.0699","6500200","三重區"
"241006","AAD-863","2018/09/11 20:59:37","新北市三重區永福街58巷3弄27號","121.480653333333","25.0775366666667","6500200","三重區"
"241005","887-TS","2018/09/11 20:59:36","新北市三重區三信路182號","121.487978333333","25.0861266666667","6500200","三重區"
"241012","941-UM","2018/09/11 20:59:25","新北市三重區仁信街27號","121.501311666667","25.0755666666667","6500200","三重區"
"241033","AAC-255","2018/09/11 20:59:37","新北市三重區光復路二段1號","121.472215","25.053275","6500200","三重區"
"247012","KEA-2869","2018/09/11 20:59:44","新北市蘆洲區民權路26號","121.476733333333","25.0857916666667","6501400","蘆洲區"
"235069","4980-A6","2018/09/11 20:59:28","新北市中和區中正路637巷32號","121.484883333333","24.9945483333333","6500300","中和區"
"247002","893-R6","2018/09/11 20:59:46","新北市蘆洲區永樂街38巷57弄2號","121.458486666667","25.0901916666667","6501400","蘆洲區"
"247016","546-UM","2018/09/11 20:59:29","新北市蘆洲區正和街83號","121.468161666667","25.080755","6501400","蘆洲區"
"247024","500-BY","2018/09/11 20:59:38","新北市蘆洲區長興路213號","121.46113","25.0862966666667","6501400","蘆洲區"
"247014","339-TH","2018/09/11 20:59:28","新北市蘆洲區中山二路36巷31號","121.474186666667","25.083175","6501400","蘆洲區"
"247006","337-TH","2018/09/11 20:59:44","新北市蘆洲區永安南路二段16巷8號","121.467761666667","25.07719","6501400","蘆洲區"
"247008","336-TH","2018/09/11 20:59:29","新北市蘆洲區中山一路276號","121.471585","25.079245","6501400","蘆洲區"
"247020","057-VK","2018/09/11 20:59:35","新北市蘆洲區民族路488號","121.471098333333","25.0912483333333","6501400","蘆洲區"
"247010","056-VK","2018/09/11 20:59:26","新北市蘆洲區鷺江街87號","121.476968333333","25.08361","6501400","蘆洲區"
"247018","007-UY","2018/09/11 20:59:38","新北市蘆洲區民權路134巷2號","121.473383333333","25.0890083333333","6501400","蘆洲區"
"247004","002-UY","2018/09/11 20:59:43","新北市蘆洲區永安南路二段256號","121.459618333333","25.08044","6501400","蘆洲區"
"247022","001-UY","2018/09/11 20:59:28","新北市蘆洲區三民路263號","121.468246666667","25.089355","6501400","蘆洲區"
"222001","KEA-2212","2018/09/11 20:59:14","新北市深坑區北深路三段25巷15-2號","121.608625","25.00001","6501800","深坑區"
"251005","010-UM","2018/09/11 20:59:41","新北市淡水區學府路73巷2弄1號","121.447911666667","25.1700433333333","6501000","淡水區"
"251002","012-UM","2018/09/11 20:59:43","新北市淡水區英專路77號","121.445758333333","25.1714333333333","6501000","淡水區"
"251013","KEA-2871","2018/09/11 20:59:36","新北市淡水區中洲(子)6號","121.470246666667","25.2009966666667","6501000","淡水區"
"251016","179-VK","2018/09/11 20:59:37","新北市淡水區牛埔子11-1號","121.45017","25.2184516666667","6501000","淡水區"
"251014","180-VK","2018/09/11 20:59:33","新北市淡水區溪口28號","121.45493","25.2367683333333","6501000","淡水區"
"251015","181-VK","2018/09/11 20:59:48","新北市淡水區淡金路四段542巷17號","121.452713333333","25.2270916666667","6501000","淡水區"
"251010","413-VK","2018/09/11 20:59:31","新北市淡水區中正路一段116-3號","121.423888333333","25.1787516666667","6501000","淡水區"
"251012","441-VK","2018/09/11 20:59:46","新北市淡水區淡金路五段120號","121.456583333333","25.2370733333333","6501000","淡水區"
"251001","559-UM","2018/09/11 20:59:41","新北市淡水區淡金路二段147號","121.449655","25.1828716666667","6501000","淡水區"
"251006","561-UM","2018/09/11 20:54:53","新北市淡水區中正路二段31號","121.419228333333","25.1818633333333","6501000","淡水區"
"251009","575-R6","2018/09/11 20:59:25","新北市淡水區民權路187巷34號","121.460525","25.13344","6501000","淡水區"
"251007","577-R6","2018/09/11 20:59:38","新北市淡水區仁愛街2巷7號","121.446081666667","25.1705833333333","6501000","淡水區"
"251011","650-BX","2018/09/11 20:59:32","新北市淡水區新民街302-1號","121.435176666667","25.183085","6501000","淡水區"
"251003","673-BX","2018/09/11 20:59:37","新北市淡水區新春街125巷11號","121.441428333333","25.18281","6501000","淡水區"
"242054","441-UM","2018/09/11 20:59:27","新北市樹林區八德街67號","121.39931","24.9692766666667","6500500","新莊區"
"242023","362-BY","2018/09/11 20:59:37","新北市板橋區金門街215巷57弄40-2號","121.435001666667","24.9904266666667","6500500","新莊區"
"221015","131-UY","2018/09/11 20:59:39","新北市汐止區汐萬路一段256巷3號","121.653491666667","25.0746166666667","6501100","汐止區"
"221027","281-BY","2018/09/11 20:59:47","新北市汐止區汐萬路一段256巷1號","121.651758333333","25.0749016666667","6501100","汐止區"
"221029","298-VK","2018/09/11 20:59:42","新北市汐止區汐萬路一段256巷1號","121.651705","25.0748883333333","6501100","汐止區"
"220071","283-VK","2018/09/11 20:59:35","新北市林口區太平里180號","121.366663333333","25.1339633333333","6500100","板橋區"
"220070","AAC-253","2018/09/11 20:58:59","新北市林口區太平里180號","121.36832","25.134705","6500100","板橋區"
