"lineid","car","time","location","longitude","latitude","cityid","cityname"
"234077","969-R7","2018/09/11 21:09:07","新北市八里區中山路三段390號","121.368215","25.1352283333333","6500400","永和區"
"243001","297-R6","2018/09/11 21:08:58","新北市泰山區黎明路25號","121.421881666667","25.0609083333333","6501600","泰山區"
"243006","680-BX","2018/09/11 21:08:12","新北市泰山區黎明路25號","121.422071666667","25.0606433333333","6501600","泰山區"
"231059","046-UY","2018/09/11 21:09:05","新北市新店區僑信路25號","121.499485","24.9512766666667","6500600","新店區"
"231040","047-UY","2018/09/11 21:09:10","新北市新店區北新路一段100號","121.54219","24.96946","6500600","新店區"
"231048","187-VK","2018/09/11 21:09:02","新北市新店區文化路54號","121.544701666667","24.980975","6500600","新店區"
"231054","KEA-2219","2018/09/11 21:09:08","新北市新店區大新街7巷25弄2號","121.544343333333","24.96778","6500600","新店區"
"231042","268-BY","2018/09/11 21:09:13","新北市新店區寶興路60巷4號","121.549875","24.9718766666667","6500600","新店區"
"231051","278-BY","2018/09/11 21:09:15","新北市新店區中正路700巷82號","121.535973333333","24.9931866666667","6500600","新店區"
"231050","AAD-862","2018/09/11 21:09:10","新北市新店區中華路117巷6弄2號","121.537808333333","24.9687883333333","6500600","新店區"
"231067","4772-VM","2018/09/11 21:08:56","新北市新店區薏仁坑路6號","121.500196666667","24.9579","6500600","新店區"
"231065","512-UM","2018/09/11 21:09:10","新北市新店區安祥路69巷41弄70號","121.48238","24.9615416666667","6500600","新店區"
"231061","619-UM","2018/09/11 21:08:58","新北市新店區永安街32號","121.517768333333","24.986595","6500600","新店區"
"231063","641-BX","2018/09/11 21:08:57","新北市新店區玫瑰路58巷1號","121.495566666667","24.946515","6500600","新店區"
"231064","719-UM","2018/09/11 21:08:44","新北市新店區薏仁坑路自強巷1號","121.497128333333","24.9578766666667","6500600","新店區"
"231062","720-UM","2018/09/11 21:09:01","新北市新店區雙城路22號","121.491656666667","24.9505183333333","6500600","新店區"
"231060","897-TW","2018/09/11 21:09:02","新北市新店區薏仁坑路23號","121.497726666667","24.9588733333333","6500600","新店區"
"241011","013-R5","2018/09/11 21:09:14","新北市三重區秀江街53號","121.50103","25.0726266666667","6500200","三重區"
"241028","022-UY","2018/09/11 21:09:13","新北市三重區正義南路47號","121.498226666667","25.060705","6500200","三重區"
"241008","059-VK","2018/09/11 21:09:10","新北市三重區長壽街2號","121.498333333333","25.0678016666667","6500200","三重區"
"241022","060-VK","2018/09/11 21:08:57","新北市三重區中正北路64巷20號","121.486145","25.0637966666667","6500200","三重區"
"241031","061-VK","2018/09/11 21:08:59","新北市三重區重新路五段283號","121.479201666667","25.04919","6500200","三重區"
"241015","062-VK","2018/09/11 21:09:01","新北市三重區福德北路89號","121.501908333333","25.0662016666667","6500200","三重區"
"241017","063-VK","2018/09/11 21:09:18","新北市三重區國隆路31號","121.492406666667","25.0645066666667","6500200","三重區"
"241024","065-VK","2018/09/11 21:09:12","新北市三重區國道路一段58巷20號","121.4813","25.0720433333333","6500200","三重區"
"241026","066-VK","2018/09/11 21:09:10","新北市三重區中央南路95巷25-3號","121.500351666667","25.0607466666667","6500200","三重區"
"241002","090-VK","2018/09/11 21:08:56","新北市三重區五華街16號","121.494846666667","25.0803016666667","6500200","三重區"
"241003","091-VK","2018/09/11 21:09:07","新北市三重區仁義街224號","121.494971666667","25.0847","6500200","三重區"
"241009","265-UM","2018/09/11 21:09:02","新北市三重區忠孝路二段124號","121.483046666667","25.0688316666667","6500200","三重區"
"241016","266-UM","2018/09/11 21:09:09","新北市三重區信義西街138號","121.495681666667","25.064265","6500200","三重區"
"241029","267-UM","2018/09/11 21:08:56","新北市三重區正義南路111號","121.498271666667","25.0585533333333","6500200","三重區"
"241018","268-UM","2018/09/11 21:09:12","新北市三重區六張街39號","121.494251666667","25.070495","6500200","三重區"
"241032","269-UM","2018/09/11 21:09:12","新北市三重區光華路20號","121.469043333333","25.0596583333333","6500200","三重區"
"241013","270-UM","2018/09/11 21:09:14","新北市三重區仁賢街12-1號","121.49569","25.0748883333333","6500200","三重區"
"241025","271-UM","2018/09/11 21:09:02","新北市三重區中正北路208巷8號","121.482341666667","25.0669316666667","6500200","三重區"
"241007","398-BY","2018/09/11 21:09:11","新北市三重區三和路四段145巷85號","121.486396666667","25.0787466666667","6500200","三重區"
"241004","475-VK","2018/09/11 21:09:04","新北市三重區仁愛街423-1號","121.490435","25.0814933333333","6500200","三重區"
"241020","478-VK","2018/09/11 21:09:04","新北市三重區忠孝路二段34號","121.485821666667","25.070805","6500200","三重區"
"241030","480-VK","2018/09/11 21:09:16","新北市三重區五谷王北街20巷15弄1號","121.475036666667","25.0484816666667","6500200","三重區"
"241014","543-UM","2018/09/11 21:09:08","新北市三重區三和路二段37-8號","121.501335","25.067575","6500200","三重區"
"241023","545-UM","2018/09/11 21:09:05","新北市三重區洛陽街45巷20號","121.4824","25.0638083333333","6500200","三重區"
"241001","547-UM","2018/09/11 21:09:17","新北市三重區福隆路101號","121.492438333333","25.0783883333333","6500200","三重區"
"241019","KEA-2593","2018/09/11 21:09:12","新北市三重區自強路二段74巷15號","121.488091666667","25.0699","6500200","三重區"
"241006","AAD-863","2018/09/11 21:08:56","新北市三重區中正北路2號","121.489251666667","25.063225","6500200","三重區"
"241005","887-TS","2018/09/11 21:09:17","新北市三重區三信路182號","121.487996666667","25.0861233333333","6500200","三重區"
"241012","941-UM","2018/09/11 21:09:05","新北市三重區仁信街27號","121.501311666667","25.0755516666667","6500200","三重區"
"241033","AAC-255","2018/09/11 21:08:57","新北市三重區光復路二段132-1號","121.472095","25.0592466666667","6500200","三重區"
"247012","KEA-2869","2018/09/11 21:09:05","新北市蘆洲區民權路5號","121.476651666667","25.08574","6501400","蘆洲區"
"235010","733-UM","2018/09/11 21:08:26","新北市中和區員山路36巷13號","121.484055","24.9908016666667","6500300","中和區"
"247002","893-R6","2018/09/11 21:09:06","新北市蘆洲區永樂街38巷40號","121.458615","25.090045","6501400","蘆洲區"
"247024","500-BY","2018/09/11 21:08:58","新北市蘆洲區長興路50巷1號","121.463801666667","25.08386","6501400","蘆洲區"
"247014","339-TH","2018/09/11 21:09:09","新北市蘆洲區中央路155號","121.472665","25.084695","6501400","蘆洲區"
"247006","337-TH","2018/09/11 21:09:04","新北市蘆洲區九芎街15巷12號","121.46788","25.0779283333333","6501400","蘆洲區"
"247008","336-TH","2018/09/11 21:09:09","新北市蘆洲區民生街113號","121.473138333333","25.0788133333333","6501400","蘆洲區"
"247020","057-VK","2018/09/11 21:09:03","新北市蘆洲區民族路476號","121.471623333333","25.09163","6501400","蘆洲區"
"247010","056-VK","2018/09/11 21:09:06","新北市蘆洲區鷺江街40號","121.477278333333","25.083085","6501400","蘆洲區"
"247018","007-UY","2018/09/11 21:08:59","新北市蘆洲區民族路408巷10號","121.47483","25.09183","6501400","蘆洲區"
"247004","002-UY","2018/09/11 21:09:03","新北市蘆洲區永安南路二段282-1號","121.45778","25.0811933333333","6501400","蘆洲區"
"247022","001-UY","2018/09/11 21:09:14","新北市蘆洲區民族路439號","121.467836666667","25.0889966666667","6501400","蘆洲區"
"251005","010-UM","2018/09/11 21:09:01","新北市淡水區博愛街41號","121.446565","25.1693366666667","6501000","淡水區"
"251002","012-UM","2018/09/11 21:09:03","新北市淡水區水源街一段160號","121.448535","25.1713833333333","6501000","淡水區"
"251013","KEA-2871","2018/09/11 21:08:55","新北市淡水區行忠路328號","121.460438333333","25.1996316666667","6501000","淡水區"
"251016","179-VK","2018/09/11 21:09:06","新北市淡水區前洲子11號","121.44189","25.2189533333333","6501000","淡水區"
"251014","180-VK","2018/09/11 21:09:13","新北市淡水區六塊厝1-2號","121.45059","25.24263","6501000","淡水區"
"251015","181-VK","2018/09/11 21:09:08","新北市淡水區淡金路四段542巷50號","121.454336666667","25.22682","6501000","淡水區"
"251010","413-VK","2018/09/11 21:09:11","新北市淡水區中正路一段49號","121.424405","25.1775783333333","6501000","淡水區"
"251012","441-VK","2018/09/11 21:09:07","新北市淡水區淡金路五段172號","121.456781666667","25.2400616666667","6501000","淡水區"
"251001","559-UM","2018/09/11 21:09:01","新北市淡水區新市一路三段101巷16弄14號","121.446761666667","25.1839683333333","6501000","淡水區"
"251006","561-UM","2018/09/11 20:54:53","新北市淡水區中正路二段31號","121.419228333333","25.1818633333333","6501000","淡水區"
"251009","575-R6","2018/09/11 21:09:05","新北市淡水區民權路187巷74弄9號","121.462076666667","25.13447","6501000","淡水區"
"251011","650-BX","2018/09/11 21:09:12","新北市淡水區新民街180巷31號","121.437978333333","25.1796516666667","6501000","淡水區"
"251003","673-BX","2018/09/11 21:08:57","新北市淡水區新春街96號","121.439026666667","25.1824866666667","6501000","淡水區"
"242054","441-UM","2018/09/11 21:09:07","新北市樹林區中山路三段202-1號","121.386248333333","24.9683616666667","6500500","新莊區"
"221027","281-BY","2018/09/11 21:01:52","新北市汐止區汐萬路一段256巷1號","121.65177","25.0749033333333","6501100","汐止區"
"220070","AAC-253","2018/09/11 21:08:59","新北市八里區中山路三段132號","121.385581666667","25.14165","6500100","板橋區"
