"lineid","car","time","location","longitude","latitude","cityid","cityname"
"234077","969-R7","2018/09/11 21:19:07","新北市五股區天乙路101-6號","121.445461666667","25.1069283333333","6500400","永和區"
"243001","297-R6","2018/09/11 21:09:45","新北市泰山區黎明路25號","121.421866666667","25.0609","6501600","泰山區"
"243006","680-BX","2018/09/11 21:08:12","新北市泰山區黎明路25號","121.422071666667","25.0606433333333","6501600","泰山區"
"231059","046-UY","2018/09/11 21:19:05","新北市新店區安豐路30-1號","121.500663333333","24.95693","6500600","新店區"
"231040","047-UY","2018/09/11 21:19:11","新北市新店區北新路一段209號","121.540401666667","24.965045","6500600","新店區"
"231048","187-VK","2018/09/11 21:19:02","新北市新店區民生路149巷2號","121.528863333333","24.980075","6500600","新店區"
"231054","KEA-2219","2018/09/11 21:19:08","新北市新店區北新路一段2號","121.54082","24.9651783333333","6500600","新店區"
"231051","278-BY","2018/09/11 21:19:15","台北市文山區景文街146巷36號","121.532226666667","24.9907416666667","6500600","新店區"
"231050","AAD-862","2018/09/11 21:19:10","新北市新店區三民路17號","121.539648333333","24.9721783333333","6500600","新店區"
"231063","641-BX","2018/09/11 21:18:59","新北市新店區吉祥街11巷2號","121.497785","24.9462916666667","6500600","新店區"
"231060","897-TW","2018/09/11 21:19:02","新北市新店區薏仁坑路自強巷6號","121.496541666667","24.9584516666667","6500600","新店區"
"241011","013-R5","2018/09/11 21:19:14","新北市三重區龍濱路197號","121.501908333333","25.0713583333333","6500200","三重區"
"241028","022-UY","2018/09/11 21:19:13","新北市三重區同安東街82號","121.499","25.0575133333333","6500200","三重區"
"241008","059-VK","2018/09/11 21:19:11","新北市三重區自強路一段68號","121.49703","25.06656","6500200","三重區"
"241031","061-VK","2018/09/11 21:18:59","新北市三重區五谷王南街46巷37號","121.475725","25.0455483333333","6500200","三重區"
"241017","063-VK","2018/09/11 21:18:58","新北市三重區大同北路60巷24號","121.49355","25.0636816666667","6500200","三重區"
"241024","065-VK","2018/09/11 21:19:12","新北市三重區中正北路145巷14號","121.484161666667","25.067795","6500200","三重區"
"241026","066-VK","2018/09/11 21:19:06","新北市三重區大同南路218號","121.496773333333","25.0564016666667","6500200","三重區"
"241002","090-VK","2018/09/11 21:19:15","新北市三重區自強路五段43號","121.494121666667","25.0814816666667","6500200","三重區"
"241003","091-VK","2018/09/11 21:19:11","新北市三重區仁義街321號","121.495248333333","25.0843416666667","6500200","三重區"
"241009","265-UM","2018/09/11 21:19:02","新北市三重區忠孝路三段84巷1號","121.48021","25.0646616666667","6500200","三重區"
"241016","266-UM","2018/09/11 21:19:09","新北市三重區自強路一段95號","121.495891666667","25.06633","6500200","三重區"
"241018","268-UM","2018/09/11 21:19:12","新北市三重區忠孝路二段80號","121.484145","25.0697816666667","6500200","三重區"
"241032","269-UM","2018/09/11 21:19:12","新北市三重區光復路二段166號","121.472156666667","25.06082","6500200","三重區"
"241013","270-UM","2018/09/11 21:19:14","新北市三重區仁愛街83號","121.495883333333","25.07327","6500200","三重區"
"241025","271-UM","2018/09/11 21:19:02","新北市三重區中正北路208巷10弄4號","121.48236","25.0669033333333","6500200","三重區"
"241007","398-BY","2018/09/11 21:19:11","新北市三重區正義北路253號","121.495566666667","25.069645","6500200","三重區"
"241004","475-VK","2018/09/11 21:19:04","新北市三重區仁愛街423-1號","121.490526666667","25.0814566666667","6500200","三重區"
"241030","480-VK","2018/09/11 21:19:16","新北市三重區五谷王北街181-1號","121.47731","25.05426","6500200","三重區"
"241014","543-UM","2018/09/11 21:19:08","新北市三重區萬全街9號","121.499358333333","25.0696316666667","6500200","三重區"
"241023","545-UM","2018/09/11 21:19:17","新北市三重區中正北路176巷16號","121.4827","25.0659316666667","6500200","三重區"
"241001","547-UM","2018/09/11 21:19:17","新北市三重區分子尾街45號","121.489276666667","25.0820566666667","6500200","三重區"
"241019","KEA-2593","2018/09/11 21:19:12","新北市三重區重陽路三段43號","121.48944","25.0670933333333","6500200","三重區"
"241006","AAD-863","2018/09/11 21:18:56","新北市三重區新北大道一段70號","121.486333333333","25.0615083333333","6500200","三重區"
"241005","887-TS","2018/09/11 21:18:57","新北市三重區三信路182號","121.488026666667","25.0861183333333","6500200","三重區"
"241033","AAC-255","2018/09/11 21:18:57","新北市三重區光復路二段170號","121.472023333333","25.0611966666667","6500200","三重區"
"247012","KEA-2869","2018/09/11 21:19:09","新北市蘆洲區中興街89號","121.48226","25.0882016666667","6501400","蘆洲區"
"235010","733-UM","2018/09/11 21:08:26","新北市中和區員山路36巷13號","121.484055","24.9908016666667","6500300","中和區"
"247002","893-R6","2018/09/11 21:19:06","新北市蘆洲區永樂街78號","121.456908333333","25.0885583333333","6501400","蘆洲區"
"247024","500-BY","2018/09/11 21:18:58","新北市蘆洲區光明路98號","121.463165","25.0879983333333","6501400","蘆洲區"
"247014","339-TH","2018/09/11 21:19:09","新北市蘆洲區保和街50-5號","121.469775","25.08629","6501400","蘆洲區"
"247006","337-TH","2018/09/11 21:19:04","新北市蘆洲區長安街60號","121.46302","25.07994","6501400","蘆洲區"
"247008","336-TH","2018/09/11 21:19:09","新北市蘆洲區信義路73巷17號","121.47591","25.080825","6501400","蘆洲區"
"247020","057-VK","2018/09/11 21:19:16","新北市蘆洲區民族路422巷88號","121.473516666667","25.0939083333333","6501400","蘆洲區"
"247010","056-VK","2018/09/11 21:19:06","新北市蘆洲區鷺江街16-1號","121.478886666667","25.0825","6501400","蘆洲區"
"247018","007-UY","2018/09/11 21:18:59","新北市蘆洲區復興路105巷11號","121.476406666667","25.088405","6501400","蘆洲區"
"247004","002-UY","2018/09/11 21:19:08","新北市蘆洲區長安街267巷31號","121.457016666667","25.08299","6501400","蘆洲區"
"247022","001-UY","2018/09/11 21:19:08","新北市蘆洲區三民路251號","121.468465","25.0892966666667","6501400","蘆洲區"
"251005","010-UM","2018/09/11 21:19:01","新北市淡水區水源街一段122巷37號","121.447136666667","25.1704566666667","6501000","淡水區"
"251013","KEA-2871","2018/09/11 21:19:16","新北市淡水區行忠路328號","121.460431666667","25.1996433333333","6501000","淡水區"
"251016","179-VK","2018/09/11 21:19:17","新北市淡水區前洲子11號","121.441068333333","25.2193983333333","6501000","淡水區"
"251014","180-VK","2018/09/11 21:19:13","新北市淡水區六塊厝2-1號","121.45013","25.24046","6501000","淡水區"
"251015","181-VK","2018/09/11 21:19:08","新北市淡水區淡金路四段542巷83弄20號","121.45648","25.2266783333333","6501000","淡水區"
"251010","413-VK","2018/09/11 21:19:11","新北市淡水區淡海路69巷26號","121.421973333333","25.1809133333333","6501000","淡水區"
"251012","441-VK","2018/09/11 21:19:07","新北市淡水區淡金路五段35巷46號","121.45249","25.2347333333333","6501000","淡水區"
"251008","443-VK","2018/09/11 21:19:03","新北市淡水區水源街二段230號","121.460398333333","25.17637","6501000","淡水區"
"251001","559-UM","2018/09/11 21:19:01","新北市淡水區濱海路一段53號","121.443788333333","25.1890983333333","6501000","淡水區"
"251006","561-UM","2018/09/11 21:18:48","新北市淡水區中正路二段31號","121.419191666667","25.1818583333333","6501000","淡水區"
"251009","575-R6","2018/09/11 21:19:05","新北市淡水區民族路112巷1號","121.462655","25.1352833333333","6501000","淡水區"
"251011","650-BX","2018/09/11 21:19:12","新北市淡水區新民街152巷6弄22號","121.438843333333","25.1787833333333","6501000","淡水區"
"251003","673-BX","2018/09/11 21:19:17","新北市淡水區崁頂15-5號","121.438975","25.18593","6501000","淡水區"
"242054","441-UM","2018/09/11 21:19:07","新北市板橋區大觀路三段131-1號","121.435123333333","24.9922666666667","6500500","新莊區"
"221027","281-BY","2018/09/11 21:01:52","新北市汐止區汐萬路一段256巷1號","121.65177","25.0749033333333","6501100","汐止區"
"220070","AAC-253","2018/09/11 21:18:59","新北市五股區成泰路三段358號","121.450973333333","25.0980966666667","6500100","板橋區"
