"lineid","car","time","location","longitude","latitude","cityid","cityname"
"234077","969-R7","2018/09/11 21:39:07","新北市永和區福和路1號","121.525791666667","25.00949","6500400","永和區"
"243001","297-R6","2018/09/11 21:09:45","新北市泰山區黎明路25號","121.421866666667","25.0609","6501600","泰山區"
"231063","641-BX","2018/09/11 21:39:17","新北市新店區安康路三段31巷2弄24號","121.492788333333","24.95205","6500600","新店區"
"241005","887-TS","2018/09/11 21:39:17","新北市三重區碧華街50號","121.483455","25.0812466666667","6500200","三重區"
"251004","009-UM","2018/09/11 21:39:10","新北市淡水區民生路56號","121.461998333333","25.137945","6501000","淡水區"
"251005","010-UM","2018/09/11 21:39:01","新北市淡水區水源街一段85-1號","121.445168333333","25.1723066666667","6501000","淡水區"
"251002","012-UM","2018/09/11 21:39:03","新北市淡水區學府路152號","121.446445","25.174195","6501000","淡水區"
"251016","179-VK","2018/09/11 21:39:17","新北市淡水區崁頂57-7號","121.442268333333","25.1973366666667","6501000","淡水區"
"251014","180-VK","2018/09/11 21:39:13","新北市淡水區興仁路103巷17號","121.449821666667","25.2175116666667","6501000","淡水區"
"251010","413-VK","2018/09/11 21:39:11","新北市淡水區沙崙路216巷15號","121.426181666667","25.184085","6501000","淡水區"
"251012","441-VK","2018/09/11 21:39:07","新北市淡水區淡金路四段207號","121.451626666667","25.2220616666667","6501000","淡水區"
"251008","443-VK","2018/09/11 21:39:03","新北市淡水區水源街二段80號","121.451381666667","25.1742066666667","6501000","淡水區"
"251001","559-UM","2018/09/11 21:39:01","新北市淡水區新市二路三段152號","121.435313333333","25.194165","6501000","淡水區"
"251006","561-UM","2018/09/11 21:38:59","新北市淡水區中正路81號","121.440418333333","25.1693516666667","6501000","淡水區"
"251009","575-R6","2018/09/11 21:39:09","新北市淡水區民生路52巷22弄8號","121.462508333333","25.13727","6501000","淡水區"
"251007","577-R6","2018/09/11 21:39:18","新北市淡水區水源街二段177巷16號","121.454961666667","25.1763766666667","6501000","淡水區"
"251011","650-BX","2018/09/11 21:39:12","新北市淡水區新民街276號","121.435558333333","25.1814533333333","6501000","淡水區"
"251003","673-BX","2018/09/11 21:39:17","新北市淡水區新春街40號","121.437238333333","25.181605","6501000","淡水區"
"220070","AAC-253","2018/09/11 21:38:59","新北市板橋區華東街1-9號","121.448255","24.994865","6500100","板橋區"
