"lineid","car","time","location","longitude","latitude","cityid","cityname"
"241005","887-TS","2018/09/11 21:48:56","新北市三重區永安北路一段9號","121.476023333333","25.0747883333333","6500200","三重區"
"251004","009-UM","2018/09/11 21:49:10","新北市淡水區自強路201巷39號","121.462211666667","25.126735","6501000","淡水區"
"251005","010-UM","2018/09/11 21:49:08","新北市淡水區鄧公路30巷22號","121.453333333333","25.1697466666667","6501000","淡水區"
"251002","012-UM","2018/09/11 21:49:03","新北市淡水區大忠街159號","121.448246666667","25.1766633333333","6501000","淡水區"
"251010","413-VK","2018/09/11 21:49:11","新北市淡水區中正路二段215號","121.426283333333","25.189355","6501000","淡水區"
"251012","441-VK","2018/09/11 21:49:07","新北市淡水區淡金路三段333號","121.448873333333","25.2063166666667","6501000","淡水區"
"251008","443-VK","2018/09/11 21:49:03","新北市淡水區學府路88號","121.44916","25.1709","6501000","淡水區"
"251006","561-UM","2018/09/11 21:44:20","新北市淡水區中正路11巷3號","121.437831666667","25.1707333333333","6501000","淡水區"
"251009","575-R6","2018/09/11 21:49:05","新北市淡水區民族路35巷46號","121.465428333333","25.1371916666667","6501000","淡水區"
"251007","577-R6","2018/09/11 21:48:58","新北市淡水區水源街二段177巷72號","121.452453333333","25.1774366666667","6501000","淡水區"
"251011","650-BX","2018/09/11 21:49:12","新北市淡水區新民街322巷9號","121.436375","25.1829166666667","6501000","淡水區"
"251003","673-BX","2018/09/11 21:49:17","新北市淡水區新春街90號","121.438878333333","25.18237","6501000","淡水區"
"220070","AAC-253","2018/09/11 21:48:58","新北市板橋區華東街1-9號","121.448261666667","24.9948666666667","6500100","板橋區"
