"lineid","car","time","location","longitude","latitude","cityid","cityname"
"248005","653-BX","2018/03/26 08:09:36","新北市五股區明德路10號","121.43339","25.0717283333333","6501500","五股區"
"232001","290-BY","2018/03/26 08:09:37","新北市坪林區坪雙路一段115號","121.730415","24.947975","6502000","坪林區"
"232012","291-BY","2018/03/26 08:09:23","新北市坪林區九芎根4-1號","121.6659","24.8848966666667","6502000","坪林區"
"232017","705-BZ","2018/03/26 08:09:30","新北市坪林區坪雙路二段166號","121.76901","24.9617333333333","6502000","坪林區"
"232005","758-BX","2018/03/26 08:09:30","新北市坪林區鶯子瀨2-1號","121.708846666667","24.9129566666667","6502000","坪林區"
"244012","069-UM","2018/03/26 08:09:38","新北市林口區中山路130號","121.392441666667","25.078635","6501700","林口區"
"244001","248-BX","2018/03/26 08:09:21","新北市林口區嘉溪雅坑9號","121.334056666667","25.105585","6501700","林口區"
"244024","742-UY","2018/03/26 08:09:23","新北市林口區中山路262-1號","121.384726666667","25.079975","6501700","林口區"
"244022","483-VK","2018/03/26 08:09:18","新北市林口區仁愛路一段667巷45號","121.387075","25.076345","6501700","林口區"
"244016","485-VK","2018/03/26 08:09:23","新北市林口區中山路256-1號","121.385316666667","25.0796066666667","6501700","林口區"
"244008","656-BX","2018/03/26 08:09:32","新北市林口區林口路296號","121.386073333333","25.0854783333333","6501700","林口區"
"244018","657-BX","2018/03/26 08:09:32","新北市林口區四維路156號","121.380553333333","25.075475","6501700","林口區"
"244020","838-TS","2018/03/26 08:09:30","新北市林口區粉寮路二段281-2號","121.404698333333","25.0942633333333","6501700","林口區"
"222005","289-BY","2018/03/26 08:09:26","新北市深坑區北深路三段6號","121.611425","25.001105","6501800","深坑區"
"231007","189-VK","2018/03/26 08:09:25","新北市新店區永業路95號","121.528885","24.94886","6500600","新店區"
"231008","192-VK","2018/03/26 08:09:23","新北市新店區北新路一段2-16號","121.538376666667","24.959985","6500600","新店區"
"235001","611-BX","2018/03/26 08:09:31","新北市中和區圓通路367巷33弄106號","121.494711666667","24.9836933333333","6500300","中和區"
"226005","5620-A6","2018/03/26 08:09:18","新北市平溪區望古里灰3-1號","121.754441666667","25.028005","6502400","平溪區"
"226001","7418-A5","2018/03/26 08:09:34","新北市平溪區望古里石灼坑2-3號","121.768643333333","25.0356133333333","6502400","平溪區"
"226003","AGD-0702","2018/03/26 08:09:34","新北市平溪區十分里十分街58巷17號","121.774643333333","25.0431083333333","6502400","平溪區"
"223006","022-BY","2018/03/26 08:09:31","新北市石碇區靜安路一段63號","121.647808333333","25.0104516666667","6501900","石碇區"
"223001","205-TH","2018/03/26 08:09:30","新北市石碇區月扇湖3-1號","121.659158333333","24.9572433333333","6501900","石碇區"
"223008","406-TH","2018/03/26 08:09:26","新北市石碇區靜安路一段186號","121.671346666667","25.0055283333333","6501900","石碇區"
"223001","592-UM","2018/03/26 08:03:42","新北市石碇區樟空子17號","121.6696","24.95733","6501900","石碇區"
"223004","660-BX","2018/03/26 08:09:36","新北市石碇區外按3-1號","121.651655","24.9939666666667","6501900","石碇區"
"223005","677-TV","2018/03/26 08:09:32","新北市石碇區外按6-1號","121.648593333333","24.9953166666667","6501900","石碇區"
"227005","030-BX","2018/03/26 08:09:23","新北市雙溪區上林里內平林120-2號","121.824481666667","25.02625","6502500","雙溪區"
"252006","073-UM","2018/03/26 08:09:32","新北市三芝區後厝里大片頭81-1號","121.458906666667","25.2447616666667","6502100","三芝區"
"252004","249-BX","2018/03/26 08:09:25","新北市三芝區興華里車埕18-3號","121.5018","25.196365","6502100","三芝區"
"237001","159-UY","2018/03/26 08:09:26","新北市三峽區學成路263號","121.375615","24.942945","6500900","三峽區"
"236007","165-UM","2018/03/26 08:09:27","新北市土城區青雲路322巷2弄4號","121.457966666667","24.97736","6501300","土城區"
"236001","339-SR","2018/03/26 08:09:30","新北市土城區龍泉路80-1號","121.434938333333","24.9426216666667","6501300","土城區"
"236005","498-BY","2018/03/26 08:09:37","新北市土城區永平街51號","121.42762","24.9591983333333","6501300","土城區"
"242057","986-R7","2018/03/26 08:09:31","新北市新莊區中正路730-5號","121.414815","25.0235916666667","6500500","新莊區"
"242052","751-BX","2018/03/26 08:09:33","新北市樹林區樹新路205-3號","121.429698333333","24.99798","6500500","新莊區"
"242028","705-TV","2018/03/26 08:09:23","新北市新莊區復興路一段101號","121.448996666667","25.0428266666667","6500500","新莊區"
"242026","615-BX","2018/03/26 08:09:38","新北市新莊區福壽街110號","121.45807","25.0506166666667","6500500","新莊區"
"242024","613-BX","2018/03/26 08:09:37","新北市新莊區思源路336號","121.460175","25.0507216666667","6500500","新莊區"
"242040","566-BX","2018/03/26 08:09:39","新北市新莊區中正路514巷81號","121.43143","25.034055","6500500","新莊區"
"242045","497-BY","2018/03/26 08:09:20","新北市新莊區建國一路21號","121.433875","25.0315483333333","6500500","新莊區"
"242001","442-UM","2018/03/26 08:09:41","新北市新莊區景德路192號","121.449933333333","25.0341133333333","6500500","新莊區"
"242049","441-UM","2018/03/26 08:09:36","新北市新莊區西盛街262號","121.428073333333","25.015755","6500500","新莊區"
"242055","440-UM","2018/03/26 08:09:35","新北市新莊區泰豐街30巷20號","121.448925","25.032015","6500500","新莊區"
"242035","415-TV","2018/03/26 08:09:32","新北市新莊區建福路59巷28號","121.428061666667","25.0275383333333","6500500","新莊區"
"242006","413-TV","2018/03/26 08:09:29","新北市新莊區自信街65巷16號","121.455556666667","25.0488066666667","6500500","新莊區"
"242043","400-BY","2018/03/26 08:09:37","新北市新莊區中正路871巷9弄2號","121.418795","25.02679","6500500","新莊區"
"242022","362-BY","2018/03/26 08:09:23","新北市新莊區民樂街53號","121.457855","25.0414333333333","6500500","新莊區"
"242059","353-BY","2018/03/26 08:09:29","新北市新莊區瓊林南路118-11號","121.434585","25.0088883333333","6500500","新莊區"
"242008","132-UY","2018/03/26 08:09:39","新北市新莊區昌明街14巷5弄1號","121.457351666667","25.0530833333333","6500500","新莊區"
"242038","133-UY","2018/03/26 08:09:38","新北市新莊區民安西路7號","121.42681","25.021845","6500500","新莊區"
"242030","135-UY","2018/03/26 08:09:30","新北市新莊區新泰路349號","121.444661666667","25.0422533333333","6500500","新莊區"
"242047","172-VK","2018/03/26 08:09:21","新北市新莊區萬安街129號","121.420618333333","25.02231","6500500","新莊區"
"242016","175-VK","2018/03/26 08:09:34","新北市新莊區復興路一段149巷21弄12號","121.449708333333","25.044165","6500500","新莊區"
"242003","176-VK","2018/03/26 08:09:32","新北市新莊區自立街200號","121.456683333333","25.0454866666667","6500500","新莊區"
"242014","346-TH","2018/03/26 08:09:40","新北市新莊區中平路28號","121.44485","25.043385","6500500","新莊區"
"242020","348-TH","2018/03/26 08:09:24","新北市新莊區中華路一段232號","121.452666666667","25.0432583333333","6500500","新莊區"
"242018","350-TH","2018/03/26 08:09:38","新北市新莊區中港路219號","121.454763333333","25.0423183333333","6500500","新莊區"
"242012","351-TH","2018/03/26 08:09:22","新北市新莊區中誠街116號","121.44942","25.04764","6500500","新莊區"
"220064","282-UM","2018/03/26 08:09:21","新北市五股區新五路二段220號","121.438765","25.0793133333333","6500100","板橋區"
"242010","281-VK","2018/03/26 08:09:32","新北市新莊區中原路201-2號","121.451136666667","25.0539816666667","6500500","新莊區"
