"lineid","car","time","location","longitude","latitude","cityid","cityname"
"234044","148-BY","2018/03/26 12:59:29","新北市永和區秀朗路二段126巷30號","121.524543333333","25.0007633333333","6500400","永和區"
"234005","207-UY","2018/03/26 12:59:13","新北市永和區中興街3巷5號","121.515345","25.0124366666667","6500400","永和區"
"234078","298-R6","2018/03/26 12:59:15","新北市永和區國中路200號","121.522358333333","25.0061416666667","6500400","永和區"
"234036","336-UY","2018/03/26 12:59:24","新北市永和區成功路二段207號","121.526591666667","24.9959483333333","6500400","永和區"
"234062","337-UY","2018/03/26 12:59:11","新北市永和區秀朗路一段166號","121.518505","25.003415","6500400","永和區"
"234084","338-UY","2018/03/26 12:59:16","新北市永和區中正路393號","121.5173","25.0040166666667","6500400","永和區"
"234001","395-TH","2018/03/26 12:59:12","新北市永和區保生路55-8號","121.50415","25.0103866666667","6500400","永和區"
"234068","552-UM","2018/03/26 12:59:18","新北市永和區中興街80號","121.51795","25.01159","6500400","永和區"
"234015","745-BX","2018/03/26 12:59:14","新北市永和區永和路二段310號","121.51629","25.0160466666667","6500400","永和區"
"234028","746-BX","2018/03/26 12:59:26","新北市永和區秀朗路二段276號","121.525925","24.9979466666667","6500400","永和區"
"234052","KEA-2590","2018/03/26 12:59:24","新北市永和區竹林路64號","121.518296666667","25.01343","6500400","永和區"
"234012","KEA-2591","2018/03/26 12:59:28","新北市永和區信義路17巷9弄1號","121.513823333333","25.01162","6500400","永和區"
"234060","AAD-866","2018/03/26 12:59:25","新北市永和區福和路313號","121.516185","25.007135","6500400","永和區"
"234040","862-TW","2018/03/26 12:59:24","新北市永和區永貞路308號","121.511846666667","25.0048583333333","6500400","永和區"
"234048","863-TW","2018/03/26 12:59:31","新北市永和區文化路151號","121.510641666667","25.0162216666667","6500400","永和區"
"234025","9371-KE","2018/03/26 12:59:24","新北市永和區永和路一段45-1號","121.512851666667","25.0062616666667","6500400","永和區"
"234010","9373-KE","2018/03/26 12:59:25","新北市永和區文化路113巷19號","121.513223333333","25.0140916666667","6500400","永和區"
"248013","025-BX","2018/03/26 12:59:16","新北市五股區中興路二段163號","121.457596666667","25.0776833333333","6501500","五股區"
"248015","026-BX","2018/03/26 12:59:18","新北市五股區中興路二段83巷26-6號","121.460015","25.075305","6501500","五股區"
"248005","077-UY","2018/03/26 12:59:20","新北市五股區中興路二段83巷26-6號","121.459976666667","25.07502","6501500","五股區"
"248007","095-VK","2018/03/26 12:59:13","新北市五股區更洲路10號","121.458323333333","25.0788433333333","6501500","五股區"
"248019","225-UY","2018/03/26 12:59:11","新北市五股區中興路二段83巷26-6號","121.46002","25.075325","6501500","五股區"
"248011","247-BX","2018/03/26 12:59:16","新北市五股區中興路二段83巷26-6號","121.460051666667","25.0752016666667","6501500","五股區"
"248001","678-BX","2018/03/26 12:59:23","新北市五股區中興路二段37巷28號","121.460051666667","25.0747433333333","6501500","五股區"
"248009","682-TV","2018/03/26 12:59:25","新北市五股區更洲路47號","121.456916666667","25.0791266666667","6501500","五股區"
"234022","9380-KE","2018/03/26 12:59:13","新北市永和區竹林路75巷33弄21號","121.520858333333","25.0144583333333","6500400","永和區"
"234076","969-R7","2018/03/26 12:59:31","新北市永和區民享街11號","121.515333333333","24.9953366666667","6500400","永和區"
"234072","AAC-211","2018/03/26 12:59:27","新北市永和區環河東路二段98號","121.524108333333","25.0103583333333","6500400","永和區"
"234066","AAC-212","2018/03/26 12:59:13","新北市永和區永和路一段11號","121.51294","25.0053483333333","6500400","永和區"
"234001","AAC-295","2018/03/26 12:59:16","新北市永和區永和路一段222號","121.514403333333","25.0096933333333","6500400","永和區"
"244001","248-BX","2018/03/26 12:59:22","新北市林口區中山路144號","121.391491666667","25.0787216666667","6501700","林口區"
"243004","AAD-798","2018/03/26 12:57:23","新北市泰山區黎明路31號","121.42171","25.060655","6501600","泰山區"
"231002","002-UM","2018/03/26 12:59:20","新北市新店區安華路28-1號","121.519636666667","24.96082","6500600","新店區"
"231028","046-UY","2018/03/26 12:59:15","新北市新店區安華路28-1號","121.519581666667","24.9608133333333","6500600","新店區"
"231030","047-UY","2018/03/26 12:59:31","新北市新店區安華路28-1號","121.519006666667","24.9609516666667","6500600","新店區"
"231029","106-UY","2018/03/26 12:59:24","新北市新店區安華路28-1號","121.519633333333","24.9607783333333","6500600","新店區"
"231018","107-UY","2018/03/26 12:59:14","新北市新店區安華路28-1號","121.519375","24.9612133333333","6500600","新店區"
"231011","108-UY","2018/03/26 12:59:14","新北市新店區安華路28-1號","121.519475","24.9609533333333","6500600","新店區"
"231019","187-VK","2018/03/26 12:59:22","新北市新店區安華路28-1號","121.519503333333","24.96119","6500600","新店區"
"231035","188-VK","2018/03/26 12:59:30","新北市新店區安華路28-1號","121.51914","24.961195","6500600","新店區"
"231014","KEA-2219","2018/03/26 12:59:14","新北市新店區安華路3號","121.519458333333","24.959835","6500600","新店區"
"231034","268-BY","2018/03/26 12:59:21","新北市新店區安華路1-1號","121.51938","24.960495","6500600","新店區"
"231010","278-BY","2018/03/26 12:57:48","新北市新店區安華路28-1號","121.519958333333","24.9610366666667","6500600","新店區"
"231023","AAD-862","2018/03/26 12:59:30","新北市新店區安華路28-1號","121.5197","24.9612333333333","6500600","新店區"
"231027","3712-VJ","2018/03/26 12:59:22","新北市新店區安華路28-1號","121.519183333333","24.960625","6500600","新店區"
"231038","4715-K9","2018/03/26 12:59:30","新北市新店區安華路1-1號","121.519296666667","24.960525","6500600","新店區"
"231013","513-UM","2018/03/26 12:59:32","新北市新店區安華路28-1號","121.519583333333","24.9611733333333","6500600","新店區"
"231001","619-UM","2018/03/26 12:59:31","新北市新店區安華路28-1號","121.519381666667","24.9607983333333","6500600","新店區"
"231003","641-BX","2018/03/26 12:59:12","新北市新店區安華路28-1號","121.519503333333","24.960525","6500600","新店區"
"231036","719-UY","2018/03/26 12:59:17","新北市新店區安華路28-1號","121.519885","24.96099","6500600","新店區"
"231031","720-UM","2018/03/26 12:59:19","新北市新店區安華路28-1號","121.519251666667","24.96123","6500600","新店區"
"231005","897-TW","2018/03/26 12:59:15","新北市新店區安華路28-1號","121.519476666667","24.9605716666667","6500600","新店區"
"231004","899-TW","2018/03/26 12:59:15","新北市新店區安華路28-1號","121.519128333333","24.96089","6500600","新店區"
"231037","AKT-0513","2018/03/26 12:59:18","新北市新店區安華路28-1號","121.519183333333","24.9606966666667","6500600","新店區"
"235028","005-UY","2018/03/26 12:59:30","新北市中和區建八路1號","121.485421666667","24.9986566666667","6500300","中和區"
"235027","006-UY","2018/03/26 12:59:28","新北市中和區員山路36巷16-3號","121.484978333333","24.99118","6500300","中和區"
"235029","098-UM","2018/03/26 12:59:24","新北市中和區景平路788號","121.49585","25.0057983333333","6500300","中和區"
"235022","151-BY","2018/03/26 12:59:10","新北市中和區錦和路350-1號","121.49045","24.993545","6500300","中和區"
"235002","185-VK","2018/03/26 12:59:31","新北市中和區景平路105號","121.516835","24.9918466666667","6500300","中和區"
"235031","255-BX","2018/03/26 12:59:15","新北市中和區中正路895號","121.484373333333","25.004725","6500300","中和區"
"235008","293-VK","2018/03/26 12:59:25","新北市中和區員山路36巷16-3號","121.485131666667","24.9914116666667","6500300","中和區"
"235032","377-QA","2018/03/26 12:59:16","新北市中和區員山路36巷16-3號","121.485218333333","24.9912116666667","6500300","中和區"
"235035","269-TV","2018/03/26 12:59:28","新北市中和區新生街278號","121.483673333333","24.9968333333333","6500300","中和區"
"235001","611-BX","2018/03/26 12:59:10","新北市中和區中山路三段120-15號","121.474505","25.0086516666667","6500300","中和區"
"235016","805-TS","2018/03/26 12:59:31","新北市中和區員山路36巷16號","121.484401666667","24.9914733333333","6500300","中和區"
"235015","157-BY","2018/03/26 12:59:12","新北市中和區員山路36巷16-3號","121.48503","24.9914916666667","6500300","中和區"
"235001","AAC-213","2018/03/26 12:59:26","新北市中和區中正路266-1號","121.495443333333","24.9939416666667","6500300","中和區"
"207002","749-BX","2018/03/26 12:59:15","新北市萬里區雙興里大坪路31號","121.633211666667","25.1685683333333","6502800","萬里區"
"252005","073-UM","2018/03/26 12:59:18","新北市三芝區埔坪里埔頭坑41號","121.50453","25.2644533333333","6502100","三芝區"
"207001","662-BX","2018/03/26 12:59:28","新北市萬里區萬里里獅頭路22-1號","121.69303","25.1781183333333","6502800","萬里區"
"236005","498-BY","2018/03/26 12:59:32","新北市土城區亞洲路30號","121.435961666667","24.9743066666667","6501300","土城區"
