"lineid","car","time","location","longitude","latitude","cityid","cityname"
"234044","148-BY","2018/03/26 13:29:49","新北市永和區秀朗路二段179號","121.52581","25.0015616666667","6500400","永和區"
"234005","207-UY","2018/03/26 13:29:33","新北市永和區中山路一段230號","121.508081666667","25.0080533333333","6500400","永和區"
"234078","298-R6","2018/03/26 13:29:40","新北市永和區福和路5-9號","121.525533333333","25.0083233333333","6500400","永和區"
"234036","336-UY","2018/03/26 13:29:43","新北市永和區民樂街28號","121.527481666667","25.0015566666667","6500400","永和區"
"234062","337-UY","2018/03/26 13:29:54","新北市永和區中正路368巷1弄65號","121.519998333333","25.0009216666667","6500400","永和區"
"234084","338-UY","2018/03/26 13:29:36","新北市永和區林森路66號","121.523875","25.0039833333333","6500400","永和區"
"234068","552-UM","2018/03/26 13:29:48","新北市永和區竹林路173號","121.520535","25.009945","6500400","永和區"
"234015","745-BX","2018/03/26 13:29:38","新北市永和區環河西路一段51巷1號","121.514355","25.0181216666667","6500400","永和區"
"234028","746-BX","2018/03/26 13:29:45","新北市永和區民生路83號","121.522663333333","24.9968183333333","6500400","永和區"
"234052","KEA-2590","2018/03/26 13:29:44","新北市永和區復興街19巷2號","121.516135","25.013145","6500400","永和區"
"234012","KEA-2591","2018/03/26 13:29:48","新北市永和區中山路一段203號","121.508973333333","25.0085816666667","6500400","永和區"
"234060","AAD-866","2018/03/26 13:29:45","新北市永和區中正路532號","121.517283333333","25.00519","6500400","永和區"
"234040","862-TW","2018/03/26 13:29:44","新北市永和區水源街39巷28號","121.510696666667","25.00317","6500400","永和區"
"234048","863-TW","2018/03/26 13:29:51","新北市永和區信義路99號","121.512166666667","25.0142","6500400","永和區"
"234025","9371-KE","2018/03/26 13:29:44","新北市永和區中正路736號","121.515305","25.01021","6500400","永和區"
"234010","9373-KE","2018/03/26 13:29:45","新北市永和區仁愛路141巷3弄3號","121.511741666667","25.0124583333333","6500400","永和區"
"248013","025-BX","2018/03/26 13:29:36","新北市五股區明德路7巷12號","121.434763333333","25.0708783333333","6501500","五股區"
"248015","026-BX","2018/03/26 13:29:52","新北市五股區凌雲路一段133巷23號","121.449151666667","25.10136","6501500","五股區"
"248005","077-UY","2018/03/26 13:29:47","新北市五股區四維路4號","121.46723","25.0713016666667","6501500","五股區"
"248007","095-VK","2018/03/26 13:29:52","新北市五股區四維路185巷42弄7號","121.463691666667","25.07687","6501500","五股區"
"248019","225-UY","2018/03/26 13:29:51","新北市五股區孝義路59號","121.451236666667","25.1137183333333","6501500","五股區"
"248011","247-BX","2018/03/26 13:29:35","新北市五股區御史路32號","121.442233333333","25.0932166666667","6501500","五股區"
"248003","677-BX","2018/03/26 13:29:42","新北市五股區六合街3號","121.43199","25.0884933333333","6501500","五股區"
"248001","678-BX","2018/03/26 13:29:43","新北市五股區西雲路170號","121.446931666667","25.0947933333333","6501500","五股區"
"248009","682-TV","2018/03/26 13:29:45","新北市五股區自強路85號","121.43255","25.071885","6501500","五股區"
"234022","9380-KE","2018/03/26 13:29:33","新北市永和區竹林路91巷43弄2號","121.521313333333","25.012785","6500400","永和區"
"234076","969-R7","2018/03/26 13:29:50","新北市永和區智光街26號","121.517955","24.9989833333333","6500400","永和區"
"234072","AAC-211","2018/03/26 13:29:47","新北市永和區永和路二段98號","121.515048333333","25.0118033333333","6500400","永和區"
"234066","AAC-212","2018/03/26 13:29:34","新北市永和區保平路178號","121.510745","25.0066816666667","6500400","永和區"
"234001","AAC-295","2018/03/26 13:29:36","新北市永和區保平路18巷12號","121.51217","25.0078733333333","6500400","永和區"
"244001","248-BX","2018/03/26 13:29:42","新北市林口區嘉寶里89-1號","121.333258333333","25.1218883333333","6501700","林口區"
"243004","AAD-798","2018/03/26 13:29:42","新北市泰山區犁頭窠3-1號","121.42191","25.0605833333333","6501600","泰山區"
"243005","646-TV","2018/03/26 13:29:40","新北市泰山區明志路三段166號","121.424258333333","25.0393766666667","6501600","泰山區"
"231002","002-UM","2018/03/26 13:29:40","新北市新店區環河路64號","121.537071666667","24.9626933333333","6500600","新店區"
"231025","0293-UT","2018/03/26 13:29:42","新北市新店區中央七街61巷5號","121.528416666667","24.9765883333333","6500600","新店區"
"231028","046-UY","2018/03/26 13:29:35","新北市新店區安華路28-1號","121.519598333333","24.9608533333333","6500600","新店區"
"231030","047-UY","2018/03/26 13:29:51","新北市新店區安康路一段353號","121.519053333333","24.9639183333333","6500600","新店區"
"231029","106-UY","2018/03/26 13:29:44","新北市新店區安豐路39號","121.50049","24.9559516666667","6500600","新店區"
"231018","107-UY","2018/03/26 13:29:34","新北市新店區中央四街5號","121.530008333333","24.973805","6500600","新店區"
"231011","108-UY","2018/03/26 13:29:35","新北市新店區德正街19巷2號","121.543733333333","24.9724666666667","6500600","新店區"
"231035","110-UY","2018/03/26 13:29:45","新北市新店區安康路一段266巷4號","121.51987","24.9639983333333","6500600","新店區"
"231019","187-VK","2018/03/26 13:29:42","新北市新店區新烏路一段130號","121.54449","24.9337016666667","6500600","新店區"
"231014","KEA-2219","2018/03/26 13:29:34","新北市新店區北宜路二段30巷5弄2號","121.548003333333","24.9508366666667","6500600","新店區"
"231026","256-BX","2018/03/26 13:29:38","新北市新店區北宜路一段109巷3號","121.539716666667","24.9548816666667","6500600","新店區"
"231034","268-BY","2018/03/26 13:29:41","新北市新店區車子路109號","121.505211666667","24.9521183333333","6500600","新店區"
"231010","278-BY","2018/03/26 13:29:48","新北市新店區自由街15號","121.535291666667","24.97482","6500600","新店區"
"231023","AAD-862","2018/03/26 13:29:50","新北市新店區新店路13號","121.540323333333","24.952875","6500600","新店區"
"231027","3712-VJ","2018/03/26 13:29:42","新北市新店區新店後街98號","121.537553333333","24.95517","6500600","新店區"
"231024","4716-K9","2018/03/26 13:29:39","新北市新店區北新路二段29巷1弄4號","121.542341666667","24.9724","6500600","新店區"
"231038","4715-K9","2018/03/26 13:29:50","新北市新店區安華路30巷1號","121.519566666667","24.95927","6500600","新店區"
"231013","513-UM","2018/03/26 13:29:32","新北市新店區中正路454-5號","121.534426666667","24.9791016666667","6500600","新店區"
"231006","617-UM","2018/03/26 13:29:41","新北市新店區秀山路43號","121.531526666667","24.960825","6500600","新店區"
"231001","619-UM","2018/03/26 13:29:31","新北市新店區中央路181-1號","121.535866666667","24.9690566666667","6500600","新店區"
"231003","641-BX","2018/03/26 13:29:31","新北市新店區中正路84號","121.543636666667","24.9703716666667","6500600","新店區"
"231036","719-UY","2018/03/26 13:28:57","新北市新店區安祥路190巷47號","121.47712","24.9560116666667","6500600","新店區"
"231031","720-UM","2018/03/26 13:29:39","新北市新店區安康路一段104號","121.52735","24.962415","6500600","新店區"
"231005","897-TW","2018/03/26 13:29:35","新北市新店區環河路1-5號","121.538396666667","24.9616383333333","6500600","新店區"
"231004","899-TW","2018/03/26 13:29:35","新北市新店區秀山路72號","121.531261666667","24.960935","6500600","新店區"
"231037","AKT-0513","2018/03/26 13:29:38","新北市新店區薏仁坑路28-3號","121.495483333333","24.9635466666667","6500600","新店區"
"235030","003-UY","2018/03/26 13:29:51","新北市中和區中山路二段120號","121.50286","25.0037566666667","6500300","中和區"
"235028","005-UY","2018/03/26 13:29:49","新北市中和區圓通路158巷1弄9號","121.497276666667","24.99592","6500300","中和區"
"235027","006-UY","2018/03/26 13:29:48","新北市中和區連城路347巷8號","121.488291666667","24.99532","6500300","中和區"
"235020","096-UM","2018/03/26 13:29:46","新北市中和區新民街104號","121.480798333333","25.0084016666667","6500300","中和區"
"235003","097-UM","2018/03/26 13:29:48","新北市中和區景平路172號","121.51689","24.992655","6500300","中和區"
"235029","098-UM","2018/03/26 13:29:44","新北市中和區莊敬路49巷20弄24號","121.502776666667","25.0056133333333","6500300","中和區"
"235004","150-BY","2018/03/26 13:25:31","新北市中和區和城路一段271巷1號","121.485388333333","24.9916783333333","6500300","中和區"
"235022","151-BY","2018/03/26 13:29:51","新北市中和區圓通路369巷72號","121.490161666667","24.982215","6500300","中和區"
"235019","183-VK","2018/03/26 13:29:46","新北市中和區民享街283號","121.471276666667","24.996105","6500300","中和區"
"235002","185-VK","2018/03/26 13:29:51","新北市中和區立人街14巷10號","121.519498333333","24.9951583333333","6500300","中和區"
"235013","186-VK","2018/03/26 13:29:44","新北市中和區景安路125號","121.505701666667","24.996095","6500300","中和區"
"235031","255-BX","2018/03/26 13:28:35","新北市中和區連城路340巷14弄18號","121.482961666667","24.9972916666667","6500300","中和區"
"235008","293-VK","2018/03/26 13:29:45","新北市中和區復興路301巷21號","121.501831666667","24.98974","6500300","中和區"
"235036","301-VK","2018/03/26 13:29:33","新北市中和區連城路265巷6弄9號","121.491083333333","24.9957816666667","6500300","中和區"
"235007","352-BY","2018/03/26 13:29:42","新北市中和區景平路321號","121.506048333333","24.9932966666667","6500300","中和區"
"235032","377-QA","2018/03/26 13:29:36","新北市中和區中正路273-5號","121.495723333333","24.993215","6500300","中和區"
"235025","378-QA","2018/03/26 13:29:50","新北市中和區民享街99號","121.474915","24.99987","6500300","中和區"
"235035","269-TV","2018/03/26 13:29:48","新北市中和區環中路128號","121.481923333333","25.0127416666667","6500300","中和區"
"235014","4979-A6","2018/03/26 13:29:38","新北市中和區景新街362巷3號","121.512098333333","24.99013","6500300","中和區"
"235033","4980-A6","2018/03/26 13:29:41","新北市中和區連城路127巷11號","121.4966","24.9985683333333","6500300","中和區"
"235034","558-UM","2018/03/26 13:29:41","新北市中和區南華路11號","121.502323333333","24.995545","6500300","中和區"
"235009","565-BX","2018/03/26 13:29:51","新北市中和區南山路236巷20弄5號","121.5057","24.98936","6500300","中和區"
"235018","640-BX","2018/03/26 13:29:38","新北市中和區民享街91號","121.474313333333","25.0014366666667","6500300","中和區"
"235024","647-TV","2018/03/26 13:29:51","新北市中和區員山路325-5號","121.481233333333","25.0009366666667","6500300","中和區"
"235011","732-UM","2018/03/26 13:29:38","新北市中和區南山路300號","121.507871666667","24.9871316666667","6500300","中和區"
"235026","800-TS","2018/03/26 13:29:39","新北市中和區景平路726-2號","121.496646666667","25.0036","6500300","中和區"
"235021","801-TS","2018/03/26 13:29:35","新北市中和區民安街59號","121.478925","24.9997716666667","6500300","中和區"
"235005","802-TS","2018/03/26 13:29:44","新北市中和區中和路320號","121.509698333333","25.0006083333333","6500300","中和區"
"235016","805-TS","2018/03/26 13:29:51","新北市中和區興南路二段138號","121.504166666667","24.9832816666667","6500300","中和區"
"235012","896-TW","2018/03/26 13:29:43","新北市中和區中正路637巷52弄1號","121.485518333333","24.9936716666667","6500300","中和區"
"235017","900-TW","2018/03/26 13:29:44","新北市中和區民享街457號","121.470406666667","24.9931783333333","6500300","中和區"
"235015","157-BY","2018/03/26 13:29:32","新北市中和區興南路二段142巷24弄2號","121.502318333333","24.9846933333333","6500300","中和區"
"235001","AAC-213","2018/03/26 13:29:46","新北市中和區景德街82號","121.516465","24.9915083333333","6500300","中和區"
"220034","073-UY","2018/03/26 13:29:46","新北市板橋區南雅南路二段120-12號","121.4521","24.9994533333333","6500100","板橋區"
"247007","056-VK","2018/03/26 13:29:41","新北市五股區更洲路68號","121.45663","25.079755","6501400","蘆洲區"
"253003","6232-TK","2018/03/26 13:29:44","新北市石門區內石門85號","121.569306666667","25.2652683333333","6502200","石門區"
"253001","6251-TK","2018/03/26 13:29:39","新北市石門區楓林17-10號","121.536125","25.2931066666667","6502200","石門區"
"253002","637-UY","2018/03/26 13:29:38","新北市石門區九芎林5-3號","121.559773333333","25.2692","6502200","石門區"
"253004","8270-PC","2018/03/26 13:29:33","新北市石門區阿里荖69號","121.612096666667","25.2700766666667","6502200","石門區"
"207002","749-BX","2018/03/26 13:29:35","新北市萬里區崁腳里崁腳路166號","121.645063333333","25.155895","6502800","萬里區"
"252005","073-UM","2018/03/26 13:29:39","新北市三芝區福德里土地公埔72-1號","121.522371666667","25.223945","6502100","三芝區"
"207001","662-BX","2018/03/26 13:29:48","新北市萬里區大鵬里頂社2-1號","121.660585","25.2069383333333","6502800","萬里區"
"236005","498-BY","2018/03/26 13:29:50","新北市土城區慶祥街59巷1-1號","121.435905","24.9728783333333","6501300","土城區"
"242047","172-VK","2018/03/26 13:29:48","新北市新莊區中港路437號","121.452335","25.048085","6500500","新莊區"
"220027","145-BY","2018/03/26 13:29:48","新北市板橋區大觀路二段107號","121.446315","25.00165","6500100","板橋區"
"220030","610-BX","2018/03/26 13:29:54","新北市板橋區華東街1-10號","121.448253333333","24.9949566666667","6500100","板橋區"
"220019","283-VK","2018/03/26 13:29:37","新北市板橋區華東街1-9號","121.44802","24.99495","6500100","板橋區"
"220043","285-UM","2018/03/26 13:29:54","新北市板橋區民生路二段161巷1號","121.47015","25.0198483333333","6500100","板橋區"
"220031","286-VK","2018/03/26 13:29:53","新北市板橋區華東街1-10號","121.44844","24.9950133333333","6500100","板橋區"
"220028","461-BY","2018/03/26 13:29:47","新北市板橋區華東街1-9號","121.4481","24.9949183333333","6500100","板橋區"
"220012","486-VK","2018/03/26 13:29:39","新北市板橋區大觀路2段435-7號","121.447806666667","24.9954783333333","6500100","板橋區"
"220035","560-BX","2018/03/26 13:29:31","新北市板橋區南雅南路二段120-12號","121.452101666667","24.9994733333333","6500100","板橋區"
"220025","687-BX","2018/03/26 13:29:35","新北市板橋區大觀路三段18號","121.43454","24.99576","6500100","板橋區"
"220014","829-TW","2018/03/26 13:29:40","新北市板橋區民生路二段120號","121.470513333333","25.0198933333333","6500100","板橋區"
"220022","895-R6","2018/03/26 13:29:38","新北市板橋區華東街1-9號","121.448218333333","24.9949566666667","6500100","板橋區"
"220021","985-R7","2018/03/26 13:29:40","新北市板橋區華東街1-9號","121.448198333333","24.994975","6500100","板橋區"
