"lineid","car","time","location","longitude","latitude","cityid","cityname"
"234044","148-BY","2018/03/26 13:49:29","新北市永和區永利路111號","121.523526666667","25.0026033333333","6500400","永和區"
"234005","207-UY","2018/03/26 13:49:33","新北市永和區中和路625號","121.513","25.0049","6500400","永和區"
"234078","298-R6","2018/03/26 13:49:45","新北市永和區永利路81巷23號","121.522403333333","25.004045","6500400","永和區"
"234036","336-UY","2018/03/26 13:49:43","新北市永和區民樂街59巷3號","121.527811666667","24.9984316666667","6500400","永和區"
"234062","337-UY","2018/03/26 13:49:39","新北市永和區中正路368巷29號","121.518698333333","25.000845","6500400","永和區"
"234084","338-UY","2018/03/26 13:49:36","新北市永和區中正路475號","121.51697","25.0063233333333","6500400","永和區"
"234068","552-UM","2018/03/26 13:49:37","新北市永和區竹林路88號","121.519355","25.0125783333333","6500400","永和區"
"234015","745-BX","2018/03/26 13:49:35","新北市永和區永和路二段278號","121.51602","25.0152466666667","6500400","永和區"
"234028","746-BX","2018/03/26 13:49:45","新北市永和區民生路67巷7號","121.523055","24.9972933333333","6500400","永和區"
"234052","KEA-2590","2018/03/26 13:49:44","新北市永和區竹林路75巷25弄7號","121.520078333333","25.014505","6500400","永和區"
"234012","KEA-2591","2018/03/26 13:49:28","新北市永和區仁愛路204號","121.509263333333","25.012275","6500400","永和區"
"234060","AAD-866","2018/03/26 13:49:45","新北市永和區中正路69號","121.514806666667","24.9967233333333","6500400","永和區"
"234040","862-TW","2018/03/26 13:49:44","新北市永和區中和路389巷8號","121.508115","25.00095","6500400","永和區"
"234048","863-TW","2018/03/26 13:49:31","新北市永和區保安路146號","121.508493333333","25.01483","6500400","永和區"
"234010","9373-KE","2018/03/26 13:49:45","新北市永和區保福路二段163巷13弄16號","121.509208333333","25.0142633333333","6500400","永和區"
"248015","026-BX","2018/03/26 13:49:38","新北市五股區凌雲路一段149巷42號","121.448628333333","25.1009883333333","6501500","五股區"
"248007","095-VK","2018/03/26 13:49:32","新北市五股區中興路一段149號","121.465158333333","25.0736","6501500","五股區"
"248019","225-UY","2018/03/26 13:42:51","新北市五股區孝義路102號","121.445241666667","25.1197183333333","6501500","五股區"
"248011","247-BX","2018/03/26 13:49:35","新北市五股區成泰路二段195巷1號","121.440415","25.0873966666667","6501500","五股區"
"248003","677-BX","2018/03/26 13:49:42","新北市五股區民義路二段46號","121.413986666667","25.1014483333333","6501500","五股區"
"248001","678-BX","2018/03/26 13:49:43","新北市五股區凌雲路一段62號","121.451185","25.1011233333333","6501500","五股區"
"248009","682-TV","2018/03/26 13:49:45","新北市五股區水碓九路11號","121.427943333333","25.071775","6501500","五股區"
"234076","969-R7","2018/03/26 13:49:36","新北市永和區民族街27巷17號","121.519888333333","24.999605","6500400","永和區"
"234072","AAC-211","2018/03/26 13:49:40","新北市永和區竹林路179巷37號","121.522301666667","25.0102666666667","6500400","永和區"
"234066","AAC-212","2018/03/26 13:49:33","新北市永和區保平路236巷24弄15號","121.508476666667","25.0070266666667","6500400","永和區"
"234001","AAC-295","2018/03/26 13:49:36","新北市永和區永和路一段42號","121.513045","25.0055583333333","6500400","永和區"
"243004","AAD-798","2018/03/26 13:49:42","新北市泰山區泰林路二段73巷27號","121.434455","25.0578933333333","6501600","泰山區"
"243007","380-SR","2018/03/26 13:49:41","新北市泰山區美寧街58號","121.430588333333","25.0647433333333","6501600","泰山區"
"243005","646-TV","2018/03/26 13:49:40","新北市泰山區明志路三段206巷10號","121.423273333333","25.0380366666667","6501600","泰山區"
"243008","680-BX","2018/03/26 13:49:37","新北市泰山區明志路二段152-2號","121.427511666667","25.0505983333333","6501600","泰山區"
"231002","002-UM","2018/03/26 13:49:40","新北市新店區溪園路393號","121.524273333333","24.97905","6500600","新店區"
"231025","0293-UT","2018/03/26 13:49:42","新北市新店區中央五街1號","121.530255","24.9741483333333","6500600","新店區"
"231028","046-UY","2018/03/26 13:49:35","新北市新店區安和路二段236號","121.516645","24.9780966666667","6500600","新店區"
"231030","047-UY","2018/03/26 13:49:31","新北市新店區安康路一段258號","121.520613333333","24.9639766666667","6500600","新店區"
"231029","106-UY","2018/03/26 13:49:44","新北市新店區安康路二段103號","121.512826666667","24.9625416666667","6500600","新店區"
"231018","107-UY","2018/03/26 13:49:34","新北市新店區中正路398號","121.534745","24.9774833333333","6500600","新店區"
"231011","108-UY","2018/03/26 13:49:35","新北市新店區德正街45號","121.545201666667","24.9710933333333","6500600","新店區"
"231035","110-UY","2018/03/26 13:49:45","新北市新店區安忠路57巷12號","121.513275","24.95901","6500600","新店區"
"231019","187-VK","2018/03/26 13:49:42","新北市新店區新烏路二段50巷3號","121.547825","24.928375","6500600","新店區"
"231014","KEA-2219","2018/03/26 13:49:34","新北市新店區竹林路94號","121.553765","24.9500383333333","6500600","新店區"
"231026","256-BX","2018/03/26 13:49:38","新北市新店區三民路159巷19弄17號","121.53261","24.97381","6500600","新店區"
"231034","268-BY","2018/03/26 13:49:41","新北市新店區達觀路16號","121.503191666667","24.940625","6500600","新店區"
"231010","278-BY","2018/03/26 13:49:48","新北市新店區平等街48巷9號","121.535456666667","24.9732466666667","6500600","新店區"
"231023","AAD-862","2018/03/26 13:49:30","新北市新店區國校路47號","121.537983333333","24.9548833333333","6500600","新店區"
"231027","3712-VJ","2018/03/26 13:49:42","新北市新店區北宜路一段39巷20號","121.538921666667","24.9583383333333","6500600","新店區"
"231024","4716-K9","2018/03/26 13:49:39","新北市新店區新生街23號","121.53971","24.9665683333333","6500600","新店區"
"231038","4715-K9","2018/03/26 13:49:30","新北市新店區安康路一段230-3號","121.522433333333","24.96374","6500600","新店區"
"231013","513-UM","2018/03/26 13:49:32","新北市新店區二十張路25巷20號","121.53932","24.98206","6500600","新店區"
"231006","617-UM","2018/03/26 13:49:41","新北市新店區北宜路一段260號","121.545781666667","24.95274","6500600","新店區"
"231001","619-UM","2018/03/26 13:49:31","新北市新店區三民路141號","121.534213333333","24.972735","6500600","新店區"
"231003","641-BX","2018/03/26 13:49:31","新北市新店區中興路一段68號","121.539413333333","24.95979","6500600","新店區"
"231036","719-UY","2018/03/26 13:49:37","新北市新店區安祥路110巷6號","121.474458333333","24.95702","6500600","新店區"
"231031","720-UM","2018/03/26 13:49:39","新北市新店區莒光路87巷15號","121.525671666667","24.953375","6500600","新店區"
"231005","897-TW","2018/03/26 13:49:35","新北市新店區寶中路121-1號","121.549661666667","24.9794533333333","6500600","新店區"
"231004","899-TW","2018/03/26 13:49:35","新北市新店區寶橋路45號","121.54474","24.9745966666667","6500600","新店區"
"231037","AKT-0513","2018/03/26 13:49:38","新北市新店區安康路三段359巷12弄3號","121.484311666667","24.94976","6500600","新店區"
"235030","003-UY","2018/03/26 13:49:31","新北市中和區水源路18巷5號","121.504036666667","25.0031","6500300","中和區"
"235028","005-UY","2018/03/26 13:49:30","新北市中和區連城路75巷13號","121.498566666667","24.9983983333333","6500300","中和區"
"235027","006-UY","2018/03/26 13:49:28","新北市中和區錦和路99號","121.490131666667","24.995495","6500300","中和區"
"235020","096-UM","2018/03/26 13:49:46","新北市中和區中正路1196號","121.480405","25.0104366666667","6500300","中和區"
"235003","097-UM","2018/03/26 13:49:43","新北市中和區大勇街25巷18號","121.516566666667","24.9934133333333","6500300","中和區"
"235029","098-UM","2018/03/26 13:49:44","新北市中和區中山路二段2巷45弄24號","121.501498333333","25.0069933333333","6500300","中和區"
"235004","150-BY","2018/03/26 13:25:31","新北市中和區和城路一段271巷1號","121.485388333333","24.9916783333333","6500300","中和區"
"235022","151-BY","2018/03/26 13:49:31","新北市中和區連城路559號","121.479831666667","24.9947766666667","6500300","中和區"
"235019","183-VK","2018/03/26 13:49:46","新北市中和區德光路77巷1號","121.46958","25.0035166666667","6500300","中和區"
"235002","185-VK","2018/03/26 13:49:31","新北市中和區立人街24-4號","121.51888","24.9942383333333","6500300","中和區"
"235013","186-VK","2018/03/26 13:49:42","新北市中和區景新街210巷27號","121.50713","24.9941883333333","6500300","中和區"
"235031","255-BX","2018/03/26 13:49:35","新北市中和區新生街268號","121.483538333333","24.997175","6500300","中和區"
"235008","293-VK","2018/03/26 13:49:45","新北市中和區中興街169號","121.5","24.9904883333333","6500300","中和區"
"235036","301-VK","2018/03/26 13:49:33","新北市中和區連城路4號","121.499228333333","25.0023233333333","6500300","中和區"
"235007","352-BY","2018/03/26 13:49:42","新北市中和區成功路139號","121.526033333333","24.9901866666667","6500300","中和區"
"235032","377-QA","2018/03/26 13:49:36","新北市中和區圓通路162巷1號","121.497233333333","24.99536","6500300","中和區"
"235025","378-QA","2018/03/26 13:49:34","新北市中和區民享街49巷2號","121.474283333333","25.00267","6500300","中和區"
"235035","269-TV","2018/03/26 13:49:43","新北市中和區中山路二段482巷31號","121.489861666667","25.006725","6500300","中和區"
"235014","4979-A6","2018/03/26 13:49:38","新北市中和區忠孝街62巷9弄10號","121.513171666667","24.9839766666667","6500300","中和區"
"235033","4980-A6","2018/03/26 13:49:41","新北市中和區泰和街12號","121.499955","25.0010933333333","6500300","中和區"
"235006","551-UM","2018/03/26 13:49:47","新北市中和區秀朗路三段70巷32號","121.525741666667","24.9944983333333","6500300","中和區"
"235034","558-UM","2018/03/26 13:49:41","新北市中和區南山路20號","121.501993333333","24.998395","6500300","中和區"
"235009","565-BX","2018/03/26 13:49:31","新北市中和區捷運路102號","121.505701666667","24.991525","6500300","中和區"
"235018","640-BX","2018/03/26 13:49:38","新北市中和區民享街75號","121.474238333333","25.002","6500300","中和區"
"235024","647-TV","2018/03/26 13:49:31","新北市中和區中山路三段144號","121.47373","25.0063083333333","6500300","中和區"
"235011","732-UM","2018/03/26 13:49:38","新北市中和區興南路二段34巷28弄2號","121.505121666667","24.9865","6500300","中和區"
"235010","733-UM","2018/03/26 13:49:32","新北市中和區仁愛街36巷45號","121.511303333333","24.9866233333333","6500300","中和區"
"235026","800-TS","2018/03/26 13:49:39","新北市中和區中山路二段312巷1弄1號","121.495561666667","25.002595","6500300","中和區"
"235021","801-TS","2018/03/26 13:49:34","新北市中和區民安街25巷4號","121.480558333333","25.0001866666667","6500300","中和區"
"235005","802-TS","2018/03/26 13:49:44","新北市中和區永貞路286號","121.513113333333","25.0041033333333","6500300","中和區"
"235016","805-TS","2018/03/26 13:49:31","新北市中和區興南路二段399巷124號","121.501241666667","24.9756183333333","6500300","中和區"
"235012","896-TW","2018/03/26 13:49:43","新北市中和區南山路218號","121.506276666667","24.99035","6500300","中和區"
"235017","900-TW","2018/03/26 13:49:44","新北市中和區華福街45號","121.466443333333","24.9967683333333","6500300","中和區"
"235015","157-BY","2018/03/26 13:49:32","新北市中和區華新街109巷5號","121.509013333333","24.9818333333333","6500300","中和區"
"235001","AAC-213","2018/03/26 13:49:46","新北市中和區秀朗路三段128巷10號","121.52457","24.9926716666667","6500300","中和區"
"235023","AAC-215","2018/03/26 13:49:39","新北市中和區圓通路373號","121.490833333333","24.9893216666667","6500300","中和區"
"220013","072-UY","2018/03/26 13:49:32","新北市板橋區漢生東路217號","121.471083333333","25.0093816666667","6500100","板橋區"
"220034","073-UY","2018/03/26 13:49:46","新北市板橋區大智街78-3號","121.453758333333","25.0156233333333","6500100","板橋區"
"220017","AAD-861","2018/03/26 13:49:39","新北市板橋區大華街10號","121.458846666667","25.00628","6500100","板橋區"
"247009","341-TH","2018/03/26 13:49:43","新北市蘆洲區集賢路224巷13號","121.481945","25.08679","6501400","蘆洲區"
"247003","337-TH","2018/03/26 13:49:33","新北市蘆洲區中原路26號","121.460108333333","25.0828133333333","6501400","蘆洲區"
"247005","336-TH","2018/03/26 13:49:45","新北市蘆洲區中山二路256號","121.469311666667","25.0789633333333","6501400","蘆洲區"
"247007","056-VK","2018/03/26 13:49:41","新北市蘆洲區永安北路二段74號","121.484016666667","25.0845916666667","6501400","蘆洲區"
"253003","6232-TK","2018/03/26 13:49:44","新北市石門區尖子鹿8-1號","121.575245","25.2799616666667","6502200","石門區"
"253001","6251-TK","2018/03/26 13:49:39","新北市石門區下員坑20號","121.511316666667","25.2788833333333","6502200","石門區"
"253002","637-UY","2018/03/26 13:49:38","新北市石門區九芎林54號","121.565433333333","25.249205","6502200","石門區"
"253004","8270-PC","2018/03/26 13:49:41","新北市石門區阿里荖62號","121.607801666667","25.26742","6502200","石門區"
"207002","749-BX","2018/03/26 13:49:35","新北市萬里區崁腳里崁腳路166號","121.64505","25.1557783333333","6502800","萬里區"
"252005","073-UM","2018/03/26 13:49:39","新北市三芝區圓山里內柑宅25-2號","121.536743333333","25.2257683333333","6502100","三芝區"
"207001","662-BX","2018/03/26 13:49:28","新北市萬里區磺潭里清水2號","121.635025","25.2020833333333","6502800","萬里區"
"236064","105-UM","2018/03/26 13:49:38","新北市土城區亞洲路58巷5弄2號","121.434208333333","24.974465","6501300","土城區"
"236040","107-UM","2018/03/26 13:49:33","新北市土城區自強街37號","121.433358333333","24.9737133333333","6501300","土城區"
"236074","166-UM","2018/03/26 13:49:31","新北市土城區中華路二段122號","121.437828333333","24.9737816666667","6501300","土城區"
"236028","253-BX","2018/03/26 13:49:38","新北市土城區亞洲路46巷22號","121.434436666667","24.9746383333333","6501300","土城區"
"236024","269-VK","2018/03/26 13:49:29","新北市土城區亞洲路32巷23號","121.434823333333","24.9750416666667","6501300","土城區"
"236012","270-VK","2018/03/26 13:49:27","新北市土城區亞洲路32巷23號","121.434943333333","24.9750633333333","6501300","土城區"
"236032","271-VK","2018/03/26 13:49:36","新北市土城區亞洲路32巷23號","121.435048333333","24.9751733333333","6501300","土城區"
"236016","401-BY","2018/03/26 13:49:48","新北市土城區亞洲路32巷23號","121.434786666667","24.97507","6501300","土城區"
"236005","498-BY","2018/03/26 13:49:44","新北市土城區學府路二段156-1號","121.445806666667","24.9785683333333","6501300","土城區"
"236056","912-UM","2018/03/26 13:49:46","新北市土城區自強街37號","121.433351666667","24.9737666666667","6501300","土城區"
"236044","913-UM","2018/03/26 13:49:28","新北市土城區亞洲路58巷5弄2號","121.43386","24.974565","6501300","土城區"
"236052","AAC-216","2018/03/26 13:49:36","新北市土城區自強街35號","121.432965","24.9734316666667","6501300","土城區"
"242047","172-VK","2018/03/26 13:49:28","新北市新莊區福壽街15號","121.457951666667","25.047905","6500500","新莊區"
"220027","145-BY","2018/03/26 13:49:48","新北市板橋區民權路202巷1弄2-3號","121.459456666667","25.0141633333333","6500100","板橋區"
"220105","KEA-2550","2018/03/26 13:49:42","新北市板橋區民生路二段161巷1號","121.47024","25.0199966666667","6500100","板橋區"
"220030","610-BX","2018/03/26 13:49:40","新北市板橋區篤行路三段玉平巷76弄10號","121.427695","24.98588","6500100","板橋區"
"220050","245-BX","2018/03/26 13:49:33","新北市板橋區民生路二段56-6號","121.471281666667","25.0189433333333","6500100","板橋區"
"220004","276-BY","2018/03/26 13:49:33","新北市土城區四川路37號","121.454798333333","24.9958266666667","6500100","板橋區"
"220019","283-VK","2018/03/26 13:49:40","新北市板橋區忠孝路176巷23號","121.465241666667","25.0018483333333","6500100","板橋區"
"220043","285-UM","2018/03/26 13:49:34","新北市板橋區民生路二段161巷1號","121.470083333333","25.01986","6500100","板橋區"
"220001","285-VK","2018/03/26 13:49:36","新北市板橋區民生路二段56-6號","121.470856666667","25.0187716666667","6500100","板橋區"
"220031","286-VK","2018/03/26 13:49:33","新北市板橋區大觀路二段20巷2號","121.444808333333","25.0040883333333","6500100","板橋區"
"220029","287-VK","2018/03/26 13:49:37","新北市板橋區光華街13巷31-1號","121.453041666667","25.011265","6500100","板橋區"
"220039","288-VK","2018/03/26 13:49:43","新北市板橋區民生路二段120號","121.470641666667","25.0197683333333","6500100","板橋區"
"220009","293-UM","2018/03/26 13:49:34","新北市板橋區太和街4巷1號","121.473933333333","25.0198066666667","6500100","板橋區"
"220010","295-UM","2018/03/26 13:49:42","新北市板橋區中山路二段23號","121.472405","25.0152733333333","6500100","板橋區"
"220032","296-UM","2018/03/26 13:49:37","新北市板橋區大觀路二段142-2號","121.442563333333","24.9990783333333","6500100","板橋區"
"220023","303-R5","2018/03/26 13:49:45","新北市板橋區南雅東路79-1號","121.45327","25.0079083333333","6500100","板橋區"
"220041","307-R5","2018/03/26 13:49:30","新北市板橋區民生路二段120號","121.47077","25.01963","6500100","板橋區"
"220047","317-R6","2018/03/26 13:49:33","新北市板橋區民生路二段120號","121.470335","25.019745","6500100","板橋區"
"220028","461-BY","2018/03/26 13:49:47","新北市板橋區大觀路二段265巷60弄3號","121.442595","24.9980266666667","6500100","板橋區"
"220012","486-VK","2018/03/26 13:49:39","新北市板橋區民生路二段36-1號","121.472273333333","25.0165833333333","6500100","板橋區"
"220037","491-VK","2018/03/26 13:49:29","新北市板橋區民生路二段161巷1號","121.46995","25.020015","6500100","板橋區"
"220035","560-BX","2018/03/26 13:49:31","新北市板橋區中正路325巷41號","121.453436666667","25.0193416666667","6500100","板橋區"
"220003","568-UM","2018/03/26 13:49:36","新北市板橋區中山路一段37-3號","121.460248333333","25.0093233333333","6500100","板橋區"
"220011","609-BX","2018/03/26 13:49:30","新北市板橋區民生路二段56-6號","121.47078","25.0188433333333","6500100","板橋區"
"220005","686-BX","2018/03/26 13:49:33","新北市板橋區縣民大道一段94巷2號","121.456305","25.0049433333333","6500100","板橋區"
"220025","687-BX","2018/03/26 13:49:35","新北市板橋區金門街79號","121.433266666667","24.9926683333333","6500100","板橋區"
"220042","689-BX","2018/03/26 13:49:46","新北市板橋區民生路二段161巷1號","121.470236666667","25.0199483333333","6500100","板橋區"
"220002","741-BX","2018/03/26 13:49:47","新北市板橋區館前西路7號","121.459091666667","25.00706","6500100","板橋區"
"220014","829-TW","2018/03/26 13:49:40","新北市板橋區三民路二段正隆巷45號","121.476763333333","25.0134983333333","6500100","板橋區"
"220016","830-TW","2018/03/26 13:49:27","新北市板橋區民生路二段56-6號","121.471183333333","25.0188933333333","6500100","板橋區"
"220038","833-TW","2018/03/26 13:49:35","新北市板橋區民生路二段161巷1號","121.47021","25.0200066666667","6500100","板橋區"
"220022","895-R6","2018/03/26 13:49:48","新北市板橋區府中路65號","121.45819","25.0093166666667","6500100","板橋區"
"220021","985-R7","2018/03/26 13:49:40","新北市板橋區南門街54號","121.456766666667","25.0080466666667","6500100","板橋區"
"220018","AAC-253","2018/03/26 13:49:48","新北市板橋區四川路一段107-6號","121.459866666667","25.00502","6500100","板橋區"
