"lineid","car","time","location","longitude","latitude","cityid","cityname"
"234044","148-BY","2018/03/26 14:09:29","新北市永和區得和路277號","121.522381666667","24.9997533333333","6500400","永和區"
"234005","207-UY","2018/03/26 14:09:32","新北市中和區中和路246號","121.507171666667","24.999555","6500400","永和區"
"234078","298-R6","2018/03/26 14:09:15","新北市永和區永亨路107號","121.523333333333","25.0048666666667","6500400","永和區"
"234036","336-UY","2018/03/26 14:09:24","新北市永和區成功路一段54號","121.526861666667","25.0040016666667","6500400","永和區"
"234062","337-UY","2018/03/26 14:09:11","新北市永和區永利路156號","121.522545","25.0027433333333","6500400","永和區"
"234084","338-UY","2018/03/26 14:09:16","新北市永和區中正路626號","121.517081666667","25.0079633333333","6500400","永和區"
"234068","552-UM","2018/03/26 14:09:18","新北市永和區福和路285號","121.517453333333","25.0074266666667","6500400","永和區"
"234015","745-BX","2018/03/26 14:09:14","新北市永和區仁愛路9號","121.51474","25.0134783333333","6500400","永和區"
"234028","746-BX","2018/03/26 14:09:25","新北市永和區民權路47號","121.520105","24.9971733333333","6500400","永和區"
"234052","KEA-2590","2018/03/26 14:09:25","新北市永和區博愛街37號","121.518725","25.0158766666667","6500400","永和區"
"234012","KEA-2591","2018/03/26 14:09:28","新北市永和區中山路一段214號","121.508298333333","25.008465","6500400","永和區"
"234060","AAD-866","2018/03/26 14:09:25","新北市永和區安樂路100巷11號","121.51445","24.9992383333333","6500400","永和區"
"234040","862-TW","2018/03/26 14:09:24","新北市永和區雙和街30號","121.508898333333","25.002725","6500400","永和區"
"234048","863-TW","2018/03/26 14:09:22","新北市永和區環河西路二段95號","121.506415","25.0150283333333","6500400","永和區"
"234025","9371-KE","2018/03/26 14:09:24","新北市永和區安樂路272巷11號","121.514973333333","25.00434","6500400","永和區"
"234010","9373-KE","2018/03/26 14:09:24","新北市永和區仁愛路352巷124號","121.500276666667","25.0085916666667","6500400","永和區"
"248015","026-BX","2018/03/26 14:09:18","新北市五股區成泰路三段543巷54號","121.449666666667","25.1030716666667","6501500","五股區"
"248007","095-VK","2018/03/26 14:09:13","新北市五股區中興路一段118巷19號","121.465965","25.0744133333333","6501500","五股區"
"248019","225-UY","2018/03/26 14:05:40","新北市五股區凌雲路三段57號","121.425331666667","25.1250333333333","6501500","五股區"
"248011","247-BX","2018/03/26 14:09:15","新北市五股區工商路36巷14號","121.439756666667","25.084115","6501500","五股區"
"248003","677-BX","2018/03/26 14:09:22","新北市五股區六合街3號","121.432026666667","25.08858","6501500","五股區"
"248001","678-BX","2018/03/26 14:09:23","新北市五股區成泰路三段577巷16號","121.451798333333","25.1028266666667","6501500","五股區"
"248009","682-TV","2018/03/26 14:09:25","新北市五股區水碓一路23號","121.43068","25.07129","6501500","五股區"
"234022","9380-KE","2018/03/26 14:09:13","新北市永和區中正路654巷43號","121.517936666667","25.0086166666667","6500400","永和區"
"234076","969-R7","2018/03/26 14:09:16","新北市永和區民族街67巷20號","121.519563333333","24.997165","6500400","永和區"
"234072","AAC-211","2018/03/26 14:09:27","新北市永和區竹林路201巷35號","121.522205","25.00967","6500400","永和區"
"234066","AAC-212","2018/03/26 14:09:13","新北市永和區保平路214巷12弄3號","121.509026666667","25.006815","6500400","永和區"
"234001","AAC-295","2018/03/26 14:09:17","新北市永和區中正路708號","121.516076666667","25.0100316666667","6500400","永和區"
"243004","AAD-798","2018/03/26 14:09:22","新北市泰山區辭修路36巷8弄5號","121.4279","25.0586133333333","6501600","泰山區"
"243003","297-R6","2018/03/26 14:09:24","新北市泰山區明志路二段372巷2號","121.425391666667","25.0449533333333","6501600","泰山區"
"243007","380-SR","2018/03/26 14:09:27","新北市泰山區明志路一段453-1號","121.4308","25.0563916666667","6501600","泰山區"
"243006","421-VK","2018/03/26 14:09:18","新北市泰山區泰林路二段387號","121.427258333333","25.0642966666667","6501600","泰山區"
"243002","KEA-2215","2018/03/26 14:09:25","新北市泰山區明志路一段483巷1弄1號","121.431111666667","25.0554983333333","6501600","泰山區"
"243001","KEA-2216","2018/03/26 14:09:30","新北市泰山區楓樹街33巷21號","121.434423333333","25.063655","6501600","泰山區"
"243005","646-TV","2018/03/26 14:09:27","新北市泰山區明志路三段201號","121.42411","25.03844","6501600","泰山區"
"243008","680-BX","2018/03/26 14:09:17","新北市泰山區明志路三段1號","121.424818333333","25.043505","6501600","泰山區"
"231002","002-UM","2018/03/26 14:09:20","新北市新店區中正路542-10號","121.53372","24.9848666666667","6500600","新店區"
"231025","0293-UT","2018/03/26 14:09:22","新北市新店區中正路302巷16號","121.538141666667","24.9751966666667","6500600","新店區"
"231028","046-UY","2018/03/26 14:09:15","新北市新店區安業街10號","121.516058333333","24.9785783333333","6500600","新店區"
"231030","047-UY","2018/03/26 14:09:31","新北市新店區安民街65巷21-2號","121.515203333333","24.967555","6500600","新店區"
"231029","106-UY","2018/03/26 14:09:24","新北市新店區安康路二段163號","121.510051666667","24.9593616666667","6500600","新店區"
"231018","107-UY","2018/03/26 14:09:14","新北市新店區中央五街15-1號","121.529571666667","24.9744233333333","6500600","新店區"
"231011","108-UY","2018/03/26 14:09:15","新北市新店區五峰路63巷8弄72號","121.547988333333","24.9685266666667","6500600","新店區"
"231035","110-UY","2018/03/26 14:09:25","新北市新店區安和路一段52巷2號","121.51764","24.9662366666667","6500600","新店區"
"231019","187-VK","2018/03/26 14:09:22","新北市新店區桂山路35號","121.558636666667","24.9028966666667","6500600","新店區"
"231014","KEA-2219","2018/03/26 14:09:14","新北市新店區北宜路二段485號","121.562415","24.9539516666667","6500600","新店區"
"231034","268-BY","2018/03/26 14:09:21","新北市新店區黎明路3號","121.50335","24.9523666666667","6500600","新店區"
"231023","AAD-862","2018/03/26 14:09:23","新北市新店區文中路45號","121.539525","24.956625","6500600","新店區"
"231027","3712-VJ","2018/03/26 14:09:25","新北市新店區光明街138巷13弄7號","121.540216666667","24.9614983333333","6500600","新店區"
"231038","4715-K9","2018/03/26 14:09:30","新北市新店區溪洲路101-1號","121.531818333333","24.9624666666667","6500600","新店區"
"231013","513-UM","2018/03/26 14:09:12","新北市新店區北新路三段65巷34弄15號","121.540041666667","24.9815333333333","6500600","新店區"
"231006","617-UM","2018/03/26 14:09:21","新北市新店區北宜路二段126號","121.556826666667","24.953825","6500600","新店區"
"231001","619-UM","2018/03/26 14:09:31","新北市新店區中華路68號","121.539096666667","24.9691466666667","6500600","新店區"
"231003","641-BX","2018/03/26 14:09:32","新北市新店區中興路一段168號","121.54284","24.9643516666667","6500600","新店區"
"231036","719-UY","2018/03/26 14:09:17","新北市新店區安祥路109巷1弄13號","121.475966666667","24.9597083333333","6500600","新店區"
"231031","720-UM","2018/03/26 14:09:19","新北市新店區永業路51巷2號","121.531861666667","24.9546566666667","6500600","新店區"
"231005","897-TW","2018/03/26 14:09:15","新北市新店區中興路三段324號","121.5421","24.9861483333333","6500600","新店區"
"231004","899-TW","2018/03/26 14:09:15","新北市新店區北新路二段128號","121.543006666667","24.9749283333333","6500600","新店區"
"231037","AKT-0513","2018/03/26 14:09:18","新北市新店區安康路二段341巷36號","121.49666","24.9543633333333","6500600","新店區"
"235030","003-UY","2018/03/26 14:09:11","新北市中和區廣福路12-1號","121.505526666667","25.0028866666667","6500300","中和區"
"235028","005-UY","2018/03/26 14:09:10","新北市中和區泰和街38巷22號","121.498698333333","25.0009916666667","6500300","中和區"
"235027","006-UY","2018/03/26 14:09:28","新北市中和區連城路268-7號","121.486561666667","24.9963733333333","6500300","中和區"
"235020","096-UM","2018/03/26 14:09:26","新北市中和區中山路二段586-2號","121.482326666667","25.0053666666667","6500300","中和區"
"235003","097-UM","2018/03/26 14:09:23","新北市中和區秀峰街38號","121.52135","24.9902866666667","6500300","中和區"
"235029","098-UM","2018/03/26 14:09:24","新北市中和區中山路二段116巷5弄7號","121.502258333333","25.00407","6500300","中和區"
"235022","151-BY","2018/03/26 14:09:30","新北市中和區連城路428巷7-3號","121.479916666667","24.995355","6500300","中和區"
"235019","183-VK","2018/03/26 14:09:26","新北市中和區德光路113號","121.468038333333","25.0031883333333","6500300","中和區"
"235002","185-VK","2018/03/26 14:09:27","新北市中和區大仁街10巷21號","121.518806666667","24.9925383333333","6500300","中和區"
"235013","186-VK","2018/03/26 14:09:22","新北市中和區景新街237號","121.508163333333","24.994525","6500300","中和區"
"235031","255-BX","2018/03/26 14:09:14","新北市中和區新生街195號","121.483808333333","25.0001333333333","6500300","中和區"
"235008","293-VK","2018/03/26 14:09:25","新北市中和區中興街235巷1號","121.500758333333","24.9896216666667","6500300","中和區"
"235036","301-VK","2018/03/26 14:09:12","新北市中和區中山路二段122號","121.502548333333","25.0035666666667","6500300","中和區"
"235007","352-BY","2018/03/26 14:09:23","新北市中和區景平路134號","121.518738333333","24.9919216666667","6500300","中和區"
"235032","377-QA","2018/03/26 14:09:16","新北市中和區圓通路158巷3-1號","121.49768","24.9962083333333","6500300","中和區"
"235025","378-QA","2018/03/26 14:09:30","新北市中和區員山路390號","121.48054","25.0045716666667","6500300","中和區"
"235035","269-TV","2018/03/26 14:09:28","新北市中和區建一路18號","121.487985","25.003775","6500300","中和區"
"235014","4979-A6","2018/03/26 14:09:18","新北市中和區復興路249巷11弄3號","121.503558333333","24.989725","6500300","中和區"
"235033","4980-A6","2018/03/26 14:09:21","新北市中和區中和路217巷8-2號","121.504273333333","25.0004533333333","6500300","中和區"
"235006","551-UM","2018/03/26 14:09:27","新北市中和區自立路16巷2號","121.521716666667","24.993685","6500300","中和區"
"235034","558-UM","2018/03/26 14:09:21","新北市中和區中和路151號","121.502591666667","24.9998083333333","6500300","中和區"
"235009","565-BX","2018/03/26 14:09:11","新北市中和區景新街467巷36號","121.515445","24.9886016666667","6500300","中和區"
"235018","640-BX","2018/03/26 14:09:18","新北市中和區國光街107巷4弄30號","121.469533333333","24.99894","6500300","中和區"
"235024","647-TV","2018/03/26 14:09:11","新北市中和區中山路三段115號","121.47462","25.0060666666667","6500300","中和區"
"235011","732-UM","2018/03/26 14:09:18","新北市中和區興南路一段86號","121.510035","24.989285","6500300","中和區"
"235010","733-UM","2018/03/26 14:09:12","新北市中和區忠孝街1巷48號","121.508468333333","24.984295","6500300","中和區"
"235026","800-TS","2018/03/26 14:09:19","新北市中和區中山路二段366巷34號","121.491696666667","25.0049583333333","6500300","中和區"
"235021","801-TS","2018/03/26 14:09:14","新北市中和區民利街48號","121.479368333333","24.9987883333333","6500300","中和區"
"235005","802-TS","2018/03/26 14:09:24","新北市中和區中安街178巷2號","121.510943333333","24.9995166666667","6500300","中和區"
"235016","805-TS","2018/03/26 14:09:31","新北市中和區興南路二段142巷19弄58號","121.502408333333","24.983285","6500300","中和區"
"235012","896-TW","2018/03/26 14:09:23","新北市中和區華新街143巷71弄13號","121.508306666667","24.9788233333333","6500300","中和區"
"235017","900-TW","2018/03/26 14:09:24","新北市中和區民德路274號","121.467608333333","24.996495","6500300","中和區"
"235015","157-BY","2018/03/26 14:09:12","新北市中和區仁愛街43號","121.511096666667","24.98837","6500300","中和區"
"235001","AAC-213","2018/03/26 14:09:26","新北市中和區秀朗路三段58-1號","121.526023333333","24.9951716666667","6500300","中和區"
"235023","AAC-215","2018/03/26 14:09:20","新北市中和區圓通路296巷31弄1號","121.488541666667","24.9904083333333","6500300","中和區"
"220013","072-UY","2018/03/26 14:09:27","新北市板橋區民族路219巷39號","121.469018333333","25.0085566666667","6500100","板橋區"
"220034","073-UY","2018/03/26 14:09:26","新北市板橋區中正路236巷77號","121.459066666667","25.0196533333333","6500100","板橋區"
"220017","AAD-861","2018/03/26 14:09:19","新北市板橋區貴興路27號","121.457691666667","25.0041866666667","6500100","板橋區"
"247023","893-R6","2018/03/26 14:09:31","新北市蘆洲區光榮路112號","121.464405","25.0894116666667","6501400","蘆洲區"
"247013","546-UM","2018/03/26 14:09:11","新北市蘆洲區三民路157-1號","121.470811666667","25.0866066666667","6501400","蘆洲區"
"247009","341-TH","2018/03/26 14:09:23","新北市蘆洲區信義路237號","121.479128333333","25.0840783333333","6501400","蘆洲區"
"247011","339-TH","2018/03/26 14:09:14","新北市蘆洲區信義路248號","121.478431666667","25.0864616666667","6501400","蘆洲區"
"247003","337-TH","2018/03/26 14:09:13","新北市蘆洲區長安街102巷43號","121.462273333333","25.0818316666667","6501400","蘆洲區"
"247005","336-TH","2018/03/26 14:09:25","新北市蘆洲區和平路97巷13號","121.467705","25.07862","6501400","蘆洲區"
"247017","057-VK","2018/03/26 14:09:14","新北市蘆洲區民族路227巷24弄11號","121.476335","25.0889933333333","6501400","蘆洲區"
"247007","056-VK","2018/03/26 14:09:21","新北市蘆洲區永安南路一段142巷64號","121.47176","25.0776183333333","6501400","蘆洲區"
"247001","053-VK","2018/03/26 14:09:20","新北市蘆洲區永平街56號","121.457606666667","25.0914616666667","6501400","蘆洲區"
"247015","007-UY","2018/03/26 14:09:18","新北市蘆洲區光華路46巷53號","121.467336666667","25.0848133333333","6501400","蘆洲區"
"247019","001-UY","2018/03/26 14:09:23","新北市蘆洲區民族路426巷19號","121.473003333333","25.0932116666667","6501400","蘆洲區"
"253003","6232-TK","2018/03/26 14:09:23","新北市石門區尖子鹿51號","121.581761666667","25.2730816666667","6502200","石門區"
"253001","6251-TK","2018/03/26 14:09:19","新北市石門區八甲55號","121.523786666667","25.27362","6502200","石門區"
"253002","637-UY","2018/03/26 14:09:18","新北市石門區七股56號","121.552861666667","25.2558933333333","6502200","石門區"
"253004","8270-PC","2018/03/26 14:08:19","新北市石門區小坑40號","121.599173333333","25.2651033333333","6502200","石門區"
"207002","749-BX","2018/03/26 14:09:15","新北市萬里區溪底里瑞泉路9號","121.604746666667","25.1440083333333","6502800","萬里區"
"252005","073-UM","2018/03/26 14:08:58","新北市三芝區橫山里橫山45-1號","121.537578333333","25.2580133333333","6502100","三芝區"
"207001","662-BX","2018/03/26 14:07:48","新北市萬里區磺潭里清水18號","121.637936666667","25.1975683333333","6502800","萬里區"
"236064","105-UM","2018/03/26 14:09:18","新北市土城區明德路一段130號","121.463641666667","24.979145","6501300","土城區"
"236040","107-UM","2018/03/26 14:09:14","新北市土城區中央路二段219-6號","121.440863333333","24.97395","6501300","土城區"
"236074","166-UM","2018/03/26 14:09:31","新北市土城區永安街13-1號","121.433858333333","24.9648733333333","6501300","土城區"
"236028","253-BX","2018/03/26 14:09:18","新北市土城區興城路75號","121.440051666667","24.9707333333333","6501300","土城區"
"236024","269-VK","2018/03/26 14:09:29","新北市土城區承天路43巷2號","121.439001666667","24.96393","6501300","土城區"
"236012","270-VK","2018/03/26 14:09:27","新北市土城區學府路一段167號","121.452841666667","24.9856983333333","6501300","土城區"
"236032","271-VK","2018/03/26 14:09:16","新北市土城區青雲路449號","121.458863333333","24.9749433333333","6501300","土城區"
"236016","401-BY","2018/03/26 14:09:28","新北市土城區城林路6巷80號","121.438236666667","24.9796","6501300","土城區"
"236005","498-BY","2018/03/26 14:09:10","新北市土城區中央路一段22號","121.448363333333","24.9910716666667","6501300","土城區"
"236056","912-UM","2018/03/26 14:09:26","新北市土城區中央路四段62-3號","121.419615","24.9600583333333","6501300","土城區"
"236044","913-UM","2018/03/26 14:09:28","新北市土城區明德路一段398-1號","121.453588333333","24.979065","6501300","土城區"
"236060","915-UM","2018/03/26 14:09:28","新北市土城區金城路三段202-3號","121.469458333333","24.9885883333333","6501300","土城區"
"236052","AAC-216","2018/03/26 14:09:16","新北市土城區中央路二段280號","121.440786666667","24.9742033333333","6501300","土城區"
"242047","172-VK","2018/03/26 14:09:28","新北市新莊區泰順街109號","121.449666666667","25.0433983333333","6500500","新莊區"
"220027","145-BY","2018/03/26 14:09:28","新北市板橋區民權路272-1號","121.457548333333","25.015525","6500100","板橋區"
"220105","KEA-2550","2018/03/26 14:09:23","新北市板橋區文化路二段263巷20號","121.471206666667","25.0298316666667","6500100","板橋區"
"220030","610-BX","2018/03/26 14:09:14","新北市板橋區溪崑二街63號","121.427981666667","24.990435","6500100","板橋區"
"220050","245-BX","2018/03/26 14:09:14","新北市板橋區萬板路15號","121.470563333333","25.021045","6500100","板橋區"
"220004","276-BY","2018/03/26 14:09:13","新北市板橋區信義路110巷2弄13號","121.457543333333","24.9926666666667","6500100","板橋區"
"220019","283-VK","2018/03/26 14:09:21","新北市板橋區重慶路327巷20號","121.46455","24.9985766666667","6500100","板橋區"
"220043","285-UM","2018/03/26 14:09:14","新北市板橋區光武街108-5號","121.465683333333","25.0292083333333","6500100","板橋區"
"220001","285-VK","2018/03/26 14:09:26","新北市板橋區懷仁街11號","121.476128333333","25.020045","6500100","板橋區"
"220031","286-VK","2018/03/26 14:09:18","新北市板橋區大觀路二段174巷175號","121.441976666667","25.00361","6500100","板橋區"
"220029","287-VK","2018/03/26 14:09:17","新北市板橋區南雅西路二段156巷2號","121.451811666667","25.0133883333333","6500100","板橋區"
"220039","288-VK","2018/03/26 14:09:26","新北市板橋區裕民街45巷3-1號","121.461646666667","25.0283583333333","6500100","板橋區"
"220009","293-UM","2018/03/26 14:09:18","新北市板橋區三民路二段21巷14號","121.480188333333","25.0181316666667","6500100","板橋區"
"220010","295-UM","2018/03/26 14:09:25","新北市中和區永和路520號","121.482175","25.01229","6500100","板橋區"
"220032","296-UM","2018/03/26 14:09:18","新北市板橋區溪崑二街56巷30號","121.428008333333","24.9912583333333","6500100","板橋區"
"220023","303-R5","2018/03/26 14:09:26","新北市板橋區中正路9號","121.456083333333","25.01205","6500100","板橋區"
"220041","307-R5","2018/03/26 14:09:31","新北市板橋區文化路二段225巷60弄64號","121.46912","25.0298733333333","6500100","板橋區"
"220047","317-R6","2018/03/26 14:09:13","新北市板橋區自由路51巷14弄7號","121.464601666667","25.0237166666667","6500100","板橋區"
"220028","461-BY","2018/03/26 14:09:27","新北市板橋區大觀路二段7巷45號","121.448358333333","25.0033483333333","6500100","板橋區"
"220012","486-VK","2018/03/26 14:09:32","新北市板橋區板新路13號","121.475133333333","25.0127533333333","6500100","板橋區"
"220037","491-VK","2018/03/26 14:09:29","新北市板橋區莊敬路38號","121.472738333333","25.02702","6500100","板橋區"
"220035","560-BX","2018/03/26 14:09:31","新北市板橋區中正路415號","121.454225","25.0226633333333","6500100","板橋區"
"220052","561-BX","2018/03/26 14:09:12","新北市板橋區文化路一段188巷9弄29號","121.46883","25.0193316666667","6500100","板橋區"
"220003","568-UM","2018/03/26 14:09:16","新北市板橋區中山路一段144號","121.463606666667","25.0111533333333","6500100","板橋區"
"220011","609-BX","2018/03/26 14:09:10","新北市板橋區三民路二段140號","121.47917","25.0158883333333","6500100","板橋區"
"220040","637-BX","2018/03/26 14:09:28","新北市板橋區縣民大道247巷80號","121.482128333333","25.0269233333333","6500100","板橋區"
"220005","686-BX","2018/03/26 14:09:15","新北市板橋區重慶路288號","121.463218333333","24.9991666666667","6500100","板橋區"
"220025","687-BX","2018/03/26 14:09:15","新北市板橋區龍興街65巷2號","121.443611666667","25.0015366666667","6500100","板橋區"
"220042","689-BX","2018/03/26 14:09:27","新北市板橋區民生路三段245號","121.464643333333","25.02893","6500100","板橋區"
"220002","741-BX","2018/03/26 14:09:27","新北市板橋區重慶路93巷4號","121.462423333333","25.0057333333333","6500100","板橋區"
"220051","KEA-2699","2018/03/26 14:09:17","新北市板橋區田單街51號","121.482686666667","25.0278883333333","6500100","板橋區"
"220014","829-TW","2018/03/26 14:09:20","新北市板橋區中山路二段90巷43弄25號","121.477236666667","25.0153933333333","6500100","板橋區"
"220016","830-TW","2018/03/26 14:09:27","新北市板橋區翠華街6巷53號","121.481421666667","25.0246066666667","6500100","板橋區"
"220045","831-TW","2018/03/26 14:09:26","新北市板橋區雙十路二段47巷5-1號","121.476128333333","25.0260233333333","6500100","板橋區"
"220038","833-TW","2018/03/26 14:09:30","新北市板橋區文化路二段347號","121.472728333333","25.0305083333333","6500100","板橋區"
"220022","895-R6","2018/03/26 14:09:18","新北市板橋區林園街42-2號","121.45376","25.01035","6500100","板橋區"
"220021","985-R7","2018/03/26 14:09:20","新北市板橋區中正路159巷2號","121.456498333333","25.0161816666667","6500100","板橋區"
"220046","AAC-210","2018/03/26 14:09:13","新北市板橋區新海路192號","121.461015","25.0236716666667","6500100","板橋區"
"220018","AAC-253","2018/03/26 14:09:28","新北市板橋區忠孝路33-1號","121.460876666667","25.0020016666667","6500100","板橋區"
