"lineid","car","time","location","longitude","latitude","cityid","cityname"
"234005","207-UY","2018/03/26 14:49:33","新北市永和區永貞路312號","121.511748333333","25.0049183333333","6500400","永和區"
"234048","863-TW","2018/03/26 14:49:31","新北市中和區橋和路241號","121.49442","25.0067133333333","6500400","永和區"
"234025","9371-KE","2018/03/26 14:49:24","新北市永和區雙和街52巷1-1號","121.509085","25.0031983333333","6500400","永和區"
"248013","025-BX","2018/03/26 14:49:36","新北市五股區五福路14巷7號","121.434705","25.088795","6501500","五股區"
"248015","026-BX","2018/03/26 14:49:38","新北市五股區成泰路三段577巷80弄71號","121.448936666667","25.1048416666667","6501500","五股區"
"248007","095-VK","2018/03/26 14:49:32","新北市五股區四維路171巷4號","121.467586666667","25.0751583333333","6501500","五股區"
"248019","225-UY","2018/03/26 14:49:40","新北市五股區中直路20-3號","121.425248333333","25.11181","6501500","五股區"
"248011","247-BX","2018/03/26 14:49:35","新北市五股區民義路一段216號","121.43044","25.0895666666667","6501500","五股區"
"248003","677-BX","2018/03/26 14:49:42","新北市五股區成泰路一段114號","121.435538333333","25.0731283333333","6501500","五股區"
"248001","678-BX","2018/03/26 14:49:24","新北市五股區成泰路三段75-1號","121.443553333333","25.0897466666667","6501500","五股區"
"248009","682-TV","2018/03/26 14:49:25","新北市五股區成泰路一段2號","121.43387","25.0667333333333","6501500","五股區"
"244001","248-BX","2018/03/26 14:31:47","新北市林口區林口路76號","121.38971","25.08064","6501700","林口區"
"243004","AAD-798","2018/03/26 14:49:42","新北市泰山區楓江路110號","121.438426666667","25.0639733333333","6501600","泰山區"
"243003","297-R6","2018/03/26 14:49:32","新北市新莊區丹鳳街36號","121.421613333333","25.0295933333333","6501600","泰山區"
"243007","380-SR","2018/03/26 14:49:37","新北市泰山區明志路二段214巷11號","121.426653333333","25.0487916666667","6501600","泰山區"
"243006","421-VK","2018/03/26 14:49:38","新北市泰山區明志路一段24號","121.433565","25.0655066666667","6501600","泰山區"
"243002","KEA-2215","2018/03/26 14:49:45","新北市泰山區明志路二段273巷3弄2號","121.427311666667","25.0472166666667","6501600","泰山區"
"243001","KEA-2216","2018/03/26 14:49:30","新北市泰山區泰林路二段164巷13號","121.434545","25.0607416666667","6501600","泰山區"
"243005","646-TV","2018/03/26 14:49:38","新北市泰山區明志路三段77號","121.424948333333","25.0418966666667","6501600","泰山區"
"243008","680-BX","2018/03/26 14:49:37","新北市泰山區貴陽街4號","121.421503333333","25.0331133333333","6501600","泰山區"
"231002","002-UM","2018/03/26 14:49:40","新北市新店區民權路72號","121.538063333333","24.983085","6500600","新店區"
"231025","0293-UT","2018/03/26 14:49:22","新北市新店區民族路77-2號","121.539148333333","24.9779816666667","6500600","新店區"
"231028","046-UY","2018/03/26 14:49:35","新北市新店區安德街173號","121.50877","24.9588916666667","6500600","新店區"
"231030","047-UY","2018/03/26 14:49:31","新北市新店區安民街301號","121.517613333333","24.97371","6500600","新店區"
"231029","106-UY","2018/03/26 14:49:44","新北市新店區錦秀路11巷94弄2號","121.480228333333","24.9424866666667","6500600","新店區"
"231018","107-UY","2018/03/26 14:49:34","新北市新店區中央六街5號","121.530315","24.9744466666667","6500600","新店區"
"231011","108-UY","2018/03/26 14:49:35","新北市新店區寶橋路85巷51號","121.544458333333","24.9769766666667","6500600","新店區"
"231035","110-UY","2018/03/26 14:49:45","新北市新店區安樂街12號","121.520776666667","24.9733333333333","6500600","新店區"
"231019","187-VK","2018/03/26 14:49:22","新北市新店區永福路54號","121.558125","24.9286716666667","6500600","新店區"
"231014","KEA-2219","2018/03/26 14:49:34","新北市新店區北宜路三段66號","121.575158333333","24.9514","6500600","新店區"
"231026","256-BX","2018/03/26 14:49:37","新北市新店區秀山路68號","121.530893333333","24.9610033333333","6500600","新店區"
"231034","268-BY","2018/03/26 14:49:40","新北市新店區玫瑰路4-1號","121.493531666667","24.9514066666667","6500600","新店區"
"231023","AAD-862","2018/03/26 14:49:23","新北市新店區檳榔路109號","121.544501666667","24.9617183333333","6500600","新店區"
"231027","3712-VJ","2018/03/26 14:49:42","新北市新店區薏仁坑路自強巷6號","121.496673333333","24.9583283333333","6500600","新店區"
"231006","617-UM","2018/03/26 14:49:45","新北市新店區北宜路一段174號","121.540743333333","24.9529816666667","6500600","新店區"
"231001","619-UM","2018/03/26 14:49:31","新北市新店區三民路21巷1號","121.539365","24.971655","6500600","新店區"
"231003","641-BX","2018/03/26 14:49:32","新北市新店區中興路二段100巷2號","121.54737","24.9713633333333","6500600","新店區"
"231039","718-UY","2018/03/26 14:49:39","新北市新店區中興路三段6號","121.54656","24.97723","6500600","新店區"
"231036","719-UY","2018/03/26 14:49:37","新北市新店區安祥路106巷137號","121.47325","24.9586066666667","6500600","新店區"
"231031","720-UM","2018/03/26 14:49:39","新北市新店區安泰路20號","121.485505","24.9486616666667","6500600","新店區"
"231005","897-TW","2018/03/26 14:49:35","新北市新店區復興路2號","121.532333333333","24.9882683333333","6500600","新店區"
"231004","899-TW","2018/03/26 14:49:35","新北市新店區建國路133號","121.539293333333","24.9781916666667","6500600","新店區"
"235030","003-UY","2018/03/26 14:49:31","新北市中和區南工路66號","121.506483333333","25.0020283333333","6500300","中和區"
"235027","006-UY","2018/03/26 14:49:28","新北市中和區連城路263巷6弄2號","121.492188333333","24.9957766666667","6500300","中和區"
"235020","096-UM","2018/03/26 14:49:26","新北市中和區中山路三段114巷46號","121.475738333333","25.0073166666667","6500300","中和區"
"235003","097-UM","2018/03/26 14:49:43","新北市中和區安樂路243巷2號","121.51388","24.9997083333333","6500300","中和區"
"235029","098-UM","2018/03/26 14:49:24","新北市中和區福祥路58號","121.499428333333","25.0047483333333","6500300","中和區"
"235022","151-BY","2018/03/26 14:49:30","新北市中和區員山路146巷19號","121.482475","24.9968933333333","6500300","中和區"
"235019","183-VK","2018/03/26 14:49:35","新北市中和區民德路8號","121.468746666667","25.00303","6500300","中和區"
"235002","185-VK","2018/03/26 14:49:31","新北市中和區自立路35號","121.522093333333","24.995465","6500300","中和區"
"235013","186-VK","2018/03/26 14:49:42","新北市中和區中正路62號","121.501386666667","24.9938166666667","6500300","中和區"
"235031","255-BX","2018/03/26 14:42:55","新北市中和區中正路711號","121.484565","24.9984033333333","6500300","中和區"
"235008","293-VK","2018/03/26 14:49:25","新北市中和區景安路208巷33號","121.502365","24.9925183333333","6500300","中和區"
"235036","301-VK","2018/03/26 14:49:33","新北市中和區連城路225號","121.494195","24.9974633333333","6500300","中和區"
"235007","352-BY","2018/03/26 14:49:42","新北市中和區安和路9號","121.5116","24.9936016666667","6500300","中和區"
"235032","377-QA","2018/03/26 14:49:36","新北市中和區福美路305號","121.497001666667","25.0048016666667","6500300","中和區"
"235025","378-QA","2018/03/26 14:49:30","新北市中和區員山路174巷22號","121.481911666667","24.9996183333333","6500300","中和區"
"235035","269-TV","2018/03/26 14:49:28","新北市中和區建一路153號","121.48812","24.9993833333333","6500300","中和區"
"235014","4979-A6","2018/03/26 14:49:38","新北市中和區景平路241巷84弄54號","121.506078333333","24.9924466666667","6500300","中和區"
"235006","551-UM","2018/03/26 14:49:26","新北市中和區安平路36巷41號","121.511006666667","24.9951283333333","6500300","中和區"
"235034","558-UM","2018/03/26 14:49:40","新北市中和區連勝街45號","121.49816","24.99755","6500300","中和區"
"235018","640-BX","2018/03/26 14:49:38","新北市中和區莒光路160號","121.472718333333","24.99998","6500300","中和區"
"235024","647-TV","2018/03/26 14:49:32","新北市中和區新生街30巷11號","121.482716666667","25.00376","6500300","中和區"
"235011","732-UM","2018/03/26 14:49:38","新北市中和區和平街84號","121.507515","24.99115","6500300","中和區"
"235010","733-UM","2018/03/26 14:49:32","新北市中和區仁愛街43號","121.511071666667","24.9883966666667","6500300","中和區"
"235026","800-TS","2018/03/26 14:49:39","新北市中和區中山路二段365號","121.487703333333","25.0047466666667","6500300","中和區"
"235021","801-TS","2018/03/26 14:49:34","新北市中和區員山路198號","121.481266666667","25.0005066666667","6500300","中和區"
"235016","805-TS","2018/03/26 14:49:30","新北市中和區華新街192巷8號","121.50664","24.9826216666667","6500300","中和區"
"235012","896-TW","2018/03/26 14:49:23","新北市中和區忠孝街99-3號","121.51209","24.9862216666667","6500300","中和區"
"235017","900-TW","2018/03/26 14:49:24","新北市中和區國光街215巷10弄12號","121.466878333333","25.0004966666667","6500300","中和區"
"235015","157-BY","2018/03/26 14:49:32","新北市中和區中興街180巷52弄1號","121.498581666667","24.98833","6500300","中和區"
"235001","AAC-213","2018/03/26 14:49:26","新北市中和區自立路66號","121.523906666667","24.9913516666667","6500300","中和區"
"235023","AAC-215","2018/03/26 14:49:39","新北市中和區圓通路305巷5弄17號","121.494016666667","24.9903283333333","6500300","中和區"
"220013","072-UY","2018/03/26 14:49:32","新北市板橋區國泰街39巷7弄1號","121.468618333333","25.0057366666667","6500100","板橋區"
"220017","AAD-861","2018/03/26 14:49:39","新北市板橋區南雅南路二段94號","121.453648333333","25.00132","6500100","板橋區"
"247013","546-UM","2018/03/26 14:49:31","新北市蘆洲區中央路54號","121.473341666667","25.0835416666667","6501400","蘆洲區"
"247009","341-TH","2018/03/26 14:49:23","新北市蘆洲區中山一路287號","121.471863333333","25.07937","6501400","蘆洲區"
"247001","053-VK","2018/03/26 14:49:40","新北市蘆洲區永康街2巷10號","121.459311666667","25.0862566666667","6501400","蘆洲區"
"247015","007-UY","2018/03/26 14:49:38","新北市蘆洲區正和街96巷47號","121.46722","25.08178","6501400","蘆洲區"
"247019","001-UY","2018/03/26 14:49:22","新北市蘆洲區民義街70號","121.473231666667","25.089805","6501400","蘆洲區"
"227012","030-BX","2018/03/26 14:20:59","新北市雙溪區三貂里政光路3-1號","121.850961666667","25.063135","6502500","雙溪區"
"253003","6232-TK","2018/03/26 14:49:44","新北市石門區尖子鹿103-1號","121.580976666667","25.2958333333333","6502200","石門區"
"253001","6251-TK","2018/03/26 14:49:39","新北市石門區崁子腳65-1號","121.532088333333","25.2860216666667","6502200","石門區"
"253002","637-UY","2018/03/26 14:49:38","新北市石門區七股12-1號","121.545171666667","25.26889","6502200","石門區"
"253004","8270-PC","2018/03/26 14:49:39","新北市石門區內阿里磅2-1號","121.590671666667","25.2552016666667","6502200","石門區"
"207002","749-BX","2018/03/26 14:49:35","新北市萬里區崁腳里崁腳路73號","121.647556666667","25.1595983333333","6502800","萬里區"
"207001","662-BX","2018/03/26 14:48:48","新北市萬里區雙興里豐稟路22-2號","121.642261666667","25.1821783333333","6502800","萬里區"
"236064","105-UM","2018/03/26 14:49:38","新北市土城區明德路一段178號","121.462453333333","24.9781233333333","6501300","土城區"
"236040","107-UM","2018/03/26 14:49:38","新北市土城區裕民路114巷17號","121.450505","24.9858833333333","6501300","土城區"
"236074","166-UM","2018/03/26 14:49:31","新北市土城區中央路四段125巷9弄3號","121.417071666667","24.9575733333333","6501300","土城區"
"236028","253-BX","2018/03/26 14:49:38","新北市土城區忠義路26巷10號","121.439813333333","24.9698833333333","6501300","土城區"
"236024","269-VK","2018/03/26 14:49:35","新北市土城區慶安街62號","121.440896666667","24.9730683333333","6501300","土城區"
"236012","270-VK","2018/03/26 14:49:27","新北市土城區金城路二段354巷10號","121.460921666667","24.9844983333333","6501300","土城區"
"236032","271-VK","2018/03/26 14:49:36","新北市土城區明德路一段168號","121.462795","24.9783666666667","6501300","土城區"
"236016","401-BY","2018/03/26 14:49:28","新北市土城區延安街15號","121.467463333333","24.98572","6501300","土城區"
"236056","912-UM","2018/03/26 14:49:36","新北市土城區中央路三段93號","121.437405","24.96757","6501300","土城區"
"236044","913-UM","2018/03/26 14:49:28","新北市土城區青雲路35號","121.460036666667","24.9885816666667","6501300","土城區"
"236060","915-UM","2018/03/26 14:49:28","新北市土城區延壽路13巷5號","121.470795","24.9903133333333","6501300","土城區"
"236052","AAC-216","2018/03/26 14:49:36","新北市土城區裕民路177號","121.453313333333","24.9848216666667","6501300","土城區"
"238001","283-BY","2018/03/26 14:49:41","新北市樹林區育德街78號","121.387478333333","24.9683533333333","6500700","樹林區"
"238013","172-UY","2018/03/26 14:49:29","新北市樹林區育德街78號","121.387518333333","24.9684066666667","6500700","樹林區"
"220027","145-BY","2018/03/26 14:49:28","新北市板橋區大智街93號","121.452973333333","25.01586","6500100","板橋區"
"220105","KEA-2550","2018/03/26 14:49:42","新北市板橋區文化路二段650巷17號","121.477993333333","25.0350733333333","6500100","板橋區"
"220030","610-BX","2018/03/26 14:49:34","新北市板橋區大觀路三段175號","121.431976666667","24.9937616666667","6500100","板橋區"
"220050","245-BX","2018/03/26 14:49:34","新北市板橋區縣民大道三段93巷28號","121.474816666667","25.0224383333333","6500100","板橋區"
"220019","283-VK","2018/03/26 14:49:37","新北市板橋區五權街30巷12弄23號","121.46378","24.99436","6500100","板橋區"
"220043","285-UM","2018/03/26 14:49:33","新北市板橋區長江路一段112號","121.459815","25.02963","6500100","板橋區"
"220001","285-VK","2018/03/26 14:49:36","新北市板橋區民享街89號","121.476976666667","25.0158866666667","6500100","板橋區"
"220031","286-VK","2018/03/26 14:49:33","新北市板橋區僑中二街8巷31號","121.445665","25.011325","6500100","板橋區"
"220029","287-VK","2018/03/26 14:49:37","新北市板橋區僑中一街2號","121.449413333333","25.011195","6500100","板橋區"
"220039","288-VK","2018/03/26 14:49:23","新北市板橋區龍泉街54巷7弄2號","121.45681","25.0265983333333","6500100","板橋區"
"220009","293-UM","2018/03/26 14:49:43","新北市板橋區觀光街3巷9-1號","121.47147","25.0156","6500100","板橋區"
"220010","295-UM","2018/03/26 14:49:45","新北市板橋區三民路二段40號","121.479268333333","25.0175883333333","6500100","板橋區"
"220032","296-UM","2018/03/26 14:49:37","新北市樹林區博愛街209號","121.424061666667","24.9873666666667","6500100","板橋區"
"220023","303-R5","2018/03/26 14:49:25","新北市板橋區中正路225號","121.4559","25.0176933333333","6500100","板橋區"
"220041","307-R5","2018/03/26 14:49:19","新北市板橋區四維路259巷4號","121.462961666667","25.0280416666667","6500100","板橋區"
"220047","317-R6","2018/03/26 14:49:33","新北市板橋區新海路404號","121.458563333333","25.0269083333333","6500100","板橋區"
"220028","461-BY","2018/03/26 14:49:27","新北市板橋區大觀路二段153巷39弄1號","121.446966666667","25.0005266666667","6500100","板橋區"
"220012","486-VK","2018/03/26 14:49:39","新北市板橋區館前東路112號","121.463408333333","25.007615","6500100","板橋區"
"220037","491-VK","2018/03/26 14:49:29","新北市板橋區文化路二段402號","121.473635","25.0313316666667","6500100","板橋區"
"220035","560-BX","2018/03/26 14:49:31","新北市板橋區新生街29巷9號","121.456465","25.0216133333333","6500100","板橋區"
"220052","561-BX","2018/03/26 14:49:32","新北市板橋區陽明街29巷14號","121.464635","25.0221116666667","6500100","板橋區"
"220003","568-UM","2018/03/26 14:49:36","新北市板橋區仁愛路49巷1號","121.459866666667","24.999515","6500100","板橋區"
"220011","609-BX","2018/03/26 14:49:41","新北市板橋區三民路一段31巷11號","121.479738333333","25.02322","6500100","板橋區"
"220040","637-BX","2018/03/26 14:49:40","新北市板橋區懷德街127巷14弄1號","121.479328333333","25.0310783333333","6500100","板橋區"
"220005","686-BX","2018/03/26 14:49:33","新北市板橋區廣和街77號","121.46269","24.9923616666667","6500100","板橋區"
"220025","687-BX","2018/03/26 14:49:35","新北市板橋區僑中三街39號","121.44509","25.0048616666667","6500100","板橋區"
"220042","689-BX","2018/03/26 14:49:27","新北市板橋區長江路一段379號","121.461916666667","25.030755","6500100","板橋區"
"220002","741-BX","2018/03/26 14:49:28","新北市板橋區忠孝路忠義巷17弄1號","121.466101666667","25.0038033333333","6500100","板橋區"
"220051","KEA-2699","2018/03/26 14:49:37","新北市板橋區松柏街31號","121.475153333333","25.030285","6500100","板橋區"
"220014","829-TW","2018/03/26 14:49:40","新北市板橋區長安街255巷2號","121.472928333333","25.010355","6500100","板橋區"
"220016","830-TW","2018/03/26 14:49:27","新北市板橋區光復街150號","121.48467","25.01945","6500100","板橋區"
"220045","831-TW","2018/03/26 14:49:26","新北市板橋區民生路二段234巷77號","121.47038","25.0225733333333","6500100","板橋區"
"220038","833-TW","2018/03/26 14:49:36","新北市板橋區龍泉街116號","121.457001666667","25.0243533333333","6500100","板橋區"
"220022","895-R6","2018/03/26 14:49:38","新北市板橋區縣民大道一段193號","121.458813333333","25.00819","6500100","板橋區"
"220021","985-R7","2018/03/26 14:49:40","新北市板橋區大仁街63號","121.454208333333","25.01635","6500100","板橋區"
"220046","AAC-210","2018/03/26 14:49:33","新北市板橋區文化路一段285巷1弄4號","121.464178333333","25.0187616666667","6500100","板橋區"
"220018","AAC-253","2018/03/26 14:49:28","新北市板橋區民族路275號","121.47092","25.00678","6500100","板橋區"
