"lineid","car","time","location","longitude","latitude","cityid","cityname"
"234005","207-UY","2018/03/26 14:59:33","新北市中和區光環路二段27號","121.487715","25.013345","6500400","永和區"
"234048","863-TW","2018/03/26 14:59:31","新北市三重區疏洪西路246號","121.474121666667","25.0604933333333","6500400","永和區"
"234025","9371-KE","2018/03/26 14:59:24","新北市永和區水源街21巷14弄4號","121.511345","25.00381","6500400","永和區"
"248013","025-BX","2018/03/26 14:59:16","新北市五股區成泰路三段79號","121.44367","25.0899366666667","6501500","五股區"
"248015","026-BX","2018/03/26 14:59:18","新北市五股區凌雲路一段158巷44號","121.447048333333","25.103875","6501500","五股區"
"248007","095-VK","2018/03/26 14:59:32","新北市五股區中興路一段1巷12弄2號","121.469193333333","25.071425","6501500","五股區"
"248019","225-UY","2018/03/26 14:59:20","新北市五股區中直路13-1號","121.424218333333","25.1120183333333","6501500","五股區"
"248011","247-BX","2018/03/26 14:59:16","新北市五股區六合街103號","121.42996","25.08994","6501500","五股區"
"248003","677-BX","2018/03/26 14:59:22","新北市五股區成泰路一段32巷62號","121.435095","25.0670666666667","6501500","五股區"
"244001","248-BX","2018/03/26 14:31:47","新北市林口區林口路76號","121.38971","25.08064","6501700","林口區"
"243004","AAD-798","2018/03/26 14:59:22","新北市泰山區明志路一段117巷26號","121.434316666667","25.0636333333333","6501600","泰山區"
"243003","297-R6","2018/03/26 14:59:32","新北市泰山區德安街19-1號","121.418725","25.0314533333333","6501600","泰山區"
"243007","380-SR","2018/03/26 14:59:17","新北市泰山區明志路一段318號","121.431371666667","25.05935","6501600","泰山區"
"243006","421-VK","2018/03/26 14:59:24","新北市泰山區泰林路二段418號","121.42711","25.0643066666667","6501600","泰山區"
"243002","KEA-2215","2018/03/26 14:59:25","新北市泰山區明志路二段209號","121.42756","25.048795","6501600","泰山區"
"243001","KEA-2216","2018/03/26 14:59:31","新北市泰山區泰林路二段109-1號","121.43439","25.0592316666667","6501600","泰山區"
"243005","646-TV","2018/03/26 14:59:11","新北市泰山區新民路26號","121.426738333333","25.0446533333333","6501600","泰山區"
"243008","680-BX","2018/03/26 14:59:24","新北市泰山區明志路三段391號","121.421468333333","25.0343866666667","6501600","泰山區"
"231002","002-UM","2018/03/26 14:59:19","新北市新店區建國路257號","121.537198333333","24.9829983333333","6500600","新店區"
"231025","0293-UT","2018/03/26 14:59:22","新北市新店區大同街25號","121.538733333333","24.9807133333333","6500600","新店區"
"231028","046-UY","2018/03/26 14:59:15","新北市新店區安豐路46號","121.500016666667","24.9549533333333","6500600","新店區"
"231030","047-UY","2018/03/26 14:59:31","新北市新店區安民街341-1號","121.516791666667","24.974855","6500600","新店區"
"231029","106-UY","2018/03/26 14:59:24","新北市新店區錦秀路30號","121.479215","24.9440416666667","6500600","新店區"
"231018","107-UY","2018/03/26 14:59:14","新北市新店區中央六街7號","121.530203333333","24.97458","6500600","新店區"
"231011","108-UY","2018/03/26 14:59:35","新北市新店區中興路三段205巷8弄1號","121.543145","24.9816266666667","6500600","新店區"
"231035","110-UY","2018/03/26 14:59:25","新北市新店區安和路三段95號","121.517815","24.984245","6500600","新店區"
"231019","187-VK","2018/03/26 14:59:22","新北市新店區永福路54號","121.557956666667","24.9283083333333","6500600","新店區"
"231014","KEA-2219","2018/03/26 14:59:14","新北市新店區銀河路86-1號","121.580825","24.958965","6500600","新店區"
"231026","256-BX","2018/03/26 14:59:22","新北市新店區博愛街15號","121.54113","24.9733966666667","6500600","新店區"
"231034","268-BY","2018/03/26 14:59:20","新北市新店區玫瑰路4-1號","121.493543333333","24.9513883333333","6500600","新店區"
"231023","AAD-862","2018/03/26 14:59:23","新北市新店區檳榔路109號","121.544503333333","24.9618166666667","6500600","新店區"
"231027","3712-VJ","2018/03/26 14:59:22","新北市新店區薏仁坑路自強巷1號","121.497438333333","24.9577016666667","6500600","新店區"
"231024","4716-K9","2018/03/26 14:59:19","新北市新店區力行路72號","121.538721666667","24.9661866666667","6500600","新店區"
"231006","617-UM","2018/03/26 14:59:21","新北市新店區北宜路一段28號","121.538193333333","24.957005","6500600","新店區"
"231001","619-UM","2018/03/26 14:59:31","新北市新店區中正路278號","121.538775","24.97364","6500600","新店區"
"231003","641-BX","2018/03/26 14:59:12","新北市新店區中興路二段239號","121.547305","24.9753966666667","6500600","新店區"
"231039","718-UY","2018/03/26 14:59:19","新北市新店區寶安街36號","121.542091666667","24.982455","6500600","新店區"
"231036","719-UY","2018/03/26 14:59:17","新北市新店區安祥路102巷32號","121.484141666667","24.963975","6500600","新店區"
"231031","720-UM","2018/03/26 14:59:19","新北市新店區安泰路60巷124號","121.484098333333","24.9445533333333","6500600","新店區"
"231005","897-TW","2018/03/26 14:59:15","新北市新店區復興路51-8號","121.536608333333","24.9870983333333","6500600","新店區"
"231004","899-TW","2018/03/26 14:59:15","新北市新店區民族路11號","121.541608333333","24.97882","6500600","新店區"
"231037","AKT-0513","2018/03/26 14:59:18","新北市新店區安興路56號","121.516525","24.9750083333333","6500600","新店區"
"235030","003-UY","2018/03/26 14:59:31","新北市中和區中山路二段14號","121.504945","25.0055683333333","6500300","中和區"
"235020","096-UM","2018/03/26 14:59:26","新北市中和區中山路三段170巷6弄1號","121.472631666667","25.0072083333333","6500300","中和區"
"235003","097-UM","2018/03/26 14:59:23","新北市中和區宜安路18巷6號","121.513503333333","24.9961933333333","6500300","中和區"
"235029","098-UM","2018/03/26 14:59:24","新北市中和區永和路39巷20號","121.497175","25.005385","6500300","中和區"
"235022","151-BY","2018/03/26 14:59:30","新北市中和區員山路150巷2弄57號","121.481866666667","24.997405","6500300","中和區"
"235007","352-BY","2018/03/26 14:59:29","新北市中和區興南路二段159巷1-1號","121.5051","24.98344","6500300","中和區"
"235032","377-QA","2018/03/26 14:59:16","新北市中和區勝利路35巷1弄35號","121.5002","25.008015","6500300","中和區"
"235035","269-TV","2018/03/26 14:59:28","新北市中和區中正路778號","121.485111666667","25.0005283333333","6500300","中和區"
"235014","4979-A6","2018/03/26 14:59:18","新北市中和區景平路155號","121.513381666667","24.9919466666667","6500300","中和區"
"235033","4980-A6","2018/03/26 14:58:55","新北市中和區景平路634-2號","121.500818333333","24.9983333333333","6500300","中和區"
"235034","558-UM","2018/03/26 14:59:20","新北市中和區圓通路107號","121.499561666667","24.9964666666667","6500300","中和區"
"235018","640-BX","2018/03/26 14:59:18","新北市中和區莒光路108號","121.472385","25.002115","6500300","中和區"
"235010","733-UM","2018/03/26 14:59:18","新北市中和區興南路一段93巷58弄7號","121.510496666667","24.9858483333333","6500300","中和區"
"235012","896-TW","2018/03/26 14:59:23","新北市中和區忠孝街1巷2-1號","121.509171666667","24.983035","6500300","中和區"
"235017","900-TW","2018/03/26 14:59:26","新北市中和區民德路204號","121.46825","24.9984783333333","6500300","中和區"
"235015","157-BY","2018/03/26 14:59:32","新北市中和區景安路247巷7號","121.504368333333","24.9906083333333","6500300","中和區"
"235001","AAC-213","2018/03/26 14:59:26","新北市中和區自立路99巷22弄27號","121.523283333333","24.9939833333333","6500300","中和區"
"235023","AAC-215","2018/03/26 14:59:19","新北市中和區圓通路335巷1弄2號","121.492141666667","24.9903516666667","6500300","中和區"
"220013","072-UY","2018/03/26 14:59:32","新北市板橋區長安街23號","121.466648333333","25.0087466666667","6500100","板橋區"
"220017","AAD-861","2018/03/26 14:59:19","新北市板橋區大明街13號","121.458966666667","25.002515","6500100","板橋區"
"247009","341-TH","2018/03/26 14:59:23","新北市五股區凌雲路二段18巷6-7號","121.443605","25.106815","6501400","蘆洲區"
"253003","6232-TK","2018/03/26 14:59:33","新北市石門區十八王公廟攤販區2號","121.58613","25.2921816666667","6502200","石門區"
"253001","6251-TK","2018/03/26 14:59:27","新北市石門區崁子腳90-3號","121.535585","25.2713866666667","6502200","石門區"
"253002","637-UY","2018/03/26 14:59:18","新北市石門區楓林42號","121.540401666667","25.2816","6502200","石門區"
"253004","8270-PC","2018/03/26 14:59:19","新北市石門區茂林社區257號","121.593341666667","25.2699716666667","6502200","石門區"
"207002","749-BX","2018/03/26 14:59:35","新北市萬里區崁腳里崁腳路73號","121.64756","25.159605","6502800","萬里區"
"207001","662-BX","2018/03/26 14:58:08","新北市萬里區雙興里麗水路3-1號","121.653448333333","25.179815","6502800","萬里區"
"236064","105-UM","2018/03/26 14:59:22","新北市土城區明德路二段247號","121.445196666667","24.9838983333333","6501300","土城區"
"236040","107-UM","2018/03/26 14:59:14","新北市土城區學府路一段215號","121.451488333333","24.9844516666667","6501300","土城區"
"236074","166-UM","2018/03/26 14:59:31","新北市土城區中州路3巷43號","121.413323333333","24.9563733333333","6501300","土城區"
"236028","253-BX","2018/03/26 14:59:18","新北市土城區慶利街16號","121.439788333333","24.97363","6501300","土城區"
"236024","269-VK","2018/03/26 14:59:29","新北市土城區中正路74巷3弄2號","121.444856666667","24.9746483333333","6501300","土城區"
"236012","270-VK","2018/03/26 14:59:27","新北市土城區永豐路29巷4號","121.463303333333","24.9883333333333","6501300","土城區"
"236032","271-VK","2018/03/26 14:59:16","新北市土城區仁愛路2號","121.459733333333","24.981355","6501300","土城區"
"236016","401-BY","2018/03/26 14:59:34","新北市土城區延吉街217巷1弄1號","121.46855","24.985065","6501300","土城區"
"236056","912-UM","2018/03/26 14:58:26","新北市土城區金城路二段52-1號","121.451783333333","24.9793116666667","6501300","土城區"
"236044","913-UM","2018/03/26 14:59:28","新北市土城區青雲路319號","121.458936666667","24.97871","6501300","土城區"
"236060","915-UM","2018/03/26 14:59:28","新北市土城區延和路41巷6弄4號","121.466115","24.9900366666667","6501300","土城區"
"236052","AAC-216","2018/03/26 14:59:17","新北市土城區學成路179號","121.447936666667","24.9885866666667","6501300","土城區"
"238010","601-UM","2018/03/26 14:59:16","新北市樹林區育德街78號","121.387945","24.9685083333333","6500700","樹林區"
"238001","283-BY","2018/03/26 14:59:21","新北市樹林區育德街78號","121.387465","24.968395","6500700","樹林區"
"238007","268-VK","2018/03/26 14:59:29","新北市樹林區育德街78-1號","121.3874","24.968135","6500700","樹林區"
"238013","172-UY","2018/03/26 14:59:29","新北市樹林區育德街78號","121.387521666667","24.9683966666667","6500700","樹林區"
"220105","KEA-2550","2018/03/26 14:59:34","新北市板橋區民治街69號","121.479636666667","25.0328216666667","6500100","板橋區"
"220030","610-BX","2018/03/26 14:59:28","新北市板橋區篤行路二段105號","121.431688333333","24.9912483333333","6500100","板橋區"
"220050","245-BX","2018/03/26 14:59:14","新北市板橋區縣民大道三段31號","121.473826666667","25.02072","6500100","板橋區"
"220019","283-VK","2018/03/26 14:59:17","新北市板橋區廣權路99號","121.464573333333","24.9926533333333","6500100","板橋區"
"220043","285-UM","2018/03/26 14:59:23","新北市板橋區文德路42號","121.462013333333","25.0241316666667","6500100","板橋區"
"220001","285-VK","2018/03/26 14:59:33","新北市板橋區中山路二段90巷16號","121.475531666667","25.0158316666667","6500100","板橋區"
"220031","286-VK","2018/03/26 14:59:33","新北市板橋區僑中二街52號","121.44681","25.01037","6500100","板橋區"
"220029","287-VK","2018/03/26 14:59:17","新北市板橋區僑中一街124巷18弄19號","121.446936666667","25.013665","6500100","板橋區"
"220039","288-VK","2018/03/26 14:59:22","新北市板橋區龍泉街108巷26號","121.455753333333","25.0247166666667","6500100","板橋區"
"220009","293-UM","2018/03/26 14:59:24","新北市板橋區民生路二段15號","121.472405","25.0160166666667","6500100","板橋區"
"220010","295-UM","2018/03/26 14:59:25","新北市板橋區中山路二段416巷54弄11號","121.482353333333","25.0192633333333","6500100","板橋區"
"220023","303-R5","2018/03/26 14:59:25","新北市板橋區金華街10巷48弄57-3號","121.459033333333","25.02017","6500100","板橋區"
"220041","307-R5","2018/03/26 14:59:31","新北市板橋區四維路269巷94弄18號","121.459408333333","25.02703","6500100","板橋區"
"220047","317-R6","2018/03/26 14:59:33","新北市板橋區漢生西路165巷46號","121.461965","25.0236016666667","6500100","板橋區"
"220028","461-BY","2018/03/26 14:59:27","新北市板橋區大觀路二段179巷25號","121.445936666667","24.99971","6500100","板橋區"
"220012","486-VK","2018/03/26 14:59:27","新北市板橋區館前東路65號","121.46441","25.0079816666667","6500100","板橋區"
"220037","491-VK","2018/03/26 14:59:29","新北市板橋區仁化街180號","121.47847","25.033935","6500100","板橋區"
"220035","560-BX","2018/03/26 14:59:31","新北市板橋區新生街21號","121.45608","25.0211933333333","6500100","板橋區"
"220052","561-BX","2018/03/26 14:59:32","新北市板橋區自由路43號","121.46557","25.0232616666667","6500100","板橋區"
"220003","568-UM","2018/03/26 14:59:16","新北市板橋區國慶路213巷13號","121.462915","24.9971566666667","6500100","板橋區"
"220011","609-BX","2018/03/26 14:59:30","新北市板橋區萬安街53巷37號","121.482628333333","25.0235466666667","6500100","板橋區"
"220040","637-BX","2018/03/26 14:59:33","新北市板橋區懷德街174巷18弄1號","121.478805","25.0297333333333","6500100","板橋區"
"220005","686-BX","2018/03/26 14:59:33","新北市板橋區廣權路9號","121.460636666667","24.991365","6500100","板橋區"
"220025","687-BX","2018/03/26 14:59:33","新北市板橋區僑中一街128號","121.445676666667","25.01176","6500100","板橋區"
"220042","689-BX","2018/03/26 14:59:27","新北市板橋區長江路二段221號","121.468156666667","25.0325483333333","6500100","板橋區"
"220002","741-BX","2018/03/26 14:59:27","新北市板橋區忠孝路201巷93號","121.464611666667","25.004855","6500100","板橋區"
"220051","KEA-2699","2018/03/26 14:59:17","新北市板橋區仁化街56號","121.475651666667","25.031525","6500100","板橋區"
"220014","829-TW","2018/03/26 14:59:20","新北市板橋區漢生東路193巷69弄2號","121.472478333333","25.0120066666667","6500100","板橋區"
"220016","830-TW","2018/03/26 14:59:27","新北市板橋區中山路二段359號","121.479638333333","25.0190333333333","6500100","板橋區"
"220045","831-TW","2018/03/26 14:59:33","新北市板橋區莒光路15巷5-1號","121.469885","25.0252233333333","6500100","板橋區"
"220038","833-TW","2018/03/26 14:59:16","新北市板橋區龍泉街108巷33號","121.456755","25.0240166666667","6500100","板橋區"
"220022","895-R6","2018/03/26 14:59:18","新北市板橋區縣民大道一段295號","121.460926666667","25.01051","6500100","板橋區"
"220021","985-R7","2018/03/26 14:59:21","新北市板橋區南雅西路二段65號","121.452808333333","25.009805","6500100","板橋區"
"220046","AAC-210","2018/03/26 14:59:33","新北市板橋區文化路一段221巷10號","121.463161666667","25.0177733333333","6500100","板橋區"
"220018","AAC-253","2018/03/26 14:59:28","新北市板橋區民族路83號","121.4657","25.0085566666667","6500100","板橋區"
