"lineid","car","time","location","longitude","latitude","cityid","cityname"
"234005","207-UY","2018/03/26 15:17:33","新北市八里區商港路88-1號","121.393023333333","25.1497983333333","6500400","永和區"
"234048","863-TW","2018/03/26 15:17:31","新北市林口區太平里180號","121.366498333333","25.1342016666667","6500400","永和區"
"248003","677-BX","2018/03/26 15:17:24","新北市五股區成泰路一段239-9號","121.436793333333","25.0807066666667","6501500","五股區"
"244001","248-BX","2018/03/26 15:17:24","新北市林口區竹林路320巷2號","121.390595","25.0822483333333","6501700","林口區"
"243006","421-VK","2018/03/26 15:17:18","新北市泰山區泰林路三段745巷145號","121.40556","25.067715","6501600","泰山區"
"243001","KEA-2216","2018/03/26 15:17:30","新北市泰山區泰林路二段542巷1弄27號","121.42267","25.0640366666667","6501600","泰山區"
"243008","680-BX","2018/03/26 15:17:24","新北市泰山區明志路三段313號","121.42251","25.0360233333333","6501600","泰山區"
"231002","002-UM","2018/03/26 15:17:19","新北市新店區中正路700巷3號","121.533801666667","24.9913566666667","6500600","新店區"
"231025","0293-UT","2018/03/26 15:17:22","新北市新店區中正路504號","121.533703333333","24.982685","6500600","新店區"
"231028","046-UY","2018/03/26 15:17:30","新北市新店區僑信路132巷38號","121.499795","24.9454116666667","6500600","新店區"
"231030","047-UY","2018/03/26 15:17:31","新北市新店區安民街341-1號","121.516815","24.9748583333333","6500600","新店區"
"231029","106-UY","2018/03/26 15:17:24","新北市新店區安康路三段738號","121.473813333333","24.942045","6500600","新店區"
"231018","107-UY","2018/03/26 15:17:14","新北市新店區中央七街49號","121.528535","24.97597","6500600","新店區"
"231011","108-UY","2018/03/26 15:17:15","新北市新店區中興路三段327號","121.541923333333","24.9863783333333","6500600","新店區"
"231035","110-UY","2018/03/26 15:17:25","新北市新店區永平街27號","121.516835","24.983485","6500600","新店區"
"231019","187-VK","2018/03/26 15:17:22","新北市新店區金興路1號","121.548676666667","24.9296333333333","6500600","新店區"
"231026","256-BX","2018/03/26 15:17:17","新北市新店區中正路265巷21號","121.537785","24.9731166666667","6500600","新店區"
"231034","268-BY","2018/03/26 15:17:20","新北市新店區玫瑰路16號","121.494626666667","24.9504716666667","6500600","新店區"
"231023","AAD-862","2018/03/26 15:17:23","新北市新店區北新路一段64巷39弄1號","121.542386666667","24.9659133333333","6500600","新店區"
"231024","4716-K9","2018/03/26 15:17:19","新北市新店區北新路一段297巷15號","121.540906666667","24.967695","6500600","新店區"
"231006","617-UM","2018/03/26 15:17:22","新北市新店區新坡一街101號","121.548028333333","24.9631516666667","6500600","新店區"
"231001","619-UM","2018/03/26 15:17:31","新北市新店區光明街231號","121.540206666667","24.96444","6500600","新店區"
"231003","641-BX","2018/03/26 15:17:31","新北市新店區寶高路120巷1-1號","121.554636666667","24.9758983333333","6500600","新店區"
"231039","718-UY","2018/03/26 15:17:19","新北市新店區寶元路一段65號","121.5422","24.98575","6500600","新店區"
"231036","719-UY","2018/03/26 15:17:17","新北市新店區安祥路104巷11弄13號","121.480845","24.96338","6500600","新店區"
"231031","720-UM","2018/03/26 15:17:19","新北市新店區和成街15巷2號","121.487733333333","24.9472316666667","6500600","新店區"
"231005","897-TW","2018/03/26 15:17:35","新北市新店區北新路三段4號","121.542358333333","24.9790466666667","6500600","新店區"
"231004","899-TW","2018/03/26 15:17:15","新北市新店區建國路29號","121.540218333333","24.97411","6500600","新店區"
"231037","AKT-0513","2018/03/26 15:17:18","新北市新店區安興路91巷21號","121.514535","24.9745483333333","6500600","新店區"
"241013","270-UM","2018/03/26 15:17:21","新北市三重區重新路四段121號","121.484728333333","25.0525466666667","6500200","三重區"
"241020","478-VK","2018/03/26 15:17:14","新北市三重區重新路四段121號","121.48482","25.05209","6500200","三重區"
"235030","003-UY","2018/03/26 15:17:31","新北市中和區保平路326巷1號","121.507158333333","25.0042233333333","6500300","中和區"
"235014","4979-A6","2018/03/26 15:17:24","新北市中和區景平路466號","121.505665","24.9937733333333","6500300","中和區"
"235033","4980-A6","2018/03/26 15:17:20","新北市中和區圓通路162-3號","121.497521666667","24.995245","6500300","中和區"
"235012","896-TW","2018/03/26 15:17:23","新北市中和區興南路一段20號","121.51126","24.99127","6500300","中和區"
"235023","AAC-215","2018/03/26 15:17:19","新北市中和區圓通路435巷2-10號","121.487473333333","24.9866633333333","6500300","中和區"
"247009","341-TH","2018/03/26 15:17:23","新北市八里區下罟子30-35號","121.367921666667","25.13504","6501400","蘆洲區"
"253001","6251-TK","2018/03/26 15:16:59","新北市石門區崁子腳31-2號","121.537373333333","25.2850233333333","6502200","石門區"
"253002","637-UY","2018/03/26 15:17:18","新北市石門區阿里磅1號","121.591166666667","25.2909716666667","6502200","石門區"
"253004","8270-PC","2018/03/26 15:17:19","新北市石門區小坑26-1號","121.595603333333","25.2757183333333","6502200","石門區"
"207002","749-BX","2018/03/26 15:17:15","新北市萬里區崁腳里內中福路38號","121.659041666667","25.1641833333333","6502800","萬里區"
"207001","662-BX","2018/03/26 15:17:28","新北市萬里區大鵬里萬里加投14號","121.651595","25.20876","6502800","萬里區"
"236064","105-UM","2018/03/26 15:17:18","新北市土城區學成路74-2號","121.451368333333","24.988285","6501300","土城區"
"236040","107-UM","2018/03/26 15:17:26","新北市土城區裕民路259巷7號","121.455393333333","24.983175","6501300","土城區"
"236074","166-UM","2018/03/26 15:17:31","新北市土城區溪頭路32號","121.412768333333","24.95559","6501300","土城區"
"236028","253-BX","2018/03/26 15:17:18","新北市土城區中央路一段290號","121.443248333333","24.9824233333333","6501300","土城區"
"236024","269-VK","2018/03/26 15:17:29","新北市土城區中央路二段61巷26號","121.443315","24.9786833333333","6501300","土城區"
"236012","270-VK","2018/03/26 15:17:27","新北市土城區學府路一段44號","121.457853333333","24.9884466666667","6501300","土城區"
"236032","271-VK","2018/03/26 15:17:16","新北市土城區國際路139巷51號","121.46836","24.977575","6501300","土城區"
"236016","401-BY","2018/03/26 15:17:28","新北市土城區峰廷街3號","121.469061666667","24.9873366666667","6501300","土城區"
"236056","912-UM","2018/03/26 15:17:26","新北市土城區千歲路13號","121.44109","24.9697216666667","6501300","土城區"
"236044","913-UM","2018/03/26 15:17:28","新北市土城區金城路二段394號","121.463878333333","24.9854833333333","6501300","土城區"
"236060","915-UM","2018/03/26 15:17:33","新北市土城區金城路三段149巷4弄10號","121.468746666667","24.9891116666667","6501300","土城區"
"236052","AAC-216","2018/03/26 15:17:16","新北市土城區學府路一段218號","121.452151666667","24.9853133333333","6501300","土城區"
"238010","601-UM","2018/03/26 15:17:16","新北市樹林區保安街一段227號","121.420353333333","24.9964583333333","6500700","樹林區"
"238006","599-UM","2018/03/26 15:17:25","新北市樹林區八德街82號","121.420125","24.981225","6500700","樹林區"
"238005","571-TV","2018/03/26 15:17:27","新北市樹林區樹新路211-1號","121.430741666667","25.000105","6500700","樹林區"
"238011","5061-A6","2018/03/26 15:17:21","新北市樹林區鎮前街239號","121.421008333333","24.98651","6500700","樹林區"
"238008","KEA-2217","2018/03/26 15:17:16","新北市樹林區西圳街165巷20弄26號","121.395525","24.9601616666667","6500700","樹林區"
"238009","KEA-2213","2018/03/26 15:17:29","新北市樹林區仁愛街70號","121.424263333333","24.9830683333333","6500700","樹林區"
"238012","303-VK","2018/03/26 15:17:21","新北市樹林區中山路一段143-1號","121.422343333333","24.9894766666667","6500700","樹林區"
"238001","283-BY","2018/03/26 15:17:21","新北市樹林區大安路251號","121.419361666667","24.9942366666667","6500700","樹林區"
"238007","268-VK","2018/03/26 15:17:29","新北市樹林區大安路261號","121.419173333333","24.9939283333333","6500700","樹林區"
"238013","172-UY","2018/03/26 15:17:29","新北市樹林區味王街40號","121.404533333333","24.9738416666667","6500700","樹林區"
"238003","169-UY","2018/03/26 15:17:29","新北市樹林區八德街1號","121.41765","24.98494","6500700","樹林區"
"220050","245-BX","2018/03/26 15:17:14","新北市板橋區莊敬路75巷35號","121.473931666667","25.026125","6500100","板橋區"
"220019","283-VK","2018/03/26 15:17:17","新北市新莊區幸福路914號","121.442305","25.04877","6500100","板橋區"
"220031","286-VK","2018/03/26 15:17:33","新北市板橋區僑中二街102巷38號","121.444691666667","25.0084983333333","6500100","板橋區"
"220029","287-VK","2018/03/26 15:17:17","新北市板橋區大觀路一段28巷90號","121.450071666667","25.0110533333333","6500100","板橋區"
"220009","293-UM","2018/03/26 15:17:23","新北市板橋區四川路一段286巷4號","121.458493333333","25.00093","6500100","板橋區"
"220041","307-R5","2018/03/26 15:17:31","新北市板橋區民權路217號","121.457626666667","25.015105","6500100","板橋區"
"220037","491-VK","2018/03/26 15:17:33","新北市板橋區懷德街78巷1號","121.478306666667","25.0315166666667","6500100","板橋區"
"220052","561-BX","2018/03/26 15:17:32","新北市板橋區新海路332號","121.46048","25.0242533333333","6500100","板橋區"
"220011","609-BX","2018/03/26 15:17:30","新北市板橋區中山路二段318巷4號","121.480261666667","25.01921","6500100","板橋區"
"220042","689-BX","2018/03/26 15:17:27","新北市板橋區長江路二段210號","121.467741666667","25.0321833333333","6500100","板橋區"
"220051","KEA-2699","2018/03/26 15:17:17","新北市板橋區文聖街76號","121.477216666667","25.03027","6500100","板橋區"
"220038","833-TW","2018/03/26 15:17:16","新北市板橋區四維路253號","121.463485","25.0278033333333","6500100","板橋區"
"220018","AAC-253","2018/03/26 15:17:28","新北市板橋區德興街13號","121.453431666667","24.9943833333333","6500100","板橋區"
