"lineid","car","time","location","longitude","latitude","cityid","cityname"
"234005","207-UY","2018/03/26 15:29:33","新北市林口區太平里180號","121.368315","25.1345383333333","6500400","永和區"
"234048","863-TW","2018/03/26 15:29:31","新北市八里區下罟子5-6號","121.387603333333","25.14232","6500400","永和區"
"244001","248-BX","2018/03/26 15:29:25","新北市林口區粉寮69號","121.405123333333","25.0908183333333","6501700","林口區"
"243008","680-BX","2018/03/26 15:29:27","新北市泰山區新生路7號","121.426685","25.0457266666667","6501600","泰山區"
"231002","002-UM","2018/03/26 15:29:19","新北市新店區環河路116號","121.536865","24.966985","6500600","新店區"
"231025","0293-UT","2018/03/26 15:29:22","新北市新店區環河路103-6號","121.53122","24.9708966666667","6500600","新店區"
"231028","046-UY","2018/03/26 15:29:35","新北市新店區僑信路52號","121.49929","24.95019","6500600","新店區"
"231030","047-UY","2018/03/26 15:29:31","新北市新店區新和街72號","121.520166666667","24.9856616666667","6500600","新店區"
"231029","106-UY","2018/03/26 15:29:24","新北市新店區安康路三段527號","121.4821","24.947785","6500600","新店區"
"231018","107-UY","2018/03/26 15:29:14","新北市新店區中央五街34號","121.528696666667","24.974845","6500600","新店區"
"231011","108-UY","2018/03/26 15:29:35","新北市新店區寶元路一段109號","121.54571","24.98318","6500600","新店區"
"231019","187-VK","2018/03/26 15:29:22","新北市新店區新烏路一段85巷6-6號","121.549741666667","24.9426983333333","6500600","新店區"
"231026","256-BX","2018/03/26 15:29:17","新北市新店區三民路117巷7弄1號","121.534131666667","24.9710583333333","6500600","新店區"
"231034","268-BY","2018/03/26 15:29:20","新北市新店區富貴街16巷2號","121.494033333333","24.9487616666667","6500600","新店區"
"231023","AAD-862","2018/03/26 15:29:23","新北市新店區北新路一段96巷23號","121.542775","24.96883","6500600","新店區"
"231013","513-UM","2018/03/26 15:29:34","新北市新店區永業路81巷5弄2號","121.530235","24.94893","6500600","新店區"
"231006","617-UM","2018/03/26 15:29:21","新北市新店區安和路一段41號","121.51722","24.9654116666667","6500600","新店區"
"231003","641-BX","2018/03/26 15:29:31","新北市新店區寶高路118號","121.55451","24.9760033333333","6500600","新店區"
"231039","718-UY","2018/03/26 15:29:29","新北市新店區寶元路一段89號","121.543263333333","24.9850883333333","6500600","新店區"
"231036","719-UY","2018/03/26 15:29:17","新北市新店區安祥路69巷100號","121.48305","24.9589616666667","6500600","新店區"
"231031","720-UM","2018/03/26 15:29:19","新北市新店區雙城路36號","121.491973333333","24.95022","6500600","新店區"
"231005","897-TW","2018/03/26 15:29:17","新北市新店區建國路293巷2號","121.53692","24.9864283333333","6500600","新店區"
"231004","899-TW","2018/03/26 15:29:15","新北市新店區民族路108號","121.538156666667","24.977425","6500600","新店區"
"231037","AKT-0513","2018/03/26 15:29:18","新北市新店區安民街341-1號","121.516798333333","24.9749433333333","6500600","新店區"
"241028","022-UY","2018/03/26 15:29:12","新北市三重區重新路四段121號","121.484686666667","25.0525333333333","6500200","三重區"
"241031","061-VK","2018/03/26 15:29:16","新北市三重區重陽路一段59號","121.486716666667","25.0585633333333","6500200","三重區"
"241013","270-UM","2018/03/26 15:29:21","新北市三重區名源街29巷2號","121.48011","25.0606316666667","6500200","三重區"
"241020","478-VK","2018/03/26 15:29:34","新北市三重區忠孝路二段61號","121.485073333333","25.0705783333333","6500200","三重區"
"241029","942-UM","2018/03/26 15:29:18","新北市三重區重新路四段121號","121.48493","25.0519866666667","6500200","三重區"
"235014","4979-A6","2018/03/26 15:29:18","新北市中和區景平路566號","121.501865","24.9953483333333","6500300","中和區"
"235033","4980-A6","2018/03/26 15:29:20","新北市中和區連城路347巷16弄1號","121.48839","24.9947833333333","6500300","中和區"
"235023","AAC-215","2018/03/26 15:29:19","新北市中和區員山路30-2號","121.48319","24.9879416666667","6500300","中和區"
"247009","341-TH","2018/03/26 15:28:23","新北市八里區荖阡坑路32號","121.403623333333","25.1270616666667","6501400","蘆洲區"
"227001","400-TW","2018/03/26 15:29:23","新北市雙溪區三貂里政光路3-1號","121.850831666667","25.0630066666667","6502500","雙溪區"
"253001","6251-TK","2018/03/26 15:29:19","新北市石門區中央路37-2號","121.568558333333","25.2950483333333","6502200","石門區"
"207001","662-BX","2018/03/26 15:29:28","新北市萬里區龜吼里玉田路4-2號","121.680503333333","25.18419","6502800","萬里區"
"236064","105-UM","2018/03/26 15:29:18","新北市土城區金城路二段61巷7號","121.450163333333","24.9796583333333","6501300","土城區"
"236040","107-UM","2018/03/26 15:29:34","新北市土城區學府路一段98巷29號","121.454875","24.98842","6501300","土城區"
"236074","166-UM","2018/03/26 15:29:31","新北市土城區中央路四段450號","121.410486666667","24.9512466666667","6501300","土城區"
"236028","253-BX","2018/03/26 15:29:18","新北市土城區中央路一段260巷17號","121.44326","24.984465","6501300","土城區"
"236024","269-VK","2018/03/26 15:29:29","新北市土城區明德路二段102巷21號","121.44558","24.9848483333333","6501300","土城區"
"236012","270-VK","2018/03/26 15:29:27","新北市土城區德興街131號","121.454978333333","24.99177","6501300","土城區"
"236032","271-VK","2018/03/26 15:29:16","新北市土城區明德路一段48巷13號","121.464723333333","24.9836533333333","6501300","土城區"
"236016","401-BY","2018/03/26 15:29:28","新北市土城區金城路三段198號","121.468543333333","24.9879116666667","6501300","土城區"
"236056","912-UM","2018/03/26 15:29:26","新北市土城區中央路二段157號","121.442016666667","24.9763833333333","6501300","土城區"
"236044","913-UM","2018/03/26 15:29:29","新北市土城區青雲路250-1號","121.458965","24.9799733333333","6501300","土城區"
"236060","915-UM","2018/03/26 15:29:28","新北市土城區立德路135巷5弄9號","121.464573333333","24.9873633333333","6501300","土城區"
"236052","AAC-216","2018/03/26 15:29:16","新北市土城區延和路123號","121.468536666667","24.99056","6501300","土城區"
"238002","755-BX","2018/03/26 15:29:27","新北市樹林區復興路194號","121.41995","24.9910833333333","6500700","樹林區"
"238010","601-UM","2018/03/26 15:29:23","新北市樹林區中正路815號","121.409325","25.0170616666667","6500700","樹林區"
"238006","599-UM","2018/03/26 15:29:25","新北市樹林區太平路88號","121.41903","24.980145","6500700","樹林區"
"238005","571-TV","2018/03/26 15:29:27","新北市樹林區鎮前街164號","121.424378333333","24.9900516666667","6500700","樹林區"
"238011","5061-A6","2018/03/26 15:29:21","新北市樹林區東豐街18-1號","121.414201666667","24.9757366666667","6500700","樹林區"
"238008","KEA-2217","2018/03/26 15:29:16","新北市樹林區西圳街一段114號","121.399728333333","24.9641633333333","6500700","樹林區"
"238009","KEA-2213","2018/03/26 15:29:27","新北市樹林區仁愛街18號","121.422165","24.9819683333333","6500700","樹林區"
"238012","303-VK","2018/03/26 15:29:30","新北市樹林區中山路一段336號","121.419626666667","24.9861683333333","6500700","樹林區"
"238001","283-BY","2018/03/26 15:29:21","新北市樹林區保安街二段333巷2號","121.41229","25.007605","6500700","樹林區"
"238007","268-VK","2018/03/26 15:29:30","新北市樹林區俊英街116巷29弄18號","121.42802","25.006805","6500700","樹林區"
"238013","172-UY","2018/03/26 15:29:29","新北市樹林區新興街19巷36弄1號","121.402406666667","24.9734066666667","6500700","樹林區"
"238003","169-UY","2018/03/26 15:29:03","新北市樹林區長壽街15-8號","121.422778333333","24.9936666666667","6500700","樹林區"
"220050","245-BX","2018/03/26 15:29:14","新北市板橋區漢生東路83巷1號","121.466391666667","25.0160233333333","6500100","板橋區"
"220019","283-VK","2018/03/26 15:27:57","新北市五股區中直路15號","121.423885","25.1108633333333","6500100","板橋區"
"220031","286-VK","2018/03/26 15:29:13","新北市板橋區僑中二街108巷5號","121.445535","25.0073433333333","6500100","板橋區"
"220052","561-BX","2018/03/26 15:29:31","新北市板橋區漢生東路23巷37號","121.465671666667","25.017935","6500100","板橋區"
"220011","609-BX","2018/03/26 15:29:30","新北市板橋區三民路一段197號","121.4792","25.01899","6500100","板橋區"
"220042","689-BX","2018/03/26 15:29:27","新北市板橋區溪頭街2號","121.457406666667","25.028725","6500100","板橋區"
"220051","KEA-2699","2018/03/26 15:29:27","新北市板橋區文化路一段216號","121.466528333333","25.0202383333333","6500100","板橋區"
"220038","833-TW","2018/03/26 15:29:16","新北市板橋區互助街46號","121.461663333333","25.0270883333333","6500100","板橋區"
"220018","AAC-253","2018/03/26 15:29:32","新北市板橋區四川路二段245巷10-1號","121.450721666667","24.9932183333333","6500100","板橋區"
