"lineid","car","time","location","longitude","latitude","cityid","cityname"
"234005","207-UY","2018/03/26 15:59:33","新北市中和區橋和路328號","121.497893333333","25.008315","6500400","永和區"
"234048","863-TW","2018/03/26 15:59:11","新北市永和區福和路1號","121.526173333333","25.0095216666667","6500400","永和區"
"231030","047-UY","2018/03/26 15:59:31","新北市新店區安和路三段77號","121.517596666667","24.9835433333333","6500600","新店區"
"231018","107-UY","2018/03/26 15:59:34","新北市新店區中正路663巷7弄15號","121.53289","24.9900883333333","6500600","新店區"
"231011","108-UY","2018/03/26 15:59:15","新北市新店區中正路438號","121.534106666667","24.9783583333333","6500600","新店區"
"231019","187-VK","2018/03/26 15:59:22","新北市新店區安康路二段362號","121.501783333333","24.9574516666667","6500600","新店區"
"231014","KEA-2219","2018/03/26 15:59:34","新北市新店區中正路284巷4弄3號","121.53841","24.97488","6500600","新店區"
"231026","256-BX","2018/03/26 15:59:17","新北市新店區中正路506號","121.533863333333","24.9828933333333","6500600","新店區"
"231034","268-BY","2018/03/26 15:59:20","新北市新店區玫瑰路51巷20-1號","121.497215","24.94791","6500600","新店區"
"231046","278-BY","2018/03/26 15:59:31","新北市新店區永業路78號","121.531293333333","24.95196","6500600","新店區"
"231038","4715-K9","2018/03/26 15:59:30","新北市新店區安康路二段350-3號","121.503253333333","24.9577633333333","6500600","新店區"
"231013","513-UM","2018/03/26 15:59:13","新北市新店區薏仁坑路2-4號","121.501756666667","24.95884","6500600","新店區"
"231003","641-BX","2018/03/26 15:58:12","新北市新店區寶興路68巷2號","121.551113333333","24.9708716666667","6500600","新店區"
"231037","AKT-0513","2018/03/26 15:58:58","新北市新店區安康路二段320巷15弄2號","121.503838333333","24.9596733333333","6500600","新店區"
"241011","013-R5","2018/03/26 15:59:28","新北市三重區雙園街1巷8號","121.497168333333","25.0684133333333","6500200","三重區"
"241028","022-UY","2018/03/26 15:59:33","新北市三重區大同南路136號","121.496501666667","25.0581916666667","6500200","三重區"
"241008","059-VK","2018/03/26 15:59:27","新北市三重區重新路四段121號","121.484808333333","25.0519483333333","6500200","三重區"
"241031","061-VK","2018/03/26 15:59:16","新北市三重區重新路四段121號","121.484835","25.0519966666667","6500200","三重區"
"241015","062-VK","2018/03/26 15:59:22","新北市三重區重新路四段121號","121.485088333333","25.05202","6500200","三重區"
"241017","063-VK","2018/03/26 15:59:18","新北市三重區大仁街38號","121.491451666667","25.064245","6500200","三重區"
"241024","065-VK","2018/03/26 15:59:31","新北市三重區力行路一段38巷2號","121.485451666667","25.06681","6500200","三重區"
"241003","091-VK","2018/03/26 15:59:27","新北市三重區自強路五段114號","121.496818333333","25.0836933333333","6500200","三重區"
"241005","262-UM","2018/03/26 15:59:16","新北市三重區溪尾街300-2號","121.487521666667","25.08366","6500200","三重區"
"241016","265-UM","2018/03/26 15:59:24","新北市三重區重新路四段121號","121.485128333333","25.05208","6500200","三重區"
"241022","267-UM","2018/03/26 15:59:25","新北市三重區忠孝路三段40巷50號","121.482956666667","25.0656716666667","6500200","三重區"
"241018","268-UM","2018/03/26 15:59:23","新北市三重區大仁街1號","121.491668333333","25.0635533333333","6500200","三重區"
"241013","270-UM","2018/03/26 15:59:21","新北市三重區三和路三段14號","121.496846666667","25.0701783333333","6500200","三重區"
"241025","271-UM","2018/03/26 15:59:22","新北市三重區三民街206號","121.480955","25.0662283333333","6500200","三重區"
"241007","398-BY","2018/03/26 15:59:19","新北市三重區力行路一段239號","121.48272","25.0706533333333","6500200","三重區"
"241020","478-VK","2018/03/26 15:59:34","新北市三重區車路頭街4巷21號","121.483298333333","25.0700533333333","6500200","三重區"
"241014","543-UM","2018/03/26 15:59:14","新北市三重區重新路四段121號","121.485015","25.0519133333333","6500200","三重區"
"241023","545-UM","2018/03/26 15:59:31","新北市三重區中正北路119號","121.48332","25.066985","6500200","三重區"
"241001","547-UM","2018/03/26 15:59:20","新北市三重區三和路四段156號","121.487946666667","25.07564","6500200","三重區"
"241033","557-UM","2018/03/26 15:59:31","新北市三重區光復路一段1號","121.472143333333","25.0467333333333","6500200","三重區"
"241006","AAD-863","2018/03/26 15:59:18","新北市三重區力行路二段138-1號","121.482488333333","25.075795","6500200","三重區"
"241012","941-UM","2018/03/26 15:59:24","新北市三重區正義北路132號","121.496805","25.06584","6500200","三重區"
"241029","942-UM","2018/03/26 15:59:18","新北市三重區大同南路212巷11號","121.49722","25.0565","6500200","三重區"
"235046","733-UM","2018/03/26 15:43:50","新北市中和區員山路36巷13號","121.484135","24.9908833333333","6500300","中和區"
"235026","800-TS","2018/03/26 15:59:19","新北市中和區永和路206號","121.491941666667","25.00744","6500300","中和區"
"247006","336-TH","2018/03/26 15:57:15","新北市五股區中興路三段163號","121.449188333333","25.0809583333333","6501400","蘆洲區"
"224007","272-VK","2018/03/26 15:59:18","新北市瑞芳區大寮路2-1號","121.785521666667","25.1009183333333","6501200","瑞芳區"
"227008","642-TC","2018/03/26 15:59:30","新北市雙溪區三港里雙澳路38號","121.871771666667","25.050895","6502500","雙溪區"
"227001","400-TW","2018/03/26 15:59:24","新北市雙溪區平林里外平林71號","121.84244","25.0350083333333","6502500","雙溪區"
"251013","179-VK","2018/03/26 15:59:27","新北市淡水區濱海路一段215號","121.440551666667","25.1890033333333","6501000","淡水區"
"251008","181-VK","2018/03/26 15:59:19","新北市淡水區中正路二段31號","121.419143333333","25.1818783333333","6501000","淡水區"
"236064","105-UM","2018/03/26 15:59:18","新北市土城區福安街102巷5弄7號","121.417118333333","24.9645816666667","6501300","土城區"
"236056","912-UM","2018/03/26 15:59:26","新北市土城區中正路1號","121.442198333333","24.97508","6501300","土城區"
"238002","755-BX","2018/03/26 15:59:33","新北市樹林區啟智街80巷6號","121.419146666667","24.9922816666667","6500700","樹林區"
"238010","601-UM","2018/03/26 15:59:17","新北市樹林區龍興街57號","121.403251666667","25.0152883333333","6500700","樹林區"
"238006","599-UM","2018/03/26 15:59:30","新北市樹林區國凱街112號","121.421993333333","24.9797366666667","6500700","樹林區"
"238005","571-TV","2018/03/26 15:59:28","新北市樹林區保安街一段18號","121.427691666667","24.9932116666667","6500700","樹林區"
"238011","5061-A6","2018/03/26 15:59:21","新北市樹林區中山路三段92號","121.393133333333","24.9723","6500700","樹林區"
"238009","KEA-2213","2018/03/26 15:59:27","新北市樹林區太平路150巷39弄7號","121.417176666667","24.9769466666667","6500700","樹林區"
"238012","303-VK","2018/03/26 15:59:20","新北市樹林區保安二街120號","121.422123333333","24.9957","6500700","樹林區"
"238001","283-BY","2018/03/26 15:59:21","新北市樹林區中正路433-2號","121.41487","25.0083366666667","6500700","樹林區"
"238001","282-BY","2018/03/26 15:59:27","新北市樹林區千歲街4號","121.424951666667","24.9955783333333","6500700","樹林區"
"238007","268-VK","2018/03/26 15:59:29","新北市新莊區龍安路254巷18-1號","121.420573333333","25.0183933333333","6500700","樹林區"
"238013","172-UY","2018/03/26 15:59:29","新北市樹林區佳園路一段81號","121.393346666667","24.96975","6500700","樹林區"
"238003","169-UY","2018/03/26 15:59:28","新北市樹林區文化街23號","121.419278333333","24.9874883333333","6500700","樹林區"
