"lineid","car","time","location","longitude","latitude","cityid","cityname"
"234005","207-UY","2018/03/26 16:10:55","新北市永和區福和路1號","121.526545","25.0101","6500400","永和區"
"249005","172-UM","2018/03/26 16:39:41","新北市八里區博物館路29號","121.413613333333","25.162585","6502300","八里區"
"231046","278-BY","2018/03/26 16:39:52","新北市新店區灣潭路78號","121.538145","24.9414533333333","6500600","新店區"
"241011","013-R5","2018/03/26 16:39:55","新北市三重區仁愛街39號","121.496565","25.0716466666667","6500200","三重區"
"241028","022-UY","2018/03/26 16:39:53","新北市三重區重新路三段68號","121.49354","25.0611583333333","6500200","三重區"
"241008","059-VK","2018/03/26 16:39:47","新北市三重區永安北路一段27巷24號","121.47724","25.0755783333333","6500200","三重區"
"241009","060-VK","2018/03/26 16:39:54","新北市三重區三和路四段203巷86號","121.484116666667","25.0800283333333","6500200","三重區"
"241031","061-VK","2018/03/26 16:39:55","新北市三重區重新路四段41巷2弄1號","121.487716666667","25.0576516666667","6500200","三重區"
"241015","062-VK","2018/03/26 16:39:42","新北市三重區文化北路37-2號","121.498925","25.065045","6500200","三重區"
"241017","063-VK","2018/03/26 16:39:38","新北市三重區中正北路25巷16號","121.493566666667","25.062995","6500200","三重區"
"241024","065-VK","2018/03/26 16:39:51","新北市三重區中正北路315巷6弄58號","121.475683333333","25.07234","6500200","三重區"
"241026","066-VK","2018/03/26 16:39:53","新北市三重區福德南路54-1號","121.503098333333","25.061985","6500200","三重區"
"241002","090-VK","2018/03/26 16:39:47","新北市三重區自強路五段99號","121.495595","25.0821716666667","6500200","三重區"
"241003","091-VK","2018/03/26 16:39:47","新北市三重區五華街71巷80號","121.493926666667","25.0836833333333","6500200","三重區"
"241005","262-UM","2018/03/26 16:39:37","新北市三重區仁華街118巷13號","121.486176666667","25.0833983333333","6500200","三重區"
"241016","265-UM","2018/03/26 16:39:44","新北市三重區大智街1-1號","121.494778333333","25.0648516666667","6500200","三重區"
"241022","267-UM","2018/03/26 16:39:39","新北市三重區新北大道一段148號","121.484343333333","25.0617033333333","6500200","三重區"
"241018","268-UM","2018/03/26 16:39:39","新北市三重區正義北路338巷50號","121.493155","25.070305","6500200","三重區"
"241032","269-UM","2018/03/26 16:39:53","新北市三重區中山路40巷1-1號","121.485946666667","25.0613033333333","6500200","三重區"
"241013","270-UM","2018/03/26 16:39:40","新北市三重區三和路三段101巷82號","121.496818333333","25.0731516666667","6500200","三重區"
"241025","271-UM","2018/03/26 16:39:42","新北市三重區中正北路428巷11號","121.474551666667","25.07023","6500200","三重區"
"241007","398-BY","2018/03/26 16:39:39","新北市三重區三和路四段167巷84號","121.485151666667","25.0795566666667","6500200","三重區"
"241004","475-VK","2018/03/26 16:39:37","新北市三重區五福街6號","121.49309","25.0816916666667","6500200","三重區"
"241020","478-VK","2018/03/26 16:39:54","新北市三重區車路頭街59號","121.484066666667","25.0725","6500200","三重區"
"241030","480-VK","2018/03/26 16:39:57","新北市三重區環河南路263號","121.489971666667","25.0494383333333","6500200","三重區"
"241014","543-UM","2018/03/26 16:39:34","新北市三重區龍濱路32號","121.502861666667","25.0680983333333","6500200","三重區"
"241023","545-UM","2018/03/26 16:39:51","新北市三重區忠孝路三段50巷45號","121.482863333333","25.064335","6500200","三重區"
"241001","547-UM","2018/03/26 16:39:41","新北市三重區仁愛街202號","121.493811666667","25.07744","6500200","三重區"
"241033","557-UM","2018/03/26 16:39:50","新北市三重區光復路一段99巷2號","121.472805","25.051","6500200","三重區"
"241006","AAD-863","2018/03/26 16:39:38","新北市三重區車路頭街138-2號","121.483515","25.075475","6500200","三重區"
"241019","887-TS","2018/03/26 16:39:41","新北市三重區重陽路三段128號","121.489096666667","25.0667616666667","6500200","三重區"
"241012","941-UM","2018/03/26 16:39:36","新北市三重區仁興街4巷3號","121.49974","25.0738216666667","6500200","三重區"
"241029","942-UM","2018/03/26 16:39:38","新北市三重區集美街112巷11號","121.48939","25.0541083333333","6500200","三重區"
"235062","800-TS","2018/03/26 16:38:07","新北市中和區員山路36巷16-3號","121.484746666667","24.9915533333333","6500300","中和區"
"247006","336-TH","2018/03/26 16:39:36","新北市五股區中興路三段173號","121.444855","25.0810416666667","6501400","蘆洲區"
"247008","056-VK","2018/03/26 16:39:41","新北市蘆洲區長安街73巷31號","121.462195","25.0786883333333","6501400","蘆洲區"
"224008","285-BY","2018/03/26 16:39:46","新北市瑞芳區中山路266號","121.79896","25.1083383333333","6501200","瑞芳區"
"224009","273-VK","2018/03/26 16:39:49","新北市瑞芳區大寮路356-1號","121.784648333333","25.1032733333333","6501200","瑞芳區"
"224007","272-VK","2018/03/26 16:39:57","新北市瑞芳區中央路47號","121.762003333333","25.102855","6501200","瑞芳區"
"224005","271-BY","2018/03/26 16:39:42","新北市瑞芳區洞頂路85號","121.86204","25.1191433333333","6501200","瑞芳區"
"227008","642-TC","2018/03/26 16:39:50","新北市雙溪區牡丹里中正路73號","121.863898333333","25.0447666666667","6502500","雙溪區"
"227001","400-TW","2018/03/26 16:39:43","新北市雙溪區外柑里外柑腳58號","121.807908333333","25.017885","6502500","雙溪區"
"251013","179-VK","2018/03/26 16:39:47","新北市淡水區楓樹湖1-5號","121.494918333333","25.1906116666667","6501000","淡水區"
"251008","181-VK","2018/03/26 16:39:38","台北市北投區中央北路四段30巷160號","121.474155","25.1404866666667","6501000","淡水區"
"251015","182-VK","2018/03/26 16:39:50","新北市淡水區水源街一段25號","121.443071666667","25.1723133333333","6501000","淡水區"
"251012","441-VK","2018/03/26 16:39:50","新北市淡水區中正路二段31號","121.419681666667","25.1815333333333","6501000","淡水區"
"251016","442-VK","2018/03/26 16:39:51","新北市淡水區北新路180號","121.449203333333","25.1787116666667","6501000","淡水區"
"251011","650-BX","2018/03/26 16:39:53","新北市淡水區中正路二段31號","121.41932","25.18171","6501000","淡水區"
"252002","178-VK","2018/03/26 16:39:49","新北市三芝區晴光街1號","121.51039","25.257885","6502100","三芝區"
"238009","KEA-2213","2018/03/26 16:39:47","新北市樹林區八德街263-1號","121.419235","24.9738783333333","6500700","樹林區"
"238012","303-VK","2018/03/26 16:39:40","新北市樹林區中正路22-1號","121.427798333333","24.9994716666667","6500700","樹林區"
"238001","283-BY","2018/03/26 16:39:41","新北市樹林區中正路433-2號","121.414865","25.00827","6500700","樹林區"
"238001","282-BY","2018/03/26 16:39:47","新北市樹林區大慶街99-1號","121.427663333333","24.99967","6500700","樹林區"
"239002","359-BY","2018/03/26 16:38:25","新北市鶯歌區二甲路12-2號","121.34569","24.93504","6500800","鶯歌區"
