"lineid","car","time","location","longitude","latitude","cityid","cityname"
"234026","9371-KE","2018/03/26 17:39:35","新北市永和區中正路625號","121.515703333333","25.0100066666667","6500400","永和區"
"249005","172-UM","2018/03/26 17:39:21","新北市八里區荖阡坑路34號","121.402781666667","25.1297666666667","6502300","八里區"
"249001","173-UM","2018/03/26 17:39:27","新北市八里區龍米路二段176號","121.434331666667","25.1582733333333","6502300","八里區"
"249004","303-UY","2018/03/26 17:39:33","新北市八里區賢二街39號","121.418991666667","25.1577883333333","6502300","八里區"
"249003","593-UM","2018/03/26 17:39:30","新北市八里區中山路二段229號","121.403331666667","25.1492166666667","6502300","八里區"
"232011","375-UM","2018/03/26 17:39:20","新北市坪林區水柳腳37號","121.709933333333","24.93522","6502000","坪林區"
"244013","069-UM","2018/03/26 17:39:35","新北市林口區中正路555號","121.381131666667","25.07689","6501700","林口區"
"244007","080-UY","2018/03/26 17:39:25","新北市林口區中華路219-1號","121.38577","25.0896616666667","6501700","林口區"
"244025","742-UY","2018/03/26 17:39:35","新北市林口區忠孝路308巷19號","121.36745","25.0719866666667","6501700","林口區"
"244023","483-VK","2018/03/26 17:39:20","新北市林口區東明二街61號","121.389681666667","25.0694966666667","6501700","林口區"
"244017","485-VK","2018/03/26 17:39:28","新北市林口區忠孝路407號","121.370401666667","25.0706616666667","6501700","林口區"
"244009","656-BX","2018/03/26 17:39:26","新北市林口區中北三街262號","121.38211","25.0821716666667","6501700","林口區"
"244019","657-BX","2018/03/26 17:39:24","新北市林口區文化一路一段83巷14弄3號","121.372301666667","25.0718533333333","6501700","林口區"
"244011","701-TV","2018/03/26 17:39:21","新北市林口區佳林路148號","121.384198333333","25.0771483333333","6501700","林口區"
"244021","838-TS","2018/03/26 17:39:25","新北市林口區東林街16號","121.396133333333","25.078985","6501700","林口區"
"222002","659-BX","2018/03/26 17:39:29","新北市深坑區深南路56號","121.619495","25.0092866666667","6501800","深坑區"
"231046","278-BY","2018/03/26 17:39:31","新北市新店區直潭路115號","121.53177","24.9363566666667","6500600","新店區"
"241005","262-UM","2018/03/26 17:39:37","新北市三重區碧華街1號","121.483471666667","25.0811833333333","6500200","三重區"
"241016","265-UM","2018/03/26 17:39:24","新北市三重區正義北路15-4號","121.497761666667","25.0630633333333","6500200","三重區"
"241007","398-BY","2018/03/26 17:39:39","新北市三重區國道路一段62號","121.480948333333","25.0729266666667","6500200","三重區"
"241024","462-BY","2018/03/26 17:39:38","新北市三重區大勇街5號","121.483605","25.071365","6500200","三重區"
"241020","478-VK","2018/03/26 17:39:34","新北市三重區忠孝路二段3號","121.486995","25.07149","6500200","三重區"
"241014","543-UM","2018/03/26 17:39:34","新北市三重區河邊北街80號","121.504351666667","25.0688883333333","6500200","三重區"
"241023","545-UM","2018/03/26 17:39:31","新北市三重區中華路132號","121.483543333333","25.064045","6500200","三重區"
"241033","557-UM","2018/03/26 17:39:31","新北市三重區光復路一段61巷9號","121.472366666667","25.048815","6500200","三重區"
"241012","941-UM","2018/03/26 17:39:36","新北市三重區河邊北街379-1號","121.501761666667","25.0764783333333","6500200","三重區"
"235064","005-UY","2018/03/26 17:39:23","新北市中和區員山路36巷16-2號","121.485225","24.9913766666667","6500300","中和區"
"235061","378-QA","2018/03/26 17:39:22","新北市中和區員山路36巷13號","121.484425","24.9912383333333","6500300","中和區"
"247024","893-R6","2018/03/26 17:39:33","新北市蘆洲區長樂路125-1號","121.462151666667","25.0880866666667","6501400","蘆洲區"
"247014","546-UM","2018/03/26 17:39:36","新北市蘆洲區中山二路106號","121.472351666667","25.0817716666667","6501400","蘆洲區"
"247022","500-BY","2018/03/26 17:39:33","新北市蘆洲區三民路283號","121.467211666667","25.08978","6501400","蘆洲區"
"247010","341-TH","2018/03/26 17:39:24","新北市蘆洲區中山一路86號","121.478145","25.08131","6501400","蘆洲區"
"247012","339-TH","2018/03/26 17:39:23","新北市蘆洲區民權路27號","121.476158333333","25.0863616666667","6501400","蘆洲區"
"247004","337-TH","2018/03/26 17:39:20","新北市蘆洲區長安街249巷24號","121.45833","25.08291","6501400","蘆洲區"
"247006","336-TH","2018/03/26 17:39:37","新北市蘆洲區九芎街154號","121.464386666667","25.0782033333333","6501400","蘆洲區"
"247018","057-VK","2018/03/26 17:39:36","新北市蘆洲區民權路61巷4弄2號","121.473578333333","25.088055","6501400","蘆洲區"
"247008","056-VK","2018/03/26 17:39:25","新北市蘆洲區中山一路281巷6號","121.472225","25.07931","6501400","蘆洲區"
"247002","053-VK","2018/03/26 17:39:18","新北市蘆洲區永平街62號","121.457445","25.0916483333333","6501400","蘆洲區"
"247016","007-UY","2018/03/26 17:39:25","新北市蘆洲區光華路46巷16號","121.468476666667","25.0836283333333","6501400","蘆洲區"
"247020","001-UY","2018/03/26 17:39:26","新北市蘆洲區民族路468號","121.471711666667","25.09167","6501400","蘆洲區"
"228003","097-TW","2018/03/26 17:39:23","新北市貢寮區仁理村仁和路214號","121.923685","25.0531","6502600","貢寮區"
"228001","212-TW","2018/03/26 17:39:34","新北市貢寮區仁理村仁愛路95-1號","121.92768","25.0554766666667","6502600","貢寮區"
"228002","585-TW","2018/03/26 17:39:35","新北市貢寮區福隆里龜壽谷街11-1號","121.954881666667","25.006785","6502600","貢寮區"
"224010","AGQ-8101","2018/03/26 17:39:37","新北市瑞芳區岳王路70號","121.809543333333","25.11117","6501200","瑞芳區"
"224006","676-BX","2018/03/26 17:39:20","新北市瑞芳區傑魚坑路60號","121.793555","25.1105666666667","6501200","瑞芳區"
"224008","285-BY","2018/03/26 17:39:34","新北市瑞芳區瑞柑新村5號","121.829053333333","25.106385","6501200","瑞芳區"
"224009","273-VK","2018/03/26 17:39:29","新北市瑞芳區烏勢巷147號","121.846806666667","25.10765","6501200","瑞芳區"
"224005","271-BY","2018/03/26 17:39:22","新北市瑞芳區海濱路16-2號","121.830873333333","25.1252883333333","6501200","瑞芳區"
"227001","400-TW","2018/03/26 17:39:23","新北市雙溪區三貂里定福路1-2號","121.850758333333","25.0634266666667","6502500","雙溪區"
"208002","KEA-2872","2018/03/26 17:39:23","新北市金山區磺清路108巷2號","121.639873333333","25.2282633333333","6502700","金山區"
"251009","008-UM","2018/03/26 17:39:25","新北市淡水區中正路156號","121.440718333333","25.1697083333333","6501000","淡水區"
"251004","009-UM","2018/03/26 17:39:24","新北市淡水區中正東路二段88巷37-21號","121.459358333333","25.1439133333333","6501000","淡水區"
"251005","010-UM","2018/03/26 17:39:18","新北市淡水區鄧公路33巷9號","121.451806666667","25.1709833333333","6501000","淡水區"
"251001","011-UM","2018/03/26 17:39:24","新北市淡水區自強路201巷35號","121.462303333333","25.12671","6501000","淡水區"
"251002","012-UM","2018/03/26 17:39:17","新北市淡水區清水街250號","121.44045","25.17233","6501000","淡水區"
"251013","179-VK","2018/03/26 17:39:27","新北市淡水區演戲埔腳2號","121.475456666667","25.19273","6501000","淡水區"
"251014","180-VK","2018/03/26 17:37:23","新北市淡水區水碓5號","121.475253333333","25.22195","6501000","淡水區"
"251008","181-VK","2018/03/26 17:39:19","新北市淡水區八勢二街53巷10號","121.462001666667","25.1483366666667","6501000","淡水區"
"251015","182-VK","2018/03/26 17:39:30","新北市淡水區糞箕湖17-2號","121.487081666667","25.1698583333333","6501000","淡水區"
"251010","413-VK","2018/03/26 17:39:24","新北市淡水區淡海路284號","121.419915","25.1892666666667","6501000","淡水區"
"251012","441-VK","2018/03/26 17:39:30","新北市淡水區北新路200巷8號","121.45173","25.1797","6501000","淡水區"
"251016","442-VK","2018/03/26 17:39:31","新北市淡水區埤島75號","121.454255","25.1945516666667","6501000","淡水區"
"251006","561-UM","2018/03/26 17:39:21","新北市淡水區大信街7號","121.441676666667","25.1763966666667","6501000","淡水區"
"251007","577-R6","2018/03/26 17:39:24","新北市淡水區民生路124巷1號","121.46396","25.1380733333333","6501000","淡水區"
"251011","650-BX","2018/03/26 17:39:33","新北市淡水區小坪頂12-2號","121.486925","25.1560566666667","6501000","淡水區"
"251003","766-UM","2018/03/26 17:39:32","新北市淡水區中山北路一段33號","121.441578333333","25.17526","6501000","淡水區"
"207003","550-UM","2018/03/26 17:39:39","新北市萬里區龜吼里漁澳路6號","121.686325","25.1945116666667","6502800","萬里區"
"207004","225-TW","2018/03/26 17:39:23","新北市萬里區中幅里中福路8-1號","121.685595","25.1648733333333","6502800","萬里區"
"252002","178-VK","2018/03/26 17:39:25","新北市三芝區中正路二段23號","121.504308333333","25.25517","6502100","三芝區"
"252001","292-VK","2018/03/26 17:39:35","新北市三芝區淡金路一段87號","121.502286666667","25.2590433333333","6502100","三芝區"
"237012","275-BY","2018/03/26 17:39:22","新北市三峽區中山路459巷137號","121.349956666667","24.9339183333333","6500900","三峽區"
"237008","302-VK","2018/03/26 17:39:18","新北市三峽區中山路459巷92號","121.354581666667","24.9360316666667","6500900","三峽區"
"237006","5529-G3","2018/03/26 17:39:36","新北市三峽區介壽路一段552巷17號","121.387685","24.9323883333333","6500900","三峽區"
"237015","649-BX","2018/03/26 17:39:21","新北市三峽區正義街59巷6號","121.369741666667","24.9184916666667","6500900","三峽區"
"242034","AAC-296","2018/03/26 17:39:23","新北市新莊區新莊路530號","121.445708333333","25.0329433333333","6500500","新莊區"
"242058","986-R7","2018/03/26 17:39:34","新北市新莊區中正路711號","121.425288333333","25.02983","6500500","新莊區"
"242053","751-BX","2018/03/26 17:39:27","新北市新莊區新樹路699巷9號","121.432573333333","25.001845","6500500","新莊區"
"242029","705-TV","2018/03/26 17:39:23","新北市新莊區復興路一段163號","121.450945","25.0433916666667","6500500","新莊區"
"242027","615-BX","2018/03/26 17:39:35","新北市新莊區福壽街116號","121.457968333333","25.0509083333333","6500500","新莊區"
"242025","613-BX","2018/03/26 17:39:37","新北市新莊區思源路104號","121.460081666667","25.046405","6500500","新莊區"
"242042","566-BX","2018/03/26 17:39:34","新北市新莊區中正路514巷17號","121.433016666667","25.032935","6500500","新莊區"
"242046","497-BY","2018/03/26 17:39:32","新北市新莊區建國一路19號","121.433886666667","25.031575","6500500","新莊區"
"242002","442-UM","2018/03/26 17:39:30","新北市新莊區新莊路304號","121.451013333333","25.0338266666667","6500500","新莊區"
"242050","441-UM","2018/03/26 17:39:35","新北市新莊區西盛街187-16號","121.429113333333","25.0171416666667","6500500","新莊區"
"242056","440-UM","2018/03/26 17:39:23","新北市新莊區泰豐街22號","121.44843","25.0315566666667","6500500","新莊區"
"242036","415-TV","2018/03/26 17:39:38","新北市新莊區建福路59巷47號","121.428638333333","25.02786","6500500","新莊區"
"242007","413-TV","2018/03/26 17:39:25","新北市新莊區福樂街118巷8號","121.457345","25.0481","6500500","新莊區"
"242044","400-BY","2018/03/26 17:39:35","新北市新莊區中正路871巷9弄1號","121.418686666667","25.0267966666667","6500500","新莊區"
"242023","362-BY","2018/03/26 17:39:22","新北市新莊區民樂街23號","121.457588333333","25.0408266666667","6500500","新莊區"
"242060","353-BY","2018/03/26 17:39:27","新北市新莊區瓊林南路118-34號","121.434068333333","25.01045","6500500","新莊區"
"242009","132-UY","2018/03/26 17:39:22","新北市新莊區昌明街14巷12號","121.457483333333","25.0533433333333","6500500","新莊區"
"242039","133-UY","2018/03/26 17:39:27","新北市新莊區民全街16號","121.429111666667","25.021955","6500500","新莊區"
"242031","135-UY","2018/03/26 17:39:20","新北市新莊區新泰路345號","121.44479","25.0420233333333","6500500","新莊區"
"242048","172-VK","2018/03/26 17:39:30","新北市新莊區萬安街149巷3號","121.420615","25.0217416666667","6500500","新莊區"
"242017","175-VK","2018/03/26 17:39:30","新北市新莊區復興路一段149巷22弄1號","121.450165","25.0441816666667","6500500","新莊區"
"242004","176-VK","2018/03/26 17:39:34","新北市新莊區自立街206號","121.456921666667","25.0454983333333","6500500","新莊區"
"242015","346-TH","2018/03/26 17:39:37","新北市新莊區新泰路287號","121.445516666667","25.0406683333333","6500500","新莊區"
"242021","348-TH","2018/03/26 17:39:29","新北市新莊區中華路一段118號","121.45257","25.04059","6500500","新莊區"
"242019","350-TH","2018/03/26 17:39:32","新北市新莊區中港路192號","121.454795","25.0423583333333","6500500","新莊區"
"242013","351-TH","2018/03/26 17:39:26","新北市新莊區中誠街97號","121.449986666667","25.04776","6500500","新莊區"
"238015","755-BX","2018/03/26 17:39:19","新北市樹林區長壽街21巷31號","121.420986666667","24.9933983333333","6500700","樹林區"
"238023","601-UM","2018/03/26 17:39:36","新北市樹林區三福街114號","121.40645","25.0162916666667","6500700","樹林區"
"238019","599-UM","2018/03/26 17:39:23","新北市樹林區太平路112號","121.418501666667","24.9787383333333","6500700","樹林區"
"238018","571-TV","2018/03/26 17:39:32","新北市樹林區鎮前街113號","121.42427","24.9896666666667","6500700","樹林區"
"238024","5061-A6","2018/03/26 17:39:20","新北市樹林區太平路269號","121.419561666667","24.973105","6500700","樹林區"
"238021","KEA-2217","2018/03/26 17:39:33","新北市樹林區佳園路二段171號","121.389751666667","24.9565116666667","6500700","樹林區"
"238022","KEA-2213","2018/03/26 17:39:27","新北市樹林區中華路187巷2號","121.420386666667","24.981645","6500700","樹林區"
"238025","303-VK","2018/03/26 17:39:20","新北市樹林區保安街二段180號","121.412598333333","25.0100116666667","6500700","樹林區"
"238017","283-BY","2018/03/26 17:39:21","新北市樹林區三德街23號","121.41353","25.013025","6500700","樹林區"
"238014","282-BY","2018/03/26 17:39:27","新北市樹林區保安街一段364號","121.417628333333","24.9984933333333","6500700","樹林區"
"238020","268-VK","2018/03/26 17:39:29","新北市樹林區俊英街116巷1弄34號","121.42766","25.005745","6500700","樹林區"
"238026","172-UY","2018/03/26 17:39:36","新北市樹林區新興街19巷6號","121.40041","24.97267","6500700","樹林區"
"238016","169-UY","2018/03/26 17:39:28","新北市樹林區復興路236號","121.41868","24.9894266666667","6500700","樹林區"
"239007","AAC-297","2018/03/26 17:39:36","新北市鶯歌區陽明街10號","121.34071","24.9567766666667","6500800","鶯歌區"
"239006","891-R6","2018/03/26 17:39:24","新北市鶯歌區永和街34巷10弄2號","121.333448333333","24.9672716666667","6500800","鶯歌區"
"239008","527-UM","2018/03/26 17:39:18","新北市鶯歌區大湖路373號","121.331006666667","24.9784016666667","6500800","鶯歌區"
"239005","526-UM","2018/03/26 17:39:31","桃園市桃園區大仁路99號","121.323526666667","24.9711616666667","6500800","鶯歌區"
"239001","417-VK","2018/03/26 17:39:27","新北市鶯歌區中正三路228號","121.331431666667","24.937505","6500800","鶯歌區"
"239003","360-BY","2018/03/26 17:39:34","新北市鶯歌區鶯桃路206巷14號","121.33758","24.9594666666667","6500800","鶯歌區"
"239002","359-BY","2018/03/26 17:39:26","新北市鶯歌區育英街15號","121.346838333333","24.95516","6500800","鶯歌區"
"239004","193-VK","2018/03/26 17:39:27","新北市鶯歌區三鶯路62巷1號","121.357483333333","24.942565","6500800","鶯歌區"
"221008","489-VK","2018/03/26 17:39:26","新北市汐止區康寧街901號","121.651403333333","25.0750666666667","6501100","汐止區"
"221015","131-UY","2018/03/26 17:39:21","新北市汐止區汐萬路一段256巷1號","121.65181","25.0748983333333","6501100","汐止區"
"221010","269-BY","2018/03/26 17:39:24","新北市汐止區汐萬路一段418巷46號","121.651171666667","25.0790666666667","6501100","汐止區"
"221023","279-VK","2018/03/26 17:39:23","新北市汐止區康寧街901號","121.6517","25.07496","6501100","汐止區"
"221031","353-TW","2018/03/26 17:39:38","新北市汐止區康寧街901號","121.651776666667","25.074955","6501100","汐止區"
"221033","647-BX","2018/03/26 17:39:24","新北市汐止區汐萬路一段81號","121.65481","25.0703816666667","6501100","汐止區"
"221018","753-BX","2018/03/26 17:39:32","新北市汐止區汐萬路一段256巷1號","121.651916666667","25.07488","6501100","汐止區"
"242011","281-VK","2018/03/26 17:39:18","新北市新莊區中港路570號","121.451455","25.053245","6500500","新莊區"
