"lineid","car","time","location","longitude","latitude","cityid","cityname"
"234005","207-UY","2018/03/26 17:59:19","新北市永和區福和路1號","121.526095","25.009485","6500400","永和區"
"234026","9371-KE","2018/03/26 17:59:35","新北市永和區永和路一段127號","121.514036666667","25.00849","6500400","永和區"
"249005","172-UM","2018/03/26 17:59:21","新北市八里區荖阡坑路24-11號","121.398713333333","25.1384816666667","6502300","八里區"
"249001","173-UM","2018/03/26 17:59:22","新北市八里區龍米路二段37號","121.448358333333","25.1400233333333","6502300","八里區"
"249004","303-UY","2018/03/26 17:59:33","新北市八里區龍米路二段199號","121.433061666667","25.1583416666667","6502300","八里區"
"249003","593-UM","2018/03/26 17:59:30","新北市八里區中山路二段133號","121.405316666667","25.1516166666667","6502300","八里區"
"248014","025-BX","2018/03/26 17:59:32","新北市五股區中興路二段161號","121.457848333333","25.0771566666667","6501500","五股區"
"248016","026-BX","2018/03/26 17:59:36","新北市五股區中興路二段83巷26-6號","121.459963333333","25.075225","6501500","五股區"
"248006","077-UY","2018/03/26 17:59:28","新北市五股區中興路二段83巷26-6號","121.460025","25.075015","6501500","五股區"
"248008","095-VK","2018/03/26 17:59:41","新北市五股區更洲路6號","121.458468333333","25.0787133333333","6501500","五股區"
"248018","225-UY","2018/03/26 17:59:39","新北市五股區中興路二段83巷26-6號","121.460056666667","25.0752716666667","6501500","五股區"
"248002","678-BX","2018/03/26 17:59:27","新北市五股區中興路二段37巷28號","121.460126666667","25.0749516666667","6501500","五股區"
"248010","682-TV","2018/03/26 17:59:41","新北市五股區更洲路47號","121.456953333333","25.0790183333333","6501500","五股區"
"232011","375-UM","2018/03/26 17:59:40","新北市坪林區北宜路八段379號","121.708738333333","24.9323216666667","6502000","坪林區"
"244013","069-UM","2018/03/26 17:59:35","新北市林口區中山路73號","121.393005","25.078485","6501700","林口區"
"244007","080-UY","2018/03/26 17:59:25","新北市林口區竹林路273號","121.389606666667","25.081155","6501700","林口區"
"244025","742-UY","2018/03/26 17:59:35","新北市林口區文化三路一段39巷98號","121.359123333333","25.0671516666667","6501700","林口區"
"244023","483-VK","2018/03/26 17:59:40","新北市林口區隆林街123巷26號","121.38484","25.073605","6501700","林口區"
"244017","485-VK","2018/03/26 17:59:28","新北市林口區文化三路一段402巷2號","121.368691666667","25.07409","6501700","林口區"
"244009","656-BX","2018/03/26 17:59:26","新北市林口區佳林路56巷43號","121.385178333333","25.0807066666667","6501700","林口區"
"244019","657-BX","2018/03/26 17:59:24","新北市林口區忠孝路542巷12號","121.372321666667","25.0669916666667","6501700","林口區"
"244011","701-TV","2018/03/26 17:59:41","新北市林口區中正路238號","121.390125","25.0777016666667","6501700","林口區"
"244021","838-TS","2018/03/26 17:59:25","新北市林口區新寮44號","121.404095","25.06485","6501700","林口區"
"222003","436-BY","2018/03/26 17:59:28","新北市深坑區炮子崙24號","121.605136666667","24.9877716666667","6501800","深坑區"
"222002","659-BX","2018/03/26 17:59:29","新北市深坑區深坑街35號","121.615903333333","25.0018316666667","6501800","深坑區"
"231046","278-BY","2018/03/26 17:59:31","新北市新店區康雅崙路3號","121.53948","24.9255666666667","6500600","新店區"
"231058","3712-VJ","2018/03/26 17:59:38","新北市新店區安華路28-1號","121.519331666667","24.9606883333333","6500600","新店區"
"241016","265-UM","2018/03/26 17:59:24","新北市三重區新北大道一段248號","121.481498333333","25.0616866666667","6500200","三重區"
"241024","462-BY","2018/03/26 17:59:38","新北市三重區中正北路193巷35弄71號","121.478683333333","25.0714366666667","6500200","三重區"
"241033","557-UM","2018/03/26 17:59:30","新北市三重區重新路五段599號","121.469436666667","25.0456233333333","6500200","三重區"
"235064","005-UY","2018/03/26 17:59:23","新北市中和區員山路36巷16-3號","121.484968333333","24.9913083333333","6500300","中和區"
"235065","098-UM","2018/03/26 17:59:18","新北市中和區民樂路71號","121.484216666667","25.0013083333333","6500300","中和區"
"235058","151-BY","2018/03/26 17:59:21","新北市中和區錦和路350-1號","121.490501666667","24.993535","6500300","中和區"
"235038","185-VK","2018/03/26 17:59:31","新北市中和區中正路169號","121.497955","24.9936016666667","6500300","中和區"
"235061","378-QA","2018/03/26 17:41:00","新北市中和區員山路36巷16-2號","121.485245","24.9917133333333","6500300","中和區"
"235042","551-UM","2018/03/26 17:59:23","新北市中和區中正路65巷1弄2號","121.501296666667","24.9931266666667","6500300","中和區"
"235054","640-BX","2018/03/26 17:59:39","新北市中和區和城路一段271巷1號","121.4854","24.99168","6500300","中和區"
"235062","800-TS","2018/03/26 17:59:27","新北市中和區中正路637巷60弄61號","121.48554","24.99326","6500300","中和區"
"235051","157-BY","2018/03/26 17:59:28","新北市中和區員山路36巷13號","121.484208333333","24.9908716666667","6500300","中和區"
"235037","AAC-213","2018/03/26 17:59:41","新北市中和區中正路637巷52弄1號","121.485596666667","24.9935466666667","6500300","中和區"
"247014","546-UM","2018/03/26 17:59:36","新北市蘆洲區三民路155號","121.471385","25.0868633333333","6501400","蘆洲區"
"247010","341-TH","2018/03/26 17:59:24","新北市蘆洲區三民路26巷2弄2號","121.476146666667","25.0826666666667","6501400","蘆洲區"
"247012","339-TH","2018/03/26 17:59:23","新北市蘆洲區民族路167巷15號","121.478226666667","25.0883666666667","6501400","蘆洲區"
"247002","053-VK","2018/03/26 17:59:38","新北市蘆洲區永平街32巷57弄22號","121.458973333333","25.0932916666667","6501400","蘆洲區"
"247016","007-UY","2018/03/26 17:59:25","新北市蘆洲區中正路185巷78弄2號","121.466103333333","25.0844483333333","6501400","蘆洲區"
"247020","001-UY","2018/03/26 17:59:26","新北市蘆洲區民權路117號","121.47234","25.0898483333333","6501400","蘆洲區"
"226004","312-R5","2018/03/26 17:59:23","新北市平溪區石底里石筍尖18號","121.730865","25.0259483333333","6502400","平溪區"
"228003","097-TW","2018/03/26 17:59:23","新北市貢寮區真理里美艷山街6-2號","121.928845","25.0607733333333","6502600","貢寮區"
"228001","212-TW","2018/03/26 17:59:34","新北市貢寮區真理里新港街26巷31號","121.92915","25.054775","6502600","貢寮區"
"228002","585-TW","2018/03/26 17:59:36","新北市貢寮區福連里香蘭街3-3號","121.9719","25.0245583333333","6502600","貢寮區"
"224010","AGQ-8101","2018/03/26 17:58:17","新北市瑞芳區烏勢巷145號","121.847553333333","25.1086716666667","6501200","瑞芳區"
"224006","676-BX","2018/03/26 17:59:37","新北市瑞芳區傑魚坑路263-1號","121.787066666667","25.1059683333333","6501200","瑞芳區"
"224002","639-TC","2018/03/26 17:59:36","新北市瑞芳區三爪子坑路149號","121.810573333333","25.106335","6501200","瑞芳區"
"224008","285-BY","2018/03/26 17:59:26","新北市瑞芳區明燈路一段201巷97-1號","121.818763333333","25.1066683333333","6501200","瑞芳區"
"224009","273-VK","2018/03/26 17:59:29","新北市瑞芳區新山路145號","121.852258333333","25.1087316666667","6501200","瑞芳區"
"224005","271-BY","2018/03/26 17:59:22","新北市瑞芳區深澳路197-2號","121.819528333333","25.1338816666667","6501200","瑞芳區"
"227001","400-TW","2018/03/26 17:59:39","新北市雙溪區三貂里定福路1-2號","121.850783333333","25.0634333333333","6502500","雙溪區"
"253005","032-BX","2018/03/26 17:59:29","新北市石門區中山路62-11號","121.567551666667","25.2897","6502200","石門區"
"222001","KEA-2212","2018/03/26 17:59:19","新北市深坑區北深路三段25巷12-1號","121.609018333333","25.000785","6501800","深坑區"
"208002","KEA-2872","2018/03/26 17:59:38","新北市金山區三界壇路93-1號","121.624433333333","25.2288083333333","6502700","金山區"
"208003","665-BX","2018/03/26 17:59:37","新北市金山區磺港里磺港路127號","121.646298333333","25.227625","6502700","金山區"
"208001","761-BX","2018/03/26 17:59:33","新北市金山區磺港里磺港路248號","121.643805","25.22502","6502700","金山區"
"251009","008-UM","2018/03/26 17:59:30","新北市淡水區大智街27號","121.442375","25.1745966666667","6501000","淡水區"
"251004","009-UM","2018/03/26 17:59:24","新北市淡水區民權路187巷34號","121.460638333333","25.1334933333333","6501000","淡水區"
"251005","010-UM","2018/03/26 17:59:38","新北市淡水區英專路127號","121.446245","25.17271","6501000","淡水區"
"251001","011-UM","2018/03/26 17:59:24","新北市淡水區民權路94巷1號","121.463135","25.1249733333333","6501000","淡水區"
"251002","012-UM","2018/03/26 17:59:37","新北市淡水區鼻頭街18-5號","121.446893333333","25.1668283333333","6501000","淡水區"
"251013","179-VK","2018/03/26 17:59:27","新北市淡水區泉洲厝31號","121.479621666667","25.1910733333333","6501000","淡水區"
"251014","180-VK","2018/03/26 17:59:30","新北市淡水區公埔子16-6號","121.481008333333","25.224585","6501000","淡水區"
"251008","181-VK","2018/03/26 17:59:38","新北市淡水區八勢一街43-8號","121.46192","25.1557833333333","6501000","淡水區"
"251015","182-VK","2018/03/26 17:59:30","新北市淡水區興福寮88巷1號","121.485633333333","25.1650933333333","6501000","淡水區"
"251010","413-VK","2018/03/26 17:59:42","新北市淡水區中正路一段130-7號","121.422095","25.1793383333333","6501000","淡水區"
"251012","441-VK","2018/03/26 17:59:30","新北市淡水區北新路三段40號","121.484278333333","25.187235","6501000","淡水區"
"251016","442-VK","2018/03/26 17:59:31","新北市淡水區埤島30號","121.448435","25.197815","6501000","淡水區"
"251006","561-UM","2018/03/26 17:59:21","新北市淡水區真理街4-5號","121.438183333333","25.1731333333333","6501000","淡水區"
"251011","650-BX","2018/03/26 17:59:33","新北市淡水區三空泉9號","121.475156666667","25.16285","6501000","淡水區"
"251003","766-UM","2018/03/26 17:59:32","新北市淡水區大忠街53號","121.444955","25.1766","6501000","淡水區"
"207003","550-UM","2018/03/26 17:59:25","新北市萬里區港東路野柳風景區攤販80號","121.691246666667","25.2057316666667","6502800","萬里區"
"207004","225-TW","2018/03/26 17:59:23","新北市萬里區中幅里中福路48號","121.683375","25.17399","6502800","萬里區"
"252003","249-BX","2018/03/26 17:59:36","新北市三芝區埔坪里埔頭坑41號","121.504685","25.264615","6502100","三芝區"
"252001","292-VK","2018/03/26 17:59:35","新北市三芝區中興街一段32號","121.497973333333","25.25749","6502100","三芝區"
"237004","KEA-2597","2018/03/26 17:59:21","新北市三峽區中園街227號","121.366898333333","24.9198366666667","6500900","三峽區"
"237007","153-BY","2018/03/26 17:59:30","新北市三峽區中園街110-1號","121.366975","24.9229533333333","6500900","三峽區"
"237009","210-TH","2018/03/26 17:59:32","新北市三峽區中山路106巷2號","121.366091666667","24.93605","6500900","三峽區"
"237013","252-BX","2018/03/26 17:59:39","新北市三峽區介壽路一段109號","121.375903333333","24.932135","6500900","三峽區"
"237012","275-BY","2018/03/26 17:59:42","新北市三峽區民生街27巷2號","121.37603","24.9361766666667","6500900","三峽區"
"237008","302-VK","2018/03/26 17:59:38","新北市三峽區正義街195號","121.368073333333","24.9144233333333","6500900","三峽區"
"237006","5529-G3","2018/03/26 17:59:36","新北市三峽區介壽路二段138巷1弄145-2號","121.400656666667","24.9306716666667","6500900","三峽區"
"237015","649-BX","2018/03/26 17:41:40","新北市三峽區白雞32-3號","121.372185","24.91227","6500900","三峽區"
"237010","706-TV","2018/03/26 17:59:30","新北市三峽區中山路100號","121.366323333333","24.9354616666667","6500900","三峽區"
"237005","AKY-6261","2018/03/26 17:59:31","新北市三峽區復興路237巷36號","121.368771666667","24.9377716666667","6500900","三峽區"
"236069","105-UM","2018/03/26 17:59:36","新北市土城區明德路二段209號","121.446431666667","24.9837066666667","6501300","土城區"
"236042","107-UM","2018/03/26 17:59:35","新北市土城區亞洲路46巷22號","121.434025","24.97486","6501300","土城區"
"236078","166-UM","2018/03/26 17:59:23","新北市土城區永寧路107號","121.43001","24.9549433333333","6501300","土城區"
"236030","253-BX","2018/03/26 17:59:29","新北市土城區亞洲路58巷5弄2號","121.433973333333","24.9746366666667","6501300","土城區"
"236026","269-VK","2018/03/26 17:59:29","新北市土城區自強街37號","121.433005","24.9733883333333","6501300","土城區"
"236014","270-VK","2018/03/26 17:59:25","新北市土城區自強街35號","121.432835","24.9732283333333","6501300","土城區"
"236036","271-VK","2018/03/26 17:59:26","新北市土城區自強街33號","121.432576666667","24.97304","6501300","土城區"
"236020","401-BY","2018/03/26 17:59:21","新北市土城區亞洲路58巷5弄6號","121.43358","24.9745333333333","6501300","土城區"
"236058","912-UM","2018/03/26 17:59:26","新北市土城區中央路三段42號","121.437571666667","24.9682166666667","6501300","土城區"
"236048","913-UM","2018/03/26 17:59:25","新北市土城區亞洲路58巷5弄10號","121.433688333333","24.9741916666667","6501300","土城區"
"236062","915-UM","2018/03/26 17:59:28","新北市土城區城林路6巷80號","121.43818","24.9794916666667","6501300","土城區"
"236053","AAC-216","2018/03/26 17:59:25","新北市土城區亞洲路58巷5弄8號","121.433543333333","24.9743333333333","6501300","土城區"
"242034","AAC-296","2018/03/26 17:59:23","新北市新莊區福海街11號","121.445211666667","25.0334083333333","6500500","新莊區"
"242058","986-R7","2018/03/26 17:59:34","新北市新莊區雙鳳路134巷8號","121.412738333333","25.0281516666667","6500500","新莊區"
"242053","751-BX","2018/03/26 17:59:27","新北市新莊區民安西路327巷4弄19號","121.42868","25.0112533333333","6500500","新莊區"
"242029","705-TV","2018/03/26 17:59:28","新北市新莊區中平路78號","121.444825","25.04465","6500500","新莊區"
"242027","615-BX","2018/03/26 17:59:31","新北市新莊區思源路451號","121.459803333333","25.053395","6500500","新莊區"
"242025","613-BX","2018/03/26 17:59:37","新北市新莊區五工路60號","121.458511666667","25.063","6500500","新莊區"
"242042","566-BX","2018/03/26 17:59:38","新北市新莊區丹鳳街22號","121.421505","25.0293033333333","6500500","新莊區"
"242046","497-BY","2018/03/26 17:59:32","新北市新莊區中正路651-8號","121.43019","25.0302583333333","6500500","新莊區"
"242002","442-UM","2018/03/26 17:59:30","新北市新莊區中正路145-15號","121.458593333333","25.037795","6500500","新莊區"
"242050","441-UM","2018/03/26 17:59:41","新北市新莊區西盛街153巷2號","121.428396666667","25.0180733333333","6500500","新莊區"
"242056","440-UM","2018/03/26 17:59:23","新北市新莊區豐年街124巷18號","121.445506666667","25.0298233333333","6500500","新莊區"
"242036","415-TV","2018/03/26 17:59:38","新北市新莊區中正路681號","121.426101666667","25.0300083333333","6500500","新莊區"
"242007","413-TV","2018/03/26 17:59:25","新北市新莊區自信街37號","121.454073333333","25.04834","6500500","新莊區"
"242044","400-BY","2018/03/26 17:59:35","新北市新莊區雙鳳路94號","121.41465","25.02787","6500500","新莊區"
"242023","362-BY","2018/03/26 17:59:35","新北市新莊區福壽街57號","121.45824","25.0491","6500500","新莊區"
"242060","353-BY","2018/03/26 17:59:40","新北市新莊區新樹路295-5號","121.433645","25.019805","6500500","新莊區"
"242009","132-UY","2018/03/26 17:59:42","新北市新莊區中華路二段260號","121.452571666667","25.05316","6500500","新莊區"
"242039","133-UY","2018/03/26 17:59:27","新北市新莊區富國路115號","121.423826666667","25.0248516666667","6500500","新莊區"
"242031","135-UY","2018/03/26 17:59:20","新北市新莊區新泰路305巷1號","121.445361666667","25.0410033333333","6500500","新莊區"
"242048","172-VK","2018/03/26 17:59:30","新北市新莊區後港二路10號","121.422808333333","25.0240433333333","6500500","新莊區"
"242017","175-VK","2018/03/26 17:59:23","新北市新莊區中和街60巷15號","121.448641666667","25.0448683333333","6500500","新莊區"
"242004","176-VK","2018/03/26 17:59:30","新北市新莊區自由街6號","121.45579","25.0478933333333","6500500","新莊區"
"242015","346-TH","2018/03/26 17:59:37","新北市新莊區中平路87巷8號","121.444211666667","25.0458616666667","6500500","新莊區"
"242021","348-TH","2018/03/26 17:59:22","新北市新莊區建興街22號","121.450153333333","25.0369433333333","6500500","新莊區"
"242019","350-TH","2018/03/26 17:59:32","新北市新莊區民樂街17巷1號","121.45764","25.040405","6500500","新莊區"
"242013","351-TH","2018/03/26 17:59:34","新北市新莊區中和街125巷20號","121.446766666667","25.0486233333333","6500500","新莊區"
"238015","755-BX","2018/03/26 17:59:28","新北市樹林區大安路307巷1弄3號","121.418168333333","24.9921616666667","6500700","樹林區"
"238023","601-UM","2018/03/26 17:59:36","新北市樹林區龍興街58號","121.403188333333","25.015265","6500700","樹林區"
"238019","599-UM","2018/03/26 17:59:43","新北市樹林區水源街32巷74號","121.42498","24.98017","6500700","樹林區"
"238018","571-TV","2018/03/26 17:59:32","新北市樹林區中正路7-1號","121.430251666667","24.9976166666667","6500700","樹林區"
"238021","KEA-2217","2018/03/26 17:59:33","新北市樹林區柑園街一段36-8號","121.405443333333","24.9615583333333","6500700","樹林區"
"238022","KEA-2213","2018/03/26 17:59:27","新北市樹林區太平路150巷13號","121.41786","24.9776833333333","6500700","樹林區"
"238025","303-VK","2018/03/26 17:59:40","新北市樹林區俊興街209-6號","121.417603333333","25.0145366666667","6500700","樹林區"
"238017","283-BY","2018/03/26 17:59:41","新北市樹林區中正路791號","121.40981","25.0161216666667","6500700","樹林區"
"238014","282-BY","2018/03/26 17:59:27","新北市樹林區大安路69號","121.423426666667","24.99887","6500700","樹林區"
"238020","268-VK","2018/03/26 17:59:29","新北市樹林區三俊街189-1號","121.41985","25.0156333333333","6500700","樹林區"
"238026","172-UY","2018/03/26 17:59:36","新北市樹林區育德街2號","121.392786666667","24.97067","6500700","樹林區"
"238016","169-UY","2018/03/26 17:59:28","新北市樹林區育英街135巷1弄1號","121.419678333333","24.9890466666667","6500700","樹林區"
"239007","AAC-297","2018/03/26 17:59:36","新北市鶯歌區永樂街36號","121.341873333333","24.954095","6500800","鶯歌區"
"239006","891-R6","2018/03/26 17:59:24","新北市鶯歌區鶯桃路413巷34弄36號","121.330756666667","24.964135","6500800","鶯歌區"
"239008","527-UM","2018/03/26 17:59:38","新北市鶯歌區國際一路108巷2號","121.335118333333","24.9772516666667","6500800","鶯歌區"
"239005","526-UM","2018/03/26 17:59:31","新北市鶯歌區鳳吉五街41號","121.327713333333","24.9728616666667","6500800","鶯歌區"
"239001","417-VK","2018/03/26 17:59:27","新北市鶯歌區中正三路215號","121.335028333333","24.93929","6500800","鶯歌區"
"239003","360-BY","2018/03/26 17:59:34","新北市鶯歌區永吉街41號","121.335611666667","24.95726","6500800","鶯歌區"
"239002","359-BY","2018/03/26 17:59:26","新北市鶯歌區光明街94號","121.346355","24.9558383333333","6500800","鶯歌區"
"221008","489-VK","2018/03/26 17:59:26","新北市汐止區明峰街20號","121.6346","25.07147","6501100","汐止區"
"221036","130-UY","2018/03/26 17:59:29","新北市汐止區大同路三段40號","121.667086666667","25.0766183333333","6501100","汐止區"
"221015","131-UY","2018/03/26 17:59:21","新北市汐止區長江街323號","121.666491666667","25.0816816666667","6501100","汐止區"
"221010","269-BY","2018/03/26 17:59:24","新北市汐止區汐萬路二段245巷44號","121.644591666667","25.0877333333333","6501100","汐止區"
"221012","278-VK","2018/03/26 17:59:34","新北市汐止區長興街二段50巷11號","121.674353333333","25.0814883333333","6501100","汐止區"
"221023","279-VK","2018/03/26 17:59:23","新北市汐止區明峰街160號","121.629233333333","25.070605","6501100","汐止區"
"221032","280-BY","2018/03/26 17:59:40","新北市汐止區民權街一段211巷5號","121.620298333333","25.052265","6501100","汐止區"
"221027","281-BY","2018/03/26 17:59:20","新北市汐止區大同路二段370號","121.657641666667","25.0671983333333","6501100","汐止區"
"221029","298-VK","2018/03/26 17:59:37","新北市汐止區樟樹二路330巷2號","121.641668333333","25.0701916666667","6501100","汐止區"
"221021","299-VK","2018/03/26 17:59:38","新北市汐止區新興路18號","121.656361666667","25.0646216666667","6501100","汐止區"
"221031","353-TW","2018/03/26 17:59:38","新北市汐止區中興路143號","121.631435","25.065665","6501100","汐止區"
"221035","622-UM","2018/03/26 17:59:30","新北市汐止區汐萬路一段124號","121.653736666667","25.0712416666667","6501100","汐止區"
"221025","623-UM","2018/03/26 17:59:37","新北市汐止區仁愛路25號","121.659381666667","25.0638133333333","6501100","汐止區"
"221038","646-BX","2018/03/26 17:59:33","新北市汐止區連興街128巷5號","121.653411666667","25.061565","6501100","汐止區"
"221033","647-BX","2018/03/26 17:59:05","新北市汐止區合順街54巷1號","121.620871666667","25.0429833333333","6501100","汐止區"
"221002","707-TV","2018/03/26 17:59:26","新北市汐止區工建路213號","121.635656666667","25.0615983333333","6501100","汐止區"
"221018","753-BX","2018/03/26 17:59:32","新北市汐止區招商街11巷4號","121.666643333333","25.068755","6501100","汐止區"
"242011","281-VK","2018/03/26 17:59:38","新北市新莊區中港路629號","121.450593333333","25.053945","6500500","新莊區"
