"lineid","car","time","location","longitude","latitude","cityid","cityname"
"234046","148-BY","2018/03/26 18:39:20","新北市永和區永元路68號","121.522518333333","25.0016066666667","6500400","永和區"
"234007","207-UY","2018/03/26 18:39:34","新北市永和區環河西路二段185號","121.50233","25.011255","6500400","永和區"
"234081","298-R6","2018/03/26 18:39:28","新北市永和區國中路2號","121.524301666667","25.0042966666667","6500400","永和區"
"234038","336-UY","2018/03/26 18:39:19","新北市永和區福和路1號","121.526673333333","25.0100783333333","6500400","永和區"
"234086","338-UY","2018/03/26 18:39:22","新北市永和區中正路500號","121.517555","25.0043133333333","6500400","永和區"
"234017","745-BX","2018/03/26 18:39:31","新北市永和區福和路1號","121.526303333333","25.0096133333333","6500400","永和區"
"234030","746-BX","2018/03/26 18:39:23","新北市永和區福和路7巷11弄16號","121.525836666667","25.007895","6500400","永和區"
"234013","KEA-2591","2018/03/26 18:39:20","新北市永和區保福路二段105號","121.510348333333","25.0133566666667","6500400","永和區"
"234061","AAD-866","2018/03/26 18:39:31","新北市永和區環河東路二段92號","121.524395","25.0106266666667","6500400","永和區"
"234042","862-TW","2018/03/26 18:39:36","新北市永和區永貞路304號","121.511923333333","25.0048233333333","6500400","永和區"
"234026","9371-KE","2018/03/26 18:39:15","新北市永和區永貞路417巷9號","121.506803333333","25.0091633333333","6500400","永和區"
"234011","9373-KE","2018/03/26 18:39:20","新北市永和區文化路113巷21弄21號","121.513751666667","25.014225","6500400","永和區"
"249005","172-UM","2018/03/26 18:39:21","新北市八里區中華路三段232號","121.38845","25.1244166666667","6502300","八里區"
"249001","173-UM","2018/03/26 18:39:22","新北市八里區龍米路一段360號","121.45158","25.131355","6502300","八里區"
"249004","303-UY","2018/03/26 18:39:33","新北市八里區中山路一段2號","121.42353","25.1589883333333","6502300","八里區"
"248014","025-BX","2018/03/26 18:39:32","新北市五股區成泰路一段235-1號","121.436175","25.0794966666667","6501500","五股區"
"248016","026-BX","2018/03/26 18:39:16","新北市五股區凌雲路一段149巷42號","121.448593333333","25.10091","6501500","五股區"
"248008","095-VK","2018/03/26 18:39:22","新北市五股區中興路一段140巷4號","121.465081666667","25.0741816666667","6501500","五股區"
"248018","225-UY","2018/03/26 18:39:19","新北市五股區民義路二段52-25號","121.40981","25.1049483333333","6501500","五股區"
"248012","247-BX","2018/03/26 18:39:33","新北市五股區成泰路三段2巷1-20號","121.441228333333","25.0866416666667","6501500","五股區"
"248004","677-BX","2018/03/26 18:39:23","新北市五股區民義路一段216-2號","121.430006666667","25.0893866666667","6501500","五股區"
"248002","678-BX","2018/03/26 18:39:27","新北市五股區西雲路240號","121.448868333333","25.0968233333333","6501500","五股區"
"248010","682-TV","2018/03/26 18:39:21","新北市五股區水碓一路63號","121.431846666667","25.0725716666667","6501500","五股區"
"234023","9380-KE","2018/03/26 18:39:33","新北市永和區福和路8巷1號","121.524985","25.0088966666667","6500400","永和區"
"234077","969-R7","2018/03/26 18:39:20","新北市永和區中正路390號","121.517588333333","25.0015033333333","6500400","永和區"
"234074","AAC-211","2018/03/26 18:39:20","新北市永和區福和路1號","121.526225","25.0094816666667","6500400","永和區"
"234067","AAC-212","2018/03/26 18:39:34","新北市永和區福和路247號","121.518023333333","25.00748","6500400","永和區"
"234003","AAC-295","2018/03/26 18:39:24","新北市永和區福和路1號","121.525866666667","25.0093333333333","6500400","永和區"
"232011","375-UM","2018/03/26 18:39:20","新北市坪林區坪雙路一段31號","121.711688333333","24.942415","6502000","坪林區"
"244013","069-UM","2018/03/26 18:39:35","新北市林口區中正路514巷25號","121.38205","25.07785","6501700","林口區"
"244007","080-UY","2018/03/26 18:39:25","新北市林口區太平里3號","121.379433333333","25.112165","6501700","林口區"
"244025","742-UY","2018/03/26 18:39:15","新北市林口區南勢五街30號","121.356323333333","25.0754633333333","6501700","林口區"
"244023","483-VK","2018/03/26 18:39:20","新北市林口區文化二路二段112號","121.379271666667","25.0817916666667","6501700","林口區"
"244017","485-VK","2018/03/26 18:39:28","新北市林口區文化二路一段156號","121.36843","25.0715483333333","6501700","林口區"
"244009","656-BX","2018/03/26 18:39:26","新北市林口區寶林路42號","121.385271666667","25.0843533333333","6501700","林口區"
"244019","657-BX","2018/03/26 18:39:24","新北市林口區忠孝路622巷3弄2號","121.377808333333","25.067425","6501700","林口區"
"244011","701-TV","2018/03/26 18:39:21","新北市林口區興林路17巷3弄2號","121.390363333333","25.077","6501700","林口區"
"244021","838-TS","2018/03/26 18:39:25","新北市林口區自強二街58號","121.399488333333","25.0769183333333","6501700","林口區"
"243012","AAD-798","2018/03/26 18:39:16","新北市泰山區福興三街13號","121.434435","25.057805","6501600","泰山區"
"243010","KEA-2215","2018/03/26 18:39:25","新北市泰山區黎明路25號","121.421935","25.0606333333333","6501600","泰山區"
"243013","646-TV","2018/03/26 18:39:15","新北市泰山區明志路三段206巷3號","121.42327","25.0379483333333","6501600","泰山區"
"222003","436-BY","2018/03/26 18:39:27","新北市深坑區翠谷街26號","121.626691666667","25.0090316666667","6501800","深坑區"
"222002","659-BX","2018/03/26 18:39:29","新北市深坑區雲鄉路1號","121.621075","24.9995516666667","6501800","深坑區"
"231041","002-UM","2018/03/26 18:39:29","新北市新店區安華路28-1號","121.5196","24.9609033333333","6500600","新店區"
"231059","046-UY","2018/03/26 18:39:27","新北市新店區安華路28-1號","121.51957","24.96076","6500600","新店區"
"231061","047-UY","2018/03/26 18:39:24","新北市新店區安華路28-1號","121.518993333333","24.9609","6500600","新店區"
"231060","106-UY","2018/03/26 18:39:28","新北市新店區安華路28-1號","121.519638333333","24.9608383333333","6500600","新店區"
"231051","107-UY","2018/03/26 18:39:30","新北市新店區安康路一段65號","121.530325","24.9610733333333","6500600","新店區"
"231047","108-UY","2018/03/26 18:39:30","新北市新店區安康路一段50號","121.530251666667","24.9611083333333","6500600","新店區"
"231064","110-UY","2018/03/26 18:39:33","新北市新店區安華路28-1號","121.5192","24.9610966666667","6500600","新店區"
"231052","187-VK","2018/03/26 18:39:32","新北市新店區永興路38號","121.543408333333","24.938585","6500600","新店區"
"231050","KEA-2219","2018/03/26 18:39:20","新北市新店區安華路28-1號","121.519755","24.96132","6500600","新店區"
"231057","256-BX","2018/03/26 18:39:23","新北市新店區新烏路一段193號","121.54787","24.9313666666667","6500600","新店區"
"231046","278-BY","2018/03/26 18:39:31","新北市新店區直潭二街1號","121.535558333333","24.9431316666667","6500600","新店區"
"231054","AAD-862","2018/03/26 18:39:15","新北市新店區安華路28-1號","121.519633333333","24.9610716666667","6500600","新店區"
"231058","3712-VJ","2018/03/26 18:39:18","新北市新店區北宜路一段170號","121.540563333333","24.9529716666667","6500600","新店區"
"231056","3713-VJ","2018/03/26 18:39:33","新北市新店區自立街23號","121.53766","24.9794583333333","6500600","新店區"
"231055","4716-K9","2018/03/26 18:39:19","新北市新店區中正路152號","121.54165","24.97183","6500600","新店區"
"231067","4772-VM","2018/03/26 18:39:23","新北市新店區安康路一段102號","121.527375","24.962405","6500600","新店區"
"231049","513-UM","2018/03/26 18:39:23","新北市新店區安康路一段94-1號","121.527651666667","24.9621516666667","6500600","新店區"
"231045","617-UM","2018/03/26 18:39:18","新北市新店區安華路28-1號","121.519405","24.9608116666667","6500600","新店區"
"231040","619-UM","2018/03/26 18:39:29","新北市新店區安華路28-1號","121.519463333333","24.960655","6500600","新店區"
"231042","641-BX","2018/03/26 18:39:17","新北市新店區安華路28-1號","121.519601666667","24.9605316666667","6500600","新店區"
"231063","645-TV","2018/03/26 18:39:16","新北市新店區安華路28-1號","121.519256666667","24.9606933333333","6500600","新店區"
"231065","719-UY","2018/03/26 18:39:26","新北市新店區安華路28-1號","121.519626666667","24.9612516666667","6500600","新店區"
"231062","720-UM","2018/03/26 18:39:24","新北市新店區安華路28-1號","121.519358333333","24.9611416666667","6500600","新店區"
"231044","897-TW","2018/03/26 18:39:24","新北市新店區環河路17號","121.537623333333","24.9614866666667","6500600","新店區"
"231043","899-TW","2018/03/26 18:39:26","新北市新店區安華路28-1號","121.518775","24.9609566666667","6500600","新店區"
"231066","AKT-0513","2018/03/26 18:39:31","新北市新店區安華路1-1號","121.519603333333","24.9604833333333","6500600","新店區"
"235066","003-UY","2018/03/26 18:39:30","新北市中和區水源路35號","121.504346666667","25.0035783333333","6500300","中和區"
"235064","005-UY","2018/03/26 18:39:23","新北市中和區連城路139巷17號","121.496208333333","24.9982666666667","6500300","中和區"
"235063","006-UY","2018/03/26 18:39:27","新北市中和區建一路198號","121.487623333333","24.9962616666667","6500300","中和區"
"235056","096-UM","2018/03/26 18:39:33","新北市中和區員山路611巷1號","121.477796666667","25.0112983333333","6500300","中和區"
"235039","097-UM","2018/03/26 18:39:32","新北市中和區安樂路139號","121.514506666667","24.9967133333333","6500300","中和區"
"235065","098-UM","2018/03/26 18:39:18","新北市中和區莊敬路33巷36弄8號","121.500341666667","25.0064533333333","6500300","中和區"
"235040","150-BY","2018/03/26 18:39:29","新北市中和區保健路91號","121.51125","24.9967383333333","6500300","中和區"
"235058","151-BY","2018/03/26 18:39:21","新北市中和區圓通路447號","121.485131666667","24.9867216666667","6500300","中和區"
"235055","183-VK","2018/03/26 18:39:25","新北市板橋區國泰街39巷9弄17號","121.469063333333","25.005415","6500300","中和區"
"235038","185-VK","2018/03/26 18:39:31","新北市中和區立人街14巷52號","121.518431666667","24.99568","6500300","中和區"
"235049","186-VK","2018/03/26 18:39:24","新北市中和區景平路480號","121.505063333333","24.9937633333333","6500300","中和區"
"235067","255-BX","2018/03/26 18:39:19","新北市中和區新生街2號","121.483128333333","25.0047216666667","6500300","中和區"
"235044","293-VK","2018/03/26 18:39:26","新北市中和區復興路280巷31號","121.501596666667","24.991775","6500300","中和區"
"235072","301-VK","2018/03/26 18:39:24","新北市中和區景平路597號","121.497005","25.0004883333333","6500300","中和區"
"235043","352-BY","2018/03/26 18:39:29","新北市中和區景平路155號","121.513603333333","24.9922366666667","6500300","中和區"
"235068","377-QA","2018/03/26 18:39:22","新北市中和區中正路143號","121.499213333333","24.9936016666667","6500300","中和區"
"235061","378-QA","2018/03/26 18:39:31","新北市中和區民享街90巷8號","121.474311666667","25.0002733333333","6500300","中和區"
"235050","4979-A6","2018/03/26 18:39:34","新北市中和區景新街496巷28弄39號","121.512735","24.9858916666667","6500300","中和區"
"235069","4980-A6","2018/03/26 18:39:36","新北市中和區連城路89巷7-1號","121.497241666667","24.99926","6500300","中和區"
"235042","551-UM","2018/03/26 18:39:23","新北市中和區成功路97巷5弄17號","121.526536666667","24.99215","6500300","中和區"
"235070","558-UM","2018/03/26 18:39:19","新北市中和區南華路48號","121.504108333333","24.9968433333333","6500300","中和區"
"235045","565-BX","2018/03/26 18:39:26","新北市中和區南山路236巷51號","121.504898333333","24.9883083333333","6500300","中和區"
"235054","640-BX","2018/03/26 18:39:34","新北市中和區莒光路132號","121.472446666667","25.0014733333333","6500300","中和區"
"235060","647-TV","2018/03/26 18:39:18","新北市中和區中山路三段1號","121.4799","25.005975","6500300","中和區"
"235047","732-UM","2018/03/26 18:39:20","新北市中和區南山路320巷10弄21號","121.506735","24.9866833333333","6500300","中和區"
"235046","733-UM","2018/03/26 18:39:23","新北市中和區忠孝街128號","121.512035","24.9864966666667","6500300","中和區"
"235062","800-TS","2018/03/26 18:39:27","新北市中和區中山路二段312巷33弄18號","121.494833333333","25.004115","6500300","中和區"
"235057","801-TS","2018/03/26 18:39:31","新北市中和區員山路327巷48號","121.480278333333","25.0018","6500300","中和區"
"235041","802-TS","2018/03/26 18:39:32","新北市中和區宜安路161號","121.508913333333","24.99896","6500300","中和區"
"235052","805-TS","2018/03/26 18:39:30","新北市中和區興南路三段20巷4號","121.496981666667","24.97957","6500300","中和區"
"235048","896-TW","2018/03/26 18:39:19","新北市中和區南山路160號","121.504521666667","24.99184","6500300","中和區"
"235053","900-TW","2018/03/26 18:39:20","新北市中和區民享街466號","121.469245","24.99264","6500300","中和區"
"235051","157-BY","2018/03/26 18:39:31","新北市中和區華新街143巷39號","121.506361666667","24.9804933333333","6500300","中和區"
"235037","AAC-213","2018/03/26 18:39:20","新北市中和區景德街58號","121.517365","24.9915383333333","6500300","中和區"
"235059","AAC-215","2018/03/26 18:39:34","新北市中和區錦和路350-1號","121.490541666667","24.9935416666667","6500300","中和區"
"220065","072-UY","2018/03/26 18:39:18","新北市板橋區南雅南路二段1-1號","121.454838333333","25.0038116666667","6500100","板橋區"
"220086","073-UY","2018/03/26 18:39:26","新北市板橋區南雅西路二段186號","121.451555","25.014265","6500100","板橋區"
"220069","AAD-861","2018/03/26 18:39:37","新北市板橋區華東街1-10號","121.44831","24.9950716666667","6500100","板橋區"
"247010","341-TH","2018/03/26 18:39:24","新北市八里區中華路三段27號","121.396498333333","25.143025","6501400","蘆洲區"
"226004","312-R5","2018/03/26 18:39:23","新北市平溪區平溪里三坑路38號","121.733691666667","25.0327066666667","6502400","平溪區"
"228003","097-TW","2018/03/26 18:39:24","新北市貢寮區和美里龍洞街40-1號","121.915466666667","25.1116883333333","6502600","貢寮區"
"228001","212-TW","2018/03/26 18:39:14","新北市貢寮區仁理村研海街12-1號","121.923748333333","25.05166","6502600","貢寮區"
"228002","585-TW","2018/03/26 18:39:16","新北市貢寮區福隆里東興街6-11號","121.950721666667","25.0210433333333","6502600","貢寮區"
"224010","AGQ-8101","2018/03/26 18:37:57","新北市瑞芳區烏勢巷145號","121.84723","25.10804","6501200","瑞芳區"
"224006","676-BX","2018/03/26 18:39:20","新北市瑞芳區明燈路三段59-2號","121.805736666667","25.1082333333333","6501200","瑞芳區"
"224002","639-TC","2018/03/26 18:39:16","新北市瑞芳區三爪子坑路29巷59號","121.813906666667","25.1064016666667","6501200","瑞芳區"
"224008","285-BY","2018/03/26 18:39:26","新北市瑞芳區岳王路162號","121.807976666667","25.1113966666667","6501200","瑞芳區"
"224009","273-VK","2018/03/26 18:39:33","新北市瑞芳區祈堂路110號","121.859026666667","25.1094916666667","6501200","瑞芳區"
"224007","272-VK","2018/03/26 18:39:17","新北市瑞芳區大埔路117號","121.763501666667","25.1010416666667","6501200","瑞芳區"
"224005","271-BY","2018/03/26 18:39:22","新北市瑞芳區瑞濱路34-5號","121.819111666667","25.11962","6501200","瑞芳區"
"227008","642-TC","2018/03/26 18:39:30","新北市雙溪區牡丹里下坑11號","121.851021666667","25.0561966666667","6502500","雙溪區"
"227001","400-TW","2018/03/26 18:39:27","新北市雙溪區魚行里坤溪3-5號","121.875885","25.02109","6502500","雙溪區"
"253005","032-BX","2018/03/26 18:39:29","新北市石門區石門街43號","121.56641","25.2903983333333","6502200","石門區"
"222001","KEA-2212","2018/03/26 18:39:19","新北市深坑區北深路一段82號","121.636343333333","25.010675","6501800","深坑區"
"208002","KEA-2872","2018/03/26 18:39:23","新北市金山區忠孝一路19巷17號","121.637345","25.2178283333333","6502700","金山區"
"208003","665-BX","2018/03/26 18:39:24","新北市金山區中山路322號","121.634033333333","25.224925","6502700","金山區"
"208001","761-BX","2018/03/26 18:39:29","新北市金山區文化三路7號","121.635203333333","25.224985","6502700","金山區"
"251004","009-UM","2018/03/26 18:39:23","新北市淡水區中正東路二段143巷6弄1號","121.46121","25.1473066666667","6501000","淡水區"
"251001","011-UM","2018/03/26 18:39:23","新北市淡水區自強路415巷2號","121.465481666667","25.1342416666667","6501000","淡水區"
"251002","012-UM","2018/03/26 18:39:17","新北市淡水區中正東路一段3巷14弄1號","121.45097","25.1641966666667","6501000","淡水區"
"251013","179-VK","2018/03/26 18:39:26","新北市淡水區雲廣坑6-1號","121.473623333333","25.215445","6501000","淡水區"
"251014","180-VK","2018/03/26 18:39:30","新北市淡水區崙頂12-8號","121.495576666667","25.2172366666667","6501000","淡水區"
"251008","181-VK","2018/03/26 18:39:18","新北市淡水區北投子73-1號","121.453341666667","25.1829633333333","6501000","淡水區"
"251015","182-VK","2018/03/26 18:39:30","新北市淡水區興福寮66巷28號","121.48611","25.162455","6501000","淡水區"
"251010","413-VK","2018/03/26 18:39:24","新北市淡水區沙崙路141-1號","121.423295","25.1829866666667","6501000","淡水區"
"251012","441-VK","2018/03/26 18:39:30","新北市淡水區北新路121號","121.448923333333","25.1786816666667","6501000","淡水區"
"251016","442-VK","2018/03/26 18:39:31","新北市淡水區下圭柔山84-1號","121.438763333333","25.2050966666667","6501000","淡水區"
"251006","561-UM","2018/03/26 18:39:21","新北市淡水區中山北路三段79號","121.444413333333","25.1924233333333","6501000","淡水區"
"251011","650-BX","2018/03/26 18:39:33","新北市淡水區鄧公路52號","121.460671666667","25.1689333333333","6501000","淡水區"
"251003","766-UM","2018/03/26 18:39:32","新北市淡水區北新路69巷26號","121.446795","25.1800683333333","6501000","淡水區"
"207003","550-UM","2018/03/26 18:39:05","新北市萬里區野柳里八斗60號","121.670118333333","25.2024883333333","6502800","萬里區"
"207004","225-TW","2018/03/26 18:39:28","新北市萬里區萬里里獅頭路7號","121.691988333333","25.1782433333333","6502800","萬里區"
"252002","178-VK","2018/03/26 18:39:25","新北市三芝區民生街34號","121.503725","25.2562266666667","6502100","三芝區"
"252003","249-BX","2018/03/26 18:39:37","新北市三芝區後厝里土地公坑54-16號","121.466055","25.2496133333333","6502100","三芝區"
"252001","292-VK","2018/03/26 18:39:35","新北市三芝區中興街二段260號","121.501376666667","25.25335","6502100","三芝區"
"237004","KEA-2597","2018/03/26 18:39:21","新北市三峽區插角25號","121.403788333333","24.8728383333333","6500900","三峽區"
"237007","153-BY","2018/03/26 18:39:30","新北市三峽區柑樹路6巷7號","121.362555","24.905","6500900","三峽區"
"237009","210-TH","2018/03/26 18:39:32","新北市三峽區大同路286巷3號","121.36421","24.9252633333333","6500900","三峽區"
"237013","252-BX","2018/03/26 18:39:19","新北市三峽區光明路69巷25號","121.376758333333","24.9292466666667","6500900","三峽區"
"237012","275-BY","2018/03/26 18:39:22","新北市三峽區三樹路216號","121.379165","24.9423633333333","6500900","三峽區"
"237008","302-VK","2018/03/26 18:39:18","新北市三峽區白雞67號","121.397341666667","24.91148","6500900","三峽區"
"237006","5529-G3","2018/03/26 18:39:16","新北市三峽區溪東路211巷31弄10號","121.405445","24.9343316666667","6500900","三峽區"
"237010","706-TV","2018/03/26 18:39:32","新北市三峽區中山路286號","121.360965","24.938175","6500900","三峽區"
"237005","AKY-6261","2018/03/26 18:39:31","新北市三峽區民生街104巷15號","121.373563333333","24.9360216666667","6500900","三峽區"
"236069","105-UM","2018/03/26 18:39:36","新北市土城區永豐路230號","121.467106666667","24.9812766666667","6501300","土城區"
"236042","107-UM","2018/03/26 18:39:35","新北市土城區學成路108巷11號","121.450215","24.98972","6501300","土城區"
"236078","166-UM","2018/03/26 18:39:23","新北市土城區大暖路5號","121.422566666667","24.9613783333333","6501300","土城區"
"236030","253-BX","2018/03/26 18:39:29","新北市土城區慶利街35號","121.438916666667","24.97443","6501300","土城區"
"236026","269-VK","2018/03/26 18:39:29","新北市土城區千歲路3巷6弄14號","121.441663333333","24.9699583333333","6501300","土城區"
"236014","270-VK","2018/03/26 18:39:30","新北市土城區清水路207巷25號","121.459683333333","24.98264","6501300","土城區"
"236036","271-VK","2018/03/26 18:39:36","新北市土城區明德路一段313巷3弄7號","121.459873333333","24.9764683333333","6501300","土城區"
"236020","401-BY","2018/03/26 18:39:21","新北市土城區延吉街253巷3號","121.467625","24.9846366666667","6501300","土城區"
"236058","912-UM","2018/03/26 18:39:06","新北市土城區中央路四段35號","121.423178333333","24.9620683333333","6501300","土城區"
"236048","913-UM","2018/03/26 18:39:25","新北市土城區金城路二段354巷4號","121.461005","24.98506","6501300","土城區"
"236062","915-UM","2018/03/26 18:39:28","新北市土城區延和路177巷9號","121.46981","24.9907083333333","6501300","土城區"
"236053","AAC-216","2018/03/26 18:39:24","新北市土城區中華路一段23號","121.446838333333","24.9892016666667","6501300","土城區"
"242058","986-R7","2018/03/26 18:39:34","新北市新莊區中正路881-12號","121.417286666667","25.02518","6500500","新莊區"
"242053","751-BX","2018/03/26 18:39:26","新北市樹林區樹新路120巷13號","121.430511666667","24.996965","6500500","新莊區"
"242025","613-BX","2018/03/26 18:39:16","新北市新莊區新泰路528號","121.442201666667","25.047055","6500500","新莊區"
"242009","132-UY","2018/03/26 18:39:22","新北市新莊區新泰路357巷3弄57號","121.44216","25.0391916666667","6500500","新莊區"
"238015","755-BX","2018/03/26 18:39:26","新北市樹林區大安路586號","121.411668333333","24.9834433333333","6500700","樹林區"
"238023","601-UM","2018/03/26 18:39:16","新北市樹林區三福街114號","121.406478333333","25.01629","6500700","樹林區"
"238019","599-UM","2018/03/26 18:39:22","新北市樹林區中華路190-16號","121.411745","24.9805266666667","6500700","樹林區"
"238018","571-TV","2018/03/26 18:39:32","新北市樹林區樹新路17號","121.42679","24.994215","6500700","樹林區"
"238024","5061-A6","2018/03/26 18:39:34","新北市樹林區太順街49巷7號","121.418191666667","24.97884","6500700","樹林區"
"238020","268-VK","2018/03/26 18:39:29","新北市樹林區俊安街28號","121.419701666667","25.013855","6500700","樹林區"
"238026","172-UY","2018/03/26 18:39:36","新北市樹林區信和街78號","121.389866666667","24.9730633333333","6500700","樹林區"
"238016","169-UY","2018/03/26 18:39:28","新北市樹林區文化街26號","121.41943","24.9877166666667","6500700","樹林區"
"239007","AAC-297","2018/03/26 18:39:36","新北市鶯歌區中山路91號","121.35048","24.9570083333333","6500800","鶯歌區"
"239008","527-UM","2018/03/26 18:39:18","新北市鶯歌區國際一路179號","121.336228333333","24.9764883333333","6500800","鶯歌區"
"239005","526-UM","2018/03/26 18:39:31","新北市鶯歌區鶯桃路668巷15號","121.328913333333","24.9701583333333","6500800","鶯歌區"
"239001","417-VK","2018/03/26 18:39:27","新北市鶯歌區二橋街80號","121.337083333333","24.938415","6500800","鶯歌區"
"239003","360-BY","2018/03/26 18:39:34","新北市鶯歌區永和街200號","121.336516666667","24.9709366666667","6500800","鶯歌區"
"239004","193-VK","2018/03/26 18:39:27","新北市鶯歌區尖山路卓厝巷1號","121.341985","24.9457383333333","6500800","鶯歌區"
"221008","489-VK","2018/03/26 18:39:26","新北市汐止區康寧街901號","121.65143","25.0750816666667","6501100","汐止區"
"221036","130-UY","2018/03/26 18:39:29","新北市汐止區南昌街29號","121.6632","25.06916","6501100","汐止區"
"221015","131-UY","2018/03/26 18:39:21","新北市汐止區吉祥街26號","121.667796666667","25.0810783333333","6501100","汐止區"
"221010","269-BY","2018/03/26 18:39:24","新北市汐止區汐萬路三段262號","121.643825","25.104935","6501100","汐止區"
"221012","278-VK","2018/03/26 18:39:34","新北市汐止區吉祥街27巷14號","121.667115","25.081335","6501100","汐止區"
"221023","279-VK","2018/03/26 18:39:23","新北市汐止區明峰街57號","121.633178333333","25.07135","6501100","汐止區"
"221032","280-BY","2018/03/26 18:39:20","新北市汐止區福山街56巷19號","121.618023333333","25.04563","6501100","汐止區"
"221027","281-BY","2018/03/26 18:39:20","新北市汐止區和平街84號","121.66139","25.07073","6501100","汐止區"
"221029","298-VK","2018/03/26 18:39:17","新北市汐止區樟樹一路135巷1號","121.642173333333","25.0653433333333","6501100","汐止區"
"221021","299-VK","2018/03/26 18:39:18","新北市汐止區復興路67號","121.65719","25.062135","6501100","汐止區"
"221031","353-TW","2018/03/26 18:39:18","新北市汐止區中興路62號","121.63524","25.061175","6501100","汐止區"
"221035","622-UM","2018/03/26 18:39:30","新北市汐止區禮門街1號","121.65679","25.0672033333333","6501100","汐止區"
"221025","623-UM","2018/03/26 18:39:17","新北市汐止區仁愛路126號","121.663015","25.063915","6501100","汐止區"
"221038","646-BX","2018/03/26 18:39:33","新北市汐止區汐萬路一段124號","121.653633333333","25.0711983333333","6501100","汐止區"
"221033","647-BX","2018/03/26 18:39:24","新北市汐止區南勢街3號","121.627083333333","25.0374133333333","6501100","汐止區"
"221002","707-TV","2018/03/26 18:39:26","新北市汐止區中興路23號","121.636926666667","25.0595983333333","6501100","汐止區"
"221018","753-BX","2018/03/26 18:39:32","新北市汐止區茄苳路250巷23號","121.671913333333","25.0676733333333","6501100","汐止區"
"220079","145-BY","2018/03/26 18:39:32","新北市板橋區大觀路一段43號","121.448236666667","25.0078533333333","6500100","板橋區"
"220082","610-BX","2018/03/26 18:39:30","新北市樹林區樹新路120巷13號","121.430403333333","24.9971116666667","6500100","板橋區"
"220056","276-BY","2018/03/26 18:39:13","新北市板橋區四川路二段243號","121.4505","24.9936916666667","6500100","板橋區"
"220072","277-BY","2018/03/26 18:39:30","新北市板橋區大觀路三段59巷17弄6-1號","121.436573333333","24.9954516666667","6500100","板橋區"
"220071","283-VK","2018/03/26 18:39:15","新北市板橋區四川路二段橋頭6號","121.44826","24.993975","6500100","板橋區"
"220094","285-UM","2018/03/26 18:39:20","新北市板橋區民生路二段161巷3號","121.470005","25.0196766666667","6500100","板橋區"
"220053","285-VK","2018/03/26 18:39:20","新北市板橋區民生路二段120號","121.47045","25.019885","6500100","板橋區"
"220083","286-VK","2018/03/26 18:39:29","新北市板橋區板城路271號","121.44986","24.9980516666667","6500100","板橋區"
"220081","287-VK","2018/03/26 18:39:17","新北市板橋區板城路407號","121.447421666667","24.9951783333333","6500100","板橋區"
"220062","295-UM","2018/03/26 18:39:22","新北市板橋區民生路二段120號","121.470578333333","25.0196766666667","6500100","板橋區"
"220084","296-UM","2018/03/26 18:39:25","新北市板橋區大觀路二段153巷44弄53號","121.445988333333","24.9990083333333","6500100","板橋區"
"220075","303-R5","2018/03/26 18:39:32","新北市板橋區南雅南路二段120-2號","121.452388333333","24.9999066666667","6500100","板橋區"
"220064","486-VK","2018/03/26 18:39:33","新北市板橋區南雅南路一段1巷35號","121.457653333333","25.00654","6500100","板橋區"
"220035","560-BX","2018/03/26 18:39:16","新北市板橋區華東街308號","121.452826666667","25.003125","6500100","板橋區"
"220103","561-BX","2018/03/26 18:39:21","新北市板橋區民生路二段161巷1號","121.470158333333","25.0198833333333","6500100","板橋區"
"220055","568-UM","2018/03/26 18:39:17","新北市板橋區華東街1-9號","121.448115","24.9947783333333","6500100","板橋區"
"220057","686-BX","2018/03/26 18:39:20","新北市板橋區華東街1-9號","121.448218333333","24.9949233333333","6500100","板橋區"
"220077","687-BX","2018/03/26 18:39:30","新北市板橋區大觀路二段435號","121.441883333333","24.99498","6500100","板橋區"
"220054","741-BX","2018/03/26 18:39:22","新北市板橋區華東街1-9號","121.44811","24.9948433333333","6500100","板橋區"
"220067","829-TW","2018/03/26 18:39:27","新北市板橋區民生路二段120號","121.470516666667","25.0195216666667","6500100","板橋區"
"220074","895-R6","2018/03/26 18:39:23","新北市板橋區南雅南路二段140號","121.45193","24.9962133333333","6500100","板橋區"
"220073","985-R7","2018/03/26 18:39:20","新北市板橋區南雅南路二段138號","121.452008333333","24.99636","6500100","板橋區"
"220070","AAC-253","2018/03/26 18:39:21","新北市板橋區板城路407號","121.447631666667","24.99535","6500100","板橋區"
