"lineid","car","time","location","longitude","latitude","cityid","cityname"
"234046","148-BY","2018/03/26 19:29:20","新北市永和區秀朗路二段116號","121.524548333333","25.0016233333333","6500400","永和區"
"234070","149-BY","2018/03/26 19:29:37","新北市永和區中正路666巷59號","121.519166666667","25.009165","6500400","永和區"
"234007","207-UY","2018/03/26 19:29:34","新北市永和區永和路一段208號","121.514355","25.0093433333333","6500400","永和區"
"234081","298-R6","2018/03/26 19:29:36","新北市永和區福和路5-9號","121.525453333333","25.0084666666667","6500400","永和區"
"234038","336-UY","2018/03/26 19:29:19","新北市永和區成功路二段65號","121.527438333333","25.00013","6500400","永和區"
"234064","337-UY","2018/03/26 19:29:24","新北市永和區中正路368巷1弄86號","121.520451666667","25.000755","6500400","永和區"
"234086","338-UY","2018/03/26 19:29:30","新北市永和區林森路39巷2-1號","121.52531","25.004755","6500400","永和區"
"234017","745-BX","2018/03/26 19:29:31","新北市永和區環河西路一段87號","121.512375","25.0179","6500400","永和區"
"234030","746-BX","2018/03/26 19:29:23","新北市永和區民生路69號","121.522665","24.9972416666667","6500400","永和區"
"234054","KEA-2590","2018/03/26 19:29:23","新北市永和區復興街5號","121.515728333333","25.01292","6500400","永和區"
"234013","KEA-2591","2018/03/26 19:29:20","新北市永和區中山路一段138-1號","121.510135","25.0098316666667","6500400","永和區"
"234061","AAD-866","2018/03/26 19:29:36","新北市永和區中正路437號","121.517181666667","25.00518","6500400","永和區"
"234042","862-TW","2018/03/26 19:29:16","新北市永和區水源街39巷20號","121.510573333333","25.0035033333333","6500400","永和區"
"234050","863-TW","2018/03/26 19:29:16","新北市永和區信義路120號","121.512398333333","25.01469","6500400","永和區"
"234026","9371-KE","2018/03/26 19:29:35","新北市中和區安樂路189號","121.51484","24.9981466666667","6500400","永和區"
"234011","9373-KE","2018/03/26 19:29:20","新北市永和區保福路二段85號","121.510623333333","25.01266","6500400","永和區"
"249003","593-UM","2018/03/26 19:29:20","新北市八里區商港六路15號","121.396755","25.1484333333333","6502300","八里區"
"248014","025-BX","2018/03/26 19:29:36","新北市五股區民義路一段157-22號","121.431526666667","25.08682","6501500","五股區"
"248008","095-VK","2018/03/26 19:29:22","新北市五股區中興路一段93號","121.46664","25.0727016666667","6501500","五股區"
"248018","225-UY","2018/03/26 19:29:19","新北市五股區壟路14-8號","121.415348333333","25.0862183333333","6501500","五股區"
"248012","247-BX","2018/03/26 19:29:33","新北市五股區成泰路二段97號","121.43803","25.0842666666667","6501500","五股區"
"248004","677-BX","2018/03/26 19:29:23","新北市五股區五福路8號","121.434345","25.0883683333333","6501500","五股區"
"248002","678-BX","2018/03/26 19:29:27","新北市五股區凌雲路一段158巷14號","121.447895","25.103405","6501500","五股區"
"248010","682-TV","2018/03/26 19:29:21","新北市五股區水碓一路23號","121.430598333333","25.0712733333333","6501500","五股區"
"234023","9380-KE","2018/03/26 19:29:33","新北市永和區竹林路91巷45號","121.521325","25.0128866666667","6500400","永和區"
"234077","969-R7","2018/03/26 19:29:20","新北市永和區民權路58巷3號","121.519583333333","24.998305","6500400","永和區"
"234074","AAC-211","2018/03/26 19:29:19","新北市永和區竹林路7號","121.51649","25.01495","6500400","永和區"
"234067","AAC-212","2018/03/26 19:29:34","新北市永和區保平路115號","121.510826666667","25.0066316666667","6500400","永和區"
"234003","AAC-295","2018/03/26 19:29:30","新北市永和區福和路387號","121.514166666667","25.007665","6500400","永和區"
"244023","483-VK","2018/03/26 19:29:20","新北市林口區文化北路二段234號","121.372896666667","25.085505","6501700","林口區"
"244011","701-TV","2018/03/26 19:29:21","新北市林口區湖南里70-9號","121.37593","25.0896983333333","6501700","林口區"
"243012","AAD-798","2018/03/26 19:29:36","新北市泰山區仁愛路12號","121.431255","25.054355","6501600","泰山區"
"243011","297-R6","2018/03/26 19:29:23","新北市泰山區貴子路140號","121.428936666667","25.0402983333333","6501600","泰山區"
"243015","380-SR","2018/03/26 19:29:38","新北市泰山區明志路二段41號","121.42958","25.053075","6501600","泰山區"
"243014","421-VK","2018/03/26 19:29:35","新北市泰山區仁愛路60號","121.431968333333","25.05483","6501600","泰山區"
"243010","KEA-2215","2018/03/26 19:29:24","新北市泰山區民權街41號","121.429178333333","25.0509216666667","6501600","泰山區"
"243009","KEA-2216","2018/03/26 19:29:29","新北市泰山區美寧街58號","121.430811666667","25.0646933333333","6501600","泰山區"
"243013","646-TV","2018/03/26 19:29:17","新北市泰山區貴子路36巷3弄1號","121.42593","25.04143","6501600","泰山區"
"243016","680-BX","2018/03/26 19:29:38","新北市泰山區明志路三段204巷16號","121.42179","25.037885","6501600","泰山區"
"222003","436-BY","2018/03/26 19:29:27","新北市深坑區深南路88巷1號","121.621283333333","25.0111166666667","6501800","深坑區"
"222002","659-BX","2018/03/26 19:29:29","新北市深坑區北深路一段177號","121.632553333333","25.010885","6501800","深坑區"
"231041","002-UM","2018/03/26 19:29:31","新北市新店區中正路568號","121.533816666667","24.9877283333333","6500600","新店區"
"231059","046-UY","2018/03/26 19:29:27","新北市新店區安和路三段61號","121.517975","24.983135","6500600","新店區"
"231061","047-UY","2018/03/26 19:29:24","新北市新店區安民街48號","121.516081666667","24.9657433333333","6500600","新店區"
"231060","106-UY","2018/03/26 19:29:28","新北市新店區安康路二段57號","121.514125","24.963295","6500600","新店區"
"231051","107-UY","2018/03/26 19:29:30","新北市新店區中央五街21號","121.529411666667","24.9744933333333","6500600","新店區"
"231047","108-UY","2018/03/26 19:29:30","新北市新店區五峰路63巷10號","121.546368333333","24.968465","6500600","新店區"
"231064","110-UY","2018/03/26 19:29:33","新北市新店區安康路二段85巷17號","121.514341666667","24.96172","6500600","新店區"
"231052","187-VK","2018/03/26 19:29:32","新北市新店區新烏路二段176號","121.548176666667","24.9180866666667","6500600","新店區"
"231050","KEA-2219","2018/03/26 19:29:36","新北市新店區北宜路二段82-40號","121.553505","24.9530916666667","6500600","新店區"
"231057","256-BX","2018/03/26 19:29:36","新北市新店區花園一路三段36號","121.550011666667","24.9330466666667","6500600","新店區"
"231046","278-BY","2018/03/26 19:29:31","新北市新店區中正路187號","121.540775","24.9722766666667","6500600","新店區"
"231054","AAD-862","2018/03/26 19:29:35","新北市新店區文中路45號","121.539578333333","24.9566666666667","6500600","新店區"
"231058","3712-VJ","2018/03/26 19:29:18","新北市新店區寶橋路85巷25號","121.545181666667","24.9760833333333","6500600","新店區"
"231067","4772-VM","2018/03/26 19:29:24","新北市新店區安豐路3號","121.501893333333","24.9572883333333","6500600","新店區"
"231049","513-UM","2018/03/26 19:29:23","新北市新店區北新路三段65巷34弄26號","121.540048333333","24.981695","6500600","新店區"
"231045","617-UM","2018/03/26 19:29:18","新北市新店區北宜路二段207號","121.553126666667","24.9532416666667","6500600","新店區"
"231040","619-UM","2018/03/26 19:29:29","新北市新店區北新路一段60號","121.541095","24.9663966666667","6500600","新店區"
"231042","641-BX","2018/03/26 19:29:17","新北市新店區中興路一段216號","121.544008333333","24.9656733333333","6500600","新店區"
"231063","645-TV","2018/03/26 19:29:36","新北市新店區達觀路16號","121.503218333333","24.9405816666667","6500600","新店區"
"231065","719-UY","2018/03/26 19:29:26","新北市新店區安祥路109巷3弄9號","121.478241666667","24.9612866666667","6500600","新店區"
"231062","720-UM","2018/03/26 19:29:24","新北市新店區安康路一段65號","121.530441666667","24.96102","6500600","新店區"
"231044","897-TW","2018/03/26 19:29:24","新北市新店區中興路三段188號","121.543951666667","24.98159","6500600","新店區"
"231043","899-TW","2018/03/26 19:29:26","新北市新店區北新路二段226號","121.542965","24.9772816666667","6500600","新店區"
"231066","AKT-0513","2018/03/26 19:29:31","新北市新店區安康路三段165巷2弄5號","121.489171666667","24.9512966666667","6500600","新店區"
"241028","022-UY","2018/03/26 19:29:32","新北市三重區中寮街90號","121.493235","25.0579983333333","6500200","三重區"
"241008","059-VK","2018/03/26 19:29:18","新北市三重區永福街135巷30號","121.477556666667","25.0770766666667","6500200","三重區"
"241009","060-VK","2018/03/26 19:29:34","新北市三重區仁美街121號","121.485821666667","25.0813416666667","6500200","三重區"
"241031","061-VK","2018/03/26 19:29:39","新北市三重區集美街100號","121.48853","25.05417","6500200","三重區"
"241017","063-VK","2018/03/26 19:29:18","新北市三重區國隆路21號","121.492778333333","25.06414","6500200","三重區"
"241026","066-VK","2018/03/26 19:29:37","新北市三重區文化南路47巷30號","121.499195","25.0610983333333","6500200","三重區"
"241022","267-UM","2018/03/26 19:29:23","新北市三重區三民街141-1號","121.48456","25.064075","6500200","三重區"
"241032","269-UM","2018/03/26 19:29:31","新北市三重區三陽路64號","121.483868333333","25.058765","6500200","三重區"
"241013","270-UM","2018/03/26 19:29:21","新北市三重區仁愛街127號","121.49552","25.0748666666667","6500200","三重區"
"241025","271-UM","2018/03/26 19:29:19","新北市三重區頂崁街210巷23弄1號","121.475825","25.0681083333333","6500200","三重區"
"241007","398-BY","2018/03/26 19:29:19","新北市三重區溪尾街140號","121.48925","25.079755","6500200","三重區"
"241035","KEA-2210","2018/03/26 19:29:36","新北市三重區正義北路68號","121.497136666667","25.0644566666667","6500200","三重區"
"241030","480-VK","2018/03/26 19:29:16","新北市三重區成功路41巷9號","121.490338333333","25.0514216666667","6500200","三重區"
"241023","545-UM","2018/03/26 19:29:31","新北市三重區頂崁街99號","121.478016666667","25.0638016666667","6500200","三重區"
"241006","AAD-863","2018/03/26 19:29:05","新北市三重區車路頭街76號","121.484325","25.07389","6500200","三重區"
"241029","942-UM","2018/03/26 19:29:23","新北市三重區重安街103號","121.493916666667","25.0551233333333","6500200","三重區"
"235066","003-UY","2018/03/26 19:29:30","新北市中和區景新街72號","121.50436","24.9989316666667","6500300","中和區"
"235064","005-UY","2018/03/26 19:29:23","新北市中和區泰和街2號","121.5","25.0012016666667","6500300","中和區"
"235063","006-UY","2018/03/26 19:29:27","新北市中和區連勝街123巷12號","121.494621666667","24.9953716666667","6500300","中和區"
"235056","096-UM","2018/03/26 19:29:33","新北市中和區中山路三段108號","121.476866666667","25.00631","6500300","中和區"
"235039","097-UM","2018/03/26 19:29:32","新北市中和區秀峰街103巷2弄4號","121.520046666667","24.9906516666667","6500300","中和區"
"235065","098-UM","2018/03/26 19:29:38","新北市中和區中山路二段64巷14弄26號","121.503908333333","25.006145","6500300","中和區"
"235040","150-BY","2018/03/26 19:20:09","新北市中和區宜安路32號","121.512763333333","24.9961533333333","6500300","中和區"
"235058","151-BY","2018/03/26 19:29:21","新北市中和區連城路469巷79弄2號","121.483515","24.9937516666667","6500300","中和區"
"235055","183-VK","2018/03/26 19:29:25","新北市中和區莒光路120巷17弄2號","121.471721666667","25.0009833333333","6500300","中和區"
"235038","185-VK","2018/03/26 19:29:31","新北市中和區自立路37號","121.522113333333","24.995345","6500300","中和區"
"235049","186-VK","2018/03/26 19:29:23","新北市中和區景新街285巷18號","121.5106","24.9936483333333","6500300","中和區"
"235067","255-BX","2018/03/26 19:07:29","新北市中和區新生街168號","121.483636666667","25.0001266666667","6500300","中和區"
"235044","293-VK","2018/03/26 19:29:26","新北市中和區捷運路185號","121.505448333333","24.9914166666667","6500300","中和區"
"235072","301-VK","2018/03/26 19:29:24","新北市中和區連城路263巷4弄12號","121.491798333333","24.9952366666667","6500300","中和區"
"235043","352-BY","2018/03/26 19:29:29","新北市中和區景平路426號","121.507401666667","24.9932733333333","6500300","中和區"
"235068","377-QA","2018/03/26 19:29:22","新北市中和區連勝街57巷11號","121.497985","24.99675","6500300","中和區"
"235061","378-QA","2018/03/26 19:29:31","新北市中和區連城路456巷9號","121.47865","24.9951933333333","6500300","中和區"
"235071","269-TV","2018/03/26 19:29:35","新北市中和區中正路637巷18弄20號","121.48433","24.995085","6500300","中和區"
"235050","4979-A6","2018/03/26 19:29:34","新北市中和區中正路458號","121.49053","24.9941633333333","6500300","中和區"
"235069","4980-A6","2018/03/26 19:29:36","新北市中和區景平路736巷3弄3號","121.497261666667","25.0036966666667","6500300","中和區"
"235042","551-UM","2018/03/26 19:29:22","新北市中和區安平路154號","121.512546666667","24.99838","6500300","中和區"
"235070","558-UM","2018/03/26 19:29:38","新北市中和區中和路88號","121.501176666667","25.000485","6500300","中和區"
"235045","565-BX","2018/03/26 19:29:26","新北市中和區景新街399巷6號","121.512933333333","24.9898566666667","6500300","中和區"
"235054","640-BX","2018/03/26 19:29:19","新北市中和區國光街112巷13弄1號","121.469706666667","25.0019166666667","6500300","中和區"
"235060","647-TV","2018/03/26 19:29:38","新北市中和區員山路314巷7弄2號","121.482151666667","25.00301","6500300","中和區"
"235047","732-UM","2018/03/26 19:29:20","新北市中和區景平路241巷39號","121.508553333333","24.9923966666667","6500300","中和區"
"235046","733-UM","2018/03/26 19:29:23","新北市中和區忠孝街37巷30號","121.510833333333","24.9842516666667","6500300","中和區"
"235057","801-TS","2018/03/26 19:29:31","新北市中和區中山路三段37巷33號","121.479523333333","25.004805","6500300","中和區"
"235041","802-TS","2018/03/26 19:29:32","新北市中和區中安街78號","121.51223","25.0019216666667","6500300","中和區"
"235052","805-TS","2018/03/26 19:29:30","新北市中和區華新街143巷71弄31號","121.507845","24.9791383333333","6500300","中和區"
"235048","896-TW","2018/03/26 19:29:19","新北市中和區忠孝街113巷2號","121.512641666667","24.987515","6500300","中和區"
"235053","900-TW","2018/03/26 19:29:20","新北市板橋區和平路233號","121.465255","24.9983816666667","6500300","中和區"
"235051","157-BY","2018/03/26 19:29:28","新北市中和區景新街168-1號","121.505885","24.9969516666667","6500300","中和區"
"235037","AAC-213","2018/03/26 19:29:20","新北市中和區秀朗路三段10巷12弄2號","121.525556666667","24.9965033333333","6500300","中和區"
"235059","AAC-215","2018/03/26 19:29:34","新北市中和區圓通路252巷36弄1號","121.492415","24.993","6500300","中和區"
"220065","072-UY","2018/03/26 19:29:18","新北市板橋區國泰街109-1號","121.466078333333","25.0062866666667","6500100","板橋區"
"220086","073-UY","2018/03/26 19:29:31","新北市板橋區中正路214號","121.456056666667","25.018395","6500100","板橋區"
"220069","AAD-861","2018/03/26 19:29:37","新北市板橋區稚暉街19-2號","121.456553333333","25.00423","6500100","板橋區"
"226004","312-R5","2018/03/26 19:29:23","新北市平溪區十分里十分街106號","121.776811666667","25.042865","6502400","平溪區"
"228003","097-TW","2018/03/26 19:29:23","新北市貢寮區和美里和美街19-2號","121.912741666667","25.082635","6502600","貢寮區"
"228001","212-TW","2018/03/26 19:29:34","新北市貢寮區真理里延平街68號","121.925371666667","25.057405","6502600","貢寮區"
"228002","585-TW","2018/03/26 19:29:36","新北市貢寮區龍門里龍門街76號","121.931353333333","25.0270616666667","6502600","貢寮區"
"224010","AGQ-8101","2018/03/26 19:29:26","新北市瑞芳區基山街214號","121.841851666667","25.1070316666667","6501200","瑞芳區"
"224008","285-BY","2018/03/26 19:29:26","新北市瑞芳區一坑路173-3號","121.801886666667","25.1079366666667","6501200","瑞芳區"
"227008","642-TC","2018/03/26 19:29:30","新北市雙溪區新基里新基北街43號","121.868161666667","25.0396816666667","6502500","雙溪區"
"227001","400-TW","2018/03/26 19:29:22","新北市雙溪區雙溪里光復街20號","121.865135","25.0354566666667","6502500","雙溪區"
"253005","032-BX","2018/03/26 19:29:29","新北市石門區小坑9號","121.594351666667","25.2886116666667","6502200","石門區"
"222001","KEA-2212","2018/03/26 19:29:19","新北市深坑區北深路二段118號","121.616581666667","25.0031483333333","6501800","深坑區"
"208002","KEA-2872","2018/03/26 19:29:23","新北市金山區中華路104號","121.634055","25.22009","6502700","金山區"
"208003","665-BX","2018/03/26 19:29:24","新北市金山區中山路263巷14號","121.636421666667","25.22155","6502700","金山區"
"208001","761-BX","2018/03/26 19:29:29","新北市金山區金包里街舊市場24號","121.638656666667","25.221555","6502700","金山區"
"251009","008-UM","2018/03/26 19:29:25","新北市淡水區大忠街5巷6號","121.443298333333","25.1764733333333","6501000","淡水區"
"251005","010-UM","2018/03/26 19:29:18","新北市淡水區水源街一段71巷18號","121.444406666667","25.17293","6501000","淡水區"
"251001","011-UM","2018/03/26 19:29:23","新北市淡水區民權路139-1號","121.460121666667","25.136475","6501000","淡水區"
"251013","179-VK","2018/03/26 19:29:26","新北市淡水區頂田寮路515號","121.46695","25.21654","6501000","淡水區"
"251014","180-VK","2018/03/26 19:29:30","新北市淡水區小中寮19-7號","121.48478","25.2296333333333","6501000","淡水區"
"251015","182-VK","2018/03/26 19:29:30","新北市淡水區山子頂22-2號","121.492725","25.189555","6501000","淡水區"
"251010","413-VK","2018/03/26 19:29:24","新北市淡水區中正路二段150號","121.42287","25.1876866666667","6501000","淡水區"
"251012","441-VK","2018/03/26 19:29:30","新北市淡水區中山北路三段164號","121.445698333333","25.1965466666667","6501000","淡水區"
"251016","442-VK","2018/03/26 19:29:31","新北市淡水區淡金路三段350巷18號","121.450805","25.2083666666667","6501000","淡水區"
"251006","561-UM","2018/03/26 19:29:21","新北市淡水區大義街29巷18號","121.441471666667","25.1780666666667","6501000","淡水區"
"251007","577-R6","2018/03/26 19:29:24","新北市淡水區坪頂路49號","121.45777","25.1625","6501000","淡水區"
"251011","650-BX","2018/03/26 19:29:26","新北市淡水區中正東路二段161巷11弄22號","121.460663333333","25.1456283333333","6501000","淡水區"
"251003","766-UM","2018/03/26 19:29:32","新北市淡水區中山北路二段183號","121.444203333333","25.1849466666667","6501000","淡水區"
"207003","550-UM","2018/03/26 19:29:25","新北市萬里區大鵬里萬里加投197-5號","121.643991666667","25.2150716666667","6502800","萬里區"
"207004","225-TW","2018/03/26 19:29:23","新北市萬里區萬里里瑪鋉路127-8號","121.688916666667","25.17775","6502800","萬里區"
"252002","178-VK","2018/03/26 19:29:25","新北市三芝區淡金路二段18-1號","121.502693333333","25.2594833333333","6502100","三芝區"
"252001","292-VK","2018/03/26 19:29:35","新北市三芝區長勤街63-4號","121.50008","25.2559166666667","6502100","三芝區"
"237004","KEA-2597","2018/03/26 19:29:21","新北市三峽區有木205-1號","121.439058333333","24.8514766666667","6500900","三峽區"
"237007","153-BY","2018/03/26 19:29:30","新北市三峽區二鬮路136巷20弄81號","121.358041666667","24.9091916666667","6500900","三峽區"
"237009","210-TH","2018/03/26 19:29:32","新北市三峽區民權街49號","121.369681666667","24.933385","6500900","三峽區"
"237013","252-BX","2018/03/26 19:29:38","新北市三峽區介壽路一段251號","121.379513333333","24.93018","6500900","三峽區"
"237012","275-BY","2018/03/26 19:29:22","新北市三峽區三樹路98巷175號","121.384556666667","24.9399933333333","6500900","三峽區"
"237008","302-VK","2018/03/26 19:29:17","新北市三峽區大同路154號","121.373093333333","24.92674","6500900","三峽區"
"237006","5529-G3","2018/03/26 19:29:36","新北市三峽區中正路一段336巷15弄2號","121.369958333333","24.9249316666667","6500900","三峽區"
"237010","706-TV","2018/03/26 19:29:29","新北市三峽區復興路46號","121.37358","24.93696","6500900","三峽區"
"237005","AKY-6261","2018/03/26 19:29:31","新北市三峽區復興路367巷1弄13號","121.364011666667","24.9381883333333","6500900","三峽區"
"236069","105-UM","2018/03/26 19:29:36","新北市土城區學府路一段194號","121.453195","24.985965","6501300","土城區"
"236078","166-UM","2018/03/26 19:29:23","新北市土城區中州路3巷43號","121.413376666667","24.9563316666667","6501300","土城區"
"236030","253-BX","2018/03/26 19:29:29","新北市土城區中央路一段306號","121.443176666667","24.9817383333333","6501300","土城區"
"236026","269-VK","2018/03/26 19:29:29","新北市土城區中央路二段61巷26號","121.443266666667","24.97873","6501300","土城區"
"236020","401-BY","2018/03/26 19:29:21","新北市土城區明峰街83號","121.468908333333","24.987405","6501300","土城區"
"236058","912-UM","2018/03/26 19:29:26","新北市土城區中央路二段215號","121.441196666667","24.9741216666667","6501300","土城區"
"236048","913-UM","2018/03/26 19:29:25","新北市土城區清水路203號","121.460031666667","24.981695","6501300","土城區"
"236062","915-UM","2018/03/26 19:29:28","新北市土城區金城路三段202-3號","121.46942","24.9885066666667","6501300","土城區"
"242023","362-BY","2018/03/26 19:29:21","新北市新莊區中和街1號","121.448406666667","25.0429366666667","6500500","新莊區"
"242031","135-UY","2018/03/26 19:29:19","新北市新莊區新泰路225巷20號","121.44529","25.0391583333333","6500500","新莊區"
"238015","755-BX","2018/03/26 19:29:29","新北市樹林區復興路227號","121.419861666667","24.9907533333333","6500700","樹林區"
"238023","601-UM","2018/03/26 19:29:36","桃園市龜山區萬壽路一段263號","121.403995","25.0175616666667","6500700","樹林區"
"238019","599-UM","2018/03/26 19:29:22","新北市樹林區八德街29號","121.418273333333","24.98398","6500700","樹林區"
"238018","571-TV","2018/03/26 19:29:32","新北市樹林區八德街367-1號","121.416768333333","24.9717916666667","6500700","樹林區"
"238024","5061-A6","2018/03/26 19:29:40","新北市樹林區山佳街19號","121.393735","24.9727833333333","6500700","樹林區"
"238021","KEA-2217","2018/03/26 19:29:28","新北市樹林區柑園街二段382巷16號","121.36803","24.949905","6500700","樹林區"
"238022","KEA-2213","2018/03/26 19:29:27","新北市樹林區名園街46號","121.419691666667","24.9786516666667","6500700","樹林區"
"238025","303-VK","2018/03/26 19:29:20","新北市樹林區中山路一段181-1號","121.421531666667","24.9881033333333","6500700","樹林區"
"238017","283-BY","2018/03/26 19:29:20","新北市樹林區光興街81巷22號","121.41067","25.00204","6500700","樹林區"
"238014","282-BY","2018/03/26 19:29:27","新北市樹林區保安二街64巷25號","121.424361666667","24.9967183333333","6500700","樹林區"
"238020","268-VK","2018/03/26 19:29:29","新北市樹林區俊英街216號","121.425001666667","25.0096933333333","6500700","樹林區"
"238026","172-UY","2018/03/26 19:29:36","新北市樹林區佳園路二段95號","121.39062","24.9590816666667","6500700","樹林區"
"238016","169-UY","2018/03/26 19:29:30","新北市樹林區大安路593號","121.411856666667","24.9829716666667","6500700","樹林區"
"239007","AAC-297","2018/03/26 19:29:36","新北市鶯歌區國光街66-2號","121.340763333333","24.9578066666667","6500800","鶯歌區"
"239006","891-R6","2018/03/26 19:29:23","新北市鶯歌區建國路502號","121.341021666667","24.9507716666667","6500800","鶯歌區"
"239005","526-UM","2018/03/26 19:29:31","新北市鶯歌區中湖街32號","121.347005","24.9728333333333","6500800","鶯歌區"
"239001","417-VK","2018/03/26 19:29:27","新北市鶯歌區建國路588號","121.339935","24.9524266666667","6500800","鶯歌區"
"239003","360-BY","2018/03/26 19:29:34","新北市鶯歌區國華路56號","121.34229","24.95493","6500800","鶯歌區"
"239004","193-VK","2018/03/26 19:29:27","新北市鶯歌區中正三路293號","121.329535","24.93618","6500800","鶯歌區"
"221008","489-VK","2018/03/26 19:29:26","新北市汐止區康寧街165號","121.62223","25.0666616666667","6501100","汐止區"
"221036","130-UY","2018/03/26 19:29:29","新北市汐止區汐萬路一段256巷1號","121.651741666667","25.0748816666667","6501100","汐止區"
"221015","131-UY","2018/03/26 19:29:21","新北市汐止區康寧街901號","121.6516","25.0749933333333","6501100","汐止區"
"221010","269-BY","2018/03/26 19:29:24","新北市汐止區連峰街5巷1號","121.646578333333","25.0767366666667","6501100","汐止區"
"221012","278-VK","2018/03/26 19:29:34","新北市汐止區大同路三段271號","121.673898333333","25.0754466666667","6501100","汐止區"
"221023","279-VK","2018/03/26 19:29:22","新北市汐止區康寧街815巷11號","121.640695","25.074845","6501100","汐止區"
"221027","281-BY","2018/03/26 19:29:33","新北市汐止區水源路一段9號","121.657215","25.0669316666667","6501100","汐止區"
"221029","298-VK","2018/03/26 19:29:36","新北市汐止區康寧街901號","121.651481666667","25.0749616666667","6501100","汐止區"
"221031","353-TW","2018/03/26 19:25:47","新北市汐止區康寧街901號","121.650821666667","25.07528","6501100","汐止區"
"221025","623-UM","2018/03/26 19:29:17","新北市汐止區水源路一段3號","121.657216666667","25.0671483333333","6501100","汐止區"
"221038","646-BX","2018/03/26 19:29:33","新北市汐止區汐萬路一段22號","121.655823333333","25.067825","6501100","汐止區"
"221033","647-BX","2018/03/26 19:29:24","新北市汐止區南勢街3號","121.627068333333","25.0373916666667","6501100","汐止區"
"221002","707-TV","2018/03/26 19:29:25","新北市汐止區大同路一段337巷15弄1號","121.637746666667","25.059965","6501100","汐止區"
"220079","145-BY","2018/03/26 19:29:32","新北市板橋區復興街52號","121.458621666667","25.0175083333333","6500100","板橋區"
"220106","KEA-2550","2018/03/26 19:29:32","新北市板橋區文化路二段417巷8號","121.474241666667","25.0329666666667","6500100","板橋區"
"220082","610-BX","2018/03/26 19:29:30","新北市板橋區金門街139號","121.432838333333","24.9911133333333","6500100","板橋區"
"220101","245-BX","2018/03/26 19:29:27","新北市板橋區縣民大道三段127巷25號","121.476875","25.0238","6500100","板橋區"
"220056","276-BY","2018/03/26 19:29:33","新北市板橋區信義路1巷26弄38號","121.458763333333","24.996625","6500100","板橋區"
"220072","277-BY","2018/03/26 19:29:30","新北市板橋區篤行路二段161巷16-1號","121.429695","24.9875","6500100","板橋區"
"220071","283-VK","2018/03/26 19:29:35","新北市板橋區忠孝路24巷10號","121.46003","25.0014","6500100","板橋區"
"220094","285-UM","2018/03/26 19:29:20","新北市板橋區吳鳳路46號","121.46815","25.0304233333333","6500100","板橋區"
"220053","285-VK","2018/03/26 19:29:30","新北市板橋區永豐街114號","121.47623","25.0207333333333","6500100","板橋區"
"220083","286-VK","2018/03/26 19:29:29","新北市板橋區大觀路二段174巷163弄2號","121.441593333333","25.0031766666667","6500100","板橋區"
"220081","287-VK","2018/03/26 19:29:37","新北市板橋區南雅西路一段4號","121.454783333333","25.0045233333333","6500100","板橋區"
"220090","288-VK","2018/03/26 19:29:23","新北市板橋區裕民街91號","121.460286666667","25.0279966666667","6500100","板橋區"
"220061","293-UM","2018/03/26 19:29:34","新北市板橋區中山路二段181號","121.476045","25.0171133333333","6500100","板橋區"
"220062","295-UM","2018/03/26 19:29:22","新北市板橋區三民路二段153巷2弄4號","121.479548333333","25.014805","6500100","板橋區"
"220084","296-UM","2018/03/26 19:29:25","新北市板橋區篤行路三段玉平巷76弄4號","121.42779","24.9855916666667","6500100","板橋區"
"242011","281-VK","2018/03/26 19:29:38","新北市新莊區新泰路255巷83號","121.442115","25.0388083333333","6500500","新莊區"
"220075","303-R5","2018/03/26 19:29:32","新北市板橋區大勇街4巷17號","121.454571666667","25.0178633333333","6500100","板橋區"
"220092","307-R5","2018/03/26 19:29:36","新北市板橋區光武街2巷28號","121.468778333333","25.0255366666667","6500100","板橋區"
"220098","317-R6","2018/03/26 19:29:30","新北市板橋區四維路266巷5弄2-1號","121.4638","25.0286733333333","6500100","板橋區"
"220080","461-BY","2018/03/26 19:29:37","新北市板橋區大觀路二段37巷172號","121.449391666667","25.0018483333333","6500100","板橋區"
"220064","486-VK","2018/03/26 19:29:33","新北市板橋區中山路一段123號","121.462186666667","25.01039","6500100","板橋區"
"220088","491-VK","2018/03/26 19:29:33","新北市板橋區文化路二段426號","121.47436","25.032085","6500100","板橋區"
"220035","560-BX","2018/03/26 19:29:35","新北市板橋區中正路433巷29號","121.45307","25.023765","6500100","板橋區"
"220103","561-BX","2018/03/26 19:29:21","新北市板橋區文化路一段210號","121.466503333333","25.020135","6500100","板橋區"
"220055","568-UM","2018/03/26 19:29:37","新北市板橋區重慶路278巷7號","121.46263","24.9995333333333","6500100","板橋區"
"220063","609-BX","2018/03/26 19:29:38","新北市板橋區三民路一段31巷15號","121.480071666667","25.02326","6500100","板橋區"
"220091","637-BX","2018/03/26 19:29:29","新北市板橋區文聖街135巷27號","121.479038333333","25.02896","6500100","板橋區"
"220057","686-BX","2018/03/26 19:29:28","新北市板橋區五權街2號","121.464048333333","24.994425","6500100","板橋區"
"220077","687-BX","2018/03/26 19:29:30","新北市板橋區僑中二街116巷2號","121.445681666667","25.006415","6500100","板橋區"
"220093","689-BX","2018/03/26 19:29:33","新北市板橋區英士路49-1號","121.461193333333","25.024535","6500100","板橋區"
"220054","741-BX","2018/03/26 19:29:26","新北市板橋區實踐路116號","121.46394","25.0041733333333","6500100","板橋區"
"220102","KEA-2699","2018/03/26 19:29:32","新北市板橋區雙十路二段130巷2弄12號","121.47486","25.02865","6500100","板橋區"
"220067","829-TW","2018/03/26 19:29:27","新北市中和區中山路三段120-26號","121.473443333333","25.00826","6500100","板橋區"
"220068","830-TW","2018/03/26 19:29:33","新北市板橋區翠華街6巷70號","121.481743333333","25.0249766666667","6500100","板橋區"
"220096","831-TW","2018/03/26 19:29:18","新北市板橋區大同街35巷21號","121.476895","25.027695","6500100","板橋區"
"220089","833-TW","2018/03/26 19:29:29","新北市板橋區文化路一段123號","121.461838333333","25.014945","6500100","板橋區"
"220074","895-R6","2018/03/26 19:29:23","新北市板橋區公館街18號","121.45692","25.012365","6500100","板橋區"
"220073","985-R7","2018/03/26 19:29:19","新北市板橋區瑞安街10號","121.454848333333","25.0233166666667","6500100","板橋區"
"220097","AAC-210","2018/03/26 19:29:35","新北市板橋區漢生西路156巷2號","121.463213333333","25.0231766666667","6500100","板橋區"
"220070","AAC-253","2018/03/26 19:29:21","新北市板橋區四川路一段10巷1號","121.459463333333","25.006635","6500100","板橋區"
