"lineid","car","time","location","longitude","latitude","cityid","cityname"
"234046","148-BY","2018/03/26 19:49:40","新北市永和區永亨路203號","121.526171666667","25.0026483333333","6500400","永和區"
"234070","149-BY","2018/03/26 19:49:37","新北市永和區竹林路77號","121.519435","25.0126966666667","6500400","永和區"
"234007","207-UY","2018/03/26 19:49:34","新北市中和區南工路22巷2號","121.505616666667","25.0007233333333","6500400","永和區"
"234081","298-R6","2018/03/26 19:49:27","新北市永和區永利路81巷23號","121.522391666667","25.0038683333333","6500400","永和區"
"234038","336-UY","2018/03/26 19:49:38","新北市永和區民樂街57巷8號","121.528156666667","24.998535","6500400","永和區"
"234064","337-UY","2018/03/26 19:49:24","新北市永和區中正路368巷22號","121.518556666667","25.0007516666667","6500400","永和區"
"234086","338-UY","2018/03/26 19:49:41","新北市永和區中正路475號","121.516998333333","25.006245","6500400","永和區"
"234017","745-BX","2018/03/26 19:49:39","新北市永和區永和路二段305號","121.51557","25.0166116666667","6500400","永和區"
"234030","746-BX","2018/03/26 19:49:23","新北市永和區民生路67巷45號","121.525123333333","24.9975016666667","6500400","永和區"
"234054","KEA-2590","2018/03/26 19:49:23","新北市永和區竹林路75巷9號","121.519303333333","25.013395","6500400","永和區"
"234013","KEA-2591","2018/03/26 19:49:40","新北市永和區永平路286-1號","121.507648333333","25.0120116666667","6500400","永和區"
"234061","AAD-866","2018/03/26 19:49:31","新北市永和區中正路47號","121.51456","24.9961833333333","6500400","永和區"
"234042","862-TW","2018/03/26 19:49:36","新北市永和區中和路389巷13號","121.508075","25.0010433333333","6500400","永和區"
"234050","863-TW","2018/03/26 19:49:35","新北市永和區保安路144號","121.508521666667","25.0149366666667","6500400","永和區"
"234026","9371-KE","2018/03/26 19:49:35","新北市永和區雙和街25巷4號","121.508848333333","25.0019166666667","6500400","永和區"
"234011","9373-KE","2018/03/26 19:49:40","新北市永和區仁愛路310號","121.503006666667","25.007445","6500400","永和區"
"249001","173-UM","2018/03/26 19:49:36","新北市八里區中華路二段252號","121.40542","25.1496783333333","6502300","八里區"
"249004","303-UY","2018/03/26 19:49:38","新北市八里區仁愛路21號","121.413328333333","25.1609266666667","6502300","八里區"
"249002","305-UY","2018/03/26 19:49:33","新北市八里區頂寮五街17號","121.451385","25.1259816666667","6502300","八里區"
"249003","593-UM","2018/03/26 19:49:40","新北市八里區華峰三街35號","121.398518333333","25.1452983333333","6502300","八里區"
"248014","025-BX","2018/03/26 19:49:28","新北市五股區五福路32巷7號","121.434445","25.0893483333333","6501500","五股區"
"248016","026-BX","2018/03/26 19:49:38","新北市五股區成泰路三段601巷17-1號","121.451751666667","25.10329","6501500","五股區"
"248008","095-VK","2018/03/26 19:49:21","新北市五股區四維路169號","121.46764","25.0751266666667","6501500","五股區"
"248018","225-UY","2018/03/26 19:32:19","新北市五股區壟路16號","121.415511666667","25.0854433333333","6501500","五股區"
"248012","247-BX","2018/03/26 19:49:33","新北市五股區蓬萊路24號","121.433893333333","25.0799166666667","6501500","五股區"
"248004","677-BX","2018/03/26 19:49:40","新北市五股區成泰路一段177號","121.435001666667","25.0762033333333","6501500","五股區"
"248002","678-BX","2018/03/26 19:49:27","新北市五股區成泰路四段14號","121.453356666667","25.106775","6501500","五股區"
"248010","682-TV","2018/03/26 19:49:21","新北市五股區登林路76-6號","121.43047","25.0695","6501500","五股區"
"234077","969-R7","2018/03/26 19:49:35","新北市永和區民權路29巷1號","121.520331666667","24.9978","6500400","永和區"
"234074","AAC-211","2018/03/26 19:49:40","新北市永和區竹林路179巷10號","121.521121666667","25.00973","6500400","永和區"
"234067","AAC-212","2018/03/26 19:49:34","新北市永和區中山路一段255巷20號","121.50837","25.0070716666667","6500400","永和區"
"234003","AAC-295","2018/03/26 19:49:32","新北市永和區福和路327號","121.515778333333","25.0072033333333","6500400","永和區"
"243012","AAD-798","2018/03/26 19:49:36","新北市泰山區全興路20號","121.432311666667","25.05891","6501600","泰山區"
"243011","297-R6","2018/03/26 19:49:26","新北市泰山區明志路三段182巷45號","121.42286","25.0394966666667","6501600","泰山區"
"243015","380-SR","2018/03/26 19:49:38","新北市泰山區文程路18巷18號","121.428166666667","25.04867","6501600","泰山區"
"243014","421-VK","2018/03/26 19:49:35","新北市泰山區泰林路二段33-8號","121.435155","25.056535","6501600","泰山區"
"243010","KEA-2215","2018/03/26 19:49:24","新北市泰山區民生路33號","121.430551666667","25.0522233333333","6501600","泰山區"
"243009","KEA-2216","2018/03/26 19:49:29","新北市泰山區美寧街60號","121.430968333333","25.0646666666667","6501600","泰山區"
"243013","646-TV","2018/03/26 19:38:38","新北市泰山區明志路三段6巷16號","121.423906666667","25.043665","6501600","泰山區"
"243016","680-BX","2018/03/26 19:49:38","新北市泰山區中山路三段79號","121.4182","25.032185","6501600","泰山區"
"222003","436-BY","2018/03/26 19:31:55","新北市深坑區深南路51-1號","121.621286666667","25.0097766666667","6501800","深坑區"
"222002","659-BX","2018/03/26 19:49:29","新北市深坑區北深路一段355-1號","121.622856666667","25.0051966666667","6501800","深坑區"
"231041","002-UM","2018/03/26 19:49:29","新北市新店區中央路143號","121.53018","24.97354","6500600","新店區"
"231059","046-UY","2018/03/26 19:49:27","新北市新店區安和路二段1號","121.517851666667","24.9671716666667","6500600","新店區"
"231061","047-UY","2018/03/26 19:49:24","新北市新店區安民街310號","121.51758","24.97408","6500600","新店區"
"231060","106-UY","2018/03/26 19:49:34","新北市新店區安康路二段193號","121.509301666667","24.9590033333333","6500600","新店區"
"231051","107-UY","2018/03/26 19:49:30","新北市新店區中央三街72號","121.52643","24.9752383333333","6500600","新店區"
"231047","108-UY","2018/03/26 19:49:30","新北市新店區寶興路61巷2號","121.550873333333","24.972005","6500600","新店區"
"231064","110-UY","2018/03/26 19:49:33","新北市新店區安和路一段52巷2-1號","121.517705","24.966665","6500600","新店區"
"231052","187-VK","2018/03/26 19:49:32","新北市新店區新烏路三段162號","121.551763333333","24.9024883333333","6500600","新店區"
"231050","KEA-2219","2018/03/26 19:48:00","新北市新店區北宜路二段579巷13號","121.565426666667","24.9543","6500600","新店區"
"231057","256-BX","2018/03/26 19:49:27","新北市新店區梅崗三路1號","121.558148333333","24.9311533333333","6500600","新店區"
"231046","278-BY","2018/03/26 19:49:31","新北市新店區三民路159巷19弄46號","121.53219","24.9732366666667","6500600","新店區"
"231054","AAD-862","2018/03/26 19:49:35","新北市新店區光明街73號","121.538883333333","24.96059","6500600","新店區"
"231055","4716-K9","2018/03/26 19:49:38","新北市新店區新生街1號","121.54037","24.96563","6500600","新店區"
"231067","4772-VM","2018/03/26 19:49:23","新北市新店區精忠路10-1號","121.532641666667","24.9591016666667","6500600","新店區"
"231049","513-UM","2018/03/26 19:49:23","新北市新店區民權路127巷15號","121.535575","24.9817383333333","6500600","新店區"
"231045","617-UM","2018/03/26 19:49:38","新北市新店區北宜路二段382號","121.564496666667","24.95291","6500600","新店區"
"231040","619-UM","2018/03/26 19:49:29","新北市新店區北新路一段96巷23號","121.54305","24.9687016666667","6500600","新店區"
"231042","641-BX","2018/03/26 19:49:37","新北市新店區中興路一段268-3號","121.545201666667","24.9679933333333","6500600","新店區"
"231063","645-TV","2018/03/26 19:49:36","新北市新店區車子路11號","121.50303","24.9520516666667","6500600","新店區"
"231068","718-UY","2018/03/26 19:49:27","新北市新店區安華路28-1號","121.519711666667","24.96085","6500600","新店區"
"231065","719-UY","2018/03/26 19:49:26","新北市新店區安祥路109巷90弄100號","121.475976666667","24.9574066666667","6500600","新店區"
"231062","720-UM","2018/03/26 19:49:24","新北市新店區永業路101號","121.528765","24.9487266666667","6500600","新店區"
"231044","897-TW","2018/03/26 19:49:24","新北市新店區復興路38號","121.538828333333","24.9867333333333","6500600","新店區"
"231043","899-TW","2018/03/26 19:49:25","新北市新店區中正路255號","121.538901666667","24.973495","6500600","新店區"
"231066","AKT-0513","2018/03/26 19:49:31","新北市新店區柴埕路100-1號","121.50335","24.9593833333333","6500600","新店區"
"241011","013-R5","2018/03/26 19:49:42","新北市三重區介壽路39巷6號","121.498978333333","25.0701233333333","6500200","三重區"
"241028","022-UY","2018/03/26 19:49:32","新北市三重區中正南路157號","121.49378","25.0560833333333","6500200","三重區"
"241008","059-VK","2018/03/26 19:49:38","新北市三重區永福街147-8號","121.47867","25.0762083333333","6500200","三重區"
"241009","060-VK","2018/03/26 19:49:34","新北市三重區三和路四段396巷39號","121.4799","25.078805","6500200","三重區"
"241031","061-VK","2018/03/26 19:49:39","新北市三重區重新路四段242-1號","121.48573","25.0537316666667","6500200","三重區"
"241015","062-VK","2018/03/26 19:49:21","新北市三重區三和路一段2號","121.503845","25.0642216666667","6500200","三重區"
"241017","063-VK","2018/03/26 19:49:38","新北市三重區重陽路三段5巷8弄29號","121.489553333333","25.066595","6500200","三重區"
"241024","065-VK","2018/03/26 19:49:28","新北市三重區大勇街82巷7號","121.479453333333","25.071505","6500200","三重區"
"241026","066-VK","2018/03/26 19:49:37","新北市三重區光興街3號","121.500256666667","25.0602283333333","6500200","三重區"
"241003","091-VK","2018/03/26 19:49:30","新北市三重區五華街93巷61號","121.493288333333","25.0845366666667","6500200","三重區"
"241016","265-UM","2018/03/26 19:49:23","新北市三重區正義北路48巷74號","121.495578333333","25.0634433333333","6500200","三重區"
"241022","267-UM","2018/03/26 19:49:43","新北市三重區三寧街50號","121.490176666667","25.060655","6500200","三重區"
"241018","268-UM","2018/03/26 19:49:41","新北市三重區雙園街57巷32號","121.494408333333","25.0683533333333","6500200","三重區"
"241032","269-UM","2018/03/26 19:49:31","新北市三重區重陽路一段44巷10號","121.486041666667","25.0577416666667","6500200","三重區"
"241013","270-UM","2018/03/26 19:49:21","新北市三重區仁愛街112巷14號","121.494736666667","25.07393","6500200","三重區"
"241025","271-UM","2018/03/26 19:49:39","新北市三重區忠孝路三段52號","121.480683333333","25.065655","6500200","三重區"
"241007","398-BY","2018/03/26 19:49:38","新北市三重區三和路四段133-1號","121.484843333333","25.078025","6500200","三重區"
"241035","KEA-2210","2018/03/26 19:49:36","新北市三重區文化北路15號","121.499681666667","25.0635783333333","6500200","三重區"
"241004","475-VK","2018/03/26 19:49:22","新北市三重區仁愛街377巷132號","121.493566666667","25.0819066666667","6500200","三重區"
"241030","480-VK","2018/03/26 19:49:36","新北市三重區成功路73巷6號","121.489058333333","25.0516783333333","6500200","三重區"
"241014","543-UM","2018/03/26 19:49:34","新北市三重區長安街82號","121.501441666667","25.0674783333333","6500200","三重區"
"241023","545-UM","2018/03/26 19:49:31","新北市三重區頂崁街172號","121.4776","25.06596","6500200","三重區"
"241001","547-UM","2018/03/26 19:49:24","新北市三重區仁愛街327巷29號","121.493005","25.0799633333333","6500200","三重區"
"241033","557-UM","2018/03/26 19:49:28","新北市三重區中興南街62號","121.470596666667","25.0441666666667","6500200","三重區"
"241006","AAD-863","2018/03/26 19:49:38","新北市三重區永福街273號","121.482231666667","25.074305","6500200","三重區"
"241019","887-TS","2018/03/26 19:49:38","新北市三重區自強路二段74巷23-1號","121.48779","25.069675","6500200","三重區"
"241012","941-UM","2018/03/26 19:49:36","新北市三重區仁興街56巷44號","121.498123333333","25.0754366666667","6500200","三重區"
"241029","942-UM","2018/03/26 19:49:23","新北市三重區光明路55號","121.491646666667","25.0579233333333","6500200","三重區"
"235066","003-UY","2018/03/26 19:49:30","新北市中和區南工路56號","121.50606","25.0015833333333","6500300","中和區"
"235064","005-UY","2018/03/26 19:49:22","新北市中和區南山路81巷68號","121.504078333333","24.9977566666667","6500300","中和區"
"235063","006-UY","2018/03/26 19:49:27","新北市中和區連城路168-3號","121.493528333333","24.9973683333333","6500300","中和區"
"235056","096-UM","2018/03/26 19:49:33","新北市中和區中山路三段114巷26弄1號","121.475843333333","25.007065","6500300","中和區"
"235039","097-UM","2018/03/26 19:49:32","新北市中和區景平路172號","121.517033333333","24.9927133333333","6500300","中和區"
"235065","098-UM","2018/03/26 19:49:38","新北市中和區中山路二段178巷21號","121.500835","25.00318","6500300","中和區"
"235040","150-BY","2018/03/26 19:49:29","新北市中和區忠孝街39-1號","121.511486666667","24.9836716666667","6500300","中和區"
"235058","151-BY","2018/03/26 19:49:21","新北市中和區員山路124巷25號","121.482518333333","24.9960516666667","6500300","中和區"
"235055","183-VK","2018/03/26 19:49:25","新北市中和區中山路三段181巷18弄11號","121.472701666667","25.00487","6500300","中和區"
"235038","185-VK","2018/03/26 19:49:39","新北市中和區自強路50號","121.520245","24.9949","6500300","中和區"
"235049","186-VK","2018/03/26 19:49:23","新北市中和區中正路72號","121.500841666667","24.9937683333333","6500300","中和區"
"235067","255-BX","2018/03/26 19:48:19","新北市中和區新生街236號","121.483731666667","24.9980216666667","6500300","中和區"
"235044","293-VK","2018/03/26 19:49:26","新北市中和區南山路231號","121.503486666667","24.9931633333333","6500300","中和區"
"235043","352-BY","2018/03/26 19:49:29","新北市中和區華新街230號","121.506108333333","24.9816833333333","6500300","中和區"
"235068","377-QA","2018/03/26 19:49:42","新北市中和區莊敬路16巷15弄1-1號","121.500288333333","25.00375","6500300","中和區"
"235061","378-QA","2018/03/26 19:49:31","新北市中和區員山路226巷5弄5號","121.481775","25.0007816666667","6500300","中和區"
"235071","269-TV","2018/03/26 19:49:35","新北市中和區永和路335-1號","121.484863333333","25.0114316666667","6500300","中和區"
"235050","4979-A6","2018/03/26 19:49:34","新北市中和區景平路241巷82弄33號","121.50654","24.9924066666667","6500300","中和區"
"235069","4980-A6","2018/03/26 19:49:36","新北市中和區中正路637巷60弄61號","121.485428333333","24.9926983333333","6500300","中和區"
"235042","551-UM","2018/03/26 19:49:22","新北市中和區保健路2巷30號","121.507026666667","24.9975016666667","6500300","中和區"
"235070","558-UM","2018/03/26 19:49:38","新北市中和區連勝街40號","121.498018333333","24.9976116666667","6500300","中和區"
"235045","565-BX","2018/03/26 19:49:26","新北市中和區安樂路23號","121.51176","24.9922666666667","6500300","中和區"
"235054","640-BX","2018/03/26 19:49:19","新北市中和區莒光路63-1號","121.472298333333","25.004115","6500300","中和區"
"235060","647-TV","2018/03/26 19:49:38","新北市中和區新生街32號","121.48309","25.0037866666667","6500300","中和區"
"235047","732-UM","2018/03/26 19:49:41","新北市中和區南山路148號","121.504091666667","24.992215","6500300","中和區"
"235046","733-UM","2018/03/26 19:49:23","新北市中和區仁愛街69號","121.511456666667","24.9874866666667","6500300","中和區"
"235057","801-TS","2018/03/26 19:49:31","新北市中和區員山路307號","121.481261666667","25.000205","6500300","中和區"
"235041","802-TS","2018/03/26 19:49:32","新北市中和區中安街20號","121.513358333333","25.00314","6500300","中和區"
"235052","805-TS","2018/03/26 19:49:30","新北市中和區興南路二段94號","121.50551","24.9843833333333","6500300","中和區"
"235048","896-TW","2018/03/26 19:49:39","新北市中和區興南路一段106號","121.509713333333","24.9888483333333","6500300","中和區"
"235053","900-TW","2018/03/26 19:49:40","新北市中和區國光街215巷43號","121.467353333333","25.0004516666667","6500300","中和區"
"235051","157-BY","2018/03/26 19:49:28","新北市中和區中興街127號","121.500041666667","24.9916716666667","6500300","中和區"
"235037","AAC-213","2018/03/26 19:49:40","新北市中和區自立路58巷2號","121.523576666667","24.9916933333333","6500300","中和區"
"235059","AAC-215","2018/03/26 19:49:34","新北市中和區圓通路305巷15弄1號","121.494223333333","24.9896266666667","6500300","中和區"
"220065","072-UY","2018/03/26 19:49:38","新北市板橋區民族路69巷18弄20號","121.466371666667","25.00994","6500100","板橋區"
"220086","073-UY","2018/03/26 19:49:26","新北市板橋區林園街7-1號","121.454026666667","25.0091866666667","6500100","板橋區"
"220069","AAD-861","2018/03/26 19:49:37","新北市板橋區貴興路119巷1弄1號","121.455758333333","25.0022633333333","6500100","板橋區"
"247014","546-UM","2018/03/26 19:49:33","新北市蘆洲區復興路30-3號","121.472546666667","25.0847883333333","6501400","蘆洲區"
"247010","341-TH","2018/03/26 19:49:27","新北市蘆洲區復興路323巷168-12號","121.47778","25.09654","6501400","蘆洲區"
"247004","337-TH","2018/03/26 19:49:19","新北市蘆洲區中原路43號","121.459518333333","25.08223","6501400","蘆洲區"
"247006","336-TH","2018/03/26 19:49:28","新北市蘆洲區永安南路二段14號","121.467291666667","25.0769316666667","6501400","蘆洲區"
"247008","056-VK","2018/03/26 19:49:26","新北市蘆洲區信義路127號","121.478793333333","25.0801116666667","6501400","蘆洲區"
"247002","053-VK","2018/03/26 19:49:38","新北市蘆洲區永樂街38巷65號","121.45848","25.0903383333333","6501400","蘆洲區"
"226004","312-R5","2018/03/26 19:49:23","新北市平溪區靜安路二段561號","121.749038333333","25.0259783333333","6502400","平溪區"
"228003","097-TW","2018/03/26 19:49:23","新北市貢寮區真理里美艷山街3-1號","121.925866666667","25.0596383333333","6502600","貢寮區"
"228001","212-TW","2018/03/26 19:49:34","新北市貢寮區仁理村仁愛路95-1號","121.927421666667","25.0556366666667","6502600","貢寮區"
"224010","AGQ-8101","2018/03/26 19:47:57","新北市瑞芳區基山街3號","121.845176666667","25.1097266666667","6501200","瑞芳區"
"224002","639-TC","2018/03/26 19:49:36","新北市瑞芳區民享新村21號","121.81705","25.1057316666667","6501200","瑞芳區"
"227008","642-TC","2018/03/26 19:49:30","新北市雙溪區新基里自強路2號","121.866401666667","25.0388466666667","6502500","雙溪區"
"227001","400-TW","2018/03/26 19:49:42","新北市雙溪區雙溪里內挖路47號","121.863196666667","25.0368016666667","6502500","雙溪區"
"222001","KEA-2212","2018/03/26 19:49:39","新北市深坑區北深路三段71號","121.60671","25.00141","6501800","深坑區"
"208002","KEA-2872","2018/03/26 19:49:43","新北市金山區三民街34號","121.634948333333","25.22355","6502700","金山區"
"208003","665-BX","2018/03/26 19:49:24","新北市金山區清泉里清水路41巷2號","121.629735","25.2327583333333","6502700","金山區"
"208001","761-BX","2018/03/26 19:49:29","新北市金山區重和里六股林口39號","121.602476666667","25.2194016666667","6502700","金山區"
"251009","008-UM","2018/03/26 19:49:25","新北市淡水區中正路38-1號","121.443735","25.169255","6501000","淡水區"
"251004","009-UM","2018/03/26 19:49:27","新北市淡水區民權路183巷22號","121.46052","25.1340733333333","6501000","淡水區"
"251005","010-UM","2018/03/26 19:49:38","新北市淡水區中正東路6號","121.446881666667","25.1672166666667","6501000","淡水區"
"251001","011-UM","2018/03/26 19:49:23","新北市淡水區中正東路二段37號","121.459241666667","25.1562316666667","6501000","淡水區"
"251002","012-UM","2018/03/26 19:49:37","新北市淡水區新市一路一段6號","121.429031666667","25.1874333333333","6501000","淡水區"
"251013","179-VK","2018/03/26 19:49:26","新北市淡水區頂田寮路17號","121.454165","25.216655","6501000","淡水區"
"251014","180-VK","2018/03/26 19:49:30","新北市淡水區番社前1-4號","121.468743333333","25.2368166666667","6501000","淡水區"
"251015","182-VK","2018/03/26 19:49:29","新北市淡水區北新路三段73號","121.485146666667","25.1877383333333","6501000","淡水區"
"251012","441-VK","2018/03/26 19:49:29","新北市淡水區中山北路三段164號","121.445935","25.1965566666667","6501000","淡水區"
"251016","442-VK","2018/03/26 19:49:31","新北市淡水區三塊厝3-3號","121.456478333333","25.2096433333333","6501000","淡水區"
"251006","561-UM","2018/03/26 19:49:38","新北市淡水區水碓街3號","121.443086666667","25.17688","6501000","淡水區"
"251007","577-R6","2018/03/26 19:49:24","新北市淡水區中正東路一段3巷25號","121.451598333333","25.1653116666667","6501000","淡水區"
"251011","650-BX","2018/03/26 19:49:38","新北市淡水區淡金路二段600號","121.446638333333","25.1924866666667","6501000","淡水區"
"207003","550-UM","2018/03/26 19:49:25","新北市萬里區大鵬里萬里加投239號","121.642413333333","25.21665","6502800","萬里區"
"207004","225-TW","2018/03/26 19:49:23","新北市萬里區萬里里瑪鋉路170號","121.689815","25.1798283333333","6502800","萬里區"
"252002","178-VK","2018/03/26 19:49:25","新北市三芝區三民街33-1號","121.504665","25.258515","6502100","三芝區"
"252001","292-VK","2018/03/26 19:49:35","新北市三芝區公正街9號","121.49977","25.25748","6502100","三芝區"
"237004","KEA-2597","2018/03/26 19:49:40","新北市三峽區添福269號","121.375563333333","24.8931733333333","6500900","三峽區"
"237007","153-BY","2018/03/26 19:49:30","新北市三峽區二鬮路31號","121.362333333333","24.9106116666667","6500900","三峽區"
"237009","210-TH","2018/03/26 19:49:32","新北市三峽區清水街425號","121.368711666667","24.9261616666667","6500900","三峽區"
"237013","252-BX","2018/03/26 19:49:38","新北市三峽區溪北街66號","121.397336666667","24.9357783333333","6500900","三峽區"
"237012","275-BY","2018/03/26 19:49:42","新北市三峽區中華路31號","121.372851666667","24.931265","6500900","三峽區"
"237008","302-VK","2018/03/26 19:49:37","新北市三峽區永安街183號","121.37314","24.926715","6500900","三峽區"
"237006","5529-G3","2018/03/26 19:49:36","新北市三峽區中正路一段330號","121.370701666667","24.9248316666667","6500900","三峽區"
"237010","706-TV","2018/03/26 19:49:29","新北市三峽區復興路29號","121.373828333333","24.9364833333333","6500900","三峽區"
"237005","AKY-6261","2018/03/26 19:49:31","新北市三峽區民生街98號","121.373973333333","24.9355316666667","6500900","三峽區"
"236069","105-UM","2018/03/26 19:49:36","新北市土城區中央路二段181號","121.442026666667","24.976025","6501300","土城區"
"236078","166-UM","2018/03/26 19:49:42","新北市土城區溪頭路45號","121.412025","24.9550266666667","6501300","土城區"
"236030","253-BX","2018/03/26 19:49:29","新北市土城區中央路一段290號","121.443381666667","24.9824033333333","6501300","土城區"
"236026","269-VK","2018/03/26 19:49:29","新北市土城區中央路二段61巷22號","121.443235","24.9787966666667","6501300","土城區"
"236036","271-VK","2018/03/26 19:49:26","新北市土城區國際路158巷54號","121.467985","24.9748633333333","6501300","土城區"
"236020","401-BY","2018/03/26 19:49:21","新北市土城區明峰街83號","121.468873333333","24.9873783333333","6501300","土城區"
"236058","912-UM","2018/03/26 19:49:26","新北市土城區中央路一段313號","121.443871666667","24.98343","6501300","土城區"
"236048","913-UM","2018/03/26 19:49:25","新北市土城區青雲路216號","121.458985","24.9816566666667","6501300","土城區"
"236062","915-UM","2018/03/26 19:49:28","新北市土城區延平街33巷2號","121.467761666667","24.9917866666667","6501300","土城區"
"236053","AAC-216","2018/03/26 19:49:34","新北市土城區延和路63號","121.466778333333","24.989855","6501300","土城區"
"242034","AAC-296","2018/03/26 19:49:41","新北市新莊區公園一路110號","121.444348333333","25.0374683333333","6500500","新莊區"
"242058","986-R7","2018/03/26 19:49:35","新北市新莊區民安路294號","121.428086666667","25.02174","6500500","新莊區"
"242029","705-TV","2018/03/26 19:49:37","新北市新莊區中平路297號","121.444628333333","25.05108","6500500","新莊區"
"242025","613-BX","2018/03/26 19:49:26","新北市新莊區五權一路12巷21弄6號","121.457918333333","25.064445","6500500","新莊區"
"242046","497-BY","2018/03/26 19:49:32","新北市新莊區瓊林路208-1號","121.43583","25.02204","6500500","新莊區"
"242002","442-UM","2018/03/26 19:49:29","新北市新莊區新泰路2-11號","121.45011","25.0325083333333","6500500","新莊區"
"242056","440-UM","2018/03/26 19:49:33","新北市新莊區新豐街2號","121.449168333333","25.0347983333333","6500500","新莊區"
"242036","415-TV","2018/03/26 19:49:38","新北市新莊區民安路207巷32弄4號","121.428186666667","25.0241316666667","6500500","新莊區"
"242023","362-BY","2018/03/26 19:49:21","新北市新莊區化成路69號","121.46555","25.04615","6500500","新莊區"
"242060","353-BY","2018/03/26 19:49:32","新北市新莊區中環路一段10號","121.442578333333","25.0256616666667","6500500","新莊區"
"242039","133-UY","2018/03/26 19:49:27","新北市新莊區民安路299巷24號","121.429318333333","25.0231833333333","6500500","新莊區"
"242031","135-UY","2018/03/26 19:49:39","新北市新莊區忠孝街15號","121.443885","25.03496","6500500","新莊區"
"242048","172-VK","2018/03/26 19:48:34","新北市新莊區建安街92巷17號","121.425798333333","25.0244983333333","6500500","新莊區"
"242004","176-VK","2018/03/26 19:49:30","新北市新莊區化成路63巷24弄16號","121.462158333333","25.0460266666667","6500500","新莊區"
"242021","348-TH","2018/03/26 19:49:38","新北市新莊區新泰路119號","121.44846","25.0359833333333","6500500","新莊區"
"242019","350-TH","2018/03/26 19:49:29","新北市新莊區中華路一段130號","121.452706666667","25.04108","6500500","新莊區"
"242013","351-TH","2018/03/26 19:49:26","新北市新莊區中誠街93號","121.45009","25.0477616666667","6500500","新莊區"
"238015","755-BX","2018/03/26 19:49:29","新北市樹林區中山路一段398號","121.418391666667","24.9853883333333","6500700","樹林區"
"238023","601-UM","2018/03/26 19:49:36","新北市樹林區三福街121巷13號","121.40602","25.015625","6500700","樹林區"
"238021","KEA-2217","2018/03/26 19:49:28","新北市樹林區佳園路三段181巷17號","121.387071666667","24.947835","6500700","樹林區"
"238022","KEA-2213","2018/03/26 19:49:36","新北市樹林區國凱街45號","121.420666666667","24.9790633333333","6500700","樹林區"
"238025","303-VK","2018/03/26 19:49:40","新北市樹林區中山路二段168號","121.412256666667","24.9825833333333","6500700","樹林區"
"238017","283-BY","2018/03/26 19:49:41","新北市樹林區保安街二段45巷40-4號","121.413986666667","25.0001966666667","6500700","樹林區"
"238014","282-BY","2018/03/26 19:49:27","新北市板橋區大觀路三段50巷103號","121.430901666667","24.9967533333333","6500700","樹林區"
"239006","891-R6","2018/03/26 19:49:23","新北市鶯歌區重慶街6-1號","121.35191","24.95271","6500800","鶯歌區"
"239005","526-UM","2018/03/26 19:49:31","新北市鶯歌區中湖街307巷1號","121.347206666667","24.9778633333333","6500800","鶯歌區"
"221008","489-VK","2018/03/26 19:49:26","新北市汐止區康寧街39號","121.618565","25.06684","6501100","汐止區"
"221036","130-UY","2018/03/26 19:49:29","新北市汐止區中正路311號","121.655908333333","25.0676933333333","6501100","汐止區"
"221015","131-UY","2018/03/26 19:49:41","新北市汐止區忠孝東路499號","121.666486666667","25.0747816666667","6501100","汐止區"
"221010","269-BY","2018/03/26 19:49:24","新北市汐止區八連路一段72號","121.6467","25.0805816666667","6501100","汐止區"
"221012","278-VK","2018/03/26 19:49:34","新北市汐止區保長路271巷2號","121.680928333333","25.07433","6501100","汐止區"
"221023","279-VK","2018/03/26 19:49:43","新北市汐止區民族三街44號","121.629643333333","25.0700266666667","6501100","汐止區"
"221027","281-BY","2018/03/26 19:49:35","新北市汐止區中正路7號","121.663105","25.0700583333333","6501100","汐止區"
"221029","298-VK","2018/03/26 19:40:17","新北市汐止區康寧街901號","121.651453333333","25.0749166666667","6501100","汐止區"
"221021","299-VK","2018/03/26 19:49:38","新北市汐止區新興路108號","121.657241666667","25.0608483333333","6501100","汐止區"
"221031","353-TW","2018/03/26 19:49:37","新北市汐止區福德二路54巷2弄1號","121.633818333333","25.0674433333333","6501100","汐止區"
"221035","622-UM","2018/03/26 19:49:34","新北市汐止區長江街13巷6弄1號","121.654683333333","25.0717033333333","6501100","汐止區"
"221025","623-UM","2018/03/26 19:49:37","新北市汐止區秀峰路81巷29號","121.661213333333","25.0648483333333","6501100","汐止區"
"221038","646-BX","2018/03/26 19:49:33","新北市汐止區忠孝東路403號","121.665786666667","25.0711416666667","6501100","汐止區"
"221033","647-BX","2018/03/26 19:49:24","新北市汐止區東勢街76巷100-1號","121.636486666667","25.0390916666667","6501100","汐止區"
"221018","753-BX","2018/03/26 19:49:32","新北市汐止區汐萬路一段10號","121.656123333333","25.0674016666667","6501100","汐止區"
"220079","145-BY","2018/03/26 19:49:32","新北市板橋區中正路135巷21號","121.455281666667","25.015245","6500100","板橋區"
"220106","KEA-2550","2018/03/26 19:49:34","新北市板橋區民治街57巷32-1號","121.480236666667","25.0343466666667","6500100","板橋區"
"220082","610-BX","2018/03/26 19:49:30","新北市板橋區存德街3號","121.42986","24.9918583333333","6500100","板橋區"
"220101","245-BX","2018/03/26 19:49:27","新北市板橋區縣民大道三段93巷21號","121.474818333333","25.022395","6500100","板橋區"
"220072","277-BY","2018/03/26 19:49:30","新北市板橋區金門街215巷109號","121.433433333333","24.988005","6500100","板橋區"
"220071","283-VK","2018/03/26 19:49:38","新北市板橋區五權街32巷21號","121.464173333333","24.9927716666667","6500100","板橋區"
"220094","285-UM","2018/03/26 19:49:39","新北市板橋區長江路一段222號","121.463178333333","25.03094","6500100","板橋區"
"220053","285-VK","2018/03/26 19:49:40","新北市板橋區中山路二段60巷11號","121.474248333333","25.0152433333333","6500100","板橋區"
"220083","286-VK","2018/03/26 19:49:29","新北市板橋區僑中二街126巷2號","121.445396666667","25.005215","6500100","板橋區"
"220081","287-VK","2018/03/26 19:49:37","新北市板橋區大觀路一段29巷179弄32號","121.449861666667","25.0042066666667","6500100","板橋區"
"220090","288-VK","2018/03/26 19:49:23","新北市板橋區龍泉街54巷7弄7號","121.456553333333","25.0264033333333","6500100","板橋區"
"220061","293-UM","2018/03/26 19:49:30","新北市板橋區中山路一段283巷2弄2-3號","121.470203333333","25.01454","6500100","板橋區"
"220062","295-UM","2018/03/26 19:49:42","新北市板橋區光復街8號","121.481291666667","25.01922","6500100","板橋區"
"220084","296-UM","2018/03/26 19:49:25","新北市板橋區滿平街11號","121.426305","24.9901283333333","6500100","板橋區"
"242011","281-VK","2018/03/26 19:49:38","新北市新莊區中信街122號","121.447833333333","25.05435","6500500","新莊區"
"220075","303-R5","2018/03/26 19:49:32","新北市板橋區金華街10巷36號","121.456636666667","25.020125","6500100","板橋區"
"220092","307-R5","2018/03/26 19:49:36","新北市板橋區四維路259巷23號","121.462148333333","25.027475","6500100","板橋區"
"220098","317-R6","2018/03/26 19:49:33","新北市板橋區四維路269巷87號","121.459863333333","25.02664","6500100","板橋區"
"220080","461-BY","2018/03/26 19:49:37","新北市板橋區大觀路二段79巷2弄16號","121.447361666667","25.0015916666667","6500100","板橋區"
"220064","486-VK","2018/03/26 19:49:33","新北市板橋區館前東路65號","121.464165","25.00787","6500100","板橋區"
"220088","491-VK","2018/03/26 19:49:32","新北市板橋區大同街79號","121.479708333333","25.0281183333333","6500100","板橋區"
"220035","560-BX","2018/03/26 19:49:35","新北市板橋區金華街85巷42號","121.459146666667","25.0213283333333","6500100","板橋區"
"220103","561-BX","2018/03/26 19:49:21","新北市板橋區陽明街29巷2號","121.465355","25.0217833333333","6500100","板橋區"
"220055","568-UM","2018/03/26 19:49:39","新北市板橋區國慶路149巷29弄11號","121.460485","24.9975883333333","6500100","板橋區"
"220063","609-BX","2018/03/26 19:49:28","新北市板橋區三民路一段133號","121.479233333333","25.0202133333333","6500100","板橋區"
"220091","637-BX","2018/03/26 19:49:29","新北市板橋區民治街83號","121.479713333333","25.0322083333333","6500100","板橋區"
"220057","686-BX","2018/03/26 19:49:40","新北市板橋區廣和街130號","121.462633333333","24.9922516666667","6500100","板橋區"
"220077","687-BX","2018/03/26 19:49:30","新北市板橋區僑中一街102巷3弄20號","121.445973333333","25.01248","6500100","板橋區"
"220093","689-BX","2018/03/26 19:49:29","新北市板橋區長江路二段269號","121.469641666667","25.0329066666667","6500100","板橋區"
"220054","741-BX","2018/03/26 19:49:22","新北市板橋區忠孝路196-1號","121.465585","25.00258","6500100","板橋區"
"220102","KEA-2699","2018/03/26 19:49:28","新北市板橋區松柏街31-3號","121.475215","25.0302683333333","6500100","板橋區"
"220067","829-TW","2018/03/26 19:49:27","新北市板橋區長安街255巷40號","121.472441666667","25.0112216666667","6500100","板橋區"
"220068","830-TW","2018/03/26 19:49:33","新北市板橋區中山路二段416巷47弄30號","121.48368","25.019415","6500100","板橋區"
"220096","831-TW","2018/03/26 19:49:38","新北市板橋區民生路二段226巷14號","121.470785","25.0219033333333","6500100","板橋區"
"220089","833-TW","2018/03/26 19:49:29","新北市板橋區綠堤街45號","121.455305","25.0259216666667","6500100","板橋區"
"220074","895-R6","2018/03/26 19:49:23","新北市板橋區府中路29-2號","121.458555","25.008035","6500100","板橋區"
"220073","985-R7","2018/03/26 19:49:39","新北市板橋區大仁街37號","121.455175","25.0166","6500100","板橋區"
"220097","AAC-210","2018/03/26 19:49:35","新北市板橋區文化路一段307巷3號","121.464675","25.0192866666667","6500100","板橋區"
"220070","AAC-253","2018/03/26 19:49:21","新北市板橋區民族路61號","121.465133333333","25.0087783333333","6500100","板橋區"
