"lineid","car","time","location","longitude","latitude","cityid","cityname"
"234046","148-BY","2018/03/26 20:19:21","新北市永和區得和路322號","121.523005","24.9995533333333","6500400","永和區"
"234070","149-BY","2018/03/26 20:19:17","新北市永和區永亨路31號","121.519691666667","25.00615","6500400","永和區"
"234007","207-UY","2018/03/26 20:19:14","新北市永和區保順路11號","121.504398333333","25.00974","6500400","永和區"
"234081","298-R6","2018/03/26 20:19:12","新北市永和區國中路132巷4號","121.523671666667","25.0070983333333","6500400","永和區"
"234038","336-UY","2018/03/26 20:19:18","新北市永和區成功路一段93巷20弄7號","121.528363333333","25.002595","6500400","永和區"
"234064","337-UY","2018/03/26 20:19:04","新北市永和區得和路120號","121.518555","25.0001783333333","6500400","永和區"
"234086","338-UY","2018/03/26 20:19:21","新北市永和區永和路二段50號","121.514723333333","25.0108616666667","6500400","永和區"
"234017","745-BX","2018/03/26 20:19:11","新北市永和區永和路二段185號","121.51517","25.013515","6500400","永和區"
"234030","746-BX","2018/03/26 20:19:23","新北市永和區民有街75巷10弄1號","121.518333333333","24.9961933333333","6500400","永和區"
"234054","KEA-2590","2018/03/26 20:19:23","新北市永和區光復街2巷18號","121.517133333333","25.0166333333333","6500400","永和區"
"234013","KEA-2591","2018/03/26 20:19:20","新北市永和區保生路40巷1號","121.505831666667","25.0083683333333","6500400","永和區"
"234061","AAD-866","2018/03/26 20:19:11","新北市永和區得和路12號","121.515176666667","25.0005483333333","6500400","永和區"
"234042","862-TW","2018/03/26 20:19:16","新北市中和區中安街168號","121.510868333333","24.9998983333333","6500400","永和區"
"234050","863-TW","2018/03/26 20:19:16","新北市永和區新生路28巷16號","121.508311666667","25.0162666666667","6500400","永和區"
"234026","9371-KE","2018/03/26 20:19:15","新北市永和區保生路55號","121.504551666667","25.0107583333333","6500400","永和區"
"249005","172-UM","2018/03/26 20:19:20","新北市八里區下罟子6-3號","121.386301666667","25.1412666666667","6502300","八里區"
"249001","173-UM","2018/03/26 20:19:16","新北市八里區中華路二段538-1號","121.399033333333","25.145065","6502300","八里區"
"249004","303-UY","2018/03/26 20:19:18","新北市八里區中山路一段129巷1號","121.413563333333","25.1590983333333","6502300","八里區"
"249002","305-UY","2018/03/26 20:19:13","新北市八里區龍米路一段100巷3號","121.453555","25.125075","6502300","八里區"
"249003","593-UM","2018/03/26 20:19:20","新北市八里區中山路二段447巷23號","121.397536666667","25.14525","6502300","八里區"
"248014","025-BX","2018/03/26 20:19:08","新北市八里區商港路96號","121.394411666667","25.1476833333333","6501500","五股區"
"248016","026-BX","2018/03/26 20:19:18","新北市五股區凌雲路一段158巷44號","121.447135","25.1038216666667","6501500","五股區"
"248018","225-UY","2018/03/26 20:19:19","新北市五股區自強路135號","121.432215","25.0697133333333","6501500","五股區"
"248012","247-BX","2018/03/26 20:19:13","新北市五股區六合街42號","121.432793333333","25.0894016666667","6501500","五股區"
"248004","677-BX","2018/03/26 20:19:03","新北市五股區成泰路二段100號","121.43757","25.08281","6501500","五股區"
"248002","678-BX","2018/03/26 20:19:07","新北市五股區成泰路三段165號","121.445201666667","25.0918483333333","6501500","五股區"
"234023","9380-KE","2018/03/26 20:19:12","新北市永和區勵行街36號","121.516475","25.0138166666667","6500400","永和區"
"234077","969-R7","2018/03/26 20:19:20","新北市永和區民享街10號","121.515261666667","24.99531","6500400","永和區"
"234074","AAC-211","2018/03/26 20:19:20","新北市永和區豫溪街160巷4號","121.523285","25.0095116666667","6500400","永和區"
"234067","AAC-212","2018/03/26 20:19:14","新北市永和區保平路270號","121.508631666667","25.0051566666667","6500400","永和區"
"234003","AAC-295","2018/03/26 20:19:24","新北市永和區自強街19巷3號","121.514665","25.0084516666667","6500400","永和區"
"243012","AAD-798","2018/03/26 20:19:16","新北市泰山區楓江路47號","121.4354","25.0625716666667","6501600","泰山區"
"243011","297-R6","2018/03/26 20:19:03","新北市泰山區貴陽街16巷5弄6號","121.422408333333","25.0320883333333","6501600","泰山區"
"243015","380-SR","2018/03/26 20:19:18","新北市泰山區泰林路二段65號","121.435305","25.0579566666667","6501600","泰山區"
"243014","421-VK","2018/03/26 20:19:22","新北市泰山區泰林路二段433號","121.4262","25.0639933333333","6501600","泰山區"
"243010","KEA-2215","2018/03/26 20:19:25","新北市泰山區明志路二段273巷2號","121.427018333333","25.0471266666667","6501600","泰山區"
"243009","KEA-2216","2018/03/26 20:19:19","新北市泰山區泰林路二段306巷4號","121.43092","25.0632083333333","6501600","泰山區"
"243013","646-TV","2018/03/26 20:19:10","新北市泰山區中央路5巷17弄5號","121.427213333333","25.0438116666667","6501600","泰山區"
"243016","680-BX","2018/03/26 20:19:18","新北市泰山區明志路三段128號","121.424868333333","25.04022","6501600","泰山區"
"222003","436-BY","2018/03/26 20:19:18","新北市深坑區文化街43號","121.617711666667","25.00188","6501800","深坑區"
"222002","659-BX","2018/03/26 20:19:09","新北市深坑區萬福路57號","121.60058","25.0076383333333","6501800","深坑區"
"231041","002-UM","2018/03/26 20:19:08","新北市新店區民權路42號","121.540406666667","24.982985","6500600","新店區"
"231059","046-UY","2018/03/26 20:19:07","新北市新店區安康路二段234巷27號","121.508881666667","24.9604666666667","6500600","新店區"
"231061","047-UY","2018/03/26 20:19:24","新北市新店區安興路32號","121.515766666667","24.9703716666667","6500600","新店區"
"231060","106-UY","2018/03/26 20:19:08","新北市新店區錦秀路11巷90弄2號","121.480398333333","24.94315","6500600","新店區"
"231051","107-UY","2018/03/26 20:19:09","新北市新店區中央六街51號","121.528228333333","24.975705","6500600","新店區"
"231047","108-UY","2018/03/26 20:19:10","新北市新店區寶橋路132號","121.547346666667","24.9760883333333","6500600","新店區"
"231064","110-UY","2018/03/26 20:19:13","新北市新店區安利街26號","121.519201666667","24.974635","6500600","新店區"
"231052","187-VK","2018/03/26 20:19:12","新北市新店區松林路9號","121.547278333333","24.91074","6500600","新店區"
"231050","KEA-2219","2018/03/26 20:19:20","新北市新店區中正路195號","121.54045","24.97245","6500600","新店區"
"231057","256-BX","2018/03/26 20:19:22","新北市新店區花園五路二段15號","121.554126666667","24.9345133333333","6500600","新店區"
"231054","AAD-862","2018/03/26 20:19:15","新北市新店區檳榔路109號","121.544471666667","24.9616466666667","6500600","新店區"
"231058","3712-VJ","2018/03/26 20:19:18","新北市新店區中正路360號","121.535525","24.975875","6500600","新店區"
"231056","3713-VJ","2018/03/26 20:19:13","新北市新店區中正路275巷45號","121.536718333333","24.972625","6500600","新店區"
"231055","4716-K9","2018/03/26 20:19:19","新北市新店區北新路一段297巷27號","121.540485","24.9680583333333","6500600","新店區"
"231067","4772-VM","2018/03/26 20:19:23","新北市新店區溪洲路30號","121.53346","24.9610416666667","6500600","新店區"
"231049","513-UM","2018/03/26 20:19:03","新北市新店區環河路18號","121.537336666667","24.9614416666667","6500600","新店區"
"231045","617-UM","2018/03/26 20:19:18","新北市新店區新坡一街80-3號","121.547308333333","24.9642083333333","6500600","新店區"
"231040","619-UM","2018/03/26 20:19:09","新北市新店區三民路15號","121.539721666667","24.9723216666667","6500600","新店區"
"231042","641-BX","2018/03/26 20:19:23","新北市新店區寶高路13號","121.552103333333","24.9777033333333","6500600","新店區"
"231063","645-TV","2018/03/26 20:19:16","新北市新店區薏仁坑路23號","121.498156666667","24.9590233333333","6500600","新店區"
"231068","718-UY","2018/03/26 20:19:07","新北市新店區寶安街30號","121.542088333333","24.9823816666667","6500600","新店區"
"231065","719-UY","2018/03/26 20:19:06","新北市新店區安祥路106巷108號","121.474021666667","24.9591116666667","6500600","新店區"
"231062","720-UM","2018/03/26 20:19:05","新北市新店區安泰路7巷16號","121.485668333333","24.950995","6500600","新店區"
"231044","897-TW","2018/03/26 20:19:24","新北市新店區北新路三段196號","121.541493333333","24.983315","6500600","新店區"
"231043","899-TW","2018/03/26 20:19:05","新北市新店區建國路133號","121.539381666667","24.9782083333333","6500600","新店區"
"231066","AKT-0513","2018/03/26 20:19:11","新北市新店區安民街341-1號","121.516828333333","24.9749216666667","6500600","新店區"
"241011","013-R5","2018/03/26 20:19:21","新北市三重區龍門路212號","121.499968333333","25.0734833333333","6500200","三重區"
"241028","022-UY","2018/03/26 20:19:13","新北市三重區大同南路162號","121.49668","25.0574916666667","6500200","三重區"
"241008","059-VK","2018/03/26 20:19:18","新北市三重區永福街211巷1號","121.479815","25.0741666666667","6500200","三重區"
"241009","060-VK","2018/03/26 20:19:14","新北市三重區三和路四段382巷2號","121.481921666667","25.07858","6500200","三重區"
"241031","061-VK","2018/03/26 20:19:19","新北市三重區三寧街25號","121.489593333333","25.059835","6500200","三重區"
"241015","062-VK","2018/03/26 20:19:21","新北市三重區重新路一段118號","121.500523333333","25.06303","6500200","三重區"
"241017","063-VK","2018/03/26 20:19:18","新北市三重區自強路一段290號","121.491435","25.0682783333333","6500200","三重區"
"241024","065-VK","2018/03/26 20:19:08","新北市三重區忠孝路三段23號","121.481285","25.0674466666667","6500200","三重區"
"241026","066-VK","2018/03/26 20:19:17","新北市三重區中央南路85號","121.501503333333","25.06071","6500200","三重區"
"241002","090-VK","2018/03/26 20:19:07","新北市三重區仁義街101巷44號","121.499236666667","25.0808383333333","6500200","三重區"
"241003","091-VK","2018/03/26 20:19:10","新北市三重區富華街82號","121.490795","25.0833216666667","6500200","三重區"
"241005","262-UM","2018/03/26 20:19:16","新北市三重區仁愛街502號","121.488083333333","25.0820983333333","6500200","三重區"
"241016","265-UM","2018/03/26 20:19:23","新北市三重區大同北路97-3號","121.494376666667","25.0635166666667","6500200","三重區"
"241022","267-UM","2018/03/26 20:19:23","新北市三重區市前街14號","121.489158333333","25.06241","6500200","三重區"
"241018","268-UM","2018/03/26 20:19:21","新北市三重區正義北路154號","121.496503333333","25.066385","6500200","三重區"
"241032","269-UM","2018/03/26 20:19:11","新北市三重區捷運路19巷6弄21號","121.484308333333","25.0568366666667","6500200","三重區"
"241013","270-UM","2018/03/26 20:19:21","新北市三重區三和路三段167巷21號","121.49273","25.0743183333333","6500200","三重區"
"241025","271-UM","2018/03/26 20:19:23","新北市三重區三民街272巷2號","121.478848333333","25.0679733333333","6500200","三重區"
"241007","398-BY","2018/03/26 20:19:19","新北市三重區仁美街55-1號","121.486903333333","25.078135","6500200","三重區"
"241035","KEA-2210","2018/03/26 20:19:16","新北市三重區正義北路33巷22號","121.49823","25.0638116666667","6500200","三重區"
"241004","475-VK","2018/03/26 20:19:02","新北市三重區仁政街198號","121.490585","25.0803416666667","6500200","三重區"
"241030","480-VK","2018/03/26 20:19:16","新北市三重區環河南路254巷55號","121.487978333333","25.0523516666667","6500200","三重區"
"241014","543-UM","2018/03/26 20:19:14","新北市三重區長榮路121號","121.503633333333","25.0692866666667","6500200","三重區"
"241023","545-UM","2018/03/26 20:19:11","新北市三重區忠孝路三段99巷13號","121.47981","25.0646683333333","6500200","三重區"
"241001","547-UM","2018/03/26 20:19:24","新北市三重區自強路四段3巷23號","121.489658333333","25.0763333333333","6500200","三重區"
"241033","557-UM","2018/03/26 20:19:08","新北市三重區五谷王北街77號","121.475763333333","25.0500683333333","6500200","三重區"
"241019","887-TS","2018/03/26 20:19:18","新北市三重區忠孝路一段62號","121.490446666667","25.07196","6500200","三重區"
"241012","941-UM","2018/03/26 20:19:16","新北市三重區河邊北街379-1號","121.501721666667","25.076475","6500200","三重區"
"241029","942-UM","2018/03/26 20:19:22","新北市三重區光明路114號","121.492711666667","25.056085","6500200","三重區"
"235066","003-UY","2018/03/26 20:19:10","新北市中和區光華街59-1號","121.506421666667","25.0034366666667","6500300","中和區"
"235039","097-UM","2018/03/26 20:19:12","新北市中和區自強路60號","121.520145","24.9944383333333","6500300","中和區"
"235065","098-UM","2018/03/26 20:19:18","新北市中和區永和路55號","121.497041666667","25.005425","6500300","中和區"
"235068","377-QA","2018/03/26 20:19:22","新北市中和區福祥路83號","121.499121666667","25.0058016666667","6500300","中和區"
"235050","4979-A6","2018/03/26 20:19:14","新北市中和區景平路466號","121.50566","24.9934583333333","6500300","中和區"
"235069","4980-A6","2018/03/26 20:19:16","新北市中和區圓通路196號","121.49626","24.994505","6500300","中和區"
"235026","800-TS","2018/03/26 20:19:07","新北市中和區員山路36巷16-3號","121.484831666667","24.99171","6500300","中和區"
"235059","AAC-215","2018/03/26 20:19:14","新北市中和區員山路30-2號","121.483231666667","24.987895","6500300","中和區"
"247024","893-R6","2018/03/26 20:19:16","新北市蘆洲區光榮路120巷8弄41號","121.464535","25.0878833333333","6501400","蘆洲區"
"247014","546-UM","2018/03/26 20:19:13","新北市蘆洲區中山二路137巷19號","121.472303333333","25.081055","6501400","蘆洲區"
"247022","500-BY","2018/03/26 20:19:11","新北市蘆洲區中正路192巷11號","121.467541666667","25.088475","6501400","蘆洲區"
"247010","341-TH","2018/03/26 20:19:06","新北市蘆洲區信義路222巷32弄16號","121.480501666667","25.0846633333333","6501400","蘆洲區"
"247012","339-TH","2018/03/26 20:19:02","新北市蘆洲區中興街55號","121.481416666667","25.0873166666667","6501400","蘆洲區"
"247004","337-TH","2018/03/26 20:19:19","新北市蘆洲區長安街222號","121.45837","25.0854166666667","6501400","蘆洲區"
"247006","336-TH","2018/03/26 20:19:08","新北市蘆洲區九芎街140號","121.464856666667","25.0789483333333","6501400","蘆洲區"
"247018","057-VK","2018/03/26 20:19:15","新北市蘆洲區民族路408巷16號","121.475015","25.092135","6501400","蘆洲區"
"247002","053-VK","2018/03/26 20:19:22","新北市蘆洲區環堤大道98號","121.455336666667","25.0863583333333","6501400","蘆洲區"
"247016","007-UY","2018/03/26 20:19:20","新北市蘆洲區光華路186巷38號","121.465008333333","25.0833116666667","6501400","蘆洲區"
"247020","001-UY","2018/03/26 20:19:13","新北市蘆洲區仁愛街25號","121.472301666667","25.09271","6501400","蘆洲區"
"222001","KEA-2212","2018/03/26 20:19:19","新北市深坑區北深路三段248號","121.600018333333","25.0044766666667","6501800","深坑區"
"251004","009-UM","2018/03/26 20:19:09","新北市淡水區民權路131號","121.460158333333","25.1367316666667","6501000","淡水區"
"251002","012-UM","2018/03/26 20:19:17","新北市淡水區中正路63號","121.441331666667","25.1695283333333","6501000","淡水區"
"251013","179-VK","2018/03/26 20:19:07","新北市淡水區水汴頭4-3號","121.47517","25.2044766666667","6501000","淡水區"
"251014","180-VK","2018/03/26 20:19:10","新北市淡水區石頭厝3號","121.458706666667","25.2355533333333","6501000","淡水區"
"251008","181-VK","2018/03/26 20:19:18","新北市淡水區淡海路150巷17號","121.422223333333","25.184205","6501000","淡水區"
"251015","182-VK","2018/03/26 20:19:10","新北市淡水區淡金路三段461巷11-3號","121.450635","25.2138083333333","6501000","淡水區"
"251010","413-VK","2018/03/26 20:19:24","新北市淡水區新民街一段155號","121.427428333333","25.188905","6501000","淡水區"
"251012","441-VK","2018/03/26 20:19:10","新北市淡水區下圭柔山431-1號","121.449795","25.2102083333333","6501000","淡水區"
"251016","442-VK","2018/03/26 20:19:11","新北市淡水區淡金路五段20號","121.45337","25.2324283333333","6501000","淡水區"
"251006","561-UM","2018/03/26 20:19:20","新北市淡水區淡金路一段571號","121.452533333333","25.1804783333333","6501000","淡水區"
"251003","766-UM","2018/03/26 20:19:13","新北市淡水區中山北路一段229號","121.444501666667","25.1794833333333","6501000","淡水區"
"207004","225-TW","2018/03/26 20:19:23","新北市萬里區北基里大仁路10號","121.682503333333","25.1754966666667","6502800","萬里區"
"252002","178-VK","2018/03/26 20:19:05","新北市三芝區中正路一段23號","121.502966666667","25.2586033333333","6502100","三芝區"
"252001","292-VK","2018/03/26 20:19:15","新北市三芝區中山路一段14號","121.500733333333","25.25797","6502100","三芝區"
"237012","275-BY","2018/03/26 20:19:22","新北市三峽區中華路76-2號","121.371488333333","24.92888","6500900","三峽區"
"237006","5529-G3","2018/03/26 20:19:16","新北市三峽區中正路二段39號","121.366768333333","24.9188716666667","6500900","三峽區"
"237005","AKY-6261","2018/03/26 20:19:10","新北市三峽區三樹路98巷74弄91號","121.385043333333","24.9384566666667","6500900","三峽區"
"236069","105-UM","2018/03/26 20:19:16","新北市土城區亞洲路59號","121.433246666667","24.9709","6501300","土城區"
"236078","166-UM","2018/03/26 20:19:22","新北市土城區金安街48巷13號","121.420416666667","24.9654583333333","6501300","土城區"
"236030","253-BX","2018/03/26 20:19:13","新北市土城區學成路128巷11號","121.449501666667","24.9901333333333","6501300","土城區"
"236026","269-VK","2018/03/26 20:19:10","新北市土城區裕生路86巷3號","121.44677","24.985225","6501300","土城區"
"236014","270-VK","2018/03/26 20:19:05","新北市土城區廣明街90巷4號","121.455071666667","24.994335","6501300","土城區"
"236036","271-VK","2018/03/26 20:19:06","新北市土城區明德路一段211號","121.463455","24.9786983333333","6501300","土城區"
"236020","401-BY","2018/03/26 20:19:21","新北市土城區延吉街41號","121.472391666667","24.988035","6501300","土城區"
"236058","912-UM","2018/03/26 20:19:26","新北市土城區中央路三段32號","121.438521666667","24.9690166666667","6501300","土城區"
"236062","915-UM","2018/03/26 20:19:08","新北市土城區延和路18巷12號","121.464445","24.9879633333333","6501300","土城區"
"242034","AAC-296","2018/03/26 20:18:32","新北市新莊區建中街90巷5弄3號","121.446608333333","25.0373383333333","6500500","新莊區"
"242058","986-R7","2018/03/26 20:19:15","新北市新莊區四維路213號","121.421658333333","25.0200016666667","6500500","新莊區"
"242053","751-BX","2018/03/26 20:19:18","新北市新莊區民安西路267號","121.426535","25.0128933333333","6500500","新莊區"
"242029","705-TV","2018/03/26 20:19:21","新北市新莊區中港路635號","121.451061666667","25.0543133333333","6500500","新莊區"
"242025","615-BX","2018/03/26 20:19:13","新北市新莊區幸福路552號","121.45493","25.049355","6500500","新莊區"
"242025","613-BX","2018/03/26 20:19:06","新北市新莊區五工二路70巷7號","121.460531666667","25.066185","6500500","新莊區"
"242042","566-BX","2018/03/26 20:19:10","新北市新莊區壽山路69號","121.410036666667","25.0327166666667","6500500","新莊區"
"242046","497-BY","2018/03/26 20:19:12","新北市新莊區中正路新生巷33號","121.417151666667","25.0235433333333","6500500","新莊區"
"242002","442-UM","2018/03/26 20:19:15","新北市新莊區化成路15號","121.464981666667","25.0434033333333","6500500","新莊區"
"242050","441-UM","2018/03/26 20:18:54","新北市新莊區民安西路189巷10弄2號","121.426165","25.015275","6500500","新莊區"
"242056","440-UM","2018/03/26 20:19:13","新北市新莊區豐年街28巷27號","121.445258333333","25.0321966666667","6500500","新莊區"
"242036","415-TV","2018/03/26 20:19:17","新北市新莊區後港一路56巷24弄9號","121.426246666667","25.0252066666667","6500500","新莊區"
"242044","400-BY","2018/03/26 20:19:23","新北市新莊區中正路新建巷28弄69號","121.41393","25.0208783333333","6500500","新莊區"
"242023","362-BY","2018/03/26 20:19:22","新北市新莊區化成路816號","121.464938333333","25.05985","6500500","新莊區"
"242060","353-BY","2018/03/26 20:19:13","新北市新莊區新樹路172-13號","121.434618333333","25.0217466666667","6500500","新莊區"
"242009","132-UY","2018/03/26 20:19:20","新北市新莊區昌隆街62號","121.455016666667","25.0509966666667","6500500","新莊區"
"242039","133-UY","2018/03/26 20:19:10","新北市新莊區成功街83巷2號","121.42462","25.01954","6500500","新莊區"
"242031","135-UY","2018/03/26 20:19:19","新北市新莊區三和路17-9號","121.439918333333","25.03725","6500500","新莊區"
"242048","172-VK","2018/03/26 20:05:34","新北市新莊區建安街76巷1弄16號","121.425923333333","25.0244366666667","6500500","新莊區"
"242017","175-VK","2018/03/26 20:19:10","新北市新莊區中港一街93號","121.449293333333","25.0452866666667","6500500","新莊區"
"242004","176-VK","2018/03/26 20:19:10","新北市新莊區頭前路15巷2號","121.46791","25.0522066666667","6500500","新莊區"
"242015","346-TH","2018/03/26 20:19:18","新北市新莊區永樂街228號","121.446398333333","25.044445","6500500","新莊區"
"242021","348-TH","2018/03/26 20:19:06","新北市新莊區復興路一段9號","121.445698333333","25.0416416666667","6500500","新莊區"
"242019","350-TH","2018/03/26 20:19:10","新北市新莊區銘德街24號","121.458591666667","25.0437683333333","6500500","新莊區"
"242013","351-TH","2018/03/26 20:19:06","新北市新莊區中和街186巷39號","121.448536666667","25.0499333333333","6500500","新莊區"
"221008","489-VK","2018/03/26 20:19:06","新北市汐止區康寧街362號","121.628583333333","25.0676683333333","6501100","汐止區"
"221036","130-UY","2018/03/26 20:19:19","新北市汐止區仁愛路152巷27號","121.664835","25.06381","6501100","汐止區"
"221015","131-UY","2018/03/26 20:19:21","新北市汐止區建成路142巷21號","121.662285","25.07393","6501100","汐止區"
"221010","269-BY","2018/03/26 20:19:04","新北市汐止區八連路二段450號","121.628575","25.1051283333333","6501100","汐止區"
"221012","278-VK","2018/03/26 20:19:14","新北市汐止區保新街158號","121.689543333333","25.0682066666667","6501100","汐止區"
"221023","279-VK","2018/03/26 20:19:22","新北市汐止區明峰街125號","121.630775","25.0710283333333","6501100","汐止區"
"221032","280-BY","2018/03/26 20:19:20","新北市汐止區民權街二段70號","121.619026666667","25.04822","6501100","汐止區"
"221027","281-BY","2018/03/26 20:19:15","新北市汐止區水源路一段3號","121.65713","25.0671733333333","6501100","汐止區"
"221029","298-VK","2018/03/26 20:19:17","新北市汐止區工建路90號","121.639696666667","25.0633183333333","6501100","汐止區"
"221021","299-VK","2018/03/26 20:19:18","新北市汐止區水源路一段274號","121.654248333333","25.0585516666667","6501100","汐止區"
"221031","353-TW","2018/03/26 20:19:17","新北市汐止區中興路150巷13號","121.632975","25.065005","6501100","汐止區"
"221035","622-UM","2018/03/26 20:19:15","新北市汐止區長江街101-5號","121.658656666667","25.0732083333333","6501100","汐止區"
"221025","623-UM","2018/03/26 20:19:17","新北市汐止區水源路二段30號","121.654791666667","25.05732","6501100","汐止區"
"221038","646-BX","2018/03/26 20:19:13","新北市汐止區忠孝東路462巷20號","121.666535","25.0736683333333","6501100","汐止區"
"221033","647-BX","2018/03/26 20:19:04","新北市汐止區東勢街215巷3弄1號","121.634313333333","25.0428733333333","6501100","汐止區"
"221002","707-TV","2018/03/26 20:19:25","新北市汐止區福德三路75號","121.636358333333","25.069195","6501100","汐止區"
"221018","753-BX","2018/03/26 20:19:12","新北市汐止區茄安路12號","121.673075","25.0677783333333","6501100","汐止區"
"220101","245-BX","2018/03/26 20:19:07","新北市板橋區雙十路二段167號","121.474033333333","25.0284183333333","6500100","板橋區"
"220083","286-VK","2018/03/26 20:19:09","新北市板橋區僑中二街102巷14號","121.445538333333","25.0084283333333","6500100","板橋區"
"220081","287-VK","2018/03/26 20:18:57","新北市板橋區僑中一街80巷7弄1號","121.447711666667","25.0127316666667","6500100","板橋區"
"220061","293-UM","2018/03/26 20:19:19","新北市板橋區四川路一段286巷17號","121.4579","25.00118","6500100","板橋區"
"242011","281-VK","2018/03/26 20:19:18","新北市新莊區中信街21號","121.451058333333","25.050775","6500500","新莊區"
"220103","561-BX","2018/03/26 20:19:21","新北市板橋區陽明街279巷23號","121.461235","25.0256766666667","6500100","板橋區"
"220055","568-UM","2018/03/26 20:19:17","新北市板橋區仁愛路62巷15弄14號","121.460615","24.998505","6500100","板橋區"
"220102","KEA-2699","2018/03/26 20:19:08","新北市板橋區板新路238號","121.467846666667","25.0163366666667","6500100","板橋區"
"220089","833-TW","2018/03/26 20:19:12","新北市板橋區四維路229號","121.463805","25.027335","6500100","板橋區"
"220097","AAC-210","2018/03/26 20:19:14","新北市板橋區光正街45巷6弄2號","121.46162","25.017065","6500100","板橋區"
"220070","AAC-253","2018/03/26 20:19:21","新北市板橋區四川路二段245巷12-2號","121.45094","24.99308","6500100","板橋區"
