"lineid","car","time","location","longitude","latitude","cityid","cityname"
"234050","863-TW","2018/03/26 21:09:36","新北市林口區汕頭32號","121.366673333333","25.1351666666667","6500400","永和區"
"231059","046-UY","2018/03/26 21:09:27","新北市新店區僑義路1-3號","121.499975","24.952235","6500600","新店區"
"231061","047-UY","2018/03/26 21:09:24","新北市新店區永平街16巷1號","121.516863333333","24.9836516666667","6500600","新店區"
"231060","106-UY","2018/03/26 21:09:28","新北市新店區安康路二段382號","121.50045","24.9571766666667","6500600","新店區"
"231051","107-UY","2018/03/26 21:09:29","新北市新店區中正路618巷7弄14號","121.534631666667","24.9895016666667","6500600","新店區"
"231047","108-UY","2018/03/26 21:09:30","新北市新店區寶強路1號","121.542858333333","24.9789316666667","6500600","新店區"
"231050","KEA-2219","2018/03/26 21:09:00","新北市新店區中華路64號","121.5392","24.9689866666667","6500600","新店區"
"231054","AAD-862","2018/03/26 21:09:35","新北市新店區大新街7巷8號","121.543598333333","24.9682583333333","6500600","新店區"
"231067","4772-VM","2018/03/26 21:09:23","新北市新店區薏仁坑路23號","121.497643333333","24.9588966666667","6500600","新店區"
"231040","619-UM","2018/03/26 21:09:29","新北市新店區北新路一段353號","121.541975","24.9696666666667","6500600","新店區"
"231063","645-TV","2018/03/26 21:09:36","新北市新店區玫瑰路58巷1號","121.49541","24.9465283333333","6500600","新店區"
"231065","719-UY","2018/03/26 21:09:38","新北市新店區安祥路69巷41弄13號","121.482015","24.9608383333333","6500600","新店區"
"241011","013-R5","2018/03/26 21:09:42","新北市三重區龍濱路120-1號","121.501966666667","25.0710233333333","6500200","三重區"
"241028","022-UY","2018/03/26 21:09:33","新北市三重區正義南路47號","121.498196666667","25.0606766666667","6500200","三重區"
"241008","059-VK","2018/03/26 21:09:18","新北市三重區長壽街2-2號","121.498426666667","25.0677566666667","6500200","三重區"
"241009","060-VK","2018/03/26 21:09:34","新北市三重區忠孝路二段122號","121.483026666667","25.0688233333333","6500200","三重區"
"241031","061-VK","2018/03/26 21:09:39","新北市三重區重新路五段426號","121.475281666667","25.0474983333333","6500200","三重區"
"241015","062-VK","2018/03/26 21:09:30","新北市三重區長元街96-5號","121.502656666667","25.0666216666667","6500200","三重區"
"241017","063-VK","2018/03/26 21:09:18","新北市三重區大仁街23號","121.492091666667","25.0645233333333","6500200","三重區"
"241024","065-VK","2018/03/26 21:09:28","新北市三重區大勇街82巷15弄30號","121.481215","25.0719066666667","6500200","三重區"
"241026","066-VK","2018/03/26 21:09:37","新北市三重區文化南路42號","121.500421666667","25.0602666666667","6500200","三重區"
"241002","090-VK","2018/03/26 21:09:07","新北市三重區五華街19-1號","121.494866666667","25.0804083333333","6500200","三重區"
"241003","091-VK","2018/03/26 21:09:30","新北市三重區仁義街347號","121.494888333333","25.0850283333333","6500200","三重區"
"241005","262-UM","2018/03/26 21:09:36","新北市三重區三信路11號","121.48827","25.0862133333333","6500200","三重區"
"241016","265-UM","2018/03/26 21:09:23","新北市三重區信義西街138號","121.495671666667","25.064385","6500200","三重區"
"241022","267-UM","2018/03/26 21:09:23","新北市三重區中正北路64巷24號","121.486091666667","25.0637466666667","6500200","三重區"
"241018","268-UM","2018/03/26 21:09:21","新北市三重區正義北路338巷2號","121.494243333333","25.0706066666667","6500200","三重區"
"241032","269-UM","2018/03/26 21:09:31","新北市三重區新北大道二段166號","121.469003333333","25.0615666666667","6500200","三重區"
"241013","270-UM","2018/03/26 21:09:41","新北市三重區仁愛街80號","121.49568","25.0734583333333","6500200","三重區"
"241025","271-UM","2018/03/26 21:09:19","新北市三重區中正北路208巷10弄4號","121.482436666667","25.0669666666667","6500200","三重區"
"241007","398-BY","2018/03/26 21:09:38","新北市三重區三和路四段145巷85號","121.48642","25.0788316666667","6500200","三重區"
"241004","475-VK","2018/03/26 21:09:42","新北市三重區仁愛街423-1號","121.490385","25.0815033333333","6500200","三重區"
"241030","480-VK","2018/03/26 21:09:36","新北市三重區五谷王北街20巷15弄1號","121.475056666667","25.0485116666667","6500200","三重區"
"241014","543-UM","2018/03/26 21:09:34","新北市三重區安和路1號","121.501301666667","25.0677716666667","6500200","三重區"
"241023","545-UM","2018/03/26 21:09:30","新北市三重區忠孝路三段50巷41弄42號","121.482391666667","25.0638766666667","6500200","三重區"
"241001","547-UM","2018/03/26 21:09:24","新北市三重區福隆路10號","121.490138333333","25.0773316666667","6500200","三重區"
"241033","557-UM","2018/03/26 21:09:28","新北市三重區中興北街246號","121.468941666667","25.0624816666667","6500200","三重區"
"241006","AAD-863","2018/03/26 21:09:38","新北市三重區中正北路2號","121.489373333333","25.0631","6500200","三重區"
"241019","887-TS","2018/03/26 21:09:38","新北市三重區自強路二段74巷23-1號","121.487898333333","25.069845","6500200","三重區"
"241012","941-UM","2018/03/26 21:09:36","新北市三重區河邊北街238-1號","121.501756666667","25.075695","6500200","三重區"
"241029","942-UM","2018/03/26 21:09:22","新北市三重區正義南路107號","121.498205","25.0585483333333","6500200","三重區"
"247024","893-R6","2018/03/26 21:09:36","新北市蘆洲區長興路50巷1號","121.463795","25.0838233333333","6501400","蘆洲區"
"247014","546-UM","2018/03/26 21:09:33","新北市蘆洲區中央路155號","121.472641666667","25.08475","6501400","蘆洲區"
"247022","500-BY","2018/03/26 21:09:31","新北市蘆洲區民族路431號","121.468008333333","25.0890983333333","6501400","蘆洲區"
"247010","341-TH","2018/03/26 21:09:26","新北市蘆洲區鷺江街71號","121.477066666667","25.083045","6501400","蘆洲區"
"247012","339-TH","2018/03/26 21:09:22","新北市蘆洲區民族路26號","121.47623","25.08426","6501400","蘆洲區"
"247004","337-TH","2018/03/26 21:09:39","新北市蘆洲區永安南路二段276號","121.458018333333","25.080925","6501400","蘆洲區"
"247006","336-TH","2018/03/26 21:09:28","新北市蘆洲區永安南路二段16巷18-1號","121.46824","25.0779316666667","6501400","蘆洲區"
"247018","057-VK","2018/03/26 21:09:39","新北市蘆洲區民族路406號","121.474726666667","25.091605","6501400","蘆洲區"
"247008","056-VK","2018/03/26 21:09:36","新北市蘆洲區民生街49-1號","121.475151666667","25.0786783333333","6501400","蘆洲區"
"247016","007-UY","2018/03/26 21:09:40","新北市蘆洲區中正路185巷47號","121.465631666667","25.083965","6501400","蘆洲區"
"247020","001-UY","2018/03/26 21:09:34","新北市蘆洲區民族路436巷7號","121.472825","25.0928666666667","6501400","蘆洲區"
"251009","008-UM","2018/03/26 21:09:25","新北市淡水區民族路112巷57號","121.462056666667","25.13432","6501000","淡水區"
"251004","009-UM","2018/03/26 21:08:44","新北市淡水區自強路120巷7號","121.464356666667","25.132555","6501000","淡水區"
"251005","010-UM","2018/03/26 21:09:38","新北市淡水區博愛街47-1號","121.44681","25.1690416666667","6501000","淡水區"
"251001","011-UM","2018/03/26 21:08:23","新北市淡水區新市一路三段101巷16弄3號","121.446508333333","25.1839283333333","6501000","淡水區"
"251002","012-UM","2018/03/26 21:09:37","新北市淡水區學府路172巷21號","121.448291666667","25.174895","6501000","淡水區"
"251013","179-VK","2018/03/26 21:09:26","新北市淡水區行忠路328號","121.46047","25.1996516666667","6501000","淡水區"
"251014","180-VK","2018/03/26 21:09:29","新北市淡水區六塊厝1-1號","121.449508333333","25.2427783333333","6501000","淡水區"
"251015","182-VK","2018/03/26 21:09:24","新北市淡水區淡金路四段542巷59號","121.45479","25.2269633333333","6501000","淡水區"
"251010","413-VK","2018/03/26 21:09:34","新北市淡水區中正路一段63巷9號","121.422493333333","25.177045","6501000","淡水區"
"251012","441-VK","2018/03/26 21:09:29","新北市淡水區淡金路五段172號","121.45705","25.2400533333333","6501000","淡水區"
"251016","442-VK","2018/03/26 21:09:30","新北市淡水區前洲子11號","121.442003333333","25.218935","6501000","淡水區"
"251011","650-BX","2018/03/26 21:09:18","新北市淡水區新民街120巷45弄36號","121.437668333333","25.1797583333333","6501000","淡水區"
"251003","766-UM","2018/03/26 21:09:32","新北市淡水區新春街125巷51號","121.4405","25.18286","6501000","淡水區"
"221029","298-VK","2018/03/26 21:09:36","新北市汐止區汐萬路一段256巷1號","121.651723333333","25.074785","6501100","汐止區"
"220070","AAC-253","2018/03/26 21:09:41","新北市八里區中山路三段390號","121.36826","25.1350266666667","6500100","板橋區"
