"lineid","car","time","location","longitude","latitude","cityid","cityname"
"234050","863-TW","2018/03/26 22:09:35","新北市永和區保安路2號","121.510755","25.01753","6500400","永和區"
"235010","733-UM","2018/03/26 21:42:26","新北市中和區員山路36巷13號","121.484163333333","24.9907933333333","6500300","中和區"
"247010","341-TH","2018/03/26 22:09:46","新北市林口區太平里180號","121.368091666667","25.133975","6501400","蘆洲區"
"251004","009-UM","2018/03/26 21:47:23","新北市淡水區自強路201巷39號","121.462215","25.1268116666667","6501000","淡水區"
"251008","181-VK","2018/03/26 22:09:38","新北市淡水區學府路104號","121.449833333333","25.1717683333333","6501000","淡水區"
"251010","413-VK","2018/03/26 22:09:44","新北市淡水區沙崙路200號","121.424736666667","25.183905","6501000","淡水區"
"251007","577-R6","2018/03/26 22:09:44","新北市淡水區北新路137號","121.449503333333","25.17883","6501000","淡水區"
"251011","650-BX","2018/03/26 22:09:38","新北市淡水區水碓街15-1號","121.44324","25.1771833333333","6501000","淡水區"
"251003","766-UM","2018/03/26 22:09:33","新北市淡水區中山北路二段227號","121.44413","25.1861","6501000","淡水區"
