"lineid","car","time","location","longitude","latitude","cityid","cityname"
"232002","290-BY","2018/03/27 06:39:25","新北市坪林區北宜路八段558號","121.717893333333","24.90929","6502000","坪林區"
"232013","291-BY","2018/03/27 06:39:29","新北市坪林區北宜路八段558號","121.717953333333","24.9094183333333","6502000","坪林區"
"232006","758-BX","2018/03/27 06:39:15","新北市坪林區北宜路八段558號","121.717886666667","24.9094016666667","6502000","坪林區"
"235001","611-BX","2018/03/27 06:39:15","新北市中和區員山路32號","121.481098333333","24.987755","6500300","中和區"
"223001","205-TH","2018/03/27 06:39:23","新北市石碇區碇坪路一段107號","121.663511666667","24.9891033333333","6501900","石碇區"
"223008","406-TH","2018/03/27 06:39:18","新北市石碇區碇坪路一段282號","121.677148333333","24.977155","6501900","石碇區"
"223001","592-UM","2018/03/27 06:39:17","新北市石碇區碇坪路一段186號","121.667415","24.984675","6501900","石碇區"
"223007","661-BX","2018/03/27 06:39:23","新北市石碇區碇坪路一段82號","121.657751666667","24.991425","6501900","石碇區"
"236008","165-UM","2018/03/27 06:39:18","新北市土城區永平街51號","121.427981666667","24.95916","6501300","土城區"
"220080","461-BY","2018/03/27 06:39:11","新北市板橋區南雅南路一段112號","121.454845","25.004105","6500100","板橋區"
