"lineid","car","time","location","longitude","latitude","cityid","cityname"
"248005","653-BX","2018/03/27 07:16:22","新北市五股區明德路12巷6號","121.433396666667","25.0718233333333","6501500","五股區"
"232002","290-BY","2018/03/27 07:29:25","新北市坪林區下坑子口15-1號","121.716461666667","24.9508366666667","6502000","坪林區"
"244002","248-BX","2018/03/27 07:29:13","新北市林口區頂福里71-106號","121.348911666667","25.08348","6501700","林口區"
"222004","289-BY","2018/03/27 07:24:39","新北市深坑區文化街39巷13號","121.61889","25.0010833333333","6501800","深坑區"
"235001","611-BX","2018/03/27 07:29:15","新北市中和區圓通路367巷6號","121.491468333333","24.98929","6500300","中和區"
"226005","5620-A6","2018/03/27 07:29:18","新北市平溪區靜安路二段172號","121.722806666667","25.0217716666667","6502400","平溪區"
"226002","7418-A5","2018/03/27 07:21:07","新北市平溪區望古里灰4-2號","121.763156666667","25.02952","6502400","平溪區"
"226003","AGD-0702","2018/03/27 07:26:00","新北市平溪區嶺腳里嶺腳寮83-2號","121.750058333333","25.0351316666667","6502400","平溪區"
"223001","205-TH","2018/03/27 07:29:21","新北市石碇區蓬菜寮11-2號","121.650151666667","24.973285","6501900","石碇區"
"223008","406-TH","2018/03/27 07:29:18","新北市石碇區大溪墘2-4號","121.69901","25.0126883333333","6501900","石碇區"
"223001","592-UM","2018/03/27 07:29:17","新北市石碇區烏塗窟8-3號","121.655751666667","24.9752816666667","6501900","石碇區"
"223004","660-BX","2018/03/27 07:29:17","新北市石碇區八分寮55-5號","121.64514","25.0169666666667","6501900","石碇區"
"223007","661-BX","2018/03/27 07:29:23","新北市石碇區大溪墘9-1號","121.697978333333","25.00837","6501900","石碇區"
"223005","677-TV","2018/03/27 07:29:16","新北市石碇區八分寮55-5號","121.645225","25.0169783333333","6501900","石碇區"
"227006","282-VK","2018/03/27 07:29:22","新北市雙溪區新基里自強路7號","121.866275","25.0390333333333","6502500","雙溪區"
"252004","249-BX","2018/03/27 07:29:24","新北市三芝區福德里大湖10號","121.504705","25.2230383333333","6502100","三芝區"
"252007","AAC-283","2018/03/27 07:29:13","新北市三芝區埔頭里埔頭32號","121.495666666667","25.262265","6502100","三芝區"
"237001","159-UY","2018/03/27 07:29:31","新北市三峽區隆恩街245號","121.357635","24.9408816666667","6500900","三峽區"
"236008","165-UM","2018/03/27 07:29:17","新北市土城區立德路12號","121.462383333333","24.9878766666667","6501300","土城區"
"236002","339-SR","2018/03/27 07:28:41","新北市土城區石門路108號","121.453653333333","24.94847","6501300","土城區"
"220080","461-BY","2018/03/27 07:19:28","新北市板橋區國光路49巷2號","121.458028333333","25.01808","6500100","板橋區"
