"lineid","car","time","location","longitude","latitude","cityid","cityname"
"248005","653-BX","2018/02/27 09:29:38","新北市五股區登林路貿商巷1弄2號","121.429573333333","25.0699","6501500","五股區"
"222004","289-BY","2018/02/27 09:29:33","新北市深坑區文山路三段15號","121.612958333333","24.9979866666667","6501800","深坑區"
"231007","189-VK","2018/02/27 09:29:33","新北市新店區新烏路三段215巷19號","121.506295","24.9034016666667","6500600","新店區"
"231009","192-VK","2018/02/27 09:29:34","新北市新店區平廣路一段111號","121.52865","24.8964966666667","6500600","新店區"
"235001","611-BX","2018/02/27 09:29:32","新北市中和區連城路569巷9弄7號","121.47956","24.9940966666667","6500300","中和區"
"223001","205-TH","2018/02/27 09:29:32","新北市石碇區二格路10號","121.624905","24.9629366666667","6501900","石碇區"
"223004","660-BX","2018/02/27 09:29:28","新北市石碇區碇坪路二段35號","121.684818333333","24.9767216666667","6501900","石碇區"
"223005","677-TV","2018/02/27 09:28:21","新北市石碇區碇坪路二段35號","121.684816666667","24.9767466666667","6501900","石碇區"
"227006","282-VK","2018/02/27 09:29:22","新北市雙溪區外柑里田寮6號","121.804525","25.0179683333333","6502500","雙溪區"
"227012","030-BX","2018/02/27 09:29:38","新北市坪林區瀨11號","121.781836666667","24.9601483333333","6502500","雙溪區"
"252004","249-BX","2018/02/27 09:29:30","新北市三芝區福德里大水堀31號","121.51044","25.2157933333333","6502100","三芝區"
"252007","AAC-283","2018/02/27 09:29:35","新北市三芝區古庄里山豬堀13-1號","121.493155","25.257045","6502100","三芝區"
"237001","159-UY","2018/02/27 09:29:26","新北市三峽區國際二街21-3號","121.37333","24.9436633333333","6500900","三峽區"
"236006","498-BY","2018/02/27 09:29:40","新北市土城區承天路71巷4弄21號","121.441756666667","24.9632583333333","6501300","土城區"
