"lineid","car","time","location","longitude","latitude","cityid","cityname"
"248005","653-BX","2018/02/27 09:59:38","新北市五股區成泰路一段235-14號","121.435845","25.08007","6501500","五股區"
"231007","189-VK","2018/02/27 09:59:33","新北市新店區新潭路三段215巷25號","121.508136666667","24.9040583333333","6500600","新店區"
"231009","192-VK","2018/02/27 09:42:14","新北市新店區平廣路一段256號","121.507141666667","24.8878533333333","6500600","新店區"
"223001","205-TH","2018/02/27 09:59:32","新北市石碇區碇坪路一段121號","121.664961666667","24.9874283333333","6501900","石碇區"
"227006","282-VK","2018/02/27 09:59:42","新北市雙溪區長源里柑腳18號","121.804703333333","25.01414","6502500","雙溪區"
"227012","030-BX","2018/02/27 09:50:18","新北市雙溪區泰平里烏山路15號","121.79458","24.950305","6502500","雙溪區"
"252004","249-BX","2018/02/27 09:59:30","新北市三芝區福德里土地公埔39號","121.510678333333","25.2343583333333","6502100","三芝區"
"252007","AAC-283","2018/02/27 09:59:35","新北市三芝區新庄里新庄子92號","121.510565","25.26865","6502100","三芝區"
"237001","159-UY","2018/02/27 09:59:22","新北市樹林區中山路三段210-2號","121.38155","24.9654433333333","6500900","三峽區"
"236006","498-BY","2018/02/27 09:59:40","新北市土城區亞洲路2號","121.437298333333","24.9754966666667","6501300","土城區"
