"lineid","car","time","location","longitude","latitude","cityid","cityname"
"234078","298-R6","2018/02/27 12:29:36","新北市永和區林森路10巷18弄16號","121.526413333333","25.006945","6500400","永和區"
"234084","338-UY","2018/02/27 12:29:31","新北市永和區福和路1號","121.526038333333","25.009635","6500400","永和區"
"234068","552-UM","2018/02/27 12:29:41","新北市永和區福和路1號","121.52538","25.0094733333333","6500400","永和區"
"234005","695-BX","2018/02/27 12:29:29","新北市永和區福和路1號","121.526101666667","25.0096083333333","6500400","永和區"
"234028","746-BX","2018/02/27 12:29:31","新北市永和區福和路1號","121.526361666667","25.009685","6500400","永和區"
"234040","862-TW","2018/02/27 12:29:40","新北市永和區福和路1號","121.526418333333","25.0096983333333","6500400","永和區"
"234010","9373-KE","2018/02/27 12:29:35","新北市永和區福和路1號","121.525576666667","25.0098133333333","6500400","永和區"
"234022","9380-KE","2018/02/27 12:29:28","新北市永和區福和路1號","121.525933333333","25.0092283333333","6500400","永和區"
"234076","969-R7","2018/02/27 12:29:35","新北市永和區福和路1號","121.526235","25.0098183333333","6500400","永和區"
"228004","212-TW","2018/02/27 12:28:59","新北市貢寮區龍崗里嵩陽街33號","121.90483","25.0185816666667","6502600","貢寮區"
"228005","828-UM","2018/02/27 12:29:26","新北市貢寮區福連里蓬萊街16號","121.983408333333","24.9936466666667","6502600","貢寮區"
"227010","400-TW","2018/02/27 12:29:41","新北市雙溪區三貂里政光路3-1號","121.850811666667","25.0629783333333","6502500","雙溪區"
"207002","749-BX","2018/02/27 12:29:42","新北市萬里區雙興里太和路7-2號","121.658595","25.1741083333333","6502800","萬里區"
"237001","159-UY","2018/02/27 12:29:29","新北市三峽區中山路459巷163-1號","121.349293333333","24.933425","6500900","三峽區"
