"lineid","car","time","location","longitude","latitude","cityid","cityname"
"234044","148-BY","2018/02/27 13:19:39","新北市永和區秀朗路二段80號","121.523095","25.00164","6500400","永和區"
"234066","149-BY","2018/02/27 13:19:33","新北市永和區保平路50巷4號","121.511251666667","25.0073333333333","6500400","永和區"
"234078","298-R6","2018/02/27 13:19:40","新北市永和區環河東路三段52巷8號","121.526373333333","25.0059333333333","6500400","永和區"
"234036","336-UY","2018/02/27 13:19:42","新北市永和區民樂街60巷1號","121.52739","24.9989616666667","6500400","永和區"
"234062","337-UY","2018/02/27 13:19:33","新北市永和區得和路243巷28弄19號","121.52129","25.001065","6500400","永和區"
"234084","338-UY","2018/02/27 13:19:31","新北市永和區永利路85-1號","121.52144","25.0033383333333","6500400","永和區"
"234068","552-UM","2018/02/27 13:19:41","新北市永和區中正路613號","121.516311666667","25.0097666666667","6500400","永和區"
"234005","695-BX","2018/02/27 13:19:29","新北市永和區保生路1號","121.506476666667","25.007265","6500400","永和區"
"234015","745-BX","2018/02/27 13:19:39","新北市永和區環河西路一段95巷19弄3號","121.51176","25.0170366666667","6500400","永和區"
"234028","746-BX","2018/02/27 13:19:31","新北市永和區厚德街56號","121.524638333333","24.9987766666667","6500400","永和區"
"234052","KEA-2590","2018/02/27 13:19:44","新北市永和區中興街37號","121.516241666667","25.0118033333333","6500400","永和區"
"234012","KEA-2591","2018/02/27 13:19:34","新北市永和區信義路34號","121.513683333333","25.0123266666667","6500400","永和區"
"234060","AAD-866","2018/02/27 13:19:38","新北市永和區秀朗路一段175號","121.517055","25.0036716666667","6500400","永和區"
"234040","862-TW","2018/02/27 13:19:40","新北市永和區永貞路289號","121.511078333333","25.0053933333333","6500400","永和區"
"234048","863-TW","2018/02/27 13:19:28","新北市永和區仁愛路104巷10號","121.512028333333","25.0136966666667","6500400","永和區"
"234025","9371-KE","2018/02/27 13:19:37","新北市永和區豫溪街42巷14號","121.515381666667","25.0091983333333","6500400","永和區"
"234010","9373-KE","2018/02/27 13:19:35","新北市永和區忠孝街34巷18號","121.514523333333","25.0168133333333","6500400","永和區"
"248017","225-UY","2018/02/27 13:19:24","新北市五股區御史路150號","121.431341666667","25.1026383333333","6501500","五股區"
"234022","9380-KE","2018/02/27 13:19:28","新北市永和區竹林路95號","121.519686666667","25.0120883333333","6500400","永和區"
"234076","969-R7","2018/02/27 13:19:35","新北市永和區民有街96號","121.517383333333","24.99592","6500400","永和區"
"234072","AAC-211","2018/02/27 13:19:28","新北市永和區竹林路3號","121.516308333333","25.0148966666667","6500400","永和區"
"234001","AAC-295","2018/02/27 13:19:41","新北市永和區永平路152巷4號","121.511605","25.0089616666667","6500400","永和區"
"244002","248-BX","2018/02/27 13:19:42","新北市林口區頭湖74-16號","121.359816666667","25.0925666666667","6501700","林口區"
"231002","002-UM","2018/02/27 13:19:30","新北市新店區安華路28-1號","121.519726666667","24.9608666666667","6500600","新店區"
"231028","046-UY","2018/02/27 13:19:37","新北市新店區安華路28-1號","121.51953","24.9607316666667","6500600","新店區"
"231030","047-UY","2018/02/27 13:19:45","新北市新店區安華路28-1號","121.51923","24.96102","6500600","新店區"
"231018","107-UY","2018/02/27 13:19:33","新北市新店區安康路一段122-1號","121.526936666667","24.9626966666667","6500600","新店區"
"231012","108-UY","2018/02/27 13:19:41","新北市新店區安康路一段11號","121.533353333333","24.9604316666667","6500600","新店區"
"231020","187-VK","2018/02/27 13:19:32","新北市新店區安康路一段92號","121.528003333333","24.9619533333333","6500600","新店區"
"231015","KEA-2219","2018/02/27 13:19:43","新北市新店區安康路一段164-1號","121.526023333333","24.9630316666667","6500600","新店區"
"231026","256-BX","2018/02/27 13:19:36","新北市新店區安華路28-1號","121.519598333333","24.9612616666667","6500600","新店區"
"231010","278-BY","2018/02/27 13:19:39","新北市新店區安康路一段3-1號","121.534841666667","24.96088","6500600","新店區"
"231023","AAD-862","2018/02/27 13:19:41","新北市新店區秀山路70號","121.531076666667","24.9609383333333","6500600","新店區"
"231027","3712-VJ","2018/02/27 13:19:41","新北市新店區安康路一段229號","121.525478333333","24.9631233333333","6500600","新店區"
"231025","3713-VJ","2018/02/27 13:19:46","新北市新店區安康路一段355號","121.519796666667","24.9630566666667","6500600","新店區"
"231024","4716-K9","2018/02/27 13:19:40","新北市新店區安康路一段3-1號","121.534065","24.96062","6500600","新店區"
"231038","4715-K9","2018/02/27 13:19:42","新北市新店區安華路28-1號","121.519256666667","24.9605716666667","6500600","新店區"
"231036","512-UM","2018/02/27 13:19:39","新北市新店區安忠路205巷8號","121.50983","24.9552516666667","6500600","新店區"
"231035","513-UM","2018/02/27 13:19:40","新北市新店區安華路28-1號","121.519665","24.9612466666667","6500600","新店區"
"231029","618-UM","2018/02/27 13:19:28","新北市新店區安華路28-1號","121.519378333333","24.9610933333333","6500600","新店區"
"231001","619-UM","2018/02/27 13:19:35","新北市新店區安華路28-1號","121.519656666667","24.9605516666667","6500600","新店區"
"231003","641-BX","2018/02/27 13:19:35","新北市新店區安華路28-1號","121.519595","24.9605166666667","6500600","新店區"
"231034","645-TV","2018/02/27 13:19:44","新北市新店區安華路28-1號","121.51938","24.9606233333333","6500600","新店區"
"231013","719-UM","2018/02/27 13:19:34","新北市新店區安康路一段275-1號","121.523945","24.963465","6500600","新店區"
"231032","720-UM","2018/02/27 13:19:43","新北市新店區車子路10-3號","121.504585","24.9545583333333","6500600","新店區"
"231005","897-TW","2018/02/27 13:19:43","新北市新店區安華路28-1號","121.519703333333","24.9607466666667","6500600","新店區"
"231006","898-TW","2018/02/27 13:19:37","新北市新店區安華路28-1號","121.518978333333","24.9609816666667","6500600","新店區"
"231004","899-TW","2018/02/27 13:19:47","新北市新店區安華路28-1號","121.519061666667","24.9608283333333","6500600","新店區"
"231037","AKT-0513","2018/02/27 13:19:39","新北市新店區安華路28-1號","121.51944","24.9606","6500600","新店區"
"235030","003-UY","2018/02/27 13:19:31","新北市中和區中山路二段119號","121.502838333333","25.00361","6500300","中和區"
"235028","005-UY","2018/02/27 13:19:33","新北市中和區圓通路215號","121.496746666667","24.9943183333333","6500300","中和區"
"235027","006-UY","2018/02/27 13:19:29","新北市中和區中正路589巷15號","121.485813333333","24.99369","6500300","中和區"
"235034","031-BX","2018/02/27 13:19:39","新北市中和區圓通路176-1號","121.497173333333","24.9944816666667","6500300","中和區"
"235003","097-UM","2018/02/27 13:19:27","新北市中和區景安路72號","121.505745","24.9965583333333","6500300","中和區"
"235029","098-UM","2018/02/27 13:19:46","新北市中和區中山路二段64巷16弄2號","121.503325","25.0056816666667","6500300","中和區"
"235004","150-BY","2018/02/27 13:19:28","新北市中和區安平路59號","121.509446666667","24.9952066666667","6500300","中和區"
"235022","151-BY","2018/02/27 13:19:39","新北市中和區圓通路367巷29號","121.492506666667","24.9853566666667","6500300","中和區"
"235019","183-VK","2018/02/27 13:19:43","新北市中和區中正路637巷52弄1號","121.485458333333","24.993325","6500300","中和區"
"235002","185-VK","2018/02/27 13:19:31","新北市中和區大智街106巷1號","121.52433","24.992585","6500300","中和區"
"235013","186-VK","2018/02/27 13:19:37","新北市中和區員山路36巷16-3號","121.484908333333","24.9913716666667","6500300","中和區"
"235031","255-BX","2018/02/27 13:19:40","新北市中和區新生街169號","121.48367","25.0009","6500300","中和區"
"235036","301-VK","2018/02/27 13:19:43","新北市中和區錦和路103號","121.490106666667","24.995325","6500300","中和區"
"235007","352-BY","2018/02/27 13:19:35","新北市中和區中正路273號","121.495713333333","24.9938016666667","6500300","中和區"
"235032","377-QA","2018/02/27 13:17:39","新北市中和區員山路36巷16-3號","121.484943333333","24.9911366666667","6500300","中和區"
"235025","378-QA","2018/02/27 13:19:31","新北市中和區國光街215巷10弄13-2號","121.466845","25.0004416666667","6500300","中和區"
"235035","269-TV","2018/02/27 13:19:38","新北市中和區永和路335-2號","121.484866666667","25.01127","6500300","中和區"
"235014","4979-A6","2018/02/27 13:19:43","新北市中和區捷運路61巷9號","121.5091","24.9894016666667","6500300","中和區"
"235033","4980-A6","2018/02/27 13:19:33","新北市中和區圓通路295-3號","121.49447","24.991755","6500300","中和區"
"235006","551-UM","2018/02/27 13:19:47","新北市中和區景平路196號","121.516111666667","24.992835","6500300","中和區"
"235009","565-BX","2018/02/27 13:19:43","新北市中和區復興路301巷23號","121.501978333333","24.9897216666667","6500300","中和區"
"235018","640-BX","2018/02/27 13:19:40","新北市中和區國光街81號","121.470585","25.0001933333333","6500300","中和區"
"235024","647-TV","2018/02/27 13:19:32","新北市中和區中正路637巷52弄1號","121.48542","24.99342","6500300","中和區"
"235011","732-UM","2018/02/27 13:19:35","新北市中和區建八路1號","121.48543","24.99858","6500300","中和區"
"235010","733-UM","2018/02/27 13:19:45","新北市中和區員山路36巷13號","121.484098333333","24.9909666666667","6500300","中和區"
"235026","800-TS","2018/02/27 13:19:29","新北市中和區景平路999巷3號","121.495361666667","25.005915","6500300","中和區"
"235021","801-TS","2018/02/27 13:19:36","新北市中和區員山路105號","121.480838333333","24.9943716666667","6500300","中和區"
"235016","805-TS","2018/02/27 13:19:36","新北市中和區興南路二段133號","121.505208333333","24.9841483333333","6500300","中和區"
"235012","896-TW","2018/02/27 13:19:26","新北市中和區員山路36巷16-3號","121.484975","24.9917783333333","6500300","中和區"
"235017","900-TW","2018/02/27 13:19:29","新北市中和區員山路36巷16-3號","121.484901666667","24.9916883333333","6500300","中和區"
"235015","157-BY","2018/02/27 13:19:32","新北市中和區忠孝街64號","121.511901666667","24.98397","6500300","中和區"
"235001","AAC-213","2018/02/27 13:19:29","新北市中和區景德街52號","121.517565","24.9915016666667","6500300","中和區"
"220034","073-UY","2018/02/27 13:19:41","新北市板橋區華東街1-10號","121.448258333333","24.9950516666667","6500100","板橋區"
"235005","251-BX","2018/02/27 13:19:34","新北市中和區景安路66號","121.505811666667","24.9967633333333","6500300","中和區"
"228004","212-TW","2018/02/27 13:19:39","新北市貢寮區吉林里內寮街35號","121.90001","24.981115","6502600","貢寮區"
"228005","828-UM","2018/02/27 13:19:26","新北市貢寮區美豐里丹裡街56號","121.90506","25.0580466666667","6502600","貢寮區"
"227010","400-TW","2018/02/27 13:19:41","新北市雙溪區三貂里政光路3-1號","121.850798333333","25.06307","6502500","雙溪區"
"207002","749-BX","2018/02/27 13:19:28","新北市萬里區崁腳里崁腳路166號","121.645043333333","25.1558833333333","6502800","萬里區"
"207001","662-BX","2018/02/27 13:19:43","新北市萬里區龜吼里玉田路34號","121.680051666667","25.1886416666667","6502800","萬里區"
"252005","AAC-283","2018/02/27 13:19:32","新北市三芝區圓山里木屐寮38-1號","121.528498333333","25.225945","6502100","三芝區"
"237001","159-UY","2018/02/27 13:19:29","新北市三峽區中山路459巷163-3號","121.349041666667","24.9333633333333","6500900","三峽區"
"236006","498-BY","2018/02/27 13:19:38","新北市土城區亞洲路144號","121.433496666667","24.97146","6501300","土城區"
"242046","172-VK","2018/02/27 13:19:46","新北市新莊區裕民街56號","121.418695","25.0246133333333","6500500","新莊區"
"221032","280-BY","2018/02/27 13:19:35","新北市汐止區新興路30號","121.656411666667","25.0642816666667","6501100","汐止區"
"220002","741-BX","2018/02/27 13:19:31","新北市板橋區華東街1-9號","121.448066666667","24.99492","6500100","板橋區"
"220005","806-UM","2018/02/27 13:19:44","新北市板橋區華東街1-9號","121.448158333333","24.99494","6500100","板橋區"
