"lineid","car","time","location","longitude","latitude","cityid","cityname"
"234044","148-BY","2018/02/27 13:29:39","新北市永和區成功路二段4號","121.526553333333","25.00115","6500400","永和區"
"234066","149-BY","2018/02/27 13:29:33","新北市永和區保平路188號","121.510523333333","25.00644","6500400","永和區"
"234078","298-R6","2018/02/27 13:29:37","新北市永和區林森路10巷35號","121.52582","25.0063483333333","6500400","永和區"
"234036","336-UY","2018/02/27 13:29:42","新北市永和區成功路二段1巷1號","121.527141666667","25.0014533333333","6500400","永和區"
"234062","337-UY","2018/02/27 13:29:44","新北市永和區中正路368巷1弄78號","121.520141666667","25.0008166666667","6500400","永和區"
"234084","338-UY","2018/02/27 13:29:40","新北市永和區林森路31-1號","121.525971666667","25.0050883333333","6500400","永和區"
"234068","552-UM","2018/02/27 13:29:41","新北市永和區竹林路177號","121.520528333333","25.009735","6500400","永和區"
"234005","695-BX","2018/02/27 13:29:29","新北市永和區中山路一段309號","121.506468333333","25.0065683333333","6500400","永和區"
"234015","745-BX","2018/02/27 13:29:39","新北市永和區永和路二段425巷18號","121.5148","25.01781","6500400","永和區"
"234028","746-BX","2018/02/27 13:29:41","新北市永和區民生路75號","121.52266","24.997015","6500400","永和區"
"234052","KEA-2590","2018/02/27 13:29:46","新北市永和區復興街7號","121.515858333333","25.0129183333333","6500400","永和區"
"234012","KEA-2591","2018/02/27 13:29:34","新北市永和區永平路203巷5弄1號","121.509118333333","25.0097716666667","6500400","永和區"
"234060","AAD-866","2018/02/27 13:29:38","新北市永和區中正路532號","121.517265","25.0052183333333","6500400","永和區"
"234040","862-TW","2018/02/27 13:29:40","新北市永和區水源街39巷3號","121.510453333333","25.00418","6500400","永和區"
"234048","863-TW","2018/02/27 13:29:28","新北市永和區信義路90號","121.51249","25.01366","6500400","永和區"
"234025","9371-KE","2018/02/27 13:29:37","新北市永和區永和路一段208號","121.51434","25.0093916666667","6500400","永和區"
"234010","9373-KE","2018/02/27 13:29:35","新北市永和區仁愛路141巷5弄6號","121.5119","25.0121383333333","6500400","永和區"
"248017","225-UY","2018/02/27 13:29:44","新北市五股區民義路二段52巷15-3號","121.410821666667","25.1123933333333","6501500","五股區"
"234022","9380-KE","2018/02/27 13:29:28","新北市永和區竹林路91巷51弄2號","121.521666666667","25.0133266666667","6500400","永和區"
"234076","969-R7","2018/02/27 13:29:35","新北市永和區智光街20號","121.51792","24.9993666666667","6500400","永和區"
"234072","AAC-211","2018/02/27 13:29:28","新北市永和區光復街60巷20弄2號","121.517725","25.01757","6500400","永和區"
"234001","AAC-295","2018/02/27 13:29:31","新北市永和區永和路一段107號","121.513933333333","25.0079766666667","6500400","永和區"
"244002","248-BX","2018/02/27 13:29:42","新北市林口區頂福9號","121.358135","25.0805583333333","6501700","林口區"
"231002","002-UM","2018/02/27 13:29:30","新北市新店區環河路66號","121.53707","24.962895","6500600","新店區"
"231028","046-UY","2018/02/27 13:29:37","新北市新店區安康路一段355-3號","121.519738333333","24.9619066666667","6500600","新店區"
"231030","047-UY","2018/02/27 13:29:25","新北市新店區安康路二段1-5號","121.517248333333","24.9638016666667","6500600","新店區"
"231018","107-UY","2018/02/27 13:29:33","新北市新店區環河路182-3號","121.53379","24.970085","6500600","新店區"
"231012","108-UY","2018/02/27 13:29:41","新北市新店區德正街19巷2號","121.543813333333","24.97233","6500600","新店區"
"231020","187-VK","2018/02/27 13:29:32","新北市新店區北宜路一段146號","121.540206666667","24.9540216666667","6500600","新店區"
"231015","KEA-2219","2018/02/27 13:29:43","新北市新店區新烏路一段11巷21號","121.547838333333","24.950845","6500600","新店區"
"231026","256-BX","2018/02/27 13:29:36","新北市新店區安康路一段35-5號","121.531918333333","24.9606916666667","6500600","新店區"
"231010","278-BY","2018/02/27 13:29:39","新北市新店區自由街8號","121.53535","24.9749883333333","6500600","新店區"
"231023","AAD-862","2018/02/27 13:29:41","新北市新店區新店路13號","121.540326666667","24.9529183333333","6500600","新店區"
"231027","3712-VJ","2018/02/27 13:29:41","新北市新店區新店後街95號","121.53768","24.9556283333333","6500600","新店區"
"231025","3713-VJ","2018/02/27 13:29:26","新北市新店區中央七街61巷2號","121.528153333333","24.976425","6500600","新店區"
"231024","4716-K9","2018/02/27 13:29:40","新北市新店區北新路二段29巷1弄2號","121.542536666667","24.9725433333333","6500600","新店區"
"231038","4715-K9","2018/02/27 13:29:42","新北市新店區安華路3號","121.519306666667","24.9597466666667","6500600","新店區"
"231036","512-UM","2018/02/27 13:29:39","新北市新店區建業路90號","121.479655","24.9554183333333","6500600","新店區"
"231035","513-UM","2018/02/27 13:29:40","新北市新店區安忠路8號","121.514741666667","24.963175","6500600","新店區"
"231029","618-UM","2018/02/27 13:29:28","新北市新店區安豐路54-1號","121.499915","24.954055","6500600","新店區"
"231001","619-UM","2018/02/27 13:29:35","新北市新店區安康路一段138號","121.526586666667","24.9628083333333","6500600","新店區"
"231003","641-BX","2018/02/27 13:29:35","新北市新店區北新路一段98號","121.542203333333","24.9689933333333","6500600","新店區"
"231034","645-TV","2018/02/27 13:29:44","新北市新店區車子路115-6號","121.505353333333","24.9532066666667","6500600","新店區"
"231013","719-UM","2018/02/27 13:29:34","新北市新店區中正路454-5號","121.534413333333","24.9790383333333","6500600","新店區"
"231032","720-UM","2018/02/27 13:29:43","新北市新店區安忠路205巷8號","121.509143333333","24.954595","6500600","新店區"
"231005","897-TW","2018/02/27 13:29:43","新北市新店區北新路一段72號","121.541381666667","24.9671216666667","6500600","新店區"
"231006","898-TW","2018/02/27 13:29:37","新北市新店區安康路一段35號","121.531636666667","24.9608","6500600","新店區"
"231004","899-TW","2018/02/27 13:29:27","新北市新店區安康路一段90號","121.527908333333","24.9619766666667","6500600","新店區"
"231037","AKT-0513","2018/02/27 13:29:39","新北市新店區薏仁坑路47號","121.491985","24.96402","6500600","新店區"
"235030","003-UY","2018/02/27 13:29:31","新北市中和區中山路二段119號","121.502863333333","25.0037","6500300","中和區"
"235028","005-UY","2018/02/27 13:29:34","新北市中和區連城路139巷63號","121.496908333333","24.99715","6500300","中和區"
"235027","006-UY","2018/02/27 13:29:29","新北市中和區連城路347巷2號","121.48804","24.9959266666667","6500300","中和區"
"235034","031-BX","2018/02/27 13:29:39","新北市中和區景平路586號","121.501171666667","24.995865","6500300","中和區"
"235020","096-UM","2018/02/27 13:29:38","新北市中和區新生街41號","121.483318333333","25.0032083333333","6500300","中和區"
"235003","097-UM","2018/02/27 13:29:42","新北市中和區大勇街27巷1號","121.517245","24.9934633333333","6500300","中和區"
"235029","098-UM","2018/02/27 13:29:44","新北市中和區莊敬路49巷10弄11號","121.50216","25.0055583333333","6500300","中和區"
"235004","150-BY","2018/02/27 13:29:28","新北市中和區保健路50巷66號","121.50919","24.995215","6500300","中和區"
"235022","151-BY","2018/02/27 13:29:39","新北市中和區圓通路369巷156弄2號","121.48811","24.9819083333333","6500300","中和區"
"235019","183-VK","2018/02/27 13:29:43","新北市中和區莒光路207號","121.469985","24.99566","6500300","中和區"
"235002","185-VK","2018/02/27 13:29:31","新北市中和區立人街14巷40弄8號","121.519058333333","24.995785","6500300","中和區"
"235013","186-VK","2018/02/27 13:29:41","新北市中和區景安路142號","121.505031666667","24.9941716666667","6500300","中和區"
"235031","255-BX","2018/02/27 13:29:34","新北市中和區連城路340巷14弄22號","121.482803333333","24.9972316666667","6500300","中和區"
"235036","301-VK","2018/02/27 13:29:43","新北市中和區連城路277號","121.490498333333","24.9965133333333","6500300","中和區"
"235007","352-BY","2018/02/27 13:29:35","新北市中和區景平路315號","121.50627","24.9932083333333","6500300","中和區"
"235032","377-QA","2018/02/27 13:29:19","新北市中和區中正路273-3號","121.495586666667","24.99344","6500300","中和區"
"235025","378-QA","2018/02/27 13:29:31","新北市中和區民享街97巷11號","121.47514","24.9993966666667","6500300","中和區"
"235035","269-TV","2018/02/27 13:29:38","新北市中和區永和路512號","121.482425","25.0122466666667","6500300","中和區"
"235014","4979-A6","2018/02/27 13:29:43","新北市中和區景新街362巷5號","121.511943333333","24.9900816666667","6500300","中和區"
"235033","4980-A6","2018/02/27 13:29:35","新北市中和區連城路127巷25號","121.497033333333","24.997755","6500300","中和區"
"235006","551-UM","2018/02/27 13:29:27","新北市中和區自立路58巷14號","121.52303","24.9913716666667","6500300","中和區"
"235009","565-BX","2018/02/27 13:29:43","新北市中和區復興路31號","121.505395","24.98984","6500300","中和區"
"235018","640-BX","2018/02/27 13:29:40","新北市中和區民享街86巷1號","121.474523333333","25.0008616666667","6500300","中和區"
"235024","647-TV","2018/02/27 13:29:32","新北市中和區員山路325-2號","121.481241666667","25.0007383333333","6500300","中和區"
"235011","732-UM","2018/02/27 13:29:35","新北市中和區中興街107號","121.499876666667","24.9923266666667","6500300","中和區"
"235010","733-UM","2018/02/27 13:29:45","新北市中和區中正路637巷60弄61號","121.485411666667","24.9930966666667","6500300","中和區"
"235026","800-TS","2018/02/27 13:29:29","新北市中和區景平路728號","121.496738333333","25.0037466666667","6500300","中和區"
"235021","801-TS","2018/02/27 13:29:36","新北市中和區民享街97巷19號","121.475336666667","24.9995866666667","6500300","中和區"
"235016","805-TS","2018/02/27 13:29:36","新北市中和區興南路二段133號","121.505193333333","24.9841466666667","6500300","中和區"
"235012","896-TW","2018/02/27 13:29:46","新北市中和區中正路637巷52弄1號","121.485441666667","24.99364","6500300","中和區"
"235017","900-TW","2018/02/27 13:29:29","新北市中和區民享街457號","121.470436666667","24.993185","6500300","中和區"
"235015","157-BY","2018/02/27 13:29:32","新北市中和區興南路二段142巷25弄6號","121.502936666667","24.984065","6500300","中和區"
"235001","AAC-213","2018/02/27 13:29:29","新北市中和區景德街95-9號","121.51518","24.991125","6500300","中和區"
"220034","073-UY","2018/02/27 13:29:41","新北市板橋區南雅南路二段120-1號","121.4523","24.9996666666667","6500100","板橋區"
"220045","075-UY","2018/02/27 13:29:31","新北市板橋區民生路二段161巷9號","121.470301666667","25.0196566666667","6500100","板橋區"
"235005","251-BX","2018/02/27 13:29:34","新北市中和區中和路320號","121.509611666667","25.000695","6500300","中和區"
"228004","212-TW","2018/02/27 13:29:39","新北市貢寮區龍崗里石壁坑街17號","121.910373333333","24.9894616666667","6502600","貢寮區"
"228005","828-UM","2018/02/27 13:29:26","新北市貢寮區美豐里文秀坑8號","121.902421666667","25.05033","6502600","貢寮區"
"207002","749-BX","2018/02/27 13:29:28","新北市萬里區崁腳里崁腳路166號","121.645026666667","25.1558633333333","6502800","萬里區"
"207001","662-BX","2018/02/27 13:29:43","新北市萬里區大鵬里萬里加投9號","121.652236666667","25.20896","6502800","萬里區"
"252005","AAC-283","2018/02/27 13:29:32","新北市三芝區圓山里二坪頂46號","121.541063333333","25.2303183333333","6502100","三芝區"
"237001","159-UY","2018/02/27 13:29:29","新北市三峽區隆恩街245號","121.357766666667","24.94082","6500900","三峽區"
"236006","498-BY","2018/02/27 13:29:38","新北市土城區慶祥街59巷1-1號","121.435826666667","24.9729433333333","6501300","土城區"
"242046","172-VK","2018/02/27 13:29:26","新北市新莊區裕民街2號","121.419383333333","25.0260466666667","6500500","新莊區"
"221032","280-BY","2018/02/27 13:29:35","新北市汐止區水源路一段56號","121.657526666667","25.0655683333333","6501100","汐止區"
"220027","145-BY","2018/02/27 13:29:40","新北市板橋區大觀路288號","121.449448333333","24.99836","6500100","板橋區"
"220028","200-UY","2018/02/27 13:29:24","新北市板橋區華東街1-9號","121.448106666667","24.9948933333333","6500100","板橋區"
"220030","610-BX","2018/02/27 13:29:45","新北市板橋區華東街1-10號","121.448523333333","24.9950083333333","6500100","板橋區"
"220019","283-VK","2018/02/27 13:29:28","新北市板橋區華東街1-9號","121.448076666667","24.9949566666667","6500100","板橋區"
"220029","287-VK","2018/02/27 13:29:29","新北市板橋區華東街1-10號","121.448288333333","24.9949766666667","6500100","板橋區"
"220032","296-UM","2018/02/27 13:29:36","新北市板橋區華東街1-9號","121.448136666667","24.99495","6500100","板橋區"
"220023","303-R5","2018/02/27 13:29:27","新北市板橋區華東街1-9號","121.44819","24.994975","6500100","板橋區"
"220012","486-VK","2018/02/27 13:29:42","新北市板橋區南雅南路二段120-11號","121.452068333333","24.9992666666667","6500100","板橋區"
"220104","560-BX","2018/02/27 13:29:28","新北市板橋區南雅西路二段145巷6號","121.451598333333","25.0118566666667","6500100","板橋區"
"220025","687-BX","2018/02/27 13:29:31","新北市板橋區大觀路二段265巷7-7號","121.44391","24.9946316666667","6500100","板橋區"
"220002","741-BX","2018/02/27 13:29:31","新北市板橋區華東街1-9號","121.44809","24.9949066666667","6500100","板橋區"
"220005","806-UM","2018/02/27 13:21:10","新北市板橋區華東街1-9號","121.448158333333","24.9949316666667","6500100","板橋區"
"220014","829-TW","2018/02/27 13:29:41","新北市板橋區民生路二段120號","121.470435","25.01966","6500100","板橋區"
