"lineid","car","time","location","longitude","latitude","cityid","cityname"
"234062","337-UY","2018/02/27 14:39:33","新北市永和區保順路8號","121.503216666667","25.012105","6500400","永和區"
"234084","338-UY","2018/02/27 14:39:31","新北市中和區永和路356巷71號","121.486693333333","25.0176533333333","6500400","永和區"
"234005","695-BX","2018/02/27 14:39:28","新北市永和區中正路399號","121.517206666667","25.004225","6500400","永和區"
"234028","746-BX","2018/02/27 14:39:31","新北市永和區成功路二段201巷10弄10號","121.527665","24.9956583333333","6500400","永和區"
"234048","863-TW","2018/02/27 14:39:48","新北市中和區永和路220巷32號","121.492171666667","25.0082683333333","6500400","永和區"
"234025","9371-KE","2018/02/27 14:39:37","新北市永和區雙和街7巷8號","121.509446666667","25.00158","6500400","永和區"
"248017","225-UY","2018/02/27 14:28:04","新北市五股區外寮路6-1號","121.425151666667","25.0751716666667","6501500","五股區"
"234072","AAC-211","2018/02/27 14:39:34","新北市永和區環河東路二段36號","121.522708333333","25.012455","6500400","永和區"
"244002","248-BX","2018/02/27 14:39:42","新北市林口區竹林路265號","121.389631666667","25.0807266666667","6501700","林口區"
"231002","002-UM","2018/02/27 14:39:30","新北市新店區中正路468號","121.533991666667","24.9794283333333","6500600","新店區"
"231028","046-UY","2018/02/27 14:39:37","新北市新店區安德街62號","121.510656666667","24.9621933333333","6500600","新店區"
"231030","047-UY","2018/02/27 14:39:45","新北市新店區安民街255號","121.517331666667","24.9724916666667","6500600","新店區"
"231018","107-UY","2018/02/27 14:39:33","新北市新店區中央二街7-1號","121.529275","24.9730933333333","6500600","新店區"
"231012","108-UY","2018/02/27 14:39:41","新北市新店區寶橋路215號","121.548731666667","24.97725","6500600","新店區"
"231020","187-VK","2018/02/27 14:39:32","新北市新店區新烏路二段50巷5號","121.548576666667","24.9274066666667","6500600","新店區"
"231015","KEA-2219","2018/02/27 14:39:22","新北市新店區北宜路三段221號","121.592393333333","24.9532966666667","6500600","新店區"
"231023","AAD-862","2018/02/27 14:39:41","新北市新店區中興路一段138號","121.542305","24.96356","6500600","新店區"
"231027","3712-VJ","2018/02/27 14:39:41","新北市新店區中正路267號","121.537836666667","24.9742266666667","6500600","新店區"
"231025","3713-VJ","2018/02/27 14:39:46","新北市新店區民族路161號","121.537585","24.9767966666667","6500600","新店區"
"231024","4716-K9","2018/02/27 14:39:40","新北市新店區新生街13巷42-1號","121.538846666667","24.96657","6500600","新店區"
"231038","4715-K9","2018/02/27 14:39:42","新北市新店區安康路一段355-3號","121.519748333333","24.9627983333333","6500600","新店區"
"231036","512-UM","2018/02/27 14:39:39","新北市新店區安祥路106巷189號","121.47411","24.959935","6500600","新店區"
"231035","513-UM","2018/02/27 14:39:40","新北市新店區柴埕路38-8號","121.513115","24.9648016666667","6500600","新店區"
"231029","618-UM","2018/02/27 14:39:28","新北市新店區安康路三段410號","121.485678333333","24.9515566666667","6500600","新店區"
"231001","619-UM","2018/02/27 14:39:35","新北市新店區北新路二段2號","121.542845","24.9707483333333","6500600","新店區"
"231003","641-BX","2018/02/27 14:39:35","新北市新店區中興路二段100巷1號","121.5476","24.9716816666667","6500600","新店區"
"231034","645-TV","2018/02/27 14:39:44","新北市新店區黎明路9號","121.502488333333","24.9502266666667","6500600","新店區"
"231013","719-UM","2018/02/27 14:39:34","新北市新店區北新路二段139巷12弄2號","121.542173333333","24.9759766666667","6500600","新店區"
"231032","720-UM","2018/02/27 14:39:42","新北市新店區安興路112號","121.51508","24.9775066666667","6500600","新店區"
"231005","897-TW","2018/02/27 14:39:44","新北市新店區復興路30號","121.539186666667","24.9868383333333","6500600","新店區"
"231006","898-TW","2018/02/27 14:39:37","新北市新店區北宜路二段103號","121.550236666667","24.95247","6500600","新店區"
"231004","899-TW","2018/02/27 14:39:47","新北市新店區中正路283號","121.537403333333","24.9744933333333","6500600","新店區"
"231037","AKT-0513","2018/02/27 14:39:39","新北市新店區柴埕路60巷32號","121.506526666667","24.96724","6500600","新店區"
"235030","003-UY","2018/02/27 14:39:30","新北市中和區安和路209號","121.505871666667","24.9988116666667","6500300","中和區"
"235028","005-UY","2018/02/27 14:39:33","新北市中和區圓通路50號","121.500661666667","24.997615","6500300","中和區"
"235027","006-UY","2018/02/27 14:39:29","新北市中和區連城路174巷8-1號","121.492698333333","24.9979116666667","6500300","中和區"
"235034","031-BX","2018/02/27 14:39:28","新北市中和區景平路634-7號","121.499183333333","24.9991866666667","6500300","中和區"
"235020","096-UM","2018/02/27 14:39:38","新北市中和區員山路581巷31弄10號","121.477045","25.0103883333333","6500300","中和區"
"235003","097-UM","2018/02/27 14:39:27","新北市中和區安平路101號","121.511433333333","24.9972033333333","6500300","中和區"
"235029","098-UM","2018/02/27 14:39:44","新北市中和區福祥路96號","121.4992","25.005925","6500300","中和區"
"235004","150-BY","2018/02/27 14:39:28","新北市中和區宜安路13號","121.513173333333","24.9955283333333","6500300","中和區"
"235022","151-BY","2018/02/27 14:39:39","新北市中和區員山路146號","121.481293333333","24.996865","6500300","中和區"
"235019","183-VK","2018/02/27 14:39:43","新北市中和區民生街32號","121.469911666667","25.0053416666667","6500300","中和區"
"235002","185-VK","2018/02/27 14:39:30","新北市中和區大智街55巷30弄28號","121.52142","24.9932266666667","6500300","中和區"
"235013","186-VK","2018/02/27 14:39:37","新北市中和區景新街212號","121.507026666667","24.9951883333333","6500300","中和區"
"235031","255-BX","2018/02/27 14:39:33","新北市中和區新生街186巷5弄7號","121.482865","24.9992783333333","6500300","中和區"
"235008","293-VK","2018/02/27 14:39:32","新北市中和區興南路一段137號","121.508866666667","24.9875283333333","6500300","中和區"
"235036","301-VK","2018/02/27 14:39:43","新北市中和區中和路49號","121.500241666667","25.0012733333333","6500300","中和區"
"235007","352-BY","2018/02/27 14:39:35","新北市中和區南華路85號","121.50553","24.99733","6500300","中和區"
"235032","377-QA","2018/02/27 14:39:18","新北市中和區中山路二段242巷10號","121.497648333333","25.0032383333333","6500300","中和區"
"235025","378-QA","2018/02/27 14:39:31","新北市中和區員山路174巷1號","121.481581666667","24.9999183333333","6500300","中和區"
"235035","269-TV","2018/02/27 14:39:38","新北市中和區建一路148號","121.4879","24.998745","6500300","中和區"
"235014","4979-A6","2018/02/27 14:39:43","新北市中和區和城路一段271巷1號","121.485368333333","24.99178","6500300","中和區"
"235006","551-UM","2018/02/27 14:39:27","新北市中和區保健路2巷30號","121.507061666667","24.997465","6500300","中和區"
"235009","565-BX","2018/02/27 14:39:43","新北市中和區安樂路38號","121.511936666667","24.9923983333333","6500300","中和區"
"235018","640-BX","2018/02/27 14:39:40","新北市中和區莒光路55號","121.472116666667","25.0045183333333","6500300","中和區"
"235024","647-TV","2018/02/27 14:39:32","新北市中和區中山路二段580號","121.482711666667","25.0051183333333","6500300","中和區"
"235011","732-UM","2018/02/27 14:39:35","新北市中和區捷運路57-1號","121.509155","24.9897333333333","6500300","中和區"
"235010","733-UM","2018/02/27 14:39:45","新北市中和區忠孝街94號","121.51174","24.9844983333333","6500300","中和區"
"235026","800-TS","2018/02/27 14:39:49","新北市中和區建六路69號","121.486901666667","25.0022333333333","6500300","中和區"
"235021","801-TS","2018/02/27 14:39:47","新北市中和區員山路286號","121.481368333333","25.002265","6500300","中和區"
"235016","805-TS","2018/02/27 14:39:36","新北市中和區華新街206巷12號","121.506376666667","24.9824333333333","6500300","中和區"
"235012","896-TW","2018/02/27 14:39:46","新北市中和區景新街467巷20弄60號","121.514341666667","24.9867366666667","6500300","中和區"
"235017","900-TW","2018/02/27 14:39:29","新北市中和區國光街215巷26-3號","121.46713","25.00045","6500300","中和區"
"235015","157-BY","2018/02/27 14:39:32","新北市中和區中興街130號","121.499851666667","24.992555","6500300","中和區"
"235001","AAC-213","2018/02/27 14:39:29","新北市中和區秀朗路三段48號","121.526256666667","24.9955033333333","6500300","中和區"
"235023","AAC-215","2018/02/27 14:39:47","新北市中和區圓通路305巷10號","121.494136666667","24.98962","6500300","中和區"
"220016","013-TV","2018/02/27 14:39:30","新北市板橋區中山路二段416巷47弄2號","121.483306666667","25.0194083333333","6500100","板橋區"
"220013","072-UY","2018/02/27 14:39:39","新北市板橋區國泰街39巷2弄1號","121.468438333333","25.0062716666667","6500100","板橋區"
"220034","073-UY","2018/02/27 14:39:41","新北市板橋區國光路1號","121.45663","25.0173666666667","6500100","板橋區"
"220017","AAD-861","2018/02/27 14:39:37","新北市板橋區貴興路106巷16弄2號","121.45492","25.0033816666667","6500100","板橋區"
"247019","500-BY","2018/02/27 14:39:35","新北市蘆洲區民義街68巷70號","121.474071666667","25.0898366666667","6501400","蘆洲區"
"247009","339-TH","2018/02/27 14:39:42","新北市蘆洲區集賢路308號","121.481198333333","25.085165","6501400","蘆洲區"
"247001","337-TH","2018/02/27 14:39:40","新北市蘆洲區長安街274巷1號","121.457648333333","25.08707","6501400","蘆洲區"
"247011","335-TH","2018/02/27 14:39:45","新北市蘆洲區集賢路224巷37弄1號","121.480696666667","25.0880316666667","6501400","蘆洲區"
"247015","057-VK","2018/02/27 14:39:46","新北市蘆洲區正和街29號","121.469775","25.0818683333333","6501400","蘆洲區"
"247005","056-VK","2018/02/27 14:39:47","新北市蘆洲區長榮路1號","121.463795","25.0818783333333","6501400","蘆洲區"
"247007","053-VK","2018/02/27 14:39:27","新北市蘆洲區成功路37號","121.472955","25.0797766666667","6501400","蘆洲區"
"247013","007-UY","2018/02/27 14:39:34","新北市蘆洲區成功路121號","121.472446666667","25.0821483333333","6501400","蘆洲區"
"247023","002-UY","2018/02/27 14:39:29","新北市蘆洲區中山二路222巷6號","121.469541666667","25.08019","6501400","蘆洲區"
"235005","251-BX","2018/02/27 14:39:34","新北市中和區宜安路135號","121.509603333333","24.9983983333333","6500300","中和區"
"228004","212-TW","2018/02/27 14:39:39","新北市貢寮區福隆里龜壽谷街30-1號","121.947006666667","25.0132","6502600","貢寮區"
"228005","828-UM","2018/02/27 14:39:46","新北市貢寮區美豐里雞母嶺街6-6號","121.902075","25.06423","6502600","貢寮區"
"207002","749-BX","2018/02/27 14:39:28","新北市萬里區崁腳里崁腳路73號","121.647615","25.1596216666667","6502800","萬里區"
"207001","662-BX","2018/02/27 14:39:23","新北市萬里區雙興里豐稟路22-2號","121.642331666667","25.1821583333333","6502800","萬里區"
"252005","AAC-283","2018/02/27 14:39:32","新北市三芝區埔坪里埔頭坑164-1號","121.507843333333","25.24825","6502100","三芝區"
"236065","105-UM","2018/02/27 14:39:36","新北市土城區永豐路211號","121.474665","24.9756433333333","6501300","土城區"
"236041","107-UM","2018/02/27 14:39:37","新北市土城區學成路126號","121.44922","24.9895216666667","6501300","土城區"
"236075","166-UM","2018/02/27 14:39:40","新北市土城區頂埔街8號","121.41675","24.958455","6501300","土城區"
"236029","253-BX","2018/02/27 14:39:14","新北市土城區中華路二段90號","121.43843","24.97488","6501300","土城區"
"236024","269-VK","2018/02/27 14:39:34","新北市土城區千歲路13號","121.440895","24.9695633333333","6501300","土城區"
"236013","270-VK","2018/02/27 14:39:42","新北市土城區清水路234巷1號","121.461403333333","24.9823416666667","6501300","土城區"
"236034","271-VK","2018/02/27 14:39:26","新北市土城區明德路一段291巷5號","121.460295","24.9769266666667","6501300","土城區"
"236017","401-BY","2018/02/27 14:39:26","新北市土城區延吉街253巷5號","121.467623333333","24.98457","6501300","土城區"
"236045","752-BX","2018/02/27 14:39:45","新北市土城區明德路一段51號","121.465185","24.9848116666667","6501300","土城區"
"236057","912-UM","2018/02/27 14:39:37","新北市土城區中興路1號","121.425086666667","24.9627783333333","6501300","土城區"
"236061","915-UM","2018/02/27 14:39:36","新北市土城區延壽路27號","121.471093333333","24.9909516666667","6501300","土城區"
"236054","AAC-216","2018/02/27 14:39:33","新北市土城區裕民路2號","121.446501666667","24.98915","6501300","土城區"
"220028","200-UY","2018/02/27 14:39:44","新北市板橋區大觀路二段37巷40號","121.448635","25.0026766666667","6500100","板橋區"
"220105","KEA-2550","2018/02/27 14:39:28","新北市板橋區文化路二段319號","121.472086666667","25.0300883333333","6500100","板橋區"
"220030","610-BX","2018/02/27 14:39:45","新北市板橋區大觀路三段223號","121.43109","24.99278","6500100","板橋區"
"220050","245-BX","2018/02/27 14:39:29","新北市板橋區莊敬路207號","121.472243333333","25.0220566666667","6500100","板橋區"
"220046","255-TC","2018/02/27 14:39:30","新北市板橋區民生路二段120號","121.470403333333","25.0196183333333","6500100","板橋區"
"220045","257-TC","2018/02/27 14:39:45","新北市板橋區文化路一段370-1號","121.469828333333","25.0236683333333","6500100","板橋區"
"220004","276-BY","2018/02/27 14:39:31","新北市板橋區四川路二段47巷3弄2號","121.454215","24.9946266666667","6500100","板橋區"
"220020","277-BY","2018/02/27 14:39:43","新北市板橋區金門街215巷2弄1號","121.432495","24.9889466666667","6500100","板橋區"
"220005","282-UM","2018/02/27 14:39:40","新北市板橋區廣和街68號","121.462176666667","24.9939583333333","6500100","板橋區"
"220019","283-VK","2018/02/27 14:39:38","新北市板橋區信義路279巷23號","121.46511","24.9904433333333","6500100","板橋區"
"220043","285-UM","2018/02/27 14:39:31","新北市板橋區宏國路33號","121.46793","25.0316383333333","6500100","板橋區"
"220001","285-VK","2018/02/27 14:39:40","新北市板橋區中山路二段148巷8號","121.476788333333","25.0165916666667","6500100","板橋區"
"220031","286-VK","2018/02/27 14:39:32","新北市板橋區龍興街65巷1號","121.443335","25.0013133333333","6500100","板橋區"
"220029","287-VK","2018/02/27 14:39:49","新北市板橋區大觀路一段28巷44號","121.449828333333","25.010135","6500100","板橋區"
"220009","293-UM","2018/02/27 14:39:44","新北市板橋區板新路131號","121.470766666667","25.0152683333333","6500100","板橋區"
"220032","296-UM","2018/02/27 14:39:41","新北市板橋區溪崑二街124巷20號","121.425443333333","24.9884483333333","6500100","板橋區"
"220023","303-R5","2018/02/27 14:39:37","新北市板橋區中正路253巷50號","121.453908333333","25.017665","6500100","板橋區"
"220010","305-R5","2018/02/27 14:39:44","新北市板橋區三民路二段83號","121.479358333333","25.0166916666667","6500100","板橋區"
"220041","307-R5","2018/02/27 14:39:44","新北市板橋區陽明街27巷1號","121.465745","25.02172","6500100","板橋區"
"220047","317-R6","2018/02/27 14:39:47","新北市板橋區四維路279巷64號","121.460553333333","25.0275033333333","6500100","板橋區"
"220027","461-BY","2018/02/27 14:39:32","新北市板橋區建國街3-1號","121.457121666667","25.0169433333333","6500100","板橋區"
"220012","486-VK","2018/02/27 14:39:42","新北市板橋區民族路19號","121.461865","25.0096483333333","6500100","板橋區"
"220038","487-VK","2018/02/27 14:39:36","新北市板橋區陽明街251號","121.462638333333","25.02514","6500100","板橋區"
"220037","491-VK","2018/02/27 14:39:29","新北市板橋區民治街23號","121.478035","25.03431","6500100","板橋區"
"220104","560-BX","2018/02/27 14:39:28","新北市板橋區金華街45號","121.456668333333","25.0204733333333","6500100","板橋區"
"220052","561-BX","2018/02/27 14:39:35","新北市板橋區文化路一段280-3號","121.467378333333","25.0214383333333","6500100","板橋區"
"220011","609-BX","2018/02/27 14:39:44","新北市板橋區三民路一段31巷87弄13號","121.481463333333","25.0233883333333","6500100","板橋區"
"220040","637-BX","2018/02/27 14:39:42","新北市板橋區懷德街139巷20弄10號","121.480186666667","25.030565","6500100","板橋區"
"220025","687-BX","2018/02/27 14:39:31","新北市板橋區僑中二街116巷1號","121.445663333333","25.0062983333333","6500100","板橋區"
"220042","689-BX","2018/02/27 14:39:44","新北市板橋區長江路一段9號","121.457911666667","25.0288033333333","6500100","板橋區"
"220002","741-BX","2018/02/27 14:39:31","新北市板橋區實踐路106號","121.464081666667","25.004635","6500100","板橋區"
"220051","KEA-2699","2018/02/27 14:39:46","新北市板橋區雙十路二段50號","121.475708333333","25.0277433333333","6500100","板橋區"
"220003","827-TW","2018/02/27 14:39:43","新北市板橋區國慶路149巷23號","121.460956666667","24.99756","6500100","板橋區"
"220014","829-TW","2018/02/27 14:39:41","新北市板橋區長安街251巷14號","121.472391666667","25.0106333333333","6500100","板橋區"
"220039","830-TW","2018/02/27 14:39:28","新北市板橋區新海路431巷14號","121.457865","25.0270083333333","6500100","板橋區"
"220022","895-R6","2018/02/27 14:39:43","新北市板橋區東門街1-2號","121.457993333333","25.0090466666667","6500100","板橋區"
"220021","985-R7","2018/02/27 14:39:40","新北市板橋區大仁街51號","121.454563333333","25.0164533333333","6500100","板橋區"
"220046","AAC-210","2018/02/27 14:39:26","新北市板橋區漢生西路87號","121.46243","25.0194783333333","6500100","板橋區"
"220018","AAC-253","2018/02/27 14:39:41","新北市板橋區民族路213號","121.469356666667","25.0072533333333","6500100","板橋區"
