"lineid","car","time","location","longitude","latitude","cityid","cityname"
"234084","338-UY","2018/02/27 14:49:30","新北市五股區凌雲路二段66號","121.439841666667","25.1062283333333","6500400","永和區"
"234028","746-BX","2018/02/27 14:49:31","新北市永和區成功路二段201巷10弄10號","121.527706666667","24.9955766666667","6500400","永和區"
"234048","863-TW","2018/02/27 14:49:28","新北市五股區成洲五路38號","121.453561666667","25.10137","6500400","永和區"
"234025","9371-KE","2018/02/27 14:49:40","新北市永和區水源街39巷1號","121.510436666667","25.0043466666667","6500400","永和區"
"248017","225-UY","2018/02/27 14:28:04","新北市五股區外寮路6-1號","121.425151666667","25.0751716666667","6501500","五股區"
"244002","248-BX","2018/02/27 14:49:42","新北市林口區竹林路267號","121.389608333333","25.0808016666667","6501700","林口區"
"231002","002-UM","2018/02/27 14:49:50","新北市新店區民權路46-6號","121.539681666667","24.9830933333333","6500600","新店區"
"231028","046-UY","2018/02/27 14:49:37","新北市新店區安康路二段217號","121.508793333333","24.95886","6500600","新店區"
"231030","047-UY","2018/02/27 14:49:38","新北市新店區安興路94號","121.515066666667","24.9762516666667","6500600","新店區"
"231018","107-UY","2018/02/27 14:49:33","新北市新店區中央六街5號","121.530353333333","24.97447","6500600","新店區"
"231012","108-UY","2018/02/27 14:49:41","新北市新店區永華街75號","121.545076666667","24.9751483333333","6500600","新店區"
"231020","187-VK","2018/02/27 14:49:32","新北市新店區永福路42號","121.555431666667","24.9290166666667","6500600","新店區"
"231015","KEA-2219","2018/02/27 14:49:43","新北市新店區北宜路三段171號","121.585873333333","24.9513216666667","6500600","新店區"
"231026","256-BX","2018/02/27 14:49:30","新北市新店區安華路28-1號","121.519656666667","24.9610866666667","6500600","新店區"
"231023","AAD-862","2018/02/27 14:49:41","新北市新店區檳榔路109號","121.544561666667","24.9615766666667","6500600","新店區"
"231027","3712-VJ","2018/02/27 14:49:41","新北市新店區安民街133巷26號","121.51545","24.969465","6500600","新店區"
"231025","3713-VJ","2018/02/27 14:49:46","新北市新店區大豐路68巷3號","121.538996666667","24.979815","6500600","新店區"
"231024","4716-K9","2018/02/27 14:49:40","新北市新店區新生街1號","121.540371666667","24.9656116666667","6500600","新店區"
"231036","512-UM","2018/02/27 14:49:39","新北市新店區安祥路104巷6弄36號","121.48311","24.9629583333333","6500600","新店區"
"231035","513-UM","2018/02/27 14:49:40","新北市新店區安和路二段190號","121.518795","24.9745116666667","6500600","新店區"
"231029","618-UM","2018/02/27 14:49:28","新北市新店區錦秀路11巷90弄2號","121.480351666667","24.94308","6500600","新店區"
"231001","619-UM","2018/02/27 14:49:45","新北市新店區中正路322號","121.537021666667","24.9748","6500600","新店區"
"231003","641-BX","2018/02/27 14:49:35","新北市新店區中興路二段29號","121.54606","24.969605","6500600","新店區"
"231034","645-TV","2018/02/27 14:49:44","新北市新店區玫瑰路4-1號","121.49359","24.951395","6500600","新店區"
"231039","718-UY","2018/02/27 14:49:35","新北市新店區安康路一段355-3號","121.519706666667","24.9617933333333","6500600","新店區"
"231005","897-TW","2018/02/27 14:49:43","新北市新店區復興路94號","121.532311666667","24.988325","6500600","新店區"
"231006","898-TW","2018/02/27 14:49:37","新北市新店區北宜路一段97號","121.539185","24.9553966666667","6500600","新店區"
"231004","899-TW","2018/02/27 14:49:47","新北市新店區建國路133號","121.539403333333","24.978305","6500600","新店區"
"231037","AKT-0513","2018/02/27 14:49:39","新北市新店區安民街365巷1弄8號","121.516301666667","24.9750616666667","6500600","新店區"
"235030","003-UY","2018/02/27 14:49:31","新北市中和區光華街69號","121.506688333333","25.002895","6500300","中和區"
"235028","005-UY","2018/02/27 14:49:33","新北市中和區連勝街32號","121.498098333333","24.9979216666667","6500300","中和區"
"235034","031-BX","2018/02/27 14:49:48","新北市中和區連勝街33號","121.498348333333","24.9978966666667","6500300","中和區"
"235020","096-UM","2018/02/27 14:49:38","新北市中和區中山路三段116號","121.476143333333","25.006245","6500300","中和區"
"235003","097-UM","2018/02/27 14:49:27","新北市中和區安樂路195號","121.514696666667","24.9983266666667","6500300","中和區"
"235029","098-UM","2018/02/27 14:49:44","新北市中和區永和路90巷2弄14號","121.497771666667","25.00544","6500300","中和區"
"235004","150-BY","2018/02/27 14:49:48","新北市中和區安平路30號","121.509585","24.9947833333333","6500300","中和區"
"235022","151-BY","2018/02/27 14:49:39","新北市中和區員山路118號","121.481121666667","24.9958566666667","6500300","中和區"
"235019","183-VK","2018/02/27 14:49:43","新北市中和區民德路23號","121.46885","25.00273","6500300","中和區"
"235002","185-VK","2018/02/27 14:49:30","新北市中和區立人街69巷7弄2號","121.520028333333","24.99366","6500300","中和區"
"235013","186-VK","2018/02/27 14:49:37","新北市中和區中正路72號","121.500818333333","24.993795","6500300","中和區"
"235031","255-BX","2018/02/27 14:49:33","新北市中和區員山路148巷19號","121.482138333333","24.9971833333333","6500300","中和區"
"235008","293-VK","2018/02/27 14:49:32","新北市中和區南山路122號","121.503496666667","24.9930333333333","6500300","中和區"
"235036","301-VK","2018/02/27 14:49:43","新北市中和區連城路160-1號","121.494158333333","24.9979766666667","6500300","中和區"
"235007","352-BY","2018/02/27 14:49:35","新北市中和區景平路336號","121.511785","24.9927716666667","6500300","中和區"
"235032","377-QA","2018/02/27 14:49:39","新北市中和區福祥路85巷2弄1號","121.498691666667","25.0058566666667","6500300","中和區"
"235035","269-TV","2018/02/27 14:49:38","新北市中和區建一路148號","121.487981666667","24.998825","6500300","中和區"
"235014","4979-A6","2018/02/27 14:49:43","新北市中和區和平街164巷4號","121.506056666667","24.9923883333333","6500300","中和區"
"235018","640-BX","2018/02/27 14:49:40","新北市中和區莒光路213號","121.468908333333","24.994655","6500300","中和區"
"235024","647-TV","2018/02/27 14:49:32","新北市中和區新生街30巷10號","121.482815","25.0039","6500300","中和區"
"235011","732-UM","2018/02/27 14:49:35","新北市中和區和平街132號","121.506568333333","24.9917033333333","6500300","中和區"
"235010","733-UM","2018/02/27 14:49:45","新北市中和區仁愛街92號","121.511511666667","24.987315","6500300","中和區"
"235021","801-TS","2018/02/27 14:49:36","新北市中和區員山路130號","121.481155","24.9963133333333","6500300","中和區"
"235016","805-TS","2018/02/27 14:49:35","新北市中和區華新街30巷15號","121.50708","24.9842016666667","6500300","中和區"
"235012","896-TW","2018/02/27 14:49:46","新北市中和區忠孝街76號","121.512053333333","24.9842033333333","6500300","中和區"
"235017","900-TW","2018/02/27 14:49:48","新北市中和區國光街215巷10弄1-1號","121.46666","25.0009266666667","6500300","中和區"
"235015","157-BY","2018/02/27 14:49:32","新北市中和區中興街180巷50弄1號","121.498871666667","24.9890933333333","6500300","中和區"
"235001","AAC-213","2018/02/27 14:49:49","新北市中和區自立路66號","121.523923333333","24.9913083333333","6500300","中和區"
"235023","AAC-215","2018/02/27 14:49:26","新北市中和區圓通路335巷3弄20號","121.493481666667","24.9901933333333","6500300","中和區"
"220016","013-TV","2018/02/27 14:49:29","新北市板橋區光復街177號","121.484903333333","25.020815","6500100","板橋區"
"220013","072-UY","2018/02/27 14:49:39","新北市板橋區海山路39號","121.46723","25.0097233333333","6500100","板橋區"
"220034","073-UY","2018/02/27 14:49:46","新北市板橋區館前西路162號","121.452861666667","25.0086566666667","6500100","板橋區"
"220017","AAD-861","2018/02/27 14:49:44","新北市板橋區貴興路49號","121.4574","25.0033166666667","6500100","板橋區"
"247001","337-TH","2018/02/27 14:49:40","新北市蘆洲區永康街2巷8號","121.459283333333","25.0861433333333","6501400","蘆洲區"
"247013","007-UY","2018/02/27 14:49:34","新北市蘆洲區中山二路72號","121.47339","25.0821133333333","6501400","蘆洲區"
"247023","002-UY","2018/02/27 14:49:29","新北市蘆洲區和平路79號","121.469063333333","25.0792266666667","6501400","蘆洲區"
"235005","251-BX","2018/02/27 14:49:34","新北市永和區中和路373號","121.508465","24.99979","6500300","中和區"
"228004","212-TW","2018/02/27 14:49:39","新北市貢寮區福隆里裕隆街5號","121.946111666667","25.015945","6502600","貢寮區"
"228005","828-UM","2018/02/27 14:49:36","新北市貢寮區美豐里丹裡街65號","121.909075","25.058915","6502600","貢寮區"
"207002","749-BX","2018/02/27 14:49:28","新北市萬里區崁腳里崁腳路73號","121.647596666667","25.1595933333333","6502800","萬里區"
"207001","662-BX","2018/02/27 14:49:43","新北市萬里區雙興里二坪路1-1號","121.650095","25.176155","6502800","萬里區"
"236065","105-UM","2018/02/27 14:49:36","新北市土城區明德路一段369號","121.455375","24.9780116666667","6501300","土城區"
"236041","107-UM","2018/02/27 14:49:38","新北市土城區裕民路127號","121.451251666667","24.9865433333333","6501300","土城區"
"236075","166-UM","2018/02/27 14:49:40","新北市土城區中央路四段125巷2弄21號","121.416313333333","24.9567766666667","6501300","土城區"
"236029","253-BX","2018/02/27 14:49:34","新北市土城區忠義路26巷10號","121.439816666667","24.9699383333333","6501300","土城區"
"236024","269-VK","2018/02/27 14:49:35","新北市土城區慶安街57號","121.440895","24.97302","6501300","土城區"
"236013","270-VK","2018/02/27 14:49:42","新北市土城區金城路二段356號","121.461785","24.985135","6501300","土城區"
"236034","271-VK","2018/02/27 14:49:46","新北市土城區仁愛路42號","121.461803333333","24.979275","6501300","土城區"
"236017","401-BY","2018/02/27 14:49:26","新北市土城區延安街2號","121.46709","24.9862433333333","6501300","土城區"
"236045","752-BX","2018/02/27 14:49:45","新北市板橋區廣權路2號","121.460265","24.9906766666667","6501300","土城區"
"236057","912-UM","2018/02/27 14:49:38","新北市土城區中央路三段93號","121.437658333333","24.9676966666667","6501300","土城區"
"236061","915-UM","2018/02/27 14:49:36","新北市土城區金城路三段207巷6弄5號","121.470378333333","24.990065","6501300","土城區"
"236054","AAC-216","2018/02/27 14:49:33","新北市土城區裕民路179號","121.453343333333","24.98468","6501300","土城區"
"220028","200-UY","2018/02/27 14:49:44","新北市板橋區大觀路二段163巷12號","121.445935","25.0002866666667","6500100","板橋區"
"220105","KEA-2550","2018/02/27 14:49:28","新北市板橋區文化路二段650巷19號","121.478101666667","25.03481","6500100","板橋區"
"220030","610-BX","2018/02/27 14:49:45","新北市板橋區溪崑一街24號","121.430201666667","24.991135","6500100","板橋區"
"220050","245-BX","2018/02/27 14:49:49","新北市板橋區縣民大道三段79巷15號","121.475086666667","25.0220866666667","6500100","板橋區"
"220046","255-TC","2018/02/27 14:49:29","新北市板橋區民生路二段89-6號","121.470575","25.019395","6500100","板橋區"
"220045","257-TC","2018/02/27 14:49:45","新北市板橋區莒光路15巷34號","121.470668333333","25.025505","6500100","板橋區"
"220020","277-BY","2018/02/27 14:49:43","新北市板橋區金門街151巷40弄2號","121.433545","24.9902983333333","6500100","板橋區"
"220005","282-UM","2018/02/27 14:49:44","新北市板橋區信義路233-5號","121.459848333333","24.9912133333333","6500100","板橋區"
"220019","283-VK","2018/02/27 14:49:46","新北市板橋區五權街30巷12弄23號","121.463773333333","24.994135","6500100","板橋區"
"220043","285-UM","2018/02/27 14:49:45","新北市板橋區陽明街295號","121.461846666667","25.0266883333333","6500100","板橋區"
"220001","285-VK","2018/02/27 14:49:43","新北市板橋區中山路二段60巷1弄5號","121.474533333333","25.0154366666667","6500100","板橋區"
"220031","286-VK","2018/02/27 14:49:32","新北市板橋區僑中二街10巷26號","121.445966666667","25.0111033333333","6500100","板橋區"
"220029","287-VK","2018/02/27 14:49:29","新北市板橋區僑中一街80巷10弄1號","121.447985","25.012845","6500100","板橋區"
"220009","293-UM","2018/02/27 14:49:39","新北市板橋區觀光街79巷2號","121.469275","25.0169533333333","6500100","板橋區"
"220032","296-UM","2018/02/27 14:49:36","新北市板橋區滿平街2巷23號","121.425545","24.98945","6500100","板橋區"
"220023","303-R5","2018/02/27 14:49:47","新北市板橋區大勇街2號","121.455821666667","25.0177766666667","6500100","板橋區"
"220010","305-R5","2018/02/27 14:49:44","新北市板橋區中山路二段416巷57弄2號","121.483001666667","25.0189283333333","6500100","板橋區"
"220041","307-R5","2018/02/27 14:49:24","新北市板橋區四維路259巷34號","121.46175","25.0273966666667","6500100","板橋區"
"220047","317-R6","2018/02/27 14:49:27","新北市板橋區新海路385巷12號","121.458436666667","25.0258933333333","6500100","板橋區"
"220027","461-BY","2018/02/27 14:49:32","新北市板橋區建國街54巷29號","121.459938333333","25.0170416666667","6500100","板橋區"
"220012","486-VK","2018/02/27 14:49:41","新北市板橋區館前東路112號","121.463428333333","25.0075816666667","6500100","板橋區"
"220038","487-VK","2018/02/27 14:49:36","新北市板橋區英士路192-1號","121.458358333333","25.0237283333333","6500100","板橋區"
"220037","491-VK","2018/02/27 14:49:49","新北市板橋區文聖街130號","121.47819","25.0284316666667","6500100","板橋區"
"220104","560-BX","2018/02/27 14:49:48","新北市板橋區新生街53巷14號","121.457556666667","25.021525","6500100","板橋區"
"220052","561-BX","2018/02/27 14:49:40","新北市板橋區陽明街29巷14號","121.464641666667","25.02209","6500100","板橋區"
"220011","609-BX","2018/02/27 14:49:44","新北市板橋區萬安街27巷23號","121.483938333333","25.0227716666667","6500100","板橋區"
"220040","637-BX","2018/02/27 14:49:42","新北市板橋區民治街92號","121.479223333333","25.0318316666667","6500100","板橋區"
"220025","687-BX","2018/02/27 14:49:30","新北市板橋區僑中一街112號","121.446261666667","25.0117233333333","6500100","板橋區"
"220042","689-BX","2018/02/27 14:49:24","新北市板橋區長江路二段207號","121.467681666667","25.0323733333333","6500100","板橋區"
"220002","741-BX","2018/02/27 14:49:31","新北市板橋區國泰街75巷28弄66號","121.467135","25.00457","6500100","板橋區"
"220051","KEA-2699","2018/02/27 14:49:46","新北市板橋區仁化街3-1號","121.474668333333","25.031695","6500100","板橋區"
"220003","827-TW","2018/02/27 14:49:39","新北市板橋區仁愛路76巷3弄2號","121.46063","24.9990366666667","6500100","板橋區"
"220014","829-TW","2018/02/27 14:49:41","新北市板橋區長安街331巷24號","121.473943333333","25.0125683333333","6500100","板橋區"
"220039","830-TW","2018/02/27 14:49:28","新北市板橋區龍泉街90巷1號","121.456285","25.0250233333333","6500100","板橋區"
"220022","895-R6","2018/02/27 14:49:43","新北市板橋區民權路71號","121.461391666667","25.0116566666667","6500100","板橋區"
"220021","985-R7","2018/02/27 14:49:40","新北市板橋區南雅西路二段86號","121.4525","25.011085","6500100","板橋區"
"220046","AAC-210","2018/02/27 14:49:46","新北市板橋區國光路194號","121.461505","25.0184816666667","6500100","板橋區"
"220018","AAC-253","2018/02/27 14:49:45","新北市板橋區民族路83-1號","121.465773333333","25.0085633333333","6500100","板橋區"
