"lineid","car","time","location","longitude","latitude","cityid","cityname"
"234084","338-UY","2018/02/27 14:59:30","新北市八里區中山路三段365號","121.373715","25.1383466666667","6500400","永和區"
"234048","863-TW","2018/02/27 14:59:27","新北市八里區中山路三段335號","121.37702","25.140635","6500400","永和區"
"234025","9371-KE","2018/02/27 14:59:37","新北市永和區保生路24號","121.506523333333","25.0075766666667","6500400","永和區"
"248017","225-UY","2018/02/27 14:59:39","新北市五股區水碓九路59號","121.428973333333","25.0731633333333","6501500","五股區"
"244002","248-BX","2018/02/27 14:59:42","新北市林口區竹林路267號","121.389621666667","25.080825","6501700","林口區"
"231002","002-UM","2018/02/27 14:59:30","新北市新店區中正路501號","121.533668333333","24.9836083333333","6500600","新店區"
"231028","046-UY","2018/02/27 14:59:37","新北市新店區安豐路45號","121.500195","24.95509","6500600","新店區"
"231030","047-UY","2018/02/27 14:59:45","新北市新店區安民街339號","121.51692","24.9748333333333","6500600","新店區"
"231018","107-UY","2018/02/27 14:59:33","新北市新店區中央六街7號","121.530263333333","24.9746466666667","6500600","新店區"
"231012","108-UY","2018/02/27 14:59:41","新北市新店區中興路三段205巷9號","121.5432","24.98147","6500600","新店區"
"231020","187-VK","2018/02/27 14:59:32","新北市新店區永福路52號","121.559481666667","24.928125","6500600","新店區"
"231015","KEA-2219","2018/02/27 14:59:43","新北市新店區銀河路54-2號","121.575578333333","24.956905","6500600","新店區"
"231026","256-BX","2018/02/27 14:59:30","新北市新店區中正路114號","121.542381666667","24.9710666666667","6500600","新店區"
"231023","AAD-862","2018/02/27 14:59:41","新北市新店區檳榔路107號","121.54465","24.961575","6500600","新店區"
"231025","3713-VJ","2018/02/27 14:59:26","新北市新店區建國路218號","121.537848333333","24.9811133333333","6500600","新店區"
"231024","4716-K9","2018/02/27 14:59:40","新北市新店區中華路83巷67號","121.53832","24.9672733333333","6500600","新店區"
"231036","512-UM","2018/02/27 14:59:39","新北市新店區安祥路102巷46弄7號","121.485021666667","24.9641316666667","6500600","新店區"
"231035","513-UM","2018/02/27 14:59:40","新北市新店區永安街74巷20號","121.519266666667","24.9860616666667","6500600","新店區"
"231029","618-UM","2018/02/27 14:59:48","新北市新店區錦秀路1號","121.478966666667","24.9457966666667","6500600","新店區"
"231001","619-UM","2018/02/27 14:59:35","新北市新店區中正路278號","121.538806666667","24.9736766666667","6500600","新店區"
"231003","641-BX","2018/02/27 14:59:35","新北市新店區中興路二段228號","121.547931666667","24.9752216666667","6500600","新店區"
"231034","645-TV","2018/02/27 14:59:44","新北市新店區玫瑰路4-1號","121.493615","24.9513966666667","6500600","新店區"
"231039","718-UY","2018/02/27 14:59:35","新北市新店區寶中路45-3號","121.545246666667","24.9789766666667","6500600","新店區"
"231032","720-UM","2018/02/27 14:59:42","新北市新店區安泰路18-1號","121.485516666667","24.948665","6500600","新店區"
"231005","897-TW","2018/02/27 14:59:43","新北市新店區復興路43號","121.537076666667","24.9869216666667","6500600","新店區"
"231006","898-TW","2018/02/27 14:59:37","新北市新店區新坡一街72號","121.548883333333","24.9646","6500600","新店區"
"231004","899-TW","2018/02/27 14:59:49","新北市新店區建國路121號","121.539791666667","24.977855","6500600","新店區"
"231037","AKT-0513","2018/02/27 14:59:39","新北市新店區安民街365巷1弄8號","121.516305","24.975095","6500600","新店區"
"235030","003-UY","2018/02/27 14:59:31","新北市中和區中山路二段3巷18號","121.50612","25.0055483333333","6500300","中和區"
"235028","005-UY","2018/02/27 14:59:33","新北市中和區圓通路162-1號","121.497541666667","24.9952983333333","6500300","中和區"
"235034","031-BX","2018/02/27 14:59:28","新北市中和區圓通路73號","121.500055","24.9969866666667","6500300","中和區"
"235020","096-UM","2018/02/27 14:59:38","新北市板橋區漢生東路338號","121.471965","25.0075933333333","6500300","中和區"
"235003","097-UM","2018/02/27 14:59:47","新北市中和區安樂路143巷7號","121.5141","24.99707","6500300","中和區"
"235029","098-UM","2018/02/27 14:59:44","新北市中和區永和路128巷47號","121.497656666667","25.0068816666667","6500300","中和區"
"235004","150-BY","2018/02/27 14:59:28","新北市中和區保健路19巷12號","121.508696666667","24.998755","6500300","中和區"
"235013","186-VK","2018/02/27 14:59:37","新北市中和區景平路544號","121.502473333333","24.994665","6500300","中和區"
"235031","255-BX","2018/02/27 14:59:33","新北市中和區新生街200號","121.483783333333","24.99922","6500300","中和區"
"235008","293-VK","2018/02/27 14:59:32","新北市中和區中正路91號","121.500416666667","24.99355","6500300","中和區"
"235007","352-BY","2018/02/27 14:59:35","新北市中和區華新街230號","121.506075","24.98175","6500300","中和區"
"235032","377-QA","2018/02/27 14:59:39","新北市中和區福美路250號","121.49852","25.0052633333333","6500300","中和區"
"235035","269-TV","2018/02/27 14:59:38","新北市中和區中正路801號","121.484885","25.000935","6500300","中和區"
"235014","4979-A6","2018/02/27 14:59:43","新北市中和區景平路155巷24號","121.513495","24.9916433333333","6500300","中和區"
"235033","4980-A6","2018/02/27 14:59:33","新北市中和區景平路479號","121.500353333333","24.9972733333333","6500300","中和區"
"235018","640-BX","2018/02/27 14:59:44","新北市中和區莒光路5號","121.471861666667","25.0060283333333","6500300","中和區"
"235024","647-TV","2018/02/27 14:59:32","新北市中和區連城路631-2號","121.475918333333","24.9915033333333","6500300","中和區"
"235010","733-UM","2018/02/27 14:59:45","新北市中和區興南路一段93巷58弄1號","121.51062","24.9859","6500300","中和區"
"235016","805-TS","2018/02/27 14:59:35","新北市中和區忠孝街79號","121.512165","24.9851283333333","6500300","中和區"
"235012","896-TW","2018/02/27 14:59:46","新北市中和區忠孝街2-8號","121.509216666667","24.983005","6500300","中和區"
"235017","900-TW","2018/02/27 14:59:49","新北市中和區民德路258號","121.467948333333","24.9970733333333","6500300","中和區"
"235015","157-BY","2018/02/27 14:59:32","新北市中和區景安路198號","121.504275","24.9914233333333","6500300","中和區"
"235001","AAC-213","2018/02/27 14:59:29","新北市中和區自立路107號","121.52203","24.994635","6500300","中和區"
"235023","AAC-215","2018/02/27 14:59:47","新北市中和區圓通路335巷1弄1號","121.492125","24.9903716666667","6500300","中和區"
"220016","013-TV","2018/02/27 14:59:29","新北市板橋區中山路二段398號","121.482508333333","25.0207316666667","6500100","板橋區"
"220013","072-UY","2018/02/27 14:59:39","新北市板橋區民族路166號","121.464708333333","25.0081866666667","6500100","板橋區"
"220017","AAD-861","2018/02/27 14:59:38","新北市板橋區大明街20巷19弄10號","121.458275","25.003265","6500100","板橋區"
"247023","002-UY","2018/02/27 14:59:38","新北市五股區更洲路47號","121.456858333333","25.07912","6501400","蘆洲區"
"228004","212-TW","2018/02/27 14:59:39","新北市貢寮區雙玉里田寮洋街1號","121.928153333333","25.0182016666667","6502600","貢寮區"
"207002","749-BX","2018/02/27 14:59:28","新北市萬里區崁腳里崁腳路73號","121.647563333333","25.1595733333333","6502800","萬里區"
"207001","662-BX","2018/02/27 14:59:43","新北市萬里區磺潭里員潭路16號","121.646613333333","25.1978083333333","6502800","萬里區"
"236065","105-UM","2018/02/27 14:59:36","新北市土城區裕生路84巷12號","121.446736666667","24.9856316666667","6501300","土城區"
"236041","107-UM","2018/02/27 14:59:37","新北市土城區學府路一段189巷7號","121.452578333333","24.9846333333333","6501300","土城區"
"236075","166-UM","2018/02/27 14:59:40","新北市土城區中州路3巷48號","121.413556666667","24.9565883333333","6501300","土城區"
"236029","253-BX","2018/02/27 14:59:34","新北市土城區福仁街28號","121.439975","24.97565","6501300","土城區"
"236024","269-VK","2018/02/27 14:59:34","新北市土城區中正路74巷3弄2號","121.444775","24.97475","6501300","土城區"
"236013","270-VK","2018/02/27 14:59:42","新北市土城區延和路13巷14號","121.463678333333","24.9885","6501300","土城區"
"236034","271-VK","2018/02/27 14:59:46","新北市土城區清水路171號","121.459285","24.9815133333333","6501300","土城區"
"236017","401-BY","2018/02/27 14:59:46","新北市土城區延吉街217巷9弄2號","121.468895","24.9845016666667","6501300","土城區"
"236045","752-BX","2018/02/27 14:59:45","新北市土城區青雲路232號","121.458996666667","24.9808","6501300","土城區"
"236057","912-UM","2018/02/27 14:59:37","新北市土城區清水路1號","121.452881666667","24.9802066666667","6501300","土城區"
"236061","915-UM","2018/02/27 14:59:36","新北市土城區延和路41巷6弄15號","121.46659","24.9903683333333","6501300","土城區"
"236054","AAC-216","2018/02/27 14:59:40","新北市土城區學成路147號","121.448703333333","24.9895183333333","6501300","土城區"
"221002","707-TV","2018/02/27 14:59:44","新北市汐止區新興路112號","121.657771666667","25.0610716666667","6501100","汐止區"
"220028","200-UY","2018/02/27 14:59:44","新北市板橋區大觀路二段187巷7號","121.445253333333","24.9995733333333","6500100","板橋區"
"220105","KEA-2550","2018/02/27 14:59:48","新北市板橋區民治街44巷16號","121.478505","25.0330266666667","6500100","板橋區"
"220030","610-BX","2018/02/27 14:59:48","新北市板橋區篤行路二段131巷33-4號","121.431963333333","24.990105","6500100","板橋區"
"220050","245-BX","2018/02/27 14:59:48","新北市板橋區萬板路156號","121.475498333333","25.0234766666667","6500100","板橋區"
"220046","255-TC","2018/02/27 14:59:29","新北市板橋區民生路二段120號","121.4705","25.0194916666667","6500100","板橋區"
"220045","257-TC","2018/02/27 14:59:45","新北市板橋區莒光路81-1號","121.471831666667","25.02417","6500100","板橋區"
"220020","277-BY","2018/02/27 14:59:43","新北市板橋區金門街121巷10號","121.4334","24.991645","6500100","板橋區"
"220005","282-UM","2018/02/27 14:59:40","新北市板橋區南雅南路二段144巷30號","121.450225","24.9957366666667","6500100","板橋區"
"220019","283-VK","2018/02/27 14:59:48","新北市板橋區廣權路95號","121.464458333333","24.99256","6500100","板橋區"
"220043","285-UM","2018/02/27 14:59:31","新北市板橋區文德路36號","121.462225","25.024205","6500100","板橋區"
"220001","285-VK","2018/02/27 14:59:45","新北市板橋區永豐街109號","121.474075","25.0194933333333","6500100","板橋區"
"220031","286-VK","2018/02/27 14:59:42","新北市板橋區僑中二街88巷33號","121.444611666667","25.00954","6500100","板橋區"
"220029","287-VK","2018/02/27 14:59:49","新北市板橋區僑中一街80巷12弄1號","121.448168333333","25.013275","6500100","板橋區"
"220009","293-UM","2018/02/27 14:59:39","新北市板橋區中山路一段156號","121.465151666667","25.01179","6500100","板橋區"
"220023","303-R5","2018/02/27 14:59:27","新北市板橋區金華街10巷48弄69號","121.459521666667","25.0203066666667","6500100","板橋區"
"220010","305-R5","2018/02/27 14:59:44","新北市板橋區萬安街20巷10弄16號","121.484955","25.0235616666667","6500100","板橋區"
"220041","307-R5","2018/02/27 14:59:44","新北市板橋區裕民街130號","121.458848333333","25.027295","6500100","板橋區"
"220047","317-R6","2018/02/27 14:59:35","新北市板橋區新海路138號","121.460848333333","25.0233166666667","6500100","板橋區"
"220027","461-BY","2018/02/27 14:59:32","新北市板橋區大智街75號","121.453411666667","25.0156033333333","6500100","板橋區"
"220012","486-VK","2018/02/27 14:59:42","新北市板橋區區運路3號","121.465161666667","25.009385","6500100","板橋區"
"220038","487-VK","2018/02/27 14:59:36","新北市板橋區龍泉街108巷25號","121.456248333333","25.0240166666667","6500100","板橋區"
"220037","491-VK","2018/02/27 14:59:29","新北市板橋區懷德街59號","121.477421666667","25.0325366666667","6500100","板橋區"
"220052","561-BX","2018/02/27 14:59:35","新北市板橋區文化路一段421巷23-1號","121.466156666667","25.0232716666667","6500100","板橋區"
"220011","609-BX","2018/02/27 14:59:44","新北市板橋區三民路一段133號","121.479211666667","25.0202016666667","6500100","板橋區"
"220040","637-BX","2018/02/27 14:59:42","新北市板橋區民治街119巷7號","121.478551666667","25.0306666666667","6500100","板橋區"
"220025","687-BX","2018/02/27 14:59:44","新北市板橋區僑中一街124巷53號","121.446513333333","25.015535","6500100","板橋區"
"220042","689-BX","2018/02/27 14:59:44","新北市板橋區文化路二段620號","121.47819","25.03566","6500100","板橋區"
"220002","741-BX","2018/02/27 14:59:31","新北市板橋區忠孝路忠義巷9弄3號","121.465145","25.00475","6500100","板橋區"
"220051","KEA-2699","2018/02/27 14:59:46","新北市板橋區文聖街59號","121.476613333333","25.0312566666667","6500100","板橋區"
"220003","827-TW","2018/02/27 14:59:40","新北市板橋區國慶路149巷4弄16-4號","121.461881666667","24.9970416666667","6500100","板橋區"
"220014","829-TW","2018/02/27 14:59:41","新北市板橋區漢生東路163號","121.469591666667","25.0126216666667","6500100","板橋區"
"220039","830-TW","2018/02/27 14:59:28","新北市板橋區幸福路32巷42號","121.460678333333","25.021845","6500100","板橋區"
"220022","895-R6","2018/02/27 14:59:43","新北市板橋區府後街1巷20號","121.459696666667","25.011235","6500100","板橋區"
"220021","985-R7","2018/02/27 14:59:39","新北市板橋區大觀路288號","121.449683333333","24.9981916666667","6500100","板橋區"
"220046","AAC-210","2018/02/27 14:59:46","新北市板橋區光正街9巷22弄12號","121.462156666667","25.0166783333333","6500100","板橋區"
"220018","AAC-253","2018/02/27 14:59:41","新北市板橋區成都街19號","121.46059","25.0048733333333","6500100","板橋區"
