"lineid","car","time","location","longitude","latitude","cityid","cityname"
"234048","863-TW","2018/02/27 15:09:48","新北市八里區中山路三段380號","121.369695","25.1364116666667","6500400","永和區"
"234025","9371-KE","2018/02/27 15:09:37","新北市永和區保生路55-1號","121.504521666667","25.0109316666667","6500400","永和區"
"248017","225-UY","2018/02/27 15:09:39","新北市五股區登林路105-6號","121.4076","25.0790616666667","6501500","五股區"
"244002","248-BX","2018/02/27 15:09:42","新北市林口區竹林路267號","121.389616666667","25.08085","6501700","林口區"
"231002","002-UM","2018/02/27 15:09:30","新北市新店區中正路675號","121.53401","24.9901933333333","6500600","新店區"
"231028","046-UY","2018/02/27 15:09:37","新北市新店區僑愛三路12號","121.499473333333","24.9446616666667","6500600","新店區"
"231030","047-UY","2018/02/27 15:09:45","新北市新店區安民街339號","121.516938333333","24.97482","6500600","新店區"
"231018","107-UY","2018/02/27 15:09:33","新北市新店區中央六街105號","121.525695","24.9772183333333","6500600","新店區"
"231012","108-UY","2018/02/27 15:09:41","新北市新店區寶元路一段65號","121.542235","24.9858133333333","6500600","新店區"
"231020","187-VK","2018/02/27 15:09:32","新北市新店區湖興路101號","121.564843333333","24.932175","6500600","新店區"
"231015","KEA-2219","2018/02/27 15:04:43","新北市新店區明山路5號","121.563063333333","24.9549916666667","6500600","新店區"
"231026","256-BX","2018/02/27 15:09:30","新北市新店區建興街9巷1號","121.53985","24.97635","6500600","新店區"
"231023","AAD-862","2018/02/27 15:09:42","新北市新店區檳榔路45號","121.543071666667","24.96295","6500600","新店區"
"231025","3713-VJ","2018/02/27 15:09:46","新北市新店區中正路457號","121.533886666667","24.9802483333333","6500600","新店區"
"231024","4716-K9","2018/02/27 15:09:39","新北市新店區中華路42巷20號","121.54067","24.9687916666667","6500600","新店區"
"231036","512-UM","2018/02/27 15:09:39","新北市新店區安祥路104巷6弄7號","121.481721666667","24.9629366666667","6500600","新店區"
"231035","513-UM","2018/02/27 15:09:40","新北市新店區安和路三段138號","121.516205","24.9860583333333","6500600","新店區"
"231029","618-UM","2018/02/27 15:09:28","新北市新店區安康路三段738號","121.473926666667","24.942025","6500600","新店區"
"231001","619-UM","2018/02/27 15:09:35","新北市新店區中正路186號","121.540888333333","24.9722233333333","6500600","新店區"
"231003","641-BX","2018/02/27 15:09:35","新北市新店區寶橋路238號","121.551498333333","24.9789733333333","6500600","新店區"
"231034","645-TV","2018/02/27 15:09:44","新北市新店區玫瑰路4-1號","121.493621666667","24.9513933333333","6500600","新店區"
"231039","718-UY","2018/02/27 15:09:35","新北市新店區寶安街2號","121.542351666667","24.98063","6500600","新店區"
"231032","720-UM","2018/02/27 15:09:42","新北市新店區安泰路125-1號","121.487063333333","24.94103","6500600","新店區"
"231005","897-TW","2018/02/27 15:09:43","新北市新店區北新路三段118號","121.541593333333","24.9816833333333","6500600","新店區"
"231006","898-TW","2018/02/27 15:09:37","新北市新店區新坡一街2號","121.547951666667","24.960755","6500600","新店區"
"231004","899-TW","2018/02/27 15:09:47","新北市新店區博愛街13巷24號","121.540266666667","24.9740766666667","6500600","新店區"
"231037","AKT-0513","2018/02/27 15:09:39","新北市新店區安民街365巷1弄8號","121.516325","24.9750983333333","6500600","新店區"
"235030","003-UY","2018/02/27 15:09:30","新北市中和區水源路77號","121.506088333333","25.0035816666667","6500300","中和區"
"235034","031-BX","2018/02/27 15:09:48","新北市中和區中正路360號","121.493506666667","24.9942516666667","6500300","中和區"
"235020","096-UM","2018/02/27 15:09:38","新北市中和區中山路三段153號","121.4736","25.0061733333333","6500300","中和區"
"235003","097-UM","2018/02/27 15:09:47","新北市中和區安樂路217巷14號","121.513753333333","24.998695","6500300","中和區"
"235004","150-BY","2018/02/27 15:09:48","新北市中和區景安路79巷23號","121.507098333333","24.9966983333333","6500300","中和區"
"235007","352-BY","2018/02/27 15:09:34","新北市中和區興南路二段159巷12號","121.505143333333","24.983115","6500300","中和區"
"235032","377-QA","2018/02/27 15:09:39","新北市中和區錦和路142巷3號","121.488815","24.99749","6500300","中和區"
"235035","269-TV","2018/02/27 15:09:38","新北市中和區永和路363巷10號","121.482095","25.0109666666667","6500300","中和區"
"235014","4979-A6","2018/02/27 15:09:43","新北市中和區景新街323-3號","121.511301666667","24.9920466666667","6500300","中和區"
"235033","4980-A6","2018/02/27 15:09:33","新北市中和區景新街96巷10號","121.504375","24.9980733333333","6500300","中和區"
"235012","896-TW","2018/02/27 15:09:46","新北市中和區興南路二段22-3號","121.507518333333","24.98576","6500300","中和區"
"235015","157-BY","2018/02/27 15:09:32","新北市中和區捷運路22-2號","121.508591666667","24.9901816666667","6500300","中和區"
"235001","AAC-213","2018/02/27 15:09:49","新北市中和區自立路56巷1號","121.523415","24.9918383333333","6500300","中和區"
"235023","AAC-215","2018/02/27 15:09:47","新北市中和區圓通路367巷13弄26號","121.493061666667","24.9883","6500300","中和區"
"220016","013-TV","2018/02/27 15:09:30","新北市三重區五谷王北街161-1號","121.478115","25.053665","6500100","板橋區"
"220013","072-UY","2018/02/27 15:09:39","新北市板橋區華東街1-10號","121.448653333333","24.9948116666667","6500100","板橋區"
"228004","212-TW","2018/02/27 15:09:39","新北市貢寮區雙玉里田寮洋街16-2號","121.921788333333","25.025175","6502600","貢寮區"
"207002","749-BX","2018/02/27 15:09:43","新北市萬里區崁腳里內中福路92號","121.654115","25.1645183333333","6502800","萬里區"
"207001","662-BX","2018/02/27 15:09:43","新北市萬里區大鵬里萬里加投9號","121.652221666667","25.2086083333333","6502800","萬里區"
"236065","105-UM","2018/02/27 15:09:36","新北市土城區學成路134號","121.449053333333","24.989585","6501300","土城區"
"236041","107-UM","2018/02/27 15:09:38","新北市土城區裕民路270號","121.454963333333","24.9825016666667","6501300","土城區"
"236075","166-UM","2018/02/27 15:09:43","新北市土城區中州路47號","121.412875","24.9578916666667","6501300","土城區"
"236029","253-BX","2018/02/27 15:09:36","新北市土城區福祥街56號","121.44144","24.9813483333333","6501300","土城區"
"236024","269-VK","2018/02/27 15:09:34","新北市土城區中央路二段153號","121.442028333333","24.976535","6501300","土城區"
"236013","270-VK","2018/02/27 15:09:42","新北市土城區學府路一段99巷8號","121.456636666667","24.987055","6501300","土城區"
"236034","271-VK","2018/02/27 15:09:46","新北市土城區國際路5號","121.465273333333","24.9800333333333","6501300","土城區"
"236017","401-BY","2018/02/27 15:09:46","新北市土城區峰廷街3號","121.46909","24.9873583333333","6501300","土城區"
"236045","752-BX","2018/02/27 15:09:45","新北市土城區清水路159號","121.458723333333","24.9816233333333","6501300","土城區"
"236057","912-UM","2018/02/27 15:09:37","新北市土城區金城路二段241號","121.45573","24.9825683333333","6501300","土城區"
"236054","AAC-216","2018/02/27 15:09:33","新北市土城區學府路一段276號","121.449925","24.983045","6501300","土城區"
"220030","610-BX","2018/02/27 15:09:45","新北市板橋區大觀路三段50巷43號","121.432165","24.9955833333333","6500100","板橋區"
"220050","245-BX","2018/02/27 15:09:49","新北市板橋區雙十路二段47巷8弄10號","121.474518333333","25.02587","6500100","板橋區"
"220046","255-TC","2018/02/27 15:09:29","新北市板橋區民生路二段120號","121.470526666667","25.0195116666667","6500100","板橋區"
"220019","283-VK","2018/02/27 15:09:28","新北市板橋區大觀路三段52號","121.432288333333","24.99598","6500100","板橋區"
"220001","285-VK","2018/02/27 15:09:31","新北市板橋區中山路二段218號","121.47805","25.01784","6500100","板橋區"
"220031","286-VK","2018/02/27 15:09:32","新北市板橋區大觀路一段38巷156弄154號","121.444021666667","25.0088283333333","6500100","板橋區"
"220029","287-VK","2018/02/27 15:09:29","新北市板橋區僑中一街80巷1弄17號","121.446708333333","25.011985","6500100","板橋區"
"220009","293-UM","2018/02/27 15:09:39","新北市板橋區四川路一段286巷2號","121.458556666667","25.0008616666667","6500100","板橋區"
"220041","307-R5","2018/02/27 15:09:44","新北市板橋區文化路一段45巷6號","121.4602","25.013595","6500100","板橋區"
"220047","317-R6","2018/02/27 15:09:35","新北市板橋區新海路72巷5弄31-3號","121.461486666667","25.0230316666667","6500100","板橋區"
"220012","486-VK","2018/02/27 15:09:46","新北市板橋區中山路一段206巷141號","121.473136666667","25.01322","6500100","板橋區"
"220038","487-VK","2018/02/27 15:09:36","新北市板橋區新海路402號","121.458616666667","25.026805","6500100","板橋區"
"220037","491-VK","2018/02/27 15:09:29","新北市板橋區萬板路478號","121.479983333333","25.0261116666667","6500100","板橋區"
"220052","561-BX","2018/02/27 15:09:35","新北市板橋區陽明街279巷42號","121.460908333333","25.0255966666667","6500100","板橋區"
"220011","609-BX","2018/02/27 15:09:44","新北市板橋區中山路二段91號","121.474203333333","25.0159433333333","6500100","板橋區"
"220025","687-BX","2018/02/27 15:09:31","新北市板橋區大觀路一段28巷1弄94號","121.451545","25.0066933333333","6500100","板橋區"
"220042","689-BX","2018/02/27 15:09:44","新北市板橋區長江路二段8號","121.464568333333","25.0313066666667","6500100","板橋區"
"220051","KEA-2699","2018/02/27 15:09:46","新北市板橋區民治街135號","121.477765","25.0306416666667","6500100","板橋區"
"220005","806-UM","2018/02/27 15:08:56","新北市板橋區華東街1-9號","121.448165","24.99496","6500100","板橋區"
"220003","827-TW","2018/02/27 15:09:39","新北市板橋區四川路一段373號","121.458081666667","24.9995833333333","6500100","板橋區"
"220014","829-TW","2018/02/27 15:09:41","新北市板橋區中山路一段206巷4弄2號","121.470205","25.0131166666667","6500100","板橋區"
"220046","AAC-210","2018/02/27 15:09:46","新北市板橋區公館街94-1號","121.461356666667","25.0165866666667","6500100","板橋區"
"220018","AAC-253","2018/02/27 15:09:42","新北市板橋區四川路二段245巷93號","121.452898333333","24.99314","6500100","板橋區"
