"lineid","car","time","location","longitude","latitude","cityid","cityname"
"234048","863-TW","2018/02/27 15:49:48","新北市永和區福和路1號","121.525625","25.0093866666667","6500400","永和區"
"231030","047-UY","2018/02/27 15:49:45","新北市新店區永平街66號","121.516203333333","24.9849683333333","6500600","新店區"
"231018","107-UY","2018/02/27 15:49:33","新北市新店區中正路663巷7弄15號","121.532916666667","24.9901066666667","6500600","新店區"
"231012","108-UY","2018/02/27 15:49:41","新北市新店區寶強路5號","121.542898333333","24.979085","6500600","新店區"
"231020","187-VK","2018/02/27 15:49:32","新北市新店區北宜路一段41號","121.538258333333","24.9572583333333","6500600","新店區"
"231015","KEA-2219","2018/02/27 15:49:43","新北市新店區中華路83巷4弄11號","121.538543333333","24.96845","6500600","新店區"
"231026","256-BX","2018/02/27 15:49:30","新北市新店區中正路491號","121.533798333333","24.9824316666667","6500600","新店區"
"231046","278-BY","2018/02/27 15:49:35","新北市新店區安華路28-1號","121.51969","24.96106","6500600","新店區"
"231038","4715-K9","2018/02/27 15:49:42","新北市新店區安康路二段266號","121.508586666667","24.958935","6500600","新店區"
"231035","513-UM","2018/02/27 15:49:40","新北市新店區安民街365巷10弄24號","121.515926666667","24.97607","6500600","新店區"
"231003","641-BX","2018/02/27 15:49:35","新北市新店區寶興路60巷4號","121.549775","24.97191","6500600","新店區"
"231034","645-TV","2018/02/27 15:49:44","新北市新店區玫瑰路57巷48號","121.497476666667","24.9463833333333","6500600","新店區"
"231013","719-UM","2018/02/27 15:49:44","新北市新店區華潭街24號","121.529271666667","24.953365","6500600","新店區"
"231032","720-UM","2018/02/27 15:49:42","新北市新店區雙城路60巷13號","121.491921666667","24.9476283333333","6500600","新店區"
"231037","AKT-0513","2018/02/27 15:49:39","新北市新店區安民街65巷21-2號","121.51527","24.9675266666667","6500600","新店區"
"241011","013-R5","2018/02/27 15:49:37","新北市三重區三和路二段228號","121.497508333333","25.069675","6500200","三重區"
"241028","022-UY","2018/02/27 15:49:39","新北市三重區中正南路46號","121.493886666667","25.0599966666667","6500200","三重區"
"241008","059-VK","2018/02/27 15:49:36","新北市三重區新北大道一段250號","121.479885","25.0613083333333","6500200","三重區"
"241015","062-VK","2018/02/27 15:49:36","新北市三重區重新路四段121號","121.48516","25.0521116666667","6500200","三重區"
"241017","063-VK","2018/02/27 15:49:31","新北市三重區明志街28號","121.491691666667","25.0639583333333","6500200","三重區"
"241003","156-TC","2018/02/27 15:49:35","新北市三重區河邊北街363號","121.502358333333","25.07622","6500200","三重區"
"241005","262-UM","2018/02/27 15:49:43","新北市三重區成功路10號","121.490056666667","25.0500433333333","6500200","三重區"
"241022","267-UM","2018/02/27 15:49:31","新北市三重區成功路110-10號","121.485391666667","25.050405","6500200","三重區"
"241013","270-UM","2018/02/27 15:49:27","新北市三重區六張街2號","121.495858333333","25.070735","6500200","三重區"
"241007","398-BY","2018/02/27 15:49:35","新北市三重區成功路108巷8號","121.485495","25.0504066666667","6500200","三重區"
"241020","413-TH","2018/02/27 15:49:45","新北市三重區忠孝路二段56號","121.484983333333","25.0703566666667","6500200","三重區"
"241024","478-VK","2018/02/27 15:49:38","新北市三重區捷運路36號","121.482646666667","25.055405","6500200","三重區"
"241023","545-UM","2018/02/27 15:49:46","新北市三重區新北大道一段250號","121.479805","25.061095","6500200","三重區"
"241001","547-UM","2018/02/27 15:49:31","新北市三重區重新路四段121號","121.48463","25.0522916666667","6500200","三重區"
"241012","941-UM","2018/02/27 15:49:36","新北市三重區長壽街1號","121.498178333333","25.067555","6500200","三重區"
"241029","942-UM","2018/02/27 15:49:44","新北市三重區大同南路242號","121.49693","25.055915","6500200","三重區"
"241033","AAC-255","2018/02/27 15:49:38","新北市三重區五谷王北街58巷46號","121.474165","25.051735","6500200","三重區"
"235025","378-QA","2018/02/27 15:31:20","新北市中和區員山路36巷13號","121.484125","24.991205","6500300","中和區"
"235033","4980-A6","2018/02/27 15:49:33","新北市中和區連城路469巷25號","121.483583333333","24.99495","6500300","中和區"
"235026","800-TS","2018/02/27 15:49:29","新北市中和區永和路191巷20號","121.491293333333","25.0066116666667","6500300","中和區"
"235023","AAC-215","2018/02/27 15:49:47","新北市中和區員山路49-6號","121.480448333333","24.991465","6500300","中和區"
"224007","273-VK","2018/02/27 15:49:45","新北市瑞芳區大寮路356-1號","121.784683333333","25.103105","6501200","瑞芳區"
"224005","271-BY","2018/02/27 15:49:45","新北市瑞芳區傑魚坑路183號","121.788563333333","25.1082633333333","6501200","瑞芳區"
"227003","642-TC","2018/02/27 15:49:42","新北市雙溪區平林里外平林44號","121.852886666667","25.0363433333333","6502500","雙溪區"
"227009","400-TW","2018/02/27 15:49:33","新北市雙溪區牡丹里中正路54號","121.8654","25.04008","6502500","雙溪區"
"251013","179-VK","2018/02/27 15:49:40","新北市淡水區中正路二段31號","121.419645","25.18137","6501000","淡水區"
"236065","105-UM","2018/02/27 15:49:36","新北市土城區金安街12號","121.421113333333","24.96447","6501300","土城區"
"236017","401-BY","2018/02/27 15:49:46","新北市土城區延吉街21巷1號","121.472546666667","24.9884683333333","6501300","土城區"
"236045","752-BX","2018/02/27 15:49:45","新北市土城區裕民路285號","121.456135","24.9817166666667","6501300","土城區"
"236057","912-UM","2018/02/27 15:49:37","新北市土城區中央路一段330號","121.443153333333","24.98144","6501300","土城區"
"236054","AAC-216","2018/02/27 15:49:33","新北市土城區中華路一段201號","121.442906666667","24.9852166666667","6501300","土城區"
"220046","255-TC","2018/02/27 15:49:29","新北市板橋區民生路二段120號","121.470461666667","25.0195983333333","6500100","板橋區"
