"lineid","car","time","location","longitude","latitude","cityid","cityname"
"249005","172-UM","2018/02/27 17:29:46","新北市八里區荖阡坑路36號","121.408711666667","25.1254233333333","6502300","八里區"
"249001","173-UM","2018/02/27 17:29:44","新北市八里區中華路一段1-5號","121.423198333333","25.15862","6502300","八里區"
"249004","303-UY","2018/02/27 17:29:39","新北市八里區賢一街219號","121.415648333333","25.1559033333333","6502300","八里區"
"249002","305-UY","2018/02/27 17:29:24","新北市八里區龍形五街35巷3號","121.449148333333","25.1333816666667","6502300","八里區"
"249003","593-UM","2018/02/27 17:29:41","新北市八里區中山路二段398號","121.400576666667","25.147825","6502300","八里區"
"244013","069-UM","2018/02/27 17:29:39","新北市林口區中山路305號","121.383785","25.080445","6501700","林口區"
"244007","080-UY","2018/02/27 17:29:37","新北市林口區菁埔48-6號","121.38303","25.0935083333333","6501700","林口區"
"244019","402-UM","2018/02/27 17:29:34","新北市林口區公園路122號","121.370918333333","25.071375","6501700","林口區"
"244025","742-UY","2018/02/27 17:29:43","新北市林口區忠孝路53號","121.36541","25.0751066666667","6501700","林口區"
"244009","657-BX","2018/02/27 17:29:34","新北市林口區中湖40-9號","121.383228333333","25.0911866666667","6501700","林口區"
"244023","837-TS","2018/02/27 17:29:43","新北市林口區東明一街1巷29號","121.393845","25.071915","6501700","林口區"
"244021","838-TS","2018/02/27 17:29:41","新北市林口區粉寮1號","121.397388333333","25.07996","6501700","林口區"
"231046","278-BY","2018/02/27 17:29:35","新北市新店區直潭路92號","121.5309","24.9376016666667","6500600","新店區"
"241011","013-R5","2018/02/27 17:29:37","新北市三重區河邊北街124巷11號","121.503333333333","25.0714266666667","6500200","三重區"
"241015","062-VK","2018/02/27 17:29:36","新北市三重區長元街65巷20弄18號","121.503521666667","25.0661083333333","6500200","三重區"
"241017","063-VK","2018/02/27 17:29:51","新北市三重區大同北路34巷42號","121.493941666667","25.06214","6500200","三重區"
"241026","066-VK","2018/02/27 17:29:38","新北市三重區光興街27號","121.499771666667","25.0603933333333","6500200","三重區"
"241003","156-TC","2018/02/27 17:29:35","新北市三重區五華街141巷58號","121.493505","25.0867766666667","6500200","三重區"
"241005","262-UM","2018/02/27 17:29:30","新北市三重區永安北路二段5巷39號","121.482865","25.08114","6500200","三重區"
"241016","265-UM","2018/02/27 17:29:32","新北市三重區信義西街41號","121.495263333333","25.06397","6500200","三重區"
"241018","268-UM","2018/02/27 17:29:44","新北市三重區新北大道一段3-1號","121.49009","25.0614266666667","6500200","三重區"
"241025","271-UM","2018/02/27 17:29:43","新北市三重區中正北路392-1號","121.475988333333","25.0702","6500200","三重區"
"241007","398-BY","2018/02/27 17:29:35","新北市三重區三和路四段145巷149號","121.487455","25.0790683333333","6500200","三重區"
"241020","413-TH","2018/02/27 17:29:45","新北市三重區忠孝路二段51號","121.485668333333","25.0710366666667","6500200","三重區"
"241024","478-VK","2018/02/27 17:29:38","新北市三重區大勇街51號","121.481281666667","25.0719233333333","6500200","三重區"
"241030","480-VK","2018/02/27 17:29:37","新北市三重區中正南路265號","121.493085","25.05266","6500200","三重區"
"241014","543-UM","2018/02/27 17:29:38","新北市三重區長壽街79-26號","121.502368333333","25.06866","6500200","三重區"
"241023","545-UM","2018/02/27 17:29:46","新北市三重區忠孝路三段84巷28號","121.48151","25.0641966666667","6500200","三重區"
"241019","KEA-2593","2018/02/27 17:29:41","新北市三重區六張街163號","121.489446666667","25.0690683333333","6500200","三重區"
"241012","941-UM","2018/02/27 17:29:42","新北市三重區仁興街33巷1號","121.499315","25.0753216666667","6500200","三重區"
"241033","AAC-255","2018/02/27 17:29:38","新北市三重區興德路135號","121.46991","25.0528316666667","6500200","三重區"
"247022","893-R6","2018/02/27 17:29:37","新北市蘆洲區三民路456號","121.467088333333","25.0903866666667","6501400","蘆洲區"
"247020","500-BY","2018/02/27 17:29:25","新北市蘆洲區仁愛街101巷6號","121.470813333333","25.094155","6501400","蘆洲區"
"247010","339-TH","2018/02/27 17:29:30","新北市蘆洲區中山一路74巷55號","121.480015","25.0815016666667","6501400","蘆洲區"
"247002","337-TH","2018/02/27 17:29:52","新北市蘆洲區永樂街38巷67弄17號","121.457955","25.0907566666667","6501400","蘆洲區"
"247004","336-TH","2018/02/27 17:29:44","新北市蘆洲區永安南路二段306號","121.457185","25.082225","6501400","蘆洲區"
"247012","335-TH","2018/02/27 17:29:29","新北市蘆洲區民族路94號","121.478028333333","25.085105","6501400","蘆洲區"
"247016","057-VK","2018/02/27 17:29:37","新北市蘆洲區光華路22巷55號","121.468011666667","25.0850733333333","6501400","蘆洲區"
"247006","056-VK","2018/02/27 17:29:45","新北市蘆洲區長安街22巷42號","121.46521","25.0802333333333","6501400","蘆洲區"
"247008","053-VK","2018/02/27 17:29:37","新北市蘆洲區信義路30巷22號","121.474388333333","25.0786933333333","6501400","蘆洲區"
"247014","007-UY","2018/02/27 17:29:37","新北市蘆洲區三民路33號","121.475455","25.0829766666667","6501400","蘆洲區"
"247024","002-UY","2018/02/27 17:29:46","新北市蘆洲區長興路298巷2號","121.460736666667","25.0901183333333","6501400","蘆洲區"
"247018","001-UY","2018/02/27 17:29:52","新北市蘆洲區民權路109號","121.472585","25.0893016666667","6501400","蘆洲區"
"228001","212-TW","2018/02/27 17:29:42","新北市貢寮區仁理村仁愛路62巷1號","121.92586","25.0535433333333","6502600","貢寮區"
"228002","663-BX","2018/02/27 17:29:45","新北市貢寮區福隆里興隆街22號","121.944718333333","25.0166833333333","6502600","貢寮區"
"228003","828-UM","2018/02/27 17:29:45","新北市貢寮區仁理村仁和路2-1號","121.923146666667","25.0486483333333","6502600","貢寮區"
"224010","AGQ-8101","2018/02/27 17:29:50","新北市瑞芳區逢甲路89號","121.807393333333","25.1095833333333","6501200","瑞芳區"
"224006","676-BX","2018/02/27 17:29:43","新北市瑞芳區傑魚坑路147號","121.790283333333","25.1096766666667","6501200","瑞芳區"
"224009","285-BY","2018/02/27 17:29:31","新北市瑞芳區汽車路22號","121.845511666667","25.109855","6501200","瑞芳區"
"224008","275-VK","2018/02/27 17:29:42","新北市瑞芳區九芎橋路162號","121.833673333333","25.0956733333333","6501200","瑞芳區"
"224005","271-BY","2018/02/27 17:29:51","新北市瑞芳區海濱路8-6號","121.831655","25.1260466666667","6501200","瑞芳區"
"227003","642-TC","2018/02/27 17:29:42","新北市雙溪區平林里梅竹蹊69號","121.844531666667","25.03028","6502500","雙溪區"
"227009","400-TW","2018/02/27 17:29:33","新北市雙溪區三貂里政光路10號","121.850858333333","25.0708866666667","6502500","雙溪區"
"251004","009-UM","2018/02/27 17:29:45","新北市淡水區中正東路二段88巷15號","121.458943333333","25.1504433333333","6501000","淡水區"
"251013","179-VK","2018/02/27 17:29:40","新北市淡水區大竹圍5號","121.466586666667","25.1951983333333","6501000","淡水區"
"251014","180-VK","2018/02/27 17:29:37","新北市淡水區公埔子20-6號","121.471526666667","25.22667","6501000","淡水區"
"251008","181-VK","2018/02/27 17:29:34","新北市淡水區大同路124巷6號","121.463465","25.14037","6501000","淡水區"
"251015","182-VK","2018/02/27 17:29:40","新北市淡水區三空泉15號","121.472691666667","25.1633016666667","6501000","淡水區"
"251010","413-VK","2018/02/27 17:29:37","新北市淡水區中正路二段211號","121.426203333333","25.1891433333333","6501000","淡水區"
"251012","441-VK","2018/02/27 17:29:34","新北市淡水區北新路124號","121.448073333333","25.1783283333333","6501000","淡水區"
"251016","442-VK","2018/02/27 17:29:39","新北市淡水區社厝坑13號","121.465038333333","25.191765","6501000","淡水區"
"251005","443-VK","2018/02/27 17:29:47","新北市淡水區鄧公路31巷1號","121.45134","25.1708566666667","6501000","淡水區"
"251006","561-UM","2018/02/27 17:29:34","新北市淡水區大仁街45號","121.442655","25.17571","6501000","淡水區"
"251009","575-R6","2018/02/27 17:29:35","新北市淡水區新生街108巷12號","121.439675","25.1742416666667","6501000","淡水區"
"251007","577-R6","2018/02/27 17:29:39","新北市淡水區民生路60號","121.462168333333","25.1378883333333","6501000","淡水區"
"251011","650-BX","2018/02/27 17:29:43","新北市淡水區坪頂路712號","121.48247","25.1585133333333","6501000","淡水區"
"251002","672-BX","2018/02/27 17:29:45","新北市淡水區中正路261號","121.431933333333","25.1747666666667","6501000","淡水區"
"251003","673-BX","2018/02/27 17:29:44","新北市淡水區真理街1號","121.438096666667","25.1728933333333","6501000","淡水區"
"207004","225-TW","2018/02/27 17:29:49","新北市萬里區萬里里景美路6-1號","121.68359","25.1724416666667","6502800","萬里區"
"252002","178-VK","2018/02/27 17:29:33","新北市三芝區忠孝街1-14號","121.505573333333","25.2540333333333","6502100","三芝區"
"252001","292-VK","2018/02/27 17:29:38","新北市三芝區淡金路一段3號","121.498121666667","25.259615","6502100","三芝區"
"237011","KEA-2596","2018/02/27 17:29:50","新北市三峽區中山路459巷163-3號","121.348628333333","24.9330166666667","6500900","三峽區"
"242029","986-R7","2018/02/27 17:29:48","新北市新莊區幸福路36號","121.458476666667","25.0495483333333","6500500","新莊區"
"242051","751-BX","2018/02/27 17:29:47","新北市新莊區新樹路266-6號","121.432608333333","25.0137633333333","6500500","新莊區"
"242025","615-BX","2018/02/27 17:29:47","新北市新莊區中港路281號","121.45318","25.0437766666667","6500500","新莊區"
"242023","613-BX","2018/02/27 17:29:40","新北市新莊區公園路29號","121.452885","25.0402716666667","6500500","新莊區"
"242027","612-BX","2018/02/27 17:29:51","新北市新莊區思源路283號","121.459908333333","25.0482166666667","6500500","新莊區"
"242039","566-BX","2018/02/27 17:29:48","新北市新莊區民安東路7號","121.427708333333","25.0210566666667","6500500","新莊區"
"242044","497-BY","2018/02/27 17:29:33","新北市新莊區富國路101-1號","121.4213","25.0255716666667","6500500","新莊區"
"242048","441-UM","2018/02/27 17:29:45","新北市新莊區四維路212巷2號","121.421243333333","25.0201816666667","6500500","新莊區"
"242054","440-UM","2018/02/27 17:29:47","新北市新莊區瓊林南路305巷2號","121.434236666667","25.0059883333333","6500500","新莊區"
"242034","415-TV","2018/02/27 17:29:40","新北市新莊區新莊路372號","121.449303333333","25.0334833333333","6500500","新莊區"
"242005","413-TV","2018/02/27 17:29:31","新北市新莊區中港路284號","121.453025","25.0441816666667","6500500","新莊區"
"242042","400-BY","2018/02/27 17:29:45","新北市新莊區中正路514巷21號","121.43298","25.0330883333333","6500500","新莊區"
"242061","362-BY","2018/02/27 17:29:36","新北市新莊區瓊林南路21-1號","121.437773333333","25.0202116666667","6500500","新莊區"
"242058","353-BY","2018/02/27 17:29:37","新北市新莊區中正路432號","121.440621666667","25.0337133333333","6500500","新莊區"
"242007","132-UY","2018/02/27 17:29:33","新北市新莊區自強街21號","121.454673333333","25.0462166666667","6500500","新莊區"
"242037","133-UY","2018/02/27 17:29:38","新北市新莊區建國二路5-3號","121.434835","25.0236833333333","6500500","新莊區"
"242021","135-UY","2018/02/27 17:29:37","新北市新莊區中華路一段3號","121.45192","25.0371516666667","6500500","新莊區"
"242046","172-VK","2018/02/27 17:29:33","新北市新莊區新樹路65-4號","121.439671666667","25.0310933333333","6500500","新莊區"
"242009","173-VK","2018/02/27 17:28:48","新北市新莊區中港路620巷6號","121.451593333333","25.05464","6500500","新莊區"
"242015","175-VK","2018/02/27 17:29:34","新北市新莊區新泰路199號","121.447188333333","25.0380583333333","6500500","新莊區"
"242002","176-VK","2018/02/27 17:29:46","新北市新莊區新莊路154號","121.455188333333","25.0354783333333","6500500","新莊區"
"242013","346-TH","2018/02/27 17:29:34","新北市新莊區中誠街16巷5號","121.451826666667","25.0485233333333","6500500","新莊區"
"242019","348-TH","2018/02/27 17:29:47","新北市新莊區中港路85號","121.455441666667","25.0390733333333","6500500","新莊區"
"242017","350-TH","2018/02/27 17:29:32","新北市新莊區德豐街2號","121.451673333333","25.0438516666667","6500500","新莊區"
"242011","351-TH","2018/02/27 17:29:34","新北市新莊區中港路390號","121.452405","25.049265","6500500","新莊區"
"238015","755-BX","2018/02/27 17:29:48","新北市樹林區大安路267號","121.419068333333","24.993685","6500700","樹林區"
"238023","601-UM","2018/02/27 17:29:33","新北市樹林區中正路434號","121.413758333333","25.0113116666667","6500700","樹林區"
"238019","599-UM","2018/02/27 17:29:35","新北市樹林區中華路221號","121.419053333333","24.981","6500700","樹林區"
"238018","571-TV","2018/02/27 17:29:46","新北市樹林區鎮前街273號","121.419615","24.9857766666667","6500700","樹林區"
"238024","5061-A6","2018/02/27 17:29:51","新北市樹林區博愛街163-1號","121.425276666667","24.9900516666667","6500700","樹林區"
"238022","KEA-2213","2018/02/27 17:29:51","新北市樹林區信義街7號","121.422335","24.981885","6500700","樹林區"
"238026","KEA-2539","2018/02/27 17:29:37","新北市樹林區民權街20號","121.397771666667","24.9585183333333","6500700","樹林區"
"238025","303-VK","2018/02/27 17:29:33","新北市樹林區保安街一段195號","121.42105","24.9959666666667","6500700","樹林區"
"238017","283-BY","2018/02/27 17:29:48","新北市樹林區光武街34-3號","121.416716666667","25.0065116666667","6500700","樹林區"
"238014","282-BY","2018/02/27 17:29:43","新北市樹林區保安街一段217號","121.41995","24.9960666666667","6500700","樹林區"
"238020","268-VK","2018/02/27 17:29:42","新北市樹林區俊英街160巷13號","121.42729","25.0069283333333","6500700","樹林區"
"238026","172-UY","2018/02/27 17:29:36","新北市樹林區新興街2巷2號","121.400191666667","24.9741016666667","6500700","樹林區"
"238016","169-UY","2018/02/27 17:29:41","新北市樹林區長壽街36號","121.42279","24.9937933333333","6500700","樹林區"
"239007","AAC-297","2018/02/27 17:29:32","新北市鶯歌區中山路300號","121.342881666667","24.9575683333333","6500800","鶯歌區"
"239006","891-R6","2018/02/27 17:29:30","新北市鶯歌區鳳鳴路67號","121.333956666667","24.9656583333333","6500800","鶯歌區"
"239008","527-UM","2018/02/27 17:29:31","新北市鶯歌區大湖路762號","121.33188","24.977265","6500800","鶯歌區"
"239005","526-UM","2018/02/27 17:29:36","新北市鶯歌區福隆二街32號","121.325011666667","24.97175","6500800","鶯歌區"
"239001","417-VK","2018/02/27 17:29:25","新北市鶯歌區中正三路153-1號","121.336595","24.94009","6500800","鶯歌區"
"239003","360-BY","2018/02/27 17:29:44","新北市鶯歌區鶯桃路188號","121.337915","24.95859","6500800","鶯歌區"
"239004","193-VK","2018/02/27 17:29:47","新北市鶯歌區三鶯路29巷19號","121.354693333333","24.9403466666667","6500800","鶯歌區"
"221033","647-BX","2018/02/27 17:29:42","新北市汐止區汐萬路一段310號","121.65031","25.0748183333333","6501100","汐止區"
"220046","255-TC","2018/02/27 17:29:29","新北市板橋區民生路二段120號","121.470335","25.0196833333333","6500100","板橋區"
"242032","281-VK","2018/02/27 17:29:39","新北市新莊區新泰路401巷29-1號","121.442491666667","25.0438366666667","6500500","新莊區"
"242056","280-VK","2018/02/27 17:29:51","新北市新莊區景德路384號","121.446085","25.0335433333333","6500500","新莊區"
