"lineid","car","time","location","longitude","latitude","cityid","cityname"
"234026","9371-KE","2018/02/27 17:49:49","新北市永和區中山路一段19號","121.513811666667","25.0103916666667","6500400","永和區"
"249005","172-UM","2018/02/27 17:49:46","新北市八里區荖阡坑路41-10號","121.402381666667","25.13348","6502300","八里區"
"249001","173-UM","2018/02/27 17:49:44","新北市八里區龍米路二段129巷1號","121.44577","25.1469933333333","6502300","八里區"
"249004","303-UY","2018/02/27 17:49:39","新北市八里區中華路一段81巷24號","121.419665","25.1526533333333","6502300","八里區"
"249002","305-UY","2018/02/27 17:49:43","新北市八里區龍形五街37巷3號","121.448523333333","25.1322766666667","6502300","八里區"
"249003","593-UM","2018/02/27 17:49:41","新北市八里區中山路二段123號","121.405435","25.1519283333333","6502300","八里區"
"248008","095-VK","2018/02/27 17:49:48","新北市五股區中興路二段83巷26-6號","121.4601","25.0750483333333","6501500","五股區"
"248020","225-UY","2018/02/27 17:49:44","新北市五股區中興路二段83巷26-6號","121.45998","25.0752483333333","6501500","五股區"
"232011","375-UM","2018/02/27 17:49:45","新北市坪林區北宜路八段29號","121.703578333333","24.9359766666667","6502000","坪林區"
"244013","069-UM","2018/02/27 17:49:39","新北市林口區中正路478-1號","121.383058333333","25.0777366666667","6501700","林口區"
"244007","080-UY","2018/02/27 17:49:37","新北市林口區竹林路155號","121.388676666667","25.0798833333333","6501700","林口區"
"244019","402-UM","2018/02/27 17:49:34","新北市林口區忠孝路512巷36號","121.37155","25.0681883333333","6501700","林口區"
"244025","742-UY","2018/02/27 17:49:43","新北市林口區文化三路一段165號","121.361508333333","25.0691333333333","6501700","林口區"
"244017","485-VK","2018/02/27 17:49:49","新北市林口區文化二路一段260巷9-3號","121.371601666667","25.07282","6501700","林口區"
"244009","657-BX","2018/02/27 17:49:34","新北市林口區中北三街61號","121.384746666667","25.0855416666667","6501700","林口區"
"244011","701-TV","2018/02/27 17:49:31","新北市林口區佳林路217號","121.383881666667","25.0765466666667","6501700","林口區"
"244023","837-TS","2018/02/27 17:49:43","新北市林口區東湖路62號","121.387425","25.0736","6501700","林口區"
"244021","838-TS","2018/02/27 17:49:41","新北市林口區仁愛路一段83巷38號","121.39767","25.0706333333333","6501700","林口區"
"222003","436-BY","2018/02/27 17:49:42","新北市深坑區阿柔洋60-1號","121.60856","24.9985416666667","6501800","深坑區"
"222002","659-BX","2018/02/27 17:49:48","新北市深坑區平埔街22巷17弄1號","121.614868333333","25.0008816666667","6501800","深坑區"
"231046","278-BY","2018/02/27 17:49:35","新北市新店區下石厝路11-5號","121.531143333333","24.9292466666667","6500600","新店區"
"231058","3712-VJ","2018/02/27 17:49:41","新北市新店區安華路28-1號","121.51913","24.9606616666667","6500600","新店區"
"241016","265-UM","2018/02/27 17:49:32","新北市三重區新北大道一段7號","121.489525","25.0614516666667","6500200","三重區"
"241024","478-VK","2018/02/27 17:49:38","新北市三重區車路頭街62巷20號","121.48335","25.072225","6500200","三重區"
"241033","AAC-255","2018/02/27 17:49:37","新北市三重區光復路一段7號","121.472213333333","25.0470566666667","6500200","三重區"
"235064","005-UY","2018/02/27 17:49:46","新北市中和區員山路36巷16-3號","121.485048333333","24.9914066666667","6500300","中和區"
"235065","098-UM","2018/02/27 17:49:47","新北市中和區員山路36巷16-3號","121.485006666667","24.99124","6500300","中和區"
"235046","733-UM","2018/02/27 17:49:53","新北市中和區員山路36巷13號","121.484146666667","24.9909116666667","6500300","中和區"
"247022","893-R6","2018/02/27 17:49:36","新北市蘆洲區中正路400號","121.463145","25.0934216666667","6501400","蘆洲區"
"247020","500-BY","2018/02/27 17:49:36","新北市蘆洲區民義街71巷17號","121.472666666667","25.0906266666667","6501400","蘆洲區"
"247010","339-TH","2018/02/27 17:49:49","新北市蘆洲區信義路259巷1號","121.478715","25.08461","6501400","蘆洲區"
"247002","337-TH","2018/02/27 17:49:52","新北市蘆洲區永平街32巷33弄8號","121.459051666667","25.09219","6501400","蘆洲區"
"247012","335-TH","2018/02/27 17:49:49","新北市蘆洲區復興路132號","121.476718333333","25.0874033333333","6501400","蘆洲區"
"247016","057-VK","2018/02/27 17:48:57","新北市蘆洲區光華路46巷21弄10號","121.467881666667","25.08355","6501400","蘆洲區"
"247006","056-VK","2018/02/27 17:49:45","新北市蘆洲區九芎街153巷8號","121.465351666667","25.078655","6501400","蘆洲區"
"247008","053-VK","2018/02/27 17:49:45","新北市蘆洲區中山一路211號","121.47393","25.0807683333333","6501400","蘆洲區"
"247014","007-UY","2018/02/27 17:49:37","新北市蘆洲區保和街67號","121.469455","25.08614","6501400","蘆洲區"
"247024","002-UY","2018/02/27 17:49:46","新北市蘆洲區光榮路61巷20號","121.461065","25.0889583333333","6501400","蘆洲區"
"247018","001-UY","2018/02/27 17:49:32","新北市蘆洲區復興路227巷2弄2號","121.479986666667","25.090065","6501400","蘆洲區"
"228001","212-TW","2018/02/27 17:49:42","新北市貢寮區仁理村仁愛路95-1號","121.927638333333","25.055455","6502600","貢寮區"
"228002","663-BX","2018/02/27 17:49:45","新北市貢寮區福隆里龜壽谷街12號","121.955823333333","25.00636","6502600","貢寮區"
"228003","828-UM","2018/02/27 17:49:45","新北市貢寮區真理里美艷山街6-2號","121.928766666667","25.0607666666667","6502600","貢寮區"
"224010","AGQ-8101","2018/02/27 17:49:50","新北市瑞芳區明燈路二段15號","121.812018333333","25.1078233333333","6501200","瑞芳區"
"224006","676-BX","2018/02/27 17:49:43","新北市瑞芳區瑞興新村12巷1號","121.788408333333","25.10829","6501200","瑞芳區"
"224009","285-BY","2018/02/27 17:49:48","新北市瑞芳區新山路16號","121.852098333333","25.1099266666667","6501200","瑞芳區"
"224008","275-VK","2018/02/27 17:49:42","新北市瑞芳區明燈路一段45巷1-3號","121.821471666667","25.1063733333333","6501200","瑞芳區"
"224005","271-BY","2018/02/27 17:49:51","新北市瑞芳區深澳路10-2號","121.817456666667","25.1289216666667","6501200","瑞芳區"
"253006","295-VK","2018/02/27 17:49:50","新北市石門區中央路10號","121.566703333333","25.2912366666667","6502200","石門區"
"208003","665-BX","2018/02/27 17:49:31","新北市金山區磺清路135號","121.639255","25.2276216666667","6502700","金山區"
"251004","009-UM","2018/02/27 17:49:45","新北市淡水區民權一街20-1號","121.45865","25.1374766666667","6501000","淡水區"
"251013","179-VK","2018/02/27 17:49:40","新北市淡水區泉洲厝31號","121.47956","25.1910766666667","6501000","淡水區"
"251014","180-VK","2018/02/27 17:49:37","新北市淡水區公埔子16-6號","121.481013333333","25.2246016666667","6501000","淡水區"
"251008","181-VK","2018/02/27 17:49:34","新北市淡水區八勢路30巷19號","121.462896666667","25.153815","6501000","淡水區"
"251015","182-VK","2018/02/27 17:48:00","新北市淡水區興福寮6號","121.491878333333","25.165505","6501000","淡水區"
"251010","413-VK","2018/02/27 17:49:37","新北市淡水區中正路二段55號","121.417403333333","25.18606","6501000","淡水區"
"251012","441-VK","2018/02/27 17:49:34","新北市淡水區北新路二段76號","121.479633333333","25.185635","6501000","淡水區"
"251016","442-VK","2018/02/27 17:49:39","新北市淡水區埤島39-15號","121.45272","25.1959033333333","6501000","淡水區"
"251005","443-VK","2018/02/27 17:49:47","新北市淡水區學府路100巷1號","121.45032","25.1718116666667","6501000","淡水區"
"251006","561-UM","2018/02/27 17:49:34","新北市淡水區中山北路一段45巷14號","121.441076666667","25.1757883333333","6501000","淡水區"
"251009","575-R6","2018/02/27 17:49:35","新北市淡水區長興街36-1號","121.44419","25.1713566666667","6501000","淡水區"
"251007","577-R6","2018/02/27 17:49:39","新北市淡水區大同路113巷6號","121.463516666667","25.14148","6501000","淡水區"
"251011","650-BX","2018/02/27 17:43:23","新北市淡水區吳(仔)厝65號","121.482348333333","25.1501483333333","6501000","淡水區"
"251002","672-BX","2018/02/27 17:49:45","新北市淡水區中山路46號","121.444211666667","25.170055","6501000","淡水區"
"251003","673-BX","2018/02/27 17:49:44","新北市淡水區大忠街5巷1號","121.4431","25.1763766666667","6501000","淡水區"
"207004","225-TW","2018/02/27 17:49:29","新北市萬里區萬里里瑪鋉頂街61號","121.688375","25.1804833333333","6502800","萬里區"
"252002","178-VK","2018/02/27 17:49:33","新北市三芝區智成街16號","121.503298333333","25.2567366666667","6502100","三芝區"
"252001","292-VK","2018/02/27 17:49:38","新北市三芝區中興街一段10號","121.497425","25.2593766666667","6502100","三芝區"
"237009","210-TH","2018/02/27 17:49:50","新北市三峽區大勇路3巷36號","121.367476666667","24.936805","6500900","三峽區"
"237013","252-BX","2018/02/27 17:49:43","新北市三峽區愛國路33-9號","121.374663333333","24.932805","6500900","三峽區"
"237012","275-BY","2018/02/27 17:49:37","新北市三峽區文化路162號","121.36999","24.9361283333333","6500900","三峽區"
"237014","433-BY","2018/02/27 17:49:36","新北市三峽區文化路120巷7號","121.370953333333","24.9365016666667","6500900","三峽區"
"237006","5529-G3","2018/02/27 17:49:49","新北市三峽區介壽路二段136巷120弄2-1號","121.39239","24.932095","6500900","三峽區"
"237011","KEA-2596","2018/02/27 17:49:30","新北市三峽區光明路65號","121.375595","24.9287433333333","6500900","三峽區"
"237010","706-TV","2018/02/27 17:49:38","新北市三峽區文化路162號","121.36998","24.9361733333333","6500900","三峽區"
"237005","AKY-6261","2018/02/27 17:49:36","新北市三峽區中山路244號","121.362321666667","24.9374983333333","6500900","三峽區"
"236070","105-UM","2018/02/27 17:49:34","新北市土城區青雲路378巷14號","121.457526666667","24.974245","6501300","土城區"
"236043","107-UM","2018/02/27 17:49:43","新北市土城區城林路6巷80號","121.438575","24.9795566666667","6501300","土城區"
"236079","166-UM","2018/02/27 17:49:43","新北市土城區中央路三段59號","121.438888333333","24.9696366666667","6501300","土城區"
"236031","253-BX","2018/02/27 17:49:37","新北市土城區城林路6巷80號","121.43839","24.97979","6501300","土城區"
"236026","269-VK","2018/02/27 17:49:48","新北市土城區城林路6巷80號","121.438245","24.97959","6501300","土城區"
"236015","270-VK","2018/02/27 17:49:36","新北市土城區城林路6巷80號","121.4385","24.9796083333333","6501300","土城區"
"236038","271-VK","2018/02/27 17:49:46","新北市土城區中華路二段2號","121.439186666667","24.9797633333333","6501300","土城區"
"236049","752-BX","2018/02/27 17:49:32","新北市土城區城林路6巷80號","121.4387","24.9797683333333","6501300","土城區"
"236059","912-UM","2018/02/27 17:49:49","新北市土城區城林路6巷80號","121.438505","24.9797266666667","6501300","土城區"
"236055","AAC-216","2018/02/27 17:49:47","新北市土城區城林路6巷80號","121.438513333333","24.97959","6501300","土城區"
"242029","986-R7","2018/02/27 17:49:48","新北市新莊區復興路一段101號","121.449001666667","25.042975","6500500","新莊區"
"242051","751-BX","2018/02/27 17:49:47","新北市新莊區西盛街269巷19號","121.428833333333","25.015585","6500500","新莊區"
"242025","615-BX","2018/02/27 17:49:47","新北市三重區新北大道二段69號","121.468916666667","25.0612733333333","6500500","新莊區"
"242023","613-BX","2018/02/27 17:49:39","新北市新莊區福樂街35-1號","121.457586666667","25.0467766666667","6500500","新莊區"
"242027","612-BX","2018/02/27 17:49:33","新北市新莊區福壽街208號","121.45812","25.05389","6500500","新莊區"
"242039","566-BX","2018/02/27 17:49:48","新北市新莊區富國路200號","121.424823333333","25.02435","6500500","新莊區"
"242044","497-BY","2018/02/27 17:49:50","新北市新莊區中正路855巷21號","121.420271666667","25.026965","6500500","新莊區"
"242048","441-UM","2018/02/27 17:49:45","新北市新莊區萬安街60巷1號","121.420641666667","25.023605","6500500","新莊區"
"242054","440-UM","2018/02/27 17:49:32","新北市新莊區民安西路468-1號","121.431701666667","25.0079566666667","6500500","新莊區"
"242034","415-TV","2018/02/27 17:49:40","新北市新莊區新樹路13號","121.440808333333","25.0329233333333","6500500","新莊區"
"242005","413-TV","2018/02/27 17:49:31","新北市新莊區思源路177巷9弄15號","121.458551666667","25.0457316666667","6500500","新莊區"
"242042","400-BY","2018/02/27 17:49:45","新北市新莊區中正路618號","121.42376","25.02936","6500500","新莊區"
"242061","362-BY","2018/02/27 17:49:41","新北市新莊區新樹路605號","121.433286666667","25.0055466666667","6500500","新莊區"
"242058","353-BY","2018/02/27 17:49:47","新北市新莊區中正路867-2號","121.418463333333","25.0275533333333","6500500","新莊區"
"242007","132-UY","2018/02/27 17:49:33","新北市新莊區福樂街132巷1號","121.456618333333","25.0482016666667","6500500","新莊區"
"242037","133-UY","2018/02/27 17:49:40","新北市新莊區建福路59巷34號","121.428261666667","25.027695","6500500","新莊區"
"242021","135-UY","2018/02/27 17:49:34","新北市新莊區永寧街37巷1號","121.452895","25.0395516666667","6500500","新莊區"
"242046","172-VK","2018/02/27 17:49:41","新北市新莊區建國一路52號","121.434088333333","25.0309316666667","6500500","新莊區"
"242009","173-VK","2018/02/27 17:49:49","新北市新莊區昌明街38-1號","121.456458333333","25.05226","6500500","新莊區"
"242015","175-VK","2018/02/27 17:49:34","新北市新莊區新泰路502巷40號","121.443655","25.046325","6500500","新莊區"
"242002","176-VK","2018/02/27 17:49:46","新北市新莊區新莊路441號","121.449896666667","25.0334516666667","6500500","新莊區"
"242013","346-TH","2018/02/27 17:49:49","新北市新莊區中誠街169巷1弄1號","121.44828","25.04701","6500500","新莊區"
"242019","348-TH","2018/02/27 17:49:32","新北市新莊區長青街2號","121.457893333333","25.0426683333333","6500500","新莊區"
"242017","350-TH","2018/02/27 17:49:35","新北市新莊區中港路314號","121.452456666667","25.0454033333333","6500500","新莊區"
"242011","351-TH","2018/02/27 17:49:40","新北市新莊區中港路699號","121.450671666667","25.0569633333333","6500500","新莊區"
"238015","755-BX","2018/02/27 17:49:48","新北市樹林區長壽街25巷10號","121.420363333333","24.9946283333333","6500700","樹林區"
"238023","601-UM","2018/02/27 17:49:33","新北市樹林區福興街2巷8號","121.403763333333","25.01664","6500700","樹林區"
"238019","599-UM","2018/02/27 17:49:35","新北市樹林區太平路196-1號","121.418438333333","24.9759516666667","6500700","樹林區"
"238018","571-TV","2018/02/27 17:49:46","新北市樹林區博愛街69號","121.427121666667","24.9922333333333","6500700","樹林區"
"238022","KEA-2213","2018/02/27 17:49:39","新北市樹林區太順街60號","121.417961666667","24.9793133333333","6500700","樹林區"
"238026","KEA-2539","2018/02/27 17:49:37","新北市樹林區柑園街一段157號","121.40002","24.9578183333333","6500700","樹林區"
"238025","303-VK","2018/02/27 17:49:33","新北市樹林區三俊街50號","121.41225","25.015505","6500700","樹林區"
"238017","283-BY","2018/02/27 17:49:48","新北市樹林區三德街30巷11號","121.414666666667","25.0127683333333","6500700","樹林區"
"238014","282-BY","2018/02/27 17:49:44","新北市樹林區大安路143號","121.421935","24.9970516666667","6500700","樹林區"
"238020","268-VK","2018/02/27 17:49:42","新北市樹林區三俊街201號","121.42011","25.0155833333333","6500700","樹林區"
"238026","172-UY","2018/02/27 17:49:36","新北市樹林區中洲街30巷13弄15號","121.39808","24.97182","6500700","樹林區"
"238016","169-UY","2018/02/27 17:49:41","新北市樹林區啟智街129-1號","121.418105","24.9892883333333","6500700","樹林區"
"239007","AAC-297","2018/02/27 17:49:52","新北市鶯歌區鶯桃路96-1號","121.339771666667","24.95371","6500800","鶯歌區"
"239006","891-R6","2018/02/27 17:49:50","新北市鶯歌區鶯桃路413巷8號","121.332195","24.9642483333333","6500800","鶯歌區"
"239008","527-UM","2018/02/27 17:49:33","新北市鶯歌區香賓街13巷2號","121.337038333333","24.9797833333333","6500800","鶯歌區"
"239005","526-UM","2018/02/27 17:49:36","新北市鶯歌區鳳吉五街41號","121.327655","24.9729583333333","6500800","鶯歌區"
"239001","417-VK","2018/02/27 17:49:45","新北市鶯歌區中正三路424號","121.324268333333","24.93457","6500800","鶯歌區"
"239003","360-BY","2018/02/27 17:49:44","新北市鶯歌區永吉街18號","121.336021666667","24.95782","6500800","鶯歌區"
"239004","193-VK","2018/02/27 17:49:47","新北市鶯歌區尖山路101巷12號","121.346708333333","24.9426683333333","6500800","鶯歌區"
"221008","489-VK","2018/02/27 17:49:33","新北市汐止區康寧街901號","121.651381666667","25.0750516666667","6501100","汐止區"
"221036","130-UY","2018/02/27 17:49:34","新北市汐止區長江街213號","121.66191","25.0779166666667","6501100","汐止區"
"221015","131-UY","2018/02/27 17:49:38","新北市汐止區長江街249-1號","121.662835","25.07938","6501100","汐止區"
"221010","269-BY","2018/02/27 17:49:48","新北市汐止區汐萬路二段101號","121.64828","25.0834316666667","6501100","汐止區"
"221012","278-VK","2018/02/27 17:49:46","新北市汐止區建成路188號","121.659276666667","25.07471","6501100","汐止區"
"221023","279-VK","2018/02/27 17:49:52","新北市汐止區民族二街40號","121.634615","25.0704","6501100","汐止區"
"221032","280-BY","2018/02/27 17:49:37","新北市汐止區大同路一段155號","121.632241666667","25.0562533333333","6501100","汐止區"
"221027","281-BY","2018/02/27 17:49:39","新北市汐止區汐萬路一段312號","121.650335","25.0749766666667","6501100","汐止區"
"221038","297-VK","2018/02/27 17:49:39","新北市汐止區汐萬路一段188號","121.652158333333","25.0721","6501100","汐止區"
"221029","298-VK","2018/02/27 17:49:39","新北市汐止區康寧街901號","121.651651666667","25.074945","6501100","汐止區"
"221021","299-VK","2018/02/27 17:49:51","新北市汐止區水源路一段11號","121.657221666667","25.066875","6501100","汐止區"
"221031","353-TW","2018/02/27 17:49:47","新北市汐止區中興路96巷16號","121.63565","25.0623933333333","6501100","汐止區"
"221035","622-UM","2018/02/27 17:49:39","新北市汐止區汐萬路一段186號","121.652283333333","25.0719716666667","6501100","汐止區"
"221025","623-UM","2018/02/27 17:49:39","新北市汐止區新台五路一段260-1號","121.657478333333","25.0637816666667","6501100","汐止區"
"221033","647-BX","2018/02/27 17:49:42","新北市汐止區林森街78號","121.624056666667","25.0406383333333","6501100","汐止區"
"221002","707-TV","2018/02/27 17:49:40","新北市汐止區康寧街901號","121.651451666667","25.0750483333333","6501100","汐止區"
"221018","753-BX","2018/02/27 17:49:40","新北市汐止區水碓街2號","121.663715","25.0699483333333","6501100","汐止區"
"220046","255-TC","2018/02/27 17:49:49","新北市板橋區民生路二段120號","121.47043","25.019585","6500100","板橋區"
"242032","281-VK","2018/02/27 17:49:43","新北市新莊區新泰路357巷3弄17號","121.442396666667","25.040805","6500500","新莊區"
"242056","280-VK","2018/02/27 17:49:51","新北市新莊區瓊林路38巷20號","121.447056666667","25.0306133333333","6500500","新莊區"
