"lineid","car","time","location","longitude","latitude","cityid","cityname"
"234007","208-UY","2018/02/27 18:19:38","新北市永和區環河東路二段10號","121.522295","25.013385","6500400","永和區"
"234042","862-TW","2018/02/27 18:19:35","新北市永和區福和路1號","121.52649","25.0097216666667","6500400","永和區"
"234026","9371-KE","2018/02/27 18:19:45","新北市永和區豫溪街42巷7號","121.51553","25.0094633333333","6500400","永和區"
"234011","9373-KE","2018/02/27 18:19:38","新北市永和區竹林路75巷4弄34號","121.521753333333","25.014145","6500400","永和區"
"249005","172-UM","2018/02/27 18:19:46","新北市八里區荖阡坑路15-17號","121.400235","25.1405683333333","6502300","八里區"
"249001","173-UM","2018/02/27 18:19:44","新北市八里區龍米路一段125號","121.452308333333","25.1265383333333","6502300","八里區"
"249004","303-UY","2018/02/27 18:19:39","新北市八里區觀海大道35-2號","121.42976","25.1607816666667","6502300","八里區"
"249002","305-UY","2018/02/27 18:18:43","新北市八里區龍形五街27號","121.450003333333","25.1331633333333","6502300","八里區"
"248014","025-BX","2018/02/27 18:19:37","新北市五股區自強路19巷5-1號","121.434608333333","25.0737916666667","6501500","五股區"
"248006","077-UY","2018/02/27 18:19:34","新北市五股區中興路一段152號","121.46458","25.0738533333333","6501500","五股區"
"248008","095-VK","2018/02/27 18:19:48","新北市五股區更洲路32巷8弄14號","121.459248333333","25.0796533333333","6501500","五股區"
"248020","225-UY","2018/02/27 18:19:24","新北市五股區孝義路47巷23號","121.450233333333","25.1094083333333","6501500","五股區"
"248012","247-BX","2018/02/27 18:19:48","新北市五股區御成路10號","121.441821666667","25.0911333333333","6501500","五股區"
"248016","261-SL","2018/02/27 18:19:41","新北市五股區成泰路三段493號","121.449113333333","25.0996583333333","6501500","五股區"
"248010","272-BY","2018/02/27 18:19:37","新北市五股區成泰路一段126號","121.435298333333","25.07432","6501500","五股區"
"248004","677-BX","2018/02/27 18:19:52","新北市五股區成泰路二段222-2號","121.439126666667","25.0854833333333","6501500","五股區"
"248002","678-BX","2018/02/27 18:19:44","新北市五股區西雲路66號","121.443615","25.09154","6501500","五股區"
"232011","375-UM","2018/02/27 18:18:32","新北市坪林區坪雙路一段43號","121.711678333333","24.9424816666667","6502000","坪林區"
"244013","069-UM","2018/02/27 18:19:39","新北市林口區林口路50號","121.390635","25.0789716666667","6501700","林口區"
"244007","080-UY","2018/02/27 18:19:50","新北市林口區後湖18-3號","121.387376666667","25.09778","6501700","林口區"
"244019","402-UM","2018/02/27 18:19:34","新北市林口區麗園路52巷1號","121.373603333333","25.0699516666667","6501700","林口區"
"244025","742-UY","2018/02/27 18:19:43","新北市林口區南勢六街79號","121.35477","25.0724916666667","6501700","林口區"
"244017","485-VK","2018/02/27 18:19:49","新北市林口區八德路20巷3號","121.36796","25.0674866666667","6501700","林口區"
"244009","657-BX","2018/02/27 18:19:34","新北市林口區民生路166號","121.379798333333","25.087615","6501700","林口區"
"244011","701-TV","2018/02/27 18:19:30","新北市林口區中正路74巷5弄4號","121.394521666667","25.0780566666667","6501700","林口區"
"244023","837-TS","2018/02/27 18:19:48","新北市林口區仁愛路二段18號","121.385623333333","25.076135","6501700","林口區"
"244021","838-TS","2018/02/27 18:19:36","新北市林口區自強一街45號","121.3991","25.0777","6501700","林口區"
"243013","646-TV","2018/02/27 18:19:41","新北市泰山區南泰路4巷5弄8號","121.416903333333","25.0393633333333","6501600","泰山區"
"222003","436-BY","2018/02/27 18:19:42","新北市深坑區旺耽路67號","121.62622","25.0030166666667","6501800","深坑區"
"231041","002-UM","2018/02/27 18:19:40","新北市新店區安華路28-1號","121.519755","24.96086","6500600","新店區"
"231059","046-UY","2018/02/27 18:19:46","新北市新店區安華路28-1號","121.519608333333","24.9609833333333","6500600","新店區"
"231061","047-UY","2018/02/27 18:19:49","新北市新店區安華路28-1號","121.51923","24.960995","6500600","新店區"
"231048","108-UY","2018/02/27 18:19:49","新北市新店區安華路28-1號","121.5196","24.96097","6500600","新店區"
"231053","187-VK","2018/02/27 18:19:50","新北市新店區安康路一段35-1號","121.532121666667","24.9605516666667","6500600","新店區"
"231050","KEA-2219","2018/02/27 18:19:37","新北市新店區安華路28-1號","121.519838333333","24.9612416666667","6500600","新店區"
"231057","256-BX","2018/02/27 18:19:39","新北市新店區安華路28-1號","121.519766666667","24.9611483333333","6500600","新店區"
"231046","278-BY","2018/02/27 18:19:35","新北市新店區直潭七街60號","121.532215","24.9399166666667","6500600","新店區"
"231054","AAD-862","2018/02/27 18:19:33","新北市新店區安華路28-1號","121.519813333333","24.96106","6500600","新店區"
"231058","3712-VJ","2018/02/27 18:19:41","新北市新店區安康路一段35-1號","121.532086666667","24.96057","6500600","新店區"
"231056","3713-VJ","2018/02/27 18:19:37","新北市新店區環河路121-2號","121.530116666667","24.9715283333333","6500600","新店區"
"231055","4716-K9","2018/02/27 18:19:42","新北市新店區安康路一段3-1號","121.534871666667","24.9608283333333","6500600","新店區"
"231067","4772-VM","2018/02/27 18:19:41","新北市新店區安華路28-1號","121.51932","24.9605983333333","6500600","新店區"
"231064","513-UM","2018/02/27 18:19:38","新北市新店區安華路28-1號","121.519653333333","24.9613416666667","6500600","新店區"
"231040","619-UM","2018/02/27 18:19:34","新北市新店區安華路28-1號","121.51966","24.960605","6500600","新店區"
"231042","641-BX","2018/02/27 18:19:48","新北市新店區安華路28-1號","121.519656666667","24.9606166666667","6500600","新店區"
"231063","645-TV","2018/02/27 18:19:41","新北市新店區安華路28-1號","121.519405","24.9607","6500600","新店區"
"231049","719-UM","2018/02/27 18:19:47","新北市新店區安華路28-1號","121.519616666667","24.9613316666667","6500600","新店區"
"231062","720-UM","2018/02/27 18:19:39","新北市新店區安華路28-1號","121.519323333333","24.9611633333333","6500600","新店區"
"231044","897-TW","2018/02/27 18:19:47","新北市新店區安華路28-1號","121.519591666667","24.960905","6500600","新店區"
"231045","898-TW","2018/02/27 18:19:38","新北市新店區安華路28-1號","121.519398333333","24.96089","6500600","新店區"
"231043","899-TW","2018/02/27 18:19:36","新北市新店區安華路28-1號","121.519315","24.9608533333333","6500600","新店區"
"231066","AKT-0513","2018/02/27 18:19:52","新北市新店區安華路1-1號","121.519358333333","24.9604866666667","6500600","新店區"
"241033","AAC-255","2018/02/27 18:19:37","新北市三重區光復路一段61巷21號","121.47317","25.0492516666667","6500200","三重區"
"235066","003-UY","2018/02/27 18:19:31","新北市中和區中山路二段142號","121.502056666667","25.0030916666667","6500300","中和區"
"235064","005-UY","2018/02/27 18:19:46","新北市中和區圓通路141巷48弄15號","121.498203333333","24.993865","6500300","中和區"
"235063","006-UY","2018/02/27 18:19:51","新北市中和區中正路565號","121.486766666667","24.99429","6500300","中和區"
"235056","096-UM","2018/02/27 18:19:43","新北市中和區中山路二段568巷22號","121.482461666667","25.0063483333333","6500300","中和區"
"235039","097-UM","2018/02/27 18:19:50","新北市中和區中正路305號","121.492261666667","24.9937066666667","6500300","中和區"
"235065","098-UM","2018/02/27 18:19:47","新北市中和區莊敬路49巷27號","121.501603333333","25.0062333333333","6500300","中和區"
"235040","150-BY","2018/02/27 18:19:51","新北市中和區南山路229巷2號","121.503738333333","24.9933133333333","6500300","中和區"
"235058","151-BY","2018/02/27 18:19:47","新北市中和區圓通路367巷4號","121.491406666667","24.989265","6500300","中和區"
"235055","183-VK","2018/02/27 18:19:40","新北市中和區中正路637巷52弄1號","121.485341666667","24.9936883333333","6500300","中和區"
"235038","185-VK","2018/02/27 18:19:44","新北市中和區自立路171號","121.52309","24.9923833333333","6500300","中和區"
"235049","186-VK","2018/02/27 18:19:41","新北市中和區中正路589巷15號","121.485685","24.9935566666667","6500300","中和區"
"235067","255-BX","2018/02/27 18:19:42","新北市中和區和城路一段271巷1號","121.485591666667","24.99191","6500300","中和區"
"235072","301-VK","2018/02/27 18:19:40","新北市中和區中正路589巷1號","121.48579","24.99439","6500300","中和區"
"235043","352-BY","2018/02/27 18:19:37","新北市中和區景平路373號","121.504248333333","24.9934133333333","6500300","中和區"
"235068","377-QA","2018/02/27 18:19:40","新北市中和區員山路36巷16-3號","121.485185","24.991205","6500300","中和區"
"235061","378-QA","2018/02/27 18:19:34","新北市土城區延吉街3巷2號","121.47194","24.9895916666667","6500300","中和區"
"235050","4979-A6","2018/02/27 18:19:45","新北市中和區捷運路61巷9號","121.509051666667","24.9894066666667","6500300","中和區"
"235069","4980-A6","2018/02/27 18:19:45","新北市中和區連勝街13號","121.498786666667","24.99828","6500300","中和區"
"235042","551-UM","2018/02/27 18:19:46","新北市中和區大智街57號","121.521156666667","24.9920033333333","6500300","中和區"
"235045","565-BX","2018/02/27 18:19:33","新北市中和區景安路200巷4弄1號","121.503478333333","24.991615","6500300","中和區"
"235054","640-BX","2018/02/27 18:19:33","新北市中和區莒光路179號","121.472743333333","24.9992266666667","6500300","中和區"
"235060","647-TV","2018/02/27 18:19:51","新北市中和區連城路523巷13弄4號","121.481796666667","24.993615","6500300","中和區"
"235047","732-UM","2018/02/27 18:19:38","新北市中和區南山路407號","121.506965","24.9898816666667","6500300","中和區"
"235046","733-UM","2018/02/27 18:19:33","新北市中和區錦和路166號","121.48989","24.9958383333333","6500300","中和區"
"235062","800-TS","2018/02/27 18:19:37","新北市中和區景平路999巷1號","121.495443333333","25.0059283333333","6500300","中和區"
"235057","801-TS","2018/02/27 18:19:48","新北市中和區民安街53-12號","121.479643333333","24.99944","6500300","中和區"
"235052","805-TS","2018/02/27 18:19:34","新北市中和區興南路二段81號","121.506473333333","24.9848616666667","6500300","中和區"
"235048","896-TW","2018/02/27 18:19:34","新北市中和區中正路395號","121.489976666667","24.9935783333333","6500300","中和區"
"235053","900-TW","2018/02/27 18:19:52","新北市中和區中正路637巷60弄61號","121.485431666667","24.9932683333333","6500300","中和區"
"235070","911-UM","2018/02/27 18:19:40","新北市中和區圓通路189號","121.497283333333","24.9944583333333","6500300","中和區"
"235051","157-BY","2018/02/27 18:19:46","新北市中和區景新街418巷18弄13號","121.511633333333","24.98826","6500300","中和區"
"235037","AAC-213","2018/02/27 18:19:48","新北市中和區景平路73號","121.518935","24.9916066666667","6500300","中和區"
"247014","007-UY","2018/02/27 18:19:37","新北市八里區商港路105巷15號","121.390103333333","25.14826","6501400","蘆洲區"
"226004","205-ST","2018/02/27 18:19:37","新北市平溪區靜安路二段11巷7號","121.709805","25.019295","6502400","平溪區"
"235041","251-BX","2018/02/27 18:19:42","新北市中和區錦和路350-1號","121.490055","24.9936033333333","6500300","中和區"
"228001","212-TW","2018/02/27 18:19:42","新北市貢寮區真理里新港街26巷55弄2-1號","121.927368333333","25.052865","6502600","貢寮區"
"228002","663-BX","2018/02/27 18:19:45","新北市貢寮區福連里福興街24-1號","121.991146666667","25.0121016666667","6502600","貢寮區"
"228003","828-UM","2018/02/27 18:19:45","新北市貢寮區真理里美艷山街68號","121.917925","25.0742766666667","6502600","貢寮區"
"224006","676-BX","2018/02/27 18:19:43","新北市瑞芳區民權街3-2號","121.808073333333","25.1073883333333","6501200","瑞芳區"
"224002","639-TC","2018/02/27 18:19:44","新北市瑞芳區三爪子坑路149巷34號","121.811843333333","25.1066916666667","6501200","瑞芳區"
"224009","285-BY","2018/02/27 18:19:39","新北市瑞芳區金光路103號","121.854435","25.1064966666667","6501200","瑞芳區"
"224008","275-VK","2018/02/27 18:19:48","新北市瑞芳區逢甲路149號","121.807046666667","25.1100033333333","6501200","瑞芳區"
"224007","273-VK","2018/02/27 18:19:51","新北市瑞芳區大埔路55號","121.764473333333","25.1019816666667","6501200","瑞芳區"
"224005","271-BY","2018/02/27 18:19:51","新北市瑞芳區建基新村25號","121.812361666667","25.12954","6501200","瑞芳區"
"227003","642-TC","2018/02/27 18:19:41","新北市雙溪區共和里中山路2號","121.863791666667","25.0338216666667","6502500","雙溪區"
"227009","400-TW","2018/02/27 18:19:35","新北市雙溪區牡丹里牡丹73號","121.851726666667","25.059315","6502500","雙溪區"
"253005","032-BX","2018/02/27 18:19:36","新北市石門區中央路2號","121.564311666667","25.2911133333333","6502200","石門區"
"253006","295-VK","2018/02/27 18:19:50","新北市石門區老梅路71號","121.545988333333","25.289245","6502200","石門區"
"222001","KEA-2212","2018/02/27 18:19:38","新北市深坑區北深路二段58號","121.619006666667","25.0043416666667","6501800","深坑區"
"208003","665-BX","2018/02/27 18:19:51","新北市金山區中山路16號","121.641596666667","25.217835","6502700","金山區"
"208001","761-BX","2018/02/27 18:19:39","新北市金山區中山路69號","121.641056666667","25.217695","6502700","金山區"
"251004","009-UM","2018/02/27 18:01:45","新北市淡水區民權路187巷42號","121.461081666667","25.13343","6501000","淡水區"
"251001","011-UM","2018/02/27 18:19:49","新北市淡水區自強路110-8號","121.461653333333","25.1313883333333","6501000","淡水區"
"251013","179-VK","2018/02/27 18:19:40","新北市淡水區行忠路786號","121.473051666667","25.199605","6501000","淡水區"
"251014","180-VK","2018/02/27 18:19:37","新北市淡水區南平17-2號","121.489726666667","25.2206366666667","6501000","淡水區"
"251008","181-VK","2018/02/27 18:19:34","新北市淡水區淡金路204號","121.460016666667","25.1667783333333","6501000","淡水區"
"251015","182-VK","2018/02/27 18:19:40","新北市淡水區興福寮88巷1號","121.485255","25.164815","6501000","淡水區"
"251010","413-VK","2018/02/27 18:19:37","新北市淡水區淡海路199號","121.42041","25.1848533333333","6501000","淡水區"
"251012","441-VK","2018/02/27 18:19:34","新北市淡水區北新路二段77-5號","121.480391666667","25.1855283333333","6501000","淡水區"
"251016","442-VK","2018/02/27 18:19:39","新北市淡水區淡金路三段228巷35號","121.450158333333","25.204785","6501000","淡水區"
"251005","443-VK","2018/02/27 18:19:47","新北市淡水區水源街一段122巷37號","121.447206666667","25.170445","6501000","淡水區"
"251006","561-UM","2018/02/27 18:19:34","新北市淡水區新民街62號","121.438886666667","25.17609","6501000","淡水區"
"251011","650-BX","2018/02/27 18:19:43","新北市淡水區坪頂路39號","121.45708","25.16226","6501000","淡水區"
"251002","672-BX","2018/02/27 18:19:45","新北市淡水區中正東路一段36號","121.452565","25.1623483333333","6501000","淡水區"
"251003","673-BX","2018/02/27 18:19:44","新北市淡水區北新路137號","121.44942","25.178835","6501000","淡水區"
"207004","225-TW","2018/02/27 18:19:50","新北市萬里區中幅里中福路41號","121.678453333333","25.1669733333333","6502800","萬里區"
"252002","178-VK","2018/02/27 18:19:33","新北市三芝區中山路二段31號","121.502625","25.255245","6502100","三芝區"
"252003","249-BX","2018/02/27 18:19:52","新北市三芝區錫板里南勢崗5-3號","121.480011666667","25.2626366666667","6502100","三芝區"
"252001","292-VK","2018/02/27 18:19:38","新北市三芝區中興街二段2號","121.498363333333","25.2566566666667","6502100","三芝區"
"237004","KEA-2597","2018/02/27 18:19:43","新北市三峽區五寮104號","121.363738333333","24.8614116666667","6500900","三峽區"
"237007","153-BY","2018/02/27 18:19:48","新北市三峽區中正路二段586號","121.359225","24.9059783333333","6500900","三峽區"
"237009","210-TH","2018/02/27 18:19:50","新北市三峽區中山路138-2號","121.365105","24.9362233333333","6500900","三峽區"
"237013","252-BX","2018/02/27 18:19:42","新北市三峽區永安街33號","121.376796666667","24.9304466666667","6500900","三峽區"
"237012","275-BY","2018/02/27 18:19:37","新北市三峽區民生街1巷6-8號","121.377066666667","24.9356733333333","6500900","三峽區"
"237008","302-VK","2018/02/27 18:19:37","新北市三峽區白雞68-101號","121.392531666667","24.9085733333333","6500900","三峽區"
"237014","433-BY","2018/02/27 18:19:36","新北市三峽區復興路59號","121.373051666667","24.9371833333333","6500900","三峽區"
"237006","5529-G3","2018/02/27 18:19:49","新北市三峽區溪東路371巷4弄24號","121.412773333333","24.9295233333333","6500900","三峽區"
"237011","KEA-2596","2018/02/27 18:19:50","新北市三峽區成福路71號","121.418566666667","24.9292683333333","6500900","三峽區"
"237010","706-TV","2018/02/27 18:19:38","新北市三峽區民權街147號","121.368876666667","24.93165","6500900","三峽區"
"237005","AKY-6261","2018/02/27 18:19:36","新北市三峽區長福街10號","121.370321666667","24.9337683333333","6500900","三峽區"
"236070","105-UM","2018/02/27 18:19:34","新北市土城區永豐路169-2號","121.467883333333","24.9802833333333","6501300","土城區"
"236043","107-UM","2018/02/27 18:19:51","新北市土城區樂利街3巷18號","121.448603333333","24.98638","6501300","土城區"
"236079","166-UM","2018/02/27 18:19:43","新北市土城區永平街2巷1號","121.427421666667","24.9634733333333","6501300","土城區"
"236031","253-BX","2018/02/27 18:19:37","新北市土城區順風路66號","121.440321666667","24.9775683333333","6501300","土城區"
"236026","269-VK","2018/02/27 18:19:48","新北市土城區承天路73號","121.440113333333","24.9629633333333","6501300","土城區"
"236015","270-VK","2018/02/27 18:19:36","新北市土城區青雲路39巷7號","121.460291666667","24.9874383333333","6501300","土城區"
"236038","271-VK","2018/02/27 18:19:46","新北市土城區青雲路483巷9號","121.459508333333","24.9736","6501300","土城區"
"236023","401-BY","2018/02/27 18:19:49","新北市土城區明德路一段385-1號","121.452676666667","24.9799166666667","6501300","土城區"
"236049","752-BX","2018/02/27 18:19:52","新北市土城區明德路一段369號","121.455676666667","24.97792","6501300","土城區"
"236059","912-UM","2018/02/27 18:19:49","新北市土城區中央路四段366號","121.413076666667","24.9548783333333","6501300","土城區"
"236063","915-UM","2018/02/27 18:19:53","新北市土城區延壽路77巷4弄33號","121.46904","24.99332","6501300","土城區"
"236055","AAC-216","2018/02/27 18:19:47","新北市土城區中華路二段122號","121.437816666667","24.9738166666667","6501300","土城區"
"242029","986-R7","2018/02/27 18:19:48","新北市新莊區中平路125號","121.444766666667","25.04682","6500500","新莊區"
"242051","751-BX","2018/02/27 18:19:47","新北市新莊區民本街7號","121.427638333333","25.0199416666667","6500500","新莊區"
"242025","615-BX","2018/02/27 18:19:47","新北市新莊區五權一路12巷16號","121.45737","25.0646066666667","6500500","新莊區"
"242027","612-BX","2018/02/27 18:19:33","新北市新莊區幸福路834號","121.445193333333","25.0491816666667","6500500","新莊區"
"242044","497-BY","2018/02/27 18:19:53","新北市新莊區鳳山街56巷41號","121.413628333333","25.026845","6500500","新莊區"
"242048","441-UM","2018/02/27 18:19:45","新北市新莊區龍安路100號","121.418345","25.0205933333333","6500500","新莊區"
"242054","440-UM","2018/02/27 18:19:32","新北市新莊區民安西路410巷12弄4號","121.42787","25.00909","6500500","新莊區"
"242005","413-TV","2018/02/27 18:19:51","新北市新莊區幸福路914號","121.442345","25.048955","6500500","新莊區"
"242042","400-BY","2018/02/27 18:19:45","新北市新莊區天祥街78號","121.41571","25.0293633333333","6500500","新莊區"
"242061","362-BY","2018/02/27 18:19:36","新北市新莊區後港一路65號","121.426608333333","25.0265066666667","6500500","新莊區"
"242058","353-BY","2018/02/27 18:19:37","新北市新莊區新北大道七段768號","121.412848333333","25.025135","6500500","新莊區"
"242007","132-UY","2018/02/27 18:19:33","新北市新莊區中華路二段50號","121.454046666667","25.0458","6500500","新莊區"
"242037","133-UY","2018/02/27 18:19:38","新北市新莊區建福路48巷13號","121.425668333333","25.027375","6500500","新莊區"
"242021","135-UY","2018/02/27 18:19:40","新北市新莊區中正路176號","121.450511666667","25.0359033333333","6500500","新莊區"
"242046","172-VK","2018/02/27 18:19:47","新北市新莊區中正路829巷22弄39號","121.420833333333","25.0266316666667","6500500","新莊區"
"242009","173-VK","2018/02/27 18:19:51","新北市新莊區昌盛街35巷3弄11號","121.453548333333","25.0504516666667","6500500","新莊區"
"242015","175-VK","2018/02/27 18:19:34","新北市新莊區中平路184巷10弄14號","121.44558","25.0482266666667","6500500","新莊區"
"242002","176-VK","2018/02/27 18:19:50","新北市新莊區碧江街18-3號","121.455261666667","25.034555","6500500","新莊區"
"242011","351-TH","2018/02/27 18:19:34","新北市新莊區中榮街43號","121.449721666667","25.052735","6500500","新莊區"
"238015","755-BX","2018/02/27 18:19:49","新北市樹林區大安路323巷10弄2號","121.417563333333","24.9913683333333","6500700","樹林區"
"238023","601-UM","2018/02/27 18:19:32","新北市樹林區三福街67巷9號","121.40771","25.015795","6500700","樹林區"
"238019","599-UM","2018/02/27 18:19:35","新北市樹林區八德街108號","121.421358333333","24.9800516666667","6500700","樹林區"
"238018","571-TV","2018/02/27 18:19:46","新北市樹林區鎮前街78號","121.42555","24.992075","6500700","樹林區"
"238024","5061-A6","2018/02/27 18:19:31","新北市樹林區立仁街4號","121.422833333333","24.9888416666667","6500700","樹林區"
"238022","KEA-2213","2018/02/27 18:19:48","新北市樹林區太順街115-1號","121.414466666667","24.9768283333333","6500700","樹林區"
"238026","KEA-2539","2018/02/27 18:19:37","新北市樹林區柑園街二段149巷2-1號","121.382006666667","24.954005","6500700","樹林區"
"238025","303-VK","2018/02/27 18:19:33","新北市樹林區保安街一段344號","121.417918333333","24.9981266666667","6500700","樹林區"
"238017","283-BY","2018/02/27 18:19:48","新北市樹林區中正路648號","121.409706666667","25.0163916666667","6500700","樹林區"
"238014","282-BY","2018/02/27 18:19:43","新北市樹林區大安路109號","121.4225","24.9980183333333","6500700","樹林區"
"238020","268-VK","2018/02/27 18:19:42","新北市樹林區中正路592號","121.410798333333","25.0153966666667","6500700","樹林區"
"238026","172-UY","2018/02/27 18:19:36","新北市樹林區佳園路一段75巷186號","121.396755","24.9708466666667","6500700","樹林區"
"238016","169-UY","2018/02/27 18:19:41","新北市樹林區文化街27號","121.419143333333","24.9876533333333","6500700","樹林區"
"239007","AAC-297","2018/02/27 18:19:32","新北市鶯歌區重慶街82-1號","121.34889","24.9519366666667","6500800","鶯歌區"
"239006","891-R6","2018/02/27 18:19:50","新北市鶯歌區德昌街70號","121.332951666667","24.9599016666667","6500800","鶯歌區"
"239008","527-UM","2018/02/27 18:19:51","新北市鶯歌區朝陽街2號","121.336188333333","24.9766266666667","6500800","鶯歌區"
"239005","526-UM","2018/02/27 18:19:36","新北市鶯歌區鶯桃路670號","121.328921666667","24.969565","6500800","鶯歌區"
"239001","417-VK","2018/02/27 18:19:45","新北市鶯歌區國中街197號","121.338226666667","24.93916","6500800","鶯歌區"
"239003","360-BY","2018/02/27 18:19:43","新北市鶯歌區福安街58號","121.335576666667","24.9652066666667","6500800","鶯歌區"
"239004","193-VK","2018/02/27 18:19:47","新北市鶯歌區尖山路240巷18號","121.3426","24.9471266666667","6500800","鶯歌區"
"221008","489-VK","2018/02/27 18:19:33","新北市汐止區汐萬路一段256巷3號","121.652575","25.074595","6501100","汐止區"
"221036","130-UY","2018/02/27 18:19:34","新北市汐止區長興街一段12號","121.669605","25.0787083333333","6501100","汐止區"
"221015","131-UY","2018/02/27 18:19:38","新北市汐止區鄉長路二段23巷18號","121.667678333333","25.08311","6501100","汐止區"
"221010","269-BY","2018/02/27 18:19:52","新北市汐止區祥雲街20號","121.646596666667","25.09009","6501100","汐止區"
"221012","278-VK","2018/02/27 18:19:46","新北市汐止區保長路35巷20號","121.67328","25.080065","6501100","汐止區"
"221023","279-VK","2018/02/27 18:19:51","新北市汐止區康寧街474巷18-1號","121.631346666667","25.0676233333333","6501100","汐止區"
"221032","280-BY","2018/02/27 18:19:37","新北市汐止區力行街41號","121.6167","25.0499633333333","6501100","汐止區"
"221027","281-BY","2018/02/27 18:19:39","新北市汐止區和平街6巷8-1號","121.663526666667","25.0715433333333","6501100","汐止區"
"221038","297-VK","2018/02/27 18:19:39","新北市汐止區仁愛路320號","121.664743333333","25.067575","6501100","汐止區"
"221029","298-VK","2018/02/27 18:19:39","新北市汐止區樟樹二路330巷72-1號","121.64293","25.0698983333333","6501100","汐止區"
"221021","299-VK","2018/02/27 18:19:51","新北市汐止區連興街121號","121.653818333333","25.06236","6501100","汐止區"
"221031","353-TW","2018/02/27 18:19:46","新北市汐止區大同路一段185號","121.63328","25.05707","6501100","汐止區"
"221035","622-UM","2018/02/27 18:19:39","新北市汐止區大同路二段185號","121.65214","25.064475","6501100","汐止區"
"221025","623-UM","2018/02/27 18:19:39","新北市汐止區勤進路12巷15號","121.659475","25.062055","6501100","汐止區"
"221033","647-BX","2018/02/27 18:19:42","新北市汐止區宜興街86號","121.622493333333","25.043025","6501100","汐止區"
"221002","707-TV","2018/02/27 18:19:40","新北市汐止區福德一路201巷32號","121.635845","25.0648433333333","6501100","汐止區"
"221018","753-BX","2018/02/27 18:19:40","新北市汐止區茄苳路120巷3弄1號","121.667703333333","25.06989","6501100","汐止區"
"220046","255-TC","2018/02/27 18:19:49","新北市板橋區民生路二段120號","121.470391666667","25.019635","6500100","板橋區"
"242032","281-VK","2018/02/27 18:19:34","新北市新莊區新泰路255巷50號","121.444008333333","25.0395633333333","6500500","新莊區"
"242056","280-VK","2018/02/27 18:19:51","新北市新莊區豐年街豐1巷34號","121.44769","25.0310916666667","6500500","新莊區"
