"lineid","car","time","location","longitude","latitude","cityid","cityname"
"234046","148-BY","2018/02/27 18:59:41","新北市永和區得和路373巷29號","121.525016666667","25.0002933333333","6500400","永和區"
"234067","149-BY","2018/02/27 18:59:52","新北市永和區永和路一段32號","121.513061666667","25.004925","6500400","永和區"
"234007","208-UY","2018/02/27 18:59:38","新北市永和區永和路二段60號","121.514895","25.01096","6500400","永和區"
"234081","298-R6","2018/02/27 18:59:45","新北市永和區永亨路67-1號","121.521156666667","25.006055","6500400","永和區"
"234038","336-UY","2018/02/27 18:59:31","新北市永和區成功路二段199-2號","121.526521666667","24.9960316666667","6500400","永和區"
"234064","337-UY","2018/02/27 18:59:51","新北市永和區秀朗路一段162號","121.518428333333","25.0034583333333","6500400","永和區"
"234086","338-UY","2018/02/27 18:59:51","新北市永和區中正路498號","121.517473333333","25.0041633333333","6500400","永和區"
"234070","552-UM","2018/02/27 18:59:48","新北市永和區中興街100號","121.519098333333","25.0121233333333","6500400","永和區"
"234017","745-BX","2018/02/27 18:59:34","新北市永和區永和路二段299號","121.516063333333","25.0161516666667","6500400","永和區"
"234030","746-BX","2018/02/27 18:59:43","新北市永和區四維街44號","121.525205","24.99815","6500400","永和區"
"234054","KEA-2590","2018/02/27 18:59:34","新北市永和區竹林路66巷4號","121.5182","25.01337","6500400","永和區"
"234013","KEA-2591","2018/02/27 18:59:43","新北市永和區中山路一段60巷12號","121.513245","25.0110966666667","6500400","永和區"
"234061","AAD-866","2018/02/27 18:59:53","新北市永和區中正路505號","121.516798333333","25.0069866666667","6500400","永和區"
"234042","862-TW","2018/02/27 18:59:35","新北市永和區永貞路308號","121.511826666667","25.0048566666667","6500400","永和區"
"234050","863-TW","2018/02/27 18:59:40","新北市永和區文化路198號","121.510601666667","25.01631","6500400","永和區"
"234026","9371-KE","2018/02/27 18:59:38","新北市永和區安樂路300號","121.514376666667","25.0049483333333","6500400","永和區"
"234011","9373-KE","2018/02/27 18:59:38","新北市永和區忠孝街27號","121.513948333333","25.0155833333333","6500400","永和區"
"249005","172-UM","2018/02/27 18:59:46","新北市八里區長道坑11號","121.395638333333","25.1229383333333","6502300","八里區"
"249001","173-UM","2018/02/27 18:59:44","新北市八里區龍米路二段228-1號","121.43274","25.1584416666667","6502300","八里區"
"248006","077-UY","2018/02/27 18:59:53","新北市五股區中興路一段68號","121.467328333333","25.0729533333333","6501500","五股區"
"248008","095-VK","2018/02/27 18:59:48","新北市五股區中興路一段126號","121.4656","25.0736466666667","6501500","五股區"
"248020","225-UY","2018/02/27 18:59:44","新北市五股區凌雲路三段57號","121.425335","25.1250283333333","6501500","五股區"
"248012","247-BX","2018/02/27 18:59:48","新北市五股區中興路四段48巷16號","121.438641666667","25.083455","6501500","五股區"
"248016","261-SL","2018/02/27 18:59:50","新北市五股區成泰路三段543巷15號","121.45066","25.102395","6501500","五股區"
"248010","272-BY","2018/02/27 18:59:37","新北市五股區水碓三路6號","121.428775","25.0708866666667","6501500","五股區"
"248004","677-BX","2018/02/27 18:59:32","新北市五股區民義路二段52-3號","121.410073333333","25.1047216666667","6501500","五股區"
"248002","678-BX","2018/02/27 18:59:44","新北市五股區凌雲路一段163號","121.44889","25.1026066666667","6501500","五股區"
"234023","9380-KE","2018/02/27 18:59:52","新北市永和區竹林路91巷60弄70號","121.522908333333","25.0122883333333","6500400","永和區"
"234077","969-R7","2018/02/27 18:59:41","新北市永和區智光街27號","121.518143333333","24.9991716666667","6500400","永和區"
"234074","AAC-211","2018/02/27 18:59:52","新北市永和區環河東路二段98號","121.52411","25.0103533333333","6500400","永和區"
"234003","AAC-295","2018/02/27 18:59:35","新北市永和區和平街28號","121.513413333333","25.0099616666667","6500400","永和區"
"244013","069-UM","2018/02/27 18:59:51","新北市林口區文化一路一段120號","121.3745","25.0716966666667","6501700","林口區"
"244019","402-UM","2018/02/27 18:59:54","新北市林口區麗園二街36巷1號","121.380586666667","25.0689333333333","6501700","林口區"
"244025","742-UY","2018/02/27 18:59:43","新北市林口區文化三路一段447巷29號","121.367743333333","25.0752133333333","6501700","林口區"
"244017","485-VK","2018/02/27 18:59:48","新北市林口區文化二路一段68巷24-3號","121.367098333333","25.0688466666667","6501700","林口區"
"244009","657-BX","2018/02/27 18:59:53","新北市林口區竹林路462號","121.387948333333","25.085005","6501700","林口區"
"244011","701-TV","2018/02/27 18:59:30","新北市林口區仁愛路一段338號","121.39092","25.076555","6501700","林口區"
"244023","837-TS","2018/02/27 18:59:43","新北市林口區文林六街60號","121.370861666667","25.0817766666667","6501700","林口區"
"243012","AAD-798","2018/02/27 18:59:39","新北市泰山區仁德路112號","121.432748333333","25.0569533333333","6501600","泰山區"
"243011","297-R6","2018/02/27 18:59:35","新北市泰山區明志路二段241號","121.427308333333","25.0480083333333","6501600","泰山區"
"243015","380-SR","2018/02/27 18:59:44","新北市泰山區泰林路二段302號","121.430781666667","25.062775","6501600","泰山區"
"243014","421-VK","2018/02/27 18:59:50","新北市泰山區黎明路21號","121.420926666667","25.062745","6501600","泰山區"
"243010","KEA-2215","2018/02/27 18:59:46","新北市泰山區辭修路30號","121.42897","25.05822","6501600","泰山區"
"243009","KEA-2216","2018/02/27 18:59:36","新北市泰山區泰林路二段236號","121.43227","25.0620966666667","6501600","泰山區"
"243013","646-TV","2018/02/27 18:59:42","新北市泰山區明志路三段341巷5弄3號","121.423028333333","25.0351833333333","6501600","泰山區"
"243016","680-BX","2018/02/27 18:59:54","新北市泰山區明志路二段137號","121.427755","25.0504366666667","6501600","泰山區"
"222002","016-RS","2018/02/27 18:59:34","新北市深坑區文山路一段33號","121.629661666667","25.0040933333333","6501800","深坑區"
"222003","436-BY","2018/02/27 18:59:42","新北市深坑區深南路51-1號","121.621305","25.0102433333333","6501800","深坑區"
"231041","002-UM","2018/02/27 18:59:40","新北市新店區環河路78號","121.537066666667","24.9632516666667","6500600","新店區"
"231059","046-UY","2018/02/27 18:59:46","新北市新店區安康路一段355-3號","121.519823333333","24.96251","6500600","新店區"
"231061","047-UY","2018/02/27 18:59:49","新北市新店區安康路一段351-1號","121.51957","24.9639166666667","6500600","新店區"
"231051","107-UY","2018/02/27 18:59:47","新北市新店區百忍街8號","121.535066666667","24.9756283333333","6500600","新店區"
"231048","108-UY","2018/02/27 18:59:48","新北市新店區德正街27巷29弄46-1號","121.545815","24.9726166666667","6500600","新店區"
"231053","187-VK","2018/02/27 18:59:50","新北市新店區櫻花街55巷26號","121.548663333333","24.9260216666667","6500600","新店區"
"231050","KEA-2219","2018/02/27 18:59:37","新北市新店區北宜路二段30巷5弄2號","121.54796","24.9508283333333","6500600","新店區"
"231057","256-BX","2018/02/27 18:48:04","新北市新店區花園一路一段2號","121.553108333333","24.9324416666667","6500600","新店區"
"231046","278-BY","2018/02/27 18:59:35","新北市新店區直潭五街19號","121.534325","24.94103","6500600","新店區"
"231054","AAD-862","2018/02/27 18:59:33","新北市新店區新店路13號","121.540318333333","24.95282","6500600","新店區"
"231058","3712-VJ","2018/02/27 18:59:41","新北市新店區光明街138巷13弄5號","121.540518333333","24.9613","6500600","新店區"
"231056","3713-VJ","2018/02/27 18:59:37","新北市新店區大同街8巷1號","121.539668333333","24.9801133333333","6500600","新店區"
"231055","4716-K9","2018/02/27 18:59:40","新北市新店區新生街13巷4號","121.539708333333","24.96611","6500600","新店區"
"231067","4772-VM","2018/02/27 18:59:41","新北市新店區安康路一段247巷18號","121.524893333333","24.962355","6500600","新店區"
"231065","512-UM","2018/02/27 18:59:35","新北市新店區安祥路147巷88號","121.474935","24.9544666666667","6500600","新店區"
"231064","513-UM","2018/02/27 18:59:38","新北市新店區安康路一段266巷4號","121.519821666667","24.964045","6500600","新店區"
"231060","618-UM","2018/02/27 18:59:34","新北市新店區安豐路24號","121.500713333333","24.9565916666667","6500600","新店區"
"231040","619-UM","2018/02/27 18:59:53","新北市新店區中正路378號","121.534865","24.9768616666667","6500600","新店區"
"231042","641-BX","2018/02/27 18:59:48","新北市新店區中興路一段264號","121.54471","24.967165","6500600","新店區"
"231063","645-TV","2018/02/27 18:59:41","新北市新店區車子路109號","121.505238333333","24.9521283333333","6500600","新店區"
"231049","719-UM","2018/02/27 18:59:49","新北市新店區中正路454-5號","121.534571666667","24.9791016666667","6500600","新店區"
"231062","720-UM","2018/02/27 18:59:39","新北市新店區安和路一段49號","121.517528333333","24.9658866666667","6500600","新店區"
"231044","897-TW","2018/02/27 18:59:47","新北市新店區寶中路95-2號","121.548573333333","24.9806516666667","6500600","新店區"
"231045","898-TW","2018/02/27 18:59:38","新北市新店區北新路一段41號","121.538008333333","24.9592833333333","6500600","新店區"
"231043","899-TW","2018/02/27 18:59:36","新北市新店區北新路二段18號","121.542768333333","24.97126","6500600","新店區"
"231066","AKT-0513","2018/02/27 18:59:32","新北市新店區安祥路96號","121.48851","24.9601583333333","6500600","新店區"
"235066","003-UY","2018/02/27 18:59:31","新北市中和區中山路二段131巷5弄4號","121.502935","25.00284","6500300","中和區"
"235064","005-UY","2018/02/27 18:59:46","新北市中和區泰和街44巷34號","121.498253333333","25.0010183333333","6500300","中和區"
"235063","006-UY","2018/02/27 18:59:50","新北市中和區中正路522號","121.488076666667","24.99455","6500300","中和區"
"235056","096-UM","2018/02/27 18:59:43","新北市中和區新民街96號","121.481186666667","25.00841","6500300","中和區"
"235039","097-UM","2018/02/27 18:59:50","新北市中和區安樂路217巷45號","121.5133","24.99776","6500300","中和區"
"235065","098-UM","2018/02/27 18:59:47","新北市中和區勝利路35巷9弄20號","121.499845","25.0073733333333","6500300","中和區"
"235040","150-BY","2018/02/27 18:59:51","新北市中和區安樂路81號","121.512671666667","24.9943466666667","6500300","中和區"
"235058","151-BY","2018/02/27 18:59:47","新北市中和區連城路569巷9弄12號","121.479836666667","24.9940316666667","6500300","中和區"
"235055","183-VK","2018/02/27 18:59:40","新北市中和區民德路2號","121.468793333333","25.0032333333333","6500300","中和區"
"235038","185-VK","2018/02/27 18:59:44","新北市中和區立人街24-4號","121.518858333333","24.9942333333333","6500300","中和區"
"235049","186-VK","2018/02/27 18:59:41","新北市中和區景安路163號","121.50554","24.994575","6500300","中和區"
"235067","255-BX","2018/02/27 18:59:42","新北市中和區民樂路60號","121.483885","25.0010966666667","6500300","中和區"
"235044","293-VK","2018/02/27 18:59:47","新北市中和區中興街161巷3弄1號","121.50046","24.9909133333333","6500300","中和區"
"235072","301-VK","2018/02/27 18:59:40","新北市中和區中山路二段258號","121.497491666667","25.002415","6500300","中和區"
"235043","352-BY","2018/02/27 18:59:37","新北市中和區成功路53號","121.526195","24.9928966666667","6500300","中和區"
"235068","377-QA","2018/02/27 18:59:40","新北市中和區圓通路232巷8號","121.494893333333","24.9932216666667","6500300","中和區"
"235061","378-QA","2018/02/27 18:59:48","新北市中和區民享街89巷4弄1號","121.475146666667","25.0016583333333","6500300","中和區"
"235050","4979-A6","2018/02/27 18:59:45","新北市中和區忠孝街2-11號","121.509413333333","24.9829166666667","6500300","中和區"
"235069","4980-A6","2018/02/27 18:59:51","新北市中和區圓通路109巷5號","121.500073333333","24.99636","6500300","中和區"
"235042","551-UM","2018/02/27 18:59:46","新北市中和區秀朗路三段50巷13號","121.525416666667","24.99522","6500300","中和區"
"235045","565-BX","2018/02/27 18:59:33","新北市中和區景新街467巷4號","121.513598333333","24.9881583333333","6500300","中和區"
"235054","640-BX","2018/02/27 18:59:53","新北市中和區民享街11號","121.474018333333","25.0053083333333","6500300","中和區"
"235060","647-TV","2018/02/27 18:59:51","新北市中和區中山路三段208號","121.471561666667","25.006555","6500300","中和區"
"235047","732-UM","2018/02/27 18:59:38","新北市中和區興南路二段94號","121.505385","24.9843866666667","6500300","中和區"
"235046","733-UM","2018/02/27 18:59:44","新北市中和區興南路二段3巷13號","121.50834","24.986205","6500300","中和區"
"235062","800-TS","2018/02/27 18:59:37","新北市中和區中山路二段380-1號","121.491241666667","25.0033566666667","6500300","中和區"
"235057","801-TS","2018/02/27 18:59:48","新北市中和區民利街40巷3弄11號","121.478855","24.99924","6500300","中和區"
"235052","805-TS","2018/02/27 18:59:34","新北市中和區興南路二段134號","121.504238333333","24.9833683333333","6500300","中和區"
"235048","896-TW","2018/02/27 18:59:54","新北市中和區華新街95號","121.50869","24.9830883333333","6500300","中和區"
"235053","900-TW","2018/02/27 18:59:32","新北市中和區壽德街26號","121.466661666667","24.9943283333333","6500300","中和區"
"235070","911-UM","2018/02/27 18:59:40","新北市中和區中和路212號","121.505705","24.9995416666667","6500300","中和區"
"235051","157-BY","2018/02/27 18:59:46","新北市中和區忠孝街11巷10號","121.509898333333","24.983195","6500300","中和區"
"235037","AAC-213","2018/02/27 18:59:49","新北市中和區自立路99巷5號","121.522355","24.9948266666667","6500300","中和區"
"235059","AAC-215","2018/02/27 18:59:50","新北市中和區圓通路367巷20弄19號","121.491608333333","24.98839","6500300","中和區"
"220068","013-TV","2018/02/27 18:59:47","新北市板橋區中山路二段465巷36號","121.481323333333","25.0214033333333","6500100","板橋區"
"220065","072-UY","2018/02/27 18:59:47","新北市板橋區民族路287巷10號","121.471201666667","25.0071366666667","6500100","板橋區"
"220086","073-UY","2018/02/27 18:59:46","新北市板橋區中正路146號","121.45699","25.0161733333333","6500100","板橋區"
"220069","AAD-861","2018/02/27 18:59:39","新北市板橋區大華街34號","121.45863","25.0056533333333","6500100","板橋區"
"226004","205-ST","2018/02/27 18:59:37","新北市平溪區靜安路二段449號","121.740551666667","25.02493","6502400","平溪區"
"235041","251-BX","2018/02/27 18:59:42","新北市中和區安平路132號","121.511988333333","24.9978966666667","6500300","中和區"
"228001","212-TW","2018/02/27 18:59:42","新北市貢寮區仁理村保健街71號","121.923701666667","25.0516383333333","6502600","貢寮區"
"228002","663-BX","2018/02/27 18:59:45","新北市貢寮區福隆里東興街106巷25弄1號","121.94642","25.0183616666667","6502600","貢寮區"
"228003","828-UM","2018/02/27 18:59:45","新北市貢寮區和美里龍洞街35-6號","121.92009","25.1104133333333","6502600","貢寮區"
"224010","AGQ-8101","2018/02/27 18:59:49","新北市瑞芳區基山街34號","121.84484","25.108365","6501200","瑞芳區"
"224006","676-BX","2018/02/27 18:59:43","新北市瑞芳區中正路2號","121.808931666667","25.10706","6501200","瑞芳區"
"224009","285-BY","2018/02/27 18:59:50","新北市瑞芳區洞頂路142號","121.860295","25.11761","6501200","瑞芳區"
"224008","275-VK","2018/02/27 18:59:50","新北市瑞芳區瑞芳街104號","121.801666666667","25.11068","6501200","瑞芳區"
"224007","273-VK","2018/02/27 18:59:45","新北市瑞芳區大埔路慶安新村32號","121.762651666667","25.0999983333333","6501200","瑞芳區"
"224005","271-BY","2018/02/27 18:59:50","新北市瑞芳區連福新城25號","121.820296666667","25.11906","6501200","瑞芳區"
"227003","642-TC","2018/02/27 18:59:41","新北市雙溪區平林里康福家園10號","121.858775","25.037375","6502500","雙溪區"
"227009","400-TW","2018/02/27 18:59:33","新北市雙溪區牡丹里中正路58巷23號","121.866411666667","25.0416366666667","6502500","雙溪區"
"253005","032-BX","2018/02/27 18:59:36","新北市石門區中央路37-5號","121.569346666667","25.2962883333333","6502200","石門區"
"253006","295-VK","2018/02/27 18:59:30","新北市石門區下員坑42-1號","121.517883333333","25.2780816666667","6502200","石門區"
"222001","KEA-2212","2018/02/27 18:59:38","新北市深坑區北深路一段177號","121.632553333333","25.0108766666667","6501800","深坑區"
"208003","665-BX","2018/02/27 18:59:51","新北市金山區中正路97號","121.633086666667","25.2216183333333","6502700","金山區"
"208001","761-BX","2018/02/27 18:59:39","新北市金山區中山路69號","121.641155","25.21788","6502700","金山區"
"251001","011-UM","2018/02/27 18:59:49","新北市淡水區自強路58-1號","121.463258333333","25.127575","6501000","淡水區"
"251013","179-VK","2018/02/27 18:59:40","新北市淡水區安子內12號","121.481601666667","25.2190933333333","6501000","淡水區"
"251014","180-VK","2018/02/27 18:59:48","新北市淡水區小中寮30號","121.490086666667","25.2278133333333","6501000","淡水區"
"251015","182-VK","2018/02/27 18:59:40","新北市淡水區糞箕湖60號","121.485236666667","25.17232","6501000","淡水區"
"251010","413-VK","2018/02/27 18:59:37","新北市淡水區沙崙路97號","121.422308333333","25.1823933333333","6501000","淡水區"
"251016","442-VK","2018/02/27 18:59:39","新北市淡水區埤島23-1號","121.446896666667","25.1995283333333","6501000","淡水區"
"251009","575-R6","2018/02/27 18:59:35","新北市淡水區重建街36號","121.439901666667","25.1712583333333","6501000","淡水區"
"251007","577-R6","2018/02/27 18:59:39","新北市淡水區民生路113巷1弄45號","121.462793333333","25.138615","6501000","淡水區"
"251002","672-BX","2018/02/27 18:59:45","新北市淡水區中正東路53號","121.446745","25.1679033333333","6501000","淡水區"
"251003","673-BX","2018/02/27 18:59:44","新北市淡水區中山北路一段149巷33號","121.443053333333","25.1779616666667","6501000","淡水區"
"207004","225-TW","2018/02/27 18:59:49","新北市萬里區萬里里獅頭路23號","121.693226666667","25.178285","6502800","萬里區"
"252002","178-VK","2018/02/27 18:59:33","新北市三芝區中正路一段67-1號","121.50393","25.2573","6502100","三芝區"
"252003","249-BX","2018/02/27 18:59:52","新北市三芝區後厝里北勢子42-4號","121.472298333333","25.252705","6502100","三芝區"
"252001","292-VK","2018/02/27 18:59:38","新北市三芝區中興街二段260號","121.501665","25.25304","6502100","三芝區"
"237004","KEA-2597","2018/02/27 18:59:43","新北市三峽區有木206號","121.439111666667","24.851485","6500900","三峽區"
"237007","153-BY","2018/02/27 18:59:48","新北市三峽區中正路二段318號","121.365886666667","24.91084","6500900","三峽區"
"237013","252-BX","2018/02/27 18:59:42","新北市三峽區光明路69巷25號","121.376535","24.9292","6500900","三峽區"
"237012","275-BY","2018/02/27 18:59:53","新北市三峽區三樹路222巷47號","121.3827","24.9423216666667","6500900","三峽區"
"237008","302-VK","2018/02/27 18:59:37","新北市三峽區中正路一段357號","121.370928333333","24.92293","6500900","三峽區"
"237014","433-BY","2018/02/27 18:59:36","新北市三峽區大勇路1-3號","121.367016666667","24.9384733333333","6500900","三峽區"
"237006","5529-G3","2018/02/27 18:59:49","新北市三峽區溪東路233巷47弄2號","121.410603333333","24.9346133333333","6500900","三峽區"
"237011","KEA-2596","2018/02/27 18:59:50","新北市三峽區介壽路一段365號","121.382726666667","24.930695","6500900","三峽區"
"237010","706-TV","2018/02/27 18:59:38","新北市三峽區國光街350巷14號","121.37177","24.9400666666667","6500900","三峽區"
"237005","AKY-6261","2018/02/27 18:59:36","新北市三峽區中山路459巷163-3號","121.348671666667","24.9329133333333","6500900","三峽區"
"236070","105-UM","2018/02/27 18:59:34","新北市土城區金城路二段151-1號","121.453531666667","24.9810166666667","6501300","土城區"
"236043","107-UM","2018/02/27 18:59:43","新北市土城區裕民路214巷18弄10號","121.452285","24.9841033333333","6501300","土城區"
"236079","166-UM","2018/02/27 18:59:43","新北市土城區中央路四段466號","121.409945","24.9506166666667","6501300","土城區"
"236031","253-BX","2018/02/27 18:59:37","新北市土城區中華路二段2號","121.439708333333","24.97937","6501300","土城區"
"236026","269-VK","2018/02/27 18:59:48","新北市土城區中央路二段244號","121.44184","24.9749666666667","6501300","土城區"
"236015","270-VK","2018/02/27 18:59:36","新北市土城區延和路13巷1號","121.463558333333","24.9884933333333","6501300","土城區"
"236038","271-VK","2018/02/27 18:59:46","新北市土城區青仁路14號","121.459786666667","24.9785166666667","6501300","土城區"
"236023","401-BY","2018/02/27 18:59:49","新北市土城區延吉街166號","121.468453333333","24.9854233333333","6501300","土城區"
"236049","752-BX","2018/02/27 18:59:32","新北市土城區青雲路318號","121.458905","24.9772133333333","6501300","土城區"
"236059","912-UM","2018/02/27 18:59:49","新北市土城區清水路1號","121.452828333333","24.9802016666667","6501300","土城區"
"236063","915-UM","2018/02/27 18:59:35","新北市土城區延和路90號","121.466448333333","24.9894433333333","6501300","土城區"
"236055","AAC-216","2018/02/27 18:59:46","新北市土城區學成路162號","121.448118333333","24.98913","6501300","土城區"
"238023","601-UM","2018/02/27 18:59:32","新北市樹林區工興街18號","121.397815","25.01355","6500700","樹林區"
"238019","599-UM","2018/02/27 18:59:36","新北市樹林區東榮街91巷2弄12號","121.415718333333","24.98217","6500700","樹林區"
"238018","571-TV","2018/02/27 18:59:46","新北市樹林區八德街3號","121.417875","24.9845883333333","6500700","樹林區"
"238022","KEA-2213","2018/02/27 18:59:38","新北市樹林區東興街14-2號","121.410033333333","24.9784566666667","6500700","樹林區"
"238026","KEA-2539","2018/02/27 18:59:37","新北市樹林區西圳街二段100號","121.38439","24.95785","6500700","樹林區"
"238025","303-VK","2018/02/27 18:59:33","新北市樹林區民和街61-2號","121.381213333333","24.9711783333333","6500700","樹林區"
"238017","283-BY","2018/02/27 18:59:48","新北市樹林區光興街44號","121.409883333333","25.0027383333333","6500700","樹林區"
"238014","282-BY","2018/02/27 18:59:43","新北市樹林區中正路22-1號","121.427746666667","24.9995016666667","6500700","樹林區"
"238020","268-VK","2018/02/27 18:59:42","新北市樹林區俊英街79號","121.426106666667","25.0075783333333","6500700","樹林區"
"238026","172-UY","2018/02/27 18:59:36","新北市樹林區地政街41號","121.39487","24.9717983333333","6500700","樹林區"
"238016","169-UY","2018/02/27 18:59:41","新北市樹林區中山路一段306巷84號","121.417401666667","24.986075","6500700","樹林區"
"239007","AAC-297","2018/02/27 18:59:32","新北市鶯歌區中山路6號","121.353025","24.9572833333333","6500800","鶯歌區"
"239006","891-R6","2018/02/27 18:59:50","新北市鶯歌區鶯桃路91巷4號","121.339256666667","24.9533866666667","6500800","鶯歌區"
"239008","527-UM","2018/02/27 18:59:51","新北市鶯歌區國際二路16巷7號","121.33763","24.9749266666667","6500800","鶯歌區"
"239005","526-UM","2018/02/27 18:59:36","新北市鶯歌區大湖路530巷2-2號","121.33794","24.9722366666667","6500800","鶯歌區"
"239001","417-VK","2018/02/27 18:59:45","新北市鶯歌區永安街38號","121.337853333333","24.95609","6500800","鶯歌區"
"239003","360-BY","2018/02/27 18:59:43","新北市鶯歌區鶯桃路485號","121.331683333333","24.9663183333333","6500800","鶯歌區"
"239004","193-VK","2018/02/27 18:59:47","新北市鶯歌區中正三路398號","121.325725","24.9346133333333","6500800","鶯歌區"
"221008","489-VK","2018/02/27 18:59:47","新北市汐止區康寧街753巷2弄22號","121.640188333333","25.0746066666667","6501100","汐止區"
"221036","130-UY","2018/02/27 18:59:34","新北市汐止區忠孝東路314巷13號","121.664591666667","25.0687833333333","6501100","汐止區"
"221015","131-UY","2018/02/27 18:59:37","新北市汐止區汐萬路一段146號","121.652971666667","25.071085","6501100","汐止區"
"221010","269-BY","2018/02/27 18:59:52","新北市汐止區康寧街901號","121.651403333333","25.0749766666667","6501100","汐止區"
"221012","278-VK","2018/02/27 18:59:46","新北市汐止區康寧街901號","121.650825","25.075265","6501100","汐止區"
"221023","279-VK","2018/02/27 18:59:31","新北市汐止區康寧街901號","121.650941666667","25.0751983333333","6501100","汐止區"
"221032","280-BY","2018/02/27 18:59:37","新北市汐止區橫科路407巷81弄1號","121.628311666667","25.0484383333333","6501100","汐止區"
"221027","281-BY","2018/02/27 18:59:39","新北市汐止區康寧街901號","121.65146","25.0749666666667","6501100","汐止區"
"221038","297-VK","2018/02/27 18:59:39","新北市汐止區康寧街901號","121.650865","25.07536","6501100","汐止區"
"221029","298-VK","2018/02/27 18:59:39","新北市汐止區樟樹一路254號","121.642458333333","25.0672683333333","6501100","汐止區"
"221031","353-TW","2018/02/27 18:59:46","新北市汐止區中興路181巷29弄3號","121.629495","25.0658533333333","6501100","汐止區"
"221035","622-UM","2018/02/27 18:59:39","新北市汐止區汐萬路一段265巷2號","121.650721666667","25.074225","6501100","汐止區"
"221025","623-UM","2018/02/27 18:59:39","新北市汐止區汐萬路一段216號","121.651898333333","25.0726916666667","6501100","汐止區"
"221033","647-BX","2018/02/27 18:59:42","新北市汐止區南勢街3號","121.627111666667","25.0374433333333","6501100","汐止區"
"221002","707-TV","2018/02/27 18:59:40","新北市汐止區大同路一段2號","121.620968333333","25.0550933333333","6501100","汐止區"
"221018","753-BX","2018/02/27 18:59:39","新北市汐止區汐萬路一段256巷3號","121.653348333333","25.0747116666667","6501100","汐止區"
"220079","145-BY","2018/02/27 18:59:47","新北市板橋區民權路202巷9弄20號","121.45965","25.0156416666667","6500100","板橋區"
"220080","200-UY","2018/02/27 18:59:47","新北市板橋區大觀路二段265巷3弄13-1號","121.443386666667","24.9982366666667","6500100","板橋區"
"220106","KEA-2550","2018/02/27 18:59:35","新北市板橋區文化路二段124巷28-2號","121.471228333333","25.0257433333333","6500100","板橋區"
"220082","610-BX","2018/02/27 18:59:44","新北市板橋區滿平街111號","121.428421666667","24.9886216666667","6500100","板橋區"
"220101","245-BX","2018/02/27 18:59:47","新北市板橋區文化路二段182巷7弄1號","121.471906666667","25.026985","6500100","板橋區"
"220046","255-TC","2018/02/27 18:59:49","新北市板橋區民生路二段120號","121.4705","25.0196416666667","6500100","板橋區"
"220096","257-TC","2018/02/27 18:59:52","新北市板橋區莒光路103號","121.47265","25.0240366666667","6500100","板橋區"
"220056","276-BY","2018/02/27 18:59:45","新北市板橋區信義路148號","121.458698333333","24.9918016666667","6500100","板橋區"
"220072","277-BY","2018/02/27 18:59:40","新北市板橋區大觀路三段50巷103號","121.430766666667","24.9968133333333","6500100","板橋區"
"220057","282-UM","2018/02/27 18:59:45","新北市板橋區重慶路95號","121.46212","25.0056916666667","6500100","板橋區"
"220071","283-VK","2018/02/27 18:59:46","新北市板橋區重慶路239號","121.463073333333","25.0007666666667","6500100","板橋區"
"220094","285-UM","2018/02/27 18:59:42","新北市板橋區莒光路1-1號","121.469571666667","25.02495","6500100","板橋區"
"220053","285-VK","2018/02/27 18:59:41","新北市板橋區中山路二段89巷35號","121.473703333333","25.0169466666667","6500100","板橋區"
"220083","286-VK","2018/02/27 18:59:35","新北市板橋區大觀路一段38巷180號","121.441585","25.0046366666667","6500100","板橋區"
"220081","287-VK","2018/02/27 18:59:45","新北市板橋區光華街19巷68號","121.45299","25.011925","6500100","板橋區"
"220061","293-UM","2018/02/27 18:59:35","新北市板橋區富山街98-3號","121.476398333333","25.021925","6500100","板橋區"
"220084","296-UM","2018/02/27 18:59:48","新北市板橋區龍興街65巷1號","121.44333","25.0013266666667","6500100","板橋區"
"220075","303-R5","2018/02/27 18:59:49","新北市板橋區茶館街15號","121.456623333333","25.0105883333333","6500100","板橋區"
"220062","305-R5","2018/02/27 18:59:49","新北市板橋區民享街102號","121.477346666667","25.0159033333333","6500100","板橋區"
"220092","307-R5","2018/02/27 18:59:42","新北市板橋區文化路一段231號","121.464156666667","25.017325","6500100","板橋區"
"220098","317-R6","2018/02/27 18:59:46","新北市板橋區民有街18號","121.466203333333","25.0249916666667","6500100","板橋區"
"220064","486-VK","2018/02/27 18:59:52","新北市板橋區漢生東路121號","121.467556666667","25.0145683333333","6500100","板橋區"
"220089","487-VK","2018/02/27 18:59:39","新北市板橋區文化路二段242號","121.470976666667","25.02794","6500100","板橋區"
"220088","491-VK","2018/02/27 18:59:53","新北市板橋區民生路二段236號","121.468405","25.02287","6500100","板橋區"
"220035","560-BX","2018/02/27 18:59:48","新北市板橋區中正路343號","121.454828333333","25.0204566666667","6500100","板橋區"
"220103","561-BX","2018/02/27 18:59:40","新北市板橋區民生路二段123號","121.470678333333","25.018575","6500100","板橋區"
"220063","609-BX","2018/02/27 18:59:47","新北市板橋區中山路二段179號","121.476223333333","25.0169216666667","6500100","板橋區"
"220091","637-BX","2018/02/27 18:59:41","新北市板橋區雙十路二段47巷19號","121.475505","25.025695","6500100","板橋區"
"220077","687-BX","2018/02/27 18:59:37","新北市板橋區大觀路二段146-2號","121.442025","24.99878","6500100","板橋區"
"220093","689-BX","2018/02/27 18:59:54","新北市板橋區民生路三段66-3號","121.466966666667","25.025785","6500100","板橋區"
"220054","741-BX","2018/02/27 18:59:50","新北市板橋區重慶路139巷2號","121.462516666667","25.00444","6500100","板橋區"
"220102","KEA-2699","2018/02/27 18:59:44","新北市板橋區縣民大道三段133巷35號","121.476988333333","25.02461","6500100","板橋區"
"220055","827-TW","2018/02/27 18:59:40","新北市板橋區中山路一段158巷3號","121.466193333333","25.0116933333333","6500100","板橋區"
"220067","829-TW","2018/02/27 18:59:44","新北市板橋區三民路二段正隆巷12弄21號","121.47737","25.0136516666667","6500100","板橋區"
"220090","830-TW","2018/02/27 18:59:43","新北市板橋區四維路175-1號","121.464556666667","25.026255","6500100","板橋區"
"220074","895-R6","2018/02/27 18:59:50","新北市板橋區府中路122號","121.455351666667","25.0094666666667","6500100","板橋區"
"220073","985-R7","2018/02/27 18:59:33","新北市板橋區民權路217號","121.457708333333","25.015205","6500100","板橋區"
"220097","AAC-210","2018/02/27 18:49:32","新北市板橋區民生路二段120號","121.470368333333","25.019755","6500100","板橋區"
"220070","AAC-253","2018/02/27 18:59:48","新北市板橋區四川路一段351號","121.458526666667","24.999925","6500100","板橋區"
