"lineid","car","time","location","longitude","latitude","cityid","cityname"
"234046","148-BY","2018/02/27 19:19:41","新北市永和區得和路357號","121.524383333333","24.9994316666667","6500400","永和區"
"234067","149-BY","2018/02/27 19:19:42","新北市永和區保平路50巷8弄14號","121.5116","25.0077733333333","6500400","永和區"
"234007","208-UY","2018/02/27 19:19:38","新北市永和區中山路一段309號","121.506465","25.0065466666667","6500400","永和區"
"234081","298-R6","2018/02/27 19:19:47","新北市永和區福和路7巷11弄4號","121.525633333333","25.0072233333333","6500400","永和區"
"234038","336-UY","2018/02/27 19:19:53","新北市永和區民樂街55巷2號","121.527491666667","24.9985016666667","6500400","永和區"
"234064","337-UY","2018/02/27 19:19:51","新北市永和區永元路17巷6弄1號","121.521485","25.000775","6500400","永和區"
"234086","338-UY","2018/02/27 19:19:51","新北市永和區永利路86號","121.520673333333","25.0040416666667","6500400","永和區"
"234070","552-UM","2018/02/27 19:19:48","新北市永和區豫溪街55號","121.517161666667","25.0099183333333","6500400","永和區"
"234017","745-BX","2018/02/27 19:19:35","新北市永和區文化路144巷31弄8號","121.512395","25.01679","6500400","永和區"
"234030","746-BX","2018/02/27 19:19:43","新北市永和區厚德街56號","121.524596666667","24.99879","6500400","永和區"
"234054","KEA-2590","2018/02/27 19:19:34","新北市永和區中興街14號","121.515958333333","25.0119016666667","6500400","永和區"
"234013","KEA-2591","2018/02/27 19:19:43","新北市永和區仁愛路100號","121.51226","25.013205","6500400","永和區"
"234061","AAD-866","2018/02/27 19:19:33","新北市永和區中正路381號","121.517175","25.00374","6500400","永和區"
"234042","862-TW","2018/02/27 19:19:35","新北市永和區保平路151巷2弄3號","121.509966666667","25.0054516666667","6500400","永和區"
"234050","863-TW","2018/02/27 19:19:00","新北市永和區仁愛路74號","121.512876666667","25.0134766666667","6500400","永和區"
"234026","9371-KE","2018/02/27 19:19:38","新北市永和區安樂路144巷31號","121.515293333333","24.9997433333333","6500400","永和區"
"234011","9373-KE","2018/02/27 19:19:38","新北市永和區保福路二段23巷19號","121.510225","25.0111633333333","6500400","永和區"
"249001","173-UM","2018/02/27 19:19:44","新北市八里區中華路二段103-1號","121.409251666667","25.1522916666667","6502300","八里區"
"249003","593-UM","2018/02/27 19:19:38","新北市八里區中山路二段466巷5號","121.398726666667","25.1474266666667","6502300","八里區"
"248020","225-UY","2018/02/27 19:19:44","新北市五股區凌雲路三段57號","121.425341666667","25.1250183333333","6501500","五股區"
"248012","247-BX","2018/02/27 19:19:48","新北市五股區中興路四段38巷11號","121.438731666667","25.08346","6501500","五股區"
"248010","272-BY","2018/02/27 19:19:37","新北市五股區水碓一路23號","121.430533333333","25.0712616666667","6501500","五股區"
"248004","677-BX","2018/02/27 19:19:34","新北市五股區五福路73號","121.432528333333","25.0901","6501500","五股區"
"248002","678-BX","2018/02/27 19:19:44","新北市五股區凌雲路一段158巷15號","121.447806666667","25.1035816666667","6501500","五股區"
"234023","9380-KE","2018/02/27 19:19:52","新北市永和區竹林路124巷12號","121.51919","25.0112816666667","6500400","永和區"
"234077","969-R7","2018/02/27 19:19:41","新北市永和區民治街72巷10號","121.518056666667","24.9984483333333","6500400","永和區"
"234074","AAC-211","2018/02/27 19:19:32","新北市永和區竹林路44-1號","121.517505","25.0141666666667","6500400","永和區"
"234003","AAC-295","2018/02/27 19:19:35","新北市永和區永平路150號","121.51134","25.008625","6500400","永和區"
"244013","069-UM","2018/02/27 19:19:38","新北市林口區麗園一街11巷11號","121.378576666667","25.0705233333333","6501700","林口區"
"244019","402-UM","2018/02/27 19:19:54","新北市林口區麗園二街1巷9-1號","121.37877","25.0701616666667","6501700","林口區"
"244011","701-TV","2018/02/27 19:19:50","新北市林口區中山路262-1號","121.384881666667","25.0799133333333","6501700","林口區"
"244023","837-TS","2018/02/27 19:19:43","新北市林口區民富街93號","121.370058333333","25.074995","6501700","林口區"
"243012","AAD-798","2018/02/27 19:19:39","新北市泰山區仁愛路100巷9號","121.433443333333","25.0552316666667","6501600","泰山區"
"243011","297-R6","2018/02/27 19:19:35","新北市泰山區中央路9巷2號","121.426395","25.0429983333333","6501600","泰山區"
"243015","380-SR","2018/02/27 19:19:52","新北市泰山區公園路67-1號","121.426583333333","25.0552533333333","6501600","泰山區"
"243014","421-VK","2018/02/27 19:19:41","新北市泰山區泰林路二段208號","121.433273333333","25.06142","6501600","泰山區"
"243010","KEA-2215","2018/02/27 19:19:46","新北市泰山區明志路一段492巷4弄1號","121.430048333333","25.0548133333333","6501600","泰山區"
"243009","KEA-2216","2018/02/27 19:19:36","新北市泰山區和平街13巷26號","121.4345","25.065245","6501600","泰山區"
"243013","646-TV","2018/02/27 19:19:37","新北市泰山區明志路三段145巷11弄2號","121.425835","25.03979","6501600","泰山區"
"243016","680-BX","2018/02/27 19:19:46","新北市泰山區工專路6號","121.424081666667","25.03965","6501600","泰山區"
"222002","016-RS","2018/02/27 19:19:34","新北市深坑區北深路一段210號","121.632583333333","25.0109216666667","6501800","深坑區"
"222003","436-BY","2018/02/27 19:19:42","新北市深坑區深南路91號","121.626553333333","25.01597","6501800","深坑區"
"231041","002-UM","2018/02/27 19:19:40","新北市新店區溪園路205號","121.527486666667","24.98501","6500600","新店區"
"231059","046-UY","2018/02/27 19:19:46","新北市新店區安和路三段21巷3號","121.517203333333","24.9808683333333","6500600","新店區"
"231061","047-UY","2018/02/27 19:19:49","新北市新店區安康路二段1-5號","121.516986666667","24.9639166666667","6500600","新店區"
"231051","107-UY","2018/02/27 19:19:47","新北市新店區中央路116號","121.531078333333","24.9751066666667","6500600","新店區"
"231048","108-UY","2018/02/27 19:19:48","新北市新店區中興路一段282-2號","121.546076666667","24.9684733333333","6500600","新店區"
"231053","187-VK","2018/02/27 19:19:30","新北市新店區自強路251號","121.54814","24.919645","6500600","新店區"
"231050","KEA-2219","2018/02/27 19:18:56","新北市新店區竹林路157-1號","121.556505","24.9477733333333","6500600","新店區"
"231057","256-BX","2018/02/27 19:19:37","新北市新店區花園一路一段2號","121.553181666667","24.9324516666667","6500600","新店區"
"231046","278-BY","2018/02/27 19:19:35","新北市新店區華城路36巷1-1號","121.528421666667","24.9553583333333","6500600","新店區"
"231054","AAD-862","2018/02/27 19:19:33","新北市新店區國校路43號","121.537968333333","24.9552483333333","6500600","新店區"
"231058","3712-VJ","2018/02/27 19:19:41","新北市新店區中華路1號","121.541303333333","24.9671133333333","6500600","新店區"
"231056","3713-VJ","2018/02/27 19:19:37","新北市新店區溪園路401號","121.523753333333","24.9780583333333","6500600","新店區"
"231065","512-UM","2018/02/27 19:19:35","新北市新店區安祥路110巷30弄15號","121.474308333333","24.9570583333333","6500600","新店區"
"231064","513-UM","2018/02/27 19:19:38","新北市新店區安忠路57巷26弄70號","121.51214","24.9574066666667","6500600","新店區"
"231060","618-UM","2018/02/27 19:19:46","新北市新店區安康路二段128號","121.512731666667","24.9624666666667","6500600","新店區"
"231040","619-UM","2018/02/27 19:19:33","新北市新店區中華路70巷2號","121.539051666667","24.9692583333333","6500600","新店區"
"231042","641-BX","2018/02/27 19:19:48","新北市新店區北宜路一段3號","121.538313333333","24.958495","6500600","新店區"
"231063","645-TV","2018/02/27 19:19:41","新北市新店區達觀路14巷8號","121.503185","24.9432866666667","6500600","新店區"
"231049","719-UM","2018/02/27 19:19:47","新北市新店區明德路64號","121.541586666667","24.9794933333333","6500600","新店區"
"231062","720-UM","2018/02/27 19:19:39","新北市新店區莒光路87巷10號","121.523961666667","24.9556666666667","6500600","新店區"
"231044","897-TW","2018/02/27 19:19:47","新北市新店區寶慶街71號","121.541828333333","24.9864716666667","6500600","新店區"
"231045","898-TW","2018/02/27 19:19:38","新北市新店區北宜路一段304號","121.547253333333","24.9522683333333","6500600","新店區"
"231043","899-TW","2018/02/27 19:19:36","新北市新店區北新路二段160號","121.542928333333","24.9756016666667","6500600","新店區"
"231066","AKT-0513","2018/02/27 19:19:52","新北市新店區安康路三段207巷5號","121.487966666667","24.9510366666667","6500600","新店區"
"241009","060-VK","2018/02/27 19:19:48","新北市三重區溪尾街230巷46號","121.485985","25.0811416666667","6500200","三重區"
"241031","061-VK","2018/02/27 19:19:39","新北市三重區重新路四段242號","121.485726666667","25.0538333333333","6500200","三重區"
"241017","063-VK","2018/02/27 19:19:50","新北市三重區長壽西街210號","121.492141666667","25.0661433333333","6500200","三重區"
"241026","066-VK","2018/02/27 19:19:42","新北市三重區同安東街64號","121.498256666667","25.05734","6500200","三重區"
"241022","267-UM","2018/02/27 19:19:35","新北市三重區中正北路66號","121.486628333333","25.0646133333333","6500200","三重區"
"241032","269-UM","2018/02/27 19:19:53","新北市三重區新生街79號","121.484225","25.0593833333333","6500200","三重區"
"241025","271-UM","2018/02/27 19:19:36","新北市三重區中正北路408巷2號","121.475408333333","25.070345","6500200","三重區"
"241007","398-BY","2018/02/27 19:19:39","新北市三重區慈愛街62號","121.486928333333","25.0794266666667","6500200","三重區"
"241030","480-VK","2018/02/27 19:19:36","新北市三重區成功路41巷99號","121.491478333333","25.0532533333333","6500200","三重區"
"241006","887-TS","2018/02/27 19:19:49","新北市三重區力行路二段151號","121.483573333333","25.0774816666667","6500200","三重區"
"241029","942-UM","2018/02/27 19:19:45","新北市三重區重安街27號","121.491031666667","25.0570283333333","6500200","三重區"
"235066","003-UY","2018/02/27 19:19:52","新北市中和區中和路159號","121.502753333333","24.9998983333333","6500300","中和區"
"235064","005-UY","2018/02/27 19:19:46","新北市中和區連城路2號","121.499215","25.0024116666667","6500300","中和區"
"235063","006-UY","2018/02/27 19:19:50","新北市中和區連城路249巷21弄4號","121.494178333333","24.9959666666667","6500300","中和區"
"235056","096-UM","2018/02/27 19:19:43","新北市中和區員山路529號","121.47968","25.0069333333333","6500300","中和區"
"235039","097-UM","2018/02/27 19:19:49","新北市中和區自立路58巷10號","121.523136666667","24.9913983333333","6500300","中和區"
"235065","098-UM","2018/02/27 19:19:47","新北市中和區中山路二段64巷8號","121.503683333333","25.00505","6500300","中和區"
"235040","150-BY","2018/02/27 19:19:51","新北市中和區保健路50巷52號","121.50948","24.9958866666667","6500300","中和區"
"235058","151-BY","2018/02/27 19:19:46","新北市中和區連城路477巷6弄17號","121.482415","24.9949","6500300","中和區"
"235055","183-VK","2018/02/27 19:19:40","新北市中和區德光路53號","121.47006","25.00405","6500300","中和區"
"235038","185-VK","2018/02/27 19:19:44","新北市中和區大仁街10巷51號","121.519885","24.9924266666667","6500300","中和區"
"235049","186-VK","2018/02/27 19:19:42","新北市中和區景新街246號","121.50935","24.9936383333333","6500300","中和區"
"235067","255-BX","2018/02/27 19:19:42","新北市中和區民樂路54號","121.483161666667","25.00124","6500300","中和區"
"235044","293-VK","2018/02/27 19:19:47","新北市中和區復興路306號","121.501291666667","24.990345","6500300","中和區"
"235072","301-VK","2018/02/27 19:19:40","新北市中和區連城路144巷4弄11號","121.49571","24.9988033333333","6500300","中和區"
"235043","352-BY","2018/02/27 19:19:37","新北市中和區景平路424號","121.50755","24.9933933333333","6500300","中和區"
"235068","377-QA","2018/02/27 19:19:40","新北市中和區連城路75巷8弄6號","121.497905","24.9984016666667","6500300","中和區"
"235061","378-QA","2018/02/27 19:19:34","新北市中和區民有街8號","121.47554","25.005685","6500300","中和區"
"235071","269-TV","2018/02/27 19:19:35","新北市中和區中正路643號","121.48523","24.9956966666667","6500300","中和區"
"235050","4979-A6","2018/02/27 19:19:45","新北市中和區景安路208巷18號","121.503163333333","24.991455","6500300","中和區"
"235069","4980-A6","2018/02/27 19:19:45","新北市中和區中山路二段136巷52號","121.501073333333","25.00447","6500300","中和區"
"235042","551-UM","2018/02/27 19:19:45","新北市永和區民有街61號","121.5176","24.9959383333333","6500300","中和區"
"235045","565-BX","2018/02/27 19:19:33","新北市中和區景新街423巷37號","121.514145","24.989725","6500300","中和區"
"235054","640-BX","2018/02/27 19:19:33","新北市中和區國光街95號","121.470216666667","25.0002","6500300","中和區"
"235060","647-TV","2018/02/27 19:19:31","新北市中和區民有街21號","121.475811666667","25.005245","6500300","中和區"
"235047","732-UM","2018/02/27 19:19:38","新北市中和區和平街54巷8弄1號","121.508996666667","24.9913616666667","6500300","中和區"
"235046","733-UM","2018/02/27 19:19:44","新北市中和區忠孝街2巷16號","121.5108","24.9813583333333","6500300","中和區"
"235057","801-TS","2018/02/27 19:19:48","新北市中和區員山路270號","121.481283333333","25.0019","6500300","中和區"
"235052","805-TS","2018/02/27 19:19:54","新北市中和區華新街133號","121.50673","24.9817683333333","6500300","中和區"
"235048","896-TW","2018/02/27 19:19:34","新北市中和區忠孝街106巷4號","121.512133333333","24.9843433333333","6500300","中和區"
"235053","900-TW","2018/02/27 19:19:52","新北市中和區華安街21巷2號","121.467405","24.9974483333333","6500300","中和區"
"235070","911-UM","2018/02/27 19:19:40","新北市中和區連城路51號","121.4979","25.0016233333333","6500300","中和區"
"235051","157-BY","2018/02/27 19:19:46","新北市中和區和平街26號","121.50975","24.9902516666667","6500300","中和區"
"235037","AAC-213","2018/02/27 19:19:48","新北市中和區秀朗路三段10巷37弄15號","121.524113333333","24.995615","6500300","中和區"
"235059","AAC-215","2018/02/27 19:19:50","新北市中和區圓通路286巷2號","121.491466666667","24.9910266666667","6500300","中和區"
"220068","013-TV","2018/02/27 19:19:47","新北市板橋區萬安街132號","121.483326666667","25.0259616666667","6500100","板橋區"
"220065","072-UY","2018/02/27 19:19:47","新北市板橋區民族路170巷3號","121.467425","25.0074666666667","6500100","板橋區"
"220086","073-UY","2018/02/27 19:19:46","新北市板橋區中正路216巷53號","121.45744","25.01891","6500100","板橋區"
"220069","AAD-861","2018/02/27 19:19:43","新北市板橋區貴興路3號","121.457786666667","25.0045366666667","6500100","板橋區"
"226004","205-ST","2018/02/27 19:19:37","新北市平溪區十分里十分街96-2號","121.776695","25.04261","6502400","平溪區"
"235041","251-BX","2018/02/27 19:19:42","新北市中和區景安路2號","121.507921666667","24.9991583333333","6500300","中和區"
"228001","212-TW","2018/02/27 19:19:42","新北市貢寮區真理里新港街10號","121.925535","25.0544066666667","6502600","貢寮區"
"228002","663-BX","2018/02/27 19:19:45","新北市貢寮區龍門里復興街14號","121.9266","25.026225","6502600","貢寮區"
"228003","828-UM","2018/02/27 19:19:45","新北市貢寮區和美里和美街22-1號","121.912783333333","25.082645","6502600","貢寮區"
"224010","AGQ-8101","2018/02/27 19:19:29","新北市瑞芳區基山街22號","121.845281666667","25.1087233333333","6501200","瑞芳區"
"224006","676-BX","2018/02/27 19:19:43","新北市瑞芳區中山路220-2號","121.800396666667","25.1069633333333","6501200","瑞芳區"
"224009","285-BY","2018/02/27 19:19:50","新北市瑞芳區海濱路3巷2-1號","121.847403333333","25.1268583333333","6501200","瑞芳區"
"224008","275-VK","2018/02/27 19:19:42","新北市瑞芳區中山路266號","121.799058333333","25.1081466666667","6501200","瑞芳區"
"224005","271-BY","2018/02/27 19:19:50","新北市瑞芳區蛇子形路6號","121.826003333333","25.1050533333333","6501200","瑞芳區"
"227003","642-TC","2018/02/27 19:19:41","新北市雙溪區平林里梅竹蹊66-1號","121.860165","25.0358266666667","6502500","雙溪區"
"227009","400-TW","2018/02/27 19:19:33","新北市雙溪區新基里新基北街40號","121.868555","25.0380666666667","6502500","雙溪區"
"253005","032-BX","2018/02/27 19:19:36","新北市石門區阿里荖33-1號","121.606861666667","25.2810983333333","6502200","石門區"
"253006","295-VK","2018/02/27 19:19:50","新北市石門區崁子腳27號","121.535755","25.2915316666667","6502200","石門區"
"222001","KEA-2212","2018/02/27 19:19:38","新北市深坑區北深路二段82號","121.617581666667","25.0035666666667","6501800","深坑區"
"208003","665-BX","2018/02/27 19:19:51","新北市金山區忠孝一路74號","121.637303333333","25.2206616666667","6502700","金山區"
"208001","761-BX","2018/02/27 19:19:39","新北市金山區民生路69號","121.640151666667","25.2197633333333","6502700","金山區"
"251001","011-UM","2018/02/27 19:19:49","新北市淡水區自強路201巷43號","121.462106666667","25.1268733333333","6501000","淡水區"
"251013","179-VK","2018/02/27 19:19:40","新北市淡水區安子內12號","121.481588333333","25.219115","6501000","淡水區"
"251014","180-VK","2018/02/27 19:19:37","新北市淡水區小中寮19-7號","121.484755","25.22967","6501000","淡水區"
"251015","182-VK","2018/02/27 19:19:40","新北市淡水區南勢埔6-3號","121.483068333333","25.1808366666667","6501000","淡水區"
"251010","413-VK","2018/02/27 19:19:37","新北市淡水區沙崙路27號","121.421518333333","25.1815333333333","6501000","淡水區"
"251012","441-VK","2018/02/27 19:19:34","新北市淡水區中山北路三段156號","121.445588333333","25.1958","6501000","淡水區"
"251016","442-VK","2018/02/27 19:19:39","新北市淡水區下圭柔山119-51號","121.450801666667","25.2084016666667","6501000","淡水區"
"251005","443-VK","2018/02/27 19:19:37","新北市淡水區水源街一段34巷1號","121.443355","25.1722516666667","6501000","淡水區"
"251006","561-UM","2018/02/27 19:19:34","新北市淡水區大信街33號","121.442058333333","25.1773666666667","6501000","淡水區"
"251009","575-R6","2018/02/27 19:19:55","新北市淡水區大忠街5巷1號","121.443138333333","25.1763883333333","6501000","淡水區"
"251007","577-R6","2018/02/27 19:19:39","新北市淡水區民生路117巷46號","121.464851666667","25.14006","6501000","淡水區"
"251003","673-BX","2018/02/27 19:19:44","新北市淡水區中山北路一段50號","121.441808333333","25.17558","6501000","淡水區"
"207004","225-TW","2018/02/27 19:19:49","新北市萬里區萬里里瑪鋉路12號","121.68766","25.1754316666667","6502800","萬里區"
"252002","178-VK","2018/02/27 19:19:33","新北市三芝區淡金路二段18-1號","121.50262","25.25959","6502100","三芝區"
"252001","292-VK","2018/02/27 19:19:38","新北市三芝區長勤街9巷11弄1號","121.501796666667","25.25477","6502100","三芝區"
"237004","KEA-2597","2018/02/27 19:19:43","新北市三峽區有木206號","121.439123333333","24.8515416666667","6500900","三峽區"
"237007","153-BY","2018/02/27 19:19:48","新北市三峽區二鬮路176號","121.359395","24.9069166666667","6500900","三峽區"
"237009","210-TH","2018/02/27 19:19:50","新北市三峽區民生街257號","121.370501666667","24.9348916666667","6500900","三峽區"
"237013","252-BX","2018/02/27 19:19:42","新北市三峽區大同路39巷20弄1號","121.376998333333","24.92781","6500900","三峽區"
"237012","275-BY","2018/02/27 19:19:37","新北市三峽區三樹路222巷236弄23號","121.39138","24.94306","6500900","三峽區"
"237008","302-VK","2018/02/27 19:19:37","新北市三峽區光明路106巷21號","121.375948333333","24.927145","6500900","三峽區"
"237014","433-BY","2018/02/27 19:19:35","新北市三峽區中山路63巷8號","121.366935","24.9343483333333","6500900","三峽區"
"237006","5529-G3","2018/02/27 19:19:49","新北市三峽區介壽路一段390號","121.383216666667","24.9307683333333","6500900","三峽區"
"237011","KEA-2596","2018/02/27 19:19:50","新北市三峽區中園街29號","121.368286666667","24.9266016666667","6500900","三峽區"
"237010","706-TV","2018/02/27 19:19:38","新北市三峽區復興路57號","121.373248333333","24.93712","6500900","三峽區"
"237005","AKY-6261","2018/02/27 19:19:36","新北市三峽區中山路459巷42號","121.356858333333","24.9371316666667","6500900","三峽區"
"236070","105-UM","2018/02/27 19:19:54","新北市土城區中華路一段5號","121.447063333333","24.989635","6501300","土城區"
"236079","166-UM","2018/02/27 19:19:43","新北市土城區中央路四段281-6號","121.41223","24.9535516666667","6501300","土城區"
"236026","269-VK","2018/02/27 19:19:48","新北市土城區中正路67巷27號","121.444343333333","24.9765733333333","6501300","土城區"
"236015","270-VK","2018/02/27 19:19:36","新北市土城區學府路一段23巷6號","121.45831","24.9876583333333","6501300","土城區"
"236023","401-BY","2018/02/27 19:19:49","新北市土城區峰廷街3號","121.46916","24.9874183333333","6501300","土城區"
"236049","752-BX","2018/02/27 19:19:32","新北市土城區明德路一段398-1號","121.453661666667","24.979085","6501300","土城區"
"236059","912-UM","2018/02/27 19:19:49","新北市土城區中央路三段67號","121.438761666667","24.9693783333333","6501300","土城區"
"238015","755-BX","2018/02/27 19:19:35","新北市樹林區備內街1巷25號","121.412811666667","24.9863383333333","6500700","樹林區"
"238023","601-UM","2018/02/27 19:19:32","新北市樹林區三興路77號","121.39271","25.0145183333333","6500700","樹林區"
"238019","599-UM","2018/02/27 19:19:35","新北市樹林區東榮街88巷8號","121.415815","24.9829616666667","6500700","樹林區"
"238018","571-TV","2018/02/27 19:19:06","新北市樹林區中華路162號","121.415741666667","24.98033","6500700","樹林區"
"238024","5061-A6","2018/02/27 19:19:51","新北市樹林區福德街47號","121.399535","24.9747916666667","6500700","樹林區"
"238022","KEA-2213","2018/02/27 19:19:38","新北市樹林區中山路二段151巷6弄1號","121.406533333333","24.9783783333333","6500700","樹林區"
"238026","KEA-2539","2018/02/27 19:19:37","新北市樹林區柑園街二段388巷8號","121.367311666667","24.9488083333333","6500700","樹林區"
"238025","303-VK","2018/02/27 19:19:53","新北市樹林區中山路二段222號","121.410998333333","24.9820466666667","6500700","樹林區"
"238017","283-BY","2018/02/27 19:19:48","新北市樹林區光興街153-6號","121.40831","25.0032083333333","6500700","樹林區"
"238014","282-BY","2018/02/27 19:19:43","新北市樹林區保安二街5號","121.425363333333","24.9938933333333","6500700","樹林區"
"238020","268-VK","2018/02/27 19:19:42","新北市樹林區俊英街135巷73弄8號","121.424336666667","25.0114466666667","6500700","樹林區"
"238026","172-UY","2018/02/27 19:19:36","新北市樹林區佳園路三段51號","121.387836666667","24.9533883333333","6500700","樹林區"
"238016","169-UY","2018/02/27 19:19:41","新北市樹林區復興路466號","121.413395","24.9836183333333","6500700","樹林區"
"239007","AAC-297","2018/02/27 19:19:52","新北市鶯歌區大湖路110號","121.342565","24.9634166666667","6500800","鶯歌區"
"239006","891-R6","2018/02/27 19:19:50","新北市鶯歌區文昌街27號","121.350391666667","24.9514283333333","6500800","鶯歌區"
"239008","527-UM","2018/02/27 19:19:51","新北市鶯歌區大湖路468巷8號","121.339725","24.972505","6500800","鶯歌區"
"239005","526-UM","2018/02/27 19:19:36","新北市鶯歌區中湖街315巷1號","121.346323333333","24.9781","6500800","鶯歌區"
"239001","417-VK","2018/02/27 19:19:45","新北市鶯歌區建國路401號","121.337941666667","24.9508983333333","6500800","鶯歌區"
"239003","360-BY","2018/02/27 19:19:43","新北市鶯歌區重慶街29號","121.351675","24.952245","6500800","鶯歌區"
"239004","193-VK","2018/02/27 19:19:47","新北市鶯歌區二甲路26-3號","121.33915","24.9353816666667","6500800","鶯歌區"
"221008","489-VK","2018/02/27 19:19:47","新北市汐止區康寧街308號","121.626581666667","25.0672383333333","6501100","汐止區"
"221036","130-UY","2018/02/27 19:19:34","新北市汐止區汐萬路一段256巷3號","121.653366666667","25.074725","6501100","汐止區"
"221015","131-UY","2018/02/27 19:19:37","新北市汐止區康寧街901號","121.651578333333","25.074975","6501100","汐止區"
"221010","269-BY","2018/02/27 19:19:52","新北市汐止區康寧街901號","121.651518333333","25.07498","6501100","汐止區"
"221012","278-VK","2018/02/27 19:19:46","新北市汐止區汐萬路一段282號","121.650801666667","25.0741533333333","6501100","汐止區"
"221023","279-VK","2018/02/27 19:19:31","新北市汐止區康寧街901號","121.651","25.0752416666667","6501100","汐止區"
"221027","281-BY","2018/02/27 19:19:39","新北市汐止區汐萬路一段312號","121.650376666667","25.0750533333333","6501100","汐止區"
"221038","297-VK","2018/02/27 19:19:39","新北市汐止區康寧街901號","121.650915","25.0752966666667","6501100","汐止區"
"221029","298-VK","2018/02/27 19:19:39","新北市汐止區康寧街901號","121.651585","25.0749583333333","6501100","汐止區"
"221031","353-TW","2018/02/27 19:19:46","新北市汐止區汐萬路一段312號","121.650681666667","25.0753133333333","6501100","汐止區"
"221025","623-UM","2018/02/27 19:19:39","新北市汐止區汐萬路一段310號","121.65034","25.0748116666667","6501100","汐止區"
"221033","647-BX","2018/02/27 19:19:42","新北市汐止區南勢街1巷1號","121.627085","25.0374716666667","6501100","汐止區"
"221002","707-TV","2018/02/27 19:19:40","新北市汐止區大同路一段336號","121.63791","25.0589666666667","6501100","汐止區"
"220079","145-BY","2018/02/27 19:19:43","新北市板橋區民權路202巷17弄4號","121.460566666667","25.016675","6500100","板橋區"
"220080","200-UY","2018/02/27 19:19:47","新北市板橋區大觀路二段19巷10號","121.447331666667","25.0031933333333","6500100","板橋區"
"220106","KEA-2550","2018/02/27 19:19:35","新北市板橋區宏國路113號","121.470375","25.0320266666667","6500100","板橋區"
"220082","610-BX","2018/02/27 19:19:44","新北市板橋區溪城路79號","121.426651666667","24.98367","6500100","板橋區"
"220101","245-BX","2018/02/27 19:19:31","新北市板橋區莒光路165巷34號","121.474426666667","25.0247733333333","6500100","板橋區"
"220046","255-TC","2018/02/27 19:19:49","新北市板橋區民生路二段120號","121.47055","25.0195216666667","6500100","板橋區"
"220096","257-TC","2018/02/27 19:19:44","新北市板橋區大同街26巷3號","121.478041666667","25.0271283333333","6500100","板橋區"
"220056","276-BY","2018/02/27 19:19:45","新北市板橋區干城路158-1號","121.460471666667","24.9922233333333","6500100","板橋區"
"220072","277-BY","2018/02/27 19:19:40","新北市板橋區金門街280巷6號","121.429206666667","24.986195","6500100","板橋區"
"220057","282-UM","2018/02/27 19:19:45","新北市中和區壽德街26號","121.466628333333","24.9944316666667","6500100","板橋區"
"220071","283-VK","2018/02/27 19:19:46","新北市板橋區大豐街103號","121.461371666667","25.001155","6500100","板橋區"
"220094","285-UM","2018/02/27 19:19:42","新北市板橋區吳鳳路82號","121.466985","25.0312916666667","6500100","板橋區"
"220053","285-VK","2018/02/27 19:19:47","新北市板橋區富山街34號","121.477975","25.021845","6500100","板橋區"
"220083","286-VK","2018/02/27 19:19:50","新北市板橋區龍興街95巷12號","121.443543333333","25.0026833333333","6500100","板橋區"
"220081","287-VK","2018/02/27 19:19:54","新北市板橋區南雅西路一段116號","121.452801666667","25.0065416666667","6500100","板橋區"
"220061","293-UM","2018/02/27 19:19:55","新北市板橋區中山路二段318巷20弄27號","121.481131666667","25.01932","6500100","板橋區"
"220084","296-UM","2018/02/27 19:19:48","新北市板橋區滿平街110巷8號","121.42804","24.9883283333333","6500100","板橋區"
"220075","303-R5","2018/02/27 19:19:49","新北市板橋區南雅西路二段301巷41弄31號","121.449843333333","25.0177366666667","6500100","板橋區"
"220062","305-R5","2018/02/27 19:19:49","新北市板橋區三民路二段153巷36弄2號","121.48127","25.014135","6500100","板橋區"
"220092","307-R5","2018/02/27 19:19:43","新北市板橋區光武街48巷9號","121.467371666667","25.0266616666667","6500100","板橋區"
"220098","317-R6","2018/02/27 19:19:46","新北市板橋區民有街87號","121.464788333333","25.0275616666667","6500100","板橋區"
"220064","486-VK","2018/02/27 19:19:52","新北市板橋區板新路96號","121.47229","25.0147116666667","6500100","板橋區"
"220089","487-VK","2018/02/27 19:19:39","新北市板橋區文化路一段407號","121.467386666667","25.0220816666667","6500100","板橋區"
"220088","491-VK","2018/02/27 19:19:39","新北市板橋區雙十路二段69號","121.476355","25.02677","6500100","板橋區"
"220035","560-BX","2018/02/27 19:19:48","新北市板橋區中正路433巷11號","121.453753333333","25.02354","6500100","板橋區"
"220103","561-BX","2018/02/27 19:19:48","新北市板橋區文化路一段188巷7弄28號","121.467918333333","25.0195716666667","6500100","板橋區"
"220063","609-BX","2018/02/27 19:19:37","新北市板橋區三民路二段25號","121.479556666667","25.0180833333333","6500100","板橋區"
"220091","637-BX","2018/02/27 19:19:41","新北市板橋區大同街52號","121.47878","25.0275033333333","6500100","板橋區"
"220077","687-BX","2018/02/27 19:19:38","新北市板橋區僑中二街12巷2號","121.446808333333","25.0106633333333","6500100","板橋區"
"220093","689-BX","2018/02/27 19:19:34","新北市板橋區文化路一段289號","121.464935","25.01863","6500100","板橋區"
"220054","741-BX","2018/02/27 19:19:42","新北市板橋區校前街36號","121.460745","25.0031233333333","6500100","板橋區"
"220102","KEA-2699","2018/02/27 19:19:44","新北市板橋區田單街25號","121.482211666667","25.029","6500100","板橋區"
"220055","827-TW","2018/02/27 19:19:54","新北市板橋區館前東路156巷17號","121.46429","25.0070216666667","6500100","板橋區"
"220067","829-TW","2018/02/27 19:19:44","新北市板橋區長安街178巷12號","121.474213333333","25.010985","6500100","板橋區"
"220090","830-TW","2018/02/27 19:19:43","新北市板橋區長江路一段106巷13弄36號","121.461463333333","25.0297183333333","6500100","板橋區"
"220074","895-R6","2018/02/27 19:19:37","新北市板橋區中正路1巷18-1號","121.455161666667","25.0116366666667","6500100","板橋區"
"220073","985-R7","2018/02/27 19:19:33","新北市板橋區新生街19號","121.45593","25.0212683333333","6500100","板橋區"
"220097","AAC-210","2018/02/27 19:19:32","新北市板橋區幸福路35號","121.461641666667","25.019935","6500100","板橋區"
"220070","AAC-253","2018/02/27 19:19:50","新北市板橋區忠孝路68號","121.461258333333","25.00197","6500100","板橋區"
