"lineid","car","time","location","longitude","latitude","cityid","cityname"
"234046","148-BY","2018/02/27 19:39:41","新北市永和區永元路100號","121.522585","25.0019583333333","6500400","永和區"
"234067","149-BY","2018/02/27 19:39:52","新北市永和區中山路一段191巷7弄4號","121.509593333333","25.0082833333333","6500400","永和區"
"234007","208-UY","2018/02/27 19:39:38","新北市中和區中和路456號","121.511981666667","25.003695","6500400","永和區"
"234081","298-R6","2018/02/27 19:39:42","新北市永和區林森路20巷7號","121.52583","25.0056583333333","6500400","永和區"
"234038","336-UY","2018/02/27 19:39:51","新北市永和區民樂街31巷3號","121.527896666667","25.0015516666667","6500400","永和區"
"234064","337-UY","2018/02/27 19:39:53","新北市永和區秀朗路一段192巷6弄12號","121.519033333333","25.0023216666667","6500400","永和區"
"234086","338-UY","2018/02/27 19:39:51","新北市永和區永亨路165巷1-6號","121.526045","25.0040733333333","6500400","永和區"
"234070","552-UM","2018/02/27 19:39:48","新北市永和區中興街73號","121.516998333333","25.0118083333333","6500400","永和區"
"234017","745-BX","2018/02/27 19:39:34","新北市永和區永和路二段425巷57弄1號","121.513658333333","25.0171966666667","6500400","永和區"
"234030","746-BX","2018/02/27 19:39:43","新北市永和區民生路37巷5號","121.52362","24.99817","6500400","永和區"
"234054","KEA-2590","2018/02/27 19:39:35","新北市永和區竹林路39巷21號","121.518886666667","25.01482","6500400","永和區"
"234013","KEA-2591","2018/02/27 19:39:43","新北市永和區永平路224號","121.50899","25.01057","6500400","永和區"
"234061","AAD-866","2018/02/27 19:39:53","新北市永和區中正路458號","121.517486666667","25.0029966666667","6500400","永和區"
"234042","862-TW","2018/02/27 19:39:35","新北市永和區中和路587號","121.512143333333","25.0039816666667","6500400","永和區"
"234050","863-TW","2018/02/27 19:39:40","新北市永和區保安路108號","121.50933","25.0158183333333","6500400","永和區"
"234026","9371-KE","2018/02/27 19:39:37","新北市永和區中和路499號","121.510551666667","25.0022983333333","6500400","永和區"
"249004","303-UY","2018/02/27 19:39:34","新北市八里區忠孝路462號","121.41481","25.1613466666667","6502300","八里區"
"249002","305-UY","2018/02/27 19:39:33","新北市八里區頂寮二街35號","121.45026","25.1251766666667","6502300","八里區"
"249003","593-UM","2018/02/27 19:39:38","新北市八里區華峰三街29號","121.399395","25.14593","6502300","八里區"
"248014","025-BX","2018/02/27 19:39:50","新北市五股區五福路43號","121.43326","25.0896566666667","6501500","五股區"
"248008","095-VK","2018/02/27 19:39:48","新北市五股區四維路118巷13號","121.469221666667","25.0742633333333","6501500","五股區"
"248020","225-UY","2018/02/27 19:39:44","新北市五股區中直路17-2號","121.422726666667","25.1122766666667","6501500","五股區"
"248012","247-BX","2018/02/27 19:39:48","新北市五股區成泰路二段97號","121.437946666667","25.0843016666667","6501500","五股區"
"248016","261-SL","2018/02/27 19:39:50","新北市五股區成泰路三段541號","121.451921666667","25.1016716666667","6501500","五股區"
"248010","272-BY","2018/02/27 19:39:37","新北市五股區自強路90巷4號","121.432075","25.0725983333333","6501500","五股區"
"248004","677-BX","2018/02/27 19:39:52","新北市五股區成泰路二段82號","121.437561666667","25.0822433333333","6501500","五股區"
"248002","678-BX","2018/02/27 19:39:45","新北市五股區成泰路三段577巷60號","121.450436666667","25.10333","6501500","五股區"
"234023","9380-KE","2018/02/27 19:39:32","新北市永和區保生路55-2號","121.504683333333","25.0117966666667","6500400","永和區"
"234077","969-R7","2018/02/27 19:39:41","新北市永和區民權路1巷8號","121.520771666667","24.9983283333333","6500400","永和區"
"234074","AAC-211","2018/02/27 19:39:32","新北市永和區福和路152號","121.52162","25.0078383333333","6500400","永和區"
"234003","AAC-295","2018/02/27 19:39:35","新北市永和區福和路353號","121.514696666667","25.0072633333333","6500400","永和區"
"243012","AAD-798","2018/02/27 19:39:39","新北市泰山區全興路243號","121.435823333333","25.0532266666667","6501600","泰山區"
"243011","297-R6","2018/02/27 19:39:35","新北市泰山區中山路二段676-5號","121.426743333333","25.03717","6501600","泰山區"
"243015","380-SR","2018/02/27 19:39:51","新北市泰山區民權街22號","121.428476666667","25.0507616666667","6501600","泰山區"
"243014","421-VK","2018/02/27 19:39:41","新北市泰山區仁愛路159號","121.435085","25.05638","6501600","泰山區"
"243010","KEA-2215","2018/02/27 19:39:46","新北市泰山區明志路二段50號","121.42937","25.0529116666667","6501600","泰山區"
"243009","KEA-2216","2018/02/27 19:39:36","新北市泰山區美寧街58號","121.430905","25.0647366666667","6501600","泰山區"
"243013","646-TV","2018/02/27 19:39:37","新北市泰山區應化街7號","121.423881666667","25.0437466666667","6501600","泰山區"
"243016","680-BX","2018/02/27 19:39:34","新北市新莊區新北大道七段36號","121.419596666667","25.0322833333333","6501600","泰山區"
"222002","016-RS","2018/02/27 19:39:34","新北市深坑區北深路一段210號","121.632586666667","25.0109133333333","6501800","深坑區"
"222003","436-BY","2018/02/27 19:30:15","新北市深坑區深南路51-1號","121.621208333333","25.0098716666667","6501800","深坑區"
"231041","002-UM","2018/02/27 19:39:40","新北市新店區中正路487號","121.533836666667","24.9820683333333","6500600","新店區"
"231059","046-UY","2018/02/27 19:39:46","新北市新店區安和路二段251號","121.516578333333","24.9777016666667","6500600","新店區"
"231061","047-UY","2018/02/27 19:39:49","新北市新店區安民街236號","121.51754","24.9727366666667","6500600","新店區"
"231051","107-UY","2018/02/27 19:39:47","新北市新店區中央四街30號","121.528605","24.9743533333333","6500600","新店區"
"231048","108-UY","2018/02/27 19:39:48","新北市新店區五峰路61巷13號","121.549443333333","24.9695216666667","6500600","新店區"
"231053","187-VK","2018/02/27 19:39:50","新北市新店區新烏路二段315號","121.549595","24.9112333333333","6500600","新店區"
"231050","KEA-2219","2018/02/27 19:38:37","新北市新店區郵政路4巷16號","121.55599","24.9518166666667","6500600","新店區"
"231057","256-BX","2018/02/27 19:39:37","新北市新店區橘園一路11號","121.547996666667","24.9340383333333","6500600","新店區"
"231046","278-BY","2018/02/27 19:39:35","新北市新店區中正路329巷9弄1號","121.53509","24.973875","6500600","新店區"
"231054","AAD-862","2018/02/27 19:39:53","新北市新店區文中路40號","121.539683333333","24.956455","6500600","新店區"
"231058","3712-VJ","2018/02/27 19:39:41","新北市新店區北新路一段98號","121.542146666667","24.9690283333333","6500600","新店區"
"231055","4716-K9","2018/02/27 19:39:42","新北市新店區溪園路365-8號","121.521431666667","24.9806216666667","6500600","新店區"
"231067","4772-VM","2018/02/27 19:39:41","新北市新店區精忠路10-1號","121.532671666667","24.9590983333333","6500600","新店區"
"231065","512-UM","2018/02/27 19:39:55","新北市新店區安祥路109巷35號","121.476481666667","24.9594533333333","6500600","新店區"
"231064","513-UM","2018/02/27 19:39:38","新北市新店區安和路一段52巷2號","121.517596666667","24.966165","6500600","新店區"
"231060","618-UM","2018/02/27 19:39:34","新北市新店區安康路二段159巷2號","121.510381666667","24.9593516666667","6500600","新店區"
"231040","619-UM","2018/02/27 19:39:33","新北市新店區中正路75巷71號","121.543113333333","24.9687583333333","6500600","新店區"
"231042","641-BX","2018/02/27 19:39:48","新北市新店區中興路一段216號","121.54387","24.9658833333333","6500600","新店區"
"231063","645-TV","2018/02/27 19:39:41","新北市新店區達觀路41號","121.502818333333","24.93822","6500600","新店區"
"231049","719-UM","2018/02/27 19:39:47","新北市新店區大豐路70號","121.539021666667","24.9794516666667","6500600","新店區"
"231062","720-UM","2018/02/27 19:39:39","新北市新店區永業路20-1號","121.533273333333","24.9558066666667","6500600","新店區"
"231044","897-TW","2018/02/27 19:39:47","新北市新店區北新路三段115號","121.54126","24.98239","6500600","新店區"
"231045","898-TW","2018/02/27 19:39:38","新北市新店區北宜路二段431-5號","121.56093","24.9543016666667","6500600","新店區"
"231043","899-TW","2018/02/27 19:39:36","新北市新店區中正路129號","121.541953333333","24.9713533333333","6500600","新店區"
"241011","013-R5","2018/02/27 19:39:53","新北市三重區秀江街184號","121.497856666667","25.0716566666667","6500200","三重區"
"241028","022-UY","2018/02/27 19:39:53","新北市三重區中正南路196號","121.493948333333","25.0560083333333","6500200","三重區"
"241008","059-VK","2018/02/27 19:39:33","新北市三重區永福街119號","121.479075","25.0770983333333","6500200","三重區"
"241009","060-VK","2018/02/27 19:39:48","新北市三重區三和路四段416號","121.480891666667","25.0798783333333","6500200","三重區"
"241031","061-VK","2018/02/27 19:39:39","新北市三重區重新路四段248號","121.486065","25.05353","6500200","三重區"
"241015","062-VK","2018/02/27 19:39:34","新北市三重區福德北路34號","121.502021666667","25.0651383333333","6500200","三重區"
"241017","063-VK","2018/02/27 19:39:50","新北市三重區大同北路223-1號","121.491321666667","25.06617","6500200","三重區"
"241026","066-VK","2018/02/27 19:39:42","新北市三重區文化南路65巷17號","121.499471666667","25.0608583333333","6500200","三重區"
"241003","156-TC","2018/02/27 19:39:49","新北市三重區仁義街238號","121.494281666667","25.0854916666667","6500200","三重區"
"241022","267-UM","2018/02/27 19:39:55","新北市三重區中正北路122號","121.485513333333","25.065285","6500200","三重區"
"241032","269-UM","2018/02/27 19:39:52","新北市三重區重陽路一段60巷53號","121.484806666667","25.0582033333333","6500200","三重區"
"241013","270-UM","2018/02/27 19:39:44","新北市三重區仁賢街10號","121.495855","25.0746983333333","6500200","三重區"
"241025","271-UM","2018/02/27 19:39:36","新北市三重區忠孝路三段99巷4號","121.480106666667","25.0641366666667","6500200","三重區"
"241007","398-BY","2018/02/27 19:39:39","新北市三重區三和路四段125巷32號","121.485958333333","25.0781683333333","6500200","三重區"
"241020","413-TH","2018/02/27 19:39:50","新北市三重區三和路四段25號","121.491023333333","25.0743433333333","6500200","三重區"
"241030","480-VK","2018/02/27 19:39:36","新北市三重區新興路7號","121.49277","25.0532866666667","6500200","三重區"
"241014","543-UM","2018/02/27 19:39:35","新北市三重區河邊北街92巷1號","121.504126666667","25.069515","6500200","三重區"
"241023","545-UM","2018/02/27 19:39:45","新北市三重區忠孝路三段99巷20號","121.479513333333","25.0642633333333","6500200","三重區"
"241001","547-UM","2018/02/27 19:39:39","新北市三重區仁愛街315巷37號","121.494078333333","25.0801133333333","6500200","三重區"
"241019","KEA-2593","2018/02/27 19:39:41","新北市三重區安慶街297巷3弄2號","121.488615","25.0681133333333","6500200","三重區"
"241006","887-TS","2018/02/27 19:39:49","新北市三重區聯華街103號","121.48533","25.0752433333333","6500200","三重區"
"241012","941-UM","2018/02/27 19:39:36","新北市三重區河邊北街256巷43號","121.500306666667","25.0758716666667","6500200","三重區"
"241029","942-UM","2018/02/27 19:39:45","新北市三重區重安街102號","121.493048333333","25.0559866666667","6500200","三重區"
"235066","003-UY","2018/02/27 19:39:51","新北市中和區安和路216-1號","121.506036666667","24.9991683333333","6500300","中和區"
"235064","005-UY","2018/02/27 19:39:46","新北市中和區南華路22號","121.503025","24.99581","6500300","中和區"
"235063","006-UY","2018/02/27 19:39:51","新北市中和區連城路203巷5號","121.494938333333","24.99755","6500300","中和區"
"235056","096-UM","2018/02/27 19:39:48","新北市中和區民富街37號","121.476318333333","25.00808","6500300","中和區"
"235039","097-UM","2018/02/27 19:39:49","新北市中和區秀峰街119巷8弄9號","121.519101666667","24.989905","6500300","中和區"
"235065","098-UM","2018/02/27 19:39:46","新北市中和區永和路9巷1號","121.499221666667","25.004025","6500300","中和區"
"235040","150-BY","2018/02/27 19:39:51","新北市中和區保健路44巷5號","121.509343333333","24.9969883333333","6500300","中和區"
"235058","151-BY","2018/02/27 19:39:49","新北市中和區員山路124巷2號","121.48156","24.9958833333333","6500300","中和區"
"235055","183-VK","2018/02/27 19:39:20","新北市中和區中山路三段181巷8號","121.472868333333","25.0057883333333","6500300","中和區"
"235038","185-VK","2018/02/27 19:39:44","新北市中和區自立路18號","121.522068333333","24.9934833333333","6500300","中和區"
"235049","186-VK","2018/02/27 19:39:41","新北市中和區景平路421號","121.501746666667","24.9952216666667","6500300","中和區"
"235067","255-BX","2018/02/27 19:39:42","新北市中和區新生街184號","121.483645","24.9997366666667","6500300","中和區"
"235044","293-VK","2018/02/27 19:39:47","新北市中和區興南路一段156號","121.50837","24.9867833333333","6500300","中和區"
"235072","301-VK","2018/02/27 19:39:40","新北市中和區錦和路93巷2弄1號","121.490333333333","24.99575","6500300","中和區"
"235043","352-BY","2018/02/27 19:39:37","新北市中和區興南路一段109號","121.509263333333","24.9881166666667","6500300","中和區"
"235068","377-QA","2018/02/27 19:39:40","新北市中和區泰和街12號","121.499906666667","25.00105","6500300","中和區"
"235061","378-QA","2018/02/27 19:38:54","新北市中和區民利街49巷4號","121.479488333333","24.9984216666667","6500300","中和區"
"235071","269-TV","2018/02/27 19:39:35","新北市中和區新生街114巷1號","121.483483333333","25.0024116666667","6500300","中和區"
"235050","4979-A6","2018/02/27 19:39:45","新北市中和區錦和路350-1號","121.490603333333","24.993605","6500300","中和區"
"235042","551-UM","2018/02/27 19:39:45","新北市中和區中和路262巷37號","121.50978","24.9995183333333","6500300","中和區"
"235045","565-BX","2018/02/27 19:39:33","新北市中和區景新街561號","121.515618333333","24.9863916666667","6500300","中和區"
"235054","640-BX","2018/02/27 19:39:33","新北市中和區國光街102巷2號","121.470318333333","25.0004516666667","6500300","中和區"
"235060","647-TV","2018/02/27 19:39:51","新北市中和區員山路314巷7弄6號","121.482195","25.0031583333333","6500300","中和區"
"235047","732-UM","2018/02/27 19:39:38","新北市中和區景安路172巷4號","121.504471666667","24.99299","6500300","中和區"
"235046","733-UM","2018/02/27 19:39:44","新北市中和區景新街496巷33弄3號","121.513635","24.9861333333333","6500300","中和區"
"235057","801-TS","2018/02/27 19:39:48","新北市中和區民樂路1號","121.481425","25.0012633333333","6500300","中和區"
"235052","805-TS","2018/02/27 19:39:34","新北市中和區華新街206巷20號","121.506238333333","24.982755","6500300","中和區"
"235048","896-TW","2018/02/27 19:39:34","新北市中和區忠孝街1巷2-1號","121.509128333333","24.9831066666667","6500300","中和區"
"235053","900-TW","2018/02/27 19:39:52","新北市中和區國光街184巷15號","121.467255","25.002115","6500300","中和區"
"235070","911-UM","2018/02/27 19:39:40","新北市中和區景平路583號","121.497688333333","25.0003333333333","6500300","中和區"
"235051","157-BY","2018/02/27 19:39:46","新北市中和區南山路273號","121.503978333333","24.9924816666667","6500300","中和區"
"235037","AAC-213","2018/02/27 19:39:48","新北市中和區秀朗路三段10巷29弄5號","121.525031666667","24.9960683333333","6500300","中和區"
"235059","AAC-215","2018/02/27 19:39:50","新北市中和區錦和路356號","121.490586666667","24.9915233333333","6500300","中和區"
"220068","013-TV","2018/02/27 19:39:47","新北市板橋區中山路二段553巷21號","121.483103333333","25.022715","6500100","板橋區"
"220065","072-UY","2018/02/27 19:39:47","新北市板橋區國泰街29號","121.468855","25.0067216666667","6500100","板橋區"
"220086","073-UY","2018/02/27 19:39:46","新北市板橋區國光路1號","121.456653333333","25.0173766666667","6500100","板橋區"
"220069","AAD-861","2018/02/27 19:39:39","新北市板橋區貴興路104號","121.45542","25.002565","6500100","板橋區"
"247004","336-TH","2018/02/27 19:39:52","新北市蘆洲區長安街98巷6號","121.462373333333","25.0813683333333","6501400","蘆洲區"
"247008","053-VK","2018/02/27 19:39:47","新北市蘆洲區中山一路122巷1號","121.476818333333","25.081615","6501400","蘆洲區"
"226004","205-ST","2018/02/27 19:39:37","新北市平溪區十分里十分街129號","121.776926666667","25.043155","6502400","平溪區"
"235041","251-BX","2018/02/27 19:39:42","新北市中和區永貞路249巷12號","121.512525","25.0036516666667","6500300","中和區"
"228001","212-TW","2018/02/27 19:39:42","新北市貢寮區真理里延平街22-9號","121.924685","25.0559233333333","6502600","貢寮區"
"228003","828-UM","2018/02/27 19:39:45","新北市貢寮區真理里美艷山街15-3號","121.923728333333","25.0680033333333","6502600","貢寮區"
"224010","AGQ-8101","2018/02/27 19:39:49","新北市瑞芳區基山街216號","121.841815","25.1070383333333","6501200","瑞芳區"
"224002","639-TC","2018/02/27 19:39:44","新北市瑞芳區民享新村2號","121.817443333333","25.1055583333333","6501200","瑞芳區"
"224009","285-BY","2018/02/27 19:39:44","新北市瑞芳區八分寮路12號","121.795853333333","25.0900566666667","6501200","瑞芳區"
"227003","642-TC","2018/02/27 19:39:41","新北市雙溪區雙溪里太平路50號","121.864525","25.0352816666667","6502500","雙溪區"
"227009","400-TW","2018/02/27 19:39:37","新北市雙溪區新基里新基北街19巷14號","121.867158333333","25.03821","6502500","雙溪區"
"222001","KEA-2212","2018/02/27 19:39:38","新北市深坑區北深路二段204號","121.612885","25.0014883333333","6501800","深坑區"
"208003","665-BX","2018/02/27 19:39:51","新北市金山區仁愛路1巷1號","121.63864","25.220065","6502700","金山區"
"208001","761-BX","2018/02/27 19:39:39","新北市金山區六股里頂六股13號","121.612263333333","25.2224333333333","6502700","金山區"
"251004","009-UM","2018/02/27 19:39:48","新北市淡水區民權路41號","121.459623333333","25.1402433333333","6501000","淡水區"
"251001","011-UM","2018/02/27 19:39:49","新北市淡水區民權路49號","121.459743333333","25.13942","6501000","淡水區"
"251013","179-VK","2018/02/27 19:39:40","新北市淡水區頂田寮路143號","121.461215","25.217065","6501000","淡水區"
"251014","180-VK","2018/02/27 19:39:37","新北市淡水區桂竹圍4-1號","121.474595","25.23203","6501000","淡水區"
"251008","181-VK","2018/02/27 19:39:34","新北市淡水區中正路32巷1號","121.430983333333","25.1753883333333","6501000","淡水區"
"251015","182-VK","2018/02/27 19:39:40","新北市淡水區大埤頭1-3號","121.492386666667","25.1950716666667","6501000","淡水區"
"251010","413-VK","2018/02/27 19:39:37","新北市淡水區崁頂92號","121.429385","25.20205","6501000","淡水區"
"251012","441-VK","2018/02/27 19:39:34","新北市淡水區中山北路三段156號","121.44561","25.1955816666667","6501000","淡水區"
"251016","442-VK","2018/02/27 19:39:39","新北市淡水區淡金路三段350巷18號","121.450806666667","25.20839","6501000","淡水區"
"251005","443-VK","2018/02/27 19:39:37","新北市淡水區原德路108巷1號","121.443438333333","25.1736","6501000","淡水區"
"251006","561-UM","2018/02/27 19:39:54","新北市淡水區中山北路一段209號","121.444243333333","25.1790216666667","6501000","淡水區"
"251009","575-R6","2018/02/27 19:39:35","新北市淡水區中山北路一段198巷3號","121.44505","25.1793983333333","6501000","淡水區"
"251007","577-R6","2018/02/27 19:39:39","新北市淡水區中正東路一段111巷25-1號","121.455405","25.160835","6501000","淡水區"
"251011","650-BX","2018/02/27 19:39:39","新北市淡水區中正東路二段5巷38號","121.460621666667","25.1581333333333","6501000","淡水區"
"251002","672-BX","2018/02/27 19:39:45","新北市淡水區下圭柔山91-4號","121.428998333333","25.2078616666667","6501000","淡水區"
"207004","225-TW","2018/02/27 19:39:49","新北市萬里區萬里里瑪鋉路5號","121.686705","25.1752466666667","6502800","萬里區"
"252002","178-VK","2018/02/27 19:39:33","新北市三芝區利民街37號","121.503771666667","25.25946","6502100","三芝區"
"252001","292-VK","2018/02/27 19:39:38","新北市三芝區長安街89號","121.4997","25.2574816666667","6502100","三芝區"
"237004","KEA-2597","2018/02/27 19:39:43","新北市三峽區插角42號","121.405055","24.8720883333333","6500900","三峽區"
"237007","153-BY","2018/02/27 19:39:48","新北市三峽區二鬮路136巷24弄49號","121.357006666667","24.9104083333333","6500900","三峽區"
"237009","210-TH","2018/02/27 19:39:50","新北市三峽區中園街41號","121.368301666667","24.9263016666667","6500900","三峽區"
"237013","252-BX","2018/02/27 19:39:42","新北市三峽區介壽路二段104號","121.392958333333","24.9356066666667","6500900","三峽區"
"237012","275-BY","2018/02/27 19:39:37","新北市三峽區民生街3號","121.374615","24.9354583333333","6500900","三峽區"
"237008","302-VK","2018/02/27 19:39:37","新北市三峽區永安街133號","121.373771666667","24.92839","6500900","三峽區"
"237014","433-BY","2018/02/27 19:39:35","新北市三峽區添福14-30號","121.374155","24.9003716666667","6500900","三峽區"
"237006","5529-G3","2018/02/27 19:39:49","新北市三峽區中正路一段336巷15弄2號","121.369953333333","24.9249783333333","6500900","三峽區"
"237005","AKY-6261","2018/02/27 19:39:36","新北市三峽區中山路166號","121.364553333333","24.9365566666667","6500900","三峽區"
"236070","105-UM","2018/02/27 19:39:54","新北市土城區學士路23號","121.45326","24.9825216666667","6501300","土城區"
"236043","107-UM","2018/02/27 19:39:42","新北市土城區學士路12巷2號","121.453681666667","24.9830416666667","6501300","土城區"
"236079","166-UM","2018/02/27 19:39:43","新北市土城區中央路四段274號","121.414591666667","24.956545","6501300","土城區"
"236031","253-BX","2018/02/27 19:39:37","新北市土城區福祥街74號","121.441741666667","24.9818766666667","6501300","土城區"
"236026","269-VK","2018/02/27 19:39:48","新北市土城區中央路二段61巷26號","121.443336666667","24.9787316666667","6501300","土城區"
"236038","271-VK","2018/02/27 19:39:52","新北市土城區青雲路257巷8號","121.459598333333","24.980825","6501300","土城區"
"236023","401-BY","2018/02/27 19:39:49","新北市土城區金城路三段200-9號","121.46918","24.9875233333333","6501300","土城區"
"236049","752-BX","2018/02/27 19:39:52","新北市土城區延吉街329-1號","121.465493333333","24.98408","6501300","土城區"
"236063","915-UM","2018/02/27 19:39:35","新北市土城區延平街67號","121.46777","24.9928083333333","6501300","土城區"
"236055","AAC-216","2018/02/27 19:39:46","新北市土城區學府路一段83號","121.456586666667","24.9881516666667","6501300","土城區"
"242044","497-BY","2018/02/27 19:39:33","新北市新莊區龍安路10號","121.414333333333","25.0227783333333","6500500","新莊區"
"242005","413-TV","2018/02/27 19:39:51","新北市新莊區化成路29巷44號","121.46339","25.0439766666667","6500500","新莊區"
"242037","133-UY","2018/02/27 19:39:38","新北市新莊區民安路207巷19號","121.426951666667","25.023155","6500500","新莊區"
"242009","173-VK","2018/02/27 19:39:49","新北市新莊區三和路12-21號","121.44207","25.0387633333333","6500500","新莊區"
"242013","346-TH","2018/02/27 19:39:50","新北市新莊區中泰街62巷9弄7號","121.44979","25.0469716666667","6500500","新莊區"
"242019","348-TH","2018/02/27 19:39:45","新北市新莊區三和路12-9號","121.442251666667","25.03666","6500500","新莊區"
"238015","755-BX","2018/02/27 19:39:54","新北市樹林區日新街83號","121.421718333333","24.990445","6500700","樹林區"
"238023","601-UM","2018/02/27 19:39:32","新北市樹林區三福街87號","121.406943333333","25.016385","6500700","樹林區"
"238018","571-TV","2018/02/27 19:39:46","新北市樹林區八德街1004號","121.391548333333","24.9685816666667","6500700","樹林區"
"238024","5061-A6","2018/02/27 19:39:51","新北市樹林區中山路三段210-2號","121.381201666667","24.9658216666667","6500700","樹林區"
"238022","KEA-2213","2018/02/27 19:39:40","新北市樹林區名園街78巷4號","121.419961666667","24.9777333333333","6500700","樹林區"
"238026","KEA-2539","2018/02/27 19:39:37","新北市樹林區學勤路504號","121.382235","24.9477633333333","6500700","樹林區"
"238025","303-VK","2018/02/27 19:39:53","新北市樹林區中山路一段189號","121.421371666667","24.987795","6500700","樹林區"
"238017","283-BY","2018/02/27 19:39:48","新北市樹林區保安街二段59號","121.416068333333","25.0004166666667","6500700","樹林區"
"238014","282-BY","2018/02/27 19:39:43","新北市樹林區千歲街30巷30弄2號","121.425806666667","24.996395","6500700","樹林區"
"238020","268-VK","2018/02/27 19:39:22","新北市樹林區俊保路60號","121.425061666667","25.0096083333333","6500700","樹林區"
"239006","891-R6","2018/02/27 19:39:50","新北市鶯歌區中正一路478號","121.365801666667","24.9566983333333","6500800","鶯歌區"
"239005","526-UM","2018/02/27 19:39:36","新北市樹林區中山路三段210-2號","121.380651666667","24.9668233333333","6500800","鶯歌區"
"221008","489-VK","2018/02/27 19:39:47","新北市汐止區康寧街61巷22弄3號","121.61951","25.067105","6501100","汐止區"
"221036","130-UY","2018/02/27 19:39:34","新北市汐止區康寧街901號","121.651656666667","25.0748966666667","6501100","汐止區"
"221015","131-UY","2018/02/27 19:39:17","新北市汐止區康寧街901號","121.651633333333","25.0750783333333","6501100","汐止區"
"221010","269-BY","2018/02/27 19:39:52","新北市汐止區汐萬路一段351號","121.650123333333","25.07722","6501100","汐止區"
"221012","278-VK","2018/02/27 19:39:46","新北市汐止區大同路三段380號","121.681341666667","25.07151","6501100","汐止區"
"221023","279-VK","2018/02/27 19:39:51","新北市汐止區民族六街21-2號","121.630105","25.06902","6501100","汐止區"
"221032","280-BY","2018/02/27 19:39:37","新北市汐止區新台五路一段131號","121.652198333333","25.0620766666667","6501100","汐止區"
"221027","281-BY","2018/02/27 19:39:39","新北市汐止區忠孝東路9號","121.658361666667","25.0659933333333","6501100","汐止區"
"221038","297-VK","2018/02/27 19:39:39","新北市汐止區忠孝東路245號","121.662853333333","25.0674383333333","6501100","汐止區"
"221029","298-VK","2018/02/27 19:39:39","新北市汐止區康寧街901號","121.65148","25.074995","6501100","汐止區"
"221021","299-VK","2018/02/27 19:39:51","新北市汐止區南興路27號","121.652306666667","25.0609066666667","6501100","汐止區"
"221031","353-TW","2018/02/27 19:39:46","新北市汐止區康寧街901號","121.650738333333","25.0753016666667","6501100","汐止區"
"221025","623-UM","2018/02/27 19:39:39","新北市汐止區福安街20巷1號","121.662585","25.0649916666667","6501100","汐止區"
"221033","647-BX","2018/02/27 19:39:51","台北市南港區舊莊街二段9號","121.624981666667","25.03762","6501100","汐止區"
"221002","707-TV","2018/02/27 19:39:40","新北市汐止區大同路一段219巷26號","121.633205","25.0584616666667","6501100","汐止區"
"220079","145-BY","2018/02/27 19:39:46","新北市板橋區復興街93號","121.459576666667","25.017755","6500100","板橋區"
"220080","200-UY","2018/02/27 19:39:47","新北市板橋區大觀路二段37巷276號","121.449843333333","25.00106","6500100","板橋區"
"220106","KEA-2550","2018/02/27 19:39:35","新北市板橋區文化路二段426號","121.474165","25.03196","6500100","板橋區"
"220082","610-BX","2018/02/27 19:39:44","新北市板橋區大觀路三段160巷36號","121.429966666667","24.9940833333333","6500100","板橋區"
"220101","245-BX","2018/02/27 19:39:51","新北市板橋區八德路三段33巷17-1號","121.47386","25.0213066666667","6500100","板橋區"
"220046","255-TC","2018/02/27 19:39:49","新北市板橋區民生路二段120號","121.471043333333","25.0196366666667","6500100","板橋區"
"220096","257-TC","2018/02/27 19:39:44","新北市板橋區民生路二段234巷26弄9號","121.47046","25.02212","6500100","板橋區"
"220056","276-BY","2018/02/27 19:39:45","新北市板橋區四川路二段47巷3弄4號","121.454298333333","24.994635","6500100","板橋區"
"220072","277-BY","2018/02/27 19:39:40","新北市板橋區金門街253巷16弄11號","121.432713333333","24.9878983333333","6500100","板橋區"
"220057","282-UM","2018/02/27 19:39:45","新北市板橋區和平路安樂巷15號","121.461395","24.994045","6500100","板橋區"
"220071","283-VK","2018/02/27 19:39:46","新北市板橋區四川路二段1-15號","121.456905","24.996505","6500100","板橋區"
"220094","285-UM","2018/02/27 19:39:42","新北市板橋區宏國路77巷2弄5號","121.469491666667","25.0325466666667","6500100","板橋區"
"220053","285-VK","2018/02/27 19:39:41","新北市板橋區中山路二段148巷30號","121.477205","25.0160933333333","6500100","板橋區"
"220083","286-VK","2018/02/27 19:39:35","新北市板橋區龍興街65巷77號","121.441771666667","25.002115","6500100","板橋區"
"220081","287-VK","2018/02/27 19:39:33","新北市板橋區大觀路一段75巷1號","121.447323333333","25.0045283333333","6500100","板橋區"
"220061","293-UM","2018/02/27 19:39:35","新北市板橋區中山路一段265巷16號","121.468636666667","25.014665","6500100","板橋區"
"220084","296-UM","2018/02/27 19:39:48","新北市板橋區滿平二街2巷1弄24號","121.424856666667","24.9869383333333","6500100","板橋區"
"242032","281-VK","2018/02/27 19:39:42","新北市新莊區新泰路213巷66號","121.444441666667","25.0384116666667","6500500","新莊區"
"220075","303-R5","2018/02/27 19:39:49","新北市板橋區大勇街8巷1號","121.453958333333","25.01709","6500100","板橋區"
"220062","305-R5","2018/02/27 19:39:49","新北市板橋區三民路二段81巷23號","121.480388333333","25.0167333333333","6500100","板橋區"
"220092","307-R5","2018/02/27 19:39:42","新北市板橋區民生路二段250號","121.46838","25.0234333333333","6500100","板橋區"
"220098","317-R6","2018/02/27 19:39:46","新北市板橋區四維路269巷43號","121.461418333333","25.0274733333333","6500100","板橋區"
"220064","486-VK","2018/02/27 19:39:12","新北市板橋區中山路一段50巷1弄14號","121.461475","25.0095533333333","6500100","板橋區"
"220089","487-VK","2018/02/27 19:39:39","新北市板橋區英士路199號","121.458673333333","25.02338","6500100","板橋區"
"242056","280-VK","2018/02/27 19:39:31","新北市新莊區瓊林路48-1號","121.446561666667","25.02896","6500500","新莊區"
"220088","491-VK","2018/02/27 19:39:32","新北市板橋區民治街25號","121.478116666667","25.0343516666667","6500100","板橋區"
"220035","560-BX","2018/02/27 19:39:48","新北市板橋區新生街89巷2號","121.458325","25.0220916666667","6500100","板橋區"
"220103","561-BX","2018/02/27 19:39:40","新北市板橋區文化路一段288號","121.467391666667","25.02144","6500100","板橋區"
"220063","609-BX","2018/02/27 19:39:37","新北市板橋區萬安街27巷22號","121.483913333333","25.0228533333333","6500100","板橋區"
"220091","637-BX","2018/02/27 19:39:43","新北市板橋區懷德街139巷3號","121.479438333333","25.03056","6500100","板橋區"
"220077","687-BX","2018/02/27 19:39:37","新北市板橋區僑中一街70號","121.447498333333","25.0114466666667","6500100","板橋區"
"220093","689-BX","2018/02/27 19:39:43","新北市板橋區長江路一段141號","121.460756666667","25.03023","6500100","板橋區"
"220054","741-BX","2018/02/27 19:35:18","新北市板橋區忠孝路241號","121.46639","25.0029333333333","6500100","板橋區"
"220102","KEA-2699","2018/02/27 19:39:44","新北市板橋區文化路二段410巷40號","121.474653333333","25.0305216666667","6500100","板橋區"
"220055","827-TW","2018/02/27 19:39:40","新北市板橋區國慶路149巷12號","121.461213333333","24.99714","6500100","板橋區"
"220067","829-TW","2018/02/27 19:39:44","新北市板橋區漢生東路279巷8號","121.471885","25.0091866666667","6500100","板橋區"
"220090","830-TW","2018/02/27 19:39:43","新北市板橋區長江路一段48巷1弄5號","121.459103333333","25.0289783333333","6500100","板橋區"
"220074","895-R6","2018/02/27 19:39:37","新北市板橋區福德街9號","121.456181666667","25.0092666666667","6500100","板橋區"
"220073","985-R7","2018/02/27 19:39:33","新北市板橋區國光路49巷17號","121.4589","25.01878","6500100","板橋區"
"220097","AAC-210","2018/02/27 19:39:52","新北市板橋區幸福路32巷3號","121.461541666667","25.0205683333333","6500100","板橋區"
"220070","AAC-253","2018/02/27 19:39:52","新北市板橋區民族路243號","121.470095","25.0070616666667","6500100","板橋區"
