"lineid","car","time","location","longitude","latitude","cityid","cityname"
"234046","148-BY","2018/02/27 20:19:41","新北市永和區永元路120號","121.522758333333","25.00273","6500400","永和區"
"234067","149-BY","2018/02/27 20:19:51","新北市永和區保平路236巷1弄16號","121.50847","25.0055266666667","6500400","永和區"
"234007","208-UY","2018/02/27 20:19:34","新北市永和區保順路37巷14號","121.50296","25.0104083333333","6500400","永和區"
"234081","298-R6","2018/02/27 20:19:42","新北市永和區國中路146號","121.523096666667","25.0069933333333","6500400","永和區"
"234038","336-UY","2018/02/27 20:19:51","新北市永和區成功路一段93巷21弄2號","121.528326666667","25.0026733333333","6500400","永和區"
"234064","337-UY","2018/02/27 20:19:51","新北市永和區中正路342號","121.517693333333","25.0002316666667","6500400","永和區"
"234086","338-UY","2018/02/27 20:19:51","新北市永和區永和路二段215號","121.515506666667","25.0139416666667","6500400","永和區"
"234070","552-UM","2018/02/27 20:19:48","新北市永和區永安街9號","121.518918333333","25.0061683333333","6500400","永和區"
"234017","745-BX","2018/02/27 20:19:35","新北市永和區仁愛路38號","121.514225","25.0134683333333","6500400","永和區"
"234030","746-BX","2018/02/27 20:19:43","新北市永和區民有街75巷10弄33號","121.519225","24.9960733333333","6500400","永和區"
"234054","KEA-2590","2018/02/27 20:19:54","新北市永和區光復街6號","121.516366666667","25.0168016666667","6500400","永和區"
"234013","KEA-2591","2018/02/27 20:19:23","新北市永和區仁愛路278號","121.503713333333","25.0083366666667","6500400","永和區"
"234061","AAD-866","2018/02/27 20:19:53","新北市永和區安樂路146-1號","121.51422","25.0004383333333","6500400","永和區"
"234042","862-TW","2018/02/27 20:19:39","新北市永和區中和路453號","121.510001666667","25.0015483333333","6500400","永和區"
"234050","863-TW","2018/02/27 20:19:40","新北市永和區新生路2-2號","121.509263333333","25.016765","6500400","永和區"
"249005","172-UM","2018/02/27 20:19:45","新北市八里區下罟子5-11號","121.387163333333","25.1423483333333","6502300","八里區"
"249001","173-UM","2018/02/27 20:19:43","新北市八里區中華路二段538號","121.399055","25.1450933333333","6502300","八里區"
"249004","303-UY","2018/02/27 20:19:37","新北市八里區中山路一段326號","121.412853333333","25.1590983333333","6502300","八里區"
"249002","305-UY","2018/02/27 20:19:54","新北市八里區龍米路一段100巷17號","121.45367","25.1250533333333","6502300","八里區"
"249003","593-UM","2018/02/27 20:19:38","新北市八里區華峰一街73號","121.398123333333","25.1459766666667","6502300","八里區"
"248012","247-BX","2018/02/27 20:19:48","新北市五股區民義路一段212號","121.430525","25.0894283333333","6501500","五股區"
"248016","261-SL","2018/02/27 20:19:39","新北市五股區天乙路34號","121.448443333333","25.1034533333333","6501500","五股區"
"248010","272-BY","2018/02/27 20:19:38","新北市五股區新五路二段2巷30號","121.439096666667","25.0672933333333","6501500","五股區"
"248004","677-BX","2018/02/27 20:19:52","新北市五股區成泰路二段106號","121.437658333333","25.0829666666667","6501500","五股區"
"248002","678-BX","2018/02/27 20:19:45","新北市五股區成泰路三段111號","121.444195","25.0904866666667","6501500","五股區"
"234023","9380-KE","2018/02/27 20:19:52","新北市永和區復興街41巷5號","121.516481666667","25.0134083333333","6500400","永和區"
"234077","969-R7","2018/02/27 20:19:41","新北市中和區安樂路63號","121.512268333333","24.993755","6500400","永和區"
"234074","AAC-211","2018/02/27 20:19:52","新北市永和區豫溪街156號","121.522936666667","25.0097616666667","6500400","永和區"
"234003","AAC-295","2018/02/27 20:19:50","新北市永和區自強街37號","121.515915","25.0079716666667","6500400","永和區"
"243012","AAD-798","2018/02/27 20:19:39","新北市泰山區楓江路162號","121.440768333333","25.0656866666667","6501600","泰山區"
"243011","297-R6","2018/02/27 20:19:35","新北市泰山區德安街26-1號","121.418471666667","25.0313233333333","6501600","泰山區"
"243015","380-SR","2018/02/27 20:19:44","新北市泰山區仁德路10號","121.434685","25.0571233333333","6501600","泰山區"
"243014","421-VK","2018/02/27 20:19:41","新北市泰山區泰林路二段371號","121.427753333333","25.0641183333333","6501600","泰山區"
"243010","KEA-2215","2018/02/27 20:19:46","新北市泰山區中華街7號","121.427891666667","25.052475","6501600","泰山區"
"243009","KEA-2216","2018/02/27 20:19:36","新北市泰山區泰林路二段262號","121.43164","25.0623533333333","6501600","泰山區"
"243013","646-TV","2018/02/27 20:19:51","新北市泰山區中央路5巷17弄14號","121.4273","25.0438083333333","6501600","泰山區"
"243016","680-BX","2018/02/27 20:19:54","新北市泰山區明志路三段155號","121.424835","25.0397633333333","6501600","泰山區"
"222002","016-RS","2018/02/27 20:19:34","新北市深坑區萬福路75巷21號","121.599256666667","25.0096816666667","6501800","深坑區"
"222003","436-BY","2018/02/27 20:19:43","新北市深坑區文化街43號","121.617543333333","25.0018483333333","6501800","深坑區"
"231041","002-UM","2018/02/27 20:19:40","新北市新店區民權路44號","121.54019","24.9829766666667","6500600","新店區"
"231059","046-UY","2018/02/27 20:19:46","新北市新店區安德街151號","121.508338333333","24.95979","6500600","新店區"
"231061","047-UY","2018/02/27 20:19:49","新北市新店區安興路141號","121.516678333333","24.9793483333333","6500600","新店區"
"231051","107-UY","2018/02/27 20:19:47","新北市新店區中央六街43號","121.528528333333","24.9755783333333","6500600","新店區"
"231048","108-UY","2018/02/27 20:19:48","新北市新店區中興路三段220巷1號","121.543578333333","24.9827116666667","6500600","新店區"
"231053","187-VK","2018/02/27 20:19:50","新北市新店區新烏路二段300號","121.547763333333","24.9125916666667","6500600","新店區"
"231050","KEA-2219","2018/02/27 20:19:39","新北市新店區博愛街9巷2號","121.540793333333","24.97294","6500600","新店區"
"231057","256-BX","2018/02/27 20:19:37","新北市新店區花園五路二段27號","121.554738333333","24.9347783333333","6500600","新店區"
"231054","AAD-862","2018/02/27 20:19:53","新北市新店區檳榔路105號","121.544645","24.9616616666667","6500600","新店區"
"231058","3712-VJ","2018/02/27 20:19:41","新北市新店區中正路358號","121.535611666667","24.9757966666667","6500600","新店區"
"231056","3713-VJ","2018/02/27 20:19:37","新北市新店區中正路328巷18號","121.537491666667","24.9756783333333","6500600","新店區"
"231055","4716-K9","2018/02/27 20:19:42","新北市新店區北新路一段303號","121.541266666667","24.9675383333333","6500600","新店區"
"231067","4772-VM","2018/02/27 20:19:41","新北市新店區安康路一段32號","121.531755","24.96115","6500600","新店區"
"231065","512-UM","2018/02/27 20:19:55","新北市新店區安祥路104-10號","121.479075","24.9620583333333","6500600","新店區"
"231064","513-UM","2018/02/27 20:19:38","新北市新店區安利街26號","121.519241666667","24.9745866666667","6500600","新店區"
"231060","618-UM","2018/02/27 20:19:34","新北市新店區錦秀路11巷8號","121.480641666667","24.944535","6500600","新店區"
"231040","619-UM","2018/02/27 20:19:36","新北市新店區中正路211號","121.539895","24.9726333333333","6500600","新店區"
"231042","641-BX","2018/02/27 20:19:48","新北市新店區寶橋路192號","121.550618333333","24.9783566666667","6500600","新店區"
"231063","645-TV","2018/02/27 20:19:41","新北市新店區薏仁坑路自強巷6號","121.496676666667","24.9584866666667","6500600","新店區"
"231068","718-UY","2018/02/27 20:19:47","新北市新店區寶安街30號","121.542055","24.98237","6500600","新店區"
"231049","719-UM","2018/02/27 20:19:47","新北市新店區安康路一段24巷2號","121.532971666667","24.9604616666667","6500600","新店區"
"231062","720-UM","2018/02/27 20:19:39","新北市新店區安泰路7巷16號","121.485691666667","24.9509866666667","6500600","新店區"
"231044","897-TW","2018/02/27 20:19:47","新北市新店區北新路三段126號","121.541638333333","24.9817283333333","6500600","新店區"
"231045","898-TW","2018/02/27 20:19:38","新北市新店區新坡一街72號","121.548945","24.9645683333333","6500600","新店區"
"231043","899-TW","2018/02/27 20:19:36","新北市新店區建國路133號","121.539313333333","24.9782466666667","6500600","新店區"
"231066","AKT-0513","2018/02/27 20:19:32","新北市新店區安興路105-1號","121.514631666667","24.9777133333333","6500600","新店區"
"241011","013-R5","2018/02/27 20:19:45","新北市三重區龍門路181號","121.499355","25.0732583333333","6500200","三重區"
"241028","022-UY","2018/02/27 20:19:53","新北市三重區大同南路90號","121.496195","25.0590733333333","6500200","三重區"
"241008","059-VK","2018/02/27 20:19:33","新北市三重區永福街156號","121.480393333333","25.0744766666667","6500200","三重區"
"241009","060-VK","2018/02/27 20:19:48","新北市三重區三和路四段382巷41號","121.481388333333","25.0786016666667","6500200","三重區"
"241031","061-VK","2018/02/27 20:19:39","新北市三重區三寧街15號","121.489478333333","25.05982","6500200","三重區"
"241015","062-VK","2018/02/27 20:19:55","新北市三重區重新路一段130號","121.50005","25.0629883333333","6500200","三重區"
"241017","063-VK","2018/02/27 20:19:50","新北市三重區自強路一段179號","121.49235","25.0677983333333","6500200","三重區"
"241026","066-VK","2018/02/27 20:19:45","新北市三重區和平街44號","121.502361666667","25.0627233333333","6500200","三重區"
"241002","090-VK","2018/02/27 20:19:52","新北市三重區五華街25號","121.4947","25.0806583333333","6500200","三重區"
"241003","156-TC","2018/02/27 20:19:53","新北市三重區富華街128號","121.4919","25.0840966666667","6500200","三重區"
"241005","262-UM","2018/02/27 20:19:50","新北市三重區溪尾街250號","121.487491666667","25.0826716666667","6500200","三重區"
"241016","265-UM","2018/02/27 20:19:43","新北市三重區大同北路54巷1號","121.494115","25.0636033333333","6500200","三重區"
"241022","267-UM","2018/02/27 20:19:53","新北市三重區明志街135號","121.488983333333","25.0632533333333","6500200","三重區"
"241018","268-UM","2018/02/27 20:19:53","新北市三重區自強路一段155-1號","121.493701666667","25.067195","6500200","三重區"
"241032","269-UM","2018/02/27 20:19:52","新北市三重區捷運路19巷8弄13號","121.48437","25.057315","6500200","三重區"
"241013","270-UM","2018/02/27 20:19:43","新北市三重區三和路三段167巷40號","121.493265","25.0745116666667","6500200","三重區"
"241025","271-UM","2018/02/27 20:19:46","新北市三重區頂崁街210巷26號","121.476041666667","25.0680133333333","6500200","三重區"
"241007","398-BY","2018/02/27 20:19:38","新北市三重區仁美街55號","121.486988333333","25.0780416666667","6500200","三重區"
"241020","413-TH","2018/02/27 20:19:50","新北市三重區重陽路四段158號","121.49318","25.0720766666667","6500200","三重區"
"241004","475-VK","2018/02/27 20:19:54","新北市三重區仁政街205號","121.490566666667","25.0806","6500200","三重區"
"241024","478-VK","2018/02/27 20:19:53","新北市三重區忠孝路三段1號","121.481911666667","25.0678533333333","6500200","三重區"
"241030","480-VK","2018/02/27 20:19:36","新北市三重區環河南路254巷53號","121.488013333333","25.0523116666667","6500200","三重區"
"241014","543-UM","2018/02/27 20:19:55","新北市三重區龍濱路257號","121.501403333333","25.0727983333333","6500200","三重區"
"241023","545-UM","2018/02/27 20:19:45","新北市三重區忠孝路三段99巷4號","121.480186666667","25.0642166666667","6500200","三重區"
"241001","547-UM","2018/02/27 20:19:39","新北市三重區自強路四段31巷3號","121.489526666667","25.0766166666667","6500200","三重區"
"241019","KEA-2593","2018/02/27 20:19:50","新北市三重區忠孝路一段77號","121.490435","25.0720616666667","6500200","三重區"
"241035","743-BX","2018/02/27 20:19:43","新北市三重區正義北路33巷24號","121.498268333333","25.0638483333333","6500200","三重區"
"241012","941-UM","2018/02/27 20:19:35","新北市三重區河邊北街379-1號","121.501726666667","25.0764533333333","6500200","三重區"
"241029","942-UM","2018/02/27 20:19:45","新北市三重區重安街98號","121.492665","25.056025","6500200","三重區"
"241033","AAC-255","2018/02/27 20:19:49","新北市三重區五谷王北街50巷2號","121.475935","25.0512283333333","6500200","三重區"
"235066","003-UY","2018/02/27 20:19:51","新北市中和區光華街31巷22弄1號","121.505431666667","25.0047433333333","6500300","中和區"
"235039","097-UM","2018/02/27 20:19:49","新北市中和區立人街24-4號","121.518926666667","24.9941983333333","6500300","中和區"
"235065","098-UM","2018/02/27 20:19:46","新北市中和區永和路128巷9號","121.497675","25.0069533333333","6500300","中和區"
"235072","301-VK","2018/02/27 20:19:40","新北市八里區下罟子1-13號","121.389615","25.142215","6500300","中和區"
"235068","377-QA","2018/02/27 20:19:40","新北市中和區福祥路73號","121.499078333333","25.0050816666667","6500300","中和區"
"235050","4979-A6","2018/02/27 20:19:45","新北市中和區景安路177巷8號","121.50573","24.9939983333333","6500300","中和區"
"235069","4980-A6","2018/02/27 20:19:45","新北市中和區圓通路118號","121.499171666667","24.99618","6500300","中和區"
"235026","800-TS","2018/02/27 20:19:37","新北市中和區員山路36巷13號","121.484301666667","24.99073","6500300","中和區"
"235059","AAC-215","2018/02/27 20:19:50","新北市中和區圓通路320-18號","121.485656666667","24.9871316666667","6500300","中和區"
"220086","073-UY","2018/02/27 20:19:46","新北市樹林區八德街370號","121.407753333333","24.9695483333333","6500100","板橋區"
"220069","AAD-861","2018/02/27 20:19:39","新北市板橋區大觀路三段52號","121.432301666667","24.9960233333333","6500100","板橋區"
"247022","893-R6","2018/02/27 20:19:47","新北市蘆洲區民族路564號","121.46745","25.0888316666667","6501400","蘆洲區"
"247020","500-BY","2018/02/27 20:19:35","新北市蘆洲區仁愛街37號","121.472218333333","25.0928883333333","6501400","蘆洲區"
"247010","339-TH","2018/02/27 20:19:35","新北市蘆洲區信義路218號","121.478961666667","25.08511","6501400","蘆洲區"
"247002","337-TH","2018/02/27 20:19:33","新北市蘆洲區長安街331巷40號","121.455601666667","25.086645","6501400","蘆洲區"
"247004","336-TH","2018/02/27 20:19:52","新北市蘆洲區長安街218號","121.458341666667","25.0845033333333","6501400","蘆洲區"
"247012","335-TH","2018/02/27 20:19:37","新北市蘆洲區中興街13號","121.480533333333","25.0871","6501400","蘆洲區"
"247016","057-VK","2018/02/27 20:19:37","新北市蘆洲區中正路185巷45弄2號","121.465813333333","25.083715","6501400","蘆洲區"
"247006","056-VK","2018/02/27 20:19:36","新北市蘆洲區九芎街167巷3號","121.464991666667","25.0786133333333","6501400","蘆洲區"
"247008","053-VK","2018/02/27 20:19:47","新北市蘆洲區集賢路223號","121.48246","25.0863183333333","6501400","蘆洲區"
"247014","007-UY","2018/02/27 20:19:45","新北市蘆洲區中山二路137巷46號","121.472485","25.0805183333333","6501400","蘆洲區"
"247024","002-UY","2018/02/27 20:19:42","新北市蘆洲區長樂路56巷33號","121.464038333333","25.0868083333333","6501400","蘆洲區"
"247018","001-UY","2018/02/27 20:19:32","新北市蘆洲區民族路406號","121.4746","25.0915816666667","6501400","蘆洲區"
"224009","285-BY","2018/02/27 20:19:44","新北市瑞芳區傑魚坑路264號","121.789056666667","25.1089616666667","6501200","瑞芳區"
"222001","KEA-2212","2018/02/27 20:19:38","新北市深坑區北深路三段217號","121.60028","25.00386","6501800","深坑區"
"251001","011-UM","2018/02/27 20:19:49","新北市淡水區新市二路四段265號","121.44573","25.1925233333333","6501000","淡水區"
"251013","179-VK","2018/02/27 20:19:40","新北市淡水區水汴頭2號","121.475765","25.2040983333333","6501000","淡水區"
"251014","180-VK","2018/02/27 20:19:37","新北市淡水區石頭厝3號","121.458728333333","25.235555","6501000","淡水區"
"251008","181-VK","2018/02/27 20:19:34","新北市淡水區淡海路150巷21號","121.422001666667","25.184485","6501000","淡水區"
"251015","182-VK","2018/02/27 20:19:40","新北市淡水區淡金路三段446號","121.451041666667","25.214615","6501000","淡水區"
"251010","413-VK","2018/02/27 20:19:51","新北市淡水區新民街一段132號","121.427605","25.188735","6501000","淡水區"
"251012","441-VK","2018/02/27 20:19:34","新北市淡水區下圭柔山431-1號","121.449816666667","25.2103616666667","6501000","淡水區"
"251016","442-VK","2018/02/27 20:19:39","新北市淡水區淡金路五段20號","121.453053333333","25.2324233333333","6501000","淡水區"
"251006","561-UM","2018/02/27 20:19:34","新北市淡水區淡金路一段571號","121.452695","25.1805383333333","6501000","淡水區"
"251002","672-BX","2018/02/27 20:19:45","新北市淡水區中正路124號","121.441408333333","25.1695966666667","6501000","淡水區"
"251003","673-BX","2018/02/27 20:19:44","新北市淡水區中山北路一段153號","121.443253333333","25.177405","6501000","淡水區"
"207004","225-TW","2018/02/27 20:19:49","新北市萬里區北基里孝七街6號","121.683153333333","25.17586","6502800","萬里區"
"252002","178-VK","2018/02/27 20:19:53","新北市三芝區中正路一段34號","121.503233333333","25.2583566666667","6502100","三芝區"
"252001","292-VK","2018/02/27 20:19:38","新北市三芝區中山路一段35號","121.500601666667","25.2579566666667","6502100","三芝區"
"237012","275-BY","2018/02/27 20:19:36","新北市三峽區中華路31號","121.372826666667","24.9312783333333","6500900","三峽區"
"237006","5529-G3","2018/02/27 20:19:49","新北市三峽區中正路二段249-1號","121.365971666667","24.9120316666667","6500900","三峽區"
"236070","105-UM","2018/02/27 20:19:34","新北市土城區中山路34號","121.424741666667","24.9638083333333","6501300","土城區"
"236043","107-UM","2018/02/27 20:19:42","新北市土城區裕民路95號","121.450443333333","24.98716","6501300","土城區"
"236079","166-UM","2018/02/27 20:19:43","新北市土城區民權街12號","121.41546","24.9643416666667","6501300","土城區"
"236031","253-BX","2018/02/27 20:19:37","新北市土城區學成路108巷13弄11號","121.449571666667","24.990095","6501300","土城區"
"236026","269-VK","2018/02/27 20:19:48","新北市土城區裕生路84巷1號","121.447231666667","24.985255","6501300","土城區"
"236015","270-VK","2018/02/27 20:19:36","新北市土城區廣明街90巷21號","121.455396666667","24.994545","6501300","土城區"
"236038","271-VK","2018/02/27 20:19:46","新北市土城區明德路一段375-3號","121.454385","24.97844","6501300","土城區"
"236023","401-BY","2018/02/27 20:19:54","新北市土城區延吉街57巷7號","121.472656666667","24.9873816666667","6501300","土城區"
"236059","912-UM","2018/02/27 20:19:49","新北市土城區中央路三段71-1號","121.438841666667","24.9691633333333","6501300","土城區"
"242029","986-R7","2018/02/27 20:19:52","新北市新莊區中原路259號","121.448621666667","25.05447","6500500","新莊區"
"242051","751-BX","2018/02/27 20:19:47","新北市新莊區民安西路212巷2弄1號","121.425506666667","25.0149533333333","6500500","新莊區"
"242025","615-BX","2018/02/27 20:19:42","新北市新莊區五工二路70巷7號","121.460525","25.0661533333333","6500500","新莊區"
"242023","613-BX","2018/02/27 20:19:47","新北市新莊區化成路800號","121.465095","25.0594833333333","6500500","新莊區"
"242027","612-BX","2018/02/27 20:19:51","新北市新莊區幸福路538號","121.455535","25.0493666666667","6500500","新莊區"
"242039","566-BX","2018/02/27 20:19:48","新北市新莊區成功街99號","121.424241666667","25.018905","6500500","新莊區"
"242044","497-BY","2018/02/27 20:19:53","新北市新莊區中正路新建巷28弄71號","121.413696666667","25.0209933333333","6500500","新莊區"
"242048","441-UM","2018/02/27 20:19:50","新北市新莊區龍安路218號","121.420181666667","25.0198766666667","6500500","新莊區"
"242054","440-UM","2018/02/27 20:19:43","新北市新莊區西盛街385號","121.427976666667","25.0131283333333","6500500","新莊區"
"242034","415-TV","2018/02/27 20:19:39","新北市新莊區建中街90巷8號","121.446893333333","25.037295","6500500","新莊區"
"242005","413-TV","2018/02/27 20:19:51","新北市新莊區化成路554巷29號","121.467181666667","25.054065","6500500","新莊區"
"242042","400-BY","2018/02/27 20:19:42","新北市新莊區壽山路47號","121.414558333333","25.0311266666667","6500500","新莊區"
"242061","362-BY","2018/02/27 20:19:37","新北市新莊區新樹路172-13號","121.434521666667","25.02182","6500500","新莊區"
"242058","353-BY","2018/02/27 20:19:52","新北市新莊區四維路210號","121.421533333333","25.019985","6500500","新莊區"
"242007","132-UY","2018/02/27 20:19:53","新北市新莊區福壽街94巷6號","121.45863","25.0499566666667","6500500","新莊區"
"242037","133-UY","2018/02/27 20:19:38","新北市新莊區後港一路56巷24弄1號","121.426746666667","25.0252333333333","6500500","新莊區"
"242021","135-UY","2018/02/27 20:19:36","新北市新莊區新泰路300號","121.445493333333","25.0409483333333","6500500","新莊區"
"242046","172-VK","2018/02/27 20:19:34","新北市新莊區中正路新生巷33號","121.417188333333","25.0234783333333","6500500","新莊區"
"242009","173-VK","2018/02/27 20:19:52","新北市新莊區昌隆街58巷1弄3號","121.455053333333","25.0505","6500500","新莊區"
"242015","175-VK","2018/02/27 20:19:34","新北市新莊區永樂街237巷2號","121.446275","25.0443066666667","6500500","新莊區"
"242002","176-VK","2018/02/27 20:16:26","新北市三重區重新路五段621號","121.46795","25.0441966666667","6500500","新莊區"
"242013","346-TH","2018/02/27 20:19:50","新北市新莊區中和街155巷24弄39號","121.446485","25.0511616666667","6500500","新莊區"
"242019","348-TH","2018/02/27 20:19:45","新北市新莊區銘德街29號","121.458526666667","25.04361","6500500","新莊區"
"242017","350-TH","2018/02/27 20:19:52","新北市新莊區中港二街144號","121.448065","25.0456133333333","6500500","新莊區"
"242011","351-TH","2018/02/27 20:19:34","新北市新莊區中信街21號","121.450991666667","25.0507283333333","6500500","新莊區"
"238026","KEA-2539","2018/02/27 20:19:37","新北市樹林區佳園路三段99巷71號","121.393956666667","24.9521416666667","6500700","樹林區"
"221008","489-VK","2018/02/27 20:19:47","新北市汐止區康寧街361號","121.628591666667","25.067785","6501100","汐止區"
"221036","130-UY","2018/02/27 20:19:54","新北市汐止區福安街59巷16號","121.664561666667","25.0639566666667","6501100","汐止區"
"221015","131-UY","2018/02/27 20:19:37","新北市汐止區建成路142巷19弄15號","121.661876666667","25.0739416666667","6501100","汐止區"
"221010","269-BY","2018/02/27 20:19:52","新北市汐止區八連路二段636-3號","121.625811666667","25.1105016666667","6501100","汐止區"
"221012","278-VK","2018/02/27 20:19:46","新北市汐止區保新街155號","121.688338333333","25.0694466666667","6501100","汐止區"
"221023","279-VK","2018/02/27 20:19:51","新北市汐止區湖東街5巷112-1號","121.635236666667","25.0744716666667","6501100","汐止區"
"221032","280-BY","2018/02/27 20:19:37","新北市汐止區弘道街23號","121.617383333333","25.048745","6501100","汐止區"
"221027","281-BY","2018/02/27 20:19:41","新北市汐止區禮門街7號","121.656746666667","25.0674216666667","6501100","汐止區"
"221038","297-VK","2018/02/27 20:19:39","新北市汐止區忠孝東路472號","121.666196666667","25.0733316666667","6501100","汐止區"
"221029","298-VK","2018/02/27 20:19:39","新北市汐止區工建路98號","121.639455","25.0637483333333","6501100","汐止區"
"221021","299-VK","2018/02/27 20:19:51","新北市汐止區水源路一段284號","121.654296666667","25.0583333333333","6501100","汐止區"
"221031","353-TW","2018/02/27 20:19:46","新北市汐止區中興路150巷13號","121.632996666667","25.065","6501100","汐止區"
"221035","622-UM","2018/02/27 20:19:55","新北市汐止區長江街101-5號","121.658695","25.073225","6501100","汐止區"
"221025","623-UM","2018/02/27 20:19:39","新北市汐止區水源路二段72巷6弄5號","121.655676666667","25.055685","6501100","汐止區"
"221033","647-BX","2018/02/27 20:19:42","新北市汐止區東勢街96-1號","121.633445","25.041385","6501100","汐止區"
"221002","707-TV","2018/02/27 20:19:40","新北市汐止區福德三路26號","121.636868333333","25.0693466666667","6501100","汐止區"
"221018","753-BX","2018/02/27 20:19:39","新北市汐止區茄苳路229號","121.67108","25.0686183333333","6501100","汐止區"
"220106","KEA-2550","2018/02/27 20:19:35","新北市五股區中興路三段163號","121.448805","25.0809216666667","6500100","板橋區"
"220101","245-BX","2018/02/27 20:19:51","新北市板橋區雙十路二段110號","121.47426","25.028545","6500100","板橋區"
"220046","255-TC","2018/02/27 20:19:49","新北市板橋區民生路二段120號","121.470495","25.0197516666667","6500100","板橋區"
"220083","286-VK","2018/02/27 20:19:35","新北市板橋區僑中二街102巷48號","121.444253333333","25.0085766666667","6500100","板橋區"
"220081","287-VK","2018/02/27 20:19:53","新北市板橋區僑中一街80巷5弄20號","121.44686","25.0126733333333","6500100","板橋區"
"220061","293-UM","2018/02/27 20:19:35","新北市板橋區文華街12號","121.45785","25.00048","6500100","板橋區"
"242032","281-VK","2018/02/27 20:19:41","新北市新莊區中正路418號","121.441061666667","25.0338033333333","6500500","新莊區"
"220092","307-R5","2018/02/27 20:19:42","新北市板橋區民權路174號","121.459585","25.013245","6500100","板橋區"
"220089","487-VK","2018/02/27 20:19:39","新北市板橋區互助街11號","121.463075","25.02766","6500100","板橋區"
"242056","280-VK","2018/02/27 20:19:51","新北市新莊區豐年街28巷27號","121.445271666667","25.0323166666667","6500500","新莊區"
"220088","491-VK","2018/02/27 20:19:52","新北市五股區中興路三段1-7號","121.451956666667","25.0756966666667","6500100","板橋區"
"220103","561-BX","2018/02/27 20:19:40","新北市板橋區新海路2號","121.462566666667","25.0207033333333","6500100","板橋區"
"220102","KEA-2699","2018/02/27 20:19:44","新北市板橋區縣民大道三段43號","121.474306666667","25.0208816666667","6500100","板橋區"
"220097","AAC-210","2018/02/27 20:19:52","新北市板橋區文化路一段101巷11號","121.460733333333","25.0145616666667","6500100","板橋區"
"220070","AAC-253","2018/02/27 20:19:50","新北市板橋區南雅南路二段116號","121.453236666667","25.000355","6500100","板橋區"
