"lineid","car","time","location","longitude","latitude","cityid","cityname"
"243009","297-R6","2018/02/27 21:16:17","新北市泰山區黎明路25號","121.421891666667","25.0608433333333","6501600","泰山區"
"231059","046-UY","2018/02/27 21:19:46","新北市新店區薏仁坑路自強巷1號","121.49709","24.9579233333333","6500600","新店區"
"231051","107-UY","2018/02/27 21:19:47","新北市新店區中正路700巷82號","121.53596","24.9932916666667","6500600","新店區"
"231048","108-UY","2018/02/27 21:19:48","新北市新店區安興路105號","121.515","24.9778466666667","6500600","新店區"
"231050","KEA-2219","2018/02/27 21:19:36","新北市新店區中正路189巷11號","121.540223333333","24.9717866666667","6500600","新店區"
"231065","512-UM","2018/02/27 21:19:35","新北市新店區薏仁坑路自強巷1號","121.496786666667","24.9581633333333","6500600","新店區"
"231040","619-UM","2018/02/27 21:19:53","新北市新店區北新路一段153號","121.539795","24.9634666666667","6500600","新店區"
"231063","645-TV","2018/02/27 21:19:40","新北市新店區玫瑰路57巷17號","121.496355","24.9463483333333","6500600","新店區"
"241011","013-R5","2018/02/27 21:19:45","新北市三重區介壽路39巷168號","121.50209","25.0707333333333","6500200","三重區"
"241028","022-UY","2018/02/27 21:19:53","新北市三重區正義南路169號","121.49893","25.0575216666667","6500200","三重區"
"241008","059-VK","2018/02/27 21:19:53","新北市三重區正義北路133號","121.49691","25.0664416666667","6500200","三重區"
"241009","060-VK","2018/02/27 21:19:48","新北市三重區忠孝路三段67號","121.480771666667","25.0660583333333","6500200","三重區"
"241031","061-VK","2018/02/27 21:19:39","新北市三重區五谷王南街46巷37號","121.475778333333","25.0455166666667","6500200","三重區"
"241017","063-VK","2018/02/27 21:19:50","新北市三重區中正北路25巷25弄3號","121.493255","25.06267","6500200","三重區"
"241026","066-VK","2018/02/27 21:19:42","新北市三重區大同南路232號","121.49681","25.0561766666667","6500200","三重區"
"241002","090-VK","2018/02/27 21:19:51","新北市三重區五華街60號","121.494128333333","25.0814083333333","6500200","三重區"
"241003","156-TC","2018/02/27 21:19:55","新北市三重區通華街1號","121.49553","25.0842866666667","6500200","三重區"
"241005","262-UM","2018/02/27 21:19:50","新北市三重區仁華街120號","121.486231666667","25.08306","6500200","三重區"
"241016","265-UM","2018/02/27 21:19:43","新北市三重區自強路一段95號","121.49584","25.0663166666667","6500200","三重區"
"241018","268-UM","2018/02/27 21:19:33","新北市三重區忠孝路三段28號","121.481376666667","25.0669316666667","6500200","三重區"
"241032","269-UM","2018/02/27 21:19:52","新北市三重區光復路二段180號","121.471396666667","25.062635","6500200","三重區"
"241013","270-UM","2018/02/27 21:19:43","新北市三重區仁愛街81-1號","121.495878333333","25.0731066666667","6500200","三重區"
"241025","271-UM","2018/02/27 21:19:35","新北市三重區忠孝路三段40巷16弄10號","121.482363333333","25.0668633333333","6500200","三重區"
"241007","398-BY","2018/02/27 21:19:38","新北市三重區忠孝路一段50號","121.490866666667","25.0719216666667","6500200","三重區"
"241004","475-VK","2018/02/27 21:19:34","新北市三重區分子尾街83號","121.488965","25.08254","6500200","三重區"
"241024","478-VK","2018/02/27 21:19:53","新北市三重區中正北路145巷14號","121.484133333333","25.0677583333333","6500200","三重區"
"241030","480-VK","2018/02/27 21:19:36","新北市三重區頂崁街23號","121.476835","25.0557983333333","6500200","三重區"
"241014","543-UM","2018/02/27 21:19:34","新北市三重區萬全街9號","121.499305","25.0697","6500200","三重區"
"241023","545-UM","2018/02/27 21:19:45","新北市三重區中正北路176巷16號","121.482676666667","25.065925","6500200","三重區"
"241001","547-UM","2018/02/27 21:19:39","新北市三重區仁愛街475號","121.489225","25.082285","6500200","三重區"
"241006","887-TS","2018/02/27 21:19:49","新北市三重區新北大道一段66號","121.487286666667","25.061405","6500200","三重區"
"241012","941-UM","2018/02/27 21:19:35","新北市三重區龍門路286號","121.502016666667","25.0741916666667","6500200","三重區"
"241033","AAC-255","2018/02/27 21:19:41","新北市三重區光復路二段102巷23號","121.47035","25.058035","6500200","三重區"
"247022","893-R6","2018/02/27 21:19:47","新北市蘆洲區三民路222號","121.468708333333","25.0892333333333","6501400","蘆洲區"
"247020","500-BY","2018/02/27 21:19:35","新北市蘆洲區仁愛街62巷22號","121.472305","25.0943083333333","6501400","蘆洲區"
"247010","339-TH","2018/02/27 21:19:55","新北市蘆洲區鷺江街16-1號","121.478895","25.0824916666667","6501400","蘆洲區"
"247002","337-TH","2018/02/27 21:19:53","新北市蘆洲區永樂街43號","121.457661666667","25.0883733333333","6501400","蘆洲區"
"247004","336-TH","2018/02/27 21:19:51","新北市蘆洲區永安南路二段324號","121.456875","25.0827883333333","6501400","蘆洲區"
"247012","335-TH","2018/02/27 21:19:37","新北市蘆洲區民族路236巷8號","121.480375","25.08863","6501400","蘆洲區"
"247006","056-VK","2018/02/27 21:19:40","新北市蘆洲區長安街63號","121.46289","25.079825","6501400","蘆洲區"
"247008","053-VK","2018/02/27 21:19:50","新北市蘆洲區中山一路129號","121.475663333333","25.0814033333333","6501400","蘆洲區"
"247014","007-UY","2018/02/27 21:19:45","新北市蘆洲區保和街50-6號","121.469818333333","25.086335","6501400","蘆洲區"
"247024","002-UY","2018/02/27 21:19:42","新北市蘆洲區光明路96號","121.463135","25.0879516666667","6501400","蘆洲區"
"247018","001-UY","2018/02/27 21:19:52","新北市蘆洲區復興路111-6號","121.476458333333","25.0883266666667","6501400","蘆洲區"
"251004","009-UM","2018/02/27 21:19:48","新北市淡水區民族路31巷1號","121.462291666667","25.1359483333333","6501000","淡水區"
"251001","011-UM","2018/02/27 21:19:49","新北市淡水區中山北路二段200號","121.444241666667","25.186495","6501000","淡水區"
"251013","179-VK","2018/02/27 21:19:40","新北市淡水區行忠路328號","121.460481666667","25.1995733333333","6501000","淡水區"
"251014","180-VK","2018/02/27 21:19:37","新北市淡水區六塊厝2-1號","121.450145","25.24047","6501000","淡水區"
"251008","181-VK","2018/02/27 21:19:54","新北市淡水區水源街二段231號","121.460711666667","25.1764216666667","6501000","淡水區"
"251015","182-VK","2018/02/27 21:19:40","新北市淡水區淡金路四段542巷83弄20號","121.456516666667","25.2266516666667","6501000","淡水區"
"251010","413-VK","2018/02/27 21:19:57","新北市淡水區淡海路69巷26號","121.421898333333","25.180885","6501000","淡水區"
"251012","441-VK","2018/02/27 21:19:54","新北市淡水區石頭埔8號","121.452653333333","25.234555","6501000","淡水區"
"251016","442-VK","2018/02/27 21:19:39","新北市淡水區前洲子28號","121.441023333333","25.219215","6501000","淡水區"
"251005","443-VK","2018/02/27 21:19:37","新北市淡水區仁愛街18巷10號","121.447033333333","25.1703233333333","6501000","淡水區"
"251006","561-UM","2018/02/27 21:19:54","新北市淡水區中正路一段112號","121.423633333333","25.1780233333333","6501000","淡水區"
"251009","575-R6","2018/02/27 21:19:51","新北市淡水區民族路33號","121.462323333333","25.1357516666667","6501000","淡水區"
"251011","650-BX","2018/02/27 21:19:39","新北市淡水區新民街120巷29號","121.438871666667","25.1787883333333","6501000","淡水區"
"251002","672-BX","2018/02/27 21:08:53","新北市淡水區英專路151號","121.448351666667","25.17486","6501000","淡水區"
"251003","673-BX","2018/02/27 21:19:44","新北市淡水區新春街85巷25弄33號","121.43878","25.1842666666667","6501000","淡水區"
"242046","172-VK","2018/02/27 21:19:39","新北市新莊區瓊林南路305巷35號","121.435995","25.005605","6500500","新莊區"
"220046","255-TC","2018/02/27 21:19:49","新北市板橋區民生路二段120號","121.470426666667","25.0194883333333","6500100","板橋區"
"220070","AAC-253","2018/02/27 21:19:30","新北市五股區凌雲路二段66號","121.440315","25.10615","6500100","板橋區"
