"lineid","car","time","location","longitude","latitude","cityid","cityname"
"248004","653-BX","2018/11/12 07:29:13","新北市五股區明德路12巷16號","121.43332","25.0718866666667","6501500","五股區"
"232001","290-BY","2018/11/12 07:29:24","新北市坪林區上坑子口5號","121.699415","24.960115","6502000","坪林區"
"232012","291-BY","2018/11/12 07:29:16","新北市坪林區金瓜寮12號","121.681628333333","24.91608","6502000","坪林區"
"232010","375-UM","2018/11/12 07:29:09","新北市坪林區水聳淒坑18號","121.712463333333","24.9326416666667","6502000","坪林區"
"232017","705-BZ","2018/11/12 07:29:07","新北市坪林區樟空子6-1號","121.725955","24.9703466666667","6502000","坪林區"
"232005","758-BX","2018/11/12 07:29:16","新北市坪林區魚堀48-3號","121.701853333333","24.9333466666667","6502000","坪林區"
"244001","248-BX","2018/11/12 07:29:18","新北市林口區頂福23號","121.351221666667","25.08319","6501700","林口區"
"222005","289-BY","2018/11/12 07:29:13","新北市深坑區埔新街94號","121.618891666667","25.00225","6501800","深坑區"
"235001","611-BX","2018/11/12 07:29:11","新北市中和區圓通路367巷6號","121.491421666667","24.98924","6500300","中和區"
"226005","5620-A6","2018/11/12 07:29:26","新北市平溪區靜安路二段119號","121.720985","25.0239783333333","6502400","平溪區"
"226001","7418-A5","2018/11/12 07:21:33","新北市平溪區望古里灰4-2號","121.763675","25.028255","6502400","平溪區"
"226003","AGD-0702","2018/11/12 07:28:47","新北市平溪區望古里望古坑1-2號","121.744878333333","25.039555","6502400","平溪區"
"223006","022-BY","2018/11/12 07:29:12","新北市石碇區八分寮55-3號","121.645158333333","25.0124766666667","6501900","石碇區"
"223002","KEA-2673","2018/11/12 07:29:22","新北市石碇區北宜路五段土巷9號","121.629198333333","24.9448933333333","6501900","石碇區"
"223003","205-TH","2018/11/12 07:29:18","新北市石碇區蓬菜寮17號","121.64824","24.971265","6501900","石碇區"
"223008","406-TH","2018/11/12 07:29:13","新北市石碇區靜安路一段342號","121.698673333333","25.0080216666667","6501900","石碇區"
"223001","592-UM","2018/11/12 07:29:23","新北市石碇區中楒子腳1號","121.647141666667","24.9717883333333","6501900","石碇區"
"223004","660-BX","2018/11/12 07:29:19","新北市石碇區八分寮54-1號","121.643413333333","25.0189966666667","6501900","石碇區"
"223007","661-BX","2018/11/12 07:29:18","新北市石碇區大溪墘17號","121.69234","25.00817","6501900","石碇區"
"223005","677-TV","2018/11/12 07:29:27","新北市石碇區八分寮47-1號","121.642485","25.0138866666667","6501900","石碇區"
"227005","282-VK","2018/11/12 07:29:12","新北市雙溪區新基里自強路5號","121.866353333333","25.03895","6502500","雙溪區"
"252006","073-UM","2018/11/12 07:29:12","新北市三芝區埔頭里埔頭24號","121.490805","25.2605316666667","6502100","三芝區"
"252004","249-BX","2018/11/12 07:29:10","新北市三芝區興華里楓子林55-1號","121.500613333333","25.2140566666667","6502100","三芝區"
"242057","986-R7","2018/11/12 07:29:16","新北市新莊區新泰路255巷83號","121.442376666667","25.0390383333333","6500500","新莊區"
"242055","751-BX","2018/11/12 07:29:19","新北市新莊區三和路12-21號","121.442183333333","25.038665","6500500","新莊區"
"242026","615-BX","2018/11/12 07:29:17","新北市新莊區新泰路357巷3弄57號","121.441846666667","25.0391383333333","6500500","新莊區"
"242028","612-BX","2018/11/12 07:29:15","新北市新莊區新泰路255巷83號","121.442321666667","25.0391483333333","6500500","新莊區"
"242043","566-BX","2018/11/12 07:29:11","新北市新莊區三和路12-21號","121.442275","25.0383333333333","6500500","新莊區"
"242047","497-BY","2018/11/12 07:29:20","新北市新莊區新泰路357巷3弄57號","121.442348333333","25.0394266666667","6500500","新莊區"
"242008","442-UM","2018/11/12 07:29:11","新北市新莊區新泰路255巷83號","121.442043333333","25.0388633333333","6500500","新莊區"
"242023","362-BY","2018/11/12 07:29:19","新北市新莊區新泰路357巷3弄57號","121.44199","25.03903","6500500","新莊區"
"242040","133-UY","2018/11/12 07:28:51","新北市新莊區三和路12-21號","121.441693333333","25.0387516666667","6500500","新莊區"
"242018","175-VK","2018/11/12 07:29:23","新北市新莊區三和路12-21號","121.441933333333","25.03872","6500500","新莊區"
"242016","346-TH","2018/11/12 07:29:22","新北市新莊區三和路12-21號","121.442208333333","25.0380833333333","6500500","新莊區"
"242030","348-TH","2018/11/12 07:29:11","新北市新莊區新泰路357巷3弄57號","121.442126666667","25.0396183333333","6500500","新莊區"
"242020","350-TH","2018/11/12 07:29:21","新北市新莊區三和路12-21號","121.441985","25.0388566666667","6500500","新莊區"
"242014","351-TH","2018/11/12 07:29:11","新北市新莊區三和路18-25號","121.441326666667","25.0392933333333","6500500","新莊區"
"242033","280-VK","2018/11/12 07:29:29","新北市新莊區三和路12-21號","121.442015","25.0382966666667","6500500","新莊區"
