"lineid","car","time","location","longitude","latitude","cityid","cityname"
"232001","290-BY","2018/12/31 08:19:23","新北市坪林區大粗坑6-1號","121.73223","24.9482616666667","6502000","坪林區"
"232012","291-BY","2018/12/31 08:19:25","新北市坪林區九芎根4-1號","121.665581666667","24.8847066666667","6502000","坪林區"
"232017","705-BZ","2018/12/31 08:19:22","新北市坪林區柑腳坑13-2號","121.766563333333","24.947855","6502000","坪林區"
"232005","758-BX","2018/12/31 08:19:41","新北市坪林區鶯子瀨3-1號","121.705926666667","24.91413","6502000","坪林區"
"244006","080-UY","2018/12/31 08:19:30","新北市林口區湖子42-2號","121.3855","25.09397","6501700","林口區"
"244001","248-BX","2018/12/31 08:19:30","新北市林口區頂福92號","121.321916666667","25.107485","6501700","林口區"
"244018","402-UM","2018/12/31 08:19:31","新北市林口區公園路223巷1號","121.373963333333","25.0748683333333","6501700","林口區"
"244013","KEA-2802","2018/12/31 08:19:36","新北市林口區中正路499號","121.383421666667","25.0776833333333","6501700","林口區"
"244022","483-VK","2018/12/31 08:19:34","新北市林口區隆林街61號","121.3872","25.0754366666667","6501700","林口區"
"244016","485-VK","2018/12/31 08:19:38","新北市林口區文化一路一段57號","121.371491666667","25.0699566666667","6501700","林口區"
"244008","656-BX","2018/12/31 08:19:26","新北市林口區中北三街182號","121.382951666667","25.082535","6501700","林口區"
"244010","657-BX","2018/12/31 08:19:30","新北市林口區中正路398號","121.384848333333","25.077825","6501700","林口區"
"244024","837-TS","2018/12/31 08:19:44","新北市林口區南勢街23號","121.364811666667","25.073665","6501700","林口區"
"244020","838-TS","2018/12/31 08:19:33","新北市林口區粉寮路一段139號","121.399031666667","25.081235","6501700","林口區"
"222005","289-BY","2018/12/31 08:19:38","新北市深坑區萬福路83號","121.60159","25.0094733333333","6501800","深坑區"
"231007","189-VK","2018/12/31 08:19:35","新北市新店區新潭路一段100-3號","121.527038333333","24.9380066666667","6500600","新店區"
"231008","192-VK","2018/12/31 08:19:28","新北市新店區新烏路二段212-1號","121.547495","24.915265","6500600","新店區"
"235001","611-BX","2018/12/31 08:19:25","新北市中和區中正路464號","121.490111666667","24.9942916666667","6500300","中和區"
"220069","015-TV","2018/12/31 08:19:28","新北市板橋區大觀路二段435-1號","121.446201666667","24.99456","6500100","板橋區"
"226005","5620-A6","2018/12/31 08:19:44","新北市平溪區南山里南山坪125號","121.786118333333","25.0453283333333","6502400","平溪區"
"226001","7418-A5","2018/12/31 08:19:37","新北市平溪區南山里南山坪11-2號","121.764716666667","25.0326783333333","6502400","平溪區"
"226003","AGD-0702","2018/12/31 08:19:36","新北市平溪區十分里十分街53號","121.775186666667","25.041425","6502400","平溪區"
"223006","022-BY","2018/12/31 08:19:32","新北市石碇區十八重溪61號","121.67501","25.0139366666667","6501900","石碇區"
"223002","KEA-2673","2018/12/31 08:08:14","新北市石碇區北宜路五段80號","121.646548333333","24.95171","6501900","石碇區"
"223003","205-TH","2018/12/31 08:19:39","新北市石碇區北宜路五段80號","121.646298333333","24.9517616666667","6501900","石碇區"
"223008","406-TH","2018/12/31 08:19:33","新北市石碇區靜安路一段216號","121.672711666667","25.0074183333333","6501900","石碇區"
"223004","437-BY","2018/12/31 08:19:30","新北市石碇區碇坪路一段102號","121.658153333333","24.9913316666667","6501900","石碇區"
"223001","592-UM","2018/12/31 08:19:38","新北市石碇區北宜路五段80號","121.646311666667","24.9515683333333","6501900","石碇區"
"223005","677-TV","2018/12/31 08:19:40","新北市石碇區碇坪路一段92號","121.658066666667","24.99131","6501900","石碇區"
"227005","282-VK","2018/12/31 08:19:23","新北市雙溪區外柑里三叉坑8號","121.827718333333","25.008345","6502500","雙溪區"
"252006","073-UM","2018/12/31 08:19:42","新北市三芝區蘭陽街13-1號","121.473516666667","25.24246","6502100","三芝區"
"252004","249-BX","2018/12/31 08:19:35","新北市三芝區興華里車埕59號","121.498676666667","25.1969333333333","6502100","三芝區"
"237001","361-BY","2018/12/31 08:18:29","新北市三峽區大學路192號","121.372381666667","24.946705","6500900","三峽區"
"242035","AAC-296","2018/12/31 08:19:43","新北市新莊區建福路44號","121.426573333333","25.0277316666667","6500500","新莊區"
"242057","986-R7","2018/12/31 08:19:28","新北市新莊區雙鳳路134巷11號","121.41247","25.0281616666667","6500500","新莊區"
"242055","751-BX","2018/12/31 08:19:40","新北市新莊區瓊林路40巷15號","121.447188333333","25.0301833333333","6500500","新莊區"
"242026","705-TV","2018/12/31 08:19:37","新北市新莊區福壽街204號","121.45809","25.0538016666667","6500500","新莊區"
"242024","613-BX","2018/12/31 08:19:40","新北市新莊區化成路447號","121.464443333333","25.06086","6500500","新莊區"
"242028","612-BX","2018/12/31 08:19:42","新北市新莊區中平路110巷4-1號","121.445531666667","25.0459616666667","6500500","新莊區"
"242043","566-BX","2018/12/31 08:19:40","新北市新莊區雙鳳路27號","121.416516666667","25.027015","6500500","新莊區"
"242047","497-BY","2018/12/31 08:19:44","新北市新莊區萬安街146巷18號","121.419903333333","25.0218683333333","6500500","新莊區"
"242020","442-UM","2018/12/31 08:19:33","新北市新莊區建興街6號","121.450153333333","25.0365083333333","6500500","新莊區"
"242052","441-UM","2018/12/31 08:19:26","新北市新莊區新樹路699巷42號","121.433113333333","25.00095","6500500","新莊區"
"242001","440-UM","2018/12/31 08:19:42","新北市新莊區大觀街42巷5號","121.454218333333","25.0357366666667","6500500","新莊區"
"242038","415-TV","2018/12/31 08:19:31","新北市新莊區民安西路4號","121.426501666667","25.0218516666667","6500500","新莊區"
"242008","413-TV","2018/12/31 08:19:35","新北市新莊區昌平街59巷28號","121.453901666667","25.053145","6500500","新莊區"
"242045","400-BY","2018/12/31 08:19:35","新北市新莊區福營路97巷24號","121.434873333333","25.0316983333333","6500500","新莊區"
"242022","362-BY","2018/12/31 08:19:25","新北市新莊區福壽街58號","121.458293333333","25.0489566666667","6500500","新莊區"
"242059","353-BY","2018/12/31 08:19:33","新北市新莊區新樹路262號","121.432763333333","25.014675","6500500","新莊區"
"242033","135-UY","2018/12/31 08:19:35","新北市新莊區景德路467號","121.443568333333","25.0331466666667","6500500","新莊區"
"242049","172-VK","2018/12/31 08:19:37","新北市新莊區西盛街153巷2號","121.42838","25.0179716666667","6500500","新莊區"
"242012","173-VK","2018/12/31 08:19:43","新北市新莊區中和街82巷1號","121.44789","25.0464283333333","6500500","新莊區"
"242018","175-VK","2018/12/31 08:19:46","新北市新莊區民樂街46號","121.458055","25.0414183333333","6500500","新莊區"
"242016","KED-0687","2018/12/31 08:19:31","新北市新莊區永樂街96號","121.450315","25.0450433333333","6500500","新莊區"
"242006","346-TH","2018/12/31 08:19:35","新北市新莊區自信街36號","121.454508333333","25.0482233333333","6500500","新莊區"
"242010","347-TH","2018/12/31 08:19:43","新北市新莊區中港路中慶巷22號","121.449915","25.0537983333333","6500500","新莊區"
"242030","348-TH","2018/12/31 08:19:31","新北市新莊區新泰路357巷3弄57號","121.442411666667","25.0398016666667","6500500","新莊區"
"242003","349-TH","2018/12/31 08:19:26","新北市新莊區福樂街56巷17號","121.458756666667","25.04617","6500500","新莊區"
"242014","351-TH","2018/12/31 08:19:33","新北市新莊區中平路119巷5號","121.44439","25.046605","6500500","新莊區"
"242040","281-VK","2018/12/31 08:19:27","新北市泰山區壽山路32號","121.42065","25.028975","6500500","新莊區"
