"lineid","car","time","location","longitude","latitude","cityid","cityname"
"232012","291-BY","2018/12/31 08:59:25","新北市坪林區北宜路八段6號","121.701145","24.9357866666667","6502000","坪林區"
"232005","758-BX","2018/12/31 08:59:41","新北市坪林區魚堀8-2號","121.709883333333","24.9061966666667","6502000","坪林區"
"244006","080-UY","2018/12/31 08:59:30","新北市林口區林口路188號","121.387525","25.08284","6501700","林口區"
"244001","248-BX","2018/12/31 08:59:30","新北市林口區頂福里71-108號","121.349513333333","25.082935","6501700","林口區"
"244018","402-UM","2018/12/31 08:59:31","新北市林口區麗園路52巷18號","121.373535","25.070025","6501700","林口區"
"244013","KEA-2802","2018/12/31 08:59:36","新北市林口區中正路512號","121.381721666667","25.077415","6501700","林口區"
"244022","483-VK","2018/12/31 08:59:34","新北市林口區育林街30號","121.38579","25.0736866666667","6501700","林口區"
"244016","485-VK","2018/12/31 08:59:38","新北市林口區八德路78號","121.365475","25.06565","6501700","林口區"
"244008","656-BX","2018/12/31 08:59:26","新北市林口區民生路111號","121.376695","25.0884816666667","6501700","林口區"
"244010","657-BX","2018/12/31 08:59:30","新北市林口區仁愛路一段292號","121.39276","25.0763683333333","6501700","林口區"
"244024","837-TS","2018/12/31 08:59:38","新北市林口區南勢五街65號","121.356815","25.0752133333333","6501700","林口區"
"244020","838-TS","2018/12/31 08:59:33","新北市林口區自強二街28號","121.398213333333","25.0778716666667","6501700","林口區"
"222005","289-BY","2018/12/31 08:59:44","新北市深坑區大坪街11號","121.630715","25.0206033333333","6501800","深坑區"
"231007","189-VK","2018/12/31 08:59:35","新北市新店區新潭路三段220號","121.503261666667","24.9041516666667","6500600","新店區"
"231008","192-VK","2018/12/31 08:59:28","新北市新店區廣興路66巷3號","121.538813333333","24.9137283333333","6500600","新店區"
"235001","611-BX","2018/12/31 08:59:24","新北市中和區莒光路185號","121.47271","24.999065","6500300","中和區"
"220069","015-TV","2018/12/31 08:51:19","新北市板橋區中正路323號","121.45487","25.0200533333333","6500100","板橋區"
"226001","7418-A5","2018/12/31 08:43:37","新北市平溪區東勢里東勢格36-1號","121.76039","24.99029","6502400","平溪區"
"226003","AGD-0702","2018/12/31 08:59:36","新北市平溪區十分里十分街238號","121.778121666667","25.0441383333333","6502400","平溪區"
"223006","022-BY","2018/12/31 08:59:24","新北市深坑區昇高坑路51-1號","121.629916666667","24.9949566666667","6501900","石碇區"
"223002","KEA-2673","2018/12/31 08:59:24","新北市石碇區碇坪路一段95號","121.662696666667","24.9898016666667","6501900","石碇區"
"223003","205-TH","2018/12/31 08:59:36","新北市石碇區北宜路六段水底寮巷12-1號","121.664796666667","24.947235","6501900","石碇區"
"223008","406-TH","2018/12/31 08:59:29","新北市石碇區光明路13號","121.68009","25.0336316666667","6501900","石碇區"
"223004","437-BY","2018/12/31 08:59:30","新北市石碇區碇坪路二段72號","121.684036666667","24.9679083333333","6501900","石碇區"
"223001","592-UM","2018/12/31 08:59:38","新北市石碇區北宜路六段水底寮巷6號","121.663615","24.95024","6501900","石碇區"
"223005","677-TV","2018/12/31 08:59:40","新北市石碇區碇坪路二段77號","121.685293333333","24.9649766666667","6501900","石碇區"
"227005","282-VK","2018/12/31 08:59:43","新北市雙溪區泰平里料角坑9號","121.811863333333","24.9743566666667","6502500","雙溪區"
"252006","073-UM","2018/12/31 08:59:42","新北市三芝區古庄里四棧橋18-3號","121.489653333333","25.26094","6502100","三芝區"
"252004","249-BX","2018/12/31 08:59:35","新北市三芝區興華里田心子31號","121.488835","25.2004216666667","6502100","三芝區"
"237001","159-UY","2018/12/31 08:59:27","新北市三峽區大觀路2號","121.375963333333","24.94368","6500900","三峽區"
"242035","AAC-296","2018/12/31 08:59:43","新北市新莊區建安街21號","121.428953333333","25.0261633333333","6500500","新莊區"
"242057","986-R7","2018/12/31 08:59:28","新北市新莊區八德街147號","121.423618333333","25.0197116666667","6500500","新莊區"
"242055","751-BX","2018/12/31 08:59:40","新北市新莊區瓊林路13-1號","121.449275","25.0313766666667","6500500","新莊區"
"242026","705-TV","2018/12/31 08:59:37","新北市新莊區立信三街58號","121.444103333333","25.05094","6500500","新莊區"
"242024","613-BX","2018/12/31 08:59:40","新北市新莊區五工三路70巷2-1號","121.459435","25.0649166666667","6500500","新莊區"
"242028","612-BX","2018/12/31 08:59:42","新北市新莊區中華路二段159號","121.452775","25.0517083333333","6500500","新莊區"
"242043","566-BX","2018/12/31 08:59:38","新北市新莊區新北大道七段650號","121.411978333333","25.028005","6500500","新莊區"
"242047","497-BY","2018/12/31 08:59:33","新北市新莊區四維路150巷12號","121.422545","25.0235033333333","6500500","新莊區"
"242020","442-UM","2018/12/31 08:59:33","新北市新莊區新泰路286號","121.445696666667","25.0406083333333","6500500","新莊區"
"242052","441-UM","2018/12/31 08:59:45","新北市新莊區西盛街395巷40號","121.429118333333","25.01196","6500500","新莊區"
"242001","440-UM","2018/12/31 08:59:42","新北市新莊區中正路71號","121.461333333333","25.0394","6500500","新莊區"
"242038","415-TV","2018/12/31 08:59:31","新北市新莊區民安西路109號","121.426828333333","25.0183833333333","6500500","新莊區"
"242008","413-TV","2018/12/31 08:59:35","新北市新莊區幸福路64巷4弄4號","121.457331666667","25.04998","6500500","新莊區"
"242045","400-BY","2018/12/31 08:59:27","新北市新莊區民安路21-1號","121.423075","25.027875","6500500","新莊區"
"242022","362-BY","2018/12/31 08:59:44","新北市新莊區化成路1004-1號","121.465255","25.06486","6500500","新莊區"
"242059","353-BY","2018/12/31 08:59:25","新北市新莊區民安路426-9號","121.43297","25.0228233333333","6500500","新莊區"
"242033","135-UY","2018/12/31 08:59:28","新北市新莊區中正路318巷16號","121.446616666667","25.0359933333333","6500500","新莊區"
"242049","172-VK","2018/12/31 08:59:36","新北市新莊區民安西路189巷27號","121.427075","25.0153616666667","6500500","新莊區"
"242012","173-VK","2018/12/31 08:59:35","新北市新莊區中和街184號","121.447356666667","25.0497516666667","6500500","新莊區"
"242018","175-VK","2018/12/31 08:59:26","新北市新莊區博愛路8巷2號","121.456143333333","25.04386","6500500","新莊區"
"242016","KED-0687","2018/12/31 08:59:31","新北市新莊區中港三街133號","121.448308333333","25.045855","6500500","新莊區"
"242006","346-TH","2018/12/31 08:59:35","新北市新莊區思源路287巷1弄25號","121.459416666667","25.04725","6500500","新莊區"
"242010","347-TH","2018/12/31 08:59:35","新北市新莊區幸福路710巷14號","121.449793333333","25.0500633333333","6500500","新莊區"
"242030","348-TH","2018/12/31 08:59:31","新北市新莊區新泰路225巷27號","121.445115","25.038925","6500500","新莊區"
"242003","349-TH","2018/12/31 08:59:26","新北市新莊區化成路218號","121.465631666667","25.046615","6500500","新莊區"
"242014","351-TH","2018/12/31 08:59:33","新北市新莊區中和街31巷22號","121.447095","25.043835","6500500","新莊區"
"242040","281-VK","2018/12/31 08:59:27","新北市新莊區壽山路61-5號","121.410873333333","25.0326433333333","6500500","新莊區"
