"lineid","car","time","location","longitude","latitude","cityid","cityname"
"244022","483-VK","2018/12/31 09:59:34","新北市林口區民權路66號","121.37254","25.0814116666667","6501700","林口區"
"244016","485-VK","2018/12/31 09:59:38","新北市林口區文化北路二段70號","121.370316666667","25.0822283333333","6501700","林口區"
"231007","189-VK","2018/12/31 09:59:35","新北市新店區新潭路三段215巷25號","121.508145","24.904075","6500600","新店區"
"231008","192-VK","2018/12/31 09:58:48","新北市新店區小坑一路21-1號","121.530801666667","24.9116633333333","6500600","新店區"
"223002","KEA-2673","2018/12/31 09:46:06","新北市石碇區小粗坑(潭邊里)9-2號","121.678645","24.985725","6501900","石碇區"
"223008","406-TH","2018/12/31 09:59:29","新北市石碇區小粗坑(潭邊里)9-2號","121.679043333333","24.986185","6501900","石碇區"
"227005","282-VK","2018/12/31 09:46:43","新北市雙溪區泰平里灣潭路35-1號","121.812383333333","24.9290283333333","6502500","雙溪區"
"252004","249-BX","2018/12/31 09:59:35","新北市三芝區福德里埔尾38號","121.510786666667","25.2339283333333","6502100","三芝區"
"252006","AAC-283","2018/12/31 09:59:33","新北市三芝區新庄里新庄子62號","121.507721666667","25.274535","6502100","三芝區"
"242030","348-TH","2018/12/31 09:59:31","新北市新莊區中正路508巷5號","121.435885","25.03323","6500500","新莊區"
"242003","349-TH","2018/12/31 09:59:26","新北市樹林區八德街828-1號","121.394265","24.9687433333333","6500500","新莊區"
