"lineid","car","time","location","longitude","latitude","cityid","cityname"
"244022","483-VK","2018/12/31 10:19:34","新北市林口區文林六街2-1號","121.370673333333","25.080145","6501700","林口區"
"231007","189-VK","2018/12/31 10:19:35","新北市新店區新潭路三段200號","121.50695","24.9046983333333","6500600","新店區"
"231008","192-VK","2018/12/31 10:19:28","新北市新店區松林路9號","121.547231666667","24.9110033333333","6500600","新店區"
"227005","282-VK","2018/12/31 10:19:43","新北市雙溪區泰平里溪尾寮46號","121.821396666667","24.9675383333333","6502500","雙溪區"
"252006","AAC-283","2018/12/31 10:19:33","新北市三芝區新庄里番社后31-1號","121.499881666667","25.2732966666667","6502100","三芝區"
"242003","349-TH","2018/12/31 10:19:26","新北市新莊區環河路658-8號","121.436375","25.0075066666667","6500500","新莊區"
"221018","277-VK","2018/12/31 10:19:39","新北市汐止區汐萬路一段256巷3號","121.653018333333","25.074415","6501100","汐止區"
