"lineid","car","time","location","longitude","latitude","cityid","cityname"
"234044","148-BY","2018/12/31 13:09:28","新北市永和區永元路18巷31號","121.523783333333","25.0002766666667","6500400","永和區"
"234078","298-R6","2018/12/31 13:09:42","新北市永和區永亨路83號","121.521775","25.005675","6500400","永和區"
"234036","336-UY","2018/12/31 13:09:48","新北市永和區民樂街69巷3號","121.527475","24.9978","6500400","永和區"
"234062","337-UY","2018/12/31 13:09:42","新北市永和區秀朗路二段33號","121.521281666667","25.002465","6500400","永和區"
"234084","338-UY","2018/12/31 13:09:41","新北市永和區永貞路112號","121.518865","25.0045233333333","6500400","永和區"
"234068","552-UM","2018/12/31 13:09:34","新北市永和區豫溪街137巷1弄23號","121.518453333333","25.010365","6500400","永和區"
"234015","745-BX","2018/12/31 13:09:36","新北市永和區文化路90巷8號","121.513948333333","25.0156966666667","6500400","永和區"
"234028","746-BX","2018/12/31 13:09:37","新北市永和區民生路23號","121.522858333333","24.99881","6500400","永和區"
"234052","KEA-2590","2018/12/31 13:09:37","新北市永和區中興街133巷14號","121.518371666667","25.0127483333333","6500400","永和區"
"234005","839-RS","2018/12/31 13:09:37","新北市永和區中山路一段147號","121.510086666667","25.009555","6500400","永和區"
"234012","KEA-2591","2018/12/31 13:09:38","新北市永和區永和路二段32號","121.514831666667","25.0106166666667","6500400","永和區"
"234060","AAD-866","2018/12/31 13:09:43","新北市永和區安樂路306-8號","121.514688333333","25.005365","6500400","永和區"
"234040","862-TW","2018/12/31 13:09:50","新北市永和區保平路59號","121.511606666667","25.00688","6500400","永和區"
"234048","863-TW","2018/12/31 13:09:36","新北市永和區文化路139號","121.510963333333","25.0159","6500400","永和區"
"234026","9371-KE","2018/12/31 13:09:37","新北市永和區秀朗路一段10巷21號","121.513311666667","25.0063366666667","6500400","永和區"
"234010","9373-KE","2018/12/31 13:09:44","新北市永和區仁愛路31巷2弄10號","121.513733333333","25.012945","6500400","永和區"
"248015","026-BX","2018/12/31 13:09:44","新北市五股區新五路二段259號","121.442416666667","25.084845","6501500","五股區"
"248005","077-UY","2018/12/31 13:09:34","新北市五股區中興路二段70號","121.461331666667","25.07694","6501500","五股區"
"248007","095-VK","2018/12/31 13:09:30","新北市蘆洲區永安南路二段294號","121.45728","25.0818333333333","6501500","五股區"
"248019","225-UY","2018/12/31 13:09:34","新北市五股區成泰路三段544-1號","121.454706666667","25.1005266666667","6501500","五股區"
"248011","247-BX","2018/12/31 13:09:32","新北市五股區新五路二段258號","121.440836666667","25.0822616666667","6501500","五股區"
"248013","261-SL","2018/12/31 13:09:36","新北市五股區成泰路二段86號","121.437403333333","25.0825883333333","6501500","五股區"
"248003","677-BX","2018/12/31 13:09:29","新北市五股區成泰路二段51-1號","121.43778","25.0832733333333","6501500","五股區"
"248009","682-TV","2018/12/31 13:09:39","新北市五股區成泰路一段223號","121.434278333333","25.077675","6501500","五股區"
"234022","9380-KE","2018/12/31 13:09:39","新北市永和區中興街10巷19號","121.515925","25.0112366666667","6500400","永和區"
"234076","969-R7","2018/12/31 13:09:47","新北市永和區民光街2號","121.515256666667","24.99634","6500400","永和區"
"234072","AAC-211","2018/12/31 13:09:40","新北市永和區福和路41-1號","121.523376666667","25.0080516666667","6500400","永和區"
"234066","AAC-212","2018/12/31 13:09:50","新北市永和區永和路一段65巷5號","121.512666666667","25.0071766666667","6500400","永和區"
"234001","AAC-295","2018/12/31 13:09:40","新北市永和區中山路一段106號","121.511005","25.0104933333333","6500400","永和區"
"244001","248-BX","2018/12/31 13:09:40","新北市林口區頂福32號","121.363056666667","25.0957216666667","6501700","林口區"
"243005","AAD-798","2018/12/31 13:09:37","新北市泰山區犁頭窠16號","121.421365","25.05203","6501600","泰山區"
"231002","002-UM","2018/12/31 13:09:43","新北市新店區安華路28-1號","121.519648333333","24.9607883333333","6500600","新店區"
"231028","046-UY","2018/12/31 13:09:29","新北市新店區安華路28-1號","121.519563333333","24.9609583333333","6500600","新店區"
"231001","047-UY","2018/12/31 13:09:48","新北市新店區安華路28-1號","121.519286666667","24.9609433333333","6500600","新店區"
"231005","106-UY","2018/12/31 13:09:43","新北市新店區安華路28-1號","121.519568333333","24.9608716666667","6500600","新店區"
"231010","107-UY","2018/12/31 13:09:29","新北市新店區安一路一段1-1號","121.519473333333","24.9613683333333","6500600","新店區"
"231019","108-UY","2018/12/31 13:09:34","新北市新店區安華路28-1號","121.519711666667","24.9606333333333","6500600","新店區"
"231011","187-VK","2018/12/31 13:09:43","新北市新店區安一路一段1-1號","121.519605","24.9612116666667","6500600","新店區"
"231023","188-VK","2018/12/31 13:09:34","新北市新店區安一路一段1-1號","121.519451666667","24.9615833333333","6500600","新店區"
"231003","268-BY","2018/12/31 13:09:42","新北市新店區安華路28-1號","121.519388333333","24.9605366666667","6500600","新店區"
"231018","278-BY","2018/12/31 13:09:48","新北市新店區安一路一段1-1號","121.519818333333","24.9612033333333","6500600","新店區"
"231014","AAD-862","2018/12/31 13:09:44","新北市新店區安華路28-1號","121.519813333333","24.9608516666667","6500600","新店區"
"231004","355-BY","2018/12/31 13:09:35","新北市新店區安華路28-1號","121.519163333333","24.9609733333333","6500600","新店區"
"231037","4716-K9","2018/12/31 13:09:40","新北市新店區安華路28-1號","121.51961","24.96064","6500600","新店區"
"231025","4715-K9","2018/12/31 13:09:37","新北市新店區安康路一段92-1號","121.527878333333","24.962025","6500600","新店區"
"231036","512-UM","2018/12/31 13:09:34","新北市新店區安一路一段1-1號","121.519451666667","24.9612633333333","6500600","新店區"
"231013","513-UM","2018/12/31 13:09:44","新北市新店區安一路一段1-1號","121.519625","24.9612133333333","6500600","新店區"
"231030","619-UM","2018/12/31 13:09:44","新北市新店區安一路一段1-1號","121.519596666667","24.9610883333333","6500600","新店區"
"231034","641-BX","2018/12/31 13:09:47","新北市新店區安華路28-1號","121.51949","24.9605716666667","6500600","新店區"
"231035","719-UM","2018/12/31 13:09:36","新北市新店區安一路一段1-1號","121.519571666667","24.9614916666667","6500600","新店區"
"231031","720-UM","2018/12/31 13:09:35","新北市新店區安一路一段1-1號","121.519456666667","24.9614433333333","6500600","新店區"
"231029","897-TW","2018/12/31 13:09:37","新北市新店區安華路28-1號","121.519651666667","24.9607883333333","6500600","新店區"
"231024","AKT-0513","2018/12/31 13:09:34","新北市新店區安華路28-1號","121.51953","24.9605766666667","6500600","新店區"
"235030","003-UY","2018/12/31 13:09:40","新北市中和區中山路二段201號","121.499826666667","25.0026966666667","6500300","中和區"
"235028","005-UY","2018/12/31 13:09:41","新北市中和區中正路122號","121.499765","24.99376","6500300","中和區"
"235027","006-UY","2018/12/31 13:09:46","新北市中和區員山路36巷16-3號","121.484883333333","24.9915366666667","6500300","中和區"
"235003","097-UM","2018/12/31 13:09:42","新北市中和區中正路395號","121.490046666667","24.9936516666667","6500300","中和區"
"235004","150-BY","2018/12/31 12:46:26","新北市中和區員山路36巷16-2號","121.485398333333","24.9915683333333","6500300","中和區"
"235022","151-BY","2018/12/31 13:09:36","新北市中和區圓通路367巷61弄6號","121.492193333333","24.9834216666667","6500300","中和區"
"235002","185-VK","2018/12/31 13:09:45","新北市中和區大智街15號","121.519815","24.9918966666667","6500300","中和區"
"235013","186-VK","2018/12/31 13:09:42","新北市中和區員山路36巷16-2號","121.485185","24.9917333333333","6500300","中和區"
"235031","255-BX","2018/12/31 13:09:31","新北市中和區新生街177巷1號","121.483901666667","25.0007016666667","6500300","中和區"
"235006","KEA-2878","2018/12/31 13:09:46","新北市中和區錦和路350-1號","121.49057","24.9936333333333","6500300","中和區"
"235034","558-UM","2018/12/31 13:09:42","新北市中和區圓通路207號","121.497186666667","24.9944616666667","6500300","中和區"
"235009","565-BX","2018/12/31 13:09:30","新北市中和區錦和路350-1號","121.490018333333","24.9935733333333","6500300","中和區"
"235018","640-BX","2018/12/31 13:09:48","新北市土城區金城路三段257號","121.471828333333","24.9900333333333","6500300","中和區"
"235011","732-UM","2018/12/31 13:09:37","新北市中和區中正路637巷52弄1號","121.485421666667","24.9933966666667","6500300","中和區"
"235035","783-BX","2018/12/31 13:09:43","新北市中和區中板路15巷11號","121.48437","25.0110116666667","6500300","中和區"
"235026","800-TS","2018/12/31 13:09:43","新北市中和區中山路二段386號","121.490675","25.0034816666667","6500300","中和區"
"235021","801-TS","2018/12/31 13:09:39","新北市中和區員山路36巷16-3號","121.485083333333","24.9915666666667","6500300","中和區"
"235005","802-TS","2018/12/31 13:09:46","新北市中和區中正路190-1號","121.497983333333","24.9938733333333","6500300","中和區"
"235016","805-TS","2018/12/31 13:09:40","新北市中和區中正路637巷52弄1號","121.485433333333","24.9935316666667","6500300","中和區"
"235017","900-TW","2018/12/31 13:09:40","新北市中和區員山路36巷16-2號","121.485","24.99194","6500300","中和區"
"235029","911-UM","2018/12/31 13:09:45","新北市中和區莊敬路49巷20弄24號","121.502846666667","25.0058516666667","6500300","中和區"
"235015","157-BY","2018/12/31 13:09:41","新北市中和區南山路154號","121.5043","24.9920633333333","6500300","中和區"
"235001","AAC-213","2018/12/31 13:09:43","新北市中和區景平路149號","121.513833333333","24.9920483333333","6500300","中和區"
"235023","AAC-215","2018/12/31 13:09:46","新北市中和區員山路36巷16-3號","121.484946666667","24.991555","6500300","中和區"
"247009","336-TH","2018/12/31 13:09:29","新北市五股區中興路三段2巷10號","121.449015","25.080975","6501400","蘆洲區"
"235036","251-BX","2018/12/31 13:09:47","新北市中和區中正路589巷3號","121.485896666667","24.9942216666667","6500300","中和區"
"253003","6232-TK","2018/12/31 13:09:32","新北市石門區石崩山21-1號","121.567203333333","25.27738","6502200","石門區"
"253004","6251-TK","2018/12/31 13:09:40","新北市石門區阿里荖67號","121.609435","25.2719783333333","6502200","石門區"
"253002","637-UY","2018/12/31 13:09:38","新北市石門區九芎林4-1號","121.555746666667","25.273135","6502200","石門區"
"253001","KEC-0718","2018/12/31 13:09:32","新北市石門區楓林6號","121.537433333333","25.296685","6502200","石門區"
"207002","749-BX","2018/12/31 13:09:50","新北市萬里區崁腳里內崁路4號","121.64346","25.1592733333333","6502800","萬里區"
"252005","073-UM","2018/12/31 13:09:35","新北市三芝區八賢里八連溪45-1號","121.51474","25.2350966666667","6502100","三芝區"
"207001","662-BX","2018/12/31 13:09:48","新北市萬里區萬里里瑪鋉路145號","121.689466666667","25.1778333333333","6502800","萬里區"
"221032","280-BY","2018/12/31 13:09:39","新北市汐止區大同路二段367號","121.657228333333","25.0672616666667","6501100","汐止區"
"220021","985-R7","2018/12/31 13:09:37","新北市板橋區華東街1-10號","121.4483","24.9949683333333","6500100","板橋區"
"235025","KEA-2875","2018/12/31 13:09:18","新北市中和區連城路599號","121.478618333333","24.9932316666667","6500300","中和區"
