"lineid","car","time","location","longitude","latitude","cityid","cityname"
"234044","148-BY","2018/12/31 13:59:08","新北市永和區成功路一段20號","121.527035","25.005085","6500400","永和區"
"234078","298-R6","2018/12/31 13:59:15","新北市永和區永利路83-1號","121.521376666667","25.0034933333333","6500400","永和區"
"234036","336-UY","2018/12/31 13:59:13","新北市永和區成功路二段155號","121.526663333333","24.9974216666667","6500400","永和區"
"234062","337-UY","2018/12/31 13:59:02","新北市永和區中正路368巷1弄14號","121.518606666667","25.0010133333333","6500400","永和區"
"234084","338-UY","2018/12/31 13:59:21","新北市永和區福和路272號","121.517978333333","25.007645","6500400","永和區"
"234068","552-UM","2018/12/31 13:59:13","新北市永和區國光路39-1號","121.519066666667","25.0082116666667","6500400","永和區"
"234015","745-BX","2018/12/31 13:59:16","新北市永和區信義路126-1號","121.512421666667","25.015195","6500400","永和區"
"234028","746-BX","2018/12/31 13:59:17","新北市永和區四維街75號","121.525208333333","24.99783","6500400","永和區"
"234052","KEA-2590","2018/12/31 13:59:16","新北市永和區竹林路37號","121.517903333333","25.0142516666667","6500400","永和區"
"234005","839-RS","2018/12/31 13:59:17","新北市中和區中和路356號","121.510278333333","25.001695","6500400","永和區"
"234012","KEA-2591","2018/12/31 13:59:18","新北市永和區永平路280號","121.507851666667","25.0118183333333","6500400","永和區"
"234060","AAD-866","2018/12/31 13:59:11","新北市永和區中正路283巷53弄2號","121.515906666667","24.999325","6500400","永和區"
"234040","862-TW","2018/12/31 13:58:50","新北市永和區中和路335巷18弄7號","121.507685","25.000335","6500400","永和區"
"234048","863-TW","2018/12/31 13:59:12","新北市永和區保安路77號","121.508611666667","25.0149033333333","6500400","永和區"
"234010","9373-KE","2018/12/31 13:59:04","新北市永和區仁愛路352巷92弄18號","121.501353333333","25.00832","6500400","永和區"
"248015","026-BX","2018/12/31 13:59:03","新北市五股區成泰路三段543巷18號","121.450905","25.1022433333333","6501500","五股區"
"248007","095-VK","2018/12/31 13:59:10","新北市五股區中興路二段11號","121.463003333333","25.074155","6501500","五股區"
"248019","225-UY","2018/12/31 13:56:11","新北市五股區凌雲路三段57號","121.42522","25.1250466666667","6501500","五股區"
"248011","247-BX","2018/12/31 13:59:12","新北市五股區成泰路二段195巷1號","121.440313333333","25.087385","6501500","五股區"
"248003","677-BX","2018/12/31 13:59:09","新北市五股區民義路二段23-1號","121.41702","25.098895","6501500","五股區"
"248001","678-BX","2018/12/31 13:59:16","新北市五股區凌雲路一段114號","121.450098333333","25.1018416666667","6501500","五股區"
"248009","682-TV","2018/12/31 13:59:19","新北市五股區水碓一路23號","121.430561666667","25.0713083333333","6501500","五股區"
"234022","9380-KE","2018/12/31 13:59:19","新北市永和區復興街39號","121.516453333333","25.013215","6500400","永和區"
"234076","969-R7","2018/12/31 13:59:07","新北市永和區民權路56號","121.519916666667","24.998295","6500400","永和區"
"234072","AAC-211","2018/12/31 13:59:19","新北市永和區豫溪街215巷11號","121.523873333333","25.0099333333333","6500400","永和區"
"234066","AAC-212","2018/12/31 13:59:10","新北市永和區中山路一段277號","121.507135","25.0069433333333","6500400","永和區"
"234001","AAC-295","2018/12/31 13:59:20","新北市永和區福和路343號","121.515566666667","25.007215","6500400","永和區"
"243002","267-VK","2018/12/31 13:59:03","新北市泰山區辭修路26巷10號","121.429201666667","25.058485","6501600","泰山區"
"243005","AAD-798","2018/12/31 13:30:19","新北市泰山區明志路三段206巷3號","121.423216666667","25.0379616666667","6501600","泰山區"
"243008","KEA-2801","2018/12/31 13:59:15","新北市泰山區明志路二段137號","121.427661666667","25.0507133333333","6501600","泰山區"
"243007","421-VK","2018/12/31 13:59:13","新北市泰山區明志路一段260號","121.432126666667","25.0603933333333","6501600","泰山區"
"243003","KEA-2215","2018/12/31 13:59:09","新北市泰山區明志路二段246-1號","121.427098333333","25.0481366666667","6501600","泰山區"
"243004","646-TV","2018/12/31 13:59:01","新北市泰山區同義街13巷32號","121.432328333333","25.05706","6501600","泰山區"
"243006","680-BX","2018/12/31 13:59:11","新北市泰山區黎明路23號","121.420986666667","25.0626583333333","6501600","泰山區"
"231002","002-UM","2018/12/31 13:59:03","新北市新店區中正路603號","121.533828333333","24.98834","6500600","新店區"
"231027","0293-UT","2018/12/31 13:59:04","新北市新店區北宜路一段39巷20號","121.538773333333","24.9585066666667","6500600","新店區"
"231028","046-UY","2018/12/31 13:59:09","新北市新店區安和路三段4號","121.517966666667","24.9808466666667","6500600","新店區"
"231001","047-UY","2018/12/31 13:59:08","新北市新店區三民路45號","121.537121666667","24.9709283333333","6500600","新店區"
"231005","106-UY","2018/12/31 13:59:03","新北市新店區中興路三段248號","121.542991666667","24.9839583333333","6500600","新店區"
"231010","107-UY","2018/12/31 13:59:09","新北市新店區環河路100號","121.536788333333","24.9639683333333","6500600","新店區"
"231019","108-UY","2018/12/31 13:59:14","新北市新店區新烏路二段40號","121.544818333333","24.92833","6500600","新店區"
"231011","187-VK","2018/12/31 13:59:03","新北市新店區中興路二段67巷2號","121.546495","24.9709816666667","6500600","新店區"
"231023","188-VK","2018/12/31 13:59:14","新北市新店區文中路40號","121.53972","24.9566133333333","6500600","新店區"
"231026","256-BX","2018/12/31 13:59:06","新北市新店區環河路74號","121.536818333333","24.9631433333333","6500600","新店區"
"231003","268-BY","2018/12/31 13:59:02","新北市新店區中興路一段91號","121.540896666667","24.9619483333333","6500600","新店區"
"231018","278-BY","2018/12/31 13:59:08","新北市新店區中央路208號","121.530275","24.9738266666667","6500600","新店區"
"231014","AAD-862","2018/12/31 13:59:04","新北市新店區郵政路4巷8號","121.556806666667","24.9516916666667","6500600","新店區"
"231004","355-BY","2018/12/31 13:59:15","新北市新店區北新路二段160號","121.54302","24.9755966666667","6500600","新店區"
"231038","3712-VJ","2018/12/31 13:59:05","新北市新店區安華路30巷1號","121.519581666667","24.9592616666667","6500600","新店區"
"231037","4716-K9","2018/12/31 13:59:06","新北市新店區安康路三段355巷5號","121.484621666667","24.95063","6500600","新店區"
"231025","4715-K9","2018/12/31 13:59:17","新北市新店區中正路328巷32號","121.53785","24.9760866666667","6500600","新店區"
"231036","512-UM","2018/12/31 13:59:14","新北市新店區安祥路110巷27號","121.473521666667","24.9563916666667","6500600","新店區"
"231013","513-UM","2018/12/31 13:59:04","新北市新店區明德路66號","121.541536666667","24.9794933333333","6500600","新店區"
"231006","617-UM","2018/12/31 13:59:00","新北市新店區北宜路二段213號","121.55322","24.9532833333333","6500600","新店區"
"231030","619-UM","2018/12/31 13:59:04","新北市新店區安康路一段265號","121.524226666667","24.963345","6500600","新店區"
"231034","641-BX","2018/12/31 13:59:07","新北市新店區達觀路16號","121.503545","24.9402166666667","6500600","新店區"
"231035","719-UM","2018/12/31 13:57:21","新北市新店區安忠路57巷7弄1號","121.513271666667","24.9587116666667","6500600","新店區"
"231031","720-UM","2018/12/31 13:59:15","新北市新店區莒光路87巷15號","121.525648333333","24.9534233333333","6500600","新店區"
"231029","897-TW","2018/12/31 13:59:17","新北市新店區安康路二段125-1號","121.512363333333","24.9609466666667","6500600","新店區"
"231024","AKT-0513","2018/12/31 13:59:14","新北市新店區新生街13巷16號","121.53912","24.9659016666667","6500600","新店區"
"235030","003-UY","2018/12/31 13:59:20","新北市中和區中山路二段131巷5弄3號","121.502845","25.0028766666667","6500300","中和區"
"235028","005-UY","2018/12/31 13:59:01","新北市中和區泰和街44巷44號","121.498091666667","25.0013383333333","6500300","中和區"
"235027","006-UY","2018/12/31 13:59:06","新北市中和區中正路548號","121.487176666667","24.9943733333333","6500300","中和區"
"235020","096-UM","2018/12/31 13:59:15","新北市板橋區三民路二段204-4號","121.478965","25.0125","6500300","中和區"
"235003","097-UM","2018/12/31 13:59:02","新北市中和區秀朗路三段128巷1弄15號","121.523745","24.9915783333333","6500300","中和區"
"235004","150-BY","2018/12/31 13:59:20","新北市中和區保健路63號","121.509625","24.997285","6500300","中和區"
"235022","151-BY","2018/12/31 13:59:16","新北市中和區連城路534巷6號","121.475515","24.9917616666667","6500300","中和區"
"235019","183-VK","2018/12/31 13:59:10","新北市板橋區民族路276巷1弄20號","121.470388333333","25.0063283333333","6500300","中和區"
"235002","185-VK","2018/12/31 13:59:05","新北市中和區立人街24-5號","121.518828333333","24.9941583333333","6500300","中和區"
"235013","186-VK","2018/12/31 13:59:22","新北市中和區景安路167巷5號","121.505753333333","24.9946566666667","6500300","中和區"
"235031","255-BX","2018/12/31 13:59:11","新北市中和區新生街268號","121.48353","24.997175","6500300","中和區"
"235008","293-VK","2018/12/31 13:59:12","新北市中和區中興街161巷4弄1號","121.500571666667","24.9908516666667","6500300","中和區"
"235006","KEA-2878","2018/12/31 13:59:19","新北市中和區秀朗路三段50巷4弄2號","121.525753333333","24.9956666666667","6500300","中和區"
"247011","KEA-2869","2018/12/31 13:59:20","新北市蘆洲區民族路87號","121.479508333333","25.0861533333333","6501400","蘆洲區"
"247005","KED-0682","2018/12/31 13:59:06","新北市蘆洲區永安南路二段50號","121.466106666667","25.0776016666667","6501400","蘆洲區"
"235014","4979-A6","2018/12/31 13:59:06","新北市中和區忠孝街58巷30弄5號","121.512191666667","24.98264","6500300","中和區"
"235033","4980-A6","2018/12/31 13:59:06","新北市中和區景平路459巷2弄1號","121.500298333333","24.9963933333333","6500300","中和區"
"235034","558-UM","2018/12/31 13:59:13","新北市中和區中和路257號","121.505065","24.9997683333333","6500300","中和區"
"235009","565-BX","2018/12/31 13:59:10","新北市中和區景新街467巷20弄9號","121.514563333333","24.98764","6500300","中和區"
"235018","640-BX","2018/12/31 13:59:08","新北市中和區民享街29-1號","121.474006666667","25.004255","6500300","中和區"
"235024","647-TV","2018/12/31 13:59:08","新北市中和區民治街7巷2號","121.47509","25.004695","6500300","中和區"
"235011","732-UM","2018/12/31 13:59:17","新北市中和區興南路二段54巷2-2號","121.506245","24.9853183333333","6500300","中和區"
"235010","733-UM","2018/12/31 13:59:13","新北市中和區興南路二段3巷1號","121.508086666667","24.9864266666667","6500300","中和區"
"235035","783-BX","2018/12/31 13:59:03","新北市中和區建康路2-2號","121.485958333333","25.0001116666667","6500300","中和區"
"235026","800-TS","2018/12/31 13:59:04","新北市中和區橋安街18號","121.492751666667","25.004935","6500300","中和區"
"235021","801-TS","2018/12/31 13:59:19","新北市中和區民利街72號","121.478475","24.9983933333333","6500300","中和區"
"235005","802-TS","2018/12/31 13:59:06","新北市中和區永貞路239巷1號","121.512968333333","25.0035516666667","6500300","中和區"
"235016","805-TS","2018/12/31 13:59:00","新北市中和區興南路二段131-8號","121.504001666667","24.9809666666667","6500300","中和區"
"235012","896-TW","2018/12/31 13:59:14","新北市中和區華新街49號","121.50786","24.9844766666667","6500300","中和區"
"235017","900-TW","2018/12/31 13:59:19","新北市中和區和平路200巷35弄1號","121.465318333333","24.9946216666667","6500300","中和區"
"235029","911-UM","2018/12/31 13:59:05","新北市中和區勝利路35巷22號","121.499118333333","25.00697","6500300","中和區"
"235015","157-BY","2018/12/31 13:59:01","新北市中和區忠孝街13號","121.510028333333","24.9827883333333","6500300","中和區"
"235001","AAC-213","2018/12/31 13:59:03","新北市中和區自立路99巷9號","121.522495","24.994835","6500300","中和區"
"235023","AAC-215","2018/12/31 13:59:06","新北市中和區圓通路367巷20弄23號","121.491368333333","24.9883083333333","6500300","中和區"
"220013","072-UY","2018/12/31 13:59:04","新北市板橋區漢生東路330-1號","121.471768333333","25.0078716666667","6500100","板橋區"
"220034","073-UY","2018/12/31 13:59:18","新北市板橋區中正路236巷42號","121.457258333333","25.019235","6500100","板橋區"
"220105","075-UY","2018/12/31 13:59:01","新北市板橋區文化路二段311號","121.471835","25.029635","6500100","板橋區"
"220017","AAD-861","2018/12/31 13:59:18","新北市板橋區東興街2號","121.45875","25.005385","6500100","板橋區"
"247001","893-R6","2018/12/31 13:59:06","新北市蘆洲區永平街32巷67號","121.460068333333","25.093065","6501400","蘆洲區"
"247015","546-UM","2018/12/31 13:59:02","新北市蘆洲區光華路43號","121.468823333333","25.0830366666667","6501400","蘆洲區"
"247009","336-TH","2018/12/31 13:59:09","新北市蘆洲區集賢路224巷26號","121.481711666667","25.08731","6501400","蘆洲區"
"247019","057-VK","2018/12/31 13:59:19","新北市蘆洲區民族路422巷13號","121.473933333333","25.0924616666667","6501400","蘆洲區"
"247013","053-VK","2018/12/31 13:59:20","新北市蘆洲區中正路187號","121.468675","25.08564","6501400","蘆洲區"
"247017","007-UY","2018/12/31 13:59:21","新北市蘆洲區仁愛街35巷26號","121.475615","25.088945","6501400","蘆洲區"
"247003","002-UY","2018/12/31 13:59:05","新北市蘆洲區長榮路39號","121.463226666667","25.0826466666667","6501400","蘆洲區"
"247021","001-UY","2018/12/31 13:59:06","新北市蘆洲區中正路261號","121.467446666667","25.0874183333333","6501400","蘆洲區"
"235036","251-BX","2018/12/31 13:59:07","新北市中和區中山路二段122號","121.502603333333","25.0036666666667","6500300","中和區"
"253003","6232-TK","2018/12/31 13:59:12","新北市石門區阿里磅80號","121.584206666667","25.2673233333333","6502200","石門區"
"253004","6251-TK","2018/12/31 13:59:02","新北市石門區小坑34號","121.597715","25.2667183333333","6502200","石門區"
"253002","637-UY","2018/12/31 13:59:18","新北市石門區七股43號","121.552618333333","25.2604566666667","6502200","石門區"
"253001","KEC-0718","2018/12/31 13:59:13","新北市石門區八甲78號","121.529938333333","25.2631166666667","6502200","石門區"
"207002","749-BX","2018/12/31 13:59:10","新北市萬里區溪底里烏塗炭12-1號","121.634533333333","25.14976","6502800","萬里區"
"252005","073-UM","2018/12/31 13:59:15","新北市三芝區橫山里橫山33號","121.543543333333","25.2586966666667","6502100","三芝區"
"207001","662-BX","2018/12/31 13:59:17","新北市萬里區磺潭里清水2-2號","121.641225","25.202595","6502800","萬里區"
"236064","105-UM","2018/12/31 13:59:14","新北市土城區中華路二段2號","121.439571666667","24.9795866666667","6501300","土城區"
"236040","KED-0685","2018/12/31 13:59:09","新北市土城區城林路6巷80號","121.438496666667","24.9796833333333","6501300","土城區"
"236074","166-UM","2018/12/31 13:59:19","新北市土城區永寧路32巷10弄23號","121.428898333333","24.9610566666667","6501300","土城區"
"236029","253-BX","2018/12/31 13:59:05","新北市土城區城林路6巷80號","121.43853","24.979825","6501300","土城區"
"236024","269-VK","2018/12/31 13:59:14","新北市土城區順風路8號","121.44014","24.9762666666667","6501300","土城區"
"236012","270-VK","2018/12/31 13:59:08","新北市土城區城林路6巷80號","121.438598333333","24.9797666666667","6501300","土城區"
"236032","271-VK","2018/12/31 13:59:04","新北市土城區城林路6巷80號","121.438525","24.9798066666667","6501300","土城區"
"247007","KED-0683","2018/12/31 13:59:10","新北市三重區仁愛街747號","121.481228333333","25.080615","6501400","蘆洲區"
"236016","401-BY","2018/12/31 13:59:07","新北市土城區城林路6巷80號","121.4384","24.979825","6501300","土城區"
"236057","912-UM","2018/12/31 13:59:08","新北市土城區中央路三段244巷5號","121.427856666667","24.9642183333333","6501300","土城區"
"236045","913-UM","2018/12/31 13:59:03","新北市土城區中華路二段2號","121.439295","24.9796783333333","6501300","土城區"
"236060","915-UM","2018/12/31 13:59:04","新北市土城區城林路6巷80號","121.438461666667","24.9796783333333","6501300","土城區"
"236054","AAC-216","2018/12/31 13:59:13","新北市土城區城林路6巷80號","121.438615","24.97979","6501300","土城區"
"220027","145-BY","2018/12/31 13:59:07","新北市板橋區中正路101號","121.456345","25.0147966666667","6500100","板橋區"
"220028","200-UY","2018/12/31 13:59:17","新北市板橋區大觀路二段文和巷78號","121.444155","24.9983766666667","6500100","板橋區"
"220030","610-BX","2018/12/31 13:59:07","新北市板橋區滿平街101號","121.428418333333","24.988695","6500100","板橋區"
"220004","276-BY","2018/12/31 13:59:08","新北市板橋區信義路91-2號","121.4573","24.9937583333333","6500100","板橋區"
"220020","277-BY","2018/12/31 13:59:13","新北市板橋區大觀路三段50巷49號","121.432095","24.9958016666667","6500100","板橋區"
"220019","283-VK","2018/12/31 13:59:07","新北市板橋區忠孝路154巷49號","121.46444","25.00088","6500100","板橋區"
"220043","285-UM","2018/12/31 13:59:02","新北市板橋區光武街146號","121.465286666667","25.0302233333333","6500100","板橋區"
"220001","285-VK","2018/12/31 13:59:10","新北市板橋區永豐街119號","121.474433333333","25.0195883333333","6500100","板橋區"
"220031","286-VK","2018/12/31 13:59:17","新北市板橋區大觀路一段38巷182號","121.441511666667","25.0046866666667","6500100","板橋區"
"220029","287-VK","2018/12/31 13:58:49","新北市板橋區光華街19巷66號","121.45317","25.011985","6500100","板橋區"
"220039","288-VK","2018/12/31 13:59:04","新北市板橋區裕民街45巷3-1號","121.46157","25.0284383333333","6500100","板橋區"
"220009","293-UM","2018/12/31 13:59:16","新北市板橋區中山路二段273號","121.477681666667","25.0179766666667","6500100","板橋區"
"220010","295-UM","2018/12/31 13:57:01","新北市中和區員山路570號","121.47901","25.011465","6500100","板橋區"
"220032","296-UM","2018/12/31 13:58:48","新北市板橋區大觀路三段59巷17弄6-1號","121.435945","24.99552","6500100","板橋區"
"220023","303-R5","2018/12/31 13:59:19","新北市板橋區南雅西路二段237號","121.451491666667","25.0141833333333","6500100","板橋區"
"220041","307-R5","2018/12/31 13:58:46","新北市板橋區文化路二段225巷60弄66號","121.469085","25.0299","6500100","板橋區"
"220047","317-R6","2018/12/31 13:59:18","新北市板橋區民生路二段226巷21號","121.470933333333","25.022025","6500100","板橋區"
"220038","487-VK","2018/12/31 13:59:12","新北市板橋區文化路二段241號","121.471085","25.0286716666667","6500100","板橋區"
"220037","491-VK","2018/12/31 13:59:11","新北市板橋區莒光路165巷22號","121.474033333333","25.0245866666667","6500100","板橋區"
"220104","560-BX","2018/12/31 13:59:12","新北市板橋區中正路341巷6號","121.454621666667","25.020385","6500100","板橋區"
"220052","561-BX","2018/12/31 13:59:14","新北市板橋區介壽街51號","121.469008333333","25.0197","6500100","板橋區"
"220011","609-BX","2018/12/31 13:59:19","新北市板橋區三民路二段38號","121.479216666667","25.0178483333333","6500100","板橋區"
"220003","630-UY","2018/12/31 13:59:09","新北市板橋區中山路一段3-5號","121.459935","25.0079333333333","6500100","板橋區"
"220040","637-BX","2018/12/31 13:59:15","新北市板橋區大同街29號","121.477705","25.027205","6500100","板橋區"
"220005","686-BX","2018/12/31 13:59:05","新北市板橋區重慶路201號","121.46287","25.0016883333333","6500100","板橋區"
"220025","687-BX","2018/12/31 13:59:09","新北市板橋區金門街86-2號","121.433171666667","24.9927333333333","6500100","板橋區"
"220042","689-BX","2018/12/31 13:59:15","新北市板橋區民生路三段113號","121.46642","25.0254783333333","6500100","板橋區"
"220002","741-BX","2018/12/31 13:59:13","新北市板橋區重慶路93巷45號","121.463338333333","25.005955","6500100","板橋區"
"220051","KEA-2699","2018/12/31 13:59:15","新北市板橋區田單街2巷26號","121.482121666667","25.02804","6500100","板橋區"
"220014","829-TW","2018/12/31 13:59:10","新北市板橋區民享街116巷6號","121.478131666667","25.015625","6500100","板橋區"
"220016","830-TW","2018/12/31 13:59:17","新北市板橋區中山路二段465巷4號","121.48181","25.0208133333333","6500100","板橋區"
"220022","895-R6","2018/12/31 13:59:03","新北市板橋區南雅南路一段121號","121.45523","25.00469","6500100","板橋區"
"220021","985-R7","2018/12/31 13:59:17","新北市板橋區館前西路興義巷3號","121.455033333333","25.008335","6500100","板橋區"
"220046","AAC-210","2018/12/31 13:59:10","新北市板橋區幸福路60巷75號","121.459788333333","25.021815","6500100","板橋區"
"220012","AAC-253","2018/12/31 13:59:09","新北市板橋區板新路3號","121.475498333333","25.01243","6500100","板橋區"
"235032","KEA-2873","2018/12/31 13:58:53","新北市中和區板南路252號","121.496208333333","24.99549","6500300","中和區"
"235025","KEA-2875","2018/12/31 13:59:18","新北市中和區自治街1號","121.474808333333","25.0032316666667","6500300","中和區"
