"lineid","car","time","location","longitude","latitude","cityid","cityname"
"234062","337-UY","2018/12/31 14:39:22","新北市永和區永和路二段234號","121.515763333333","25.0144","6500400","永和區"
"234084","338-UY","2018/12/31 14:39:01","新北市永和區光復街21號","121.516476666667","25.0174016666667","6500400","永和區"
"234052","KEA-2590","2018/12/31 14:39:16","新北市永和區環河東路一段78號","121.519455","25.0164416666667","6500400","永和區"
"234012","KEA-2591","2018/12/31 14:39:18","新北市永和區保生路55號","121.50477","25.0106416666667","6500400","永和區"
"234048","863-TW","2018/12/31 14:39:12","新北市永和區新生路191號","121.506765","25.0143333333333","6500400","永和區"
"234025","9371-KE","2018/12/31 14:39:17","新北市永和區中正路101號","121.515055","24.99783","6500400","永和區"
"234011","9373-KE","2018/12/31 14:36:29","新北市永和區福和路1號","121.526466666667","25.0097033333333","6500400","永和區"
"248015","026-BX","2018/12/31 14:39:03","新北市五股區成泰路四段24-5號","121.453485","25.106825","6501500","五股區"
"248007","095-VK","2018/12/31 14:39:10","新北市五股區四維路153號","121.467615","25.0745633333333","6501500","五股區"
"248019","225-UY","2018/12/31 14:39:18","新北市五股區凌雲路三段94-1號","121.427665","25.1219316666667","6501500","五股區"
"248011","247-BX","2018/12/31 14:39:12","新北市五股區民義路一段112-10號","121.435331666667","25.0852516666667","6501500","五股區"
"248013","261-SL","2018/12/31 14:39:19","新北市五股區五福路58號","121.43343","25.0899483333333","6501500","五股區"
"248003","677-BX","2018/12/31 14:39:09","新北市五股區工商路108號","121.437321666667","25.08544","6501500","五股區"
"248001","678-BX","2018/12/31 14:39:04","新北市五股區成泰路三段314號","121.449116666667","25.09602","6501500","五股區"
"248009","682-TV","2018/12/31 14:39:19","新北市五股區登林路76-6號","121.430295","25.069415","6501500","五股區"
"234072","AAC-211","2018/12/31 14:39:19","新北市永和區環河東路二段54-1號","121.523368333333","25.011505","6500400","永和區"
"234001","AAC-295","2018/12/31 14:39:20","新北市永和區中正路618號","121.517093333333","25.007715","6500400","永和區"
"243002","267-VK","2018/12/31 14:39:23","新北市泰山區明志路二段136巷19號","121.426061666667","25.05187","6501600","泰山區"
"243005","AAD-798","2018/12/31 14:39:05","新北市泰山區應化街7號","121.423878333333","25.0437333333333","6501600","泰山區"
"243001","297-R6","2018/12/31 14:39:08","新北市泰山區泰林路二段164巷37號","121.434118333333","25.0613016666667","6501600","泰山區"
"243008","KEA-2801","2018/12/31 14:39:15","新北市泰山區明志路三段514號","121.420966666667","25.0308633333333","6501600","泰山區"
"243007","421-VK","2018/12/31 14:39:08","新北市泰山區明志路二段214巷9號","121.426761666667","25.048915","6501600","泰山區"
"243003","KEA-2215","2018/12/31 14:39:09","新北市泰山區明志路三段204巷10弄20號","121.422928333333","25.0388583333333","6501600","泰山區"
"243004","646-TV","2018/12/31 14:39:01","新北市泰山區楓江路46巷12號","121.435093333333","25.0621666666667","6501600","泰山區"
"243006","680-BX","2018/12/31 14:39:13","新北市泰山區泰林路二段150號","121.434106666667","25.0600583333333","6501600","泰山區"
"231002","002-UM","2018/12/31 14:39:03","新北市新店區中正路468號","121.534016666667","24.9794266666667","6500600","新店區"
"231027","0293-UT","2018/12/31 14:39:04","新北市新店區中興路二段55-1號","121.54633","24.9704816666667","6500600","新店區"
"231028","046-UY","2018/12/31 14:39:09","新北市新店區安成街17號","121.510296666667","24.9607716666667","6500600","新店區"
"231001","047-UY","2018/12/31 14:39:08","新北市新店區中正路35號","121.544988333333","24.969655","6500600","新店區"
"231005","106-UY","2018/12/31 14:39:16","新北市新店區建國路299號","121.537181666667","24.9870616666667","6500600","新店區"
"231019","108-UY","2018/12/31 14:39:14","新北市新店區桂山路61巷2號","121.565401666667","24.9012516666667","6500600","新店區"
"231011","187-VK","2018/12/31 14:39:03","新北市新店區中興路二段202-2號","121.548386666667","24.974445","6500600","新店區"
"231023","188-VK","2018/12/31 14:39:14","新北市新店區檳榔路29巷2號","121.541881666667","24.96362","6500600","新店區"
"231003","268-BY","2018/12/31 14:39:02","新北市新店區中興路一段283號","121.545408333333","24.9684616666667","6500600","新店區"
"231018","278-BY","2018/12/31 14:39:08","新北市新店區中央路131號","121.530428333333","24.9738166666667","6500600","新店區"
"231014","AAD-862","2018/12/31 14:39:04","新北市新店區北宜路三段221號","121.592388333333","24.9532283333333","6500600","新店區"
"231004","355-BY","2018/12/31 14:39:15","新北市新店區中正路282-11號","121.5385","24.973855","6500600","新店區"
"231038","3712-VJ","2018/12/31 14:39:05","新北市新店區安康路一段76巷34-1號","121.528555","24.9635","6500600","新店區"
"231037","4716-K9","2018/12/31 14:39:00","新北市新店區柴埕路116號","121.504098333333","24.95925","6500600","新店區"
"231036","512-UM","2018/12/31 14:39:14","新北市新店區安祥路109巷151弄1號","121.477866666667","24.9585183333333","6500600","新店區"
"231013","513-UM","2018/12/31 14:39:04","新北市新店區明德路38號","121.541465","24.977845","6500600","新店區"
"231006","617-UM","2018/12/31 14:39:20","新北市新店區北宜路二段269號","121.554658333333","24.9535583333333","6500600","新店區"
"231030","619-UM","2018/12/31 14:39:04","新北市新店區安民街74號","121.51659","24.9667916666667","6500600","新店區"
"231034","641-BX","2018/12/31 14:39:07","新北市新店區黎明路53巷1號","121.502313333333","24.9486866666667","6500600","新店區"
"231035","719-UM","2018/12/31 14:31:16","新北市新店區安民街42號","121.515868333333","24.96535","6500600","新店區"
"231029","897-TW","2018/12/31 14:39:17","新北市新店區安康路三段49號","121.492611666667","24.9525683333333","6500600","新店區"
"241018","268-UM","2018/12/31 14:39:16","新北市三重區重新路四段121號","121.484838333333","25.05213","6500200","三重區"
"235030","003-UY","2018/12/31 14:39:20","新北市中和區景新街162號","121.505753333333","24.9971016666667","6500300","中和區"
"235028","005-UY","2018/12/31 14:39:01","新北市中和區南山路125號","121.502488333333","24.9972316666667","6500300","中和區"
"235027","006-UY","2018/12/31 14:39:06","新北市中和區連城路184號","121.492966666667","24.9969233333333","6500300","中和區"
"235020","096-UM","2018/12/31 14:39:15","新北市中和區民富街37號","121.47632","25.0080583333333","6500300","中和區"
"235003","097-UM","2018/12/31 14:39:22","新北市中和區安平路152號","121.512443333333","24.9983016666667","6500300","中和區"
"235004","150-BY","2018/12/31 14:39:17","新北市中和區保健路46巷10號","121.50938","24.9965983333333","6500300","中和區"
"235022","151-BY","2018/12/31 14:39:16","新北市中和區員山路146巷2號","121.481456666667","24.9966816666667","6500300","中和區"
"235019","183-VK","2018/12/31 14:39:10","新北市中和區民生街15號","121.47132","25.005905","6500300","中和區"
"235002","185-VK","2018/12/31 14:39:05","新北市中和區自立路141巷1號","121.522298333333","24.9934666666667","6500300","中和區"
"235013","186-VK","2018/12/31 14:39:22","新北市中和區景平路568號","121.502048333333","24.9954166666667","6500300","中和區"
"235031","255-BX","2018/12/31 14:39:11","新北市新店區安康路二段320巷15弄18號","121.502508333333","24.9591783333333","6500300","中和區"
"235008","293-VK","2018/12/31 14:39:12","新北市中和區興南路一段109號","121.509343333333","24.988065","6500300","中和區"
"235006","KEA-2878","2018/12/31 14:39:05","新北市中和區保健路9號","121.507946666667","24.99843","6500300","中和區"
"247011","KEA-2869","2018/12/31 14:39:20","新北市蘆洲區集賢路224巷64弄1號","121.48085","25.0882233333333","6501400","蘆洲區"
"247005","KED-0682","2018/12/31 14:39:06","新北市蘆洲區長安街72號","121.462541666667","25.0800983333333","6501400","蘆洲區"
"235014","4979-A6","2018/12/31 14:39:06","新北市中和區員山路36巷13號","121.484431666667","24.9912783333333","6500300","中和區"
"235034","558-UM","2018/12/31 14:39:22","新北市中和區連城路171巷41弄1號","121.496","24.9965183333333","6500300","中和區"
"235018","640-BX","2018/12/31 14:39:12","新北市中和區國光街102巷11弄17號","121.470533333333","25.0016466666667","6500300","中和區"
"235024","647-TV","2018/12/31 14:39:08","新北市中和區中山路二段523巷10弄2號","121.481568333333","25.0045516666667","6500300","中和區"
"235011","732-UM","2018/12/31 14:39:17","新北市中和區南山路279號","121.504193333333","24.992375","6500300","中和區"
"235010","733-UM","2018/12/31 14:39:13","新北市中和區忠孝街104號","121.511978333333","24.9847883333333","6500300","中和區"
"235026","800-TS","2018/12/31 14:39:03","新北市中和區中山路二段321-1號","121.493583333333","25.0020816666667","6500300","中和區"
"235021","801-TS","2018/12/31 14:39:18","新北市中和區員山路186號","121.481365","25.0003066666667","6500300","中和區"
"235005","802-TS","2018/12/31 14:39:06","新北市中和區宜安路166號","121.50899","24.99904","6500300","中和區"
"235016","805-TS","2018/12/31 14:39:20","新北市中和區華新街143巷52號","121.506221666667","24.97974","6500300","中和區"
"235012","896-TW","2018/12/31 14:39:14","新北市中和區景新街487號","121.513768333333","24.9873816666667","6500300","中和區"
"235017","900-TW","2018/12/31 14:39:19","新北市中和區國光街215巷29號","121.467225","25.0005","6500300","中和區"
"235029","911-UM","2018/12/31 14:39:05","新北市中和區永和路56號","121.499316666667","25.0041","6500300","中和區"
"235015","157-BY","2018/12/31 14:39:01","新北市中和區中興街180巷52弄5號","121.498425","24.9882566666667","6500300","中和區"
"235001","AAC-213","2018/12/31 14:39:04","新北市中和區秀朗路三段22巷22號","121.525366666667","24.9961433333333","6500300","中和區"
"235023","AAC-215","2018/12/31 14:39:06","新北市中和區圓通路274-7號","121.492381666667","24.9908333333333","6500300","中和區"
"220013","072-UY","2018/12/31 14:39:21","新北市板橋區國泰街111巷1號","121.465991666667","25.00631","6500100","板橋區"
"220034","073-UY","2018/12/31 14:39:18","新北市板橋區國光路1號","121.456676666667","25.0173516666667","6500100","板橋區"
"220105","075-UY","2018/12/31 14:39:21","新北市板橋區文化路二段604號","121.477101666667","25.0350183333333","6500100","板橋區"
"220017","AAD-861","2018/12/31 14:39:18","新北市板橋區貴興路106巷2號","121.455401666667","25.0026566666667","6500100","板橋區"
"247001","893-R6","2018/12/31 14:39:06","新北市蘆洲區永樂街38巷40號","121.458423333333","25.0899783333333","6501400","蘆洲區"
"247015","546-UM","2018/12/31 14:39:02","新北市蘆洲區光華路73巷41號","121.468833333333","25.0815616666667","6501400","蘆洲區"
"247023","500-BY","2018/12/31 14:39:04","新北市蘆洲區正和街61號","121.468948333333","25.0810033333333","6501400","蘆洲區"
"247009","336-TH","2018/12/31 14:39:13","新北市蘆洲區信義路222巷27號","121.479833333333","25.0854366666667","6501400","蘆洲區"
"247019","057-VK","2018/12/31 14:39:18","新北市蘆洲區民權路180號","121.471816666667","25.0903833333333","6501400","蘆洲區"
"247013","053-VK","2018/12/31 14:39:20","新北市蘆洲區成功路135號","121.472298333333","25.0824233333333","6501400","蘆洲區"
"247003","002-UY","2018/12/31 14:39:20","新北市蘆洲區環堤大道22號","121.456846666667","25.0833816666667","6501400","蘆洲區"
"247021","001-UY","2018/12/31 14:39:15","新北市蘆洲區仁愛街212巷11號","121.46458","25.0935116666667","6501400","蘆洲區"
"235036","251-BX","2018/12/31 14:39:07","新北市中和區中和路74號","121.500805","25.0001983333333","6500300","中和區"
"253003","6232-TK","2018/12/31 14:39:12","新北市石門區尖子鹿32號","121.58318","25.2639466666667","6502200","石門區"
"253004","6251-TK","2018/12/31 14:39:20","新北市石門區茂林社區86號","121.592485","25.2696483333333","6502200","石門區"
"253002","637-UY","2018/12/31 14:39:18","新北市石門區楓林46號","121.543025","25.2787066666667","6502200","石門區"
"253001","KEC-0718","2018/12/31 14:39:13","新北市石門區崁子腳53-2號","121.537411666667","25.2816966666667","6502200","石門區"
"207002","749-BX","2018/12/31 14:39:10","新北市萬里區崁腳里崁腳路73號","121.647626666667","25.1596166666667","6502800","萬里區"
"207001","662-BX","2018/12/31 14:39:17","新北市萬里區磺潭里員潭路55-4號","121.643485","25.192235","6502800","萬里區"
"236064","105-UM","2018/12/31 14:39:14","新北市土城區永豐路169-2號","121.467546666667","24.9806066666667","6501300","土城區"
"236040","KED-0685","2018/12/31 14:39:09","新北市土城區裕民路55巷17號","121.449313333333","24.988835","6501300","土城區"
"236074","166-UM","2018/12/31 14:39:19","新北市土城區頂埔街95-1號","121.41796","24.9598033333333","6501300","土城區"
"236029","253-BX","2018/12/31 14:39:08","新北市土城區中華路二段187號","121.438573333333","24.97458","6501300","土城區"
"236024","269-VK","2018/12/31 14:39:17","新北市土城區忠義路49號","121.440483333333","24.9692066666667","6501300","土城區"
"236012","270-VK","2018/12/31 14:39:14","新北市土城區清水路205號","121.460166666667","24.9817933333333","6501300","土城區"
"236032","271-VK","2018/12/31 14:39:04","新北市土城區明德路一段313巷5弄1號","121.459641666667","24.976165","6501300","土城區"
"247007","KED-0683","2018/12/31 14:39:10","新北市蘆洲區成功路40號","121.47324","25.0795116666667","6501400","蘆洲區"
"236016","401-BY","2018/12/31 14:39:07","新北市土城區明德路一段51號","121.465231666667","24.9848083333333","6501300","土城區"
"236057","912-UM","2018/12/31 14:39:03","新北市土城區中央路三段149號","121.432215","24.9652933333333","6501300","土城區"
"236045","913-UM","2018/12/31 14:39:03","新北市土城區明德路一段97號","121.465613333333","24.9829233333333","6501300","土城區"
"236060","915-UM","2018/12/31 14:39:06","新北市土城區延壽路41號","121.470825","24.9915766666667","6501300","土城區"
"236054","AAC-216","2018/12/31 14:39:13","新北市土城區中華路一段85號","121.445011666667","24.9875216666667","6501300","土城區"
"221032","280-BY","2018/12/31 14:39:19","新北市汐止區民權街二段70號","121.61899","25.048255","6501100","汐止區"
"220027","145-BY","2018/12/31 14:39:07","新北市板橋區公館街110號","121.460876666667","25.01687","6500100","板橋區"
"220028","200-UY","2018/12/31 14:39:03","新北市板橋區大觀路二段37巷154號","121.44915","25.0011183333333","6500100","板橋區"
"220030","610-BX","2018/12/31 14:39:08","新北市板橋區金門街40號","121.433231666667","24.9934483333333","6500100","板橋區"
"220050","245-BX","2018/12/31 14:39:21","新北市板橋區縣民大道三段93巷23號","121.474736666667","25.0223833333333","6500100","板橋區"
"220004","276-BY","2018/12/31 14:39:08","新北市板橋區干城路18號","121.45964","24.993665","6500100","板橋區"
"220020","277-BY","2018/12/31 14:39:13","新北市板橋區金門街215巷2弄28號","121.43242","24.9889433333333","6500100","板橋區"
"220019","283-VK","2018/12/31 14:39:06","新北市板橋區信義路52-2號","121.457203333333","24.99418","6500100","板橋區"
"220043","285-UM","2018/12/31 14:39:21","新北市板橋區長江路二段165號","121.466588333333","25.0320066666667","6500100","板橋區"
"220001","285-VK","2018/12/31 14:39:10","新北市板橋區中山路二段148巷34號","121.477031666667","25.0160433333333","6500100","板橋區"
"220031","286-VK","2018/12/31 14:39:10","新北市板橋區大觀路二段174巷135-1號","121.441326666667","25.0023183333333","6500100","板橋區"
"220029","287-VK","2018/12/31 14:39:19","新北市板橋區大觀路一段29巷143號","121.449441666667","25.005495","6500100","板橋區"
"220039","288-VK","2018/12/31 14:39:14","新北市板橋區新海路431巷16號","121.457798333333","25.0268616666667","6500100","板橋區"
"220009","293-UM","2018/12/31 14:39:16","新北市板橋區中山路一段283巷2弄18號","121.470581666667","25.0148633333333","6500100","板橋區"
"220010","295-UM","2018/12/31 14:39:01","新北市板橋區三民路二段153巷2弄12-5號","121.479486666667","25.0143316666667","6500100","板橋區"
"220032","296-UM","2018/12/31 14:39:20","新北市板橋區溪崑二街124巷20號","121.425441666667","24.9884433333333","6500100","板橋區"
"220023","303-R5","2018/12/31 14:39:19","新北市板橋區中正路253巷40號","121.454098333333","25.0177416666667","6500100","板橋區"
"220041","307-R5","2018/12/31 14:38:45","新北市板橋區四維路259巷17號","121.462506666667","25.0277533333333","6500100","板橋區"
"220047","317-R6","2018/12/31 14:39:22","新北市板橋區四維路266巷5弄2-1號","121.46373","25.0287266666667","6500100","板橋區"
"220038","487-VK","2018/12/31 14:39:11","新北市板橋區龍泉街82巷11-4號","121.455833333333","25.0255433333333","6500100","板橋區"
"220037","491-VK","2018/12/31 14:39:14","新北市板橋區雙十路二段4-4號","121.477095","25.0257116666667","6500100","板橋區"
"220104","560-BX","2018/12/31 14:39:12","新北市板橋區金華街85巷42號","121.459143333333","25.0213433333333","6500100","板橋區"
"220052","561-BX","2018/12/31 14:39:21","新北市板橋區自由路43號","121.46559","25.023285","6500100","板橋區"
"220011","609-BX","2018/12/31 14:39:03","新北市板橋區三民路二段140號","121.47912","25.0158633333333","6500100","板橋區"
"220003","630-UY","2018/12/31 14:39:09","新北市板橋區重慶路278巷20-3號","121.4627","24.9996666666667","6500100","板橋區"
"220040","637-BX","2018/12/31 14:39:20","新北市板橋區懷德街191巷27號","121.480513333333","25.0300183333333","6500100","板橋區"
"220005","686-BX","2018/12/31 14:39:20","新北市板橋區和平路安樂巷25號","121.461573333333","24.9935966666667","6500100","板橋區"
"220025","687-BX","2018/12/31 14:39:09","新北市板橋區大觀路一段28巷20號","121.449975","25.00918","6500100","板橋區"
"220042","689-BX","2018/12/31 14:39:15","新北市板橋區長江路一段373號","121.461898333333","25.0306866666667","6500100","板橋區"
"220002","741-BX","2018/12/31 14:39:19","新北市板橋區忠孝路201巷1號","121.464893333333","25.0027016666667","6500100","板橋區"
"220051","KEA-2699","2018/12/31 14:39:15","新北市板橋區雙十路二段70巷14號","121.475613333333","25.0283533333333","6500100","板橋區"
"220014","829-TW","2018/12/31 14:39:10","新北市板橋區長安街259巷8號","121.473113333333","25.0107033333333","6500100","板橋區"
"220016","830-TW","2018/12/31 14:39:17","新北市板橋區中山路二段416巷50弄2號","121.483091666667","25.0196783333333","6500100","板橋區"
"220022","895-R6","2018/12/31 14:39:03","新北市板橋區縣民大道一段193號","121.458745","25.007955","6500100","板橋區"
"220021","985-R7","2018/12/31 14:39:17","新北市板橋區新生街62號","121.457101666667","25.0209216666667","6500100","板橋區"
"220046","AAC-210","2018/12/31 14:39:02","新北市板橋區文化路一段165號","121.462853333333","25.0159566666667","6500100","板橋區"
"220012","AAC-253","2018/12/31 14:39:09","新北市板橋區公園街34巷2號","121.4624","25.00838","6500100","板橋區"
"235032","KEA-2873","2018/12/31 14:38:53","新北市中和區莊敬路16巷1號","121.49995","25.0042516666667","6500300","中和區"
"235025","KEA-2875","2018/12/31 14:39:18","新北市中和區員山路226巷11弄2號","121.482113333333","25.000115","6500300","中和區"
