"lineid","car","time","location","longitude","latitude","cityid","cityname"
"234048","863-TW","2018/12/31 14:49:12","新北市永和區保安路77號","121.508608333333","25.014875","6500400","永和區"
"234025","9371-KE","2018/12/31 14:49:17","新北市永和區中和路501巷5號","121.510413333333","25.0026533333333","6500400","永和區"
"234011","9373-KE","2018/12/31 14:36:29","新北市永和區福和路1號","121.526466666667","25.0097033333333","6500400","永和區"
"248015","026-BX","2018/12/31 14:49:03","新北市五股區成泰路三段577巷80弄25號","121.449576666667","25.10456","6501500","五股區"
"248007","095-VK","2018/12/31 14:49:10","新北市五股區四維路140號","121.468253333333","25.0753","6501500","五股區"
"248019","225-UY","2018/12/31 14:49:18","新北市五股區凌雲路三段25-10號","121.431041666667","25.1130616666667","6501500","五股區"
"248011","247-BX","2018/12/31 14:49:12","新北市五股區六合街124號","121.430098333333","25.0907666666667","6501500","五股區"
"248013","261-SL","2018/12/31 14:49:19","新北市五股區五福路72號","121.433293333333","25.0901966666667","6501500","五股區"
"248003","677-BX","2018/12/31 14:49:09","新北市五股區成泰路一段219號","121.435285","25.0772266666667","6501500","五股區"
"248001","678-BX","2018/12/31 14:47:56","新北市五股區成泰路三段173號","121.445448333333","25.091905","6501500","五股區"
"248009","682-TV","2018/12/31 14:49:19","新北市五股區成泰路一段87號","121.434823333333","25.0688233333333","6501500","五股區"
"243002","267-VK","2018/12/31 14:49:03","新北市泰山區明志路二段254巷6號","121.426546666667","25.0476566666667","6501600","泰山區"
"243005","AAD-798","2018/12/31 14:49:05","新北市泰山區應化街13號","121.423535","25.0434083333333","6501600","泰山區"
"243001","297-R6","2018/12/31 14:49:05","新北市泰山區泰林路二段116巷3弄1號","121.435076666667","25.0595683333333","6501600","泰山區"
"243008","KEA-2801","2018/12/31 14:49:15","新北市泰山區貴陽街4-1號","121.421655","25.03323","6501600","泰山區"
"243007","421-VK","2018/12/31 14:49:08","新北市泰山區明志路一段303號","121.431576666667","25.0592383333333","6501600","泰山區"
"243003","KEA-2215","2018/12/31 14:49:09","新北市泰山區工專路6號","121.42402","25.0395016666667","6501600","泰山區"
"243004","646-TV","2018/12/31 14:49:12","新北市泰山區楓江路148號","121.440121666667","25.0654766666667","6501600","泰山區"
"243006","680-BX","2018/12/31 14:49:11","新北市泰山區明志路一段143號","121.433388333333","25.0629533333333","6501600","泰山區"
"231002","002-UM","2018/12/31 14:49:03","新北市新店區民權路96號","121.536676666667","24.9829466666667","6500600","新店區"
"231027","0293-UT","2018/12/31 14:49:04","新北市新店區中正路152號","121.541536666667","24.9716883333333","6500600","新店區"
"231028","046-UY","2018/12/31 14:49:08","新北市新店區安德街60巷13號","121.510616666667","24.9626266666667","6500600","新店區"
"231001","047-UY","2018/12/31 14:49:08","新北市新店區三民路139號","121.5343","24.9726733333333","6500600","新店區"
"231005","106-UY","2018/12/31 14:49:23","新北市新店區復興路2號","121.532476666667","24.9882283333333","6500600","新店區"
"231019","108-UY","2018/12/31 14:49:14","新北市新店區櫻花街55巷18號","121.548913333333","24.924955","6500600","新店區"
"231011","187-VK","2018/12/31 14:49:03","新北市新店區寶橋路162號","121.549053333333","24.9771383333333","6500600","新店區"
"231023","188-VK","2018/12/31 14:49:14","新北市新店區檳榔路109號","121.54436","24.9616216666667","6500600","新店區"
"231026","256-BX","2018/12/31 14:49:15","新北市新店區安康路一段299-1號","121.522223333333","24.9637333333333","6500600","新店區"
"231003","268-BY","2018/12/31 14:49:22","新北市新店區中興路二段186-1號","121.54771","24.9721916666667","6500600","新店區"
"231018","278-BY","2018/12/31 14:49:08","新北市新店區中央六街3號","121.530481666667","24.974545","6500600","新店區"
"231014","AAD-862","2018/12/31 14:49:04","新北市新店區銀河路54-5號","121.576441666667","24.9571783333333","6500600","新店區"
"231004","355-BY","2018/12/31 14:49:15","新北市新店區民族路103號","121.538543333333","24.9775183333333","6500600","新店區"
"231038","3712-VJ","2018/12/31 14:49:05","新北市新店區安華路28-1號","121.519698333333","24.9610116666667","6500600","新店區"
"231037","4716-K9","2018/12/31 14:49:20","新北市新店區柴埕路59號","121.51363","24.9649533333333","6500600","新店區"
"231025","4715-K9","2018/12/31 14:49:17","新北市新店區民族路108號","121.537955","24.9772816666667","6500600","新店區"
"231036","512-UM","2018/12/31 14:49:14","新北市新店區安祥路106巷339號","121.472703333333","24.9591866666667","6500600","新店區"
"231013","513-UM","2018/12/31 14:49:04","新北市新店區北新路二段97巷10弄2號","121.542203333333","24.9745083333333","6500600","新店區"
"231006","617-UM","2018/12/31 14:49:20","新北市新店區北宜路一段202號","121.543315","24.9531216666667","6500600","新店區"
"231030","619-UM","2018/12/31 14:49:04","新北市新店區安民街235號","121.517108333333","24.9718933333333","6500600","新店區"
"231034","641-BX","2018/12/31 14:49:07","新北市新店區車子路1-1號","121.504711666667","24.9576383333333","6500600","新店區"
"231039","718-UY","2018/12/31 14:49:04","新北市新店區安一路一段1-1號","121.519081666667","24.9610783333333","6500600","新店區"
"231035","719-UM","2018/12/31 14:48:36","新北市新店區安和路二段160號","121.51977","24.9736433333333","6500600","新店區"
"231029","897-TW","2018/12/31 14:49:17","新北市新店區錦秀路1-3號","121.479058333333","24.9454833333333","6500600","新店區"
"231024","AKT-0513","2018/12/31 14:49:14","新北市新店區力行路5號","121.53945","24.964595","6500600","新店區"
"235030","003-UY","2018/12/31 14:49:20","新北市中和區南工路22巷1號","121.505656666667","25.0007833333333","6500300","中和區"
"235028","005-UY","2018/12/31 14:49:21","新北市中和區南山路127巷18弄1號","121.503536666667","24.9974516666667","6500300","中和區"
"235020","096-UM","2018/12/31 14:49:15","新北市中和區中山路三段114巷46號","121.475825","25.00719","6500300","中和區"
"235003","097-UM","2018/12/31 14:49:22","新北市永和區中正路65號","121.514545","24.9966883333333","6500300","中和區"
"235004","150-BY","2018/12/31 14:49:17","新北市中和區保健路46巷10號","121.50938","24.9965983333333","6500300","中和區"
"235022","151-BY","2018/12/31 14:49:16","新北市中和區員山路148巷23弄2號","121.482186666667","24.9973683333333","6500300","中和區"
"235019","183-VK","2018/12/31 14:49:10","新北市中和區民德路23號","121.46882","25.0027316666667","6500300","中和區"
"235002","185-VK","2018/12/31 14:49:05","新北市中和區自強路10號","121.520298333333","24.9959116666667","6500300","中和區"
"235013","186-VK","2018/12/31 14:49:22","新北市中和區景平路385巷34號","121.501696666667","24.9944383333333","6500300","中和區"
"235031","255-BX","2018/12/31 14:49:11","新北市新店區車子路115-11號","121.508116666667","24.9545066666667","6500300","中和區"
"235008","293-VK","2018/12/31 14:49:12","新北市中和區中正路1號","121.503343333333","24.9934433333333","6500300","中和區"
"235006","KEA-2878","2018/12/31 14:49:05","新北市中和區景平路39號","121.521958333333","24.9906266666667","6500300","中和區"
"247011","KEA-2869","2018/12/31 14:49:20","新北市蘆洲區集賢路224巷46弄60-1號","121.480808333333","25.0880433333333","6501400","蘆洲區"
"235014","4979-A6","2018/12/31 14:49:06","新北市中和區中正路12號","121.502925","24.9935466666667","6500300","中和區"
"235034","558-UM","2018/12/31 14:49:02","新北市中和區連勝街41號","121.498176666667","24.9975716666667","6500300","中和區"
"235018","640-BX","2018/12/31 14:49:08","新北市中和區莒光路111號","121.472418333333","25.002505","6500300","中和區"
"235024","647-TV","2018/12/31 14:49:08","新北市中和區新生街30巷22號","121.482431666667","25.0038116666667","6500300","中和區"
"235011","732-UM","2018/12/31 14:49:17","新北市中和區和平街74號","121.50783","24.9911266666667","6500300","中和區"
"235010","733-UM","2018/12/31 14:49:13","新北市中和區仁愛街50號","121.51114","24.9880816666667","6500300","中和區"
"235021","801-TS","2018/12/31 14:49:18","新北市中和區員山路220號","121.481245","25.0009483333333","6500300","中和區"
"235016","805-TS","2018/12/31 14:49:00","新北市中和區興南路二段121號","121.505668333333","24.9841066666667","6500300","中和區"
"235012","896-TW","2018/12/31 14:49:14","新北市中和區忠孝街103號","121.512043333333","24.9862166666667","6500300","中和區"
"235017","900-TW","2018/12/31 14:49:19","新北市中和區國光街215巷6弄1號","121.466463333333","25.0015516666667","6500300","中和區"
"235029","911-UM","2018/12/31 14:49:05","新北市中和區福美路252號","121.498398333333","25.0051483333333","6500300","中和區"
"235015","157-BY","2018/12/31 14:49:21","新北市中和區復興路301巷16號","121.501451666667","24.989525","6500300","中和區"
"235001","AAC-213","2018/12/31 14:49:03","新北市中和區秀朗路三段173-2號","121.524486666667","24.99152","6500300","中和區"
"235023","AAC-215","2018/12/31 14:49:06","新北市中和區圓通路305巷27弄1號","121.49502","24.9891266666667","6500300","中和區"
"220013","072-UY","2018/12/31 14:45:24","新北市板橋區國泰街4號","121.469138333333","25.0068533333333","6500100","板橋區"
"220034","073-UY","2018/12/31 14:49:18","新北市板橋區館前西路160巷18號","121.452441666667","25.0090266666667","6500100","板橋區"
"220105","075-UY","2018/12/31 14:49:21","新北市板橋區民治街71巷27號","121.480578333333","25.0328233333333","6500100","板橋區"
"220017","AAD-861","2018/12/31 14:49:18","新北市板橋區貴興路101號","121.456326666667","25.00153","6500100","板橋區"
"247001","893-R6","2018/12/31 14:49:06","新北市蘆洲區長安街246巷47號","121.45892","25.0866166666667","6501400","蘆洲區"
"247015","546-UM","2018/12/31 14:49:02","新北市蘆洲區和平路172號","121.46641","25.081285","6501400","蘆洲區"
"247019","057-VK","2018/12/31 14:49:18","新北市蘆洲區民義街68巷5號","121.473563333333","25.0895283333333","6501400","蘆洲區"
"235036","251-BX","2018/12/31 14:49:07","新北市中和區連城路126號","121.49616","24.9994983333333","6500300","中和區"
"253003","6232-TK","2018/12/31 14:49:12","新北市石門區尖子鹿101-1號","121.57885","25.2922583333333","6502200","石門區"
"253004","6251-TK","2018/12/31 14:49:20","新北市石門區坪林5號","121.59161","25.27617","6502200","石門區"
"253002","637-UY","2018/12/31 14:49:18","新北市石門區崁子腳28-2號","121.54011","25.2889016666667","6502200","石門區"
"253001","KEC-0718","2018/12/31 14:49:13","新北市石門區崁子腳28-3號","121.537541666667","25.2887766666667","6502200","石門區"
"207002","749-BX","2018/12/31 14:49:10","新北市萬里區崁腳里崁腳路73號","121.64762","25.1595916666667","6502800","萬里區"
"207001","662-BX","2018/12/31 14:49:17","新北市萬里區雙興里豐稟路22-3號","121.641353333333","25.1831616666667","6502800","萬里區"
"236064","105-UM","2018/12/31 14:49:13","新北市土城區明德路二段99巷2弄2號","121.450335","24.981045","6501300","土城區"
"236040","KED-0685","2018/12/31 14:49:09","新北市土城區裕民路114巷13號","121.450615","24.9858866666667","6501300","土城區"
"236074","166-UM","2018/12/31 14:49:19","新北市土城區中央路四段67巷26號","121.417705","24.957395","6501300","土城區"
"236029","253-BX","2018/12/31 14:49:05","新北市土城區忠義路26巷10號","121.439863333333","24.9699116666667","6501300","土城區"
"236024","269-VK","2018/12/31 14:49:14","新北市土城區慶安街55號","121.440958333333","24.9730366666667","6501300","土城區"
"236012","270-VK","2018/12/31 14:49:08","新北市土城區金城路二段354巷20號","121.460781666667","24.9841416666667","6501300","土城區"
"236032","271-VK","2018/12/31 14:49:04","新北市土城區明德路一段160號","121.462996666667","24.97845","6501300","土城區"
"236016","401-BY","2018/12/31 14:49:07","新北市土城區延吉街253巷3號","121.467796666667","24.9846883333333","6501300","土城區"
"236057","912-UM","2018/12/31 14:49:03","新北市土城區明德路一段385-1號","121.452623333333","24.9799116666667","6501300","土城區"
"236045","913-UM","2018/12/31 14:49:03","新北市土城區廣福街68巷24號","121.458751666667","24.990425","6501300","土城區"
"236060","915-UM","2018/12/31 14:49:04","新北市土城區金城路三段207巷8弄12號","121.470311666667","24.990465","6501300","土城區"
"236054","AAC-216","2018/12/31 14:49:13","新北市土城區學府路一段202號","121.4526","24.985705","6501300","土城區"
"238012","303-VK","2018/12/31 14:49:19","新北市樹林區育德街78號","121.387511666667","24.968555","6500700","樹林區"
"221032","280-BY","2018/12/31 14:49:19","新北市汐止區大同路一段160-10號","121.634805","25.0539366666667","6501100","汐止區"
"220027","145-BY","2018/12/31 14:49:07","新北市板橋區復興街56-2號","121.458733333333","25.0175316666667","6500100","板橋區"
"220028","200-UY","2018/12/31 14:49:03","新北市板橋區大觀路二段37巷61號","121.44954","25.0025166666667","6500100","板橋區"
"220030","610-BX","2018/12/31 14:49:07","新北市板橋區大觀路三段160巷36號","121.429953333333","24.993985","6500100","板橋區"
"220050","245-BX","2018/12/31 14:43:23","新北市板橋區萬板路176號","121.475761666667","25.0231033333333","6500100","板橋區"
"220004","276-BY","2018/12/31 14:49:08","新北市板橋區信義路1巷10號","121.457451666667","24.9970783333333","6500100","板橋區"
"220020","277-BY","2018/12/31 14:49:13","新北市板橋區金門街215巷79號","121.434113333333","24.9893166666667","6500100","板橋區"
"220019","283-VK","2018/12/31 14:49:15","新北市板橋區和平路174巷47號","121.465566666667","24.9937166666667","6500100","板橋區"
"220043","285-UM","2018/12/31 14:49:18","新北市板橋區文德路36號","121.462325","25.0243166666667","6500100","板橋區"
"220001","285-VK","2018/12/31 14:49:10","新北市板橋區中山路二段60巷1弄28號","121.47522","25.0157966666667","6500100","板橋區"
"220031","286-VK","2018/12/31 14:49:10","新北市板橋區僑中二街8巷19號","121.446196666667","25.0112983333333","6500100","板橋區"
"220029","287-VK","2018/12/31 14:49:19","新北市板橋區大觀路一段29巷127號","121.450608333333","25.0053233333333","6500100","板橋區"
"220039","288-VK","2018/12/31 14:49:04","新北市板橋區龍泉街90巷3號","121.456065","25.0248983333333","6500100","板橋區"
"220009","293-UM","2018/12/31 14:49:16","新北市板橋區觀光街66號","121.469921666667","25.01671","6500100","板橋區"
"220010","295-UM","2018/12/31 14:49:21","新北市板橋區三民路二段81巷21號","121.480325","25.0167216666667","6500100","板橋區"
"220032","296-UM","2018/12/31 14:49:09","新北市板橋區滿平街2巷10號","121.425366666667","24.98946","6500100","板橋區"
"220023","303-R5","2018/12/31 14:49:19","新北市板橋區大勇街14號","121.454623333333","25.0172933333333","6500100","板橋區"
"220041","307-R5","2018/12/31 14:49:19","新北市板橋區裕民街128巷1號","121.458758333333","25.0277066666667","6500100","板橋區"
"220047","317-R6","2018/12/31 14:49:02","新北市板橋區四維路269巷16號","121.462425","25.0281216666667","6500100","板橋區"
"220038","487-VK","2018/12/31 14:49:12","新北市板橋區龍泉街55巷12號","121.457345","25.0255333333333","6500100","板橋區"
"220037","491-VK","2018/12/31 14:49:05","新北市板橋區文化路二段406號","121.473858333333","25.0314716666667","6500100","板橋區"
"220104","560-BX","2018/12/31 14:49:12","新北市板橋區金華街140號","121.459741666667","25.0209466666667","6500100","板橋區"
"220052","561-BX","2018/12/31 14:49:21","新北市板橋區英士路58巷10號","121.460686666667","25.02521","6500100","板橋區"
"220011","609-BX","2018/12/31 14:49:03","新北市板橋區三民路一段5巷23號","121.480153333333","25.0235733333333","6500100","板橋區"
"220003","630-UY","2018/12/31 14:49:10","新北市板橋區國慶路149巷1弄1-3號","121.461285","24.9965366666667","6500100","板橋區"
"220040","637-BX","2018/12/31 14:49:00","新北市板橋區懷德街127巷25號","121.479641666667","25.031355","6500100","板橋區"
"220005","686-BX","2018/12/31 14:49:05","新北市板橋區信義路58號","121.457211666667","24.9937983333333","6500100","板橋區"
"220025","687-BX","2018/12/31 14:49:09","新北市板橋區僑中二街102巷1號","121.446033333333","25.008085","6500100","板橋區"
"220042","689-BX","2018/12/31 14:49:19","新北市板橋區長江路二段238號","121.468863333333","25.0325633333333","6500100","板橋區"
"220002","741-BX","2018/12/31 14:49:13","新北市板橋區忠孝路忠義巷15弄26號","121.465735","25.0042016666667","6500100","板橋區"
"220051","KEA-2699","2018/12/31 14:49:15","新北市板橋區仁化街5號","121.474788333333","25.031645","6500100","板橋區"
"220014","829-TW","2018/12/31 14:49:10","新北市板橋區漢生東路193巷58號","121.472918333333","25.0118166666667","6500100","板橋區"
"220016","830-TW","2018/12/31 14:49:17","新北市板橋區光復街172巷8號","121.485458333333","25.01937","6500100","板橋區"
"220022","895-R6","2018/12/31 14:49:03","新北市板橋區民權路69號","121.461561666667","25.01159","6500100","板橋區"
"220021","985-R7","2018/12/31 14:49:17","新北市板橋區中正路302號","121.45493","25.0207633333333","6500100","板橋區"
"220046","AAC-210","2018/12/31 14:49:02","新北市板橋區光正街18巷2號","121.462775","25.017165","6500100","板橋區"
"220012","AAC-253","2018/12/31 14:49:09","新北市板橋區實踐路39號","121.463681666667","25.0069533333333","6500100","板橋區"
"235032","KEA-2873","2018/12/31 14:49:19","新北市中和區中山路二段250巷5號","121.497408333333","25.0030183333333","6500300","中和區"
