"lineid","car","time","location","longitude","latitude","cityid","cityname"
"243012","646-TV","2018/12/31 15:31:38","新北市泰山區黎明路25號","121.422286666667","25.0607116666667","6501600","泰山區"
"243014","680-BX","2018/12/31 15:39:10","新北市泰山區黎明路25號","121.422135","25.060685","6501600","泰山區"
"231028","046-UY","2018/12/31 15:39:08","新北市新店區僑義路37號","121.500538333333","24.950285","6500600","新店區"
"231005","106-UY","2018/12/31 15:39:22","新北市新店區中正路374號","121.53504","24.97635","6500600","新店區"
"231010","107-UY","2018/12/31 15:39:02","新北市新店區安一路一段1-1號","121.519705","24.9611966666667","6500600","新店區"
"231019","108-UY","2018/12/31 15:39:14","新北市新店區金興路36號","121.553066666667","24.9310683333333","6500600","新店區"
"231036","110-UY","2018/12/31 15:39:08","新北市新店區安祥路69巷89弄25號","121.482551666667","24.9605083333333","6500600","新店區"
"231011","187-VK","2018/12/31 15:39:03","新北市新店區寶元路一段109號","121.545768333333","24.983105","6500600","新店區"
"231023","188-VK","2018/12/31 15:39:14","新北市新店區大新街7巷16號","121.543773333333","24.9681116666667","6500600","新店區"
"231026","256-BX","2018/12/31 15:39:15","新北市新店區三民路75巷6-1號","121.535493333333","24.9708383333333","6500600","新店區"
"231003","268-BY","2018/12/31 15:39:21","新北市新店區寶高路120巷1號","121.554613333333","24.9760283333333","6500600","新店區"
"231018","278-BY","2018/12/31 15:39:08","新北市新店區溪園路87號","121.528881666667","24.9865383333333","6500600","新店區"
"231014","AAD-862","2018/12/31 15:39:04","新北市新店區北宜路一段206號","121.54352","24.9530783333333","6500600","新店區"
"231038","3712-VJ","2018/12/31 15:39:05","新北市新店區安康路二段109號","121.512575","24.96201","6500600","新店區"
"231037","4716-K9","2018/12/31 15:39:20","新北市新店區安興路112號","121.514653333333","24.9775033333333","6500600","新店區"
"231013","513-UM","2018/12/31 15:39:04","新北市新店區永業路81巷1弄10號","121.530073333333","24.9499383333333","6500600","新店區"
"231030","619-UM","2018/12/31 15:39:18","新北市新店區新和街80號","121.52042","24.985835","6500600","新店區"
"231034","641-BX","2018/12/31 15:39:07","新北市新店區玫瑰路58巷26號","121.494071666667","24.9467533333333","6500600","新店區"
"231039","718-UY","2018/12/31 15:39:04","新北市新店區寶元路二段14巷1號","121.545925","24.982555","6500600","新店區"
"231035","719-UM","2018/12/31 15:39:16","新北市新店區安興路83號","121.515206666667","24.9753566666667","6500600","新店區"
"231031","720-UM","2018/12/31 15:39:15","新北市新店區雙城路133號","121.497925","24.9387983333333","6500600","新店區"
"231029","897-TW","2018/12/31 15:39:17","新北市新店區安康路二段391號","121.494556666667","24.954235","6500600","新店區"
"241011","013-R5","2018/12/31 15:39:04","新北市三重區秀江街223號","121.497181666667","25.0716033333333","6500200","三重區"
"241015","062-VK","2018/12/31 15:39:16","新北市三重區重新路四段121號","121.485141666667","25.0520183333333","6500200","三重區"
"241017","063-VK","2018/12/31 15:39:13","新北市三重區重新路三段150號","121.490813333333","25.0592833333333","6500200","三重區"
"241024","065-VK","2018/12/31 15:39:12","新北市三重區重新路四段121號","121.484886666667","25.0525783333333","6500200","三重區"
"241003","091-VK","2018/12/31 15:39:11","新北市三重區重新路四段121號","121.485006666667","25.0520016666667","6500200","三重區"
"241016","266-UM","2018/12/31 15:39:05","新北市三重區重新路四段121號","121.48518","25.05214","6500200","三重區"
"241018","268-UM","2018/12/31 15:39:16","新北市三重區重新路四段121號","121.484811666667","25.0519933333333","6500200","三重區"
"241013","270-UM","2018/12/31 15:39:12","新北市三重區正義北路297號","121.494868333333","25.0707183333333","6500200","三重區"
"241025","271-UM","2018/12/31 15:39:19","新北市三重區重新路四段121號","121.484871666667","25.0524966666667","6500200","三重區"
"241007","398-BY","2018/12/31 15:39:19","新北市三重區重新路四段121號","121.48496","25.0519","6500200","三重區"
"241026","462-BY","2018/12/31 15:39:16","新北市三重區重新路四段121號","121.48509","25.0523083333333","6500200","三重區"
"241004","475-VK","2018/12/31 15:39:16","新北市三重區重新路四段121號","121.484945","25.0518133333333","6500200","三重區"
"241020","478-VK","2018/12/31 15:39:14","新北市三重區忠孝路三段84巷5號","121.48023","25.0644583333333","6500200","三重區"
"241014","543-UM","2018/12/31 15:39:05","新北市三重區重新路四段121號","121.485095","25.052115","6500200","三重區"
"241019","KEA-2593","2018/12/31 15:39:04","新北市三重區自強路三段19號","121.486993333333","25.0722916666667","6500200","三重區"
"241006","AAD-863","2018/12/31 15:39:17","新北市三重區重新路四段121號","121.484675","25.052075","6500200","三重區"
"241009","743-BX","2018/12/31 15:39:23","新北市三重區重新路四段121號","121.485031666667","25.052235","6500200","三重區"
"241012","941-UM","2018/12/31 15:39:14","新北市三重區自強路一段66號","121.49713","25.06671","6500200","三重區"
"241029","942-UM","2018/12/31 15:39:18","新北市三重區中正南路252巷5號","121.49341","25.0526683333333","6500200","三重區"
"247011","KEA-2869","2018/12/31 15:39:20","新北市林口區汕頭32號","121.366656666667","25.1349016666667","6501400","蘆洲區"
"235014","4979-A6","2018/12/31 15:39:06","新北市中和區中正路220號","121.496478333333","24.9940033333333","6500300","中和區"
"235033","4980-A6","2018/12/31 15:39:06","新北市中和區新生街187號","121.483696666667","25.0004183333333","6500300","中和區"
"235034","558-UM","2018/12/31 15:39:02","新北市八里區荖阡坑路24-2號","121.399455","25.1332383333333","6500300","中和區"
"235026","800-TS","2018/12/31 15:39:03","新北市中和區立業路83巷25號","121.491405","25.006435","6500300","中和區"
"235023","AAC-215","2018/12/31 15:39:06","新北市中和區員山路28-11號","121.481148333333","24.98632","6500300","中和區"
"227001","642-TC","2018/12/31 15:39:02","新北市雙溪區牡丹里中正路63號","121.865771666667","25.0431383333333","6502500","雙溪區"
"253004","6251-TK","2018/12/31 15:11:38","新北市石門區小坑9號","121.594476666667","25.2891366666667","6502200","石門區"
"236064","105-UM","2018/12/31 15:39:13","新北市土城區中央路三段38號","121.43841","24.9687916666667","6501300","土城區"
"236040","KED-0685","2018/12/31 15:39:09","新北市土城區學享街12號","121.451355","24.9873483333333","6501300","土城區"
"236074","166-UM","2018/12/31 15:39:19","新北市土城區福安街55巷5號","121.418738333333","24.9641","6501300","土城區"
"236029","253-BX","2018/12/31 15:39:05","新北市土城區裕民路32巷7號","121.447635","24.9880333333333","6501300","土城區"
"236024","269-VK","2018/12/31 15:39:14","新北市土城區裕生路102巷28號","121.446076666667","24.984925","6501300","土城區"
"236012","270-VK","2018/12/31 15:39:20","新北市土城區廣明街92號","121.454798333333","24.9942666666667","6501300","土城區"
"236016","401-BY","2018/12/31 15:39:07","新北市土城區延吉街111巷12弄8號","121.471718333333","24.9856916666667","6501300","土城區"
"236057","912-UM","2018/12/31 15:39:23","新北市土城區中央路二段20-2號","121.442828333333","24.9802933333333","6501300","土城區"
"236045","913-UM","2018/12/31 15:39:03","新北市土城區金城路二段396號","121.463878333333","24.98581","6501300","土城區"
"236060","915-UM","2018/12/31 15:39:04","新北市土城區延和路18巷10號","121.464458333333","24.9880133333333","6501300","土城區"
"236054","AAC-216","2018/12/31 15:39:19","新北市土城區延和路252號","121.469853333333","24.989615","6501300","土城區"
"238002","755-BX","2018/12/31 15:39:11","新北市樹林區復興路48號","121.422143333333","24.9938916666667","6500700","樹林區"
"238010","601-UM","2018/12/31 15:39:16","新北市樹林區龍興街13巷36號","121.40387","25.016555","6500700","樹林區"
"238006","599-UM","2018/12/31 15:39:08","新北市樹林區八德街11號","121.419951666667","24.974645","6500700","樹林區"
"238005","571-TV","2018/12/31 15:39:08","新北市樹林區中華路135號","121.4217","24.9823633333333","6500700","樹林區"
"238011","5061-A6","2018/12/31 15:39:15","新北市樹林區中山路二段191號","121.40436","24.977485","6500700","樹林區"
"238009","KEA-2213","2018/12/31 15:39:14","新北市樹林區中華路187巷2號","121.420415","24.9816233333333","6500700","樹林區"
"238008","KEA-2539","2018/12/31 15:39:18","新北市樹林區柑園街二段17號","121.3879","24.9557016666667","6500700","樹林區"
"238012","303-VK","2018/12/31 15:39:19","新北市樹林區中山路一段67號","121.423683333333","24.99184","6500700","樹林區"
"238001","282-BY","2018/12/31 15:39:14","新北市樹林區潭興街91巷6號","121.424401666667","24.9987216666667","6500700","樹林區"
"238007","268-VK","2018/12/31 15:39:04","新北市樹林區三俊街219號","121.421288333333","25.0150183333333","6500700","樹林區"
"238013","172-UY","2018/12/31 15:39:20","新北市樹林區中洲街30巷6弄10號","121.397285","24.971225","6500700","樹林區"
"220104","560-BX","2018/12/31 15:39:11","新北市樹林區中山路三段210-2號","121.380621666667","24.9676233333333","6500100","板橋區"
"220021","985-R7","2018/12/31 15:39:17","新北市林口區太平里180號","121.366398333333","25.1343683333333","6500100","板橋區"
"220012","AAC-253","2018/12/31 15:39:09","新北市板橋區大觀路二段265巷76弄37號","121.44095","24.9967433333333","6500100","板橋區"
