"lineid","car","time","location","longitude","latitude","cityid","cityname"
"243012","646-TV","2018/12/31 15:31:38","新北市泰山區黎明路25號","121.422286666667","25.0607116666667","6501600","泰山區"
"243014","680-BX","2018/12/31 15:49:10","新北市泰山區黎明路25號","121.422031666667","25.0606333333333","6501600","泰山區"
"231010","107-UY","2018/12/31 15:49:22","新北市新店區安一路一段1-1號","121.5198","24.9612483333333","6500600","新店區"
"231019","108-UY","2018/12/31 15:49:14","新北市新店區永興路10號","121.545448333333","24.9399916666667","6500600","新店區"
"231011","187-VK","2018/12/31 15:49:17","新北市新店區中興路三段160號","121.54453","24.9807133333333","6500600","新店區"
"231023","188-VK","2018/12/31 15:49:14","新北市新店區環河路14-3號","121.537855","24.9615966666667","6500600","新店區"
"231026","256-BX","2018/12/31 15:49:15","新北市新店區中正路379號","121.534725","24.9768366666667","6500600","新店區"
"231003","268-BY","2018/12/31 15:49:21","新北市新店區寶興路60巷4號","121.549845","24.9718533333333","6500600","新店區"
"231018","278-BY","2018/12/31 15:49:07","新北市新店區中正路663巷7弄15號","121.532921666667","24.9900483333333","6500600","新店區"
"231014","AAD-862","2018/12/31 15:49:03","新北市新店區中華路83巷2弄5號","121.538778333333","24.9684383333333","6500600","新店區"
"231038","3712-VJ","2018/12/31 15:49:05","新北市新店區安康路二段226號","121.509528333333","24.9592533333333","6500600","新店區"
"231037","4716-K9","2018/12/31 15:49:20","新北市新店區安興路112號","121.514645","24.9775466666667","6500600","新店區"
"231013","513-UM","2018/12/31 15:49:04","新北市新店區永業路81巷1弄1號","121.529636666667","24.949445","6500600","新店區"
"231030","619-UM","2018/12/31 15:49:06","新北市新店區新和街116巷1號","121.52122","24.98639","6500600","新店區"
"231034","641-BX","2018/12/31 15:49:07","新北市新店區玫瑰路57巷26號","121.49658","24.9463066666667","6500600","新店區"
"231039","718-UY","2018/12/31 15:49:04","新北市新店區寶中路69號","121.547455","24.980495","6500600","新店區"
"231035","719-UM","2018/12/31 15:49:16","新北市新店區安興路83-3號","121.515203333333","24.975445","6500600","新店區"
"231031","720-UM","2018/12/31 15:49:15","新北市新店區雙城路60巷13號","121.491963333333","24.9476283333333","6500600","新店區"
"231029","897-TW","2018/12/31 15:49:17","新北市新店區薏仁坑路自強巷1號","121.496925","24.9580533333333","6500600","新店區"
"241011","013-R5","2018/12/31 15:49:04","新北市三重區文化北路141號","121.49764","25.0692666666667","6500200","三重區"
"241028","022-UY","2018/12/31 15:49:12","新北市三重區中正南路150號","121.494145","25.057345","6500200","三重區"
"241008","059-VK","2018/12/31 15:49:21","新北市三重區重新路四段121號","121.484918333333","25.05188","6500200","三重區"
"241022","060-VK","2018/12/31 15:49:05","新北市三重區新北大道一段250號","121.480011666667","25.0609833333333","6500200","三重區"
"241015","062-VK","2018/12/31 15:49:16","新北市三重區重新路四段121號","121.485143333333","25.05202","6500200","三重區"
"241017","063-VK","2018/12/31 15:49:13","新北市三重區明志街28號","121.491755","25.0639466666667","6500200","三重區"
"241024","065-VK","2018/12/31 15:49:12","新北市三重區忠孝路三段52號","121.48077","25.0658166666667","6500200","三重區"
"241003","091-VK","2018/12/31 15:49:11","新北市三重區長元街105號","121.504696666667","25.0669616666667","6500200","三重區"
"241005","262-UM","2018/12/31 15:49:11","新北市三重區泉州街84巷18號","121.495816666667","25.0543116666667","6500200","三重區"
"241016","266-UM","2018/12/31 15:49:05","新北市三重區重新路四段121號","121.485125","25.0521016666667","6500200","三重區"
"241018","268-UM","2018/12/31 15:49:16","新北市三重區大仁街8號","121.491446666667","25.0631483333333","6500200","三重區"
"241013","270-UM","2018/12/31 15:49:12","新北市三重區三和路三段5號","121.49674","25.0705216666667","6500200","三重區"
"241025","271-UM","2018/12/31 15:49:19","新北市三重區忠孝路三段99巷4號","121.480126666667","25.0642","6500200","三重區"
"241007","398-BY","2018/12/31 15:49:19","新北市三重區忠孝路三段99巷4號","121.480123333333","25.0640316666667","6500200","三重區"
"241026","462-BY","2018/12/31 15:49:16","新北市三重區重新路四段146號","121.486311666667","25.0563383333333","6500200","三重區"
"241004","475-VK","2018/12/31 15:49:16","新北市三重區重新路四段121號","121.48499","25.0518533333333","6500200","三重區"
"241020","478-VK","2018/12/31 15:49:14","新北市三重區忠孝路二段61號","121.485093333333","25.0705433333333","6500200","三重區"
"241014","543-UM","2018/12/31 15:49:09","新北市三重區重新路四段121號","121.485066666667","25.0520816666667","6500200","三重區"
"241001","547-UM","2018/12/31 15:49:02","新北市三重區重新路四段121號","121.484608333333","25.0523283333333","6500200","三重區"
"241019","KEA-2593","2018/12/31 15:49:04","新北市三重區自強路二段74巷19號","121.488038333333","25.0699366666667","6500200","三重區"
"241006","AAD-863","2018/12/31 15:49:17","新北市三重區重新路四段121號","121.484665","25.0519883333333","6500200","三重區"
"241009","743-BX","2018/12/31 15:49:03","新北市三重區重新路四段121號","121.485048333333","25.0520633333333","6500200","三重區"
"241012","941-UM","2018/12/31 15:49:14","新北市三重區文化北路69號","121.498523333333","25.0666533333333","6500200","三重區"
"241029","942-UM","2018/12/31 15:49:18","新北市三重區大同南路246號","121.496948333333","25.05574","6500200","三重區"
"247011","KEA-2869","2018/12/31 15:49:20","新北市八里區下罟子1-5號","121.38898","25.1422633333333","6501400","蘆洲區"
"235033","4980-A6","2018/12/31 15:49:06","新北市中和區連城路308號","121.48368","24.9962316666667","6500300","中和區"
"235034","558-UM","2018/12/31 15:49:22","新北市八里區中山路三段409號","121.368761666667","25.1343383333333","6500300","中和區"
"235026","800-TS","2018/12/31 15:49:23","新北市中和區立業路61巷3弄18號","121.493258333333","25.00642","6500300","中和區"
"235023","AAC-215","2018/12/31 15:49:06","新北市中和區員山路49-7號","121.480796666667","24.9914333333333","6500300","中和區"
"227001","642-TC","2018/12/31 15:49:22","新北市雙溪區平林里外平林36號","121.853613333333","25.0365033333333","6502500","雙溪區"
"236064","105-UM","2018/12/31 15:49:13","新北市土城區金安街8號","121.421205","24.9643016666667","6501300","土城區"
"236040","KED-0685","2018/12/31 15:49:09","新北市土城區城林路6巷80號","121.438463333333","24.9800616666667","6501300","土城區"
"236074","166-UM","2018/12/31 15:49:19","新北市土城區福安街45號","121.418913333333","24.96462","6501300","土城區"
"236024","269-VK","2018/12/31 15:49:16","新北市土城區裕生路88號","121.447108333333","24.9851316666667","6501300","土城區"
"236012","270-VK","2018/12/31 15:49:08","新北市土城區廣明街86號","121.45481","24.9941616666667","6501300","土城區"
"247008","KED-0683","2018/12/31 15:47:55","新北市五股區中興路三段2巷10號","121.44894","25.0810666666667","6501400","蘆洲區"
"236057","912-UM","2018/12/31 15:49:02","新北市土城區中央路二段249號","121.440031666667","24.97162","6501300","土城區"
"236045","913-UM","2018/12/31 15:49:03","新北市土城區金城路三段67號","121.466143333333","24.9869416666667","6501300","土城區"
"236054","AAC-216","2018/12/31 15:49:13","新北市土城區學府路一段61號","121.457265","24.9883033333333","6501300","土城區"
"238002","755-BX","2018/12/31 15:49:09","新北市樹林區樹德街136巷11號","121.419593333333","24.9934016666667","6500700","樹林區"
"238010","601-UM","2018/12/31 15:49:20","新北市樹林區龍興街31巷2號","121.40327","25.0158166666667","6500700","樹林區"
"238006","599-UM","2018/12/31 15:48:48","新北市樹林區水源街74號","121.425865","24.9806066666667","6500700","樹林區"
"238005","571-TV","2018/12/31 15:49:14","新北市樹林區鎮前街8號","121.42645","24.993305","6500700","樹林區"
"238011","5061-A6","2018/12/31 15:49:14","新北市樹林區山佳街57-1號","121.392925","24.97243","6500700","樹林區"
"238009","KEA-2213","2018/12/31 15:49:14","新北市樹林區太順街62巷3弄12號","121.41716","24.979525","6500700","樹林區"
"238008","KEA-2539","2018/12/31 15:49:08","新北市樹林區柑園街二段68號","121.386783333333","24.9551583333333","6500700","樹林區"
"238012","303-VK","2018/12/31 15:49:19","新北市樹林區保安街一段112號","121.423725","24.994875","6500700","樹林區"
"238001","282-BY","2018/12/31 15:49:14","新北市樹林區千歲街26-3號","121.42546","24.9961866666667","6500700","樹林區"
"238007","268-VK","2018/12/31 15:49:19","新北市樹林區俊興街256號","121.418208333333","25.0163616666667","6500700","樹林區"
"238013","172-UY","2018/12/31 15:49:20","新北市樹林區佳園路一段50號","121.39283","24.9706266666667","6500700","樹林區"
"220020","277-BY","2018/12/31 15:49:14","新北市板橋區金門街107號","121.433203333333","24.9920833333333","6500100","板橋區"
"220104","560-BX","2018/12/31 15:49:12","新北市土城區福安街80-8號","121.417531666667","24.9651916666667","6500100","板橋區"
"220012","AAC-253","2018/12/31 15:49:09","新北市樹林區八德街800號","121.395321666667","24.96881","6500100","板橋區"
