"lineid","car","time","location","longitude","latitude","cityid","cityname"
"249005","172-UM","2018/12/31 17:09:22","新北市八里區華富山6-8號","121.420436666667","25.1429016666667","6502300","八里區"
"249001","173-UM","2018/12/31 17:09:16","新北市八里區中華路二段201-1號","121.405281666667","25.1494283333333","6502300","八里區"
"249004","303-UY","2018/12/31 17:09:22","新北市八里區忠孝路181號","121.422916666667","25.16074","6502300","八里區"
"249002","305-UY","2018/12/31 17:09:10","新北市八里區米倉14-2號","121.439563333333","25.1499466666667","6502300","八里區"
"249003","593-UM","2018/12/31 17:09:24","新北市八里區中山路二段391號","121.398266666667","25.1468566666667","6502300","八里區"
"244007","080-UY","2018/12/31 17:09:16","新北市林口區菁埔路15號","121.378121666667","25.0963133333333","6501700","林口區"
"244019","402-UM","2018/12/31 17:09:17","新北市林口區四維路156-1號","121.38065","25.075455","6501700","林口區"
"244023","483-VK","2018/12/31 17:09:11","新北市林口區仁愛路一段665號","121.387776666667","25.0764183333333","6501700","林口區"
"244017","485-VK","2018/12/31 17:09:05","新北市林口區粉寮69號","121.405145","25.0908533333333","6501700","林口區"
"244025","837-TS","2018/12/31 17:09:17","新北市林口區中山路50號","121.395191666667","25.0784133333333","6501700","林口區"
"244021","838-TS","2018/12/31 17:09:08","新北市林口區粉寮路二段88巷11號","121.40524","25.088515","6501700","林口區"
"231010","107-UY","2018/12/31 17:09:22","新北市新店區直潭路92號","121.530936666667","24.93766","6500600","新店區"
"241011","013-R5","2018/12/31 17:09:04","新北市三重區仁愛街44號","121.496298333333","25.0721283333333","6500200","三重區"
"241028","022-UY","2018/12/31 17:09:12","新北市三重區重新路三段110號","121.492266666667","25.06032","6500200","三重區"
"241008","059-VK","2018/12/31 17:09:21","新北市三重區力行路二段136巷21號","121.481398333333","25.0755383333333","6500200","三重區"
"241022","060-VK","2018/12/31 17:09:25","新北市三重區三民街112號","121.485011666667","25.0634966666667","6500200","三重區"
"241015","062-VK","2018/12/31 17:09:16","新北市三重區長生街12號","121.4992","25.066355","6500200","三重區"
"241017","063-VK","2018/12/31 17:09:13","新北市三重區明志街27號","121.492135","25.0641483333333","6500200","三重區"
"241024","065-VK","2018/12/31 17:09:12","新北市三重區中正北路171號","121.478103333333","25.0693883333333","6500200","三重區"
"241002","090-VK","2018/12/31 17:09:20","新北市三重區五華街35巷45號","121.49555","25.0814933333333","6500200","三重區"
"241003","091-VK","2018/12/31 17:09:11","新北市三重區富福街112號","121.493486666667","25.0856383333333","6500200","三重區"
"251014","742-BX","2018/12/31 17:09:08","新北市淡水區八里堆7-6號","121.460636666667","25.2246483333333","6501000","淡水區"
"241005","262-UM","2018/12/31 17:09:11","新北市三重區仁愛街687號","121.483403333333","25.0809666666667","6500200","三重區"
"241016","266-UM","2018/12/31 17:09:05","新北市三重區大同北路131-4號","121.493163333333","25.064175","6500200","三重區"
"241018","268-UM","2018/12/31 17:09:16","新北市三重區大智街89號","121.492005","25.0691066666667","6500200","三重區"
"241032","269-UM","2018/12/31 17:09:07","新北市三重區三陽路13巷1號","121.48611","25.05951","6500200","三重區"
"241013","270-UM","2018/12/31 17:09:12","新北市三重區仁昌街30號","121.496605","25.07416","6500200","三重區"
"241025","271-UM","2018/12/31 17:09:19","新北市三重區中正北路560巷49號","121.470906666667","25.0700483333333","6500200","三重區"
"241007","398-BY","2018/12/31 17:09:19","新北市三重區三和路四段163巷79號","121.486008333333","25.079405","6500200","三重區"
"241024","KEA-2210","2018/12/31 17:09:20","新北市三重區中正北路294號","121.480223333333","25.0688766666667","6500200","三重區"
"241026","462-BY","2018/12/31 17:09:16","新北市三重區重新路一段116號","121.500613333333","25.063105","6500200","三重區"
"241004","475-VK","2018/12/31 17:09:16","新北市三重區五華街92巷5號","121.492416666667","25.0821116666667","6500200","三重區"
"241020","478-VK","2018/12/31 17:09:14","新北市三重區後竹圍街157號","121.486335","25.0719733333333","6500200","三重區"
"241030","480-VK","2018/12/31 17:09:04","新北市三重區集成路3號","121.488415","25.0518066666667","6500200","三重區"
"241014","543-UM","2018/12/31 17:09:09","新北市三重區長壽街120巷113號","121.501793333333","25.0714866666667","6500200","三重區"
"241001","547-UM","2018/12/31 17:09:02","新北市三重區仁愛街255巷2號","121.493505","25.0785216666667","6500200","三重區"
"241019","KEA-2593","2018/12/31 17:09:03","新北市三重區自強路二段74巷93號","121.4873","25.0695133333333","6500200","三重區"
"241006","AAD-863","2018/12/31 17:09:23","新北市三重區三和路四段274巷18號","121.4847","25.07686","6500200","三重區"
"241009","743-BX","2018/12/31 17:09:23","新北市三重區三和路四段221號","121.481505","25.0796383333333","6500200","三重區"
"241023","887-TS","2018/12/31 17:09:17","新北市三重區忠孝路三段84巷1號","121.480266666667","25.06464","6500200","三重區"
"241012","941-UM","2018/12/31 17:09:14","新北市三重區仁壽街198號","121.500845","25.07477","6500200","三重區"
"241029","942-UM","2018/12/31 17:09:18","新北市三重區重安街32號","121.490581666667","25.0578483333333","6500200","三重區"
"247012","KEA-2869","2018/12/31 17:09:16","新北市蘆洲區信義路294號","121.477871666667","25.0875616666667","6501400","蘆洲區"
"247006","KED-0682","2018/12/31 17:09:18","新北市蘆洲區長安街102巷47號","121.462396666667","25.08181","6501400","蘆洲區"
"235046","733-UM","2018/12/31 16:41:51","新北市中和區員山路36巷13號","121.484068333333","24.990855","6500300","中和區"
"235065","911-UM","2018/12/31 17:09:04","新北市中和區員山路36巷16-2號","121.485231666667","24.9918383333333","6500300","中和區"
"247002","893-R6","2018/12/31 17:09:17","新北市蘆洲區長安街389號","121.457305","25.08839","6501400","蘆洲區"
"247016","546-UM","2018/12/31 17:09:13","新北市蘆洲區光華路73巷27-1號","121.468626666667","25.082165","6501400","蘆洲區"
"247024","500-BY","2018/12/31 17:09:15","新北市蘆洲區長興路71號","121.462515","25.0845583333333","6501400","蘆洲區"
"247010","336-TH","2018/12/31 17:09:07","新北市蘆洲區民族路5號","121.475566666667","25.0839","6501400","蘆洲區"
"247020","057-VK","2018/12/31 17:09:15","新北市蘆洲區仁愛街62巷8號","121.471856666667","25.0940883333333","6501400","蘆洲區"
"247014","053-VK","2018/12/31 17:09:20","新北市蘆洲區中央路61-2號","121.47325","25.0835433333333","6501400","蘆洲區"
"247018","007-UY","2018/12/31 17:09:24","新北市蘆洲區復興路101號","121.476618333333","25.0875666666667","6501400","蘆洲區"
"247004","002-UY","2018/12/31 17:09:20","新北市蘆洲區長安街193巷1弄2號","121.460003333333","25.0817383333333","6501400","蘆洲區"
"247022","001-UY","2018/12/31 17:09:16","新北市蘆洲區民族路393號","121.469313333333","25.0901066666667","6501400","蘆洲區"
"228003","097-TW","2018/12/31 17:09:16","新北市貢寮區福隆里東興街10-6號","121.951225","25.0194266666667","6502600","貢寮區"
"228002","585-TW","2018/12/31 17:09:16","新北市貢寮區龍崗里泮宮路51-1號","121.908075","25.0169116666667","6502600","貢寮區"
"228001","670-TC","2018/12/31 17:09:16","新北市貢寮區仁理村研海街62號","121.929598333333","25.0335083333333","6502600","貢寮區"
"224006","676-BX","2018/12/31 17:09:10","新北市瑞芳區大寮路91號","121.780541666667","25.0976216666667","6501200","瑞芳區"
"224008","285-BY","2018/12/31 17:09:19","新北市瑞芳區侯硐路95號","121.83002","25.0890433333333","6501200","瑞芳區"
"224007","275-VK","2018/12/31 17:09:13","新北市瑞芳區粗坑口路2號","121.76202","25.0986883333333","6501200","瑞芳區"
"224009","273-VK","2018/12/31 17:09:15","新北市瑞芳區豎崎路36號","121.843398333333","25.11069","6501200","瑞芳區"
"224005","271-BY","2018/12/31 17:09:19","","121.900001666667","25.1197066666667","6501200","瑞芳區"
"227001","642-TC","2018/12/31 17:09:22","新北市雙溪區長源里柑腳12號","121.805478333333","25.01516","6502500","雙溪區"
"227008","400-TW","2018/12/31 17:09:21","新北市雙溪區牡丹里下坑35號","121.85051","25.0564783333333","6502500","雙溪區"
"251009","008-UM","2018/12/31 17:09:05","新北市淡水區三民街20號","121.439045","25.17176","6501000","淡水區"
"251004","009-UM","2018/12/31 17:09:21","新北市淡水區中正路二段31號","121.419043333333","25.1821383333333","6501000","淡水區"
"251013","KEA-2871","2018/12/31 17:09:15","新北市淡水區桂花樹1號","121.482985","25.196755","6501000","淡水區"
"251016","179-VK","2018/12/31 17:09:21","新北市淡水區口湖子3號","121.47543","25.1891416666667","6501000","淡水區"
"251008","181-VK","2018/12/31 17:09:09","新北市淡水區民生路169號","121.469633333333","25.142105","6501000","淡水區"
"251015","182-VK","2018/12/31 17:09:17","新北市淡水區鄧公路33巷1號","121.451438333333","25.171185","6501000","淡水區"
"251010","413-VK","2018/12/31 17:09:09","新北市淡水區中正路二段31號","121.419485","25.181475","6501000","淡水區"
"251012","441-VK","2018/12/31 17:09:25","新北市淡水區中山北路一段158號","121.44422","25.177805","6501000","淡水區"
"251007","442-VK","2018/12/31 17:09:24","新北市淡水區民權路99-5號","121.459993333333","25.1376766666667","6501000","淡水區"
"251005","443-VK","2018/12/31 17:09:02","新北市淡水區中正東路38號","121.449641666667","25.1654116666667","6501000","淡水區"
"251006","561-UM","2018/12/31 17:09:20","新北市淡水區中山路28號","121.44433","25.16973","6501000","淡水區"
"251011","650-BX","2018/12/31 17:09:06","新北市淡水區坪頂路49號","121.457776666667","25.162545","6501000","淡水區"
"251002","672-BX","2018/12/31 17:09:19","新北市淡水區中正路二段31號","121.419418333333","25.1816283333333","6501000","淡水區"
"251003","673-BX","2018/12/31 17:09:15","新北市淡水區中正路二段31號","121.419608333333","25.1815283333333","6501000","淡水區"
"252002","178-VK","2018/12/31 17:09:09","新北市三芝區忠孝街1-43號","121.506021666667","25.252965","6502100","三芝區"
"247008","KED-0683","2018/12/31 17:09:22","新北市蘆洲區信義路30巷15號","121.474535","25.078725","6501400","蘆洲區"
"252001","KED-0821","2018/12/31 17:09:18","新北市三芝區埔頭里埔頭18-2號","121.493515","25.2603016666667","6502100","三芝區"
"242036","AAC-296","2018/12/31 17:06:58","新北市新莊區新泰路357巷3弄57號","121.442001666667","25.03945","6500500","新莊區"
"242056","751-BX","2018/12/31 17:09:23","新北市新莊區三和路12-12號","121.44191","25.0371083333333","6500500","新莊區"
"242027","705-TV","2018/12/31 17:09:14","新北市新莊區新泰路357巷3弄57號","121.441856666667","25.0392283333333","6500500","新莊區"
"242029","612-BX","2018/12/31 17:09:23","新北市新莊區新泰路357巷3弄57號","121.442015","25.039395","6500500","新莊區"
"242044","566-BX","2018/12/31 17:09:06","新北市新莊區三和路12-21號","121.442195","25.038615","6500500","新莊區"
"242048","497-BY","2018/12/31 17:09:04","新北市新莊區中正路481號","121.441333333333","25.0338516666667","6500500","新莊區"
"242021","442-UM","2018/12/31 17:09:13","新北市新莊區新泰路357巷3弄57號","121.441925","25.0389583333333","6500500","新莊區"
"242053","441-UM","2018/12/31 17:09:17","新北市新莊區中正路473-1號","121.441808333333","25.03299","6500500","新莊區"
"242002","440-UM","2018/12/31 17:09:20","新北市新莊區三和路12-21號","121.441973333333","25.038835","6500500","新莊區"
"242009","413-TV","2018/12/31 17:09:25","新北市新莊區新泰路357巷3弄57號","121.441845","25.0394833333333","6500500","新莊區"
"242046","400-BY","2018/12/31 17:09:19","新北市新莊區新泰路357巷3弄57號","121.442216666667","25.0393783333333","6500500","新莊區"
"242023","362-BY","2018/12/31 17:09:20","新北市新莊區三和路12-21號","121.441918333333","25.0386783333333","6500500","新莊區"
"242060","353-BY","2018/12/31 17:09:14","新北市新莊區新泰路357巷3弄57號","121.44197","25.0391716666667","6500500","新莊區"
"242034","135-UY","2018/12/31 17:09:09","新北市新莊區三和路18-23號","121.44186","25.03891","6500500","新莊區"
"242013","173-VK","2018/12/31 17:09:12","新北市新莊區三和路12-21號","121.441948333333","25.0387166666667","6500500","新莊區"
"242019","175-VK","2018/12/31 17:09:16","新北市新莊區三和路12-21號","121.441925","25.0387","6500500","新莊區"
"242017","KED-0687","2018/12/31 17:09:14","新北市新莊區三和路12-21號","121.442283333333","25.038295","6500500","新莊區"
"242007","346-TH","2018/12/31 17:09:24","新北市新莊區三和路12-21號","121.441971666667","25.0382116666667","6500500","新莊區"
"242031","348-TH","2018/12/31 17:09:01","新北市新莊區新泰路357巷3弄57號","121.442118333333","25.039655","6500500","新莊區"
"242015","351-TH","2018/12/31 17:09:12","新北市新莊區新泰路357巷3弄57號","121.442066666667","25.0395533333333","6500500","新莊區"
"238002","755-BX","2018/12/31 17:09:11","新北市樹林區育德街78-1號","121.387995","24.96812","6500700","樹林區"
"238019","599-UM","2018/12/31 17:09:22","新北市樹林區八德街828-8號","121.39284","24.9685466666667","6500700","樹林區"
"238018","571-TV","2018/12/31 17:09:10","新北市樹林區博愛街215號","121.424043333333","24.98677","6500700","樹林區"
"238022","KEA-2213","2018/12/31 17:09:13","新北市樹林區國凱街122巷1號","121.42284","24.9801616666667","6500700","樹林區"
"238021","KEA-2539","2018/12/31 17:09:03","新北市樹林區西圳街一段165巷20弄12號","121.395323333333","24.960625","6500700","樹林區"
"238025","303-VK","2018/12/31 17:09:06","新北市樹林區中正路22-1號","121.427803333333","24.9993233333333","6500700","樹林區"
"238004","283-BY","2018/12/31 17:09:22","新北市樹林區光武街7-3號","121.415805","25.0053066666667","6500700","樹林區"
"238001","282-BY","2018/12/31 17:09:14","新北市樹林區中正路22-1號","121.427808333333","24.9996516666667","6500700","樹林區"
"238026","172-UY","2018/12/31 17:09:19","新北市樹林區八德街848號","121.392085","24.96855","6500700","樹林區"
"238016","169-UY","2018/12/31 17:09:19","新北市樹林區中山路二段10號","121.417521666667","24.9850133333333","6500700","樹林區"
"239007","AAC-297","2018/12/31 17:09:20","新北市鶯歌區中正一路24號","121.352486666667","24.9532816666667","6500800","鶯歌區"
"239006","891-R6","2018/12/31 17:09:11","新北市鶯歌區八德路2巷20弄2號","121.336398333333","24.9466016666667","6500800","鶯歌區"
"239008","527-UM","2018/12/31 17:09:11","新北市鶯歌區文化路136巷52號","121.35107","24.950525","6500800","鶯歌區"
"239005","526-UM","2018/12/31 17:09:24","新北市鶯歌區鶯桃路435號","121.332505","24.9652666666667","6500800","鶯歌區"
"239001","417-VK","2018/12/31 17:09:13","新北市鶯歌區尖山路140巷6弄1號","121.34657","24.9489483333333","6500800","鶯歌區"
"239002","359-BY","2018/12/31 17:09:10","新北市鶯歌區建國路137號","121.35137","24.9538966666667","6500800","鶯歌區"
"239004","193-VK","2018/12/31 17:09:09","新北市鶯歌區文化路324巷11弄1號","121.350461666667","24.9450683333333","6500800","鶯歌區"
"242041","281-VK","2018/12/31 17:09:06","新北市新莊區三和路12-21號","121.442311666667","25.03811","6500500","新莊區"
"220012","AAC-253","2018/12/31 17:01:49","新北市板橋區華東街1-10號","121.44837","24.994945","6500100","板橋區"
