"lineid","car","time","location","longitude","latitude","cityid","cityname"
"249005","172-UM","2018/12/31 17:19:22","新北市五股區民義路二段130號","121.407308333333","25.121925","6502300","八里區"
"249001","173-UM","2018/12/31 17:19:16","新北市八里區中華路二段165巷3號","121.407638333333","25.1508633333333","6502300","八里區"
"249004","303-UY","2018/12/31 17:19:22","新北市八里區賢三街17號","121.419056666667","25.15925","6502300","八里區"
"249002","305-UY","2018/12/31 17:19:10","新北市八里區龍米路二段117巷23號","121.446416666667","25.1427266666667","6502300","八里區"
"249003","593-UM","2018/12/31 17:19:04","新北市八里區商港路48號","121.395861666667","25.1453583333333","6502300","八里區"
"244007","080-UY","2018/12/31 17:19:19","新北市林口區湖子20號","121.3858","25.0925633333333","6501700","林口區"
"244019","402-UM","2018/12/31 17:19:17","新北市林口區仁愛路二段253號","121.374268333333","25.07668","6501700","林口區"
"244023","483-VK","2018/12/31 17:19:11","新北市林口區隆林街93號","121.38561","25.0750733333333","6501700","林口區"
"244017","485-VK","2018/12/31 17:19:25","新北市林口區中山路144號","121.391458333333","25.07869","6501700","林口區"
"244009","656-BX","2018/12/31 17:19:08","新北市林口區文化北路二段176-5號","121.377241666667","25.09166","6501700","林口區"
"244011","657-BX","2018/12/31 17:19:12","新北市林口區粉寮路17巷1號","121.39838","25.0806216666667","6501700","林口區"
"244025","837-TS","2018/12/31 17:19:17","新北市林口區文化三路二段22號","121.373353333333","25.078995","6501700","林口區"
"244021","838-TS","2018/12/31 17:19:08","新北市林口區粉寮路二段358-2號","121.406766666667","25.096825","6501700","林口區"
"231010","107-UY","2018/12/31 17:19:22","新北市新店區直潭路92號","121.530918333333","24.9376783333333","6500600","新店區"
"241028","022-UY","2018/12/31 17:19:12","新北市三重區仁化街62號","121.493896666667","25.0590733333333","6500200","三重區"
"241008","059-VK","2018/12/31 17:19:21","新北市三重區下竹圍街8號","121.480966666667","25.0758683333333","6500200","三重區"
"241022","060-VK","2018/12/31 17:19:25","新北市三重區重陽路二段34巷18號","121.486311666667","25.0634233333333","6500200","三重區"
"241015","062-VK","2018/12/31 17:19:16","新北市三重區福德北路89號","121.50187","25.06621","6500200","三重區"
"241017","063-VK","2018/12/31 17:19:13","新北市三重區大同北路52號","121.495155","25.0631083333333","6500200","三重區"
"241024","065-VK","2018/12/31 17:19:12","新北市三重區中正北路201號","121.4771","25.0698766666667","6500200","三重區"
"241002","090-VK","2018/12/31 17:19:20","新北市三重區自強路五段16號","121.492403333333","25.0805483333333","6500200","三重區"
"241003","091-VK","2018/12/31 17:19:11","新北市三重區富福街58號","121.491875","25.0844666666667","6500200","三重區"
"251014","742-BX","2018/12/31 17:19:08","新北市淡水區公埔子5-1號","121.464868333333","25.2267066666667","6501000","淡水區"
"241005","262-UM","2018/12/31 17:19:11","新北市三重區永安北路二段25巷2號","121.482151666667","25.0819166666667","6500200","三重區"
"241016","266-UM","2018/12/31 17:19:05","新北市三重區大同北路97-2號","121.494506666667","25.0636666666667","6500200","三重區"
"241018","268-UM","2018/12/31 17:19:16","新北市三重區安慶街101號","121.495346666667","25.0690616666667","6500200","三重區"
"241032","269-UM","2018/12/31 17:19:07","新北市三重區中華路2巷2號","121.483153333333","25.0602916666667","6500200","三重區"
"241013","270-UM","2018/12/31 17:19:12","新北市三重區仁福街17號","121.496125","25.0743366666667","6500200","三重區"
"241025","271-UM","2018/12/31 17:19:19","新北市三重區中正北路378號","121.47672","25.0696933333333","6500200","三重區"
"241007","398-BY","2018/12/31 17:19:19","新北市三重區三和路四段155巷33號","121.484933333333","25.0787116666667","6500200","三重區"
"241024","KEA-2210","2018/12/31 17:19:20","新北市三重區國道路一段58巷20號","121.48124","25.0720316666667","6500200","三重區"
"241026","462-BY","2018/12/31 17:19:16","新北市三重區福裕街35-3號","121.499093333333","25.0615583333333","6500200","三重區"
"241004","475-VK","2018/12/31 17:19:16","新北市三重區五華街110巷4號","121.491876666667","25.08276","6500200","三重區"
"241020","478-VK","2018/12/31 17:19:19","新北市三重區自強路三段7巷38號","121.488218333333","25.072275","6500200","三重區"
"241030","480-VK","2018/12/31 17:19:04","新北市三重區環河南路254巷82號","121.48894","25.0517016666667","6500200","三重區"
"241014","543-UM","2018/12/31 17:19:09","新北市三重區三和路二段83號","121.500058333333","25.0684716666667","6500200","三重區"
"241019","KEA-2593","2018/12/31 17:19:03","新北市三重區自強路二段96-3號","121.487496666667","25.0710233333333","6500200","三重區"
"241009","743-BX","2018/12/31 17:19:09","新北市三重區仁愛街606號","121.483835","25.0808166666667","6500200","三重區"
"241023","887-TS","2018/12/31 17:19:17","新北市三重區三民街174號","121.482085","25.0655933333333","6500200","三重區"
"241012","941-UM","2018/12/31 17:19:14","新北市三重區河邊北街254號","121.501713333333","25.07623","6500200","三重區"
"247012","KEA-2869","2018/12/31 17:19:15","新北市蘆洲區信義路317號","121.478208333333","25.086325","6501400","蘆洲區"
"247006","KED-0682","2018/12/31 17:19:18","新北市蘆洲區長安街66號","121.462775","25.0800416666667","6501400","蘆洲區"
"235065","911-UM","2018/12/31 17:19:04","新北市中和區員山路36巷16-2號","121.485241666667","24.9918333333333","6500300","中和區"
"247002","893-R6","2018/12/31 17:19:21","新北市蘆洲區永樂街38巷30號","121.45838","25.0895283333333","6501400","蘆洲區"
"247016","546-UM","2018/12/31 17:19:13","新北市蘆洲區正和街108號","121.467825","25.0806033333333","6501400","蘆洲區"
"247024","500-BY","2018/12/31 17:19:15","新北市蘆洲區長榮路238號","121.460573333333","25.0857116666667","6501400","蘆洲區"
"247010","336-TH","2018/12/31 17:19:07","新北市蘆洲區鷺江街55號","121.477611666667","25.082345","6501400","蘆洲區"
"247020","057-VK","2018/12/31 17:19:15","新北市蘆洲區民族路331-17號","121.473271666667","25.0919266666667","6501400","蘆洲區"
"247014","053-VK","2018/12/31 17:19:20","新北市蘆洲區中正路81號","121.470163333333","25.0835","6501400","蘆洲區"
"247018","007-UY","2018/12/31 17:19:24","新北市蘆洲區民權路84號","121.474575","25.087625","6501400","蘆洲區"
"247004","002-UY","2018/12/31 17:19:20","新北市蘆洲區永安南路二段282號","121.457891666667","25.081175","6501400","蘆洲區"
"247022","001-UY","2018/12/31 17:19:16","新北市蘆洲區三民路128巷94號","121.46962","25.090205","6501400","蘆洲區"
"228003","097-TW","2018/12/31 17:19:17","新北市貢寮區福隆里興隆街24-1號","121.944123333333","25.0166633333333","6502600","貢寮區"
"228002","585-TW","2018/12/31 17:19:03","新北市貢寮區雙玉里下雙溪街24號","121.921758333333","25.0099016666667","6502600","貢寮區"
"228001","670-TC","2018/12/31 17:19:16","新北市貢寮區仁理村尖山腳街18-3號","121.925485","25.0483216666667","6502600","貢寮區"
"224006","676-BX","2018/12/31 17:19:10","新北市瑞芳區傑魚坑路269號","121.78706","25.1058066666667","6501200","瑞芳區"
"224008","285-BY","2018/12/31 17:19:21","新北市瑞芳區侯硐路47號","121.829931666667","25.08889","6501200","瑞芳區"
"224009","273-VK","2018/12/31 17:19:15","新北市瑞芳區汽車路93-1號","121.843033333333","25.1095916666667","6501200","瑞芳區"
"224005","271-BY","2018/12/31 17:19:19","新北市瑞芳區鼻頭路115-1號","121.916348333333","25.1224866666667","6501200","瑞芳區"
"227001","642-TC","2018/12/31 17:19:22","新北市雙溪區上林里內平林90號","121.827583333333","25.02749","6502500","雙溪區"
"251009","008-UM","2018/12/31 17:19:25","新北市淡水區三民街22號","121.43904","25.171825","6501000","淡水區"
"251004","009-UM","2018/12/31 17:19:21","新北市淡水區中正路39號","121.442193333333","25.1696033333333","6501000","淡水區"
"251013","KEA-2871","2018/12/31 17:19:21","新北市淡水區大竹圍5號","121.466588333333","25.1954883333333","6501000","淡水區"
"251016","179-VK","2018/12/31 17:19:14","新北市淡水區鄒厝崙14號","121.461663333333","25.1904533333333","6501000","淡水區"
"251008","181-VK","2018/12/31 17:19:09","新北市淡水區大同路257號","121.466545","25.1422516666667","6501000","淡水區"
"251015","182-VK","2018/12/31 17:19:17","新北市淡水區樹林口6號","121.479758333333","25.1678166666667","6501000","淡水區"
"251010","413-VK","2018/12/31 17:19:09","新北市淡水區中正路二段211號","121.426218333333","25.1891316666667","6501000","淡水區"
"251012","441-VK","2018/12/31 17:19:06","新北市淡水區北新路2號","121.444206666667","25.1777833333333","6501000","淡水區"
"251007","442-VK","2018/12/31 17:19:04","新北市淡水區民生路56號","121.462018333333","25.137905","6501000","淡水區"
"251005","443-VK","2018/12/31 17:19:02","新北市淡水區鄧公路19-1號","121.450361666667","25.1699733333333","6501000","淡水區"
"251006","561-UM","2018/12/31 17:19:20","新北市淡水區中山路164號","121.441135","25.1737566666667","6501000","淡水區"
"251011","650-BX","2018/12/31 17:19:06","新北市淡水區坪頂路128號","121.465161666667","25.1610683333333","6501000","淡水區"
"251002","672-BX","2018/12/31 17:19:19","新北市淡水區中正路二段31號","121.419368333333","25.1816116666667","6501000","淡水區"
"251003","673-BX","2018/12/31 17:19:15","新北市淡水區馬偕街28號","121.437663333333","25.1729783333333","6501000","淡水區"
"207003","550-UM","2018/12/31 17:19:23","新北市萬里區萬里里獅頭路23號","121.693258333333","25.1782916666667","6502800","萬里區"
"252002","178-VK","2018/12/31 17:19:09","新北市三芝區忠孝街1-15號","121.505548333333","25.2539416666667","6502100","三芝區"
"237015","649-BX","2018/12/31 17:19:11","新北市三峽區中山路459巷163-3號","121.348648333333","24.93297","6500900","三峽區"
"247008","KED-0683","2018/12/31 17:19:22","新北市蘆洲區信義路30巷137號","121.475328333333","25.0765833333333","6501400","蘆洲區"
"252001","KED-0821","2018/12/31 17:19:24","新北市三芝區長安街119號","121.49804","25.25963","6502100","三芝區"
"242036","AAC-296","2018/12/31 17:19:18","新北市新莊區中正路481號","121.441301666667","25.0338116666667","6500500","新莊區"
"242058","986-R7","2018/12/31 17:19:11","新北市新莊區三和路12-11號","121.441928333333","25.036885","6500500","新莊區"
"242056","751-BX","2018/12/31 17:19:23","新北市新莊區新莊路658號","121.442433333333","25.03286","6500500","新莊區"
"242027","705-TV","2018/12/31 17:19:14","新北市新莊區中平路82巷29號","121.446243333333","25.0449933333333","6500500","新莊區"
"242025","613-BX","2018/12/31 17:19:08","新北市新莊區中平路82巷9號","121.44532","25.0449066666667","6500500","新莊區"
"242029","612-BX","2018/12/31 17:19:23","新北市新莊區幸福路795號","121.446425","25.0490516666667","6500500","新莊區"
"242044","566-BX","2018/12/31 17:19:06","新北市新莊區中正路400號","121.441913333333","25.0343166666667","6500500","新莊區"
"242048","497-BY","2018/12/31 17:19:24","新北市新莊區龍安路249巷1號","121.41904","25.0207433333333","6500500","新莊區"
"242021","442-UM","2018/12/31 17:19:13","新北市新莊區公園路33號","121.452991666667","25.04017","6500500","新莊區"
"242053","441-UM","2018/12/31 17:19:17","新北市新莊區環河路636-7號","121.43667","25.01083","6500500","新莊區"
"242002","440-UM","2018/12/31 17:19:20","新北市新莊區瓊林路21-1號","121.445843333333","25.0287183333333","6500500","新莊區"
"242039","415-TV","2018/12/31 17:19:21","新北市新莊區新樹路223號","121.435408333333","25.0230933333333","6500500","新莊區"
"242009","413-TV","2018/12/31 17:19:05","新北市新莊區幸福路914號","121.442421666667","25.0487966666667","6500500","新莊區"
"242046","400-BY","2018/12/31 17:19:19","新北市新莊區中正路473-1號","121.44188","25.03312","6500500","新莊區"
"242023","362-BY","2018/12/31 17:19:20","新北市新莊區新泰路401巷29-1號","121.442311666667","25.0437516666667","6500500","新莊區"
"242060","353-BY","2018/12/31 17:19:14","新北市新莊區中正路471號","121.441948333333","25.0338483333333","6500500","新莊區"
"242034","135-UY","2018/12/31 17:19:09","新北市新莊區新莊路771巷10號","121.442003333333","25.03183","6500500","新莊區"
"242050","172-VK","2018/12/31 17:19:17","新北市新莊區瓊林南路29號","121.43641","25.0192966666667","6500500","新莊區"
"242013","173-VK","2018/12/31 17:19:12","新北市新莊區三和路12-21號","121.441968333333","25.0387083333333","6500500","新莊區"
"242019","175-VK","2018/12/31 17:19:16","新北市新莊區新泰路486號","121.442496666667","25.04572","6500500","新莊區"
"242017","KED-0687","2018/12/31 17:19:14","新北市新莊區中平路82巷6號","121.445086666667","25.044835","6500500","新莊區"
"242007","346-TH","2018/12/31 17:19:04","新北市新莊區中平路82巷29號","121.44601","25.044875","6500500","新莊區"
"242011","347-TH","2018/12/31 17:19:08","新北市新莊區新泰路488號","121.442428333333","25.0458216666667","6500500","新莊區"
"242031","348-TH","2018/12/31 17:19:21","新北市新莊區新泰路369巷27號","121.442296666667","25.0432066666667","6500500","新莊區"
"242004","349-TH","2018/12/31 17:19:21","新北市新莊區復興路一段12號","121.445761666667","25.041525","6500500","新莊區"
"242015","351-TH","2018/12/31 17:19:12","新北市新莊區新泰路349號","121.44468","25.0422866666667","6500500","新莊區"
"238002","755-BX","2018/12/31 17:19:11","新北市樹林區東和街7號","121.404126666667","24.9791483333333","6500700","樹林區"
"238019","599-UM","2018/12/31 17:19:22","新北市樹林區八德街251巷9號","121.422168333333","24.9786316666667","6500700","樹林區"
"238018","571-TV","2018/12/31 17:19:19","新北市樹林區太平路1-5號","121.418691666667","24.9847416666667","6500700","樹林區"
"238024","5061-A6","2018/12/31 17:19:05","新北市樹林區保安街一段48巷19號","121.426311666667","24.9949283333333","6500700","樹林區"
"238022","KEA-2213","2018/12/31 17:19:13","新北市樹林區和平街49號","121.423476666667","24.9819633333333","6500700","樹林區"
"238021","KEA-2539","2018/12/31 17:19:03","新北市樹林區西圳街一段114號","121.399661666667","24.9643333333333","6500700","樹林區"
"238025","303-VK","2018/12/31 17:19:06","新北市樹林區保安二街120號","121.422215","24.9956166666667","6500700","樹林區"
"238004","283-BY","2018/12/31 17:19:22","新北市樹林區光武街42-1號","121.41668","25.0066816666667","6500700","樹林區"
"238014","282-BY","2018/12/31 17:19:14","新北市樹林區長壽街70巷33弄1號","121.421335","24.9949133333333","6500700","樹林區"
"238026","172-UY","2018/12/31 17:19:19","新北市樹林區東順街145號","121.405245","24.97463","6500700","樹林區"
"238016","169-UY","2018/12/31 17:19:19","新北市樹林區八德街1號","121.417446666667","24.9848733333333","6500700","樹林區"
"239007","AAC-297","2018/12/31 17:19:20","新北市鶯歌區中正一路65巷26號","121.350808333333","24.955115","6500800","鶯歌區"
"239006","891-R6","2018/12/31 17:19:10","新北市鶯歌區德昌街1-2號","121.333858333333","24.9606766666667","6500800","鶯歌區"
"239008","527-UM","2018/12/31 17:19:11","新北市鶯歌區西湖街曾厝巷27號","121.339426666667","24.96146","6500800","鶯歌區"
"239005","526-UM","2018/12/31 17:17:44","新北市鶯歌區鶯桃路551號","121.330283333333","24.967965","6500800","鶯歌區"
"239001","417-VK","2018/12/31 17:19:13","新北市鶯歌區尖山路228號","121.343248333333","24.9468433333333","6500800","鶯歌區"
"239002","359-BY","2018/12/31 17:19:10","新北市鶯歌區建國路280-2號","121.346196666667","24.9531816666667","6500800","鶯歌區"
"239004","193-VK","2018/12/31 17:19:09","新北市鶯歌區文化路300號","121.352508333333","24.9467","6500800","鶯歌區"
"221008","489-VK","2018/12/31 17:19:20","新北市汐止區康寧街901號","121.651366666667","25.0750216666667","6501100","汐止區"
"242041","281-VK","2018/12/31 17:19:06","新北市新莊區中正路481號","121.441426666667","25.03381","6500500","新莊區"
"220012","AAC-253","2018/12/31 17:01:49","新北市板橋區華東街1-10號","121.44837","24.994945","6500100","板橋區"
