"lineid","car","time","location","longitude","latitude","cityid","cityname"
"234026","9371-KE","2018/12/31 17:39:05","新北市永和區中正路700號","121.516348333333","25.0098233333333","6500400","永和區"
"234011","9373-KE","2018/12/31 17:39:16","新北市永和區福和路1號","121.52631","25.0097633333333","6500400","永和區"
"249005","172-UM","2018/12/31 17:39:22","新北市八里區荖阡坑路34-1號","121.402725","25.1297566666667","6502300","八里區"
"249001","173-UM","2018/12/31 17:39:16","新北市八里區龍米路二段153-8號","121.440158333333","25.1534866666667","6502300","八里區"
"249004","303-UY","2018/12/31 17:39:22","新北市八里區賢二街43號","121.419013333333","25.1576933333333","6502300","八里區"
"249002","305-UY","2018/12/31 17:39:10","新北市八里區頂寮二街117-17號","121.44678","25.1265466666667","6502300","八里區"
"249003","593-UM","2018/12/31 17:39:24","新北市八里區中山路二段179號","121.404825","25.1502216666667","6502300","八里區"
"232011","375-UM","2018/12/31 17:39:25","新北市坪林區北宜路八段97號","121.705763333333","24.9350016666667","6502000","坪林區"
"244007","080-UY","2018/12/31 17:39:15","新北市林口區林口路190號","121.387516666667","25.0829216666667","6501700","林口區"
"244019","402-UM","2018/12/31 17:39:17","新北市林口區忠孝路533號","121.371831666667","25.0691966666667","6501700","林口區"
"244013","KEA-2802","2018/12/31 17:39:05","新北市林口區中正路494號","121.382206666667","25.07723","6501700","林口區"
"244023","483-VK","2018/12/31 17:39:11","新北市林口區東明一街121巷8號","121.38999","25.070405","6501700","林口區"
"244017","485-VK","2018/12/31 17:39:25","新北市林口區忠孝路371-1號","121.368948333333","25.0719683333333","6501700","林口區"
"244009","656-BX","2018/12/31 17:39:08","新北市林口區中北三街322號","121.382923333333","25.08367","6501700","林口區"
"244011","657-BX","2018/12/31 17:39:12","新北市林口區佳林路146號","121.38421","25.0771666666667","6501700","林口區"
"244025","837-TS","2018/12/31 17:39:17","新北市林口區文化三路一段394巷12號","121.36653","25.07261","6501700","林口區"
"244021","838-TS","2018/12/31 17:39:08","新北市林口區仁愛路一段211巷113號","121.397641666667","25.0743383333333","6501700","林口區"
"222002","659-BX","2018/12/31 17:39:11","新北市深坑區深南路49號","121.621298333333","25.00937","6501800","深坑區"
"231010","107-UY","2018/12/31 17:39:22","新北市新店區直潭路92號","121.530921666667","24.93767","6500600","新店區"
"241017","063-VK","2018/12/31 17:39:13","新北市三重區大同北路34巷1號","121.49479","25.0624566666667","6500200","三重區"
"241024","065-VK","2018/12/31 17:39:13","新北市三重區車路頭街35號","121.483883333333","25.0713233333333","6500200","三重區"
"251014","742-BX","2018/12/31 17:39:08","新北市淡水區公埔子16-6號","121.481076666667","25.2246166666667","6501000","淡水區"
"241005","262-UM","2018/12/31 17:39:11","新北市三重區碧華街1號","121.483631666667","25.08102","6500200","三重區"
"241016","266-UM","2018/12/31 17:39:05","新北市三重區重新路二段21號","121.497956666667","25.0624416666667","6500200","三重區"
"241018","268-UM","2018/12/31 17:39:16","新北市三重區新北大道一段7號","121.489431666667","25.0613233333333","6500200","三重區"
"241007","398-BY","2018/12/31 17:39:19","新北市三重區車路頭街77號","121.484443333333","25.0739883333333","6500200","三重區"
"241013","475-VK","2018/12/31 17:39:18","新北市三重區仁愛街112巷4號","121.494685","25.0744216666667","6500200","三重區"
"241014","543-UM","2018/12/31 17:39:09","新北市三重區河邊北街80號","121.504218333333","25.06885","6500200","三重區"
"241019","KEA-2593","2018/12/31 17:39:03","新北市三重區六張街249號","121.487531666667","25.0683816666667","6500200","三重區"
"241012","941-UM","2018/12/31 17:39:14","新北市三重區仁興街39巷36號","121.500758333333","25.0764416666667","6500200","三重區"
"235064","005-UY","2018/12/31 17:39:19","新北市中和區員山路36巷16-3號","121.484986666667","24.9913183333333","6500300","中和區"
"247012","KEA-2869","2018/12/31 17:39:18","新北市蘆洲區民權路34號","121.476376666667","25.08632","6501400","蘆洲區"
"247006","KED-0682","2018/12/31 17:39:18","新北市蘆洲區長安街22巷39弄2號","121.464771666667","25.080525","6501400","蘆洲區"
"235065","911-UM","2018/12/31 17:39:24","新北市中和區員山路36巷16-2號","121.485263333333","24.9917766666667","6500300","中和區"
"247002","893-R6","2018/12/31 17:39:17","新北市蘆洲區永平街32巷11弄23號","121.458051666667","25.0916633333333","6501400","蘆洲區"
"247016","546-UM","2018/12/31 17:39:13","新北市蘆洲區光華路46巷26號","121.468181666667","25.08393","6501400","蘆洲區"
"247024","500-BY","2018/12/31 17:39:14","新北市蘆洲區長樂路125-1號","121.46211","25.0880466666667","6501400","蘆洲區"
"247010","336-TH","2018/12/31 17:39:07","新北市蘆洲區中山一路72號","121.478846666667","25.0810783333333","6501400","蘆洲區"
"247020","057-VK","2018/12/31 17:39:15","新北市蘆洲區民族路446-1號","121.472903333333","25.092025","6501400","蘆洲區"
"247014","053-VK","2018/12/31 17:39:20","新北市蘆洲區中山二路76號","121.473215","25.0819766666667","6501400","蘆洲區"
"247018","007-UY","2018/12/31 17:39:03","新北市蘆洲區三民路110巷54號","121.472821666667","25.0880366666667","6501400","蘆洲區"
"247004","002-UY","2018/12/31 17:39:20","新北市蘆洲區長安街249巷46號","121.457556666667","25.0825766666667","6501400","蘆洲區"
"247022","001-UY","2018/12/31 17:39:16","新北市蘆洲區民族路574號","121.467165","25.0886116666667","6501400","蘆洲區"
"228003","097-TW","2018/12/31 17:39:16","新北市貢寮區仁理村仁和路39號","121.924011666667","25.0539583333333","6502600","貢寮區"
"228002","585-TW","2018/12/31 17:39:24","新北市貢寮區福隆里龜壽谷街13號","121.956581666667","25.0058966666667","6502600","貢寮區"
"228001","670-TC","2018/12/31 17:39:16","新北市貢寮區仁理村仁愛路95-1號","121.927678333333","25.0554166666667","6502600","貢寮區"
"224010","AGQ-8101","2018/12/31 17:39:07","新北市瑞芳區岳王路43-1號","121.807285","25.1113383333333","6501200","瑞芳區"
"224006","676-BX","2018/12/31 17:39:10","新北市瑞芳區中山路251號","121.797801666667","25.10949","6501200","瑞芳區"
"224008","285-BY","2018/12/31 17:39:19","新北市瑞芳區明燈路一段6-1號","121.823005","25.1075683333333","6501200","瑞芳區"
"224009","273-VK","2018/12/31 17:39:15","新北市瑞芳區山尖路209號","121.848993333333","25.1119516666667","6501200","瑞芳區"
"224005","271-BY","2018/12/31 17:39:19","新北市瑞芳區海濱路8-6號","121.831603333333","25.1261733333333","6501200","瑞芳區"
"227001","642-TC","2018/12/31 17:36:04","新北市雙溪區共和里東榮街52號","121.866301666667","25.0336783333333","6502500","雙溪區"
"251009","008-UM","2018/12/31 17:39:25","新北市淡水區中正路32號","121.443905","25.1691533333333","6501000","淡水區"
"251004","009-UM","2018/12/31 17:39:20","新北市淡水區中正東路二段88巷37-22號","121.45937","25.1438483333333","6501000","淡水區"
"251013","KEA-2871","2018/12/31 17:39:14","新北市淡水區演戲埔腳6號","121.471745","25.1938633333333","6501000","淡水區"
"251016","179-VK","2018/12/31 17:39:14","新北市淡水區埤島39-15號","121.452723333333","25.195875","6501000","淡水區"
"251008","181-VK","2018/12/31 17:39:21","新北市淡水區八勢路一段98-3號","121.467583333333","25.1555583333333","6501000","淡水區"
"251015","182-VK","2018/12/31 17:39:17","新北市淡水區糞箕湖9-1號","121.485303333333","25.1708466666667","6501000","淡水區"
"251010","413-VK","2018/12/31 17:39:09","新北市淡水區淡海路280巷16號","121.419848333333","25.1895766666667","6501000","淡水區"
"251012","441-VK","2018/12/31 17:39:05","新北市淡水區北新路200巷10號","121.451776666667","25.1796483333333","6501000","淡水區"
"251007","442-VK","2018/12/31 17:39:24","新北市淡水區民族路35巷1號","121.464566666667","25.1372666666667","6501000","淡水區"
"251005","443-VK","2018/12/31 17:39:22","新北市淡水區鄧公路33巷14號","121.451886666667","25.17092","6501000","淡水區"
"251006","561-UM","2018/12/31 17:39:20","新北市淡水區大信街32號","121.44205","25.1770783333333","6501000","淡水區"
"251011","650-BX","2018/12/31 17:39:06","新北市淡水區小坪頂85號","121.484955","25.1594583333333","6501000","淡水區"
"251002","672-BX","2018/12/31 17:39:24","新北市淡水區清水街246號","121.440561666667","25.172175","6501000","淡水區"
"251003","673-BX","2018/12/31 17:39:15","新北市淡水區中山北路一段52號","121.441918333333","25.1756683333333","6501000","淡水區"
"207003","550-UM","2018/12/31 17:39:23","新北市萬里區龜吼里漁澳路85-2號","121.689603333333","25.1972216666667","6502800","萬里區"
"207004","225-TW","2018/12/31 17:39:07","新北市萬里區中幅里中福路19-1號","121.682918333333","25.16478","6502800","萬里區"
"252002","178-VK","2018/12/31 17:39:09","新北市三芝區智成街81號","121.505008333333","25.255695","6502100","三芝區"
"237012","275-BY","2018/12/31 17:39:17","新北市三峽區中山路459巷163-1號","121.349243333333","24.9334033333333","6500900","三峽區"
"237015","649-BX","2018/12/31 17:39:11","新北市三峽區白雞39-1號","121.380991666667","24.9114766666667","6500900","三峽區"
"237010","706-TV","2018/12/31 17:39:03","新北市三峽區中山路128號","121.365486666667","24.93603","6500900","三峽區"
"236042","KED-0685","2018/12/31 17:39:11","新北市土城區城林路6巷80號","121.438771666667","24.9796116666667","6501300","土城區"
"236078","166-UM","2018/12/31 17:39:11","新北市土城區城林路6巷80號","121.438553333333","24.9796166666667","6501300","土城區"
"236030","253-BX","2018/12/31 17:39:19","新北市土城區城林路6巷80號","121.438698333333","24.9796066666667","6501300","土城區"
"236026","269-VK","2018/12/31 17:39:16","新北市土城區城林路6巷80號","121.438521666667","24.9796466666667","6501300","土城區"
"236014","270-VK","2018/12/31 17:39:17","新北市土城區城林路6巷80號","121.438568333333","24.9795916666667","6501300","土城區"
"236039","271-VK","2018/12/31 17:39:09","新北市土城區城林路6巷80號","121.438483333333","24.9797716666667","6501300","土城區"
"247008","KED-0683","2018/12/31 17:39:22","新北市蘆洲區民生街127號","121.472705","25.0790066666667","6501400","蘆洲區"
"252001","KED-0821","2018/12/31 17:39:24","新北市三芝區淡金路二段4號","121.502365","25.2591383333333","6502100","三芝區"
"236059","912-UM","2018/12/31 17:39:13","新北市土城區城林路6巷80號","121.438491666667","24.9795516666667","6501300","土城區"
"242036","AAC-296","2018/12/31 17:39:18","新北市新莊區後港一路120號","121.429086666667","25.0269716666667","6500500","新莊區"
"242058","986-R7","2018/12/31 17:39:12","新北市新莊區中正路530號","121.430938333333","25.0315933333333","6500500","新莊區"
"242056","751-BX","2018/12/31 17:39:03","新北市新莊區泰豐街13號","121.44842","25.0314933333333","6500500","新莊區"
"242027","705-TV","2018/12/31 17:39:14","新北市新莊區福壽街77號","121.458093333333","25.049815","6500500","新莊區"
"242025","613-BX","2018/12/31 17:39:25","新北市新莊區思源路90號","121.460126666667","25.0455216666667","6500500","新莊區"
"242029","612-BX","2018/12/31 17:39:23","新北市新莊區復興路一段163號","121.450931666667","25.0433916666667","6500500","新莊區"
"242044","566-BX","2018/12/31 17:39:06","新北市新莊區富國路12號","121.418295","25.026395","6500500","新莊區"
"242048","497-BY","2018/12/31 17:39:24","新北市新莊區萬安街155號","121.420315","25.02145","6500500","新莊區"
"242021","442-UM","2018/12/31 17:39:21","新北市新莊區中華路一段128號","121.452638333333","25.040935","6500500","新莊區"
"242053","441-UM","2018/12/31 17:39:17","新北市新莊區新樹路699巷51號","121.433163333333","25.0010016666667","6500500","新莊區"
"242002","440-UM","2018/12/31 17:39:20","新北市新莊區新莊路266號","121.451811666667","25.0339383333333","6500500","新莊區"
"242039","415-TV","2018/12/31 17:39:21","新北市新莊區民安路322號","121.42896","25.02199","6500500","新莊區"
"242009","413-TV","2018/12/31 17:39:05","新北市新莊區昌明街14巷5弄1號","121.45732","25.0531933333333","6500500","新莊區"
"242046","400-BY","2018/12/31 17:39:19","新北市新莊區中正路585號","121.434428333333","25.0322983333333","6500500","新莊區"
"242023","362-BY","2018/12/31 17:39:20","新北市新莊區公園路129-5號","121.457421666667","25.0408283333333","6500500","新莊區"
"242060","353-BY","2018/12/31 17:39:14","新北市新莊區瓊林南路216號","121.43373","25.0058533333333","6500500","新莊區"
"242034","135-UY","2018/12/31 17:39:17","新北市新莊區新莊路528號","121.445751666667","25.033015","6500500","新莊區"
"242050","172-VK","2018/12/31 17:39:17","新北市新莊區西盛街193號","121.428135","25.017315","6500500","新莊區"
"242013","173-VK","2018/12/31 17:39:12","新北市新莊區中誠街101號","121.449853333333","25.04772","6500500","新莊區"
"242019","175-VK","2018/12/31 17:39:16","新北市新莊區中港路160號","121.455016666667","25.041445","6500500","新莊區"
"242017","KED-0687","2018/12/31 17:39:14","新北市新莊區復興路一段149巷21弄23號","121.448993333333","25.0438666666667","6500500","新莊區"
"242007","346-TH","2018/12/31 17:39:24","新北市新莊區福樂街71巷1號","121.45701","25.0477916666667","6500500","新莊區"
"242011","347-TH","2018/12/31 17:39:10","新北市新莊區中華路二段235號","121.451483333333","25.0530516666667","6500500","新莊區"
"242031","348-TH","2018/12/31 17:39:21","新北市新莊區新泰路369巷18號","121.442776666667","25.0432916666667","6500500","新莊區"
"242004","349-TH","2018/12/31 17:39:21","新北市新莊區自立街180號","121.456108333333","25.0456166666667","6500500","新莊區"
"242015","351-TH","2018/12/31 17:39:12","新北市新莊區新泰路286號","121.445695","25.040575","6500500","新莊區"
"238015","755-BX","2018/12/31 17:39:11","新北市樹林區樹德街122號","121.419455","24.9928833333333","6500700","樹林區"
"238023","601-UM","2018/12/31 17:39:16","新北市樹林區三福街70巷1號","121.404796666667","25.01648","6500700","樹林區"
"238019","599-UM","2018/12/31 17:39:22","新北市樹林區太平路125號","121.419225","24.9804733333333","6500700","樹林區"
"238018","571-TV","2018/12/31 17:39:10","新北市樹林區博愛街24號","121.427533333333","24.992725","6500700","樹林區"
"238022","KEA-2213","2018/12/31 17:39:13","新北市樹林區太平路96號","121.418526666667","24.9794466666667","6500700","樹林區"
"238021","KEA-2539","2018/12/31 17:39:23","新北市樹林區柑園街一段253巷25號","121.396551666667","24.95432","6500700","樹林區"
"238025","303-VK","2018/12/31 17:39:12","新北市樹林區三俊街6號","121.410913333333","25.015385","6500700","樹林區"
"238004","283-BY","2018/12/31 17:39:22","新北市樹林區三德街30巷5號","121.41463","25.0128783333333","6500700","樹林區"
"238014","282-BY","2018/12/31 17:39:14","新北市樹林區保安街一段313巷28號","121.41699","24.9974266666667","6500700","樹林區"
"238020","268-VK","2018/12/31 17:39:18","新北市樹林區俊英街116巷2號","121.427646666667","25.0057066666667","6500700","樹林區"
"238026","172-UY","2018/12/31 17:39:19","新北市樹林區新興街19巷34弄12號","121.40205","24.9731283333333","6500700","樹林區"
"238016","169-UY","2018/12/31 17:39:19","新北市樹林區育英街146號","121.419148333333","24.989465","6500700","樹林區"
"239007","AAC-297","2018/12/31 17:39:20","新北市鶯歌區鶯桃路180號","121.336975","24.9554533333333","6500800","鶯歌區"
"239006","891-R6","2018/12/31 17:39:11","新北市鶯歌區永和街115巷24號","121.333403333333","24.9691133333333","6500800","鶯歌區"
"239008","527-UM","2018/12/31 17:39:11","新北市鶯歌區大湖路732巷12號","121.333141666667","24.9773483333333","6500800","鶯歌區"
"239005","526-UM","2018/12/31 17:32:23","桃園市八德區桃鶯路49號","121.327286666667","24.97113","6500800","鶯歌區"
"239001","417-VK","2018/12/31 17:39:13","新北市鶯歌區中正三路236號","121.330858333333","24.9371983333333","6500800","鶯歌區"
"239003","360-BY","2018/12/31 17:39:21","新北市鶯歌區鶯桃路206巷14號","121.337576666667","24.9594433333333","6500800","鶯歌區"
"239002","359-BY","2018/12/31 17:39:10","新北市鶯歌區育才街89號","121.346886666667","24.9545033333333","6500800","鶯歌區"
"239004","193-VK","2018/12/31 17:39:09","新北市鶯歌區三鶯路97號","121.359301666667","24.9440433333333","6500800","鶯歌區"
"221008","489-VK","2018/12/31 17:39:20","新北市汐止區康寧街901號","121.651388333333","25.0750466666667","6501100","汐止區"
"221010","269-BY","2018/12/31 17:39:09","新北市汐止區汐萬路一段418巷25號","121.650015","25.07898","6501100","汐止區"
"221023","279-VK","2018/12/31 17:39:10","新北市汐止區康寧街901號","121.651651666667","25.074965","6501100","汐止區"
"221021","299-VK","2018/12/31 17:39:18","新北市汐止區康寧街901號","121.65093","25.0752266666667","6501100","汐止區"
"221018","753-BX","2018/12/31 17:39:11","新北市汐止區康寧街901號","121.65146","25.0750083333333","6501100","汐止區"
"242042","281-VK","2018/12/31 17:39:23","新北市新莊區中正路514巷23號","121.432865","25.0330583333333","6500500","新莊區"
"235068","KEA-2873","2018/12/31 17:39:02","新北市中和區員山路36巷16-3號","121.485116666667","24.9912433333333","6500300","中和區"
"235061","KEA-2875","2018/12/31 17:24:36","新北市中和區員山路36巷16-2號","121.485306666667","24.991635","6500300","中和區"
