"lineid","car","time","location","longitude","latitude","cityid","cityname"
"234046","148-BY","2018/12/31 18:39:25","新北市永和區永元路40巷25號","121.52279","25.0007983333333","6500400","永和區"
"234081","298-R6","2018/12/31 18:39:19","新北市永和區林森路81號","121.52384","25.0039466666667","6500400","永和區"
"234064","337-UY","2018/12/31 18:39:10","新北市永和區福和路1號","121.526601666667","25.010055","6500400","永和區"
"234086","338-UY","2018/12/31 18:39:21","新北市永和區中正路588-1號","121.517035","25.0068866666667","6500400","永和區"
"234070","552-UM","2018/12/31 18:39:08","新北市永和區福和路1號","121.526038333333","25.0091416666667","6500400","永和區"
"234030","746-BX","2018/12/31 18:39:18","新北市永和區林森路101巷4號","121.523178333333","25.0034983333333","6500400","永和區"
"234007","839-RS","2018/12/31 18:39:11","新北市永和區文化路123號","121.512216666667","25.0153533333333","6500400","永和區"
"234013","KEA-2591","2018/12/31 18:39:19","新北市永和區信義路14-2號","121.51452","25.012185","6500400","永和區"
"234042","862-TW","2018/12/31 18:39:15","新北市永和區中和路615號","121.51274","25.00466","6500400","永和區"
"234026","9371-KE","2018/12/31 18:39:05","新北市永和區永貞路435號","121.506946666667","25.0099116666667","6500400","永和區"
"234011","9373-KE","2018/12/31 18:39:21","新北市永和區仁愛路40巷5弄11號","121.513785","25.0136883333333","6500400","永和區"
"249005","172-UM","2018/12/31 18:39:22","新北市八里區中華路三段196號","121.388151666667","25.12553","6502300","八里區"
"249001","173-UM","2018/12/31 18:39:16","新北市八里區龍米路一段360號","121.451578333333","25.131385","6502300","八里區"
"249004","303-UY","2018/12/31 18:39:22","新北市八里區大崁腳41-6號","121.423771666667","25.15898","6502300","八里區"
"249002","305-UY","2018/12/31 18:39:10","新北市八里區龍形一街12巷6號","121.449971666667","25.1306533333333","6502300","八里區"
"248016","026-BX","2018/12/31 18:39:21","新北市五股區凌雲路一段133巷27-3號","121.448631666667","25.1008783333333","6501500","五股區"
"248008","095-VK","2018/12/31 18:39:07","新北市五股區中興路一段150巷12號","121.464648333333","25.0744133333333","6501500","五股區"
"248018","225-UY","2018/12/31 18:39:02","新北市五股區民義路二段122號","121.405336666667","25.11446","6501500","五股區"
"248012","247-BX","2018/12/31 18:39:21","新北市五股區成泰路三段2巷1-20號","121.441233333333","25.0866383333333","6501500","五股區"
"248014","261-SL","2018/12/31 18:39:08","新北市五股區蓬萊路24號","121.434185","25.0798","6501500","五股區"
"248004","677-BX","2018/12/31 18:39:24","新北市五股區民義路一段255-3號","121.427136666667","25.091445","6501500","五股區"
"248002","678-BX","2018/12/31 18:37:39","新北市五股區西雲路199-2號","121.447973333333","25.0962283333333","6501500","五股區"
"248010","682-TV","2018/12/31 18:39:12","新北市五股區水碓三路120號","121.431818333333","25.073585","6501500","五股區"
"234023","9380-KE","2018/12/31 18:39:04","新北市永和區福和路76巷5弄12號","121.522438333333","25.0083983333333","6500400","永和區"
"234077","969-R7","2018/12/31 18:39:12","新北市永和區中正路197號","121.517318333333","24.9992783333333","6500400","永和區"
"234067","AAC-212","2018/12/31 18:39:25","新北市永和區永貞路125號","121.516905","25.0042933333333","6500400","永和區"
"234003","AAC-295","2018/12/31 18:39:09","新北市永和區福和路1號","121.525875","25.009115","6500400","永和區"
"244007","080-UY","2018/12/31 18:39:15","新北市林口區太平里4鄰20號","121.377646666667","25.116145","6501700","林口區"
"244019","402-UM","2018/12/31 18:39:17","新北市林口區麗園二街76-3號","121.381773333333","25.06779","6501700","林口區"
"244013","KEA-2802","2018/12/31 18:39:05","新北市林口區文化一路二段92號","121.381923333333","25.0786283333333","6501700","林口區"
"244023","483-VK","2018/12/31 18:39:11","新北市林口區四維路245巷43號","121.38252","25.0753266666667","6501700","林口區"
"244017","485-VK","2018/12/31 18:39:05","新北市林口區文化二路一段22號","121.364708333333","25.06724","6501700","林口區"
"244009","656-BX","2018/12/31 18:39:08","新北市林口區竹林路278巷2號","121.39043","25.0817216666667","6501700","林口區"
"244011","657-BX","2018/12/31 18:39:12","新北市林口區仁愛路一段356號","121.390258333333","25.0765133333333","6501700","林口區"
"244025","837-TS","2018/12/31 18:39:17","新北市林口區南勢街342號","121.35739","25.07725","6501700","林口區"
"244021","838-TS","2018/12/31 18:39:08","新北市林口區自強二街10號","121.397581666667","25.0782683333333","6501700","林口區"
"243010","267-VK","2018/12/31 18:39:08","新北市泰山區犁頭窠3-1號","121.422248333333","25.060535","6501600","泰山區"
"243013","AAD-798","2018/12/31 18:28:27","新北市泰山區明志路三段206巷5號","121.42323","25.0380033333333","6501600","泰山區"
"243016","KEA-2801","2018/12/31 18:39:26","新北市泰山區泰林路二段580號","121.422333333333","25.063615","6501600","泰山區"
"243015","421-VK","2018/12/31 18:39:12","新北市泰山區黎明路25號","121.42196","25.0608316666667","6501600","泰山區"
"243012","646-TV","2018/12/31 18:39:24","新北市泰山區福興三街11號","121.434488333333","25.0577833333333","6501600","泰山區"
"243014","680-BX","2018/12/31 18:39:10","新北市泰山區黎明路25號","121.422115","25.06066","6501600","泰山區"
"222003","436-BY","2018/12/31 18:39:18","新北市深坑區翠谷街12巷1號","121.627123333333","25.0086","6501800","深坑區"
"222002","659-BX","2018/12/31 18:39:15","新北市深坑區雲鄉路56號","121.621956666667","24.99952","6501800","深坑區"
"231041","002-UM","2018/12/31 18:39:25","新北市新店區安華路28-1號","121.519556666667","24.960865","6500600","新店區"
"231059","046-UY","2018/12/31 18:39:11","新北市新店區安華路28-1號","121.519531666667","24.960775","6500600","新店區"
"231040","047-UY","2018/12/31 18:39:08","新北市新店區安華路28-1號","121.519221666667","24.9608833333333","6500600","新店區"
"231044","106-UY","2018/12/31 18:39:05","新北市新店區北新路一段91號","121.538843333333","24.9617733333333","6500600","新店區"
"231046","107-UY","2018/12/31 18:39:22","新北市新店區直潭二街1號","121.535495","24.9431866666667","6500600","新店區"
"231052","108-UY","2018/12/31 18:39:13","新北市新店區永興路9號","121.544481666667","24.939505","6500600","新店區"
"231047","187-VK","2018/12/31 18:39:12","新北市新店區安一路一段1-1號","121.519558333333","24.96111","6500600","新店區"
"231054","188-VK","2018/12/31 18:39:10","新北市新店區安康路一段355-3號","121.51981","24.9623333333333","6500600","新店區"
"221035","KEA-2785","2018/12/31 18:39:21","新北市汐止區大同路二段280號","121.654921666667","25.0663016666667","6501100","汐止區"
"231057","256-BX","2018/12/31 18:39:24","新北市新店區新烏路一段201號","121.547768333333","24.9318216666667","6500600","新店區"
"231042","268-BY","2018/12/31 18:39:20","新北市新店區安華路28-1號","121.519366666667","24.9606116666667","6500600","新店區"
"231051","278-BY","2018/12/31 18:39:20","新北市新店區中央路97號","121.531151666667","24.9752066666667","6500600","新店區"
"231050","AAD-862","2018/12/31 18:39:11","新北市新店區安一路一段1-1號","121.519678333333","24.9611633333333","6500600","新店區"
"231043","355-BY","2018/12/31 18:39:20","新北市新店區安一路一段1-1號","121.519295","24.96105","6500600","新店區"
"231058","3713-VJ","2018/12/31 18:39:23","新北市新店區國校路70號","121.5384","24.9531816666667","6500600","新店區"
"231066","4716-K9","2018/12/31 18:39:23","新北市新店區安一路一段1-1號","121.519398333333","24.9613316666667","6500600","新店區"
"231056","4715-K9","2018/12/31 18:39:06","新北市新店區大豐路68巷19號","121.538305","24.98027","6500600","新店區"
"231067","4772-VM","2018/12/31 18:39:09","新北市新店區安華路28-1號","121.519226666667","24.9605916666667","6500600","新店區"
"231065","512-UM","2018/12/31 18:39:20","新北市新店區安一路一段1-1號","121.519248333333","24.961405","6500600","新店區"
"231049","513-UM","2018/12/31 18:39:08","新北市新店區安一路一段1-1號","121.519631666667","24.9611666666667","6500600","新店區"
"231045","617-UM","2018/12/31 18:39:10","新北市新店區安華路28-1號","121.519456666667","24.960815","6500600","新店區"
"231061","619-UM","2018/12/31 18:39:23","新北市新店區安華路28-1號","121.519568333333","24.9606333333333","6500600","新店區"
"231063","641-BX","2018/12/31 18:39:04","新北市新店區安華路28-1號","121.519508333333","24.9605533333333","6500600","新店區"
"231064","719-UM","2018/12/31 18:39:07","新北市新店區安一路一段1-1號","121.51949","24.9612083333333","6500600","新店區"
"231062","720-UM","2018/12/31 18:39:15","新北市新店區安一路一段1-1號","121.519343333333","24.961345","6500600","新店區"
"231060","897-TW","2018/12/31 18:39:10","新北市新店區安華路28-1號","121.519511666667","24.9608683333333","6500600","新店區"
"231055","AKT-0513","2018/12/31 18:39:14","新北市新店區中華路85號","121.539228333333","24.9685966666667","6500600","新店區"
"241011","013-R5","2018/12/31 18:39:04","新北市三重區河邊北街110巷54號","121.502441666667","25.0705216666667","6500200","三重區"
"251014","742-BX","2018/12/31 18:39:08","新北市淡水區崙頂12-8號","121.495558333333","25.2172416666667","6501000","淡水區"
"241004","475-VK","2018/12/31 18:39:15","新北市蘆洲區環堤大道396號","121.47913","25.0961833333333","6500200","三重區"
"241023","887-TS","2018/12/31 18:39:17","新北市三重區忠孝路三段50巷41弄5號","121.482303333333","25.0644183333333","6500200","三重區"
"235066","003-UY","2018/12/31 18:39:18","新北市中和區水源路30號","121.50467","25.0035416666667","6500300","中和區"
"235064","005-UY","2018/12/31 18:39:19","新北市中和區連城路89巷1號","121.496736666667","25.0000033333333","6500300","中和區"
"235063","006-UY","2018/12/31 18:39:27","新北市中和區建一路198號","121.487853333333","24.9963666666667","6500300","中和區"
"235056","096-UM","2018/12/31 18:39:11","新北市中和區員山路611巷1號","121.477953333333","25.011305","6500300","中和區"
"235039","097-UM","2018/12/31 18:39:11","新北市永和區中正路1號","121.513678333333","24.99543","6500300","中和區"
"235040","150-BY","2018/12/31 18:39:23","新北市中和區宜安路41號","121.511775","24.99635","6500300","中和區"
"235058","151-BY","2018/12/31 18:39:18","新北市中和區員山路57號","121.48085","24.9933783333333","6500300","中和區"
"235055","183-VK","2018/12/31 18:39:21","新北市板橋區民族路276巷1弄25號","121.470495","25.0063333333333","6500300","中和區"
"235038","185-VK","2018/12/31 18:39:20","新北市中和區大勇街60巷29號","121.518953333333","24.9947066666667","6500300","中和區"
"235049","186-VK","2018/12/31 18:39:18","新北市中和區明義街32號","121.50394","24.9951683333333","6500300","中和區"
"235067","255-BX","2018/12/31 18:39:14","新北市中和區中正路881號","121.484383333333","25.0041916666667","6500300","中和區"
"235044","293-VK","2018/12/31 18:39:12","新北市中和區復興路280巷18弄6號","121.502245","24.9916783333333","6500300","中和區"
"235042","KEA-2878","2018/12/31 18:39:10","新北市中和區成功路36號","121.526066666667","24.9932466666667","6500300","中和區"
"247012","KEA-2869","2018/12/31 18:39:15","新北市林口區太平里180號","121.366531666667","25.1345783333333","6501400","蘆洲區"
"235050","4979-A6","2018/12/31 18:39:09","新北市中和區忠孝街123號","121.51251","24.9881666666667","6500300","中和區"
"235069","4980-A6","2018/12/31 18:39:20","新北市中和區連城路97號","121.496563333333","24.9999783333333","6500300","中和區"
"235070","558-UM","2018/12/31 18:39:25","新北市中和區景平路568號","121.502056666667","24.9954333333333","6500300","中和區"
"235045","565-BX","2018/12/31 18:39:06","新北市中和區南山路208巷2號","121.506033333333","24.9902316666667","6500300","中和區"
"235054","640-BX","2018/12/31 18:39:21","新北市中和區民享街32巷19號","121.472608333333","25.0031466666667","6500300","中和區"
"235060","647-TV","2018/12/31 18:39:11","新北市中和區中山路三段81號","121.475806666667","25.0059116666667","6500300","中和區"
"235047","732-UM","2018/12/31 18:39:09","新北市中和區南山路320巷10弄21號","121.506806666667","24.9866633333333","6500300","中和區"
"235046","733-UM","2018/12/31 18:39:20","新北市中和區忠孝街99-3號","121.511948333333","24.986135","6500300","中和區"
"235062","800-TS","2018/12/31 18:39:19","新北市中和區中山路二段312巷41號","121.495148333333","25.0041516666667","6500300","中和區"
"235057","801-TS","2018/12/31 18:39:16","新北市中和區員山路327巷8號","121.480896666667","25.0012083333333","6500300","中和區"
"235041","802-TS","2018/12/31 18:39:08","新北市中和區宜安路123號","121.50998","24.9980716666667","6500300","中和區"
"235052","805-TS","2018/12/31 18:39:10","新北市中和區興南路三段46號","121.49558","24.9763033333333","6500300","中和區"
"235048","896-TW","2018/12/31 18:39:13","新北市中和區南山路405號","121.5069","24.9898566666667","6500300","中和區"
"235053","900-TW","2018/12/31 18:39:14","新北市中和區華安街16巷8號","121.466503333333","24.99794","6500300","中和區"
"235065","911-UM","2018/12/31 18:39:04","新北市中和區莊敬路49巷27號","121.50155","25.0062366666667","6500300","中和區"
"235051","157-BY","2018/12/31 18:39:23","新北市中和區華新街143巷51號","121.506233333333","24.9801766666667","6500300","中和區"
"235037","AAC-213","2018/12/31 18:39:19","新北市中和區景德街64號","121.517115","24.9915266666667","6500300","中和區"
"235059","AAC-215","2018/12/31 18:39:18","新北市中和區錦和路354巷15號","121.489755","24.991545","6500300","中和區"
"220065","072-UY","2018/12/31 18:39:24","新北市板橋區實踐路79號","121.463923333333","25.0060883333333","6500100","板橋區"
"220086","073-UY","2018/12/31 18:39:22","新北市板橋區南雅西路二段265號","121.451835","25.0149833333333","6500100","板橋區"
"220106","075-UY","2018/12/31 18:39:18","新北市板橋區民生路二段161巷9號","121.47023","25.0195716666667","6500100","板橋區"
"220069","AAD-861","2018/12/31 18:39:23","新北市板橋區大華街10號","121.4588","25.0063","6500100","板橋區"
"247010","336-TH","2018/12/31 18:39:07","新北市八里區中山路三段131號","121.388671666667","25.1423016666667","6501400","蘆洲區"
"226004","312-R5","2018/12/31 18:39:08","新北市平溪區石底里公園街18-3號","121.733518333333","25.0256083333333","6502400","平溪區"
"235072","251-BX","2018/12/31 18:39:22","新北市中和區中山路二段181號","121.501043333333","25.0027366666667","6500300","中和區"
"228003","097-TW","2018/12/31 18:39:16","新北市貢寮區和美里龍洞街40-2號","121.915228333333","25.1116966666667","6502600","貢寮區"
"228002","585-TW","2018/12/31 18:39:23","新北市貢寮區福隆里東興街6-6號","121.95115","25.021105","6502600","貢寮區"
"228001","670-TC","2018/12/31 18:39:16","新北市貢寮區仁理村研海街12-1號","121.923768333333","25.0516916666667","6502600","貢寮區"
"224010","AGQ-8101","2018/12/31 18:39:07","新北市瑞芳區街頂巷21號","121.844405","25.107455","6501200","瑞芳區"
"224006","676-BX","2018/12/31 18:39:10","新北市瑞芳區明燈路三段37-3號","121.807093333333","25.107925","6501200","瑞芳區"
"224008","285-BY","2018/12/31 18:39:19","新北市瑞芳區瑞芳街43號","121.806436666667","25.109475","6501200","瑞芳區"
"224007","275-VK","2018/12/31 18:39:13","新北市瑞芳區大埔路81號","121.763861666667","25.10159","6501200","瑞芳區"
"224009","273-VK","2018/12/31 18:39:15","新北市瑞芳區祈堂路64號","121.859058333333","25.10944","6501200","瑞芳區"
"224005","271-BY","2018/12/31 18:39:19","新北市瑞芳區連福新城3號","121.819583333333","25.1198183333333","6501200","瑞芳區"
"227001","642-TC","2018/12/31 18:39:12","新北市雙溪區魚行里坤溪3-5號","121.876178333333","25.0208733333333","6502500","雙溪區"
"227008","400-TW","2018/12/31 18:39:21","新北市雙溪區牡丹里牡丹206號","121.850716666667","25.05682","6502500","雙溪區"
"253006","032-BX","2018/12/31 18:39:23","新北市石門區崁子腳58-55號","121.530425","25.2867966666667","6502200","石門區"
"253005","295-VK","2018/12/31 18:39:21","新北市石門區中山路28-3號","121.565756666667","25.289835","6502200","石門區"
"222001","KEA-2212","2018/12/31 18:39:22","新北市深坑區北深路一段82號","121.636316666667","25.0106866666667","6501800","深坑區"
"208002","KEA-2872","2018/12/31 18:39:10","新北市金山區忠孝一路20巷2號","121.638556666667","25.2193416666667","6502700","金山區"
"208003","665-BX","2018/12/31 18:39:22","新北市金山區中山路280號","121.634941666667","25.2243816666667","6502700","金山區"
"208001","761-BX","2018/12/31 18:39:23","新北市金山區文化一路13號","121.63616","25.224145","6502700","金山區"
"251004","009-UM","2018/12/31 18:39:20","新北市淡水區民權路41號","121.460295","25.1402966666667","6501000","淡水區"
"251013","KEA-2871","2018/12/31 18:39:14","新北市淡水區小坑子頭1號","121.479045","25.2097766666667","6501000","淡水區"
"251016","179-VK","2018/12/31 18:39:14","新北市淡水區下圭柔山83號","121.437858333333","25.205395","6501000","淡水區"
"251008","181-VK","2018/12/31 18:39:18","新北市淡水區北投子15-4號","121.452053333333","25.18255","6501000","淡水區"
"251015","182-VK","2018/12/31 18:39:17","新北市淡水區興福寮66巷267號","121.486778333333","25.162165","6501000","淡水區"
"251010","413-VK","2018/12/31 18:39:09","新北市淡水區沙崙路126號","121.423403333333","25.18287","6501000","淡水區"
"251012","441-VK","2018/12/31 18:39:25","新北市淡水區北新路121號","121.449026666667","25.1785966666667","6501000","淡水區"
"251001","559-UM","2018/12/31 18:39:22","新北市淡水區自強路415巷2號","121.465426666667","25.1341633333333","6501000","淡水區"
"251006","561-UM","2018/12/31 18:39:20","新北市淡水區中山北路二段14號","121.444485","25.1835566666667","6501000","淡水區"
"251011","650-BX","2018/12/31 18:39:06","新北市淡水區學府路32巷87號","121.448183333333","25.1677","6501000","淡水區"
"251002","672-BX","2018/12/31 18:39:19","新北市淡水區中正東路一段3巷14弄1號","121.45091","25.164215","6501000","淡水區"
"251003","673-BX","2018/12/31 18:39:15","新北市淡水區北新路69巷26號","121.446716666667","25.18008","6501000","淡水區"
"207003","550-UM","2018/12/31 18:39:23","新北市萬里區野柳里港東新村1-5號","121.685845","25.2030866666667","6502800","萬里區"
"207004","225-TW","2018/12/31 18:39:07","新北市萬里區萬里里獅頭路7號","121.691993333333","25.1783916666667","6502800","萬里區"
"252002","178-VK","2018/12/31 18:39:09","新北市三芝區民生街64巷11號","121.503645","25.2550666666667","6502100","三芝區"
"252003","249-BX","2018/12/31 18:39:07","新北市三芝區後厝里土地公坑57-1號","121.461701666667","25.247965","6502100","三芝區"
"237004","KEA-2597","2018/12/31 18:39:08","新北市三峽區插角82號","121.4062","24.8709083333333","6500900","三峽區"
"237007","153-BY","2018/12/31 18:39:09","新北市三峽區中正路二段536號","121.360516666667","24.90639","6500900","三峽區"
"237009","210-TH","2018/12/31 18:39:14","新北市三峽區弘園街48號","121.365798333333","24.9267116666667","6500900","三峽區"
"237013","252-BX","2018/12/31 18:39:09","新北市三峽區光明路69巷25號","121.376693333333","24.929155","6500900","三峽區"
"237012","275-BY","2018/12/31 18:39:16","新北市三峽區三樹路226號","121.37926","24.9427916666667","6500900","三峽區"
"237008","302-VK","2018/12/31 18:39:17","新北市三峽區白雞55-1號","121.38771","24.9123316666667","6500900","三峽區"
"237014","433-BY","2018/12/31 18:39:11","新北市三峽區和平街91-2號","121.37024","24.9377","6500900","三峽區"
"237006","5529-G3","2018/12/31 18:39:15","新北市三峽區溪東路371巷4弄2號","121.41221","24.9298683333333","6500900","三峽區"
"237015","649-BX","2018/12/31 18:39:11","新北市三峽區成福路284號","121.428445","24.9233133333333","6500900","三峽區"
"237010","706-TV","2018/12/31 18:39:24","新北市三峽區復興路485號","121.361288333333","24.9384333333333","6500900","三峽區"
"237005","AKY-6261","2018/12/31 18:39:12","新北市三峽區新興街11號","121.372671666667","24.93569","6500900","三峽區"
"236069","105-UM","2018/12/31 18:39:25","新北市土城區永豐路157巷29弄1號","121.46871","24.9814016666667","6501300","土城區"
"236042","KED-0685","2018/12/31 18:39:11","新北市土城區裕民路55巷17號","121.449373333333","24.9888416666667","6501300","土城區"
"236078","166-UM","2018/12/31 18:39:11","新北市土城區頂埔街95-1號","121.417941666667","24.9597866666667","6501300","土城區"
"236030","253-BX","2018/12/31 18:39:19","新北市土城區福仁街60巷1號","121.43949","24.974635","6501300","土城區"
"236026","269-VK","2018/12/31 18:39:26","新北市土城區忠義路53-2號","121.440763333333","24.968545","6501300","土城區"
"236014","270-VK","2018/12/31 18:39:17","新北市土城區清水路234巷20弄2號","121.462018333333","24.9817966666667","6501300","土城區"
"236039","271-VK","2018/12/31 18:39:08","新北市土城區明德路一段293號","121.46015","24.9771916666667","6501300","土城區"
"252001","KED-0821","2018/12/31 18:39:24","新北市三芝區中興街二段266號","121.501991666667","25.2527483333333","6502100","三芝區"
"236020","401-BY","2018/12/31 18:39:10","新北市土城區永豐路8號","121.465488333333","24.98475","6501300","土城區"
"236059","912-UM","2018/12/31 18:39:16","新北市土城區中央路三段137號","121.433583333333","24.965465","6501300","土城區"
"236048","913-UM","2018/12/31 18:39:09","新北市土城區金城路三段1號","121.464281666667","24.9860783333333","6501300","土城區"
"236063","915-UM","2018/12/31 18:39:24","新北市土城區延壽路13巷24號","121.470345","24.99101","6501300","土城區"
"236055","AAC-216","2018/12/31 18:39:20","新北市土城區裕民路27號","121.448035","24.9884683333333","6501300","土城區"
"242058","986-R7","2018/12/31 18:39:12","新北市新莊區中正路889-2號","121.415391666667","25.0237766666667","6500500","新莊區"
"242056","751-BX","2018/12/31 18:39:23","新北市新莊區瓊泰路77巷16號","121.442618333333","25.0290616666667","6500500","新莊區"
"242053","441-UM","2018/12/31 18:39:17","新北市板橋區金門街215巷121-1號","121.433881666667","24.9861716666667","6500500","新莊區"
"242046","400-BY","2018/12/31 18:39:19","新北市新莊區福營路350號","121.42138","25.0266966666667","6500500","新莊區"
"242004","349-TH","2018/12/31 18:39:21","新北市新莊區三和路12-21號","121.442251666667","25.03834","6500500","新莊區"
"238023","601-UM","2018/12/31 18:39:16","新北市樹林區三福街114號","121.406436666667","25.0162933333333","6500700","樹林區"
"238019","599-UM","2018/12/31 18:39:22","新北市樹林區中華路190-1號","121.411601666667","24.98055","6500700","樹林區"
"238018","571-TV","2018/12/31 18:39:10","新北市樹林區樹新路13號","121.426633333333","24.9939816666667","6500700","樹林區"
"238024","5061-A6","2018/12/31 18:39:25","新北市樹林區太順街79巷17號","121.417251666667","24.978115","6500700","樹林區"
"238022","KEA-2213","2018/12/31 18:39:13","新北市樹林區中華路190-1號","121.411373333333","24.9805233333333","6500700","樹林區"
"238025","303-VK","2018/12/31 18:39:26","新北市樹林區中山路三段22號","121.395616666667","24.97293","6500700","樹林區"
"238020","268-VK","2018/12/31 18:39:18","新北市樹林區俊安街42-1號","121.419376666667","25.0132783333333","6500700","樹林區"
"238026","172-UY","2018/12/31 18:39:19","新北市樹林區育德街78-1號","121.387955","24.9681183333333","6500700","樹林區"
"238016","169-UY","2018/12/31 18:39:18","新北市樹林區中山路二段34號","121.417243333333","24.9850666666667","6500700","樹林區"
"239007","AAC-297","2018/12/31 18:39:20","新北市鶯歌區中正一路461-2號","121.363173333333","24.9567416666667","6500800","鶯歌區"
"239008","527-UM","2018/12/31 18:39:11","新北市鶯歌區國際一路179號","121.3362","24.97651","6500800","鶯歌區"
"239005","526-UM","2018/12/31 18:35:41","桃園市八德區仁安街57號","121.324196666667","24.97085","6500800","鶯歌區"
"239001","417-VK","2018/12/31 18:39:13","新北市鶯歌區中正三路191號","121.3357","24.9394266666667","6500800","鶯歌區"
"239003","360-BY","2018/12/31 18:39:20","新北市鶯歌區永和街45號","121.33259","24.9674233333333","6500800","鶯歌區"
"239004","193-VK","2018/12/31 18:39:09","新北市鶯歌區中正三路237號","121.334265","24.93882","6500800","鶯歌區"
"221008","489-VK","2018/12/31 18:39:20","新北市汐止區康寧街901號","121.651458333333","25.0750683333333","6501100","汐止區"
"221036","130-UY","2018/12/31 18:39:14","新北市汐止區水碓街59號","121.665206666667","25.0689666666667","6501100","汐止區"
"221015","131-UY","2018/12/31 18:39:21","新北市汐止區吉祥街26號","121.66783","25.08104","6501100","汐止區"
"221010","269-BY","2018/12/31 18:39:09","新北市汐止區汐萬路三段229號","121.643703333333","25.1046583333333","6501100","汐止區"
"221012","278-VK","2018/12/31 18:39:20","新北市汐止區長安路77巷22弄12號","121.669495","25.079095","6501100","汐止區"
"221023","279-VK","2018/12/31 18:39:10","新北市汐止區康寧街541巷9號","121.633803333333","25.0693883333333","6501100","汐止區"
"221032","280-BY","2018/12/31 18:39:19","新北市汐止區福山街60巷11號","121.618168333333","25.0462883333333","6501100","汐止區"
"221027","281-BY","2018/12/31 18:39:15","新北市汐止區汐萬路一段81號","121.654523333333","25.070365","6501100","汐止區"
"221029","298-VK","2018/12/31 18:39:20","新北市汐止區樟樹一路131號","121.642148333333","25.064915","6501100","汐止區"
"221021","299-VK","2018/12/31 18:39:18","新北市汐止區新興路51號","121.657186666667","25.0630233333333","6501100","汐止區"
"221031","353-TW","2018/12/31 18:39:26","新北市汐止區福德一路274號","121.632126666667","25.0639416666667","6501100","汐止區"
"221025","623-UM","2018/12/31 18:39:15","新北市汐止區仁愛路121巷9號","121.662615","25.0642383333333","6501100","汐止區"
"221038","646-BX","2018/12/31 18:39:17","新北市汐止區汐萬路一段256巷3號","121.653401666667","25.0747533333333","6501100","汐止區"
"221033","647-BX","2018/12/31 18:39:10","台北市南港區舊莊街一段145巷6弄31號","121.621961666667","25.039925","6501100","汐止區"
"221002","707-TV","2018/12/31 18:39:19","新北市汐止區中興路18號","121.637173333333","25.0595316666667","6501100","汐止區"
"221018","753-BX","2018/12/31 18:39:11","新北市汐止區茄苳路250巷26號","121.67174","25.0676716666667","6501100","汐止區"
"220079","145-BY","2018/12/31 18:39:21","新北市板橋區南雅西路二段145巷4號","121.451796666667","25.0117666666667","6500100","板橋區"
"220082","610-BX","2018/12/31 18:39:16","新北市板橋區大觀路三段50巷49號","121.432166666667","24.9958966666667","6500100","板橋區"
"224002","257-TC","2018/12/31 18:39:11","新北市瑞芳區國中新村18號","121.817188333333","25.1073833333333","6501200","瑞芳區"
"220056","276-BY","2018/12/31 18:39:10","新北市板橋區貴興路82號","121.456203333333","25.0027633333333","6500100","板橋區"
"220072","277-BY","2018/12/31 18:39:26","新北市板橋區大觀路三段133巷4號","121.432975","24.9939333333333","6500100","板橋區"
"220071","283-VK","2018/12/31 18:39:19","新北市板橋區四川路二段237號","121.450926666667","24.9939816666667","6500100","板橋區"
"220094","285-UM","2018/12/31 18:39:17","新北市板橋區民生路二段161巷9號","121.470291666667","25.0196983333333","6500100","板橋區"
"220083","286-VK","2018/12/31 18:39:09","新北市板橋區大觀路二段153巷46弄1號","121.448745","24.9986066666667","6500100","板橋區"
"220081","287-VK","2018/12/31 18:39:11","新北市板橋區大觀路一段51號","121.447616666667","25.0065116666667","6500100","板橋區"
"220090","288-VK","2018/12/31 18:39:21","新北市板橋區民生路二段161巷9號","121.470148333333","25.0195916666667","6500100","板橋區"
"220062","295-UM","2018/12/31 18:39:14","新北市板橋區民生路二段161巷17號","121.470173333333","25.0192166666667","6500100","板橋區"
"220084","296-UM","2018/12/31 18:39:24","新北市板橋區大觀路二段148巷1號","121.441835","24.999615","6500100","板橋區"
"242042","281-VK","2018/12/31 18:39:26","新北市新莊區壽山路45號","121.414953333333","25.0312183333333","6500500","新莊區"
"220075","303-R5","2018/12/31 18:39:18","新北市板橋區華東街330號","121.452818333333","25.00376","6500100","板橋區"
"220092","307-R5","2018/12/31 18:35:15","新北市板橋區民生路二段120號","121.470343333333","25.0199133333333","6500100","板橋區"
"220098","317-R6","2018/12/31 18:39:14","新北市板橋區民生路二段161巷9號","121.470308333333","25.019635","6500100","板橋區"
"220089","487-VK","2018/12/31 18:39:07","新北市板橋區民生路二段161巷1號","121.46989","25.0199783333333","6500100","板橋區"
"220035","560-BX","2018/12/31 18:39:12","新北市板橋區南雅西路二段303號","121.4521","25.015725","6500100","板橋區"
"220080","568-UM","2018/12/31 18:39:12","新北市板橋區大觀路二段265巷76弄36號","121.441081666667","24.9967933333333","6500100","板橋區"
"220055","630-UY","2018/12/31 18:39:17","新北市板橋區忠孝路21號","121.460436666667","25.0019216666667","6500100","板橋區"
"220091","637-BX","2018/12/31 18:39:13","新北市板橋區民生路二段120號","121.47071","25.0196333333333","6500100","板橋區"
"220057","686-BX","2018/12/31 18:39:19","新北市板橋區大觀路二段266號","121.449398333333","24.9966966666667","6500100","板橋區"
"220077","687-BX","2018/12/31 18:39:11","新北市板橋區華東街1-10號","121.448378333333","24.9949616666667","6500100","板橋區"
"220093","689-BX","2018/12/31 18:39:16","新北市板橋區民生路二段161巷1號","121.469968333333","25.0200766666667","6500100","板橋區"
"220054","741-BX","2018/12/31 18:39:23","新北市板橋區南雅南路一段1巷35號","121.45767","25.006475","6500100","板橋區"
"220067","829-TW","2018/12/31 18:39:13","新北市板橋區民生路二段120號","121.470786666667","25.0195416666667","6500100","板橋區"
"220074","895-R6","2018/12/31 18:39:24","新北市板橋區南雅南路一段112號","121.454915","25.004175","6500100","板橋區"
"220073","985-R7","2018/12/31 18:39:22","新北市土城區四川路37號","121.454801666667","24.9957466666667","6500100","板橋區"
"220064","AAC-253","2018/12/31 18:39:14","新北市板橋區民生路二段36-1號","121.472118333333","25.0167966666667","6500100","板橋區"
"235068","KEA-2873","2018/12/31 18:39:02","新北市中和區中興街118巷8號","121.499853333333","24.9934266666667","6500300","中和區"
"235061","KEA-2875","2018/12/31 18:39:20","新北市中和區民享街92巷21號","121.473825","24.99948","6500300","中和區"
