"lineid","car","time","location","longitude","latitude","cityid","cityname"
"234046","148-BY","2018/12/31 19:29:25","新北市永和區秀朗路二段229號","121.526413333333","25.0003666666667","6500400","永和區"
"234081","298-R6","2018/12/31 19:29:26","新北市永和區福和路5-1號","121.524988333333","25.0087183333333","6500400","永和區"
"234038","336-UY","2018/12/31 19:29:14","新北市永和區民樂街30巷2號","121.527578333333","25.001275","6500400","永和區"
"234064","337-UY","2018/12/31 19:29:24","新北市永和區得和路243巷28弄1號","121.52089","25.0013466666667","6500400","永和區"
"234086","338-UY","2018/12/31 19:29:21","新北市永和區林森路77號","121.523955","25.004015","6500400","永和區"
"234070","552-UM","2018/12/31 19:29:25","新北市永和區警光街2號","121.520161666667","25.0096266666667","6500400","永和區"
"234017","745-BX","2018/12/31 19:29:14","新北市永和區環河西路一段87號","121.512351666667","25.01784","6500400","永和區"
"234030","746-BX","2018/12/31 19:29:18","新北市永和區民生路53號","121.522711666667","24.997675","6500400","永和區"
"234054","KEA-2590","2018/12/31 19:29:25","新北市永和區復興街7號","121.51585","25.0129033333333","6500400","永和區"
"234007","839-RS","2018/12/31 19:29:10","新北市永和區永和路一段212號","121.514366666667","25.0094816666667","6500400","永和區"
"234013","KEA-2591","2018/12/31 19:29:19","新北市永和區永和路二段28號","121.514706666667","25.01036","6500400","永和區"
"234061","AAD-866","2018/12/31 19:29:10","新北市永和區永貞路160號","121.517566666667","25.0044583333333","6500400","永和區"
"234042","862-TW","2018/12/31 19:29:15","新北市永和區水源街30巷2號","121.511391666667","25.0046366666667","6500400","永和區"
"234050","863-TW","2018/12/31 19:29:10","新北市永和區信義路106號","121.512381666667","25.01418","6500400","永和區"
"234026","9371-KE","2018/12/31 19:29:25","新北市中和區中安街98-1號","121.511735","25.00124","6500400","永和區"
"234011","9373-KE","2018/12/31 19:29:21","新北市永和區保安路87號","121.508358333333","25.0146083333333","6500400","永和區"
"249003","593-UM","2018/12/31 19:29:24","新北市八里區商港六路23號","121.39667","25.1485883333333","6502300","八里區"
"248016","026-BX","2018/12/31 19:29:21","新北市五股區成泰路三段482號","121.451853333333","25.1015016666667","6501500","五股區"
"248008","095-VK","2018/12/31 19:29:17","新北市五股區中興路一段97號","121.466678333333","25.0729133333333","6501500","五股區"
"248018","225-UY","2018/12/31 19:27:42","新北市五股區壟路16-1號","121.414553333333","25.08532","6501500","五股區"
"248012","247-BX","2018/12/31 19:29:21","新北市五股區成泰路二段91巷8號","121.437676666667","25.0844616666667","6501500","五股區"
"248014","261-SL","2018/12/31 19:29:09","新北市五股區民義路一段183巷9-3號","121.430105","25.086585","6501500","五股區"
"248004","677-BX","2018/12/31 19:29:04","新北市五股區五福路35號","121.433578333333","25.089495","6501500","五股區"
"248002","678-BX","2018/12/31 19:29:19","新北市五股區凌雲路一段158巷1號","121.447746666667","25.103105","6501500","五股區"
"248010","682-TV","2018/12/31 19:29:12","新北市五股區水碓一路25號","121.43074","25.07137","6501500","五股區"
"234023","9380-KE","2018/12/31 19:29:24","新北市永和區竹林路91巷43弄2號","121.521305","25.0128066666667","6500400","永和區"
"234077","969-R7","2018/12/31 19:29:12","新北市永和區民治街29號","121.519646666667","24.9976766666667","6500400","永和區"
"234074","AAC-211","2018/12/31 19:29:18","新北市永和區竹林路13號","121.516786666667","25.0149083333333","6500400","永和區"
"234067","AAC-212","2018/12/31 19:29:25","新北市永和區永貞路345號","121.509406666667","25.0073183333333","6500400","永和區"
"234003","AAC-295","2018/12/31 19:29:16","新北市永和區自強街8巷5弄2號","121.514623333333","25.0075316666667","6500400","永和區"
"244023","483-VK","2018/12/31 19:29:11","新北市林口區民有街73號","121.372925","25.0773283333333","6501700","林口區"
"243010","267-VK","2018/12/31 19:29:28","新北市泰山區民權街41號","121.4292","25.05087","6501600","泰山區"
"243013","AAD-798","2018/12/31 19:29:12","新北市泰山區明志路三段145巷5弄34號","121.425765","25.040685","6501600","泰山區"
"243009","297-R6","2018/12/31 19:29:25","新北市泰山區明志路一段17號","121.433825","25.0658316666667","6501600","泰山區"
"243016","KEA-2801","2018/12/31 19:29:06","新北市泰山區明志路三段219號","121.42385","25.0381633333333","6501600","泰山區"
"243015","421-VK","2018/12/31 19:29:11","新北市泰山區民權街28號","121.428665","25.0506516666667","6501600","泰山區"
"243011","KEA-2215","2018/12/31 19:29:20","新北市泰山區貴子路140號","121.42889","25.0403383333333","6501600","泰山區"
"243012","646-TV","2018/12/31 19:29:24","新北市泰山區仁愛路132號","121.434285","25.0558333333333","6501600","泰山區"
"243014","680-BX","2018/12/31 19:29:10","新北市泰山區全興路167號","121.434488333333","25.0560333333333","6501600","泰山區"
"222003","436-BY","2018/12/31 19:29:18","新北市深坑區深南路88巷1號","121.620978333333","25.01172","6501800","深坑區"
"222002","659-BX","2018/12/31 19:29:11","新北市深坑區北深路一段177號","121.632541666667","25.0109016666667","6501800","深坑區"
"231041","002-UM","2018/12/31 19:29:25","新北市新店區中正路545號","121.53377","24.9877166666667","6500600","新店區"
"231059","046-UY","2018/12/31 19:29:11","新北市新店區安和路三段7號","121.518058333333","24.9806066666667","6500600","新店區"
"231040","047-UY","2018/12/31 19:29:25","新北市新店區北新路一段28號","121.540806666667","24.9657466666667","6500600","新店區"
"231044","106-UY","2018/12/31 19:29:05","新北市新店區中興路三段134號","121.54493","24.9798516666667","6500600","新店區"
"231046","107-UY","2018/12/31 19:29:22","新北市新店區中央路179-1號","121.535616666667","24.9692683333333","6500600","新店區"
"231052","108-UY","2018/12/31 19:29:13","新北市新店區新烏路二段300號","121.548525","24.913195","6500600","新店區"
"231047","187-VK","2018/12/31 19:29:12","新北市新店區五峰路70巷1號","121.546336666667","24.968105","6500600","新店區"
"231054","188-VK","2018/12/31 19:29:10","新北市新店區文中路40號","121.539741666667","24.9565333333333","6500600","新店區"
"231057","256-BX","2018/12/31 19:29:25","新北市新店區花園一路二段23號","121.551068333333","24.9327433333333","6500600","新店區"
"231042","268-BY","2018/12/31 19:29:20","新北市新店區中興路一段56號","121.539225","24.9594833333333","6500600","新店區"
"231051","278-BY","2018/12/31 19:29:20","新北市新店區中央四街100號","121.525386666667","24.97634","6500600","新店區"
"231050","AAD-862","2018/12/31 19:29:12","新北市新店區北宜路二段82-1號","121.553496666667","24.9532933333333","6500600","新店區"
"231043","355-BY","2018/12/31 19:29:20","新北市新店區北新路二段135號","121.542821666667","24.9755083333333","6500600","新店區"
"231058","3713-VJ","2018/12/31 19:29:24","新北市新店區北新路二段228巷3號","121.543108333333","24.9773816666667","6500600","新店區"
"231066","4716-K9","2018/12/31 19:29:23","新北市新店區安康路三段466-2號","121.48404","24.9508333333333","6500600","新店區"
"231056","4715-K9","2018/12/31 19:29:06","新北市新店區安德街60巷35號","121.510995","24.9637416666667","6500600","新店區"
"231065","512-UM","2018/12/31 19:29:20","新北市新店區安祥路109巷3弄6號","121.4754","24.9595266666667","6500600","新店區"
"231049","513-UM","2018/12/31 19:29:08","新北市新店區北新路三段65巷34弄21號","121.540016666667","24.981615","6500600","新店區"
"231045","617-UM","2018/12/31 19:29:09","新北市新店區北宜路二段213號","121.553236666667","24.95333","6500600","新店區"
"231061","619-UM","2018/12/31 19:29:23","新北市新店區安康路一段226-2號","121.523288333333","24.9636566666667","6500600","新店區"
"231063","641-BX","2018/12/31 19:29:24","新北市新店區達觀路14巷3號","121.503181666667","24.941855","6500600","新店區"
"231064","719-UM","2018/12/31 19:28:09","新北市新店區安忠路57巷7弄1號","121.513295","24.958615","6500600","新店區"
"231062","720-UM","2018/12/31 19:29:15","新北市新店區安康路一段92號","121.527945","24.9619183333333","6500600","新店區"
"231060","897-TW","2018/12/31 19:29:10","新北市新店區安康路二段57號","121.514158333333","24.9632766666667","6500600","新店區"
"241011","013-R5","2018/12/31 19:29:24","新北市三重區三和路三段45-1號","121.495455","25.0713066666667","6500200","三重區"
"241028","022-UY","2018/12/31 19:29:07","新北市三重區中寮街55號","121.492976666667","25.0583233333333","6500200","三重區"
"241008","059-VK","2018/12/31 19:29:23","新北市三重區永福街135巷32弄1號","121.477453333333","25.0769966666667","6500200","三重區"
"241022","060-VK","2018/12/31 19:29:27","新北市三重區三民街175巷1號","121.48362","25.0653033333333","6500200","三重區"
"241031","061-VK","2018/12/31 19:29:15","新北市三重區集美街100號","121.488543333333","25.05412","6500200","三重區"
"241017","063-VK","2018/12/31 19:29:13","新北市三重區中正北路25巷23號","121.493095","25.062555","6500200","三重區"
"251014","742-BX","2018/12/31 19:29:08","新北市淡水區小中寮19-7號","121.484701666667","25.2296966666667","6501000","淡水區"
"241032","269-UM","2018/12/31 19:29:21","新北市三重區三陽路25號","121.485566666667","25.0588333333333","6500200","三重區"
"241013","270-UM","2018/12/31 19:29:05","新北市三重區仁愛街125巷27號","121.4967","25.075405","6500200","三重區"
"241025","271-UM","2018/12/31 19:29:20","新北市三重區頂崁街210巷28弄3號","121.475808333333","25.0676333333333","6500200","三重區"
"241007","398-BY","2018/12/31 19:29:18","新北市三重區溪尾街130號","121.48925","25.079455","6500200","三重區"
"241035","KEA-2210","2018/12/31 19:29:21","新北市三重區信義西街1號","121.498151666667","25.064875","6500200","三重區"
"241026","462-BY","2018/12/31 19:29:16","新北市三重區文化南路47巷30號","121.499171666667","25.0610833333333","6500200","三重區"
"241004","475-VK","2018/12/31 19:29:22","新北市三重區仁義街91號","121.49983","25.079405","6500200","三重區"
"241020","478-VK","2018/12/31 19:29:15","新北市三重區三和路四段32巷2號","121.490636666667","25.0741083333333","6500200","三重區"
"241030","480-VK","2018/12/31 19:29:24","新北市三重區成功路41巷15號","121.490511666667","25.051595","6500200","三重區"
"241006","AAD-863","2018/12/31 19:29:17","新北市三重區三和路四段113號","121.485616666667","25.0773066666667","6500200","三重區"
"241009","743-BX","2018/12/31 19:29:12","新北市三重區仁美街128號","121.485508333333","25.0813233333333","6500200","三重區"
"241023","887-TS","2018/12/31 19:29:17","新北市三重區頂崁街183號","121.478061666667","25.0637966666667","6500200","三重區"
"241029","942-UM","2018/12/31 19:29:17","新北市三重區中正南路216號","121.493831666667","25.0551433333333","6500200","三重區"
"235066","003-UY","2018/12/31 19:29:18","新北市中和區景新街53號","121.50442","24.9989983333333","6500300","中和區"
"235064","005-UY","2018/12/31 19:29:19","新北市中和區南山路81巷19號","121.502426666667","24.998115","6500300","中和區"
"235063","006-UY","2018/12/31 19:29:27","新北市中和區連城路203巷10弄4號","121.494866666667","24.99727","6500300","中和區"
"235056","096-UM","2018/12/31 19:29:11","新北市中和區員山路581巷31弄6號","121.477138333333","25.0104566666667","6500300","中和區"
"235039","097-UM","2018/12/31 19:29:11","新北市中和區秀峰街103巷5弄1號","121.520411666667","24.989815","6500300","中和區"
"235040","150-BY","2018/12/31 19:29:23","新北市中和區景安路79巷45號","121.507653333333","24.9958483333333","6500300","中和區"
"235058","151-BY","2018/12/31 19:29:23","新北市中和區員山路124巷24號","121.482285","24.9959583333333","6500300","中和區"
"235055","183-VK","2018/12/31 19:29:21","新北市中和區莒光路120巷19弄1-4號","121.471698333333","25.0007566666667","6500300","中和區"
"235038","185-VK","2018/12/31 19:29:19","新北市中和區自立路107號","121.52199","24.994705","6500300","中和區"
"235049","186-VK","2018/12/31 19:29:18","新北市中和區景新街273巷24號","121.510443333333","24.9939083333333","6500300","中和區"
"235067","255-BX","2018/12/31 19:29:14","新北市中和區新生街220巷15弄1號","121.482958333333","24.99825","6500300","中和區"
"235044","293-VK","2018/12/31 19:29:12","新北市中和區捷運路155號","121.506443333333","24.99107","6500300","中和區"
"235042","KEA-2878","2018/12/31 19:29:10","新北市中和區中和路262巷43弄6號","121.509696666667","24.99954","6500300","中和區"
"235050","4979-A6","2018/12/31 19:29:09","新北市中和區錦和路117號","121.490558333333","24.9942633333333","6500300","中和區"
"235070","558-UM","2018/12/31 19:29:25","新北市中和區景平路634-13號","121.498288333333","24.9999233333333","6500300","中和區"
"235045","565-BX","2018/12/31 19:29:26","新北市中和區景德街141號","121.514513333333","24.9910133333333","6500300","中和區"
"235054","640-BX","2018/12/31 19:29:21","新北市中和區國光街112巷20弄1-2號","121.470628333333","25.0020833333333","6500300","中和區"
"235060","647-TV","2018/12/31 19:29:11","新北市中和區中山路二段523巷13號","121.48186","25.0041033333333","6500300","中和區"
"235047","732-UM","2018/12/31 19:29:11","新北市中和區景平路241巷56號","121.50798","24.9922766666667","6500300","中和區"
"235046","733-UM","2018/12/31 19:29:19","新北市中和區忠孝街37巷30號","121.510801666667","24.9843166666667","6500300","中和區"
"235071","783-BX","2018/12/31 19:29:10","新北市中和區連城路467-6號","121.4836","24.9959383333333","6500300","中和區"
"235057","801-TS","2018/12/31 19:29:16","新北市中和區中山路三段8號","121.479588333333","25.006025","6500300","中和區"
"235041","802-TS","2018/12/31 19:29:08","新北市中和區中安街80號","121.51226","25.0018416666667","6500300","中和區"
"235052","805-TS","2018/12/31 19:29:10","新北市中和區華新街143巷69弄21號","121.507536666667","24.978895","6500300","中和區"
"235048","896-TW","2018/12/31 19:29:12","新北市中和區忠孝街103號","121.51201","24.9862433333333","6500300","中和區"
"235053","900-TW","2018/12/31 19:29:14","新北市中和區華順街30巷3號","121.467005","24.9989666666667","6500300","中和區"
"235065","911-UM","2018/12/31 19:29:24","新北市中和區中山路二段2巷5弄3號","121.504518333333","25.0061983333333","6500300","中和區"
"235051","157-BY","2018/12/31 19:29:22","新北市中和區景新街142巷5號","121.505006666667","24.9974916666667","6500300","中和區"
"235037","AAC-213","2018/12/31 19:29:18","新北市中和區秀朗路三段10巷14弄16號","121.524966666667","24.99659","6500300","中和區"
"235059","AAC-215","2018/12/31 19:29:18","新北市中和區圓通路252巷36弄2號","121.4924","24.99289","6500300","中和區"
"220065","072-UY","2018/12/31 19:29:24","新北市板橋區國泰街111巷9號","121.465785","25.00615","6500100","板橋區"
"220086","073-UY","2018/12/31 19:29:22","新北市板橋區國光路168號","121.46034","25.018225","6500100","板橋區"
"220106","075-UY","2018/12/31 19:29:18","新北市板橋區民治街26巷12號","121.477393333333","25.0336833333333","6500100","板橋區"
"220069","AAD-861","2018/12/31 19:29:21","新北市板橋區南雅南路二段18號","121.454443333333","25.003535","6500100","板橋區"
"247004","002-UY","2018/12/31 19:29:19","新北市蘆洲區長安街144號","121.460048333333","25.082195","6501400","蘆洲區"
"226004","312-R5","2018/12/31 19:29:28","新北市平溪區十分里十分街131-1號","121.777153333333","25.04323","6502400","平溪區"
"235072","251-BX","2018/12/31 19:29:21","新北市中和區連城路263巷4弄10號","121.491686666667","24.995395","6500300","中和區"
"228003","097-TW","2018/12/31 19:29:16","新北市貢寮區和美里和美街22-1號","121.91281","25.08263","6502600","貢寮區"
"228002","585-TW","2018/12/31 19:29:24","新北市貢寮區龍門里龍門街70號","121.931031666667","25.026565","6502600","貢寮區"
"228001","670-TC","2018/12/31 19:29:16","新北市貢寮區真理里延平街70號","121.925393333333","25.0574616666667","6502600","貢寮區"
"224010","AGQ-8101","2018/12/31 19:29:27","新北市瑞芳區基山街18號","121.845323333333","25.1088083333333","6501200","瑞芳區"
"227001","642-TC","2018/12/31 19:29:12","新北市雙溪區雙溪里光復街2號","121.864803333333","25.035185","6502500","雙溪區"
"227008","400-TW","2018/12/31 19:29:21","新北市雙溪區新基里新基北街43號","121.868185","25.039695","6502500","雙溪區"
"253006","032-BX","2018/12/31 19:29:23","新北市石門區老崩山10號","121.552966666667","25.2912383333333","6502200","石門區"
"253005","295-VK","2018/12/31 19:29:20","新北市石門區小坑9號","121.594378333333","25.2885866666667","6502200","石門區"
"222001","KEA-2212","2018/12/31 19:29:22","新北市深坑區北深路二段130號","121.616008333333","25.0028966666667","6501800","深坑區"
"208002","KEA-2872","2018/12/31 19:29:09","新北市金山區仁愛路87巷1號","121.634591666667","25.2215666666667","6502700","金山區"
"208003","665-BX","2018/12/31 19:29:22","新北市金山區中山路263巷14號","121.6364","25.2215733333333","6502700","金山區"
"208001","761-BX","2018/12/31 19:29:23","新北市金山區金包里街93號","121.63793","25.2221566666667","6502700","金山區"
"251009","008-UM","2018/12/31 19:29:05","新北市淡水區中山北路一段6號","121.44158","25.1746366666667","6501000","淡水區"
"251013","KEA-2871","2018/12/31 19:29:23","新北市淡水區大牛稠5號","121.469755","25.2197883333333","6501000","淡水區"
"251016","179-VK","2018/12/31 19:29:14","新北市淡水區下圭柔山119-51號","121.450713333333","25.2084816666667","6501000","淡水區"
"251008","181-VK","2018/12/31 19:29:06","新北市淡水區中正路一段51號","121.424358333333","25.1775066666667","6501000","淡水區"
"251015","182-VK","2018/12/31 19:29:17","新北市淡水區泉洲厝19號","121.490265","25.1907583333333","6501000","淡水區"
"251010","413-VK","2018/12/31 19:29:09","新北市淡水區中正路二段150號","121.42299","25.1877283333333","6501000","淡水區"
"251007","442-VK","2018/12/31 19:29:24","新北市淡水區八勢路50巷8弄2號","121.463648333333","25.151985","6501000","淡水區"
"251005","443-VK","2018/12/31 19:29:22","新北市淡水區水源街一段47巷16號","121.443891666667","25.1728783333333","6501000","淡水區"
"251001","559-UM","2018/12/31 19:29:24","新北市淡水區民權路155號","121.460008333333","25.136175","6501000","淡水區"
"251006","561-UM","2018/12/31 19:29:19","新北市淡水區大義街54號","121.441666666667","25.1783466666667","6501000","淡水區"
"207003","550-UM","2018/12/31 19:29:23","新北市萬里區大鵬里萬里加投148-1號","121.644393333333","25.2145183333333","6502800","萬里區"
"207004","225-TW","2018/12/31 19:29:06","新北市萬里區萬里里瑪鋉路127-8號","121.688945","25.1777816666667","6502800","萬里區"
"252002","178-VK","2018/12/31 19:29:09","新北市三芝區淡金路二段26-1號","121.502743333333","25.2596366666667","6502100","三芝區"
"237004","KEA-2597","2018/12/31 19:29:08","新北市三峽區有木205-1號","121.439073333333","24.8514916666667","6500900","三峽區"
"237007","153-BY","2018/12/31 19:29:08","新北市三峽區二鬮路136巷18弄37號","121.358693333333","24.9088916666667","6500900","三峽區"
"237009","210-TH","2018/12/31 19:29:14","新北市三峽區民權街153-1號","121.368305","24.9311716666667","6500900","三峽區"
"237013","252-BX","2018/12/31 19:29:08","新北市三峽區介壽路一段276巷88弄11號","121.379331666667","24.9286133333333","6500900","三峽區"
"237012","275-BY","2018/12/31 19:29:16","新北市三峽區三樹路88號","121.377983333333","24.9388233333333","6500900","三峽區"
"237008","302-VK","2018/12/31 19:29:21","新北市三峽區大同路154號","121.373096666667","24.92677","6500900","三峽區"
"237014","433-BY","2018/12/31 19:29:10","新北市三峽區中山路143號","121.365101666667","24.936165","6500900","三峽區"
"237006","5529-G3","2018/12/31 19:29:15","新北市三峽區介壽路一段390號","121.383268333333","24.9308083333333","6500900","三峽區"
"237015","649-BX","2018/12/31 19:29:11","新北市三峽區成福路307號","121.429145","24.9235883333333","6500900","三峽區"
"237010","706-TV","2018/12/31 19:29:23","新北市三峽區復興路46號","121.373495","24.9369816666667","6500900","三峽區"
"237005","AKY-6261","2018/12/31 19:29:12","新北市三峽區中山路184巷11號","121.36422","24.9370616666667","6500900","三峽區"
"236069","105-UM","2018/12/31 19:29:24","新北市土城區裕民路185巷36弄10號","121.454373333333","24.9845483333333","6501300","土城區"
"236042","KED-0685","2018/12/31 19:29:11","新北市土城區學府路一段239號","121.450461666667","24.9833833333333","6501300","土城區"
"236078","166-UM","2018/12/31 19:29:23","新北市土城區中州路24巷6號","121.41478","24.9576","6501300","土城區"
"236026","269-VK","2018/12/31 19:29:16","新北市土城區中央路二段61巷26號","121.443245","24.9786233333333","6501300","土城區"
"252001","KED-0821","2018/12/31 19:29:24","新北市三芝區長勤街62-1號","121.500203333333","25.2561116666667","6502100","三芝區"
"236020","401-BY","2018/12/31 19:29:10","新北市土城區峰廷街18號","121.469021666667","24.9872633333333","6501300","土城區"
"236059","912-UM","2018/12/31 19:29:13","新北市土城區中央路二段63號","121.442683333333","24.978885","6501300","土城區"
"236048","913-UM","2018/12/31 19:29:09","新北市土城區清水路196號","121.460248333333","24.9818133333333","6501300","土城區"
"236055","AAC-216","2018/12/31 19:29:20","新北市土城區學府路一段276號","121.450143333333","24.9830733333333","6501300","土城區"
"242013","173-VK","2018/12/31 19:29:12","新北市新莊區三和路12-21號","121.442061666667","25.0387216666667","6500500","新莊區"
"238023","601-UM","2018/12/31 19:29:16","新北市樹林區三福街114號","121.406175","25.0163183333333","6500700","樹林區"
"238019","599-UM","2018/12/31 19:29:23","新北市樹林區鎮前街347巷1弄36號","121.417813333333","24.9842733333333","6500700","樹林區"
"238018","571-TV","2018/12/31 19:29:20","新北市樹林區中華路172-3號","121.41388","24.98045","6500700","樹林區"
"238024","5061-A6","2018/12/31 19:29:05","新北市樹林區中山路三段155巷8弄2-1號","121.395681666667","24.9725333333333","6500700","樹林區"
"238022","KEA-2213","2018/12/31 19:29:13","新北市樹林區太元街75號","121.419243333333","24.9783883333333","6500700","樹林區"
"238021","KEA-2539","2018/12/31 19:29:16","新北市樹林區學成路756號","121.38359","24.94646","6500700","樹林區"
"238025","303-VK","2018/12/31 19:29:06","新北市樹林區中山路一段135-1號","121.42253","24.9899616666667","6500700","樹林區"
"238004","283-BY","2018/12/31 19:29:22","新北市樹林區光榮街79號","121.412053333333","25.0030316666667","6500700","樹林區"
"238014","282-BY","2018/12/31 19:29:13","新北市樹林區保安二街62號","121.424166666667","24.9954483333333","6500700","樹林區"
"238020","268-VK","2018/12/31 19:29:18","新北市樹林區俊英街105號","121.42506","25.0096483333333","6500700","樹林區"
"238026","172-UY","2018/12/31 19:29:19","新北市樹林區佳園路三段36號","121.38793","24.9537183333333","6500700","樹林區"
"238016","169-UY","2018/12/31 19:27:58","新北市樹林區復興路464巷5號","121.4132","24.98347","6500700","樹林區"
"239007","AAC-297","2018/12/31 19:29:20","新北市鶯歌區大湖路326巷10號","121.346128333333","24.9702616666667","6500800","鶯歌區"
"239006","891-R6","2018/12/31 19:29:10","新北市鶯歌區永昌街92號","121.341331666667","24.9497433333333","6500800","鶯歌區"
"239005","526-UM","2018/12/31 19:29:24","新北市鶯歌區中湖街301巷1號","121.347965","24.9773066666667","6500800","鶯歌區"
"239001","417-VK","2018/12/31 19:29:13","新北市鶯歌區鶯桃路65-3號","121.34118","24.9529233333333","6500800","鶯歌區"
"239003","360-BY","2018/12/31 19:29:00","新北市鶯歌區環河路91號","121.348948333333","24.941675","6500800","鶯歌區"
"221008","489-VK","2018/12/31 19:29:20","新北市汐止區三民街1巷1號","121.624295","25.0667583333333","6501100","汐止區"
"221015","131-UY","2018/12/31 19:29:21","新北市汐止區康寧街901號","121.651625","25.0749233333333","6501100","汐止區"
"221010","269-BY","2018/12/31 19:29:09","新北市汐止區連峰街5巷2號","121.646435","25.0768816666667","6501100","汐止區"
"221012","278-VK","2018/12/31 19:29:20","新北市汐止區大同路三段186號","121.674356666667","25.0745516666667","6501100","汐止區"
"221023","279-VK","2018/12/31 19:29:10","新北市汐止區康寧街901號","121.651578333333","25.0749433333333","6501100","汐止區"
"221027","281-BY","2018/12/31 19:29:15","新北市汐止區忠孝東路9號","121.658313333333","25.0659233333333","6501100","汐止區"
"221029","298-VK","2018/12/31 19:29:20","新北市汐止區康寧街901號","121.651563333333","25.0749616666667","6501100","汐止區"
"221021","299-VK","2018/12/31 19:29:18","新北市汐止區康寧街901號","121.651381666667","25.0750716666667","6501100","汐止區"
"221031","353-TW","2018/12/31 19:29:26","新北市汐止區康寧街901號","121.650825","25.07526","6501100","汐止區"
"221025","623-UM","2018/12/31 19:29:17","新北市汐止區秀峰路57號","121.659716666667","25.0650716666667","6501100","汐止區"
"221038","646-BX","2018/12/31 19:29:17","新北市汐止區大同路二段370號","121.65764","25.06716","6501100","汐止區"
"221033","647-BX","2018/12/31 19:29:10","新北市汐止區南勢街3號","121.627088333333","25.0374133333333","6501100","汐止區"
"221002","707-TV","2018/12/31 19:29:19","新北市汐止區大同路一段219巷27號","121.633286666667","25.0583633333333","6501100","汐止區"
"220079","145-BY","2018/12/31 19:29:21","新北市板橋區民權路302巷1弄19號","121.457988333333","25.016245","6500100","板橋區"
"220082","610-BX","2018/12/31 19:29:17","新北市板橋區金門街111-3號","121.433051666667","24.9920666666667","6500100","板橋區"
"220101","245-BX","2018/12/31 19:29:23","新北市板橋區莊敬路263巷17號","121.473125","25.0217766666667","6500100","板橋區"
"220056","276-BY","2018/12/31 19:29:10","新北市板橋區五權街34-1號","121.464298333333","24.9922016666667","6500100","板橋區"
"220072","277-BY","2018/12/31 19:29:06","新北市板橋區金門街253巷12號","121.432891666667","24.9882716666667","6500100","板橋區"
"220071","283-VK","2018/12/31 19:29:19","新北市板橋區忠孝路48巷9弄1號","121.46119","25.0000866666667","6500100","板橋區"
"220094","285-UM","2018/12/31 19:29:17","新北市板橋區銘傳街41-2號","121.4691","25.0313966666667","6500100","板橋區"
"220053","285-VK","2018/12/31 19:29:15","新北市板橋區懷仁街77巷16號","121.47754","25.018855","6500100","板橋區"
"220083","286-VK","2018/12/31 19:29:09","新北市板橋區龍興街73巷21號","121.442935","25.0025216666667","6500100","板橋區"
"220081","287-VK","2018/12/31 19:29:11","新北市板橋區大觀路一段29巷179弄32號","121.449891666667","25.0040283333333","6500100","板橋區"
"220090","288-VK","2018/12/31 19:29:21","新北市板橋區長江路一段21號","121.458141666667","25.02933","6500100","板橋區"
"220061","293-UM","2018/12/31 19:29:16","新北市板橋區中山路一段275號","121.469145","25.0135866666667","6500100","板橋區"
"220062","295-UM","2018/12/31 19:29:14","新北市板橋區三民路二段123巷6號","121.479683333333","25.01557","6500100","板橋區"
"220084","296-UM","2018/12/31 19:29:12","新北市板橋區滿平街84巷120弄17-1號","121.426643333333","24.98583","6500100","板橋區"
"220075","303-R5","2018/12/31 19:29:19","新北市板橋區南雅西路二段301巷50弄23號","121.45249","25.0171716666667","6500100","板橋區"
"220092","307-R5","2018/12/31 19:28:08","新北市板橋區文化路一段381號","121.467051666667","25.0217083333333","6500100","板橋區"
"220098","317-R6","2018/12/31 19:29:14","新北市板橋區四維路266巷2弄25-1號","121.464118333333","25.0281066666667","6500100","板橋區"
"220089","487-VK","2018/12/31 19:29:27","新北市板橋區龍泉街81號","121.456681666667","25.0251233333333","6500100","板橋區"
"220088","491-VK","2018/12/31 19:29:14","新北市板橋區民治街30號","121.478063333333","25.0342416666667","6500100","板橋區"
"220035","560-BX","2018/12/31 19:29:20","新北市板橋區中正路415號","121.454278333333","25.0227833333333","6500100","板橋區"
"220103","561-BX","2018/12/31 19:29:15","新北市板橋區陽明街29巷36號","121.463611666667","25.022735","6500100","板橋區"
"220080","568-UM","2018/12/31 19:29:21","新北市板橋區大觀路二段3巷98號","121.450383333333","25.003155","6500100","板橋區"
"220063","609-BX","2018/12/31 19:29:12","新北市板橋區三民路一段31巷89弄7-2號","121.482025","25.0234416666667","6500100","板橋區"
"220055","630-UY","2018/12/31 19:29:17","新北市板橋區實踐路107號","121.46401","25.005235","6500100","板橋區"
"220091","637-BX","2018/12/31 19:29:13","新北市板橋區文聖街135巷25號","121.478971666667","25.0289783333333","6500100","板橋區"
"220057","686-BX","2018/12/31 19:29:19","新北市板橋區和平路61號","121.461131666667","24.9945933333333","6500100","板橋區"
"220077","687-BX","2018/12/31 19:29:11","新北市板橋區僑中二街8巷1號","121.44706","25.0111383333333","6500100","板橋區"
"220093","689-BX","2018/12/31 19:29:16","新北市板橋區長江路一段357號","121.461398333333","25.0305316666667","6500100","板橋區"
"220054","741-BX","2018/12/31 19:29:23","新北市板橋區忠孝路283-3號","121.467541666667","25.0035616666667","6500100","板橋區"
"220102","KEA-2699","2018/12/31 19:29:24","新北市板橋區松柏街29-4號","121.475168333333","25.0300783333333","6500100","板橋區"
"220067","829-TW","2018/12/31 19:29:13","新北市板橋區長安街138巷1弄2號","121.472821666667","25.009585","6500100","板橋區"
"220068","830-TW","2018/12/31 19:29:26","新北市板橋區萬安街25號","121.48438","25.0229866666667","6500100","板橋區"
"220074","895-R6","2018/12/31 19:29:24","新北市板橋區後菜園街4號","121.45769","25.0104983333333","6500100","板橋區"
"220073","985-R7","2018/12/31 19:29:08","新北市板橋區中正路316號","121.454756666667","25.0208483333333","6500100","板橋區"
"220097","AAC-210","2018/12/31 19:29:15","新北市板橋區漢生西路89巷1弄2號","121.462433333333","25.0195916666667","6500100","板橋區"
"220064","AAC-253","2018/12/31 19:29:14","新北市板橋區民權路33號","121.4622","25.0109683333333","6500100","板橋區"
"235068","KEA-2873","2018/12/31 19:29:17","新北市中和區圓通路158巷5弄1號","121.49784","24.9962966666667","6500300","中和區"
"235061","KEA-2875","2018/12/31 19:29:20","新北市中和區民利街22號","121.480368333333","24.9991383333333","6500300","中和區"
