"lineid","car","time","location","longitude","latitude","cityid","cityname"
"234046","148-BY","2018/12/31 19:59:25","新北市永和區成功路一段2號","121.52699","25.0056716666667","6500400","永和區"
"234081","298-R6","2018/12/31 19:59:19","新北市永和區永利路81巷2弄2號","121.521595","25.0035983333333","6500400","永和區"
"234038","336-UY","2018/12/31 19:59:14","新北市永和區成功路二段98號","121.526583333333","24.998415","6500400","永和區"
"234064","337-UY","2018/12/31 19:59:10","新北市永和區中正路368巷1弄47號","121.519206666667","25.0012166666667","6500400","永和區"
"234086","338-UY","2018/12/31 19:59:28","新北市永和區福和路194號","121.520113333333","25.0077583333333","6500400","永和區"
"234070","552-UM","2018/12/31 19:59:08","新北市永和區國光路14號","121.519153333333","25.0083783333333","6500400","永和區"
"234017","745-BX","2018/12/31 19:59:14","新北市永和區文化路55號","121.514235","25.0150716666667","6500400","永和區"
"234030","746-BX","2018/12/31 19:59:18","新北市永和區民生路22巷12號","121.52195","24.9972483333333","6500400","永和區"
"234054","KEA-2590","2018/12/31 19:59:25","新北市永和區博愛街47巷1號","121.51944","25.0159516666667","6500400","永和區"
"234007","839-RS","2018/12/31 19:59:10","新北市永和區中山路一段253-1號","121.507623333333","25.0074816666667","6500400","永和區"
"234013","KEA-2591","2018/12/31 19:59:19","新北市永和區保生路55號","121.50474","25.0105883333333","6500400","永和區"
"234061","AAD-866","2018/12/31 19:59:13","新北市永和區得和路76號","121.516526666667","25.0000816666667","6500400","永和區"
"234042","862-TW","2018/12/31 19:59:15","新北市永和區雙和街17巷16號","121.509135","25.00163","6500400","永和區"
"234050","863-TW","2018/12/31 19:59:10","新北市永和區保安路214號","121.507463333333","25.0136883333333","6500400","永和區"
"234011","9373-KE","2018/12/31 19:59:09","新北市永和區仁愛路352巷122弄11號","121.500671666667","25.00883","6500400","永和區"
"249005","172-UM","2018/12/31 19:59:25","新北市八里區楓林路3-2號","121.382481666667","25.1297516666667","6502300","八里區"
"249001","173-UM","2018/12/31 19:59:25","新北市八里區中華路二段310號","121.403773333333","25.14841","6502300","八里區"
"249004","303-UY","2018/12/31 19:59:13","新北市八里區中山路一段189巷18號","121.412241666667","25.1578316666667","6502300","八里區"
"249002","305-UY","2018/12/31 19:59:13","新北市八里區頂寮一街50號","121.450461666667","25.124245","6502300","八里區"
"249003","593-UM","2018/12/31 19:59:24","新北市八里區中華路二段538-3號","121.398915","25.1451233333333","6502300","八里區"
"248016","026-BX","2018/12/31 19:59:21","新北市五股區成泰路三段577巷80弄71號","121.448916666667","25.1048666666667","6501500","五股區"
"248008","095-VK","2018/12/31 19:59:17","新北市五股區中興路一段1巷11號","121.469365","25.07147","6501500","五股區"
"248018","225-UY","2018/12/31 19:59:22","新北市五股區登林路91-17號","121.41996","25.0727233333333","6501500","五股區"
"248012","247-BX","2018/12/31 19:59:21","新北市五股區民義路一段138-1號","121.434096666667","25.08653","6501500","五股區"
"248014","261-SL","2018/12/31 19:59:29","新北市五股區五福路14巷22號","121.435356666667","25.08887","6501500","五股區"
"248004","677-BX","2018/12/31 19:59:24","新北市五股區成泰路一段32巷60號","121.434966666667","25.0669716666667","6501500","五股區"
"248002","678-BX","2018/12/31 19:58:50","新北市五股區成泰路三段514號","121.452296666667","25.102105","6501500","五股區"
"248010","682-TV","2018/12/31 19:59:12","新北市五股區登林路36-2號","121.43237","25.0686416666667","6501500","五股區"
"234023","9380-KE","2018/12/31 19:59:24","新北市永和區中正路702巷20弄1號","121.516498333333","25.0105683333333","6500400","永和區"
"234077","969-R7","2018/12/31 19:59:19","新北市永和區民有街28號","121.516921666667","24.99634","6500400","永和區"
"234074","AAC-211","2018/12/31 19:59:18","新北市永和區豫溪街207巷2號","121.523798333333","25.0095683333333","6500400","永和區"
"234067","AAC-212","2018/12/31 19:59:09","新北市永和區中山路一段277號","121.507018333333","25.0070633333333","6500400","永和區"
"234003","AAC-295","2018/12/31 19:59:18","新北市永和區中正路708號","121.515985","25.0099333333333","6500400","永和區"
"244023","483-VK","2018/12/31 19:59:11","新北市八里區下罟子30-35號","121.36746","25.13512","6501700","林口區"
"243010","267-VK","2018/12/31 19:59:08","新北市泰山區中華街14巷1號","121.42771","25.052385","6501600","泰山區"
"243013","AAD-798","2018/12/31 19:59:12","新北市泰山區應化街7號","121.423921666667","25.043715","6501600","泰山區"
"243009","297-R6","2018/12/31 19:59:25","新北市泰山區楓江路16巷25號","121.434046666667","25.0614216666667","6501600","泰山區"
"243016","KEA-2801","2018/12/31 19:59:26","新北市泰山區貴陽街13號","121.421635","25.033315","6501600","泰山區"
"243015","421-VK","2018/12/31 19:59:15","新北市泰山區明志路二段100號","121.428233333333","25.0518616666667","6501600","泰山區"
"243011","KEA-2215","2018/12/31 19:59:20","新北市泰山區明志路三段182巷56號","121.422753333333","25.039815","6501600","泰山區"
"243012","646-TV","2018/12/31 19:59:24","新北市泰山區全興路107號","121.433668333333","25.056855","6501600","泰山區"
"243014","680-BX","2018/12/31 19:59:19","新北市泰山區明志路一段196號","121.432853333333","25.0620816666667","6501600","泰山區"
"222003","436-BY","2018/12/31 19:59:17","新北市深坑區埔新街14號","121.620725","25.00392","6501800","深坑區"
"222002","659-BX","2018/12/31 19:59:11","新北市深坑區北深路二段81巷8弄1號","121.618355","25.00306","6501800","深坑區"
"231041","002-UM","2018/12/31 19:59:05","新北市新店區民族路192號","121.536001666667","24.9755033333333","6500600","新店區"
"231059","046-UY","2018/12/31 19:59:15","新北市新店區安和路一段15號","121.516853333333","24.9643416666667","6500600","新店區"
"231040","047-UY","2018/12/31 19:59:08","新北市新店區中正路61號","121.544133333333","24.9700633333333","6500600","新店區"
"231044","106-UY","2018/12/31 19:59:05","新北市新店區復興路27號","121.539013333333","24.98673","6500600","新店區"
"231052","108-UY","2018/12/31 19:59:13","新北市新店區新烏路三段寶島巷2弄3號","121.55204","24.8986383333333","6500600","新店區"
"231047","187-VK","2018/12/31 19:59:12","新北市新店區寶興路41號","121.548926666667","24.9739716666667","6500600","新店區"
"231054","188-VK","2018/12/31 19:59:10","新北市新店區光明街135號","121.53947","24.9619916666667","6500600","新店區"
"221035","KEA-2785","2018/12/31 19:59:25","新北市汐止區長江街39巷22號","121.655308333333","25.072135","6501100","汐止區"
"231057","256-BX","2018/12/31 19:59:16","新北市新店區花園二路一段11號","121.555391666667","24.9325633333333","6500600","新店區"
"231042","268-BY","2018/12/31 19:59:20","新北市新店區中興路一段285號","121.545416666667","24.9685916666667","6500600","新店區"
"231051","278-BY","2018/12/31 19:59:20","新北市新店區中央五街3-2號","121.53037","24.974355","6500600","新店區"
"231050","AAD-862","2018/12/31 19:59:11","新北市新店區北宜路二段5號","121.547708333333","24.9519516666667","6500600","新店區"
"231043","355-BY","2018/12/31 19:59:20","新北市新店區中正路282-11號","121.538486666667","24.973935","6500600","新店區"
"231066","4716-K9","2018/12/31 19:59:23","新北市新店區安康路二段341巷5號","121.49696","24.9548416666667","6500600","新店區"
"231056","4715-K9","2018/12/31 19:59:26","新北市新店區明德路26巷2號","121.542245","24.9777783333333","6500600","新店區"
"231065","512-UM","2018/12/31 19:59:20","新北市新店區安祥路106-19號","121.476105","24.96037","6500600","新店區"
"231049","513-UM","2018/12/31 19:59:08","新北市新店區民族路14-1號","121.541485","24.9788083333333","6500600","新店區"
"231045","617-UM","2018/12/31 19:59:09","新北市新店區北宜路二段353-2號","121.558493333333","24.9542716666667","6500600","新店區"
"231061","619-UM","2018/12/31 19:59:23","新北市新店區安民街254號","121.517605","24.9732766666667","6500600","新店區"
"231063","641-BX","2018/12/31 19:59:24","新北市新店區黎明路9號","121.502625","24.9506733333333","6500600","新店區"
"231068","718-UY","2018/12/31 19:59:10","新北市新店區安一路一段1-1號","121.519613333333","24.961355","6500600","新店區"
"231064","719-UM","2018/12/31 19:58:07","新北市新店區安民街23號","121.515591666667","24.9649116666667","6500600","新店區"
"231062","720-UM","2018/12/31 19:59:15","新北市新店區華城路5-3號","121.5293","24.958205","6500600","新店區"
"231060","897-TW","2018/12/31 19:59:19","新北市新店區安康路二段362號","121.501803333333","24.9573766666667","6500600","新店區"
"231055","AKT-0513","2018/12/31 19:59:24","新北市新店區中華路52號","121.53963","24.968515","6500600","新店區"
"241011","013-R5","2018/12/31 19:59:24","新北市三重區龍濱路269號","121.501395","25.073005","6500200","三重區"
"241028","022-UY","2018/12/31 19:59:27","新北市三重區中正南路18號","121.493498333333","25.0603983333333","6500200","三重區"
"241008","059-VK","2018/12/31 19:59:23","新北市三重區永福街179巷1號","121.478706666667","25.075055","6500200","三重區"
"241022","060-VK","2018/12/31 19:59:12","新北市三重區新北大道一段11號","121.48865","25.0606183333333","6500200","三重區"
"241031","061-VK","2018/12/31 19:59:15","新北市三重區重新路四段184巷16號","121.487116666667","25.0550266666667","6500200","三重區"
"241015","062-VK","2018/12/31 19:59:08","新北市三重區三和路二段17-1號","121.501228333333","25.0669466666667","6500200","三重區"
"241017","063-VK","2018/12/31 19:59:13","新北市三重區自強路一段306號","121.491301666667","25.0684016666667","6500200","三重區"
"241024","065-VK","2018/12/31 19:59:19","新北市三重區大勇街32號","121.481708333333","25.0718016666667","6500200","三重區"
"241003","091-VK","2018/12/31 19:59:17","新北市三重區五華街122巷29號","121.490706666667","25.0826183333333","6500200","三重區"
"251014","742-BX","2018/12/31 19:59:08","新北市淡水區石頭厝1號","121.458728333333","25.2355283333333","6501000","淡水區"
"241005","262-UM","2018/12/31 19:59:11","新北市三重區溪尾街325巷40弄1號","121.488738333333","25.0833183333333","6500200","三重區"
"241016","266-UM","2018/12/31 19:59:05","新北市三重區正義北路48巷45號","121.496026666667","25.0636466666667","6500200","三重區"
"241018","268-UM","2018/12/31 19:59:21","新北市三重區正義北路244巷78號","121.493898333333","25.0676516666667","6500200","三重區"
"241032","269-UM","2018/12/31 19:59:21","新北市三重區朝陽街23號","121.48361","25.0565083333333","6500200","三重區"
"241013","270-UM","2018/12/31 19:59:06","新北市三重區三和路三段125巷40號","121.493998333333","25.073745","6500200","三重區"
"241025","271-UM","2018/12/31 19:59:20","新北市三重區頂崁街210巷11號","121.476511666667","25.0678133333333","6500200","三重區"
"241007","398-BY","2018/12/31 19:59:18","新北市三重區慈愛街90號","121.488675","25.0800383333333","6500200","三重區"
"241035","KEA-2210","2018/12/31 19:59:21","新北市三重區大榮街9號","121.498206666667","25.0631233333333","6500200","三重區"
"241026","462-BY","2018/12/31 19:59:16","新北市三重區仁慈街5號","121.501665","25.063045","6500200","三重區"
"241004","475-VK","2018/12/31 19:59:22","新北市三重區五華街108-2號","121.492328333333","25.0827033333333","6500200","三重區"
"241020","478-VK","2018/12/31 19:59:15","新北市三重區忠孝路一段101號","121.489556666667","25.0721716666667","6500200","三重區"
"241030","480-VK","2018/12/31 19:59:24","新北市三重區成功路173號","121.48591","25.05281","6500200","三重區"
"241014","543-UM","2018/12/31 19:59:28","新北市三重區三和路二段36號","121.500183333333","25.067765","6500200","三重區"
"241001","547-UM","2018/12/31 19:59:09","新北市三重區仁愛街283巷32號","121.494238333333","25.079875","6500200","三重區"
"241019","KEA-2593","2018/12/31 19:59:24","新北市三重區大智街186號","121.490936666667","25.0703366666667","6500200","三重區"
"241006","AAD-863","2018/12/31 19:59:17","新北市三重區力行路二段90號","121.481893333333","25.0743","6500200","三重區"
"241009","743-BX","2018/12/31 19:59:11","新北市三重區三和路四段388-2號","121.482078333333","25.0791383333333","6500200","三重區"
"241023","887-TS","2018/12/31 19:59:17","新北市三重區頂崁街172號","121.477535","25.0659833333333","6500200","三重區"
"241012","941-UM","2018/12/31 19:59:13","新北市三重區仁興街55號","121.499","25.0761066666667","6500200","三重區"
"241029","942-UM","2018/12/31 19:59:17","新北市三重區重新路三段204號","121.490035","25.05849","6500200","三重區"
"235066","003-UY","2018/12/31 19:59:18","新北市中和區光華街10號","121.504285","25.0042766666667","6500300","中和區"
"235056","096-UM","2018/12/31 19:59:11","新北市中和區中山路三段147號","121.473678333333","25.0062033333333","6500300","中和區"
"235039","097-UM","2018/12/31 19:59:10","新北市中和區景平路278巷16弄24號","121.514321666667","24.993715","6500300","中和區"
"235040","150-BY","2018/12/31 19:59:23","新北市中和區保健路10巷3弄3號","121.507793333333","24.9975966666667","6500300","中和區"
"235055","183-VK","2018/12/31 19:59:21","新北市中和區民生街23巷1弄1號","121.470881666667","25.0053416666667","6500300","中和區"
"235049","186-VK","2018/12/31 19:59:18","新北市中和區景安路96號","121.505401666667","24.99572","6500300","中和區"
"235067","255-BX","2018/12/31 19:59:14","新北市中和區中山路二段437號","121.484815","25.0048133333333","6500300","中和區"
"235044","293-VK","2018/12/31 19:59:12","新北市中和區復興路56號","121.503911666667","24.99041","6500300","中和區"
"235042","KEA-2878","2018/12/31 19:59:10","新北市新店區安興路141號","121.5167","24.9794183333333","6500300","中和區"
"247006","KED-0682","2018/12/31 19:59:09","新北市蘆洲區九芎街115號","121.465523333333","25.0795083333333","6501400","蘆洲區"
"235050","4979-A6","2018/12/31 19:59:29","新北市中和區景平路239巷1號","121.509726666667","24.9925116666667","6500300","中和區"
"235069","4980-A6","2018/12/31 19:59:19","新北市中和區錦和路350-1號","121.4901","24.9935283333333","6500300","中和區"
"235070","558-UM","2018/12/31 19:59:25","新北市中和區中正路446號","121.490996666667","24.99425","6500300","中和區"
"235054","640-BX","2018/12/31 19:59:21","新北市中和區莒光路11號","121.471936666667","25.005795","6500300","中和區"
"235047","732-UM","2018/12/31 19:59:09","新北市中和區和平街164-2號","121.50568","24.99209","6500300","中和區"
"235046","733-UM","2018/12/31 19:59:19","新北市中和區興南路一段93巷67號","121.510315","24.9868483333333","6500300","中和區"
"235026","800-TS","2018/12/31 19:57:35","新北市中和區員山路36巷16-3號","121.484898333333","24.9917783333333","6500300","中和區"
"235052","805-TS","2018/12/31 19:59:10","新北市中和區華新街2-6號","121.507356666667","24.9851883333333","6500300","中和區"
"235048","896-TW","2018/12/31 19:59:12","新北市中和區景新街500號","121.513895","24.9870033333333","6500300","中和區"
"235065","911-UM","2018/12/31 19:59:24","新北市中和區福祥路108號","121.499103333333","25.0062266666667","6500300","中和區"
"235051","157-BY","2018/12/31 19:59:22","新北市中和區景安路251號","121.503971666667","24.9905433333333","6500300","中和區"
"235037","AAC-213","2018/12/31 19:59:18","新北市中和區自立路141巷2號","121.522363333333","24.993315","6500300","中和區"
"235059","AAC-215","2018/12/31 19:59:18","新北市中和區圓通路335巷5弄12號","121.49355","24.9899866666667","6500300","中和區"
"220065","072-UY","2018/12/31 19:59:04","新北市板橋區新府路78號","121.465135","25.01086","6500100","板橋區"
"220086","073-UY","2018/12/31 19:59:22","新北市板橋區大觀路三段59巷46號","121.435166666667","24.9945533333333","6500100","板橋區"
"220106","075-UY","2018/12/31 19:59:18","新北市板橋區懷德街76巷2號","121.47782","25.0320983333333","6500100","板橋區"
"220069","AAD-861","2018/12/31 19:59:21","新北市板橋區貴興路113號","121.455801666667","25.00255","6500100","板橋區"
"247002","893-R6","2018/12/31 19:59:25","新北市蘆洲區長安街276號","121.45745","25.0870683333333","6501400","蘆洲區"
"247016","546-UM","2018/12/31 19:59:21","新北市蘆洲區光華路31號","121.469145","25.083145","6501400","蘆洲區"
"247024","500-BY","2018/12/31 19:59:13","新北市蘆洲區光榮路120巷12號","121.46533","25.0884266666667","6501400","蘆洲區"
"247020","057-VK","2018/12/31 19:59:24","新北市蘆洲區民權路113號","121.472418333333","25.0894116666667","6501400","蘆洲區"
"247014","053-VK","2018/12/31 19:59:18","新北市蘆洲區中山二路101號","121.472715","25.0818133333333","6501400","蘆洲區"
"247018","007-UY","2018/12/31 19:59:23","新北市蘆洲區民族路290巷1號","121.47802","25.0898033333333","6501400","蘆洲區"
"247004","002-UY","2018/12/31 19:59:19","新北市蘆洲區長安街267巷7弄1號","121.458213333333","25.08358","6501400","蘆洲區"
"226004","312-R5","2018/12/31 19:59:28","新北市平溪區十分里十分街116號","121.776891666667","25.0431366666667","6502400","平溪區"
"228003","097-TW","2018/12/31 19:59:15","新北市貢寮區仁理村仁和路45號","121.924056666667","25.054055","6502600","貢寮區"
"227001","642-TC","2018/12/31 19:59:12","新北市雙溪區雙溪里長安街16號","121.865015","25.0346883333333","6502500","雙溪區"
"227008","400-TW","2018/12/31 19:59:21","新北市雙溪區新基里新基南街25號","121.866263333333","25.03817","6502500","雙溪區"
"253005","295-VK","2018/12/31 19:43:13","新北市石門區小坑9號","121.594195","25.2888066666667","6502200","石門區"
"222001","KEA-2212","2018/12/31 19:59:22","新北市深坑區北深路三段164號","121.602383333333","25.003375","6501800","深坑區"
"208002","KEA-2872","2018/12/31 19:59:24","新北市萬里區大鵬里萬里加投241號","121.642323333333","25.21668","6502700","金山區"
"208003","665-BX","2018/12/31 19:59:22","新北市金山區永興里濆水路4號","121.623971666667","25.2710466666667","6502700","金山區"
"208001","761-BX","2018/12/31 19:59:23","新北市金山區南勢湖36-1號","121.615201666667","25.2180816666667","6502700","金山區"
"251009","008-UM","2018/12/31 19:59:25","新北市淡水區英專路28巷2弄5號","121.445905","25.1696333333333","6501000","淡水區"
"251004","009-UM","2018/12/31 19:59:20","新北市淡水區民族路31-24號","121.461793333333","25.1360766666667","6501000","淡水區"
"251013","KEA-2871","2018/12/31 19:59:08","新北市淡水區奎柔山路63號","121.451656666667","25.2062716666667","6501000","淡水區"
"251016","179-VK","2018/12/31 19:59:14","新北市淡水區番子田16-13號","121.453683333333","25.2317333333333","6501000","淡水區"
"251008","181-VK","2018/12/31 19:59:06","新北市淡水區淡海路72巷18號","121.42393","25.181095","6501000","淡水區"
"251015","182-VK","2018/12/31 19:59:17","新北市淡水區埤島76-3號","121.45131","25.1922966666667","6501000","淡水區"
"251010","413-VK","2018/12/31 19:59:09","新北市淡水區崁頂三路147號","121.430771666667","25.2012483333333","6501000","淡水區"
"251012","441-VK","2018/12/31 19:59:11","新北市淡水區下圭柔山100-10號","121.439975","25.21183","6501000","淡水區"
"251005","443-VK","2018/12/31 19:58:02","新北市淡水區學府路136巷1號","121.450835","25.1729583333333","6501000","淡水區"
"251001","559-UM","2018/12/31 19:59:22","新北市淡水區淡金路二段138號","121.446933333333","25.1882866666667","6501000","淡水區"
"251006","561-UM","2018/12/31 19:59:19","新北市淡水區北新路8號","121.444443333333","25.17738","6501000","淡水區"
"251011","650-BX","2018/12/31 19:59:13","新北市淡水區崁頂55-3號","121.44216","25.1966683333333","6501000","淡水區"
"251003","673-BX","2018/12/31 19:59:15","新北市淡水區中山北路二段189巷15弄29號","121.443403333333","25.1842683333333","6501000","淡水區"
"207003","550-UM","2018/12/31 19:59:23","新北市萬里區大鵬里萬里加投45-2號","121.64158","25.2107266666667","6502800","萬里區"
"207004","225-TW","2018/12/31 19:59:27","新北市萬里區北基里忠二街35號","121.68567","25.1757583333333","6502800","萬里區"
"252002","178-VK","2018/12/31 19:59:09","新北市三芝區三民街39巷5號","121.505411666667","25.257645","6502100","三芝區"
"237004","KEA-2597","2018/12/31 19:59:08","新北市三峽區添福9-34號","121.371608333333","24.9068683333333","6500900","三峽區"
"237007","153-BY","2018/12/31 19:59:08","新北市三峽區麻園13-2號","121.362673333333","24.9156183333333","6500900","三峽區"
"237009","210-TH","2018/12/31 19:59:14","新北市三峽區民族街78巷1號","121.36908","24.9298833333333","6500900","三峽區"
"237013","252-BX","2018/12/31 19:59:08","新北市三峽區介壽路二段167號","121.394198333333","24.9359766666667","6500900","三峽區"
"237012","275-BY","2018/12/31 19:59:16","新北市三峽區安溪路315號","121.37101","24.9306366666667","6500900","三峽區"
"237008","302-VK","2018/12/31 19:59:17","新北市三峽區中華路96-2號","121.371245","24.928195","6500900","三峽區"
"237014","433-BY","2018/12/31 19:59:10","新北市三峽區嘉添183號","121.3699","24.9113683333333","6500900","三峽區"
"237006","5529-G3","2018/12/31 19:59:15","新北市三峽區中正路二段168號","121.366021666667","24.9157066666667","6500900","三峽區"
"237015","649-BX","2018/12/31 19:59:11","新北市三峽區介壽路二段138巷1弄5-1號","121.396036666667","24.9342633333333","6500900","三峽區"
"237005","AKY-6261","2018/12/31 19:59:12","新北市三峽區民生街1巷3號","121.383045","24.9327783333333","6500900","三峽區"
"236069","105-UM","2018/12/31 19:59:25","新北市土城區忠義路95-5號","121.443585","24.961925","6501300","土城區"
"236042","KED-0685","2018/12/31 19:59:11","新北市土城區學府路一段150號","121.454638333333","24.9869416666667","6501300","土城區"
"236078","166-UM","2018/12/31 19:59:25","新北市土城區三民路23巷8弄4號","121.41981","24.9634533333333","6501300","土城區"
"236030","253-BX","2018/12/31 19:59:19","新北市土城區中央路一段250巷7號","121.443973333333","24.9847366666667","6501300","土城區"
"236026","269-VK","2018/12/31 19:59:16","新北市土城區中央路二段89號","121.442451666667","24.9781466666667","6501300","土城區"
"236014","270-VK","2018/12/31 19:59:17","新北市土城區廣福街123號","121.45626","24.9929083333333","6501300","土城區"
"236039","271-VK","2018/12/31 19:59:08","新北市土城區國際路43號","121.466193333333","24.9790583333333","6501300","土城區"
"247008","KED-0683","2018/12/31 19:59:21","新北市蘆洲區信義路115號","121.47845","25.0801533333333","6501400","蘆洲區"
"252001","KED-0821","2018/12/31 19:59:24","新北市三芝區公正街66號","121.499823333333","25.2575133333333","6502100","三芝區"
"236020","401-BY","2018/12/31 19:59:24","新北市土城區延吉街42號","121.471868333333","24.987105","6501300","土城區"
"236059","912-UM","2018/12/31 19:59:13","新北市土城區中央路一段342號","121.44309","24.981135","6501300","土城區"
"236048","913-UM","2018/12/31 19:59:19","新北市土城區金城路三段309號","121.474476666667","24.9909866666667","6501300","土城區"
"236063","915-UM","2018/12/31 19:59:24","新北市土城區金城路三段73巷9弄5號","121.46602","24.987545","6501300","土城區"
"236055","AAC-216","2018/12/31 19:59:20","新北市土城區青雲路35號","121.46027","24.9883866666667","6501300","土城區"
"242036","AAC-296","2018/12/31 19:56:53","新北市新莊區民安路207巷34弄2號","121.428255","25.024525","6500500","新莊區"
"242058","986-R7","2018/12/31 19:59:10","新北市新莊區八德街31號","121.424988333333","25.02226","6500500","新莊區"
"242056","751-BX","2018/12/31 19:59:23","新北市新莊區中正路347巷22號","121.447116666667","25.0342616666667","6500500","新莊區"
"242025","613-BX","2018/12/31 19:59:14","新北市新莊區五工一路91號","121.461113333333","25.0677283333333","6500500","新莊區"
"242029","612-BX","2018/12/31 19:59:20","新北市新莊區中平路296號","121.444958333333","25.0517283333333","6500500","新莊區"
"242048","497-BY","2018/12/31 19:59:24","新北市新莊區民安路209號","121.426395","25.0224183333333","6500500","新莊區"
"242021","442-UM","2018/12/31 19:59:20","新北市新莊區建中街16巷30號","121.449105","25.0387866666667","6500500","新莊區"
"242002","440-UM","2018/12/31 19:59:10","新北市新莊區中正路281號","121.449128333333","25.0352383333333","6500500","新莊區"
"242039","415-TV","2018/12/31 19:59:21","新北市新莊區民安路285-8號","121.428926666667","25.022235","6500500","新莊區"
"242023","362-BY","2018/12/31 19:59:19","新北市新莊區化成路354號","121.465815","25.0492166666667","6500500","新莊區"
"242060","353-BY","2018/12/31 19:59:21","新北市新莊區瓊林路70號","121.44518","25.028645","6500500","新莊區"
"242034","135-UY","2018/12/31 19:59:09","新北市新莊區建中街79號","121.447258333333","25.03667","6500500","新莊區"
"242050","172-VK","2018/12/31 19:59:17","新北市新莊區西盛街172號","121.428125","25.0190633333333","6500500","新莊區"
"242013","173-VK","2018/12/31 19:59:12","新北市新莊區中誠街53巷38號","121.451271666667","25.0470566666667","6500500","新莊區"
"242019","175-VK","2018/12/31 19:59:16","新北市新莊區中港路206巷3號","121.455058333333","25.0426483333333","6500500","新莊區"
"242017","KED-0687","2018/12/31 19:59:17","新北市新莊區中安街3號","121.452815","25.0453633333333","6500500","新莊區"
"242007","346-TH","2018/12/31 19:59:24","新北市新莊區中原路55號","121.45794","25.0549683333333","6500500","新莊區"
"242011","347-TH","2018/12/31 19:59:12","新北市新莊區中港路531巷120號","121.449831666667","25.0516016666667","6500500","新莊區"
"242031","348-TH","2018/12/31 19:59:20","新北市新莊區公園一路61號","121.443111666667","25.0364766666667","6500500","新莊區"
"242004","349-TH","2018/12/31 19:59:21","新北市新莊區頭前路82號","121.46597","25.052575","6500500","新莊區"
"242015","351-TH","2018/12/31 19:59:20","新北市新莊區復興路一段47巷6號","121.446876666667","25.042545","6500500","新莊區"
"238021","KEA-2539","2018/12/31 19:59:16","新北市樹林區佳園路二段65巷1號","121.390991666667","24.9607133333333","6500700","樹林區"
"221008","489-VK","2018/12/31 19:59:20","台北市內湖區康樂街120號","121.619191666667","25.0714916666667","6501100","汐止區"
"221036","130-UY","2018/12/31 19:59:14","新北市汐止區忠孝東路258巷9號","121.66376","25.06726","6501100","汐止區"
"221015","131-UY","2018/12/31 19:59:21","新北市汐止區橋東街3號","121.666675","25.0761416666667","6501100","汐止區"
"221010","269-BY","2018/12/31 19:59:09","新北市汐止區八連路一段86巷2號","121.645","25.080635","6501100","汐止區"
"221012","278-VK","2018/12/31 19:59:20","新北市汐止區大同路三段355號","121.675365","25.073125","6501100","汐止區"
"221023","279-VK","2018/12/31 19:59:10","新北市汐止區明峰街149號","121.62934","25.070465","6501100","汐止區"
"221032","280-BY","2018/12/31 19:59:19","新北市汐止區橫科路18巷13號","121.61777","25.0503916666667","6501100","汐止區"
"221027","281-BY","2018/12/31 19:59:15","新北市汐止區中正路76號","121.661528333333","25.0696416666667","6501100","汐止區"
"221029","298-VK","2018/12/31 19:59:20","新北市汐止區樟樹一路137巷26號","121.640988333333","25.066015","6501100","汐止區"
"221021","299-VK","2018/12/31 19:59:18","新北市汐止區水源路一段131號","121.656185","25.062475","6501100","汐止區"
"221031","353-TW","2018/12/31 19:59:26","新北市汐止區福德一路243號","121.63388","25.0648283333333","6501100","汐止區"
"221025","623-UM","2018/12/31 19:59:15","新北市汐止區秀峰路109巷26弄7號","121.66109","25.0634516666667","6501100","汐止區"
"221038","646-BX","2018/12/31 19:59:17","新北市汐止區忠孝東路491號","121.6663","25.0741933333333","6501100","汐止區"
"221033","647-BX","2018/12/31 19:59:10","新北市汐止區東勢街215巷8號","121.634645","25.04317","6501100","汐止區"
"221002","707-TV","2018/12/31 19:59:19","新北市汐止區康寧街901號","121.65146","25.0750066666667","6501100","汐止區"
"220079","145-BY","2018/12/31 19:59:21","新北市板橋區建國街54巷27號","121.45984","25.0170583333333","6500100","板橋區"
"220082","610-BX","2018/12/31 19:59:16","新北市板橋區篤行路二段131巷23號","121.431768333333","24.9903416666667","6500100","板橋區"
"220101","245-BX","2018/12/31 19:59:23","新北市板橋區莊敬路25巷9號","121.474943333333","25.0270183333333","6500100","板橋區"
"224002","257-TC","2018/12/31 19:59:11","新北市瑞芳區員山子路員山巷2-1號","121.817028333333","25.1036966666667","6501200","瑞芳區"
"220056","276-BY","2018/12/31 19:59:10","新北市板橋區四川路二段99巷4弄7號","121.452973333333","24.994085","6500100","板橋區"
"220072","277-BY","2018/12/31 19:59:26","新北市板橋區金門街111-3號","121.433116666667","24.99206","6500100","板橋區"
"220071","283-VK","2018/12/31 19:59:19","新北市板橋區五權街30巷24弄8號","121.463896666667","24.9934966666667","6500100","板橋區"
"220094","285-UM","2018/12/31 19:59:17","新北市板橋區文化路一段132號","121.46516","25.0187416666667","6500100","板橋區"
"220053","285-VK","2018/12/31 19:59:18","新北市板橋區懷仁街87號","121.477386666667","25.0182916666667","6500100","板橋區"
"220083","286-VK","2018/12/31 19:59:09","新北市板橋區僑中二街10巷15-3號","121.446256666667","25.0110533333333","6500100","板橋區"
"220081","287-VK","2018/12/31 19:59:11","新北市板橋區大觀路一段28巷101號","121.450025","25.01195","6500100","板橋區"
"220090","288-VK","2018/12/31 19:59:29","新北市板橋區新海路72巷44號","121.462216666667","25.022895","6500100","板橋區"
"220061","293-UM","2018/12/31 19:59:16","新北市板橋區觀光街4巷2弄2-3號","121.472313333333","25.0158083333333","6500100","板橋區"
"220062","295-UM","2018/12/31 19:59:22","新北市板橋區光復街45號","121.481906666667","25.0186533333333","6500100","板橋區"
"220084","296-UM","2018/12/31 19:59:12","新北市板橋區溪崑二街145號","121.426205","24.9881366666667","6500100","板橋區"
"220092","307-R5","2018/12/31 19:57:59","新北市板橋區文化路一段139號","121.461855","25.015685","6500100","板橋區"
"220098","317-R6","2018/12/31 19:59:14","新北市板橋區新海路385巷24號","121.458006666667","25.0255483333333","6500100","板橋區"
"220089","487-VK","2018/12/31 19:59:27","新北市板橋區四維路274號","121.463155","25.028645","6500100","板橋區"
"220088","491-VK","2018/12/31 19:59:14","新北市板橋區懷德街127巷23弄7號","121.479283333333","25.031685","6500100","板橋區"
"220035","560-BX","2018/12/31 19:59:12","新北市板橋區金華街21巷2號","121.45603","25.02067","6500100","板橋區"
"220103","561-BX","2018/12/31 19:59:15","新北市板橋區漢生東路23巷46號","121.465925","25.018055","6500100","板橋區"
"220080","568-UM","2018/12/31 19:59:11","新北市板橋區大觀路二段153巷8號","121.446083333333","25.0006","6500100","板橋區"
"220063","609-BX","2018/12/31 19:59:12","新北市板橋區中山路二段86號","121.475105","25.0160883333333","6500100","板橋區"
"220055","630-UY","2018/12/31 19:59:24","新北市板橋區國慶路149巷37弄2號","121.460771666667","24.9980216666667","6500100","板橋區"
"220091","637-BX","2018/12/31 19:59:13","新北市板橋區民治街117號","121.478381666667","25.0308166666667","6500100","板橋區"
"220057","686-BX","2018/12/31 19:59:19","新北市板橋區德興街35號","121.453545","24.9937916666667","6500100","板橋區"
"220077","687-BX","2018/12/31 19:59:12","新北市板橋區僑中一街124巷3弄25號","121.444675","25.0121933333333","6500100","板橋區"
"220093","689-BX","2018/12/31 19:59:16","新北市板橋區長江路一段9號","121.457958333333","25.02881","6500100","板橋區"
"220102","KEA-2699","2018/12/31 19:59:24","新北市板橋區莒光路16巷7號","121.469573333333","25.02432","6500100","板橋區"
"220067","829-TW","2018/12/31 19:59:13","新北市板橋區中山路一段206巷103號","121.47251","25.0135283333333","6500100","板橋區"
"220068","830-TW","2018/12/31 19:59:26","新北市板橋區光復街234-1號","121.484621666667","25.021425","6500100","板橋區"
"220074","895-R6","2018/12/31 19:59:24","新北市板橋區民權路87號","121.46075","25.0119833333333","6500100","板橋區"
"220073","985-R7","2018/12/31 19:59:28","新北市板橋區南雅西路二段255號","121.451673333333","25.0146483333333","6500100","板橋區"
"220097","AAC-210","2018/12/31 19:59:15","新北市板橋區光正街24號","121.462353333333","25.017245","6500100","板橋區"
"220064","AAC-253","2018/12/31 19:59:23","新北市板橋區漢生東路193巷19-4號","121.470811666667","25.0120833333333","6500100","板橋區"
"235068","KEA-2873","2018/12/31 19:59:05","新北市中和區福美路301巷16號","121.497501666667","25.0042433333333","6500300","中和區"
