"lineid","car","time","location","longitude","latitude","cityid","cityname"
"234081","298-R6","2018/12/31 20:29:18","新北市永和區福和路174號","121.520941666667","25.0077716666667","6500400","永和區"
"234038","336-UY","2018/12/31 20:29:14","新北市永和區民樂街39巷23號","121.528943333333","25.00067","6500400","永和區"
"234064","337-UY","2018/12/31 20:29:10","新北市永和區中正路520號","121.517268333333","25.004925","6500400","永和區"
"234086","338-UY","2018/12/31 20:29:21","新北市永和區光復街26-1號","121.516555","25.0173766666667","6500400","永和區"
"234070","552-UM","2018/12/31 20:29:08","新北市永和區永亨路7號","121.519495","25.0056983333333","6500400","永和區"
"234054","KEA-2590","2018/12/31 20:29:25","新北市永和區環河東路一段80號","121.51962","25.01648","6500400","永和區"
"234013","KEA-2591","2018/12/31 20:29:19","新北市永和區仁愛路301號","121.503775","25.0081666666667","6500400","永和區"
"234061","AAD-866","2018/12/31 20:29:10","新北市永和區安樂路194巷39弄8號","121.516288333333","25.0014783333333","6500400","永和區"
"234042","862-TW","2018/12/31 20:29:15","新北市永和區安樂路290號","121.514423333333","25.004535","6500400","永和區"
"234050","863-TW","2018/12/31 20:29:10","新北市永和區新生路24巷1號","121.508845","25.0163633333333","6500400","永和區"
"249005","172-UM","2018/12/31 20:29:25","新北市八里區中山路三段386號","121.368413333333","25.1359366666667","6502300","八里區"
"249001","173-UM","2018/12/31 20:29:05","新北市八里區下罟子1-15號","121.389275","25.1423816666667","6502300","八里區"
"249004","303-UY","2018/12/31 20:29:13","新北市八里區中山路一段129巷19-1號","121.413993333333","25.1587383333333","6502300","八里區"
"249002","305-UY","2018/12/31 20:29:10","新北市八里區龍米路二段125巷25號","121.445751666667","25.1456166666667","6502300","八里區"
"249003","593-UM","2018/12/31 20:29:24","新北市八里區華峰一街40號","121.398655","25.1464183333333","6502300","八里區"
"248002","678-BX","2018/12/31 20:29:19","新北市五股區成泰路三段43-7號","121.442463333333","25.0891816666667","6501500","五股區"
"234023","9380-KE","2018/12/31 20:29:24","新北市永和區博愛街32巷12號","121.51883","25.015325","6500400","永和區"
"234074","AAC-211","2018/12/31 20:29:18","新北市永和區豫溪街217巷23號","121.52445","25.0100466666667","6500400","永和區"
"234067","AAC-212","2018/12/31 20:29:25","新北市永和區保平路268巷51弄6號","121.506851666667","25.006245","6500400","永和區"
"243010","267-VK","2018/12/31 20:29:28","新北市泰山區明志路二段273巷16弄4號","121.427923333333","25.04713","6501600","泰山區"
"243013","AAD-798","2018/12/31 20:29:12","新北市泰山區貴子路6號","121.425183333333","25.042115","6501600","泰山區"
"243009","297-R6","2018/12/31 20:29:25","新北市泰山區忠孝街14-1號","121.427758333333","25.06498","6501600","泰山區"
"243016","KEA-2801","2018/12/31 20:29:26","新北市泰山區明志路二段202-1號","121.427461666667","25.0492066666667","6501600","泰山區"
"243015","421-VK","2018/12/31 20:29:11","新北市泰山區泰林路二段483號","121.425028333333","25.0639616666667","6501600","泰山區"
"243011","KEA-2215","2018/12/31 20:29:20","新北市泰山區明志路三段87號","121.42508","25.0415733333333","6501600","泰山區"
"243012","646-TV","2018/12/31 20:29:24","新北市泰山區泰林路二段539號","121.423298333333","25.0637183333333","6501600","泰山區"
"243014","680-BX","2018/12/31 20:29:10","新北市泰山區泰林路二段2-10號","121.419898333333","25.0649766666667","6501600","泰山區"
"222003","436-BY","2018/12/31 20:29:17","新北市深坑區深坑街49號","121.615296666667","25.0017216666667","6501800","深坑區"
"222002","659-BX","2018/12/31 20:29:11","新北市深坑區萬福路16巷26號","121.608131666667","25.00852","6501800","深坑區"
"231041","002-UM","2018/12/31 20:29:25","新北市新店區中正路501-4號","121.533678333333","24.9838766666667","6500600","新店區"
"231059","046-UY","2018/12/31 20:29:11","新北市新店區安德街173號","121.508715","24.9590133333333","6500600","新店區"
"231040","047-UY","2018/12/31 20:29:08","新北市新店區三民路191號","121.535511666667","24.9756283333333","6500600","新店區"
"231044","106-UY","2018/12/31 20:29:25","新北市新店區建國路163-1號","121.538601666667","24.9791866666667","6500600","新店區"
"231052","108-UY","2018/12/31 20:29:13","新北市新店區松林路38號","121.546236666667","24.9102366666667","6500600","新店區"
"231047","187-VK","2018/12/31 20:29:12","新北市新店區寶慶街58巷21-1號","121.542015","24.9873133333333","6500600","新店區"
"231054","188-VK","2018/12/31 20:29:10","新北市新店區檳榔路55號","121.54329","24.962795","6500600","新店區"
"221035","KEA-2785","2018/12/31 20:29:25","新北市汐止區長江街101-5號","121.658685","25.0731983333333","6501100","汐止區"
"231057","256-BX","2018/12/31 20:29:16","新北市新店區花園五路二段1號","121.553541666667","24.934185","6500600","新店區"
"231042","268-BY","2018/12/31 20:29:19","新北市新店區寶橋路97號","121.54746","24.97646","6500600","新店區"
"231051","278-BY","2018/12/31 20:29:20","新北市新店區中央七街15號","121.530213333333","24.9751366666667","6500600","新店區"
"231050","AAD-862","2018/12/31 20:29:06","新北市新店區建興街2號","121.54018","24.9765966666667","6500600","新店區"
"231043","355-BY","2018/12/31 20:29:23","新北市新店區建國路129號","121.5396","24.9780866666667","6500600","新店區"
"231058","3713-VJ","2018/12/31 20:29:23","新北市新店區中正路360號","121.535616666667","24.9758666666667","6500600","新店區"
"231066","4716-K9","2018/12/31 20:29:23","新北市新店區安民街121巷12號","121.515303333333","24.9693516666667","6500600","新店區"
"231056","4715-K9","2018/12/31 20:29:26","新北市新店區民生路75巷225-2號","121.533241666667","24.980985","6500600","新店區"
"231065","512-UM","2018/12/31 20:29:20","新北市新店區安祥路102巷42弄65號","121.486201666667","24.963275","6500600","新店區"
"231049","513-UM","2018/12/31 20:29:21","新北市新店區永業路81巷7弄1號","121.530501666667","24.9487483333333","6500600","新店區"
"231045","617-UM","2018/12/31 20:29:09","新北市新店區新坡一街72號","121.548915","24.96458","6500600","新店區"
"231061","619-UM","2018/12/31 20:29:23","新北市新店區新和街33號","121.51905","24.9847616666667","6500600","新店區"
"231063","641-BX","2018/12/31 20:29:24","新北市新店區玫瑰路4-1號","121.493556666667","24.9514133333333","6500600","新店區"
"231068","718-UY","2018/12/31 20:29:10","新北市新店區中興路三段223號","121.543295","24.9829483333333","6500600","新店區"
"231064","719-UM","2018/12/31 20:29:14","新北市新店區永安街74巷4號","121.519626666667","24.986465","6500600","新店區"
"231062","720-UM","2018/12/31 20:29:15","新北市新店區安泰路7巷16號","121.485628333333","24.95065","6500600","新店區"
"231060","897-TW","2018/12/31 20:29:10","新北市新店區錦秀路74巷2號","121.478825","24.941775","6500600","新店區"
"231055","AKT-0513","2018/12/31 20:29:14","新北市新店區薏仁坑路22號","121.49881","24.959175","6500600","新店區"
"241028","022-UY","2018/12/31 20:29:27","新北市三重區光興街91號","121.497353333333","25.0599266666667","6500200","三重區"
"241008","059-VK","2018/12/31 20:29:23","新北市三重區永福街176號","121.481063333333","25.0743916666667","6500200","三重區"
"241022","060-VK","2018/12/31 20:29:16","新北市三重區中正北路20巷9號","121.487933333333","25.0630516666667","6500200","三重區"
"241031","061-VK","2018/12/31 20:29:15","新北市三重區三寧街15號","121.48944","25.0598183333333","6500200","三重區"
"241015","062-VK","2018/12/31 20:29:08","新北市三重區長元街2-2號","121.498831666667","25.0658233333333","6500200","三重區"
"241017","063-VK","2018/12/31 20:29:13","新北市三重區自強路一段290號","121.491498333333","25.068335","6500200","三重區"
"241024","065-VK","2018/12/31 20:29:19","新北市三重區中正北路276巷22號","121.480378333333","25.0675533333333","6500200","三重區"
"241002","090-VK","2018/12/31 20:29:20","新北市三重區仁義街211巷9號","121.497288333333","25.082025","6500200","三重區"
"241003","091-VK","2018/12/31 20:29:17","新北市三重區富華街150號","121.49227","25.0844533333333","6500200","三重區"
"251014","742-BX","2018/12/31 20:29:08","新北市淡水區石頭厝9-2號","121.458583333333","25.2366133333333","6501000","淡水區"
"241005","262-UM","2018/12/31 20:29:11","新北市三重區分子尾街117號","121.488376666667","25.08306","6500200","三重區"
"241016","266-UM","2018/12/31 20:29:05","新北市三重區正義北路65號","121.497208333333","25.06465","6500200","三重區"
"241018","268-UM","2018/12/31 20:29:21","新北市三重區雙園街134號","121.493943333333","25.06727","6500200","三重區"
"241032","269-UM","2018/12/31 20:29:22","新北市三重區重陽路一段120巷19號","121.485896666667","25.0602366666667","6500200","三重區"
"241013","270-UM","2018/12/31 20:29:26","新北市三重區溪尾街5巷44號","121.492965","25.07479","6500200","三重區"
"241025","271-UM","2018/12/31 20:29:20","新北市三重區頂崁街210巷27號","121.47579","25.068175","6500200","三重區"
"241007","398-BY","2018/12/31 20:29:18","新北市三重區溪尾街110號","121.489471666667","25.0789466666667","6500200","三重區"
"241035","KEA-2210","2018/12/31 20:29:21","新北市三重區文化南路25巷54號","121.498383333333","25.0616683333333","6500200","三重區"
"241026","462-BY","2018/12/31 20:29:16","新北市三重區環河南路7號","121.503911666667","25.063195","6500200","三重區"
"241004","475-VK","2018/12/31 20:29:22","新北市三重區溪尾街245號","121.488045","25.0815666666667","6500200","三重區"
"241020","478-VK","2018/12/31 20:29:15","新北市三重區三和路三段140號","121.49349","25.0724966666667","6500200","三重區"
"241030","480-VK","2018/12/31 20:29:24","新北市三重區成功路75號","121.488791666667","25.0510833333333","6500200","三重區"
"241014","543-UM","2018/12/31 20:29:08","新北市三重區長興街117號","121.502196666667","25.0691783333333","6500200","三重區"
"241001","547-UM","2018/12/31 20:29:09","新北市三重區福隆路12號","121.490301666667","25.0775233333333","6500200","三重區"
"241019","KEA-2593","2018/12/31 20:29:24","新北市三重區明德街28號","121.492563333333","25.07182","6500200","三重區"
"241006","AAD-863","2018/12/31 20:29:17","新北市三重區車路頭街139巷14號","121.48438","25.0761816666667","6500200","三重區"
"241009","743-BX","2018/12/31 20:26:11","新北市三重區永福街73號","121.480265","25.0775","6500200","三重區"
"241023","887-TS","2018/12/31 20:29:17","新北市三重區自由街17巷2號","121.479755","25.0666616666667","6500200","三重區"
"241012","941-UM","2018/12/31 20:29:13","新北市三重區龍濱路261號","121.501478333333","25.0729233333333","6500200","三重區"
"241029","942-UM","2018/12/31 20:29:17","新北市三重區集美街221號","121.492151666667","25.054795","6500200","三重區"
"235066","003-UY","2018/12/31 20:29:18","新北市中和區保平路362巷11號","121.5058","25.003995","6500300","中和區"
"247012","KEA-2869","2018/12/31 20:29:16","新北市蘆洲區民族路266號","121.478815","25.0889183333333","6501400","蘆洲區"
"247006","KED-0682","2018/12/31 20:29:09","新北市蘆洲區和平路121巷8弄43號","121.465808333333","25.0807733333333","6501400","蘆洲區"
"235050","4979-A6","2018/12/31 20:29:09","新北市中和區南華路76號","121.505288333333","24.9971716666667","6500300","中和區"
"235069","4980-A6","2018/12/31 20:29:19","新北市中和區中正路440號","121.491016666667","24.9943316666667","6500300","中和區"
"235065","911-UM","2018/12/31 20:29:24","新北市中和區橋和路296號","121.496841666667","25.0069866666667","6500300","中和區"
"235059","AAC-215","2018/12/31 20:29:18","新北市中和區員山路28-11號","121.481218333333","24.9862666666667","6500300","中和區"
"247002","893-R6","2018/12/31 20:25:45","新北市蘆洲區長安街347巷32號","121.455466666667","25.0871183333333","6501400","蘆洲區"
"247016","546-UM","2018/12/31 20:29:21","新北市蘆洲區光華路80-1號","121.467828333333","25.0826816666667","6501400","蘆洲區"
"247024","500-BY","2018/12/31 20:29:14","新北市蘆洲區光復路70巷19號","121.464661666667","25.0852383333333","6501400","蘆洲區"
"247010","336-TH","2018/12/31 20:29:14","新北市蘆洲區集賢路306號","121.481256666667","25.085245","6501400","蘆洲區"
"247020","057-VK","2018/12/31 20:29:24","新北市蘆洲區仁愛街130號","121.469171666667","25.094555","6501400","蘆洲區"
"247014","053-VK","2018/12/31 20:29:18","新北市蘆洲區中山二路28號","121.474703333333","25.0820133333333","6501400","蘆洲區"
"247018","007-UY","2018/12/31 20:29:23","新北市蘆洲區民族路336巷28號","121.47757","25.0911216666667","6501400","蘆洲區"
"247004","002-UY","2018/12/31 20:29:19","新北市蘆洲區長安街301號","121.458035","25.0849333333333","6501400","蘆洲區"
"247022","001-UY","2018/12/31 20:29:17","新北市蘆洲區中正路180號","121.467025","25.0878983333333","6501400","蘆洲區"
"222001","KEA-2212","2018/12/31 20:29:22","新北市深坑區北深路三段329號","121.597246666667","25.0049283333333","6501800","深坑區"
"251013","KEA-2871","2018/12/31 20:29:28","新北市淡水區奎柔山路295號","121.460065","25.2056333333333","6501000","淡水區"
"251016","179-VK","2018/12/31 20:29:14","新北市淡水區新埔子11-7號","121.447418333333","25.2285216666667","6501000","淡水區"
"251008","181-VK","2018/12/31 20:29:26","新北市淡水區淡海路189巷5號","121.419961666667","25.1843983333333","6501000","淡水區"
"251015","182-VK","2018/12/31 20:29:13","新北市淡水區淡金路四段542巷17號","121.452765","25.2270883333333","6501000","淡水區"
"251010","413-VK","2018/12/31 20:29:09","新北市淡水區沙崙路181巷15號","121.423986666667","25.18434","6501000","淡水區"
"251012","441-VK","2018/12/31 20:29:11","新北市淡水區頂田寮路129號","121.460025","25.216155","6501000","淡水區"
"251001","559-UM","2018/12/31 20:29:22","新北市淡水區淡金路二段95號","121.45096","25.18185","6501000","淡水區"
"251006","561-UM","2018/12/31 20:29:19","新北市淡水區商工路306號","121.461241666667","25.1858866666667","6501000","淡水區"
"251002","672-BX","2018/12/31 20:29:19","新北市淡水區中正路63號","121.441468333333","25.1695283333333","6501000","淡水區"
"251003","673-BX","2018/12/31 20:29:15","新北市淡水區新生街108巷2號","121.440095","25.1747683333333","6501000","淡水區"
"252002","178-VK","2018/12/31 20:29:29","新北市三芝區淡金路二段47-2號","121.503683333333","25.2605266666667","6502100","三芝區"
"247008","KED-0683","2018/12/31 20:29:21","新北市蘆洲區永安北路二段76巷12-1號","121.483193333333","25.0850266666667","6501400","蘆洲區"
"252001","KED-0821","2018/12/31 20:29:24","新北市三芝區中山路一段14號","121.500768333333","25.2580583333333","6502100","三芝區"
"242036","AAC-296","2018/12/31 20:29:17","新北市新莊區後港一路76巷5弄1號","121.427356666667","25.0256816666667","6500500","新莊區"
"242058","986-R7","2018/12/31 20:29:25","新北市新莊區四維路209號","121.421688333333","25.0201483333333","6500500","新莊區"
"242056","751-BX","2018/12/31 20:29:23","新北市新莊區瓊泰路154號","121.443238333333","25.0324216666667","6500500","新莊區"
"242027","705-TV","2018/12/31 20:29:28","新北市新莊區幸福路680號","121.450626666667","25.0493016666667","6500500","新莊區"
"242025","613-BX","2018/12/31 20:29:26","新北市新莊區五工二路50巷9號","121.461236666667","25.06558","6500500","新莊區"
"242029","612-BX","2018/12/31 20:29:25","新北市新莊區中華路二段175號","121.452715","25.0520183333333","6500500","新莊區"
"242044","566-BX","2018/12/31 20:29:10","新北市新莊區龍安路66-5號","121.414861666667","25.02132","6500500","新莊區"
"242048","497-BY","2018/12/31 20:29:23","新北市新莊區龍安路252-2號","121.421263333333","25.01952","6500500","新莊區"
"242021","442-UM","2018/12/31 20:29:27","新北市新莊區公園路12號","121.448066666667","25.0389633333333","6500500","新莊區"
"242053","441-UM","2018/12/31 20:29:21","新北市新莊區民安西路229巷22號","121.427178333333","25.014125","6500500","新莊區"
"242002","440-UM","2018/12/31 20:29:10","新北市新莊區中正路育農巷1號","121.456991666667","25.0378933333333","6500500","新莊區"
"242039","415-TV","2018/12/31 20:29:26","新北市新莊區民安路232號","121.426055","25.0222666666667","6500500","新莊區"
"242009","413-TV","2018/12/31 20:29:24","新北市新莊區福壽街99巷15弄16號","121.45671","25.0501916666667","6500500","新莊區"
"242046","400-BY","2018/12/31 20:29:19","新北市新莊區裕民街72巷21號","121.417771666667","25.024375","6500500","新莊區"
"242023","362-BY","2018/12/31 20:29:19","新北市新莊區化成路940號","121.464831666667","25.06282","6500500","新莊區"
"242060","353-BY","2018/12/31 20:29:21","新北市新莊區民安東路41號","121.429055","25.0209833333333","6500500","新莊區"
"242034","135-UY","2018/12/31 20:29:09","新北市新莊區中正路283號","121.448935","25.03546","6500500","新莊區"
"242050","172-VK","2018/12/31 20:29:17","新北市新莊區民安西路189巷21弄3號","121.426825","25.0156033333333","6500500","新莊區"
"242013","173-VK","2018/12/31 20:29:12","新北市新莊區中和街155巷24弄28號","121.446588333333","25.050935","6500500","新莊區"
"242019","175-VK","2018/12/31 20:29:16","新北市新莊區復興路二段196巷2弄1號","121.459245","25.0439483333333","6500500","新莊區"
"242017","KED-0687","2018/12/31 20:29:17","新北市新莊區中港二街120號","121.448651666667","25.0456716666667","6500500","新莊區"
"242007","346-TH","2018/12/31 20:29:24","新北市新莊區思源路287巷1弄33號","121.459493333333","25.046945","6500500","新莊區"
"242011","347-TH","2018/12/31 20:29:12","新北市新莊區中義街40號","121.44986","25.051165","6500500","新莊區"
"242031","348-TH","2018/12/31 20:29:20","新北市新莊區三和路58號","121.437251666667","25.038535","6500500","新莊區"
"242004","349-TH","2018/12/31 20:29:21","新北市新莊區化成路403巷31號","121.463583333333","25.0586033333333","6500500","新莊區"
"242015","351-TH","2018/12/31 20:29:12","新北市新莊區中平路46巷13號","121.445421666667","25.0438783333333","6500500","新莊區"
"221008","489-VK","2018/12/31 20:29:20","新北市汐止區康寧街706-1號","121.638221666667","25.0728816666667","6501100","汐止區"
"221036","130-UY","2018/12/31 20:29:14","新北市汐止區新台五路二段126巷13弄21號","121.664138333333","25.0662733333333","6501100","汐止區"
"221015","131-UY","2018/12/31 20:29:21","新北市汐止區建成路142巷19弄13號","121.661951666667","25.0739166666667","6501100","汐止區"
"221010","269-BY","2018/12/31 20:29:09","新北市汐止區八連路一段207號","121.641193333333","25.080645","6501100","汐止區"
"221012","278-VK","2018/12/31 20:29:20","新北市汐止區大同路三段307號","121.67471","25.0741783333333","6501100","汐止區"
"221023","279-VK","2018/12/31 20:29:10","新北市汐止區湖東街5巷31號","121.634813333333","25.073495","6501100","汐止區"
"221032","280-BY","2018/12/31 20:29:19","新北市汐止區弘道街53巷11號","121.618648333333","25.0489633333333","6501100","汐止區"
"221027","281-BY","2018/12/31 20:29:15","新北市汐止區中正路232號","121.657931666667","25.068795","6501100","汐止區"
"221029","298-VK","2018/12/31 20:29:20","新北市汐止區樟樹一路129巷32號","121.640486666667","25.06512","6501100","汐止區"
"221021","299-VK","2018/12/31 20:29:18","新北市汐止區水源路一段280號","121.654205","25.0583466666667","6501100","汐止區"
"221031","353-TW","2018/12/31 20:29:26","新北市汐止區福德一路231號","121.634226666667","25.0648233333333","6501100","汐止區"
"221025","623-UM","2018/12/31 20:29:15","新北市汐止區水源路二段88巷1弄2號","121.656256666667","25.0559016666667","6501100","汐止區"
"221038","646-BX","2018/12/31 20:29:17","新北市汐止區水源路一段72號","121.656735","25.06527","6501100","汐止區"
"221033","647-BX","2018/12/31 20:29:10","新北市汐止區林森街73巷5號","121.623538333333","25.04092","6501100","汐止區"
"221002","707-TV","2018/12/31 20:29:19","新北市汐止區福德二路52號","121.634126666667","25.0672233333333","6501100","汐止區"
"221018","753-BX","2018/12/31 20:29:11","新北市汐止區茄苳路225巷13號","121.671456666667","25.069185","6501100","汐止區"
"220083","286-VK","2018/12/31 20:29:15","新北市板橋區僑中二街104巷40號","121.44454","25.00819","6500100","板橋區"
"242042","281-VK","2018/12/31 20:29:26","新北市新莊區天祥街54巷3弄2號","121.416928333333","25.0296783333333","6500500","新莊區"
"220055","630-UY","2018/12/31 20:29:17","新北市板橋區四川路一段367號","121.458273333333","24.99969","6500100","板橋區"
"220064","AAC-253","2018/12/31 20:29:14","新北市八里區中山路三段372號","121.368751666667","25.1362116666667","6500100","板橋區"
