"lineid","car","time","location","longitude","latitude","cityid","cityname"
"231047","187-VK","2018/12/31 21:29:12","新北市新店區薏仁坑路自強巷6號","121.496578333333","24.9584","6500600","新店區"
"231063","641-BX","2018/12/31 21:29:24","新北市新店區如意街73號","121.494291666667","24.947175","6500600","新店區"
"241028","022-UY","2018/12/31 21:29:27","新北市三重區頂崁街99號","121.476895","25.0616016666667","6500200","三重區"
"241017","063-VK","2018/12/31 21:29:13","新北市三重區大同北路132巷6號","121.492478333333","25.0646883333333","6500200","三重區"
"241024","065-VK","2018/12/31 21:29:19","新北市三重區中正北路145巷14號","121.484115","25.0677766666667","6500200","三重區"
"251014","742-BX","2018/12/31 21:29:08","新北市淡水區六塊厝2-1號","121.449968333333","25.2402566666667","6501000","淡水區"
"241005","262-UM","2018/12/31 21:29:11","新北市三重區仁華街118巷6號","121.485675","25.0830016666667","6500200","三重區"
"241016","266-UM","2018/12/31 21:29:25","新北市三重區大智街76巷31號","121.49322","25.06569","6500200","三重區"
"241007","398-BY","2018/12/31 21:29:18","新北市三重區正義北路105號","121.496905","25.06553","6500200","三重區"
"241026","462-BY","2018/12/31 21:29:16","新北市三重區新北大道一段66號","121.487265","25.061425","6500200","三重區"
"241001","547-UM","2018/12/31 21:29:29","新北市蘆洲區復興路355巷11-2號","121.482008333333","25.09532","6500200","三重區"
"241012","941-UM","2018/12/31 21:29:13","新北市三重區龍門路169號","121.498988333333","25.073125","6500200","三重區"
"247012","KEA-2869","2018/12/31 21:29:16","新北市蘆洲區永平街32巷69弄4號","121.458876666667","25.0941883333333","6501400","蘆洲區"
"247002","893-R6","2018/12/31 21:29:25","新北市八里區荖阡坑路28-2號","121.40341","25.1278","6501400","蘆洲區"
"251009","008-UM","2018/12/31 21:29:25","新北市淡水區民族路33巷16-3號","121.463421666667","25.1360066666667","6501000","淡水區"
"251004","009-UM","2018/12/31 21:29:20","新北市淡水區民族路2號","121.460276666667","25.1369266666667","6501000","淡水區"
"251013","KEA-2871","2018/12/31 21:29:28","新北市淡水區埤島57-1號","121.461221666667","25.1967033333333","6501000","淡水區"
"251016","179-VK","2018/12/31 21:29:14","新北市淡水區前洲子11號","121.441083333333","25.21939","6501000","淡水區"
"251008","181-VK","2018/12/31 21:29:16","新北市淡水區水源街二段118號","121.452718333333","25.1746083333333","6501000","淡水區"
"251010","413-VK","2018/12/31 21:29:29","新北市淡水區沙崙路25巷21號","121.42048","25.1824766666667","6501000","淡水區"
"251012","441-VK","2018/12/31 21:29:25","新北市淡水區淡金路五段35巷46號","121.452416666667","25.2346783333333","6501000","淡水區"
"251007","442-VK","2018/12/31 21:29:24","新北市淡水區崁頂115號","121.432625","25.2046583333333","6501000","淡水區"
"251005","443-VK","2018/12/31 21:29:22","新北市淡水區水源街一段34巷6號","121.443158333333","25.1720166666667","6501000","淡水區"
"251001","559-UM","2018/12/31 21:29:22","新北市淡水區新市二路三段18號","121.432698333333","25.193745","6501000","淡水區"
"251006","561-UM","2018/12/31 21:29:19","新北市淡水區公明街43號","121.443261666667","25.16883","6501000","淡水區"
"251011","650-BX","2018/12/31 21:29:28","新北市淡水區新民街174號","121.436948333333","25.17869","6501000","淡水區"
"251003","673-BX","2018/12/31 21:29:15","新北市淡水區崁頂15-5號","121.439","25.1858983333333","6501000","淡水區"
"247008","KED-0683","2018/12/31 21:29:21","新北市蘆洲區中原路90號","121.457341666667","25.0816016666667","6501400","蘆洲區"
"242046","400-BY","2018/12/31 21:29:19","新北市新莊區環河路502號","121.438833333333","25.0169383333333","6500500","新莊區"
"242004","349-TH","2018/12/31 21:28:21","新北市八里區荖阡坑路32號","121.403283333333","25.1274333333333","6500500","新莊區"
"220064","AAC-253","2018/12/31 21:29:14","新北市板橋區華東街1-10號","121.448375","24.994935","6500100","板橋區"
