"lineid","car","time","location","longitude","latitude","cityid","cityname"
"241001","547-UM","2018/12/31 21:59:29","新北市八里區中山路三段409號","121.368588333333","25.1349066666667","6500200","三重區"
"247012","KEA-2869","2018/12/31 21:59:16","新北市林口區太平里180號","121.368303333333","25.134635","6501400","蘆洲區"
"235010","733-UM","2018/12/31 21:39:18","新北市中和區員山路36巷13號","121.484143333333","24.99083","6500300","中和區"
"251004","009-UM","2018/12/31 21:59:20","新北市淡水區民族路33號","121.46227","25.1357933333333","6501000","淡水區"
"251008","181-VK","2018/12/31 21:59:16","新北市淡水區學府路104號","121.449891666667","25.1717683333333","6501000","淡水區"
"251010","413-VK","2018/12/31 21:59:09","新北市淡水區中正路二段208號","121.426303333333","25.1893083333333","6501000","淡水區"
"251007","442-VK","2018/12/31 21:59:24","新北市淡水區北新路184巷48號","121.450448333333","25.1778416666667","6501000","淡水區"
"251005","443-VK","2018/12/31 21:59:22","新北市淡水區鄧公路30-8號","121.452483333333","25.169545","6501000","淡水區"
"251006","561-UM","2018/12/31 21:59:19","新北市淡水區中正路11巷3號","121.437803333333","25.170755","6501000","淡水區"
"251011","650-BX","2018/12/31 21:59:13","新北市淡水區水碓街7號","121.443173333333","25.177155","6501000","淡水區"
"251003","673-BX","2018/12/31 21:59:15","新北市淡水區新春街83號","121.438855","25.1824016666667","6501000","淡水區"
"220064","AAC-253","2018/12/31 21:55:10","新北市板橋區華東街1-10號","121.448365","24.9949316666667","6500100","板橋區"
