"lineid","car","time","location","longitude","latitude","cityid","cityname"
"234040","862-TW","2018/12/31 22:00:36","新北市永和區福和路1號","121.526323333333","25.0097483333333","6500400","永和區"
"241001","547-UM","2018/12/31 22:19:29","新北市五股區孝義路14-1號","121.451948333333","25.1063","6500200","三重區"
"251004","009-UM","2018/12/31 22:19:20","新北市淡水區民族路33號","121.462286666667","25.1357883333333","6501000","淡水區"
"251008","181-VK","2018/12/31 22:19:16","新北市淡水區學府路104號","121.449978333333","25.171895","6501000","淡水區"
"251010","413-VK","2018/12/31 22:19:09","新北市淡水區沙崙路200號","121.42468","25.18388","6501000","淡水區"
"251007","442-VK","2018/12/31 22:19:24","新北市淡水區北新路180號","121.449428333333","25.1787566666667","6501000","淡水區"
"251011","650-BX","2018/12/31 22:19:13","新北市淡水區水碓街7號","121.443171666667","25.177185","6501000","淡水區"
"220064","AAC-253","2018/12/31 21:55:10","新北市板橋區華東街1-10號","121.448365","24.9949316666667","6500100","板橋區"
