"lineid","car","time","location","longitude","latitude","cityid","cityname"
"232002","290-BY","2019/01/01 07:19:26","新北市坪林區大粗坑29-2號","121.708066666667","24.9669516666667","6502000","坪林區"
"232013","291-BY","2019/01/01 07:19:15","新北市坪林區粗窟4-1號","121.682265","24.9379933333333","6502000","坪林區"
"244002","248-BX","2019/01/01 07:19:21","新北市林口區南勢77-23號","121.354031666667","25.0799116666667","6501700","林口區"
"222004","289-BY","2019/01/01 07:19:33","新北市深坑區深坑街87號","121.614561666667","25.0012333333333","6501800","深坑區"
"235001","611-BX","2019/01/01 07:19:27","新北市中和區圓通路367巷6號","121.491495","24.9893083333333","6500300","中和區"
"226005","5620-A6","2019/01/01 07:19:27","新北市平溪區菁桐里二坑路1號","121.721185","25.0242833333333","6502400","平溪區"
"226002","7418-A5","2019/01/01 07:19:17","新北市平溪區南山里南山坪2號","121.762545","25.03138","6502400","平溪區"
"226006","AGD-0702","2019/01/01 07:19:30","新北市平溪區嶺腳里嶺腳寮74號","121.747958333333","25.0321833333333","6502400","平溪區"
"223006","022-BY","2019/01/01 07:15:32","新北市石碇區崩山12-1號","121.674393333333","24.9728816666667","6501900","石碇區"
"223003","205-TH","2019/01/01 07:19:22","新北市石碇區蓬菜寮7-2號","121.653075","24.974585","6501900","石碇區"
"223008","406-TH","2019/01/01 07:19:32","新北市石碇區南勢坑2-3號","121.699495","24.9904266666667","6501900","石碇區"
"223004","437-BY","2019/01/01 07:19:24","新北市石碇區新興坑1號","121.654445","25.01574","6501900","石碇區"
"223001","592-UM","2019/01/01 07:19:19","新北市石碇區蓬菜寮7-2號","121.652921666667","24.97444","6501900","石碇區"
"223007","661-BX","2019/01/01 07:19:22","新北市石碇區蚯蚓坑19-6號","121.686648333333","25.0004016666667","6501900","石碇區"
"223005","677-TV","2019/01/01 07:19:27","新北市石碇區新興坑1號","121.654335","25.0156616666667","6501900","石碇區"
"227006","282-VK","2019/01/01 07:19:24","新北市雙溪區新基里自強路5號","121.866306666667","25.0390466666667","6502500","雙溪區"
"252004","249-BX","2019/01/01 07:19:38","新北市三芝區錫板里棟板頭36-1號","121.505136666667","25.22752","6502100","三芝區"
"252007","AAC-283","2019/01/01 07:19:21","新北市三芝區錫板里海尾14-8號","121.47745","25.2586433333333","6502100","三芝區"
