"lineid","car","time","location","longitude","latitude","cityid","cityname"
"234036","336-UY","2018/06/23 12:19:19","新北市永和區福和路1號","121.526753333333","25.01024","6500400","永和區"
"234084","338-UY","2018/06/23 12:19:24","新北市永和區福和路1號","121.526426666667","25.0098133333333","6500400","永和區"
"234015","745-BX","2018/06/23 12:19:30","新北市永和區福和路1號","121.526301666667","25.0095566666667","6500400","永和區"
"231008","192-VK","2018/06/23 12:19:20","新北市新店區北宜路二段2號","121.54758","24.951985","6500600","新店區"
"235031","255-BX","2018/06/23 12:19:20","新北市中和區和城路一段271巷1號","121.485775","24.9917816666667","6500300","中和區"
"228005","097-TW","2018/06/23 12:19:26","新北市貢寮區福連里福連街1號","121.988285","25.0166983333333","6502600","貢寮區"
"228004","212-TW","2018/06/23 12:19:15","新北市貢寮區貢寮里長泰路17-2號","121.893471666667","25.0206766666667","6502600","貢寮區"
"235025","KEA-2875","2018/06/23 12:19:31","新北市中和區員山路36巷16號","121.484531666667","24.9913216666667","6500300","中和區"
