"lineid","car","time","location","longitude","latitude","cityid","cityname"
"234044","148-BY","2018/06/23 12:49:31","新北市永和區秀朗路二段148巷12弄16號","121.5248","25.0012383333333","6500400","永和區"
"234078","298-R6","2018/06/23 12:49:23","新北市永和區永利路136號","121.521835","25.00291","6500400","永和區"
"234036","336-UY","2018/06/23 12:49:19","新北市永和區成功路一段12號","121.527063333333","25.0053016666667","6500400","永和區"
"234062","337-UY","2018/06/23 12:49:32","新北市永和區福和路8巷1號","121.525001666667","25.00905","6500400","永和區"
"234084","338-UY","2018/06/23 12:49:27","新北市永和區中正路39-1號","121.514348333333","24.9959716666667","6500400","永和區"
"234015","745-BX","2018/06/23 12:49:30","新北市永和區忠孝街26巷8號","121.515395","25.0166616666667","6500400","永和區"
"234028","746-BX","2018/06/23 12:49:29","新北市永和區得和路321號","121.523368333333","24.9995833333333","6500400","永和區"
"234052","KEA-2590","2018/06/23 12:49:21","新北市永和區環河東路二段88號","121.523698333333","25.0105333333333","6500400","永和區"
"234012","KEA-2591","2018/06/23 12:49:36","新北市永和區保福路二段133巷18號","121.509236666667","25.013715","6500400","永和區"
"234060","AAD-866","2018/06/23 12:49:19","新北市永和區福和路305號","121.516335","25.0071033333333","6500400","永和區"
"234048","863-TW","2018/06/23 12:49:17","新北市永和區福和路1號","121.52654","25.00987","6500400","永和區"
"234025","9371-KE","2018/06/23 12:49:22","新北市永和區中正路657號","121.514863333333","25.0102233333333","6500400","永和區"
"248017","225-UY","2018/06/23 12:49:24","新北市五股區中興路二段83巷26-6號","121.460088333333","25.0752516666667","6501500","五股區"
"234022","9380-KE","2018/06/23 12:49:29","新北市永和區竹林路119巷28-3號","121.521845","25.0118133333333","6500400","永和區"
"234076","969-R7","2018/06/23 12:49:35","新北市永和區中正路10號","121.512595","24.9937466666667","6500400","永和區"
"234066","AAC-212","2018/06/23 12:49:33","新北市永和區永和路一段22號","121.513","25.00483","6500400","永和區"
"234001","AAC-295","2018/06/23 12:49:32","新北市永和區中正路657號","121.51494","25.0101866666667","6500400","永和區"
"231028","046-UY","2018/06/23 12:49:28","新北市新店區安華路28-1號","121.519658333333","24.9607866666667","6500600","新店區"
"231020","108-UY","2018/06/23 12:49:19","新北市新店區安一路一段1-1號","121.519533333333","24.961165","6500600","新店區"
"231012","187-VK","2018/06/23 12:49:27","新北市新店區安華路28-1號","121.519621666667","24.961025","6500600","新店區"
"231010","188-VK","2018/06/23 12:49:20","新北市新店區安一路一段1-1號","121.519338333333","24.9611483333333","6500600","新店區"
"231018","278-BY","2018/06/23 12:48:31","新北市新店區安一路一段1-1號","121.51946","24.9611266666667","6500600","新店區"
"231037","4716-K9","2018/06/23 12:49:26","新北市新店區安一路一段1-1號","121.519223333333","24.9611166666667","6500600","新店區"
"231036","512-UM","2018/06/23 12:49:20","新北市新店區安一路一段1-1號","121.519363333333","24.9613283333333","6500600","新店區"
"231032","616-UM","2018/06/23 12:49:34","新北市新店區安華路1-1號","121.519521666667","24.96044","6500600","新店區"
"231030","619-UM","2018/06/23 12:49:19","新北市新店區安一路一段1-1號","121.519636666667","24.961045","6500600","新店區"
"231035","719-UM","2018/06/23 12:49:18","新北市新店區安一路一段1-1號","121.519571666667","24.9614416666667","6500600","新店區"
"231024","AKT-0513","2018/06/23 12:49:26","新北市新店區安華路28-1號","121.519726666667","24.960595","6500600","新店區"
"235027","006-UY","2018/06/23 12:49:22","新北市中和區員山路36巷16-3號","121.484906666667","24.9913733333333","6500300","中和區"
"235029","098-UM","2018/06/23 12:49:23","新北市中和區員山路36巷16-8號","121.485393333333","24.992315","6500300","中和區"
"235002","185-VK","2018/06/23 12:49:19","新北市中和區中正路501號","121.488763333333","24.994105","6500300","中和區"
"235031","255-BX","2018/06/23 12:49:20","新北市中和區員山路466巷34號","121.482428333333","25.0063533333333","6500300","中和區"
"235001","611-BX","2018/06/23 12:49:20","新北市中和區員山路72-1號","121.481091666667","24.9935816666667","6500300","中和區"
"235035","783-BX","2018/06/23 12:49:20","新北市中和區員山路36巷16-3號","121.48514","24.9914266666667","6500300","中和區"
"235023","AAC-215","2018/06/23 12:49:21","新北市中和區員山路36巷16-3號","121.48496","24.9913","6500300","中和區"
"228005","097-TW","2018/06/23 12:49:26","新北市貢寮區福連里福連街34-1號","121.988656666667","25.0110916666667","6502600","貢寮區"
"228004","212-TW","2018/06/23 12:49:35","新北市貢寮區吉林里內寮街20-1號","121.889836666667","24.994755","6502600","貢寮區"
"207002","749-BX","2018/06/23 12:49:33","新北市萬里區雙興里二坪路28-1號","121.644643333333","25.16872","6502800","萬里區"
"207001","662-BX","2018/06/23 12:49:21","新北市萬里區萬里里獅頭路22-1號","121.693106666667","25.178275","6502800","萬里區"
"221032","280-BY","2018/06/23 12:47:04","新北市汐止區汐萬路一段39號","121.654935","25.06902","6501100","汐止區"
