"lineid","car","time","location","longitude","latitude","cityid","cityname"
"234044","148-BY","2018/06/23 12:59:31","新北市永和區得和路373巷31弄3號","121.524858333333","25.0005416666667","6500400","永和區"
"234005","207-UY","2018/06/23 12:59:27","新北市永和區中山路一段47號","121.513058333333","25.0105566666667","6500400","永和區"
"234078","298-R6","2018/06/23 12:59:29","新北市永和區國中路206號","121.522228333333","25.0058933333333","6500400","永和區"
"234036","336-UY","2018/06/23 12:59:37","新北市永和區成功路二段207號","121.526526666667","24.9959566666667","6500400","永和區"
"234062","337-UY","2018/06/23 12:59:36","新北市永和區秀朗路一段205號","121.519076666667","25.0033166666667","6500400","永和區"
"234084","338-UY","2018/06/23 12:59:24","新北市永和區永利路18號","121.517996666667","25.0058066666667","6500400","永和區"
"234068","552-UM","2018/06/23 12:59:34","新北市永和區竹林路124巷32號","121.518091666667","25.0116316666667","6500400","永和區"
"234015","745-BX","2018/06/23 12:59:30","新北市永和區永和路二段299號","121.516018333333","25.0160916666667","6500400","永和區"
"234028","746-BX","2018/06/23 12:59:34","新北市永和區四維街40號","121.52534","24.9980533333333","6500400","永和區"
"234052","KEA-2590","2018/06/23 12:59:21","新北市永和區竹林路66巷15-7號","121.518391666667","25.0132833333333","6500400","永和區"
"234012","KEA-2591","2018/06/23 12:59:16","新北市永和區信義路15號","121.51427","25.0120316666667","6500400","永和區"
"234060","AAD-866","2018/06/23 12:59:34","新北市永和區福和路307號","121.51621","25.0072316666667","6500400","永和區"
"234048","863-TW","2018/06/23 12:59:17","新北市永和區文化路153號","121.51061","25.0163016666667","6500400","永和區"
"234025","9371-KE","2018/06/23 12:59:30","新北市永和區水源街2巷14號","121.512313333333","25.0056566666667","6500400","永和區"
"234010","9373-KE","2018/06/23 12:59:23","新北市永和區文化路113巷21弄26號","121.513791666667","25.0139933333333","6500400","永和區"
"248017","225-UY","2018/06/23 12:59:24","新北市五股區中興路二段83巷26-6號","121.460021666667","25.0751916666667","6501500","五股區"
"234022","9380-KE","2018/06/23 12:59:39","新北市永和區竹林路75巷15-2號","121.519741666667","25.0136066666667","6500400","永和區"
"234076","969-R7","2018/06/23 12:59:33","新北市永和區民享街4號","121.515098333333","24.9955466666667","6500400","永和區"
"234072","AAC-211","2018/06/23 12:59:25","新北市永和區福和路1號","121.52658","25.0098333333333","6500400","永和區"
"234066","AAC-212","2018/06/23 12:59:32","新北市永和區自由街70-8號","121.513548333333","25.005465","6500400","永和區"
"234001","AAC-295","2018/06/23 12:59:32","新北市永和區永平路28號","121.513266666667","25.008865","6500400","永和區"
"244005","248-BX","2018/06/23 12:59:20","新北市林口區粉寮路二段14號","121.401918333333","25.085605","6501700","林口區"
"231002","002-UM","2018/06/23 12:59:22","新北市新店區安華路28-1號","121.519796666667","24.9609066666667","6500600","新店區"
"231028","046-UY","2018/06/23 12:59:28","新北市新店區安華路28-1號","121.519601666667","24.96078","6500600","新店區"
"231005","106-UY","2018/06/23 12:59:38","新北市新店區安華路28-1號","121.519551666667","24.96071","6500600","新店區"
"231020","108-UY","2018/06/23 12:59:19","新北市新店區安一路一段1-1號","121.519545","24.961255","6500600","新店區"
"231012","187-VK","2018/06/23 12:59:27","新北市新店區安一路一段1-1號","121.519608333333","24.96115","6500600","新店區"
"231010","188-VK","2018/06/23 12:59:20","新北市新店區安一路一段1-1號","121.519393333333","24.9612933333333","6500600","新店區"
"231023","KEA-2219","2018/06/23 12:59:22","新北市新店區安一路一段1-1號","121.519893333333","24.96126","6500600","新店區"
"231003","268-BY","2018/06/23 12:59:21","新北市新店區安華路28-1號","121.519385","24.9606416666667","6500600","新店區"
"231018","278-BY","2018/06/23 12:59:31","新北市新店區安一路一段1-1號","121.519561666667","24.961115","6500600","新店區"
"231037","4716-K9","2018/06/23 12:59:26","新北市新店區安一路一段1-1號","121.519071666667","24.96109","6500600","新店區"
"231036","512-UM","2018/06/23 12:59:20","新北市新店區安一路一段1-1號","121.51933","24.9612533333333","6500600","新店區"
"231013","513-UM","2018/06/23 12:59:26","新北市新店區安一路一段1-1號","121.519938333333","24.9612716666667","6500600","新店區"
"231034","616-UM","2018/06/23 12:59:34","新北市新店區安華路1-1號","121.519516666667","24.9604533333333","6500600","新店區"
"231006","617-UM","2018/06/23 12:59:20","新北市新店區安一路一段1-1號","121.519568333333","24.961135","6500600","新店區"
"231030","619-UM","2018/06/23 12:59:19","新北市新店區安華路28-1號","121.519556666667","24.9609233333333","6500600","新店區"
"231035","719-UM","2018/06/23 12:59:18","新北市新店區安一路一段1-1號","121.519598333333","24.96114","6500600","新店區"
"231033","720-UM","2018/06/23 12:59:37","新北市新店區安一路一段1-1號","121.51928","24.9612483333333","6500600","新店區"
"231029","897-TW","2018/06/23 12:59:26","新北市新店區安華路28-1號","121.519811666667","24.9607","6500600","新店區"
"231004","899-TW","2018/06/23 12:59:35","新北市新店區安華路28-1號","121.518921666667","24.960935","6500600","新店區"
"231024","AKT-0513","2018/06/23 12:59:26","新北市新店區安華路28-1號","121.519413333333","24.9605933333333","6500600","新店區"
"235027","006-UY","2018/06/23 12:59:22","新北市中和區員山路36巷16-3號","121.484941666667","24.9913733333333","6500300","中和區"
"235003","097-UM","2018/06/23 12:59:22","新北市中和區和城路一段271巷1號","121.485466666667","24.9916716666667","6500300","中和區"
"235029","098-UM","2018/06/23 12:59:23","新北市中和區景平路784-1號","121.49589","25.0055966666667","6500300","中和區"
"235004","150-BY","2018/06/23 12:59:37","新北市中和區和城路一段271巷1號","121.485563333333","24.9915866666667","6500300","中和區"
"235022","151-BY","2018/06/23 12:59:33","新北市中和區圓通路367巷7號","121.492235","24.9879683333333","6500300","中和區"
"235002","185-VK","2018/06/23 12:59:19","新北市中和區成功路25號","121.52617","24.9934716666667","6500300","中和區"
"235031","255-BX","2018/06/23 12:59:20","新北市中和區中正路889號","121.484285","25.0044266666667","6500300","中和區"
"235001","611-BX","2018/06/23 12:59:20","新北市中和區員山路266巷31號","121.482563333333","25.001855","6500300","中和區"
"235018","640-BX","2018/06/23 12:59:26","新北市中和區員山路36巷16-2號","121.485286666667","24.991835","6500300","中和區"
"235035","783-BX","2018/06/23 12:59:20","新北市中和區新生街290號","121.483571666667","24.9963783333333","6500300","中和區"
"235016","805-TS","2018/06/23 12:59:38","新北市中和區員山路36巷16號","121.484496666667","24.9913966666667","6500300","中和區"
"235017","900-TW","2018/06/23 12:59:33","新北市中和區員山路36巷16-2號","121.485088333333","24.9918016666667","6500300","中和區"
"235015","157-BY","2018/06/23 12:59:26","新北市中和區員山路36巷13號","121.484178333333","24.9908783333333","6500300","中和區"
"235001","AAC-213","2018/06/23 12:59:26","新北市中和區中正路273號","121.495621666667","24.9936816666667","6500300","中和區"
"235023","AAC-215","2018/06/23 12:59:21","新北市中和區員山路36巷16-3號","121.484955","24.9913016666667","6500300","中和區"
"228005","097-TW","2018/06/23 12:59:26","新北市貢寮區福隆里桂安街18號","121.955391666667","25.0204033333333","6502600","貢寮區"
"228004","212-TW","2018/06/23 12:59:35","新北市貢寮區吉林里內寮街57號","121.886486666667","24.9867483333333","6502600","貢寮區"
"253001","6251-TK","2018/06/23 12:59:36","新北市石門區中央路5-1號","121.56641","25.2914666666667","6502200","石門區"
"253004","8270-PC","2018/06/23 12:59:37","新北市石門區中山路64-1號","121.567533333333","25.2903816666667","6502200","石門區"
"207002","749-BX","2018/06/23 12:59:33","新北市萬里區雙興里大坪路39-6號","121.631058333333","25.1687383333333","6502800","萬里區"
"252005","073-UM","2018/06/23 12:59:22","新北市三芝區埔坪里埔頭坑107號","121.504596666667","25.26173","6502100","三芝區"
"207001","662-BX","2018/06/23 12:59:21","新北市萬里區萬里里獅頭路22-1號","121.69308","25.1782816666667","6502800","萬里區"
"221032","280-BY","2018/06/23 12:59:20","新北市汐止區建成路39號","121.663076666667","25.0730266666667","6501100","汐止區"
"221021","299-VK","2018/06/23 12:59:27","新北市汐止區環河街147號","121.629021666667","25.0585533333333","6501100","汐止區"
