"lineid","car","time","location","longitude","latitude","cityid","cityname"
"234044","148-BY","2018/06/23 13:09:31","新北市永和區永元路18巷38弄1號","121.524021666667","25.0002683333333","6500400","永和區"
"234005","207-UY","2018/06/23 13:09:27","新北市永和區中山路一段215-1號","121.508316666667","25.0079533333333","6500400","永和區"
"234078","298-R6","2018/06/23 13:09:35","新北市永和區永貞路39巷13號","121.522345","25.0063733333333","6500400","永和區"
"234036","336-UY","2018/06/23 13:09:19","新北市永和區民樂街71巷1號","121.527373333333","24.9975033333333","6500400","永和區"
"234062","337-UY","2018/06/23 13:09:32","新北市永和區秀朗路二段33號","121.521246666667","25.0024433333333","6500400","永和區"
"234084","338-UY","2018/06/23 13:09:24","新北市永和區永貞路90號","121.519448333333","25.0046116666667","6500400","永和區"
"234068","552-UM","2018/06/23 13:09:34","新北市永和區豫溪街95巷10弄1號","121.517993333333","25.0107833333333","6500400","永和區"
"234015","745-BX","2018/06/23 13:09:30","新北市永和區文化路90巷15弄1號","121.513765","25.0159866666667","6500400","永和區"
"234028","746-BX","2018/06/23 13:09:29","新北市永和區民生路21號","121.522855","24.998855","6500400","永和區"
"234052","KEA-2590","2018/06/23 13:09:21","新北市永和區竹林路72巷2號","121.519136666667","25.012965","6500400","永和區"
"234012","KEA-2591","2018/06/23 13:09:36","新北市永和區保福路二段48號","121.510975","25.0121433333333","6500400","永和區"
"234060","AAD-866","2018/06/23 13:09:19","新北市永和區安樂路461號","121.514371666667","25.0052366666667","6500400","永和區"
"234040","862-TW","2018/06/23 13:09:29","新北市永和區永和路一段49巷3弄34號","121.511701666667","25.0060533333333","6500400","永和區"
"234048","863-TW","2018/06/23 13:09:37","新北市永和區仁愛路104巷7弄23號","121.511003333333","25.0140616666667","6500400","永和區"
"234025","9371-KE","2018/06/23 13:09:22","新北市永和區永和路一段72巷4號","121.513451666667","25.00611","6500400","永和區"
"234010","9373-KE","2018/06/23 13:09:23","新北市永和區仁愛路73巷2弄1號","121.513385","25.012875","6500400","永和區"
"248017","225-UY","2018/06/23 13:09:24","新北市五股區成泰路三段101-1號","121.444215","25.0902416666667","6501500","五股區"
"234022","9380-KE","2018/06/23 13:09:19","新北市永和區中興街10巷60號","121.5165","25.0109583333333","6500400","永和區"
"234076","969-R7","2018/06/23 13:09:33","新北市永和區中正路164號","121.515051666667","24.9965683333333","6500400","永和區"
"234072","AAC-211","2018/06/23 13:09:25","新北市永和區竹林路217號","121.520671666667","25.00867","6500400","永和區"
"234066","AAC-212","2018/06/23 13:09:33","新北市永和區永和路一段83號","121.51321","25.0072916666667","6500400","永和區"
"234001","AAC-295","2018/06/23 13:09:32","新北市永和區永和路二段28號","121.514603333333","25.0103683333333","6500400","永和區"
"244005","248-BX","2018/06/23 13:09:40","新北市林口區中山路622號","121.375208333333","25.0861216666667","6501700","林口區"
"231002","002-UM","2018/06/23 13:09:22","新北市新店區安華路28-1號","121.51979","24.960765","6500600","新店區"
"231027","0293-UT","2018/06/23 13:09:26","新北市新店區安華路28-1號","121.519516666667","24.9605633333333","6500600","新店區"
"231028","046-UY","2018/06/23 13:09:28","新北市新店區安華路28-1號","121.51958","24.960765","6500600","新店區"
"231001","047-UY","2018/06/23 13:09:37","新北市新店區安華路28-1號","121.51934","24.9608516666667","6500600","新店區"
"231005","106-UY","2018/06/23 13:09:17","新北市新店區安華路28-1號","121.519556666667","24.9608133333333","6500600","新店區"
"231020","108-UY","2018/06/23 13:09:19","新北市新店區安一路一段1-1號","121.519493333333","24.9612933333333","6500600","新店區"
"231012","187-VK","2018/06/23 13:09:27","新北市新店區安一路一段1-1號","121.519585","24.9611633333333","6500600","新店區"
"231010","188-VK","2018/06/23 13:09:20","新北市新店區安一路一段1-1號","121.519358333333","24.9614283333333","6500600","新店區"
"231023","KEA-2219","2018/06/23 13:09:22","新北市新店區安一路一段1-1號","121.519916666667","24.96123","6500600","新店區"
"231026","256-BX","2018/06/23 13:09:25","新北市新店區安一路一段1-1號","121.519673333333","24.9611283333333","6500600","新店區"
"231003","268-BY","2018/06/23 13:09:21","新北市新店區安華路28-1號","121.519423333333","24.9606416666667","6500600","新店區"
"231018","278-BY","2018/06/23 13:09:31","新北市新店區安一路一段1-1號","121.519603333333","24.9610916666667","6500600","新店區"
"231038","3712-VJ","2018/06/23 13:09:24","新北市新店區安華路28-1號","121.519235","24.96073","6500600","新店區"
"231037","4716-K9","2018/06/23 13:09:26","新北市新店區安華路28-1號","121.519711666667","24.96095","6500600","新店區"
"231025","4715-K9","2018/06/23 13:09:29","新北市新店區安華路1-1號","121.519481666667","24.9604766666667","6500600","新店區"
"231036","512-UM","2018/06/23 13:09:20","新北市新店區安一路一段1-1號","121.519248333333","24.9611816666667","6500600","新店區"
"231013","513-UM","2018/06/23 13:09:26","新北市新店區安一路一段1-1號","121.51967","24.9610483333333","6500600","新店區"
"231034","616-UM","2018/06/23 13:09:21","新北市新店區安華路1-1號","121.519505","24.9603966666667","6500600","新店區"
"231006","617-UM","2018/06/23 13:09:20","新北市新店區安華路28-1號","121.519371666667","24.9609483333333","6500600","新店區"
"231030","619-UM","2018/06/23 13:09:19","新北市新店區安一路一段1-1號","121.519613333333","24.9610566666667","6500600","新店區"
"231035","719-UM","2018/06/23 13:09:38","新北市新店區安一路一段1-1號","121.519491666667","24.9612633333333","6500600","新店區"
"231033","720-UM","2018/06/23 13:09:17","新北市新店區安一路一段1-1號","121.519441666667","24.9612183333333","6500600","新店區"
"231029","897-TW","2018/06/23 13:09:26","新北市新店區安華路28-1號","121.519595","24.9606633333333","6500600","新店區"
"231004","899-TW","2018/06/23 13:09:35","新北市新店區安華路28-1號","121.518895","24.9609066666667","6500600","新店區"
"231024","AKT-0513","2018/06/23 13:09:26","新北市新店區安華路28-1號","121.519593333333","24.96054","6500600","新店區"
"235028","005-UY","2018/06/23 13:09:30","新北市中和區員山路36巷16-3號","121.48484","24.9917216666667","6500300","中和區"
"235027","006-UY","2018/06/23 13:09:22","新北市中和區員山路36巷16-3號","121.484888333333","24.9914666666667","6500300","中和區"
"235003","097-UM","2018/06/23 13:09:22","新北市中和區和城路一段271巷1號","121.485471666667","24.9916433333333","6500300","中和區"
"235029","098-UM","2018/06/23 13:09:23","新北市中和區莊敬路49巷20弄20號","121.502683333333","25.00583","6500300","中和區"
"235004","150-BY","2018/06/23 13:09:17","新北市中和區錦和路350-1號","121.49036","24.99357","6500300","中和區"
"235022","151-BY","2018/06/23 13:09:33","新北市中和區圓通路367巷68號","121.493431666667","24.9831283333333","6500300","中和區"
"235002","185-VK","2018/06/23 13:09:19","新北市中和區大勇街46巷6號","121.517635","24.9937433333333","6500300","中和區"
"235031","255-BX","2018/06/23 13:09:26","新北市中和區民樂路65號","121.483686666667","25.0013366666667","6500300","中和區"
"235036","301-VK","2018/06/23 13:09:26","新北市中和區中正路637巷60弄61號","121.485431666667","24.9931683333333","6500300","中和區"
"235034","558-UM","2018/06/23 13:09:26","新北市中和區中正路266-1號","121.495335","24.9939016666667","6500300","中和區"
"235009","565-BX","2018/06/23 13:09:25","新北市中和區員山路36巷13號","121.484201666667","24.9910733333333","6500300","中和區"
"235001","611-BX","2018/06/23 13:09:20","新北市中和區中山路三段136巷79號","121.473713333333","25.0078633333333","6500300","中和區"
"235018","640-BX","2018/06/23 13:09:26","新北市土城區延壽路118-6號","121.469066666667","24.99461","6500300","中和區"
"235011","732-UM","2018/06/23 13:09:26","新北市中和區中正路271-1號","121.495761666667","24.99365","6500300","中和區"
"235035","783-BX","2018/06/23 13:09:20","新北市中和區板南路520巷2號","121.483828333333","25.008835","6500300","中和區"
"235026","800-TS","2018/06/23 13:09:25","新北市中和區錦和路65號","121.489485","24.99835","6500300","中和區"
"235021","801-TS","2018/06/23 13:09:34","新北市中和區員山路36巷16-3號","121.484956666667","24.9916216666667","6500300","中和區"
"235005","802-TS","2018/06/23 13:09:22","新北市中和區中正路589巷15號","121.485638333333","24.9934916666667","6500300","中和區"
"235016","805-TS","2018/06/23 13:09:18","新北市中和區中正路171號","121.497771666667","24.9935916666667","6500300","中和區"
"235017","900-TW","2018/06/23 13:09:33","新北市中和區員山路36巷16-3號","121.485005","24.9917833333333","6500300","中和區"
"235030","911-UM","2018/06/23 13:09:21","新北市中和區南山路41號","121.502058333333","24.9985666666667","6500300","中和區"
"235015","157-BY","2018/06/23 13:09:25","新北市中和區板南路100號","121.503866666667","24.9923883333333","6500300","中和區"
"235001","AAC-213","2018/06/23 13:09:26","新北市中和區景平路149號","121.513876666667","24.9920583333333","6500300","中和區"
"235023","AAC-215","2018/06/23 13:09:21","新北市中和區員山路36巷16-3號","121.484901666667","24.9913916666667","6500300","中和區"
"228005","097-TW","2018/06/23 13:09:26","新北市貢寮區仁理村研海街45號","121.926098333333","25.0416316666667","6502600","貢寮區"
"228004","212-TW","2018/06/23 13:09:35","新北市貢寮區吉林里內寮街71號","121.892426666667","24.9731683333333","6502600","貢寮區"
"253003","6232-TK","2018/06/23 13:09:36","新北市石門區石崩山23號","121.566665","25.27801","6502200","石門區"
"253001","6251-TK","2018/06/23 13:09:36","新北市石門區公地49號","121.545341666667","25.2896316666667","6502200","石門區"
"253002","637-UY","2018/06/23 13:09:34","新北市石門區九芎林1號","121.556586666667","25.27571","6502200","石門區"
"253004","8270-PC","2018/06/23 13:09:37","新北市石門區阿里荖2號","121.614036666667","25.2789433333333","6502200","石門區"
"207002","749-BX","2018/06/23 13:09:33","新北市萬里區崁腳里崁腳路106-4號","121.646728333333","25.1591016666667","6502800","萬里區"
"252005","073-UM","2018/06/23 13:09:22","新北市三芝區八賢里八連溪17號","121.510711666667","25.242795","6502100","三芝區"
"207001","662-BX","2018/06/23 13:09:21","新北市萬里區萬里里瑪鋉路139號","121.68933","25.1776333333333","6502800","萬里區"
"221032","280-BY","2018/06/23 13:09:20","新北市汐止區大同路二段377號","121.657471666667","25.067245","6501100","汐止區"
"221021","299-VK","2018/06/23 13:09:27","新北市汐止區福德一路397號","121.627358333333","25.0604433333333","6501100","汐止區"
"235032","KEA-2873","2018/06/23 13:09:15","新北市中和區員山路36巷16-3號","121.484875","24.9912416666667","6500300","中和區"
"235025","KEA-2875","2018/06/23 13:09:33","新北市土城區延壽路53號","121.469871666667","24.992135","6500300","中和區"
