"lineid","car","time","location","longitude","latitude","cityid","cityname"
"234044","148-BY","2018/06/23 13:39:31","新北市永和區永元路95巷4號","121.522471666667","25.00209","6500400","永和區"
"234005","207-UY","2018/06/23 13:39:37","新北市永和區永和路一段94號","121.513263333333","25.00684","6500400","永和區"
"234078","298-R6","2018/06/23 13:39:23","新北市永和區國中路104巷8弄4號","121.524833333333","25.006745","6500400","永和區"
"234036","336-UY","2018/06/23 13:39:19","新北市永和區民樂街31巷4號","121.52779","25.0014916666667","6500400","永和區"
"234062","337-UY","2018/06/23 13:39:32","新北市永和區秀朗路一段192巷6弄14號","121.519121666667","25.0022766666667","6500400","永和區"
"234084","338-UY","2018/06/23 13:39:24","新北市永和區永亨路150號","121.52542","25.0039016666667","6500400","永和區"
"234068","552-UM","2018/06/23 13:39:34","新北市永和區中興街1號","121.515365","25.0122333333333","6500400","永和區"
"234015","745-BX","2018/06/23 13:39:30","新北市永和區永和路二段425巷56號","121.513985","25.0175133333333","6500400","永和區"
"234028","746-BX","2018/06/23 13:39:31","新北市永和區民權路29巷12號","121.52076","24.9978966666667","6500400","永和區"
"234052","KEA-2590","2018/06/23 13:39:21","新北市永和區竹林路39巷22號","121.519005","25.0147283333333","6500400","永和區"
"234012","KEA-2591","2018/06/23 13:39:36","新北市永和區永平路238巷1弄2號","121.509026666667","25.0113266666667","6500400","永和區"
"234060","AAD-866","2018/06/23 13:39:40","新北市永和區中正路456號","121.517541666667","25.00293","6500400","永和區"
"234040","862-TW","2018/06/23 13:39:23","新北市永和區中和路603號","121.512421666667","25.00428","6500400","永和區"
"234048","863-TW","2018/06/23 13:39:37","新北市永和區保福路二段162巷2號","121.508988333333","25.0152816666667","6500400","永和區"
"234025","9371-KE","2018/06/23 13:39:22","新北市永和區和平街109巷6-1號","121.51072","25.0096533333333","6500400","永和區"
"234010","9373-KE","2018/06/23 13:39:23","新北市永和區永平路218巷23號","121.51006","25.0111483333333","6500400","永和區"
"248017","225-UY","2018/06/23 13:39:24","新北市五股區民義路二段50-2號","121.411713333333","25.103115","6501500","五股區"
"234022","9380-KE","2018/06/23 13:39:39","新北市永和區中正路702巷18號","121.516408333333","25.0105383333333","6500400","永和區"
"234076","969-R7","2018/06/23 13:39:33","新北市永和區民權路38號","121.520216666667","24.9988083333333","6500400","永和區"
"234072","AAC-211","2018/06/23 13:39:25","新北市永和區豫溪街160巷17號","121.523338333333","25.009085","6500400","永和區"
"234066","AAC-212","2018/06/23 13:39:12","新北市永和區中山路一段191巷9弄8號","121.509956666667","25.008015","6500400","永和區"
"234001","AAC-295","2018/06/23 13:39:32","新北市永和區福和路346號","121.515025","25.00719","6500400","永和區"
"231002","002-UM","2018/06/23 13:39:22","新北市新店區溪園路403號","121.524063333333","24.9781166666667","6500600","新店區"
"231027","0293-UT","2018/06/23 13:39:25","新北市新店區北宜路一段105巷4弄9號","121.540313333333","24.9554966666667","6500600","新店區"
"231028","046-UY","2018/06/23 13:39:38","新北市新店區安和路一段39號","121.517236666667","24.9652683333333","6500600","新店區"
"231001","047-UY","2018/06/23 13:39:37","新北市新店區中正路394號","121.534635","24.9772983333333","6500600","新店區"
"231005","106-UY","2018/06/23 13:39:38","新北市新店區寶橋路97號","121.54717","24.97634","6500600","新店區"
"231020","108-UY","2018/06/23 13:39:19","新北市新店區永興路88-1號","121.544006666667","24.933705","6500600","新店區"
"231012","187-VK","2018/06/23 13:39:38","新北市新店區德正街25巷2號","121.544325","24.9715983333333","6500600","新店區"
"231010","188-VK","2018/06/23 13:39:40","新北市新店區中正路307巷17號","121.535906666667","24.97355","6500600","新店區"
"231023","KEA-2219","2018/06/23 13:39:22","新北市新店區新店路132號","121.53712","24.9550783333333","6500600","新店區"
"231026","256-BX","2018/06/23 13:39:25","新北市新店區中正路226號","121.540058333333","24.9727733333333","6500600","新店區"
"231003","268-BY","2018/06/23 13:39:21","新北市新店區中興路一段280號","121.545575","24.9683766666667","6500600","新店區"
"231018","278-BY","2018/06/23 13:39:31","新北市新店區百忍街36號","121.533765","24.975795","6500600","新店區"
"231017","AAD-862","2018/06/23 13:39:36","新北市新店區竹林路2巷30號","121.550073333333","24.9504366666667","6500600","新店區"
"231038","3712-VJ","2018/06/23 13:39:24","新北市新店區安康路一段291巷32-1號","121.52233","24.9625166666667","6500600","新店區"
"231037","4716-K9","2018/06/23 13:39:26","新北市新店區薏仁坑路22號","121.498396666667","24.959155","6500600","新店區"
"231025","4715-K9","2018/06/23 13:39:29","新北市新店區中央六街56號","121.527873333333","24.9757533333333","6500600","新店區"
"231036","512-UM","2018/06/23 13:39:20","新北市新店區安祥路147巷55號","121.476128333333","24.9559783333333","6500600","新店區"
"231013","513-UM","2018/06/23 13:39:26","新北市新店區中正路454-5號","121.534431666667","24.97903","6500600","新店區"
"231006","617-UM","2018/06/23 13:39:20","新北市新店區北宜路一段122號","121.53936","24.9551133333333","6500600","新店區"
"231030","619-UM","2018/06/23 13:39:31","新北市新店區安康路一段355-10號","121.520846666667","24.9637966666667","6500600","新店區"
"231034","641-BX","2018/06/23 13:39:36","新北市新店區車子路134號","121.50487","24.94851","6500600","新店區"
"231035","719-UM","2018/06/23 13:39:36","新北市新店區安忠路76號","121.512226666667","24.958765","6500600","新店區"
"231033","720-UM","2018/06/23 13:39:37","新北市新店區莒光路44巷21弄11-3號","121.518381666667","24.9521966666667","6500600","新店區"
"231029","897-TW","2018/06/23 13:39:26","新北市新店區車子路1-1號","121.504901666667","24.957985","6500600","新店區"
"231004","899-TW","2018/06/23 13:39:35","新北市新店區北新路二段10號","121.542765","24.9711983333333","6500600","新店區"
"231024","AKT-0513","2018/06/23 13:39:26","新北市新店區中華路47巷7號","121.539725","24.9674533333333","6500600","新店區"
"235028","005-UY","2018/06/23 13:27:09","新北市中和區員山路36巷16-3號","121.48486","24.9917066666667","6500300","中和區"
"235027","006-UY","2018/06/23 13:39:29","新北市中和區連城路403巷1號","121.486208333333","24.99592","6500300","中和區"
"235020","096-UM","2018/06/23 13:39:20","新北市中和區員山路466巷10號","121.480696666667","25.0065666666667","6500300","中和區"
"235003","097-UM","2018/06/23 13:39:22","新北市中和區景平路278巷16弄28號","121.514536666667","24.9939566666667","6500300","中和區"
"235029","098-UM","2018/06/23 13:39:23","新北市中和區中山路二段2巷59號","121.501663333333","25.0074033333333","6500300","中和區"
"235004","150-BY","2018/06/23 13:39:37","新北市中和區安平路59號","121.50947","24.9951966666667","6500300","中和區"
"235022","151-BY","2018/06/23 13:39:33","新北市中和區圓通路435巷1號","121.486275","24.9876016666667","6500300","中和區"
"235019","183-VK","2018/06/23 13:39:20","新北市中和區國光街102巷40號","121.471191666667","25.0006183333333","6500300","中和區"
"235002","185-VK","2018/06/23 13:39:19","新北市中和區立人街14巷26號","121.519506666667","24.9954083333333","6500300","中和區"
"235013","186-VK","2018/06/23 13:39:37","新北市中和區景安路132巷38號","121.503801666667","24.994605","6500300","中和區"
"235031","255-BX","2018/06/23 13:39:20","新北市中和區新生街220巷4號","121.482888333333","24.99865","6500300","中和區"
"235008","293-VK","2018/06/23 13:39:21","新北市中和區復興路262號","121.503268333333","24.990515","6500300","中和區"
"235036","301-VK","2018/06/23 13:39:26","新北市中和區連城路87號","121.496843333333","25.0002433333333","6500300","中和區"
"235007","352-BY","2018/06/23 13:39:23","新北市中和區景平路161-1號","121.51262","24.992305","6500300","中和區"
"235006","KEA-2878","2018/06/23 13:39:17","新北市中和區秀朗路三段128巷1弄15號","121.523766666667","24.99158","6500300","中和區"
"235014","4979-A6","2018/06/23 13:39:32","新北市中和區景新街496巷30弄15號","121.513008333333","24.9855316666667","6500300","中和區"
"235033","4980-A6","2018/06/23 13:39:28","新北市中和區連城路89巷1號","121.496683333333","25.0000566666667","6500300","中和區"
"235034","558-UM","2018/06/23 13:39:26","新北市中和區景新街133號","121.505955","24.9972583333333","6500300","中和區"
"235009","565-BX","2018/06/23 13:39:25","新北市中和區南山路236巷63弄1號","121.503851666667","24.98759","6500300","中和區"
"235018","640-BX","2018/06/23 13:39:26","新北市中和區莒光路95號","121.472461666667","25.0030916666667","6500300","中和區"
"235024","647-TV","2018/06/23 13:39:36","新北市中和區中山路二段626號","121.481316666667","25.0055333333333","6500300","中和區"
"235011","732-UM","2018/06/23 13:39:26","新北市中和區南山路320巷10弄1號","121.507001666667","24.9863483333333","6500300","中和區"
"235035","783-BX","2018/06/23 13:39:20","新北市中和區中山路二段482巷26號","121.490453333333","25.0066683333333","6500300","中和區"
"235026","800-TS","2018/06/23 13:39:25","新北市中和區中山路二段312巷12號","121.495381666667","25.0036183333333","6500300","中和區"
"235021","801-TS","2018/06/23 13:39:34","新北市中和區民安街42巷32號","121.479223333333","25.001065","6500300","中和區"
"235005","802-TS","2018/06/23 13:39:22","新北市中和區中安街78號","121.512146666667","25.001975","6500300","中和區"
"235016","805-TS","2018/06/23 13:39:18","新北市中和區興南路三段63號","121.493028333333","24.97502","6500300","中和區"
"235012","896-TW","2018/06/23 13:39:29","新北市中和區中正路81號","121.500705","24.9934033333333","6500300","中和區"
"235017","900-TW","2018/06/23 13:39:32","新北市土城區延壽路77巷4弄33號","121.469056666667","24.9932283333333","6500300","中和區"
"235030","911-UM","2018/06/23 13:39:21","新北市中和區水源路34巷2號","121.504743333333","25.0034633333333","6500300","中和區"
"235015","157-BY","2018/06/23 13:39:25","新北市中和區華新街143巷106弄32號","121.506205","24.978705","6500300","中和區"
"235001","AAC-213","2018/06/23 13:39:26","新北市中和區景平路73-2號","121.518651666667","24.9915","6500300","中和區"
"235023","AAC-215","2018/06/23 13:39:21","新北市中和區錦和路350-1號","121.490528333333","24.9935366666667","6500300","中和區"
"220020","015-TV","2018/06/23 13:39:33","新北市板橋區大觀路三段66號","121.433158333333","24.99507","6500100","板橋區"
"220034","073-UY","2018/06/23 13:39:31","新北市板橋區南雅西路二段180巷22號","121.452543333333","25.013795","6500100","板橋區"
"220017","AAD-861","2018/06/23 13:39:22","新北市板橋區華東街1-10號","121.448738333333","24.995035","6500100","板橋區"
"247009","341-TH","2018/06/23 13:39:20","新北市五股區中興路三段163號","121.449276666667","25.0806666666667","6501400","蘆洲區"
"235028","251-BX","2018/06/23 13:39:20","新北市中和區圓通路141巷48弄23號","121.49812","24.9943783333333","6500300","中和區"
"228005","097-TW","2018/06/23 13:39:26","新北市貢寮區美豐里文秀坑5-1號","121.90314","25.051155","6502600","貢寮區"
"228004","212-TW","2018/06/23 13:35:35","新北市貢寮區龍崗里石壁坑街30-1號","121.910325","25.0001116666667","6502600","貢寮區"
"253003","6232-TK","2018/06/23 13:39:36","新北市石門區尖子鹿10號","121.574833333333","25.2808966666667","6502200","石門區"
"253001","6251-TK","2018/06/23 13:39:35","新北市三芝區新庄里新庄子71-3號","121.512546666667","25.2766416666667","6502200","石門區"
"253002","637-UY","2018/06/23 13:39:34","新北市石門區尖山湖55號","121.565261666667","25.2486783333333","6502200","石門區"
"253004","8270-PC","2018/06/23 13:39:17","新北市石門區阿里荖58-1號","121.606943333333","25.27355","6502200","石門區"
"207002","749-BX","2018/06/23 13:39:33","新北市萬里區崁腳里崁腳路166號","121.645106666667","25.1558483333333","6502800","萬里區"
"252005","073-UM","2018/06/23 13:39:22","新北市三芝區圓山里木屐寮38號","121.530643333333","25.226075","6502100","三芝區"
"207001","662-BX","2018/06/23 13:39:21","新北市萬里區大鵬里萬里加投18-3號","121.64988","25.209435","6502800","萬里區"
"236040","107-UM","2018/06/23 13:39:19","新北市土城區城林路6巷80號","121.438495","24.97971","6501300","土城區"
"236074","166-UM","2018/06/23 13:39:31","新北市土城區城林路6巷80號","121.43837","24.9799483333333","6501300","土城區"
"236024","269-VK","2018/06/23 13:39:22","新北市土城區城林路6巷80號","121.438513333333","24.979775","6501300","土城區"
"236013","270-VK","2018/06/23 13:39:24","新北市土城區城林路6巷80號","121.438586666667","24.979635","6501300","土城區"
"236006","498-BY","2018/06/23 13:39:20","新北市土城區慶祥街59巷2號","121.43561","24.9727433333333","6501300","土城區"
"236060","752-BX","2018/06/23 13:39:32","新北市土城區城林路6巷80號","121.438696666667","24.9796916666667","6501300","土城區"
"236057","912-UM","2018/06/23 13:39:37","新北市土城區城林路6巷80號","121.438406666667","24.9797366666667","6501300","土城區"
"221032","280-BY","2018/06/23 13:39:20","新北市汐止區仁愛路25號","121.659281666667","25.06373","6501100","汐止區"
"220028","200-UY","2018/06/23 13:39:33","新北市板橋區大觀路二段265巷76弄28號","121.441436666667","24.9967483333333","6500100","板橋區"
"220030","610-BX","2018/06/23 13:39:20","新北市板橋區篤行路一段33號","121.432025","24.9942783333333","6500100","板橋區"
"220004","276-BY","2018/06/23 13:39:19","新北市板橋區四川路二段140巷20號","121.449033333333","24.9934683333333","6500100","板橋區"
"220025","282-UM","2018/06/23 13:39:28","新北市板橋區沙崙街37號","121.430501666667","24.9944816666667","6500100","板橋區"
"220019","283-VK","2018/06/23 13:39:21","新北市板橋區四川路二段14號","121.456106666667","24.9962733333333","6500100","板橋區"
"220043","285-UM","2018/06/23 13:39:18","新北市板橋區民生路二段161巷1號","121.470046666667","25.0197916666667","6500100","板橋區"
"220001","285-VK","2018/06/23 13:39:23","新北市板橋區民生路二段161巷1號","121.470266666667","25.0200316666667","6500100","板橋區"
"220031","286-VK","2018/06/23 13:39:20","新北市板橋區大觀路二段91號","121.446353333333","25.0020166666667","6500100","板橋區"
"220029","287-VK","2018/06/23 13:39:31","新北市板橋區大觀路二段39號","121.446703333333","25.0029516666667","6500100","板橋區"
"220032","296-UM","2018/06/23 13:39:26","新北市板橋區大觀路二段152號","121.441721666667","24.9988933333333","6500100","板橋區"
"220023","303-R5","2018/06/23 13:39:38","新北市板橋區南雅南路二段116號","121.45246","25.00049","6500100","板橋區"
"220047","317-R6","2018/06/23 13:39:19","新北市板橋區民生路二段120號","121.470368333333","25.0196216666667","6500100","板橋區"
"220013","461-BY","2018/06/23 13:39:35","新北市板橋區漢生東路282號","121.471175","25.00918","6500100","板橋區"
"220012","486-VK","2018/06/23 13:39:23","新北市板橋區縣民大道二段1號","121.462208333333","25.0115533333333","6500100","板橋區"
"220104","560-BX","2018/06/23 13:39:40","新北市板橋區南雅西路二段175巷2號","121.451606666667","25.0125366666667","6500100","板橋區"
"220011","609-BX","2018/06/23 13:39:33","新北市板橋區民生路二段161巷1號","121.469866666667","25.02009","6500100","板橋區"
"220040","637-BX","2018/06/23 13:39:39","新北市板橋區民生路二段161巷1號","121.469946666667","25.020015","6500100","板橋區"
"220005","686-BX","2018/06/23 13:39:21","新北市板橋區華東街1-9號","121.448195","24.994925","6500100","板橋區"
"220002","741-BX","2018/06/23 13:39:25","新北市板橋區華東街11號","121.45139","24.9983683333333","6500100","板橋區"
"220014","830-TW","2018/06/23 13:39:24","新北市板橋區民生路二段120號","121.470516666667","25.0197033333333","6500100","板橋區"
"220022","895-R6","2018/06/23 13:39:21","新北市板橋區南雅南路一段8-5號","121.45599","25.0065083333333","6500100","板橋區"
"220021","985-R7","2018/06/23 13:39:22","新北市板橋區館前西路92號","121.457315","25.00722","6500100","板橋區"
"220018","AAC-253","2018/06/23 13:39:32","新北市板橋區華東街1-9號","121.448271666667","24.994875","6500100","板橋區"
"235032","KEA-2873","2018/06/23 13:39:15","新北市中和區中正路167巷15號","121.498466666667","24.992805","6500300","中和區"
"235025","KEA-2875","2018/06/23 13:39:33","新北市中和區民享街30巷4號","121.473675","25.003575","6500300","中和區"
