"lineid","car","time","location","longitude","latitude","cityid","cityname"
"234044","148-BY","2018/06/23 13:49:31","新北市永和區永利路326號","121.525245","25.0033266666667","6500400","永和區"
"234005","207-UY","2018/06/23 13:49:27","新北市中和區中和路380號","121.510778333333","25.0021233333333","6500400","永和區"
"234078","298-R6","2018/06/23 13:49:23","新北市永和區國中路2號","121.524241666667","25.0042316666667","6500400","永和區"
"234036","336-UY","2018/06/23 13:49:19","新北市永和區民樂街39巷18弄42號","121.528461666667","24.9990133333333","6500400","永和區"
"234062","337-UY","2018/06/23 13:49:32","新北市永和區中正路414號","121.517753333333","25.0020916666667","6500400","永和區"
"234084","338-UY","2018/06/23 13:49:32","新北市永和區中正路499號","121.516858333333","25.006835","6500400","永和區"
"234068","552-UM","2018/06/23 13:49:34","新北市永和區竹林路46號","121.517691666667","25.014335","6500400","永和區"
"234015","745-BX","2018/06/23 13:49:30","新北市永和區文化路9巷2號","121.515305","25.0149533333333","6500400","永和區"
"234028","746-BX","2018/06/23 13:49:29","新北市永和區民生路47巷16號","121.523858333333","24.9977","6500400","永和區"
"234052","KEA-2590","2018/06/23 13:49:21","新北市永和區竹林路39巷28弄21號","121.51995","25.014455","6500400","永和區"
"234012","KEA-2591","2018/06/23 13:49:36","新北市永和區仁愛路230號","121.508653333333","25.0118883333333","6500400","永和區"
"234060","AAD-866","2018/06/23 13:49:19","新北市永和區中正路69號","121.514873333333","24.9966733333333","6500400","永和區"
"234040","862-TW","2018/06/23 13:49:23","新北市永和區中和路389巷13號","121.508078333333","25.001015","6500400","永和區"
"234048","863-TW","2018/06/23 13:49:37","新北市永和區環河西路一段103號","121.511085","25.01763","6500400","永和區"
"234025","9371-KE","2018/06/23 13:49:22","新北市永和區保生路55-1號","121.504451666667","25.0109133333333","6500400","永和區"
"234010","9373-KE","2018/06/23 13:49:23","新北市永和區保福路二段163巷17號","121.508853333333","25.0145916666667","6500400","永和區"
"248017","225-UY","2018/06/23 13:49:24","新北市五股區民義路二段22巷27號","121.42386","25.0980433333333","6501500","五股區"
"234022","9380-KE","2018/06/23 13:49:40","新北市永和區中正路641號","121.515313333333","25.01008","6500400","永和區"
"234076","969-R7","2018/06/23 13:49:33","新北市永和區民族街41巷13號","121.519163333333","24.9989116666667","6500400","永和區"
"234072","AAC-211","2018/06/23 13:49:29","新北市永和區豫溪街156號","121.523003333333","25.009885","6500400","永和區"
"234066","AAC-212","2018/06/23 13:49:32","新北市永和區保平路236巷24弄1號","121.508065","25.0069083333333","6500400","永和區"
"234001","AAC-295","2018/06/23 13:49:32","新北市永和區永和路一段115-1號","121.513905","25.0080766666667","6500400","永和區"
"231002","002-UM","2018/06/23 13:49:22","新北市新店區溪園路247號","121.525175","24.98309","6500600","新店區"
"231027","0293-UT","2018/06/23 13:49:25","新北市新店區中興路一段24號","121.538633333333","24.9583066666667","6500600","新店區"
"231028","046-UY","2018/06/23 13:49:28","新北市新店區安和路二段185號","121.51826","24.9748766666667","6500600","新店區"
"231001","047-UY","2018/06/23 13:49:30","新北市新店區三民路69號","121.536221666667","24.9714266666667","6500600","新店區"
"231005","106-UY","2018/06/23 13:49:38","新北市新店區寶中路121-1號","121.549621666667","24.9794233333333","6500600","新店區"
"231020","108-UY","2018/06/23 13:49:39","新北市新店區永興路132-3號","121.544443333333","24.93152","6500600","新店區"
"231012","187-VK","2018/06/23 13:49:27","新北市新店區德正街27巷29弄88號","121.54579","24.9735366666667","6500600","新店區"
"231010","188-VK","2018/06/23 13:49:20","新北市新店區三民路60巷5號","121.535363333333","24.972515","6500600","新店區"
"231023","KEA-2219","2018/06/23 13:49:22","新北市新店區國校路30號","121.538096666667","24.9545816666667","6500600","新店區"
"231026","256-BX","2018/06/23 13:49:24","新北市新店區三民路159巷19弄48號","121.532168333333","24.97321","6500600","新店區"
"231003","268-BY","2018/06/23 13:49:21","新北市新店區中興路一段157號","121.542501666667","24.964125","6500600","新店區"
"231018","278-BY","2018/06/23 13:49:31","新北市新店區中正路398號","121.534786666667","24.9775516666667","6500600","新店區"
"231017","AAD-862","2018/06/23 13:49:36","新北市新店區竹林路90號","121.554201666667","24.9501283333333","6500600","新店區"
"231038","3712-VJ","2018/06/23 13:49:24","新北市新店區溪洲路121號","121.531243333333","24.963015","6500600","新店區"
"231037","4716-K9","2018/06/23 13:49:26","新北市新店區安康路三段466-2號","121.484206666667","24.9510266666667","6500600","新店區"
"231025","4715-K9","2018/06/23 13:49:29","新北市新店區中正路374號","121.53499","24.9764983333333","6500600","新店區"
"231036","512-UM","2018/06/23 13:49:20","新北市新店區安祥路108巷35號","121.47505","24.9570066666667","6500600","新店區"
"231013","513-UM","2018/06/23 13:49:26","新北市新店區二十張路25巷18弄1號","121.539286666667","24.981735","6500600","新店區"
"231006","617-UM","2018/06/23 13:49:20","新北市新店區北宜路一段260號","121.545713333333","24.9527533333333","6500600","新店區"
"231030","619-UM","2018/06/23 13:49:39","新北市新店區安康路一段50號","121.530326666667","24.9611333333333","6500600","新店區"
"231034","641-BX","2018/06/23 13:49:36","新北市新店區達觀路14巷1號","121.503575","24.9410033333333","6500600","新店區"
"231035","719-UM","2018/06/23 13:49:18","新北市新店區安忠路57巷23號","121.513385","24.95831","6500600","新店區"
"231033","720-UM","2018/06/23 13:49:37","新北市新店區莒光路87巷15號","121.525453333333","24.9531616666667","6500600","新店區"
"231029","897-TW","2018/06/23 13:49:26","新北市新店區安康路二段140號","121.512453333333","24.9618","6500600","新店區"
"231004","899-TW","2018/06/23 13:49:35","新北市新店區寶橋路69-1號","121.545418333333","24.9749633333333","6500600","新店區"
"231024","AKT-0513","2018/06/23 13:49:25","新北市新店區北新路一段271巷23號","121.540241666667","24.96707","6500600","新店區"
"235028","005-UY","2018/06/23 13:27:09","新北市中和區員山路36巷16-3號","121.48486","24.9917066666667","6500300","中和區"
"235027","006-UY","2018/06/23 13:49:22","新北市中和區連城路319巷5弄1號","121.489193333333","24.9953583333333","6500300","中和區"
"235020","096-UM","2018/06/23 13:49:21","新北市中和區中正路1196號","121.480486666667","25.0104416666667","6500300","中和區"
"235003","097-UM","2018/06/23 13:49:22","新北市中和區大仁街20巷50號","121.520251666667","24.9933166666667","6500300","中和區"
"235029","098-UM","2018/06/23 13:49:23","新北市中和區勝利路35巷3弄23號","121.499943333333","25.007435","6500300","中和區"
"235004","150-BY","2018/06/23 13:49:37","新北市中和區保健路61巷7號","121.509685","24.9974666666667","6500300","中和區"
"235022","151-BY","2018/06/23 13:49:33","新北市中和區連城路559號","121.479751666667","24.9946933333333","6500300","中和區"
"235019","183-VK","2018/06/23 13:49:20","新北市中和區德光路79號","121.469391666667","25.0036833333333","6500300","中和區"
"235002","185-VK","2018/06/23 13:49:19","新北市中和區立人街32號","121.518445","24.9940433333333","6500300","中和區"
"235013","186-VK","2018/06/23 13:49:37","新北市中和區景安路142號","121.505125","24.9941933333333","6500300","中和區"
"235031","255-BX","2018/06/23 13:49:40","新北市中和區新生街242巷3號","121.483325","24.9977383333333","6500300","中和區"
"235008","293-VK","2018/06/23 13:49:21","新北市中和區中興街115巷2號","121.50017","24.992055","6500300","中和區"
"235036","301-VK","2018/06/23 13:49:26","新北市中和區中山路二段10號","121.50509","25.0055683333333","6500300","中和區"
"235007","352-BY","2018/06/23 13:49:23","新北市中和區成功路139號","121.525871666667","24.990105","6500300","中和區"
"235006","KEA-2878","2018/06/23 13:49:37","新北市中和區成功路135號","121.526576666667","24.9905183333333","6500300","中和區"
"235014","4979-A6","2018/06/23 13:49:32","新北市中和區忠孝街62巷40號","121.512986666667","24.983685","6500300","中和區"
"235033","4980-A6","2018/06/23 13:49:28","新北市中和區南山路24號","121.502011666667","24.9981883333333","6500300","中和區"
"235034","558-UM","2018/06/23 13:49:26","新北市中和區圓通路6號","121.501796666667","24.99806","6500300","中和區"
"235009","565-BX","2018/06/23 13:49:25","新北市中和區捷運路102號","121.505708333333","24.9914333333333","6500300","中和區"
"235018","640-BX","2018/06/23 13:49:26","新北市中和區民享街62號","121.474073333333","25.0021783333333","6500300","中和區"
"235024","647-TV","2018/06/23 13:49:36","新北市中和區中山路三段227號","121.471078333333","25.006585","6500300","中和區"
"235011","732-UM","2018/06/23 13:49:26","新北市中和區興南路二段34巷57弄2號","121.504888333333","24.9857333333333","6500300","中和區"
"235010","733-UM","2018/06/23 13:49:38","新北市中和區仁愛街36巷40號","121.511365","24.986475","6500300","中和區"
"235035","783-BX","2018/06/23 13:49:20","新北市中和區立德街72巷20號","121.487778333333","25.0082233333333","6500300","中和區"
"235026","800-TS","2018/06/23 13:49:05","新北市中和區中山路二段332巷5號","121.493873333333","25.0025066666667","6500300","中和區"
"235021","801-TS","2018/06/23 13:49:34","新北市中和區民安街23號","121.480325","25.0005383333333","6500300","中和區"
"235005","802-TS","2018/06/23 13:49:28","新北市中和區永貞路243號","121.51308","25.0039783333333","6500300","中和區"
"235016","805-TS","2018/06/23 13:49:18","新北市中和區興南路二段399巷132-1號","121.501023333333","24.9749333333333","6500300","中和區"
"235012","896-TW","2018/06/23 13:49:29","新北市中和區南山路188號","121.505788333333","24.9906","6500300","中和區"
"235017","900-TW","2018/06/23 13:49:33","新北市中和區華福街43號","121.466363333333","24.9966766666667","6500300","中和區"
"235030","911-UM","2018/06/23 13:49:21","新北市中和區水源路18巷9號","121.504025","25.0029566666667","6500300","中和區"
"235015","157-BY","2018/06/23 13:49:25","新北市中和區華新街109巷22號","121.508388333333","24.9804216666667","6500300","中和區"
"235001","AAC-213","2018/06/23 13:49:26","新北市中和區秀朗路三段128巷11號","121.524483333333","24.9932716666667","6500300","中和區"
"235023","AAC-215","2018/06/23 13:49:21","新北市中和區圓通路391-2號","121.489966666667","24.98916","6500300","中和區"
"220016","013-TV","2018/06/23 13:49:38","新北市板橋區民生路二段89-6號","121.470676666667","25.0188466666667","6500100","板橋區"
"220020","015-TV","2018/06/23 13:49:33","新北市板橋區大觀路三段36巷48號","121.434468333333","24.996935","6500100","板橋區"
"220034","073-UY","2018/06/23 13:49:31","新北市板橋區大智街22號","121.455678333333","25.014845","6500100","板橋區"
"220105","075-UY","2018/06/23 13:49:28","新北市板橋區民生路二段161巷9號","121.470318333333","25.019595","6500100","板橋區"
"220017","AAD-861","2018/06/23 13:49:22","新北市板橋區華東街260號","121.452723333333","25.0015133333333","6500100","板橋區"
"247009","341-TH","2018/06/23 13:49:20","新北市蘆洲區中正路520巷9號","121.46248","25.0996216666667","6501400","蘆洲區"
"247005","336-TH","2018/06/23 13:49:18","新北市蘆洲區中山二路256號","121.469303333333","25.0789883333333","6501400","蘆洲區"
"247007","056-VK","2018/06/23 13:49:20","新北市三重區三和路四段420號","121.480618333333","25.0800733333333","6501400","蘆洲區"
"247003","053-VK","2018/06/23 13:49:22","新北市蘆洲區中原路32號","121.459998333333","25.0828","6501400","蘆洲區"
"235028","251-BX","2018/06/23 13:49:20","新北市中和區連城路139巷8號","121.496025","24.9984433333333","6500300","中和區"
"228005","097-TW","2018/06/23 13:49:26","新北市貢寮區美豐里土地公嶺10號","121.889713333333","25.05737","6502600","貢寮區"
"228004","212-TW","2018/06/23 13:38:15","新北市貢寮區龍崗里嵩陽街17號","121.907323333333","25.00862","6502600","貢寮區"
"253003","6232-TK","2018/06/23 13:49:36","新北市石門區尖子鹿50號","121.580235","25.27349","6502200","石門區"
"253001","6251-TK","2018/06/23 13:49:35","新北市三芝區新庄里新庄子48-13號","121.506788333333","25.2785733333333","6502200","石門區"
"253002","637-UY","2018/06/23 13:49:34","新北市石門區尖山湖18號","121.558628333333","25.2470033333333","6502200","石門區"
"253004","8270-PC","2018/06/23 13:49:17","新北市石門區草埔尾21號","121.603801666667","25.26247","6502200","石門區"
"207002","749-BX","2018/06/23 13:49:33","新北市萬里區崁腳里崁腳路166號","121.6451","25.15584","6502800","萬里區"
"252005","073-UM","2018/06/23 13:49:22","新北市三芝區圓山里二坪頂67號","121.540396666667","25.232755","6502100","三芝區"
"207001","662-BX","2018/06/23 13:49:21","新北市萬里區磺潭里公館崙35號","121.631391666667","25.2104783333333","6502800","萬里區"
"236068","105-UM","2018/06/23 13:49:27","新北市土城區城林路6巷80號","121.438118333333","24.9796033333333","6501300","土城區"
"236040","107-UM","2018/06/23 13:49:20","新北市土城區員福街38號","121.440693333333","24.9789933333333","6501300","土城區"
"236074","166-UM","2018/06/23 13:49:36","新北市土城區中央路二段225號","121.440386666667","24.97261","6501300","土城區"
"236029","253-BX","2018/06/23 13:49:31","新北市土城區城林路6巷80號","121.438401666667","24.979655","6501300","土城區"
"236024","269-VK","2018/06/23 13:49:22","新北市土城區城林路6巷80號","121.43848","24.9797516666667","6501300","土城區"
"236013","270-VK","2018/06/23 13:49:24","新北市土城區城林路6巷80號","121.438551666667","24.9796733333333","6501300","土城區"
"236017","401-BY","2018/06/23 13:49:35","新北市土城區城林路6巷80號","121.438546666667","24.9797466666667","6501300","土城區"
"236006","498-BY","2018/06/23 13:49:20","新北市土城區中央路二段61巷28號","121.443431666667","24.9786233333333","6501300","土城區"
"236060","752-BX","2018/06/23 13:49:32","新北市土城區城林路6巷80號","121.438653333333","24.9796966666667","6501300","土城區"
"236057","912-UM","2018/06/23 13:49:17","新北市土城區中華路二段134號","121.437555","24.9730783333333","6501300","土城區"
"220028","200-UY","2018/06/23 13:49:33","新北市板橋區大觀路二段265巷60弄29號","121.441918333333","24.9978466666667","6500100","板橋區"
"220030","610-BX","2018/06/23 13:49:20","新北市板橋區篤行路三段玉平巷76弄8號","121.427641666667","24.9858316666667","6500100","板橋區"
"220050","245-BX","2018/06/23 13:49:34","新北市板橋區民生路二段120號","121.47041","25.0197283333333","6500100","板橋區"
"220003","256-TC","2018/06/23 13:49:37","新北市板橋區縣民大道二段200巷35號","121.470588333333","25.018075","6500100","板橋區"
"220004","276-BY","2018/06/23 13:49:19","新北市板橋區四川路二段23-3號","121.454553333333","24.99576","6500100","板橋區"
"220025","282-UM","2018/06/23 13:49:28","新北市板橋區篤行路一段29號","121.432048333333","24.9945566666667","6500100","板橋區"
"220019","283-VK","2018/06/23 13:49:21","新北市板橋區重慶路245巷67弄2號","121.465613333333","25.00124","6500100","板橋區"
"220043","285-UM","2018/06/23 13:49:38","新北市板橋區民生路二段161巷1號","121.470035","25.0198116666667","6500100","板橋區"
"220001","285-VK","2018/06/23 13:49:23","新北市板橋區民生路二段89-6號","121.470623333333","25.0193416666667","6500100","板橋區"
"220031","286-VK","2018/06/23 13:49:20","新北市板橋區僑中二街88巷2號","121.446408333333","25.0094183333333","6500100","板橋區"
"220029","287-VK","2018/06/23 13:49:31","新北市板橋區光華街10號","121.454183333333","25.0115483333333","6500100","板橋區"
"220039","288-VK","2018/06/23 13:49:33","新北市板橋區民生路二段120號","121.47039","25.019645","6500100","板橋區"
"220009","293-UM","2018/06/23 13:49:27","新北市板橋區民生路二段123號","121.470786666667","25.0185816666667","6500100","板橋區"
"220010","295-UM","2018/06/23 13:49:39","新北市板橋區中山路二段25號","121.472505","25.0152416666667","6500100","板橋區"
"220032","296-UM","2018/06/23 13:49:26","新北市板橋區大觀路二段156巷45號","121.441255","24.9999283333333","6500100","板橋區"
"220023","303-R5","2018/06/23 13:49:18","新北市板橋區南雅東路104號","121.45351","25.0080516666667","6500100","板橋區"
"220047","317-R6","2018/06/23 13:49:39","新北市板橋區民生路二段120號","121.47033","25.0196283333333","6500100","板橋區"
"220013","461-BY","2018/06/23 13:49:35","新北市板橋區漢生東路282號","121.471215","25.00895","6500100","板橋區"
"220012","486-VK","2018/06/23 13:49:23","新北市板橋區民生路二段36-1號","121.472106666667","25.0166933333333","6500100","板橋區"
"220037","491-VK","2018/06/23 13:49:31","新北市板橋區民生路二段171號","121.469861666667","25.0201433333333","6500100","板橋區"
"220104","560-BX","2018/06/23 13:49:20","新北市板橋區中正路275巷3弄1號","121.454546666667","25.01852","6500100","板橋區"
"220011","609-BX","2018/06/23 13:49:33","新北市板橋區中山路二段37號","121.473066666667","25.0157583333333","6500100","板橋區"
"220040","637-BX","2018/06/23 13:49:19","新北市板橋區民生路二段161巷1號","121.470108333333","25.0199666666667","6500100","板橋區"
"220005","686-BX","2018/06/23 13:49:22","新北市板橋區館前西路60號","121.458256666667","25.0068833333333","6500100","板橋區"
"220042","689-BX","2018/06/23 13:49:34","新北市板橋區民生路二段171號","121.469996666667","25.0202233333333","6500100","板橋區"
"220002","741-BX","2018/06/23 13:49:25","新北市板橋區後埔街13號","121.460405","25.0067866666667","6500100","板橋區"
"220051","KEA-2699","2018/06/23 13:49:38","新北市板橋區民生路二段120號","121.470345","25.0197733333333","6500100","板橋區"
"220014","830-TW","2018/06/23 13:49:24","新北市板橋區民生路二段121號","121.470653333333","25.0183383333333","6500100","板橋區"
"220045","831-TW","2018/06/23 13:49:19","新北市板橋區民生路二段120號","121.470358333333","25.0198","6500100","板橋區"
"220038","833-TW","2018/06/23 13:49:30","新北市板橋區民生路二段161巷1號","121.470128333333","25.0200183333333","6500100","板橋區"
"220022","895-R6","2018/06/23 13:49:21","新北市板橋區府中路23號","121.458945","25.0093966666667","6500100","板橋區"
"220021","985-R7","2018/06/23 13:49:22","新北市板橋區府中路65號","121.458196666667","25.0093733333333","6500100","板橋區"
"220018","AAC-253","2018/06/23 13:49:32","新北市板橋區四川路一段107號","121.459791666667","25.0052083333333","6500100","板橋區"
"235032","KEA-2873","2018/06/23 13:49:15","新北市中和區圓通路291巷2號","121.495108333333","24.9925683333333","6500300","中和區"
"235025","KEA-2875","2018/06/23 13:49:33","新北市中和區民享街89巷9弄3號","121.474916666667","25.00197","6500300","中和區"
