"lineid","car","time","location","longitude","latitude","cityid","cityname"
"234025","9371-KE","2018/06/23 14:59:22","新北市永和區永貞路271號","121.511718333333","25.0047666666667","6500400","永和區"
"248017","225-UY","2018/06/23 14:59:24","新北市五股區登林路104號","121.427098333333","25.0707583333333","6501500","五股區"
"231002","002-UM","2018/06/23 14:59:22","新北市新店區中正路501-4號","121.533563333333","24.9838266666667","6500600","新店區"
"231028","046-UY","2018/06/23 14:59:28","新北市新店區安豐路7號","121.501645","24.957195","6500600","新店區"
"231001","047-UY","2018/06/23 14:59:37","新北市新店區中正路268號","121.53907","24.9736083333333","6500600","新店區"
"231005","106-UY","2018/06/23 14:59:18","新北市新店區寶慶街71號","121.541921666667","24.986575","6500600","新店區"
"231020","108-UY","2018/06/23 14:59:19","新北市新店區桂山路37號","121.561651666667","24.90493","6500600","新店區"
"231012","187-VK","2018/06/23 14:59:27","新北市新店區寶橋路132號","121.547428333333","24.9760116666667","6500600","新店區"
"231023","KEA-2219","2018/06/23 14:59:22","新北市新店區檳榔路109號","121.544508333333","24.961655","6500600","新店區"
"231026","256-BX","2018/06/23 14:59:18","新北市新店區博愛街1號","121.540515","24.9727116666667","6500600","新店區"
"231003","268-BY","2018/06/23 14:59:21","新北市新店區中興路二段37號","121.546273333333","24.9698283333333","6500600","新店區"
"231018","278-BY","2018/06/23 14:59:31","新北市新店區中央五街3-1號","121.530278333333","24.9743","6500600","新店區"
"231017","AAD-862","2018/06/23 14:59:36","新北市新店區銀河路21號","121.573066666667","24.957125","6500600","新店區"
"231038","3712-VJ","2018/06/23 14:59:24","新北市新店區安一路一段1-1號","121.51955","24.9610966666667","6500600","新店區"
"231025","4715-K9","2018/06/23 14:59:29","新北市新店區大同街31號","121.538626666667","24.980785","6500600","新店區"
"231036","512-UM","2018/06/23 14:59:20","新北市新店區安祥路102巷30弄31號","121.485096666667","24.9634233333333","6500600","新店區"
"231006","617-UM","2018/06/23 14:59:40","新北市新店區新坡一街85號","121.548958333333","24.9645133333333","6500600","新店區"
"231030","619-UM","2018/06/23 14:59:39","新北市新店區安民街339號","121.516918333333","24.9749216666667","6500600","新店區"
"231034","641-BX","2018/06/23 14:59:36","新北市新店區玫瑰路4-1號","121.49362","24.95138","6500600","新店區"
"231039","718-UY","2018/06/23 14:59:41","新北市新店區民權路17號","121.542125","24.9828633333333","6500600","新店區"
"231035","719-UM","2018/06/23 14:59:18","新北市新店區安和路二段220號","121.518548333333","24.97655","6500600","新店區"
"231033","720-UM","2018/06/23 14:59:37","新北市新店區安泰路60巷19號","121.483631666667","24.9465983333333","6500600","新店區"
"231029","897-TW","2018/06/23 14:59:26","新北市新店區安康路三段738號","121.473865","24.9420033333333","6500600","新店區"
"231004","899-TW","2018/06/23 14:59:35","新北市新店區民族路41號","121.540635","24.97873","6500600","新店區"
"231024","AKT-0513","2018/06/23 14:59:26","新北市新店區中華路83巷67號","121.53835","24.9672783333333","6500600","新店區"
"235020","096-UM","2018/06/23 14:59:41","新北市中和區漢民路423號","121.47243","25.006745","6500300","中和區"
"235003","097-UM","2018/06/23 14:59:42","新北市中和區安樂路217巷40弄1號","121.513311666667","24.9980166666667","6500300","中和區"
"235029","098-UM","2018/06/23 14:59:22","新北市中和區景平路754號","121.496558333333","25.0046616666667","6500300","中和區"
"235004","150-BY","2018/06/23 14:59:37","新北市中和區保健路19巷9號","121.508311666667","24.9984183333333","6500300","中和區"
"235013","186-VK","2018/06/23 14:59:37","新北市中和區南華路11號","121.502233333333","24.9955483333333","6500300","中和區"
"235031","255-BX","2018/06/23 14:59:20","新北市新莊區化成路565號","121.465116666667","25.065945","6500300","中和區"
"235008","293-VK","2018/06/23 14:59:21","新北市中和區板南路187-1號","121.501083333333","24.9925933333333","6500300","中和區"
"235036","301-VK","2018/06/23 14:59:26","新北市中和區中山路二段3巷22弄7號","121.506275","25.0051016666667","6500300","中和區"
"235007","352-BY","2018/06/23 14:59:23","新北市中和區華新街228號","121.506073333333","24.9817983333333","6500300","中和區"
"235014","4979-A6","2018/06/23 14:59:31","新北市中和區景平路155巷2弄2號","121.513288333333","24.9919783333333","6500300","中和區"
"235033","4980-A6","2018/06/23 14:59:28","新北市中和區景平路511號","121.49932","24.9986716666667","6500300","中和區"
"235034","558-UM","2018/06/23 14:59:26","新北市中和區連勝街14號","121.498778333333","24.998345","6500300","中和區"
"235018","640-BX","2018/06/23 14:59:25","新北市中和區莒光路5號","121.471951666667","25.0060133333333","6500300","中和區"
"235010","733-UM","2018/06/23 14:59:38","新北市中和區興南路一段105巷20弄6號","121.510341666667","24.985525","6500300","中和區"
"235026","800-TS","2018/06/23 14:59:25","新北市中和區中山路二段476-9號","121.488738333333","25.0060833333333","6500300","中和區"
"235016","805-TS","2018/06/23 14:59:18","新北市中和區忠孝街28號","121.510575","24.9830683333333","6500300","中和區"
"235012","896-TW","2018/06/23 14:59:29","新北市中和區忠孝街2-7號","121.509146666667","24.98292","6500300","中和區"
"235017","900-TW","2018/06/23 14:59:32","新北市中和區民德路246號","121.468081666667","24.9972633333333","6500300","中和區"
"235030","911-UM","2018/06/23 14:59:40","新北市中和區中山路二段58號","121.504061666667","25.004805","6500300","中和區"
"235015","157-BY","2018/06/23 14:59:25","新北市中和區景安路220巷22號","121.502693333333","24.9914883333333","6500300","中和區"
"235001","AAC-213","2018/06/23 14:59:26","新北市中和區自立路99巷22弄3號","121.523356666667","24.9943683333333","6500300","中和區"
"235023","AAC-215","2018/06/23 14:59:41","新北市中和區圓通路335巷3弄2號","121.49254","24.990145","6500300","中和區"
"220016","013-TV","2018/06/23 14:59:38","新北市板橋區中山路二段318巷2弄16號","121.480661666667","25.01916","6500100","板橋區"
"220020","015-TV","2018/06/23 14:59:33","新北市板橋區篤行路二段74號","121.431595","24.992065","6500100","板橋區"
"220105","075-UY","2018/06/23 14:59:28","新北市板橋區文聖街13號","121.475573333333","25.0323683333333","6500100","板橋區"
"220017","AAD-861","2018/06/23 14:59:22","新北市板橋區大明街13號","121.45894","25.0025","6500100","板橋區"
"247001","002-UY","2018/06/23 14:59:30","新北市五股區中興路二段182巷3號","121.456863333333","25.0783083333333","6501400","蘆洲區"
"235028","251-BX","2018/06/23 14:59:20","新北市中和區南山路127巷18弄1號","121.503476666667","24.9973716666667","6500300","中和區"
"228004","212-TW","2018/06/23 14:59:35","新北市貢寮區雙玉里田寮洋街24號","121.928565","25.0179483333333","6502600","貢寮區"
"253003","6232-TK","2018/06/23 14:59:36","新北市石門區尖子鹿101號","121.580025","25.292635","6502200","石門區"
"253001","6251-TK","2018/06/23 14:59:35","新北市石門區崁子腳31-1號","121.537183333333","25.2837133333333","6502200","石門區"
"253002","637-UY","2018/06/23 14:59:34","新北市石門區崁子腳28-2號","121.540055","25.2889416666667","6502200","石門區"
"253004","8270-PC","2018/06/23 14:59:20","新北市石門區茂林社區3-1號","121.592041666667","25.27101","6502200","石門區"
"207002","749-BX","2018/06/23 14:59:33","新北市萬里區崁腳里崁腳路60-1號","121.648438333333","25.1600916666667","6502800","萬里區"
"252005","073-UM","2018/06/23 14:57:42","新北市三芝區埔坪里埔頭坑147號","121.51035","25.2498733333333","6502100","三芝區"
"207001","662-BX","2018/06/23 14:59:21","新北市萬里區雙興里麗水路3-2號","121.652768333333","25.18208","6502800","萬里區"
"236068","105-UM","2018/06/23 14:59:27","新北市土城區中央路一段291巷4號","121.44472","24.9839366666667","6501300","土城區"
"236040","107-UM","2018/06/23 14:59:39","新北市土城區學府路一段169號","121.452651666667","24.9854816666667","6501300","土城區"
"236074","166-UM","2018/06/23 14:59:36","新北市土城區中央路四段125巷2弄21號","121.416315","24.9567716666667","6501300","土城區"
"236029","253-BX","2018/06/23 14:59:31","新北市土城區福仁街40號","121.439835","24.975315","6501300","土城區"
"236024","269-VK","2018/06/23 14:59:22","新北市土城區中正路74巷3弄2號","121.444761666667","24.9747933333333","6501300","土城區"
"236013","270-VK","2018/06/23 14:59:36","新北市土城區永豐路29巷8號","121.463493333333","24.9883466666667","6501300","土城區"
"236032","271-VK","2018/06/23 14:59:32","新北市土城區仁愛路8號","121.459931666667","24.981085","6501300","土城區"
"236017","401-BY","2018/06/23 14:59:35","新北市土城區延吉街168巷7號","121.468171666667","24.9856783333333","6501300","土城區"
"236006","498-BY","2018/06/23 14:59:40","新北市樹林區環河路600-1號","121.404646666667","24.96696","6501300","土城區"
"236060","752-BX","2018/06/23 14:59:32","新北市土城區延和路88巷3弄2號","121.466651666667","24.9892316666667","6501300","土城區"
"236057","912-UM","2018/06/23 14:59:37","新北市土城區明德路一段385-1號","121.452821666667","24.9802066666667","6501300","土城區"
"236045","913-UM","2018/06/23 14:59:21","新北市土城區明德路一段365-1號","121.453656666667","24.9790766666667","6501300","土城區"
"236054","AAC-216","2018/06/23 14:59:31","新北市土城區學成路58號","121.452261666667","24.9877066666667","6501300","土城區"
"220027","145-BY","2018/06/23 14:59:32","新北市板橋區南雅西路二段145巷3號","121.451853333333","25.0116533333333","6500100","板橋區"
"220028","200-UY","2018/06/23 14:59:36","新北市板橋區大觀路二段179巷25號","121.445933333333","24.99969","6500100","板橋區"
"220030","610-BX","2018/06/23 14:59:20","新北市板橋區大觀路三段100號","121.43266","24.9945483333333","6500100","板橋區"
"220050","245-BX","2018/06/23 14:59:34","新北市板橋區莒光路211號","121.474216666667","25.023035","6500100","板橋區"
"220003","256-TC","2018/06/23 14:59:37","新北市板橋區仁愛路23號","121.458881666667","24.99945","6500100","板橋區"
"220001","257-TC","2018/06/23 14:59:26","新北市板橋區自由路43號","121.465553333333","25.0232783333333","6500100","板橋區"
"220025","282-UM","2018/06/23 14:59:28","新北市板橋區僑中一街124巷62-9號","121.44672","25.017205","6500100","板橋區"
"220019","283-VK","2018/06/23 14:59:40","新北市板橋區廣權路72號","121.464741666667","24.9925633333333","6500100","板橋區"
"220043","285-UM","2018/06/23 14:59:38","新北市板橋區陽明街239號","121.462918333333","25.0244666666667","6500100","板橋區"
"220001","285-VK","2018/06/23 14:59:35","新北市板橋區永豐街67號","121.473863333333","25.0185933333333","6500100","板橋區"
"220031","286-VK","2018/06/23 14:59:40","新北市板橋區僑中二街90巷3號","121.44612","25.009115","6500100","板橋區"
"220029","287-VK","2018/06/23 14:59:31","新北市板橋區僑中一街124巷20弄12號","121.446653333333","25.0139666666667","6500100","板橋區"
"220039","288-VK","2018/06/23 14:59:33","新北市板橋區幸福路32巷4弄9號","121.461156666667","25.0215916666667","6500100","板橋區"
"220009","293-UM","2018/06/23 14:59:27","新北市板橋區觀光街4巷2弄2-3號","121.472308333333","25.0158033333333","6500100","板橋區"
"220023","303-R5","2018/06/23 14:59:18","新北市板橋區金華街10巷105號","121.459248333333","25.020545","6500100","板橋區"
"220041","307-R5","2018/06/23 14:59:34","新北市板橋區裕民街131號","121.45916","25.0272416666667","6500100","板橋區"
"220047","317-R6","2018/06/23 14:59:39","新北市板橋區新海路72巷3號","121.462131666667","25.0221416666667","6500100","板橋區"
"220013","461-BY","2018/06/23 14:59:35","新北市板橋區民族路69巷8號","121.46565","25.00932","6500100","板橋區"
"220012","486-VK","2018/06/23 14:59:32","新北市板橋區漢生東路195-1號","121.470196666667","25.0110583333333","6500100","板橋區"
"220037","491-VK","2018/06/23 14:59:35","新北市板橋區懷德街127巷1號","121.478848333333","25.030825","6500100","板橋區"
"220104","560-BX","2018/06/23 14:59:20","新北市板橋區大觀路一段28巷108-5號","121.45067","25.0114066666667","6500100","板橋區"
"220011","609-BX","2018/06/23 14:59:32","新北市板橋區中山路二段422-6號","121.483436666667","25.02117","6500100","板橋區"
"220040","637-BX","2018/06/23 14:59:40","新北市板橋區民治街119巷5號","121.478511666667","25.0307016666667","6500100","板橋區"
"220042","689-BX","2018/06/23 14:59:34","新北市板橋區長江路三段130號","121.475541666667","25.0344666666667","6500100","板橋區"
"220051","KEA-2699","2018/06/23 14:59:38","新北市板橋區文聖街59號","121.47675","25.031215","6500100","板橋區"
"220014","830-TW","2018/06/23 14:59:24","新北市板橋區漢生東路193巷5號","121.470215","25.011715","6500100","板橋區"
"220045","831-TW","2018/06/23 14:59:28","新北市板橋區莒光路79巷12號","121.472151666667","25.0245233333333","6500100","板橋區"
"220038","833-TW","2018/06/23 14:59:31","新北市板橋區新海路385巷32號","121.457481666667","25.0254783333333","6500100","板橋區"
"220022","895-R6","2018/06/23 14:59:21","新北市板橋區府後街1巷2-2號","121.459146666667","25.010695","6500100","板橋區"
"220046","AAC-210","2018/06/23 14:59:39","新北市板橋區光正街24號","121.462333333333","25.0172666666667","6500100","板橋區"
"220018","AAC-253","2018/06/23 14:59:32","新北市板橋區德興街13號","121.453418333333","24.9944933333333","6500100","板橋區"
"235032","KEA-2873","2018/06/23 14:59:15","新北市中和區勝利路35巷1弄17號","121.499611666667","25.00769","6500300","中和區"
