"lineid","car","time","location","longitude","latitude","cityid","cityname"
"231020","108-UY","2018/06/23 15:59:39","新北市新店區北宜路一段187號","121.546926666667","24.9525933333333","6500600","新店區"
"231012","187-VK","2018/06/23 15:59:27","新北市新店區中正路373號","121.534913333333","24.97655","6500600","新店區"
"231046","188-VK","2018/06/23 15:59:35","新北市新店區華城路12號","121.529265","24.9577216666667","6500600","新店區"
"231026","256-BX","2018/06/23 15:59:38","新北市新店區中央路151號","121.529395","24.9723916666667","6500600","新店區"
"231003","268-BY","2018/06/23 15:59:41","新北市新店區寶興路56號","121.549716666667","24.97231","6500600","新店區"
"231018","278-BY","2018/06/23 15:59:31","新北市新店區復興路108號","121.532043333333","24.9897733333333","6500600","新店區"
"231017","AAD-862","2018/06/23 15:59:38","新北市新店區中正路282-9號","121.538163333333","24.9745483333333","6500600","新店區"
"231038","3712-VJ","2018/06/23 15:59:18","新北市新店區安豐路3號","121.501885","24.9573316666667","6500600","新店區"
"231037","4716-K9","2018/06/23 15:59:26","新北市新店區吉安街9號","121.516696666667","24.9656966666667","6500600","新店區"
"231013","513-UM","2018/06/23 15:59:26","新北市新店區安康路二段66號","121.514733333333","24.96361","6500600","新店區"
"231030","619-UM","2018/06/23 15:59:19","新北市新店區永平街80號","121.516415","24.9854766666667","6500600","新店區"
"231034","641-BX","2018/06/23 15:59:36","新北市新店區富貴街18巷16號","121.493351666667","24.94817","6500600","新店區"
"231035","719-UM","2018/06/23 15:59:38","新北市新店區安民街251巷10弄2號","121.516758333333","24.972675","6500600","新店區"
"241011","013-R5","2018/06/23 15:59:31","新北市三重區雙園街1巷8號","121.497148333333","25.0684233333333","6500200","三重區"
"241028","022-UY","2018/06/23 15:59:37","新北市三重區電信街27號","121.497276666667","25.05848","6500200","三重區"
"241008","059-VK","2018/06/23 15:59:37","新北市三重區成功路108巷6-1號","121.486978333333","25.0511166666667","6500200","三重區"
"241022","060-VK","2018/06/23 15:59:18","新北市三重區中正北路117號","121.483458333333","25.06686","6500200","三重區"
"241015","062-VK","2018/06/23 15:59:39","新北市三重區重新路四段121號","121.485143333333","25.0518116666667","6500200","三重區"
"241017","063-VK","2018/06/23 15:59:30","新北市三重區大仁街48巷4-1號","121.49136","25.06452","6500200","三重區"
"241024","065-VK","2018/06/23 15:59:21","新北市三重區力行路一段40號","121.486211666667","25.0680366666667","6500200","三重區"
"241026","066-VK","2018/06/23 15:59:39","新北市三重區大同南路58號","121.496076666667","25.0597383333333","6500200","三重區"
"241002","090-VK","2018/06/23 15:59:40","新北市三重區長元街105號","121.50471","25.0670233333333","6500200","三重區"
"241005","262-UM","2018/06/23 15:59:40","新北市三重區五華街184號","121.488761666667","25.0863983333333","6500200","三重區"
"241003","265-UM","2018/06/23 15:59:20","新北市三重區自強路五段114號","121.496818333333","25.0836816666667","6500200","三重區"
"241016","266-UM","2018/06/23 15:59:36","新北市三重區重新路四段121號","121.485088333333","25.0520266666667","6500200","三重區"
"241009","267-UM","2018/06/23 15:59:32","新北市三重區忠孝路三段2號","121.482135","25.06774","6500200","三重區"
"241018","268-UM","2018/06/23 15:59:34","新北市三重區大仁街20號","121.49154","25.0635666666667","6500200","三重區"
"241032","269-UM","2018/06/23 15:59:27","新北市三重區三陽路100巷3弄13號","121.483036666667","25.058115","6500200","三重區"
"241013","270-UM","2018/06/23 15:59:21","新北市三重區三和路三段8號","121.497021666667","25.07028","6500200","三重區"
"241025","271-UM","2018/06/23 15:59:32","新北市三重區三民街188號","121.48191","25.0658166666667","6500200","三重區"
"241007","398-BY","2018/06/23 15:59:23","新北市三重區三和路四段322號","121.483865","25.0779083333333","6500200","三重區"
"241004","475-VK","2018/06/23 15:59:30","新北市三重區成功路40-1號","121.489191666667","25.0506233333333","6500200","三重區"
"241020","478-VK","2018/06/23 15:59:37","新北市三重區忠孝路二段68號","121.484703333333","25.0701833333333","6500200","三重區"
"241030","480-VK","2018/06/23 15:59:30","新北市三重區重新路四段121號","121.48465","25.052175","6500200","三重區"
"241014","543-UM","2018/06/23 15:59:19","新北市三重區重新路四段121號","121.48496","25.051655","6500200","三重區"
"241001","547-UM","2018/06/23 15:59:27","新北市三重區名源街29巷2號","121.480156666667","25.0605283333333","6500200","三重區"
"241019","KEA-2593","2018/06/23 15:59:32","新北市三重區重陽路二段32號","121.486981666667","25.0628133333333","6500200","三重區"
"241006","AAD-863","2018/06/23 15:59:32","新北市三重區重新路四段121號","121.484821666667","25.0520466666667","6500200","三重區"
"241023","887-TS","2018/06/23 15:59:24","新北市三重區中正北路174號","121.483868333333","25.0666066666667","6500200","三重區"
"241012","941-UM","2018/06/23 15:59:38","新北市三重區文化北路118巷51號","121.497498333333","25.0662133333333","6500200","三重區"
"241029","942-UM","2018/06/23 15:59:25","新北市三重區大同南路212巷24號","121.497505","25.0566816666667","6500200","三重區"
"241033","AAC-255","2018/06/23 15:59:26","新北市三重區重新路五段447號","121.474463333333","25.04747","6500200","三重區"
"235033","4980-A6","2018/06/23 15:59:28","新北市中和區中正路637巷44弄8號","121.484956666667","24.9944216666667","6500300","中和區"
"224007","275-VK","2018/06/23 15:59:24","新北市瑞芳區粗坑口路5號","121.761563333333","25.0983616666667","6501200","瑞芳區"
"227002","642-TC","2018/06/23 15:59:36","新北市雙溪區平林里外平林71號","121.842028333333","25.0348316666667","6502500","雙溪區"
"227010","400-TW","2018/06/23 15:59:31","新北市雙溪區三港里雙澳路26號","121.869531666667","25.0482666666667","6502500","雙溪區"
"236006","498-BY","2018/06/23 15:59:20","新北市土城區永平街51號","121.427528333333","24.95914","6501300","土城區"
"236057","912-UM","2018/06/23 15:59:37","新北市土城區中央路三段62號","121.436738333333","24.9673716666667","6501300","土城區"
"220001","257-TC","2018/06/23 15:59:26","新北市樹林區八德街236號","121.41248","24.970485","6500100","板橋區"
"220022","895-R6","2018/06/23 15:59:34","新北市板橋區華東街1-9號","121.44823","24.994895","6500100","板橋區"
