"lineid","car","time","location","longitude","latitude","cityid","cityname"
"231046","188-VK","2018/06/23 16:29:35","新北市新店區灣潭路3-3號","121.538225","24.9507533333333","6500600","新店區"
"241011","013-R5","2018/06/23 16:29:31","新北市三重區龍濱路285號","121.501108333333","25.0733383333333","6500200","三重區"
"241028","022-UY","2018/06/23 16:29:37","新北市三重區同安街114巷25號","121.494066666667","25.055545","6500200","三重區"
"241008","059-VK","2018/06/23 16:29:37","新北市三重區力行路二段136巷45弄10號","121.479185","25.0752616666667","6500200","三重區"
"241022","060-VK","2018/06/23 16:29:38","新北市三重區三民街55號","121.486","25.06226","6500200","三重區"
"241031","061-VK","2018/06/23 16:29:25","新北市三重區重陽路一段59號","121.486681666667","25.0584933333333","6500200","三重區"
"241015","062-VK","2018/06/23 16:29:39","新北市三重區福德北路40號","121.501845","25.0653266666667","6500200","三重區"
"241017","063-VK","2018/06/23 16:29:30","新北市三重區重新路二段99號","121.495496666667","25.062035","6500200","三重區"
"241024","065-VK","2018/06/23 16:29:21","新北市三重區中正北路283號","121.474951666667","25.071335","6500200","三重區"
"241026","066-VK","2018/06/23 16:29:39","新北市三重區文化南路42號","121.500363333333","25.0603416666667","6500200","三重區"
"241002","090-VK","2018/06/23 16:29:40","新北市三重區五華街12號","121.494981666667","25.08016","6500200","三重區"
"241005","262-UM","2018/06/23 16:29:40","新北市三重區溪尾街300-2號","121.487313333333","25.0836466666667","6500200","三重區"
"241003","265-UM","2018/06/23 16:29:40","新北市三重區五華街71巷118號","121.49503","25.0844033333333","6500200","三重區"
"241016","266-UM","2018/06/23 16:29:36","新北市三重區自強路一段160巷2弄13號","121.495123333333","25.0659083333333","6500200","三重區"
"241009","267-UM","2018/06/23 16:29:27","新北市三重區三和路四段191巷78號","121.48451","25.0798466666667","6500200","三重區"
"241018","268-UM","2018/06/23 16:29:34","新北市三重區重陽路四段38號","121.491391666667","25.0696316666667","6500200","三重區"
"241032","269-UM","2018/06/23 16:29:27","新北市三重區三陽路100巷3弄13號","121.483008333333","25.0581383333333","6500200","三重區"
"241013","270-UM","2018/06/23 16:29:41","新北市三重區仁愛街52號","121.495975","25.072785","6500200","三重區"
"241025","271-UM","2018/06/23 16:29:32","新北市三重區中正北路560巷100弄8號","121.472613333333","25.0685083333333","6500200","三重區"
"241007","398-BY","2018/06/23 16:29:43","新北市三重區三和路四段167巷157號","121.488246666667","25.0803933333333","6500200","三重區"
"241004","475-VK","2018/06/23 16:29:30","新北市三重區仁愛街379號","121.491498333333","25.0804066666667","6500200","三重區"
"241020","478-VK","2018/06/23 16:29:37","新北市三重區後竹圍街205巷3號","121.484975","25.071745","6500200","三重區"
"241030","480-VK","2018/06/23 16:29:30","新北市三重區成功路72號","121.488355","25.0509983333333","6500200","三重區"
"241014","543-UM","2018/06/23 16:29:39","新北市三重區河邊北街70-2號","121.50433","25.06834","6500200","三重區"
"241001","547-UM","2018/06/23 16:29:27","新北市三重區福隆路56號","121.49274","25.0786666666667","6500200","三重區"
"241019","KEA-2593","2018/06/23 16:29:32","新北市三重區重陽路三段97號","121.490321666667","25.06808","6500200","三重區"
"241006","AAD-863","2018/06/23 16:29:32","新北市三重區力行路二段123號","121.483196666667","25.076765","6500200","三重區"
"241023","887-TS","2018/06/23 16:29:24","新北市三重區忠孝路三段50巷82號","121.48302","25.064535","6500200","三重區"
"241012","941-UM","2018/06/23 16:29:38","新北市三重區河邊北街254號","121.501843333333","25.07614","6500200","三重區"
"241029","942-UM","2018/06/23 16:29:25","新北市三重區集美街126巷2號","121.489061666667","25.0536116666667","6500200","三重區"
"241033","AAC-255","2018/06/23 16:29:26","新北市三重區重新路五段317巷3弄7號","121.477518333333","25.0497616666667","6500200","三重區"
"235028","005-UY","2018/06/23 16:29:30","新北市中和區員山路36巷16-3號","121.484886666667","24.99178","6500300","中和區"
"235046","733-UM","2018/06/23 16:29:35","新北市中和區員山路36巷13號","121.484138333333","24.9908316666667","6500300","中和區"
"224007","275-VK","2018/06/23 16:29:27","新北市瑞芳區瑞竹路83號","121.76398","25.103205","6501200","瑞芳區"
"224005","271-BY","2018/06/23 16:29:37","新北市瑞芳區阿美家園34號","121.821458333333","25.1168133333333","6501200","瑞芳區"
"227002","642-TC","2018/06/23 16:29:36","新北市雙溪區上林里內平林120-2號","121.824585","25.0262816666667","6502500","雙溪區"
"227010","400-TW","2018/06/23 16:29:31","新北市雙溪區三港里雙澳路35-1號","121.868283333333","25.05057","6502500","雙溪區"
"251013","KEA-2871","2018/06/23 16:29:26","新北市淡水區北新路三段162號","121.492363333333","25.1915216666667","6501000","淡水區"
"251016","179-VK","2018/06/23 16:29:27","新北市淡水區沙崙路27號","121.42165","25.1816316666667","6501000","淡水區"
"251014","180-VK","2018/06/23 16:29:34","新北市淡水區中正路二段31號","121.419621666667","25.1822116666667","6501000","淡水區"
"251008","181-VK","2018/06/23 16:29:24","新北市淡水區民權路97-2號","121.459788333333","25.1380716666667","6501000","淡水區"
"252002","178-VK","2018/06/23 16:29:38","新北市三芝區埔坪里埔頭坑84號","121.508073333333","25.2542666666667","6502100","三芝區"
"236006","498-BY","2018/06/23 16:29:40","新北市土城區永平街51號","121.427523333333","24.9591383333333","6501300","土城區"
"220001","257-TC","2018/06/23 16:29:26","新北市板橋區大觀路二段7巷109-3號","121.45237","25.0027066666667","6500100","板橋區"
