"lineid","car","time","location","longitude","latitude","cityid","cityname"
"234026","9371-KE","2018/06/23 17:39:41","新北市永和區中正路734號","121.51543","25.0101416666667","6500400","永和區"
"249005","172-UM","2018/06/23 17:39:17","新北市八里區華富山15號","121.421263333333","25.1367716666667","6502300","八里區"
"249001","173-UM","2018/06/23 17:39:25","新北市八里區龍米路二段157-1號","121.439926666667","25.15364","6502300","八里區"
"249004","303-UY","2018/06/23 17:39:32","新北市八里區大崁一街11號","121.4201","25.1584233333333","6502300","八里區"
"249002","305-UY","2018/06/23 17:39:21","新北市八里區石壁腳19號","121.441688333333","25.1353283333333","6502300","八里區"
"249003","593-UM","2018/06/23 17:39:35","新北市八里區中山路二段233號","121.403293333333","25.1491916666667","6502300","八里區"
"232011","375-UM","2018/06/23 17:39:36","新北市坪林區北宜路八段101號","121.706061666667","24.93487","6502000","坪林區"
"244007","080-UY","2018/06/23 17:39:24","新北市林口區林口路272巷19號","121.386786666667","25.0846416666667","6501700","林口區"
"244019","403-UM","2018/06/23 17:39:34","新北市林口區文化一路一段89-5號","121.371781666667","25.0704283333333","6501700","林口區"
"244009","410-SL","2018/06/23 17:39:33","新北市林口區中山路270號","121.383125","25.081085","6501700","林口區"
"244023","483-VK","2018/06/23 17:39:36","新北市林口區興林路152巷17號","121.38741","25.071625","6501700","林口區"
"244017","485-VK","2018/06/23 17:39:35","新北市林口區忠孝路482號","121.370381666667","25.0705933333333","6501700","林口區"
"244011","657-BX","2018/06/23 17:39:36","新北市林口區佳林路211號","121.38423","25.0771016666667","6501700","林口區"
"244025","837-TS","2018/06/23 17:39:25","新北市林口區南勢街23號","121.364843333333","25.0736983333333","6501700","林口區"
"244021","838-TS","2018/06/23 17:39:23","新北市林口區仁愛路一段12號","121.397746666667","25.0751216666667","6501700","林口區"
"222002","659-BX","2018/06/23 17:39:27","新北市深坑區深南路1號","121.622005","25.0049866666667","6501800","深坑區"
"231046","188-VK","2018/06/23 17:39:35","新北市新店區直潭路92-1號","121.530828333333","24.93714","6500600","新店區"
"241017","063-VK","2018/06/23 17:39:29","新北市三重區重新路二段99號","121.49556","25.0619133333333","6500200","三重區"
"241024","065-VK","2018/06/23 17:39:41","新北市三重區車路頭街36號","121.483861666667","25.0716716666667","6500200","三重區"
"241005","262-UM","2018/06/23 17:39:40","新北市三重區溪尾街279號","121.48744","25.0823783333333","6500200","三重區"
"241003","265-UM","2018/06/23 17:39:40","新北市三重區五華街141巷60號","121.49345","25.0866633333333","6500200","三重區"
"241016","266-UM","2018/06/23 17:39:42","新北市三重區正義北路7號","121.497866666667","25.0627616666667","6500200","三重區"
"241018","268-UM","2018/06/23 17:39:34","新北市三重區重化街3號","121.468115","25.06438","6500200","三重區"
"241007","398-BY","2018/06/23 17:39:42","新北市三重區慈愛街39號","121.485453333333","25.0788216666667","6500200","三重區"
"241020","478-VK","2018/06/23 17:39:37","新北市三重區忠孝路三段84巷18號","121.480843333333","25.06464","6500200","三重區"
"241014","543-UM","2018/06/23 17:39:39","新北市三重區龍濱路42號","121.502761666667","25.06846","6500200","三重區"
"241023","887-TS","2018/06/23 17:39:44","新北市三重區中華路105號","121.48359","25.0633483333333","6500200","三重區"
"241012","941-UM","2018/06/23 17:39:38","新北市三重區仁興街39巷18號","121.500193333333","25.0762166666667","6500200","三重區"
"241033","AAC-255","2018/06/23 17:39:26","新北市三重區光復路一段60號","121.471983333333","25.04881","6500200","三重區"
"235065","098-UM","2018/06/23 17:39:22","新北市中和區員山路36巷16-3號","121.485103333333","24.991135","6500300","中和區"
"247024","893-R6","2018/06/23 17:39:24","新北市蘆洲區長樂路159號","121.462083333333","25.0881283333333","6501400","蘆洲區"
"247014","546-UM","2018/06/23 17:39:32","新北市蘆洲區中正路26號","121.47133","25.0821966666667","6501400","蘆洲區"
"247022","500-BY","2018/06/23 17:39:35","新北市蘆洲區三民路285號","121.467083333333","25.0898783333333","6501400","蘆洲區"
"247010","341-TH","2018/06/23 17:39:26","新北市蘆洲區中山一路74巷49號","121.479663333333","25.0814633333333","6501400","蘆洲區"
"247012","339-TH","2018/06/23 17:39:31","新北市蘆洲區民權路3巷8號","121.476141666667","25.0854666666667","6501400","蘆洲區"
"247006","336-TH","2018/06/23 17:39:30","新北市蘆洲區長安街46巷7弄12號","121.463485","25.080675","6501400","蘆洲區"
"247018","057-VK","2018/06/23 17:39:26","新北市蘆洲區水湳街16號","121.472633333333","25.08856","6501400","蘆洲區"
"247008","056-VK","2018/06/23 17:39:29","新北市蘆洲區民生街125號","121.47278","25.0789616666667","6501400","蘆洲區"
"247004","053-VK","2018/06/23 17:39:40","新北市蘆洲區長安街247號","121.459016666667","25.0832333333333","6501400","蘆洲區"
"247016","007-UY","2018/06/23 17:39:36","新北市蘆洲區光華路57號","121.468483333333","25.0829","6501400","蘆洲區"
"247002","002-UY","2018/06/23 17:39:26","新北市蘆洲區永平街63號","121.457396666667","25.0914866666667","6501400","蘆洲區"
"247020","001-UY","2018/06/23 17:39:25","新北市蘆洲區民族路361號","121.471811666667","25.0916533333333","6501400","蘆洲區"
"228003","097-TW","2018/06/23 17:39:28","新北市貢寮區仁理村仁和路33號","121.923901666667","25.0537866666667","6502600","貢寮區"
"228002","663-BX","2018/06/23 17:39:40","新北市貢寮區福隆里外隆林街14-1號","121.959133333333","25.0036366666667","6502600","貢寮區"
"224006","676-BX","2018/06/23 17:39:33","新北市瑞芳區傑魚坑路45號","121.793576666667","25.1105216666667","6501200","瑞芳區"
"224008","285-BY","2018/06/23 17:39:35","新北市瑞芳區九芎橋路81號","121.833976666667","25.0970583333333","6501200","瑞芳區"
"224009","273-VK","2018/06/23 17:39:40","新北市瑞芳區金光路372號","121.849791666667","25.1104683333333","6501200","瑞芳區"
"224005","271-BY","2018/06/23 17:39:43","新北市瑞芳區海濱路8-6號","121.831603333333","25.12609","6501200","瑞芳區"
"227002","642-TC","2018/06/23 17:39:36","新北市雙溪區共和里東榮街42號","121.866268333333","25.03374","6502500","雙溪區"
"208001","761-BX","2018/06/23 17:39:37","新北市金山區磺清路135號","121.63927","25.2277883333333","6502700","金山區"
"251004","009-UM","2018/06/23 17:39:40","新北市淡水區中正東路二段88巷37-21號","121.459316666667","25.1444983333333","6501000","淡水區"
"251002","012-UM","2018/06/23 17:39:44","新北市淡水區中山路123號","121.441711666667","25.17095","6501000","淡水區"
"251013","KEA-2871","2018/06/23 17:39:26","新北市淡水區演戲埔腳12號","121.470141666667","25.1943016666667","6501000","淡水區"
"251016","179-VK","2018/06/23 17:39:27","新北市淡水區埤島75-1號","121.453538333333","25.1947016666667","6501000","淡水區"
"251014","180-VK","2018/06/23 17:39:34","新北市淡水區公埔子15-1號","121.479571666667","25.2257366666667","6501000","淡水區"
"251008","181-VK","2018/06/23 17:39:24","新北市淡水區八勢路一段123巷10號","121.466553333333","25.1570783333333","6501000","淡水區"
"251015","182-VK","2018/06/23 17:39:30","新北市淡水區興福寮1-6號","121.4882","25.16463","6501000","淡水區"
"251010","413-VK","2018/06/23 17:39:42","新北市淡水區淡海路292號","121.419098333333","25.1889333333333","6501000","淡水區"
"251012","441-VK","2018/06/23 17:39:40","新北市淡水區北新路200巷8號","121.45181","25.1797183333333","6501000","淡水區"
"251007","442-VK","2018/06/23 17:39:37","新北市淡水區民生路124巷2號","121.463895","25.138105","6501000","淡水區"
"251005","443-VK","2018/06/23 17:39:35","新北市淡水區鄧公路35巷4號","121.45163","25.1713","6501000","淡水區"
"251001","559-UM","2018/06/23 17:39:29","新北市淡水區民權路92巷35-1號","121.462218333333","25.126705","6501000","淡水區"
"251006","561-UM","2018/06/23 17:39:41","新北市淡水區大信街17號","121.441845","25.1768166666667","6501000","淡水區"
"251009","575-R6","2018/06/23 17:39:39","新北市淡水區中正路30號","121.444158333333","25.1691516666667","6501000","淡水區"
"251011","650-BX","2018/06/23 17:39:24","新北市淡水區小坪頂12-2號","121.486973333333","25.1558416666667","6501000","淡水區"
"251003","673-BX","2018/06/23 17:39:35","新北市淡水區中山北路一段71號","121.441938333333","25.175965","6501000","淡水區"
"207003","550-UM","2018/06/23 17:39:37","新北市萬里區野柳里東澳路66號","121.692746666667","25.2009183333333","6502800","萬里區"
"207004","225-TW","2018/06/23 17:39:28","新北市萬里區中幅里中福路6-7號","121.685973333333","25.1645766666667","6502800","萬里區"
"252002","178-VK","2018/06/23 17:39:38","新北市三芝區智成街83號","121.505071666667","25.2557","6502100","三芝區"
"252001","292-VK","2018/06/23 17:39:43","新北市三芝區淡金路一段83號","121.50208","25.2589233333333","6502100","三芝區"
"237004","KEA-2597","2018/06/23 17:39:26","新北市三峽區中山路459巷163-3號","121.3491","24.9332666666667","6500900","三峽區"
"237014","433-BY","2018/06/23 17:39:32","新北市三峽區中山路459巷163-3號","121.348685","24.9330433333333","6500900","三峽區"
"237006","5529-G3","2018/06/23 17:39:39","新北市三峽區介壽路一段552巷3號","121.38756","24.932965","6500900","三峽區"
"237011","KEA-2596","2018/06/23 17:39:30","新北市三峽區中山路459巷104號","121.353193333333","24.93554","6500900","三峽區"
"237016","649-BX","2018/06/23 17:39:37","新北市三峽區白雞33-20號","121.370903333333","24.912095","6500900","三峽區"
"237010","706-TV","2018/06/23 17:39:24","新北市三峽區中山路121號","121.365433333333","24.9359","6500900","三峽區"
"236070","105-UM","2018/06/23 17:39:38","新北市土城區中華路二段2號","121.439438333333","24.979565","6501300","土城區"
"236079","166-UM","2018/06/23 17:39:37","新北市土城區城林路6巷80號","121.438458333333","24.97964","6501300","土城區"
"236026","269-VK","2018/06/23 17:39:22","新北市土城區城林路6巷80號","121.438495","24.9795883333333","6501300","土城區"
"236014","270-VK","2018/06/23 17:39:38","新北市土城區城林路6巷80號","121.438455","24.9795633333333","6501300","土城區"
"236006","498-BY","2018/06/23 17:39:40","新北市土城區永平街51號","121.427585","24.9590816666667","6501300","土城區"
"236063","752-BX","2018/06/23 17:39:30","新北市土城區城林路6巷80號","121.438468333333","24.979785","6501300","土城區"
"242034","AAC-296","2018/06/23 17:39:39","新北市新莊區新莊路597號","121.446011666667","25.0331416666667","6500500","新莊區"
"242058","986-R7","2018/06/23 17:39:33","新北市新莊區中正路729號","121.422805","25.0290466666667","6500500","新莊區"
"242053","751-BX","2018/06/23 17:39:38","新北市新莊區新樹路416號","121.431933333333","25.00227","6500500","新莊區"
"242023","705-TV","2018/06/23 17:39:23","新北市新莊區公園路222巷1號","121.456348333333","25.0405466666667","6500500","新莊區"
"242027","615-BX","2018/06/23 17:39:20","新北市新莊區福壽街110號","121.458035","25.05057","6500500","新莊區"
"242025","613-BX","2018/06/23 17:39:40","新北市新莊區思源路102號","121.460128333333","25.0461733333333","6500500","新莊區"
"242029","612-BX","2018/06/23 17:39:29","新北市新莊區復興路一段187號","121.451656666667","25.0433533333333","6500500","新莊區"
"242042","566-BX","2018/06/23 17:39:25","新北市新莊區中正路514巷17號","121.433018333333","25.0329916666667","6500500","新莊區"
"242046","497-BY","2018/06/23 17:39:41","新北市新莊區福營路103號","121.433915","25.0322583333333","6500500","新莊區"
"242051","441-UM","2018/06/23 17:39:35","新北市新莊區西盛街187-16號","121.429033333333","25.0171816666667","6500500","新莊區"
"242036","415-TV","2018/06/23 17:39:38","新北市新莊區建福路59巷28號","121.428013333333","25.02761","6500500","新莊區"
"242007","413-TV","2018/06/23 17:39:22","新北市新莊區福樂街118巷2號","121.4573","25.0480333333333","6500500","新莊區"
"242044","400-BY","2018/06/23 17:39:35","新北市新莊區中正路871巷9弄42號","121.419781666667","25.0267366666667","6500500","新莊區"
"242061","353-BY","2018/06/23 17:39:28","新北市新莊區瓊林南路171-5號","121.433861666667","25.0109483333333","6500500","新莊區"
"242009","132-UY","2018/06/23 17:39:36","新北市新莊區昌明街14巷16號","121.457483333333","25.0534133333333","6500500","新莊區"
"242039","133-UY","2018/06/23 17:39:30","新北市新莊區民全街8號","121.429088333333","25.0215483333333","6500500","新莊區"
"242048","172-VK","2018/06/23 17:39:40","新北市新莊區萬安街132號","121.420236666667","25.0215633333333","6500500","新莊區"
"242056","173-VK","2018/06/23 17:39:43","新北市新莊區泰豐街26號","121.448493333333","25.0317216666667","6500500","新莊區"
"242017","175-VK","2018/06/23 17:39:40","新北市新莊區復興路一段149巷21弄17號","121.449298333333","25.0439366666667","6500500","新莊區"
"242004","176-VK","2018/06/23 17:39:37","新北市新莊區自立街180號","121.456051666667","25.0454683333333","6500500","新莊區"
"242015","346-TH","2018/06/23 17:38:56","新北市新莊區新泰路323號","121.444993333333","25.0414866666667","6500500","新莊區"
"242011","347-TH","2018/06/23 17:39:43","新北市新莊區中港路556-1號","121.451546666667","25.0530433333333","6500500","新莊區"
"242021","348-TH","2018/06/23 17:39:31","新北市新莊區中華路一段128號","121.452646666667","25.040905","6500500","新莊區"
"242002","349-TH","2018/06/23 17:39:38","新北市新莊區新莊路397號","121.451126666667","25.0336416666667","6500500","新莊區"
"242019","350-TH","2018/06/23 17:39:27","新北市新莊區中港路166號","121.455018333333","25.0415533333333","6500500","新莊區"
"242013","351-TH","2018/06/23 17:39:36","新北市新莊區中誠街97號","121.449996666667","25.0476766666667","6500500","新莊區"
"238015","755-BX","2018/06/23 17:39:32","新北市樹林區啟智街44巷1號","121.420421666667","24.9928083333333","6500700","樹林區"
"238023","601-UM","2018/06/23 17:39:38","新北市樹林區三福街60號","121.405291666667","25.0162333333333","6500700","樹林區"
"238019","599-UM","2018/06/23 17:39:38","新北市樹林區太順街5巷1號","121.420211666667","24.980075","6500700","樹林區"
"238018","571-TV","2018/06/23 17:39:28","新北市樹林區博愛街38號","121.427333333333","24.99256","6500700","樹林區"
"238024","5061-A6","2018/06/23 17:39:29","新北市樹林區八德街367-1號","121.416873333333","24.9718516666667","6500700","樹林區"
"238022","KEA-2213","2018/06/23 17:39:13","新北市樹林區中華路185-1號","121.420428333333","24.9816483333333","6500700","樹林區"
"238021","KEA-2539","2018/06/23 17:39:39","新北市樹林區柑園街一段190號","121.395385","24.9564816666667","6500700","樹林區"
"238025","303-VK","2018/06/23 17:39:24","新北市樹林區保安街二段155號","121.415111666667","25.0020816666667","6500700","樹林區"
"238017","283-BY","2018/06/23 17:39:30","新北市樹林區中正路462號","121.412823333333","25.01245","6500700","樹林區"
"238014","282-BY","2018/06/23 17:39:31","新北市樹林區保安街一段313巷27號","121.417003333333","24.9973416666667","6500700","樹林區"
"238020","268-VK","2018/06/23 17:39:37","新北市樹林區三俊街265號","121.422663333333","25.0142766666667","6500700","樹林區"
"238026","172-UY","2018/06/23 17:39:25","新北市樹林區新興街19巷34弄2號","121.402033333333","24.9734666666667","6500700","樹林區"
"238016","169-UY","2018/06/23 17:39:37","新北市樹林區育英街160號","121.41868","24.989515","6500700","樹林區"
"239007","AAC-297","2018/06/23 17:39:34","新北市鶯歌區永安街48號","121.337765","24.956655","6500800","鶯歌區"
"239006","891-R6","2018/06/23 17:39:26","新北市鶯歌區永和街34巷25號","121.333776666667","24.9671216666667","6500800","鶯歌區"
"239008","527-UM","2018/06/23 17:39:36","新北市鶯歌區大湖路732巷33號","121.33329","24.97808","6500800","鶯歌區"
"239005","526-UM","2018/06/23 17:39:33","新北市鶯歌區鳳吉四街4號","121.326265","24.9724433333333","6500800","鶯歌區"
"239001","417-VK","2018/06/23 17:39:28","新北市鶯歌區高職西街101號","121.335981666667","24.9406683333333","6500800","鶯歌區"
"239003","360-BY","2018/06/23 17:39:22","新北市鶯歌區鶯桃路206巷26號","121.337725","24.9596833333333","6500800","鶯歌區"
"239002","359-BY","2018/06/23 17:39:32","新北市鶯歌區育英街43號","121.346938333333","24.953925","6500800","鶯歌區"
"239004","193-VK","2018/06/23 17:39:28","新北市鶯歌區三鶯路87號","121.358631666667","24.9435166666667","6500800","鶯歌區"
"221008","489-VK","2018/06/23 17:39:30","新北市汐止區康寧街901號","121.651378333333","25.0750083333333","6501100","汐止區"
"221015","131-UY","2018/06/23 17:39:39","新北市汐止區汐萬路一段312號","121.650623333333","25.0754066666667","6501100","汐止區"
"221010","269-BY","2018/06/23 17:39:40","新北市汐止區汐萬路一段418巷32號","121.6501","25.0788166666667","6501100","汐止區"
"221032","280-BY","2018/06/23 17:39:40","新北市汐止區康寧街901號","121.65129","25.075095","6501100","汐止區"
"221021","299-VK","2018/06/23 17:39:35","新北市汐止區汐萬路一段256巷3號","121.652083333333","25.07488","6501100","汐止區"
"221033","647-BX","2018/06/23 17:39:26","新北市汐止區林森街131巷38號","121.626095","25.04386","6501100","汐止區"
"242031","280-VK","2018/06/23 17:39:29","新北市新莊區新泰路374號","121.444208333333","25.0431333333333","6500500","新莊區"
"235061","KEA-2875","2018/06/23 17:28:50","新北市中和區員山路36巷16-2號","121.485341666667","24.9918016666667","6500300","中和區"
