"lineid","car","time","location","longitude","latitude","cityid","cityname"
"234046","148-BY","2018/06/23 19:59:28","新北市永和區成功路一段103號","121.526878333333","25.0025316666667","6500400","永和區"
"234007","207-UY","2018/06/23 19:59:41","新北市永和區保生路40巷16號","121.506793333333","25.008245","6500400","永和區"
"234081","298-R6","2018/06/23 19:59:39","新北市永和區永利路81巷1號","121.521423333333","25.0038483333333","6500400","永和區"
"234036","336-UY","2018/06/23 19:59:40","新北市永和區成功路二段152-2號","121.526525","24.9965733333333","6500400","永和區"
"234064","337-UY","2018/06/23 19:59:42","新北市永和區中正路412巷20弄10號","121.518725","25.0015983333333","6500400","永和區"
"234086","338-UY","2018/06/23 19:59:43","新北市永和區福和路92號","121.522485","25.008025","6500400","永和區"
"234070","552-UM","2018/06/23 19:59:32","新北市永和區福和路234號","121.519026666667","25.0078083333333","6500400","永和區"
"234017","745-BX","2018/06/23 19:59:33","新北市永和區文化路53號","121.514245","25.0150666666667","6500400","永和區"
"234030","746-BX","2018/06/23 19:59:27","新北市永和區民生路63號","121.522671666667","24.9973233333333","6500400","永和區"
"234054","KEA-2590","2018/06/23 19:59:43","新北市永和區環河東路一段122號","121.520648333333","25.0157016666667","6500400","永和區"
"234012","KEA-2591","2018/06/23 19:59:37","新北市永和區保生路55號","121.504718333333","25.0106233333333","6500400","永和區"
"234061","AAD-866","2018/06/23 19:59:28","新北市永和區得和路76號","121.5164","25.0000716666667","6500400","永和區"
"234042","862-TW","2018/06/23 19:59:32","新北市永和區中和路337號","121.507555","24.9998866666667","6500400","永和區"
"234050","863-TW","2018/06/23 19:59:27","新北市永和區永平路247號","121.50659","25.0127733333333","6500400","永和區"
"234026","9371-KE","2018/06/23 19:59:41","新北市永和區水源街27巷5號","121.51123","25.0041183333333","6500400","永和區"
"234011","9373-KE","2018/06/23 19:59:31","新北市永和區仁愛路352巷112弄13號","121.501023333333","25.0085583333333","6500400","永和區"
"249005","172-UM","2018/06/23 19:59:37","新北市八里區楓林路3-4號","121.38156","25.1295616666667","6502300","八里區"
"249001","173-UM","2018/06/23 19:59:32","新北市八里區中華路二段312號","121.403805","25.1483466666667","6502300","八里區"
"249004","303-UY","2018/06/23 19:59:36","新北市八里區中華路一段333-1號","121.413391666667","25.1537533333333","6502300","八里區"
"249002","305-UY","2018/06/23 19:59:32","新北市八里區頂寮一街8-1號","121.452238333333","25.124285","6502300","八里區"
"249003","593-UM","2018/06/23 19:59:11","新北市八里區中華路二段558號","121.398683333333","25.1452283333333","6502300","八里區"
"248014","025-BX","2018/06/23 19:59:38","新北市五股區五福路14巷29號","121.435433333333","25.0889333333333","6501500","五股區"
"248016","026-BX","2018/06/23 19:59:35","新北市五股區成泰路三段577巷80弄48號","121.449836666667","25.1050833333333","6501500","五股區"
"248008","095-VK","2018/06/23 19:59:29","新北市五股區四維路30巷17號","121.46798","25.0715","6501500","五股區"
"248017","225-UY","2018/06/23 19:59:30","新北市五股區凌雲路三段32-1號","121.431408333333","25.1077416666667","6501500","五股區"
"248012","247-BX","2018/06/23 19:59:33","新北市五股區民義路一段59號","121.435936666667","25.08489","6501500","五股區"
"248010","272-BY","2018/06/23 19:59:44","新北市五股區登林路76-5號","121.430575","25.0693583333333","6501500","五股區"
"248004","655-BX","2018/06/23 19:59:45","新北市五股區成泰路一段142號","121.435043333333","25.07578","6501500","五股區"
"248002","678-BX","2018/06/23 19:59:41","新北市五股區成泰路三段487號","121.450761666667","25.09932","6501500","五股區"
"234023","9380-KE","2018/06/23 19:59:36","新北市永和區警光街40號","121.518218333333","25.0095133333333","6500400","永和區"
"234077","969-R7","2018/06/23 19:59:31","新北市永和區智光街101號","121.516198333333","24.9968616666667","6500400","永和區"
"234074","AAC-211","2018/06/23 19:59:36","新北市永和區豫溪街215巷21號","121.523663333333","25.0101883333333","6500400","永和區"
"234067","AAC-212","2018/06/23 19:59:33","新北市永和區保平路236巷46號","121.507531666667","25.0067216666667","6500400","永和區"
"234003","AAC-295","2018/06/23 19:59:46","新北市永和區中正路748號","121.514995","25.01029","6500400","永和區"
"243013","AAD-798","2018/06/23 19:43:54","新北市泰山區明志路三段6巷16號","121.423945","25.0436216666667","6501600","泰山區"
"243009","297-R6","2018/06/23 19:59:37","新北市泰山區楓江路16巷25號","121.434045","25.061435","6501600","泰山區"
"243016","380-SR","2018/06/23 19:59:38","新北市泰山區明志路三段480號","121.421063333333","25.0315066666667","6501600","泰山區"
"243015","421-VK","2018/06/23 19:59:29","新北市泰山區文程路1號","121.42762","25.049685","6501600","泰山區"
"243011","KEA-2215","2018/06/23 19:59:28","新北市泰山區明志路三段196巷21弄20號","121.422836666667","25.0385983333333","6501600","泰山區"
"243010","KEA-2216","2018/06/23 19:59:40","新北市泰山區中華街14巷1號","121.427688333333","25.05243","6501600","泰山區"
"243012","646-TV","2018/06/23 19:59:41","新北市泰山區明志路一段293號","121.43187","25.0595933333333","6501600","泰山區"
"243014","680-BX","2018/06/23 19:59:34","新北市泰山區明志路一段198號","121.432835","25.0620516666667","6501600","泰山區"
"222003","436-BY","2018/06/23 19:59:37","新北市深坑區埔新街14號","121.62074","25.00395","6501800","深坑區"
"222002","659-BX","2018/06/23 19:59:27","新北市深坑區北深路二段81巷8弄2號","121.618295","25.00312","6501800","深坑區"
"231041","002-UM","2018/06/23 19:59:32","新北市新店區自由街2-1號","121.535725","24.9755816666667","6500600","新店區"
"231059","046-UY","2018/06/23 19:59:39","新北市新店區吉安街2號","121.517351666667","24.9656283333333","6500600","新店區"
"231040","047-UY","2018/06/23 19:59:33","新北市新店區中正路58號","121.54437","24.97005","6500600","新店區"
"231044","106-UY","2018/06/23 19:59:35","新北市新店區復興路27號","121.539018333333","24.9866483333333","6500600","新店區"
"231052","108-UY","2018/06/23 19:59:30","新北市新店區新烏路三段寶島巷2弄2號","121.551945","24.89857","6500600","新店區"
"231048","187-VK","2018/06/23 19:59:41","新北市新店區寶宏路3-5號","121.54925","24.9765066666667","6500600","新店區"
"231046","188-VK","2018/06/23 19:59:35","新北市新店區三民路159巷19弄1號","121.532783333333","24.9741216666667","6500600","新店區"
"231054","KEA-2219","2018/06/23 19:59:44","新北市新店區光明街135號","121.539441666667","24.9619916666667","6500600","新店區"
"231057","256-BX","2018/06/23 19:59:46","新北市新店區花園二路一段11號","121.555488333333","24.9324633333333","6500600","新店區"
"231042","268-BY","2018/06/23 19:59:34","新北市新店區中正路7號","121.545823333333","24.9691866666667","6500600","新店區"
"231051","278-BY","2018/06/23 19:59:33","新北市新店區中央一街20-3號","121.52819","24.973185","6500600","新店區"
"231050","AAD-862","2018/06/23 19:58:30","新北市新店區北宜路二段579巷34號","121.56492","24.9552516666667","6500600","新店區"
"231056","4715-K9","2018/06/23 19:59:31","新北市新店區北新路二段187-1號","121.542756666667","24.9777966666667","6500600","新店區"
"231067","4772-VM","2018/06/23 19:59:32","新北市新店區安康路一段35號","121.531743333333","24.96048","6500600","新店區"
"231065","512-UM","2018/06/23 19:59:28","新北市新店區安祥路106-16號","121.476561666667","24.9607516666667","6500600","新店區"
"231049","513-UM","2018/06/23 19:59:43","新北市新店區明德路75巷2號","121.541341666667","24.9781133333333","6500600","新店區"
"231045","617-UM","2018/06/23 19:59:33","新北市新店區北宜路二段241號","121.553928333333","24.9534833333333","6500600","新店區"
"231061","619-UM","2018/06/23 19:59:24","新北市新店區安民街279號","121.517538333333","24.97321","6500600","新店區"
"231063","641-BX","2018/06/23 19:59:43","新北市新店區車子路11號","121.502776666667","24.9510616666667","6500600","新店區"
"231068","718-UY","2018/06/23 19:59:38","新北市新店區安康路一段266巷4號","121.519878333333","24.9640066666667","6500600","新店區"
"231064","719-UM","2018/06/23 19:59:27","新北市新店區碧安街36號","121.517526666667","24.969135","6500600","新店區"
"231062","720-UM","2018/06/23 19:59:30","新北市新店區華城路5-3號","121.529243333333","24.95815","6500600","新店區"
"231060","897-TW","2018/06/23 19:59:28","新北市新店區安康路二段454號","121.49438","24.9542383333333","6500600","新店區"
"231043","899-TW","2018/06/23 19:59:31","新北市新店區中正路282-11號","121.538526666667","24.9740016666667","6500600","新店區"
"231055","AKT-0513","2018/06/23 19:59:35","新北市新店區中華路83巷67號","121.538416666667","24.96741","6500600","新店區"
"241011","013-R5","2018/06/23 19:59:30","新北市三重區秀江街264號","121.495955","25.0712166666667","6500200","三重區"
"241028","022-UY","2018/06/23 19:59:41","新北市三重區中正南路93號","121.494306666667","25.0581933333333","6500200","三重區"
"241008","059-VK","2018/06/23 19:59:27","新北市三重區永福街177巷6-1號","121.478565","25.0749983333333","6500200","三重區"
"241022","060-VK","2018/06/23 19:59:39","新北市三重區過圳街31巷2號","121.48906","25.0606716666667","6500200","三重區"
"241031","061-VK","2018/06/23 19:59:25","新北市三重區重新路四段184巷14號","121.486828333333","25.0550133333333","6500200","三重區"
"241015","062-VK","2018/06/23 19:59:34","新北市三重區三和路二段27號","121.501061666667","25.0670183333333","6500200","三重區"
"241017","063-VK","2018/06/23 19:59:29","新北市三重區重陽路三段99號","121.490358333333","25.0682616666667","6500200","三重區"
"241024","065-VK","2018/06/23 19:59:35","新北市三重區力行路二段2號","121.481833333333","25.0718633333333","6500200","三重區"
"241026","066-VK","2018/06/23 19:59:44","新北市三重區重新路一段83號","121.501375","25.063465","6500200","三重區"
"241005","262-UM","2018/06/23 19:59:39","新北市三重區溪尾街325巷25號","121.48862","25.0833416666667","6500200","三重區"
"241003","265-UM","2018/06/23 19:59:27","新北市三重區仁愛街445巷7號","121.490205","25.0825016666667","6500200","三重區"
"241016","266-UM","2018/06/23 19:59:35","新北市三重區正義北路36巷5號","121.49698","25.063405","6500200","三重區"
"241009","267-UM","2018/06/23 19:59:27","新北市三重區三和路四段390巷18號","121.48124","25.0788483333333","6500200","三重區"
"241018","268-UM","2018/06/23 19:59:40","新北市三重區正義北路244巷70號","121.494088333333","25.067685","6500200","三重區"
"241032","269-UM","2018/06/23 19:59:32","新北市三重區捷運路37巷41-2號","121.483785","25.0561383333333","6500200","三重區"
"241013","270-UM","2018/06/23 19:59:28","新北市三重區三和路三段125巷40號","121.493985","25.0737366666667","6500200","三重區"
"241025","271-UM","2018/06/23 19:59:43","新北市三重區頂崁街210巷16號","121.476488333333","25.0677266666667","6500200","三重區"
"241007","398-BY","2018/06/23 19:59:42","新北市三重區慈愛街143號","121.48926","25.0797683333333","6500200","三重區"
"241035","462-BY","2018/06/23 19:59:33","新北市三重區大榮街7號","121.49816","25.0631433333333","6500200","三重區"
"241004","475-VK","2018/06/23 19:59:30","新北市三重區仁愛街425巷82號","121.492071666667","25.0826133333333","6500200","三重區"
"241020","478-VK","2018/06/23 19:59:37","新北市三重區大智街161號","121.489716666667","25.0721533333333","6500200","三重區"
"241030","480-VK","2018/06/23 19:59:30","新北市三重區重新路四段244巷9號","121.486383333333","25.0534516666667","6500200","三重區"
"241014","543-UM","2018/06/23 19:59:39","新北市三重區三和路二段156號","121.499296666667","25.06849","6500200","三重區"
"241001","547-UM","2018/06/23 19:59:39","新北市三重區福隆路44號","121.492373333333","25.0784233333333","6500200","三重區"
"241019","KEA-2593","2018/06/23 19:59:43","新北市三重區重陽路四段13號","121.491031666667","25.0691716666667","6500200","三重區"
"241006","AAD-863","2018/06/23 19:59:33","新北市三重區力行路二段122號","121.48209","25.074915","6500200","三重區"
"241023","887-TS","2018/06/23 19:59:24","新北市三重區頂崁街168號","121.477625","25.0658733333333","6500200","三重區"
"241012","941-UM","2018/06/23 19:59:38","新北市三重區仁厚街53號","121.500483333333","25.0765866666667","6500200","三重區"
"241029","942-UM","2018/06/23 19:59:33","新北市三重區重安街1號","121.489958333333","25.0583416666667","6500200","三重區"
"241033","AAC-255","2018/06/23 19:59:39","新北市三重區中興北街101號","121.46967","25.0483766666667","6500200","三重區"
"235056","096-UM","2018/06/23 19:59:45","新北市中和區中山路三段136巷15號","121.473405","25.0073683333333","6500300","中和區"
"235039","097-UM","2018/06/23 19:59:40","新北市中和區大勇街25巷39弄13號","121.514536666667","24.99399","6500300","中和區"
"235065","098-UM","2018/06/23 19:59:42","新北市中和區福美路250號","121.498546666667","25.0051566666667","6500300","中和區"
"235040","150-BY","2018/06/23 19:59:31","新北市中和區保健路21-1號","121.508148333333","24.9981233333333","6500300","中和區"
"235058","151-BY","2018/06/23 19:59:44","新北市中和區員山路150巷2弄2號","121.481671666667","24.9982133333333","6500300","中和區"
"235055","183-VK","2018/06/23 19:59:35","新北市中和區民生街23巷2弄2號","121.470723333333","25.00549","6500300","中和區"
"235049","186-VK","2018/06/23 19:59:44","新北市中和區景平路530號","121.502763333333","24.994495","6500300","中和區"
"235067","255-BX","2018/06/23 19:59:43","新北市中和區新生街220巷27號","121.482603333333","24.998465","6500300","中和區"
"235044","293-VK","2018/06/23 19:59:29","新北市中和區南山路287號","121.504401666667","24.9921016666667","6500300","中和區"
"235050","4979-A6","2018/06/23 19:59:39","新北市中和區景平路155巷24號","121.513521666667","24.9916433333333","6500300","中和區"
"235069","4980-A6","2018/06/23 19:59:46","新北市中和區南山路27號","121.501936666667","24.999","6500300","中和區"
"235070","558-UM","2018/06/23 19:59:44","新北市中和區圓通路176號","121.496848333333","24.9943966666667","6500300","中和區"
"235054","640-BX","2018/06/23 19:59:30","新北市中和區莒光路84巷11號","121.472093333333","25.002155","6500300","中和區"
"235047","732-UM","2018/06/23 19:59:43","新北市中和區和平街134號","121.506448333333","24.9916666666667","6500300","中和區"
"235046","733-UM","2018/06/23 19:59:44","新北市中和區興南路一段93巷58弄7號","121.51043","24.9858466666667","6500300","中和區"
"235052","805-TS","2018/06/23 19:59:41","新北市中和區華新街144巷7弄1號","121.507568333333","24.9830033333333","6500300","中和區"
"235048","896-TW","2018/06/23 19:59:38","新北市中和區興南路一段1號","121.511448333333","24.99116","6500300","中和區"
"235053","900-TW","2018/06/23 19:59:39","新北市中和區民德路258號","121.468036666667","24.9970183333333","6500300","中和區"
"235066","911-UM","2018/06/23 19:59:37","新北市中和區中山路二段60號","121.504045","25.0047333333333","6500300","中和區"
"235051","157-BY","2018/06/23 19:59:38","新北市中和區中興街233巷10號","121.501518333333","24.9894616666667","6500300","中和區"
"235037","AAC-213","2018/06/23 19:59:29","新北市中和區自立路99巷22弄3號","121.52331","24.9943733333333","6500300","中和區"
"235059","AAC-215","2018/06/23 19:59:42","新北市中和區圓通路333號","121.491956666667","24.9904833333333","6500300","中和區"
"220068","013-TV","2018/06/23 19:59:37","新北市板橋區光復街172巷21號","121.48562","25.0191066666667","6500100","板橋區"
"220072","015-TV","2018/06/23 19:59:47","新北市板橋區篤行路二段3-3號","121.43183","24.9932866666667","6500100","板橋區"
"220086","073-UY","2018/06/23 19:59:31","新北市板橋區南雅西路二段7巷25號","121.451716666667","25.0096266666667","6500100","板橋區"
"220106","075-UY","2018/06/23 19:59:44","新北市板橋區民治街42巷18號","121.47847","25.033315","6500100","板橋區"
"220069","AAD-861","2018/06/23 19:59:37","新北市板橋區貴興路54號","121.457001666667","25.0030933333333","6500100","板橋區"
"247024","893-R6","2018/06/23 19:59:38","新北市蘆洲區光榮路120巷8弄23號","121.465011666667","25.0881666666667","6501400","蘆洲區"
"247014","546-UM","2018/06/23 19:59:45","新北市蘆洲區成功路120號","121.472205","25.0825733333333","6501400","蘆洲區"
"247022","500-BY","2018/06/23 19:59:45","新北市蘆洲區中正路289號","121.46679","25.0880216666667","6501400","蘆洲區"
"247010","341-TH","2018/06/23 19:59:27","新北市三重區集賢路188號","121.483956666667","25.08801","6501400","蘆洲區"
"247012","339-TH","2018/06/23 19:59:24","新北市蘆洲區民族路220號","121.47961","25.0879533333333","6501400","蘆洲區"
"247006","336-TH","2018/06/23 19:59:35","新北市蘆洲區九芎街111號","121.465603333333","25.0796316666667","6501400","蘆洲區"
"247008","056-VK","2018/06/23 19:59:32","新北市蘆洲區中山一路61巷34號","121.477306666667","25.08075","6501400","蘆洲區"
"247004","053-VK","2018/06/23 19:59:38","新北市蘆洲區長安街267巷8弄269-1號","121.458428333333","25.083755","6501400","蘆洲區"
"247016","007-UY","2018/06/23 19:59:28","新北市蘆洲區光華路20號","121.469516666667","25.083395","6501400","蘆洲區"
"247002","002-UY","2018/06/23 19:58:53","新北市蘆洲區長安街274巷4號","121.457671666667","25.08694","6501400","蘆洲區"
"247020","001-UY","2018/06/23 19:59:41","新北市蘆洲區民義街68巷6號","121.473188333333","25.0897183333333","6501400","蘆洲區"
"226004","312-R5","2018/06/23 19:59:32","新北市平溪區石底里石筍尖9號","121.735208333333","25.0249066666667","6502400","平溪區"
"235064","251-BX","2018/06/23 19:59:33","新北市中和區圓通路29號","121.50115","24.9978266666667","6500300","中和區"
"228003","097-TW","2018/06/23 19:59:27","新北市貢寮區仁理村仁和路134號","121.923046666667","25.0514183333333","6502600","貢寮區"
"224010","AGQ-8101","2018/06/23 19:59:36","新北市瑞芳區基山街204號","121.842226666667","25.1070016666667","6501200","瑞芳區"
"224002","639-TC","2018/06/23 19:59:42","新北市瑞芳區三爪子坑路309-2號","121.818685","25.1051983333333","6501200","瑞芳區"
"227002","642-TC","2018/06/23 19:59:36","新北市雙溪區雙溪里長安街16號","121.86505","25.0347466666667","6502500","雙溪區"
"227010","400-TW","2018/06/23 19:59:31","新北市雙溪區新基里新基南街25號","121.866275","25.0381216666667","6502500","雙溪區"
"222001","KEA-2212","2018/06/23 19:59:39","新北市深坑區北深路三段85號","121.606386666667","25.0016583333333","6501800","深坑區"
"208002","KEA-2872","2018/06/23 19:59:35","新北市金山區中華路182-2號","121.632806666667","25.22348","6502700","金山區"
"208003","665-BX","2018/06/23 19:59:39","新北市金山區永興里濆水路15號","121.626636666667","25.2686566666667","6502700","金山區"
"208001","761-BX","2018/06/23 19:59:37","新北市金山區重和里茅埔頭9號","121.6037","25.2161433333333","6502700","金山區"
"251004","009-UM","2018/06/23 19:59:35","新北市淡水區民族路50巷34號","121.461186666667","25.1359016666667","6501000","淡水區"
"251013","KEA-2871","2018/06/23 19:59:26","新北市淡水區下圭柔山63-7號","121.451771666667","25.2061616666667","6501000","淡水區"
"251016","179-VK","2018/06/23 19:59:29","新北市淡水區淡金路三段446號","121.450625","25.214325","6501000","淡水區"
"251014","180-VK","2018/06/23 19:59:34","新北市淡水區石頭厝12-3號","121.461631666667","25.236395","6501000","淡水區"
"251008","181-VK","2018/06/23 19:59:44","新北市淡水區淡海路72巷21號","121.424233333333","25.1811283333333","6501000","淡水區"
"251015","182-VK","2018/06/23 19:59:30","新北市淡水區商工路151號","121.447498333333","25.1889366666667","6501000","淡水區"
"251010","413-VK","2018/06/23 19:59:42","新北市淡水區崁頂128號","121.431955","25.205115","6501000","淡水區"
"251012","441-VK","2018/06/23 19:59:40","新北市淡水區下圭柔山93-4號","121.436666666667","25.209505","6501000","淡水區"
"251005","443-VK","2018/06/23 19:59:35","新北市淡水區學府路136巷31號","121.451601666667","25.1727283333333","6501000","淡水區"
"251001","559-UM","2018/06/23 19:59:29","新北市淡水區新市二路四段265號","121.445903333333","25.19248","6501000","淡水區"
"251006","561-UM","2018/06/23 19:59:40","新北市淡水區北新路8號","121.444463333333","25.1773566666667","6501000","淡水區"
"251009","575-R6","2018/06/23 19:59:39","新北市淡水區英專路28巷2弄14號","121.445876666667","25.1696366666667","6501000","淡水區"
"251011","650-BX","2018/06/23 19:59:35","新北市淡水區崁頂55-3號","121.442321666667","25.1966316666667","6501000","淡水區"
"251003","673-BX","2018/06/23 19:59:35","新北市淡水區中山北路二段189巷15弄29號","121.443305","25.1842583333333","6501000","淡水區"
"207003","550-UM","2018/06/23 19:59:37","新北市萬里區磺潭里公館崙5號","121.641903333333","25.2142516666667","6502800","萬里區"
"207004","225-TW","2018/06/23 19:59:28","新北市萬里區北基里忠二街31號","121.685566666667","25.1756766666667","6502800","萬里區"
"252002","178-VK","2018/06/23 19:59:38","新北市三芝區三民街39巷5號","121.505495","25.2576666666667","6502100","三芝區"
"252001","292-VK","2018/06/23 19:59:43","新北市三芝區公正街9號","121.499748333333","25.2574833333333","6502100","三芝區"
"237004","KEA-2597","2018/06/23 19:59:26","新北市三峽區大埔路14-11號","121.374185","24.9008783333333","6500900","三峽區"
"237007","153-BY","2018/06/23 19:59:41","新北市三峽區麻園36-12號","121.363715","24.9200916666667","6500900","三峽區"
"237009","210-TH","2018/06/23 19:59:23","新北市三峽區民族街28巷2-8號","121.368881666667","24.9307183333333","6500900","三峽區"
"237012","275-BY","2018/06/23 19:59:30","新北市三峽區中華路71號","121.372006666667","24.93015","6500900","三峽區"
"237008","302-VK","2018/06/23 19:59:33","新北市三峽區中華路65號","121.372271666667","24.93037","6500900","三峽區"
"237014","433-BY","2018/06/23 19:59:32","新北市三峽區大同路137號","121.371836666667","24.9267716666667","6500900","三峽區"
"237006","5529-G3","2018/06/23 19:59:39","新北市三峽區中正路一段309號","121.371305","24.9245833333333","6500900","三峽區"
"237016","649-BX","2018/06/23 19:59:37","新北市三峽區介壽路二段138巷16號","121.395943333333","24.9346583333333","6500900","三峽區"
"237005","AKY-6261","2018/06/23 19:59:40","新北市三峽區三樹路44巷20號","121.378518333333","24.937315","6500900","三峽區"
"236070","105-UM","2018/06/23 19:59:38","新北市土城區忠義路88號","121.444268333333","24.9623033333333","6501300","土城區"
"236042","107-UM","2018/06/23 19:59:42","新北市土城區學府路一段126巷42號","121.455153333333","24.9887016666667","6501300","土城區"
"236079","166-UM","2018/06/23 19:59:37","新北市土城區福安街53號","121.418551666667","24.964375","6501300","土城區"
"236030","253-BX","2018/06/23 19:59:26","新北市土城區中央路一段248-3號","121.444315","24.9847283333333","6501300","土城區"
"236026","269-VK","2018/06/23 19:59:42","新北市土城區中央路二段98號","121.44228","24.978485","6501300","土城區"
"236014","270-VK","2018/06/23 19:59:38","新北市土城區廣福街121號","121.456241666667","24.9928066666667","6501300","土城區"
"236038","271-VK","2018/06/23 19:59:31","新北市土城區國際路52號","121.466516666667","24.9783816666667","6501300","土城區"
"236021","401-BY","2018/06/23 19:59:41","新北市土城區延吉街111巷12弄15-3號","121.471643333333","24.9850083333333","6501300","土城區"
"236006","498-BY","2018/06/23 19:59:40","新北市土城區永平街51號","121.42755","24.9591316666667","6501300","土城區"
"236063","752-BX","2018/06/23 19:59:30","新北市土城區延和路172號","121.468633333333","24.9903883333333","6501300","土城區"
"236059","912-UM","2018/06/23 19:59:26","新北市土城區中央路一段245號","121.445333333333","24.986035","6501300","土城區"
"236049","913-UM","2018/06/23 19:59:35","新北市土城區金城路三段129號","121.46801","24.9879366666667","6501300","土城區"
"236055","AAC-216","2018/06/23 19:59:38","新北市土城區學府路一段8號","121.459465","24.9884566666667","6501300","土城區"
"242034","AAC-296","2018/06/23 19:59:32","新北市新莊區建中街85號","121.447023333333","25.036455","6500500","新莊區"
"242058","986-R7","2018/06/23 19:59:36","新北市新莊區八德街62號","121.424848333333","25.0222866666667","6500500","新莊區"
"242053","751-BX","2018/06/23 19:59:32","新北市新莊區西盛街420號","121.427148333333","25.01211","6500500","新莊區"
"242023","705-TV","2018/06/23 19:59:43","新北市新莊區化成路478號","121.466018333333","25.0515316666667","6500500","新莊區"
"242025","613-BX","2018/06/23 19:59:24","新北市新莊區五工一路86號","121.461366666667","25.0678033333333","6500500","新莊區"
"242029","612-BX","2018/06/23 19:59:27","新北市新莊區中榮街152巷16號","121.446026666667","25.0532966666667","6500500","新莊區"
"242046","497-BY","2018/06/23 19:59:41","新北市新莊區裕民街19巷4號","121.41965","25.025105","6500500","新莊區"
"242051","441-UM","2018/06/23 19:59:34","新北市新莊區西盛街137號","121.428311666667","25.0185383333333","6500500","新莊區"
"242036","415-TV","2018/06/23 19:59:44","新北市新莊區建安街43號","121.428861666667","25.0254783333333","6500500","新莊區"
"242007","413-TV","2018/06/23 19:59:42","新北市新莊區福壽街315號","121.457928333333","25.0560416666667","6500500","新莊區"
"242061","353-BY","2018/06/23 19:59:39","新北市新莊區瓊泰路31號","121.443965","25.0286166666667","6500500","新莊區"
"242039","133-UY","2018/06/23 19:59:35","新北市新莊區民安路272號","121.427585","25.0213766666667","6500500","新莊區"
"242048","172-VK","2018/06/23 19:59:12","新北市新莊區富國路109巷3號","121.423685","25.0251866666667","6500500","新莊區"
"242056","173-VK","2018/06/23 19:59:46","新北市新莊區中正路347巷18號","121.44714","25.03436","6500500","新莊區"
"242017","175-VK","2018/06/23 19:59:46","新北市新莊區中安街35號","121.45252","25.045945","6500500","新莊區"
"242004","176-VK","2018/06/23 19:59:27","新北市新莊區頭前路96號","121.46389","25.0525233333333","6500500","新莊區"
"242015","346-TH","2018/06/23 19:59:39","新北市新莊區中平路6巷44號","121.445848333333","25.04272","6500500","新莊區"
"242011","347-TH","2018/06/23 19:59:42","新北市新莊區中港路531巷33號","121.450115","25.0514983333333","6500500","新莊區"
"242021","348-TH","2018/06/23 19:59:42","新北市新莊區建中街28號","121.449015","25.03752","6500500","新莊區"
"242002","349-TH","2018/06/23 19:59:45","新北市新莊區新泰路109號","121.448833333333","25.035075","6500500","新莊區"
"242019","350-TH","2018/06/23 19:59:32","新北市新莊區民生街28號","121.45629","25.0421383333333","6500500","新莊區"
"242013","351-TH","2018/06/23 19:59:28","新北市新莊區幸福路672號","121.450988333333","25.0494333333333","6500500","新莊區"
"238015","755-BX","2018/06/23 19:59:12","新北市樹林區中山路三段214號","121.38007","24.9679466666667","6500700","樹林區"
"238021","KEA-2539","2018/06/23 19:59:38","新北市樹林區佳園路三段93號","121.387536666667","24.952415","6500700","樹林區"
"238016","169-UY","2018/06/23 19:59:36","新北市樹林區中山路三段204號","121.387251666667","24.96839","6500700","樹林區"
"221008","489-VK","2018/06/23 19:59:30","台北市內湖區康樂街125巷4號","121.619791666667","25.0733283333333","6501100","汐止區"
"221036","130-UY","2018/06/23 19:59:35","新北市汐止區新台五路二段85巷10號","121.664476666667","25.0672483333333","6501100","汐止區"
"221015","131-UY","2018/06/23 19:59:39","新北市汐止區大同路二段693號","121.665145","25.0725533333333","6501100","汐止區"
"221010","269-BY","2018/06/23 19:59:40","新北市汐止區八連路一段86巷14號","121.644521666667","25.080695","6501100","汐止區"
"221012","278-VK","2018/06/23 19:59:36","新北市汐止區大同路三段262-1號","121.676526666667","25.0718683333333","6501100","汐止區"
"221023","279-VK","2018/06/23 19:59:36","新北市汐止區明峰街285號","121.626253333333","25.0684116666667","6501100","汐止區"
"221032","280-BY","2018/06/23 19:59:39","新北市汐止區橫科路4巷1弄10號","121.617873333333","25.05076","6501100","汐止區"
"221027","281-BY","2018/06/23 19:59:38","新北市汐止區信義路19號","121.661565","25.06947","6501100","汐止區"
"221029","298-VK","2018/06/23 19:59:41","新北市汐止區樟樹一路137巷26號","121.640918333333","25.0658466666667","6501100","汐止區"
"221021","299-VK","2018/06/23 19:59:29","新北市汐止區水源路一段175號","121.655126666667","25.061855","6501100","汐止區"
"221031","353-TW","2018/06/23 19:59:26","新北市汐止區福德一路231號","121.634171666667","25.0650016666667","6501100","汐止區"
"221035","622-UM","2018/06/23 19:59:39","新北市汐止區長江街43號","121.655705","25.0713266666667","6501100","汐止區"
"221025","623-UM","2018/06/23 19:59:36","新北市汐止區秀峰路107號","121.660101666667","25.0633616666667","6501100","汐止區"
"221038","646-BX","2018/06/23 19:59:40","新北市汐止區橋東街41巷7號","121.666586666667","25.0750466666667","6501100","汐止區"
"221033","647-BX","2018/06/23 19:59:25","新北市汐止區東勢街201巷11號","121.63459","25.04315","6501100","汐止區"
"221018","753-BX","2018/06/23 19:59:44","新北市汐止區忠孝東路351-10號","121.66546","25.0707683333333","6501100","汐止區"
"220079","145-BY","2018/06/23 19:59:33","新北市板橋區中正路162號","121.456585","25.016765","6500100","板橋區"
"220080","200-UY","2018/06/23 19:59:41","新北市板橋區大觀路二段163巷13號","121.446223333333","25.0003266666667","6500100","板橋區"
"220082","610-BX","2018/06/23 19:59:39","新北市板橋區篤行路二段131巷1-2號","121.431448333333","24.9904016666667","6500100","板橋區"
"220101","245-BX","2018/06/23 19:59:41","新北市板橋區雙十路一段44巷36號","121.477475","25.0249366666667","6500100","板橋區"
"220055","256-TC","2018/06/23 19:59:44","新北市板橋區仁愛路86巷6號","121.46097","24.9992966666667","6500100","板橋區"
"220103","257-TC","2018/06/23 19:59:29","新北市板橋區自由路22號","121.465523333333","25.0226783333333","6500100","板橋區"
"220071","283-VK","2018/06/23 19:59:27","新北市板橋區五權街30巷24弄23號","121.46364","24.9935833333333","6500100","板橋區"
"220094","285-UM","2018/06/23 19:59:40","新北市板橋區陽明街72號","121.464703333333","25.022605","6500100","板橋區"
"220053","285-VK","2018/06/23 19:59:39","新北市板橋區永豐街67號","121.473738333333","25.018595","6500100","板橋區"
"220083","286-VK","2018/06/23 19:59:24","新北市板橋區僑中二街10巷1號","121.446943333333","25.0108466666667","6500100","板橋區"
"220081","287-VK","2018/06/23 19:59:33","新北市板橋區大觀路一段28巷107-1號","121.449823333333","25.0122116666667","6500100","板橋區"
"220090","288-VK","2018/06/23 19:59:36","新北市板橋區英士路199號","121.458613333333","25.02346","6500100","板橋區"
"220061","293-UM","2018/06/23 19:59:42","新北市板橋區觀光街21號","121.471338333333","25.016175","6500100","板橋區"
"220084","296-UM","2018/06/23 19:59:28","新北市樹林區水源街213號","121.424033333333","24.987185","6500100","板橋區"
"220075","303-R5","2018/06/23 19:59:46","新北市板橋區金華街10巷93號","121.458593333333","25.020465","6500100","板橋區"
"220092","307-R5","2018/06/23 19:59:44","新北市板橋區四維路259巷77號","121.460338333333","25.0266116666667","6500100","板橋區"
"220098","317-R6","2018/06/23 19:59:41","新北市板橋區漢生西路159號","121.462938333333","25.0235316666667","6500100","板橋區"
"220065","461-BY","2018/06/23 19:59:32","新北市板橋區館前東路132號","121.464018333333","25.0078566666667","6500100","板橋區"
"220064","486-VK","2018/06/23 19:59:42","新北市板橋區民族路57號","121.464981666667","25.0090466666667","6500100","板橋區"
"242031","280-VK","2018/06/23 19:59:30","新北市新莊區公園一路63號","121.443076666667","25.0364866666667","6500500","新莊區"
"220088","491-VK","2018/06/23 19:59:28","新北市板橋區懷德街80-3號","121.478673333333","25.0308283333333","6500100","板橋區"
"220035","560-BX","2018/06/23 19:59:35","新北市板橋區金華街21巷21號","121.456246666667","25.0207766666667","6500100","板橋區"
"220063","609-BX","2018/06/23 19:59:43","新北市板橋區中山路二段72號","121.474441666667","25.0159616666667","6500100","板橋區"
"220091","637-BX","2018/06/23 19:59:24","新北市板橋區民治街123號","121.478148333333","25.030995","6500100","板橋區"
"220057","686-BX","2018/06/23 19:59:36","新北市板橋區四川路二段130巷19號","121.449446666667","24.9939816666667","6500100","板橋區"
"220093","689-BX","2018/06/23 19:59:36","新北市板橋區長江路三段122號","121.47529","25.0344066666667","6500100","板橋區"
"220054","741-BX","2018/06/23 19:59:36","新北市板橋區忠孝路忠義巷9弄22號","121.465373333333","25.0041283333333","6500100","板橋區"
"220102","KEA-2699","2018/06/23 19:59:28","新北市板橋區仁化街56號","121.4757","25.0315416666667","6500100","板橋區"
"220067","830-TW","2018/06/23 19:59:42","新北市板橋區長安街331巷106-4號","121.471668333333","25.0125816666667","6500100","板橋區"
"220096","831-TW","2018/06/23 19:59:39","新北市板橋區莊敬路132號","121.470803333333","25.02365","6500100","板橋區"
"220089","833-TW","2018/06/23 19:59:25","新北市板橋區龍泉街56-1號","121.457071666667","25.0259866666667","6500100","板橋區"
"220074","895-R6","2018/06/23 19:59:41","新北市板橋區縣民大道一段283號","121.460593333333","25.010045","6500100","板橋區"
"220073","985-R7","2018/06/23 19:59:32","新北市板橋區南雅西路二段147號","121.45218","25.0118633333333","6500100","板橋區"
"220097","AAC-210","2018/06/23 19:59:45","新北市板橋區光正街45巷2弄18號","121.460966666667","25.017355","6500100","板橋區"
"220070","AAC-253","2018/06/23 19:59:32","新北市板橋區德興街16號","121.453385","24.9943783333333","6500100","板橋區"
"235068","KEA-2873","2018/06/23 19:59:31","新北市中和區中山路二段250巷22號","121.497403333333","25.0033383333333","6500300","中和區"
