"lineid","car","time","location","longitude","latitude","cityid","cityname"
"234046","148-BY","2018/06/23 20:09:28","新北市永和區得和路321號","121.523415","24.9996","6500400","永和區"
"234007","207-UY","2018/06/23 20:09:41","新北市永和區保順路51巷5號","121.502808333333","25.01053","6500400","永和區"
"234081","298-R6","2018/06/23 20:09:34","新北市永和區國中路53號","121.524591666667","25.0060916666667","6500400","永和區"
"234036","336-UY","2018/06/23 20:09:40","新北市永和區成功路一段64巷1號","121.526661666667","25.00358","6500400","永和區"
"234064","337-UY","2018/06/23 20:09:42","新北市永和區秀朗路二段43號","121.521573333333","25.0024133333333","6500400","永和區"
"234086","338-UY","2018/06/23 20:09:43","新北市永和區中正路623號","121.515943333333","25.0098983333333","6500400","永和區"
"234070","552-UM","2018/06/23 20:09:32","新北市永和區永貞路10巷6號","121.520495","25.00733","6500400","永和區"
"234017","745-BX","2018/06/23 20:09:42","新北市永和區文化路96號","121.513721666667","25.01529","6500400","永和區"
"234030","746-BX","2018/06/23 20:09:44","新北市永和區民權路49巷5弄8號","121.520751666667","24.9975133333333","6500400","永和區"
"234054","KEA-2590","2018/06/23 20:09:43","新北市永和區博愛街17號","121.517248333333","25.01583","6500400","永和區"
"234012","KEA-2591","2018/06/23 20:09:37","新北市永和區永貞路415號","121.507388333333","25.0093816666667","6500400","永和區"
"234061","AAD-866","2018/06/23 20:09:44","新北市永和區中正路151巷5弄1號","121.515955","24.9985866666667","6500400","永和區"
"234042","862-TW","2018/06/23 20:09:33","新北市永和區雙和街16巷18號","121.509906666667","25.002665","6500400","永和區"
"234050","863-TW","2018/06/23 20:09:26","新北市永和區新生路182巷17號","121.505766666667","25.0139516666667","6500400","永和區"
"234011","9373-KE","2018/06/23 20:09:31","新北市永和區仁愛路352巷122弄9號","121.50061","25.0087733333333","6500400","永和區"
"249005","172-UM","2018/06/23 20:09:37","新北市八里區下罟子58-12號","121.387653333333","25.1371283333333","6502300","八里區"
"249001","173-UM","2018/06/23 20:09:32","新北市八里區中華路二段326號","121.403325","25.1479066666667","6502300","八里區"
"249004","303-UY","2018/06/23 20:09:36","新北市八里區中山路一段189巷3號","121.411856666667","25.1582033333333","6502300","八里區"
"249002","305-UY","2018/06/23 20:09:32","新北市八里區龍米路一段3-6號","121.457243333333","25.11718","6502300","八里區"
"249003","593-UM","2018/06/23 20:08:52","新北市八里區中山路二段540巷9弄7號","121.39699","25.1466183333333","6502300","八里區"
"248014","025-BX","2018/06/23 20:09:38","新北市五股區成泰路三段83號","121.443795","25.0900333333333","6501500","五股區"
"248016","026-BX","2018/06/23 20:09:34","新北市五股區凌雲路一段158巷50弄2號","121.447173333333","25.1044566666667","6501500","五股區"
"248008","095-VK","2018/06/23 20:09:29","新北市五股區中興路一段1巷12弄8號","121.469293333333","25.0712416666667","6501500","五股區"
"248017","225-UY","2018/06/23 20:09:30","新北市五股區凌雲路二段10號","121.445621666667","25.10246","6501500","五股區"
"248012","247-BX","2018/06/23 20:09:33","新北市五股區民義路一段216號","121.430433333333","25.0895633333333","6501500","五股區"
"248010","272-BY","2018/06/23 20:09:44","新北市五股區成泰路一段7巷66號","121.432665","25.0678616666667","6501500","五股區"
"248004","655-BX","2018/06/23 20:09:25","新北市五股區成泰路一段32巷60號","121.43498","25.0670083333333","6501500","五股區"
"248002","678-BX","2018/06/23 20:09:41","新北市五股區成泰路三段311-2號","121.447835","25.0948716666667","6501500","五股區"
"234023","9380-KE","2018/06/23 20:09:36","新北市永和區中正路702巷20弄1號","121.516515","25.010545","6500400","永和區"
"234077","969-R7","2018/06/23 20:09:31","新北市永和區民光街22巷2號","121.516061666667","24.9957316666667","6500400","永和區"
"234074","AAC-211","2018/06/23 20:09:37","新北市永和區豫溪街161-1號","121.52149","25.010425","6500400","永和區"
"234067","AAC-212","2018/06/23 20:09:37","新北市永和區保平路218號","121.509698333333","25.0059333333333","6500400","永和區"
"234003","AAC-295","2018/06/23 20:09:26","新北市永和區中正路609巷3號","121.516136666667","25.0093266666667","6500400","永和區"
"243013","AAD-798","2018/06/23 20:09:24","新北市泰山區明志路三段74巷3號","121.424565","25.041765","6501600","泰山區"
"243009","297-R6","2018/06/23 20:09:37","新北市泰山區泰林路二段117號","121.434335","25.0595733333333","6501600","泰山區"
"243016","380-SR","2018/06/23 20:09:29","新北市泰山區貴陽街29號","121.42229","25.033145","6501600","泰山區"
"243015","421-VK","2018/06/23 20:09:29","新北市泰山區明志路一段280號","121.43195","25.06005","6501600","泰山區"
"243011","KEA-2215","2018/06/23 20:09:28","新北市泰山區明志路三段182巷58號","121.422713333333","25.0398783333333","6501600","泰山區"
"243010","KEA-2216","2018/06/23 20:09:34","新北市泰山區明志路二段136巷24號","121.42623","25.0519","6501600","泰山區"
"243012","646-TV","2018/06/23 20:09:41","新北市泰山區楓江路110號","121.438431666667","25.063955","6501600","泰山區"
"243014","680-BX","2018/06/23 20:09:32","新北市泰山區明志路一段128號","121.433371666667","25.06343","6501600","泰山區"
"222003","436-BY","2018/06/23 20:09:37","新北市深坑區埔新街66號","121.619961666667","25.0025266666667","6501800","深坑區"
"222002","659-BX","2018/06/23 20:09:27","新北市深坑區北深路三段178號","121.602111666667","25.0036866666667","6501800","深坑區"
"231041","002-UM","2018/06/23 20:09:32","新北市新店區中正路460號","121.533998333333","24.9793783333333","6500600","新店區"
"231059","046-UY","2018/06/23 20:09:39","新北市新店區安成街25號","121.510088333333","24.9608716666667","6500600","新店區"
"231040","047-UY","2018/06/23 20:09:33","新北市新店區中正路104號","121.543235","24.9706633333333","6500600","新店區"
"231044","106-UY","2018/06/23 20:09:36","新北市新店區寶慶街66號","121.54193","24.9868083333333","6500600","新店區"
"231052","108-UY","2018/06/23 20:09:30","新北市新店區新烏路三段寶島巷4號","121.550921666667","24.8991116666667","6500600","新店區"
"231048","187-VK","2018/06/23 20:09:41","新北市新店區寶橋路59-1號","121.545105","24.9750783333333","6500600","新店區"
"231054","KEA-2219","2018/06/23 20:09:32","新北市新店區檳榔路14號","121.541071666667","24.9644616666667","6500600","新店區"
"231057","256-BX","2018/06/23 20:09:26","新北市新店區花園一路一段2號","121.55313","24.932395","6500600","新店區"
"231042","268-BY","2018/06/23 20:09:34","新北市新店區中興路二段89號","121.547076666667","24.9714316666667","6500600","新店區"
"231051","278-BY","2018/06/23 20:09:33","新北市新店區中央六街9號","121.530218333333","24.9746883333333","6500600","新店區"
"231050","AAD-862","2018/06/23 20:09:30","新北市新店區北宜路一段30號","121.538221666667","24.956815","6500600","新店區"
"231058","3713-VJ","2018/06/23 20:09:29","新北市新店區安民街121巷12號","121.515463333333","24.9692633333333","6500600","新店區"
"231056","4715-K9","2018/06/23 20:09:31","新北市新店區中正路275巷28號","121.536883333333","24.9731383333333","6500600","新店區"
"231067","4772-VM","2018/06/23 20:09:32","新北市新店區溪洲路8巷1號","121.533503333333","24.96119","6500600","新店區"
"231065","512-UM","2018/06/23 20:09:28","新北市新店區安祥路106巷202號","121.474351666667","24.96033","6500600","新店區"
"231049","513-UM","2018/06/23 20:09:43","新北市新店區北新路二段139巷14號","121.542105","24.97572","6500600","新店區"
"231045","617-UM","2018/06/23 20:09:33","新北市新店區北宜路一段152-2號","121.540228333333","24.9537533333333","6500600","新店區"
"231061","619-UM","2018/06/23 20:09:44","新北市新店區安民街389號","121.516111666667","24.9767433333333","6500600","新店區"
"231063","641-BX","2018/06/23 20:09:24","新北市新店區黎明路55巷1號","121.502388333333","24.9482583333333","6500600","新店區"
"231068","718-UY","2018/06/23 20:09:38","新北市新店區中興路三段204號","121.543885","24.9820516666667","6500600","新店區"
"231064","719-UM","2018/06/23 20:09:27","新北市新店區安康路二段58巷9號","121.51311","24.9638516666667","6500600","新店區"
"231062","720-UM","2018/06/23 20:09:30","新北市新店區安康路二段233號","121.508323333333","24.9586333333333","6500600","新店區"
"231060","897-TW","2018/06/23 20:09:28","新北市新店區安康路三段454號","121.484331666667","24.9512116666667","6500600","新店區"
"231043","899-TW","2018/06/23 20:09:31","新北市新店區民族路188號","121.536716666667","24.9759966666667","6500600","新店區"
"231055","AKT-0513","2018/06/23 20:09:35","新北市新店區北新路一段297巷37號","121.540255","24.9684433333333","6500600","新店區"
"241011","013-R5","2018/06/23 20:09:30","新北市三重區仁愛街57號","121.496441666667","25.0720816666667","6500200","三重區"
"241028","022-UY","2018/06/23 20:09:41","新北市三重區大同南路151-3號","121.496696666667","25.056995","6500200","三重區"
"241008","059-VK","2018/06/23 20:09:32","新北市三重區永福街197巷27號","121.478545","25.0742933333333","6500200","三重區"
"241022","060-VK","2018/06/23 20:09:41","新北市三重區重陽路二段7號","121.486873333333","25.06197","6500200","三重區"
"241031","061-VK","2018/06/23 20:09:25","新北市三重區過圳街9-1號","121.488638333333","25.0600683333333","6500200","三重區"
"241015","062-VK","2018/06/23 20:09:34","新北市三重區福德北路24號","121.502233333333","25.0649016666667","6500200","三重區"
"241017","063-VK","2018/06/23 20:09:29","新北市三重區自強路一段177號","121.492913333333","25.0674416666667","6500200","三重區"
"241024","065-VK","2018/06/23 20:09:35","新北市三重區中正北路328號","121.47873","25.06921","6500200","三重區"
"241026","066-VK","2018/06/23 20:09:24","新北市三重區福德南路71號","121.502071666667","25.0602266666667","6500200","三重區"
"241002","090-VK","2018/06/23 20:09:40","新北市三重區五華街35巷62號","121.495806666667","25.0818916666667","6500200","三重區"
"241005","262-UM","2018/06/23 20:09:39","新北市三重區溪尾街327號","121.488618333333","25.0848","6500200","三重區"
"241003","265-UM","2018/06/23 20:09:27","新北市三重區仁愛街476號","121.489618333333","25.0824066666667","6500200","三重區"
"241016","266-UM","2018/06/23 20:09:45","新北市三重區大同北路83號","121.494931666667","25.063695","6500200","三重區"
"241009","267-UM","2018/06/23 20:09:45","新北市三重區永福街125巷30號","121.47781","25.0773916666667","6500200","三重區"
"241018","268-UM","2018/06/23 20:09:40","新北市三重區正義北路256巷137號","121.493108333333","25.0677566666667","6500200","三重區"
"241032","269-UM","2018/06/23 20:09:32","新北市三重區捷運路61號","121.483498333333","25.0555816666667","6500200","三重區"
"241013","270-UM","2018/06/23 20:09:28","新北市三重區三和路三段151巷47號","121.494213333333","25.0743083333333","6500200","三重區"
"241025","271-UM","2018/06/23 20:09:43","新北市三重區中正北路255號","121.475306666667","25.0707583333333","6500200","三重區"
"241007","398-BY","2018/06/23 20:09:42","新北市三重區三和路四段111-10號","121.486651666667","25.0775866666667","6500200","三重區"
"241035","462-BY","2018/06/23 20:09:33","新北市三重區文化北路24號","121.49909","25.06436","6500200","三重區"
"241004","475-VK","2018/06/23 20:09:30","新北市三重區自強路四段80號","121.490568333333","25.0789183333333","6500200","三重區"
"241020","478-VK","2018/06/23 20:09:37","新北市三重區忠孝路一段21巷23號","121.4914","25.0729866666667","6500200","三重區"
"241030","480-VK","2018/06/23 20:09:30","新北市三重區成功路145巷31號","121.487663333333","25.0530633333333","6500200","三重區"
"241014","543-UM","2018/06/23 20:09:39","新北市三重區安和路39號","121.501076666667","25.06938","6500200","三重區"
"241001","547-UM","2018/06/23 20:09:39","新北市三重區三和路四段85號","121.48996","25.0758883333333","6500200","三重區"
"241019","KEA-2593","2018/06/23 20:09:43","新北市三重區自強路二段33巷19號","121.490163333333","25.0696766666667","6500200","三重區"
"241006","AAD-863","2018/06/23 20:09:33","新北市三重區車路頭街135號","121.483971666667","25.0760216666667","6500200","三重區"
"241023","887-TS","2018/06/23 20:09:24","新北市三重區頂崁街225號","121.477015","25.06808","6500200","三重區"
"241012","941-UM","2018/06/23 20:09:38","新北市三重區仁福街64巷32號","121.497525","25.075665","6500200","三重區"
"241029","942-UM","2018/06/23 20:09:33","新北市三重區光明路32巷30號","121.49205","25.0587683333333","6500200","三重區"
"241033","AAC-255","2018/06/23 20:09:39","新北市三重區光復路一段59號","121.472505","25.049235","6500200","三重區"
"235039","097-UM","2018/06/23 20:09:40","新北市中和區大勇街25巷15弄1號","121.515873333333","24.9936266666667","6500300","中和區"
"235065","098-UM","2018/06/23 20:09:42","新北市中和區福美路256巷10號","121.498086666667","25.005775","6500300","中和區"
"235040","150-BY","2018/06/23 20:09:31","新北市中和區保健路33巷7號","121.509113333333","24.997965","6500300","中和區"
"235050","4979-A6","2018/06/23 20:09:39","新北市中和區景新街313號","121.511121666667","24.9923366666667","6500300","中和區"
"235069","4980-A6","2018/06/23 20:09:26","新北市中和區景新街132巷6-3號","121.504756666667","24.9983033333333","6500300","中和區"
"235070","558-UM","2018/06/23 20:09:24","新北市中和區建八路116號","121.48813","24.9983733333333","6500300","中和區"
"235048","896-TW","2018/06/23 20:09:38","新北市中和區景新街320號","121.511705","24.9912833333333","6500300","中和區"
"235066","911-UM","2018/06/23 20:09:37","新北市中和區保平路231號","121.507988333333","25.0043033333333","6500300","中和區"
"235051","157-BY","2018/06/23 20:09:38","新北市中和區景安路220巷1弄2號","121.503263333333","24.9909183333333","6500300","中和區"
"235037","AAC-213","2018/06/23 20:09:29","新北市中和區自立路193號","121.524211666667","24.991305","6500300","中和區"
"235059","AAC-215","2018/06/23 20:09:43","新北市中和區圓通路367巷13弄20號","121.493258333333","24.9880983333333","6500300","中和區"
"220068","013-TV","2018/06/23 20:09:37","新北市板橋區中山路二段312號","121.479973333333","25.0191083333333","6500100","板橋區"
"220072","015-TV","2018/06/23 20:09:27","新北市板橋區金門街118號","121.432856666667","24.9917533333333","6500100","板橋區"
"220086","073-UY","2018/06/23 20:09:31","新北市板橋區大觀路三段59巷17弄5-1號","121.434885","24.9953316666667","6500100","板橋區"
"220069","AAD-861","2018/06/23 20:09:37","新北市板橋區貴興路81號","121.456695","25.0029133333333","6500100","板橋區"
"247024","893-R6","2018/06/23 20:09:38","新北市蘆洲區光明路112號","121.463665","25.0881316666667","6501400","蘆洲區"
"247014","546-UM","2018/06/23 20:09:45","新北市蘆洲區和平路64號","121.470115","25.07946","6501400","蘆洲區"
"247022","500-BY","2018/06/23 20:09:25","新北市蘆洲區三民路134號","121.47083","25.0876516666667","6501400","蘆洲區"
"247010","341-TH","2018/06/23 20:09:27","新北市蘆洲區集賢路406號","121.48022","25.081935","6501400","蘆洲區"
"247012","339-TH","2018/06/23 20:09:24","新北市蘆洲區復興路210號","121.478703333333","25.0891866666667","6501400","蘆洲區"
"247006","336-TH","2018/06/23 20:09:33","新北市蘆洲區中山二路309號","121.468841666667","25.0775183333333","6501400","蘆洲區"
"247018","057-VK","2018/06/23 20:09:40","新北市蘆洲區民族路298巷23號","121.478203333333","25.0904166666667","6501400","蘆洲區"
"247004","053-VK","2018/06/23 20:09:29","新北市蘆洲區長安街285巷19號","121.45755","25.0841033333333","6501400","蘆洲區"
"247016","007-UY","2018/06/23 20:09:28","新北市蘆洲區光華路173號","121.464803333333","25.0819466666667","6501400","蘆洲區"
"247002","002-UY","2018/06/23 20:09:30","新北市蘆洲區永康街2巷8號","121.459336666667","25.0861666666667","6501400","蘆洲區"
"247020","001-UY","2018/06/23 20:09:41","新北市蘆洲區民權路106巷3弄8號","121.474091666667","25.088985","6501400","蘆洲區"
"224010","AGQ-8101","2018/06/23 20:09:36","新北市瑞芳區豎崎路33號","121.843425","25.1086166666667","6501200","瑞芳區"
"224002","639-TC","2018/06/23 20:09:30","新北市瑞芳區員山子路員山巷5-1號","121.817245","25.1037533333333","6501200","瑞芳區"
"222001","KEA-2212","2018/06/23 20:09:39","新北市深坑區北深路三段197號","121.601051666667","25.0037333333333","6501800","深坑區"
"208002","KEA-2872","2018/06/23 20:09:35","新北市金山區自強路20-1號","121.639513333333","25.2172833333333","6502700","金山區"
"208003","665-BX","2018/06/23 20:09:37","新北市金山區海興路128號","121.631706666667","25.239325","6502700","金山區"
"251004","009-UM","2018/06/23 20:08:22","新北市淡水區民族路31-21號","121.461708333333","25.1361983333333","6501000","淡水區"
"251002","012-UM","2018/06/23 20:09:44","新北市淡水區中正路177號","121.438741666667","25.17127","6501000","淡水區"
"251013","KEA-2871","2018/06/23 20:09:26","新北市淡水區奎柔山路309號","121.461783333333","25.2047316666667","6501000","淡水區"
"251016","179-VK","2018/06/23 20:09:40","新北市淡水區番子田19號","121.457526666667","25.2288133333333","6501000","淡水區"
"251014","180-VK","2018/06/23 20:09:34","新北市淡水區石頭厝1號","121.458721666667","25.2355466666667","6501000","淡水區"
"251008","181-VK","2018/06/23 20:09:24","新北市淡水區沙崙路133號","121.422903333333","25.182715","6501000","淡水區"
"251015","182-VK","2018/06/23 20:09:30","新北市淡水區淡金路二段270-1號","121.446998333333","25.1887583333333","6501000","淡水區"
"251010","413-VK","2018/06/23 20:09:42","新北市淡水區濱海路三段148巷33號","121.424945","25.1934216666667","6501000","淡水區"
"251012","441-VK","2018/06/23 20:09:40","新北市淡水區淡金路三段329號","121.448965","25.2062366666667","6501000","淡水區"
"251005","443-VK","2018/06/23 20:09:35","新北市淡水區學府路9號","121.44746","25.16808","6501000","淡水區"
"251001","559-UM","2018/06/23 20:09:29","新北市淡水區新市二路四段265號","121.445896666667","25.1924766666667","6501000","淡水區"
"251006","561-UM","2018/06/23 20:09:40","新北市淡水區北新路141巷60弄11號","121.448303333333","25.1796683333333","6501000","淡水區"
"251009","575-R6","2018/06/23 20:09:39","新北市淡水區清水街22號","121.444938333333","25.1704266666667","6501000","淡水區"
"251003","673-BX","2018/06/23 20:09:35","新北市淡水區新市一路二段255號","121.443723333333","25.183115","6501000","淡水區"
"207003","550-UM","2018/06/23 20:09:37","新北市萬里區大鵬里萬里加投176號","121.643158333333","25.2157633333333","6502800","萬里區"
"207004","225-TW","2018/06/23 20:09:28","新北市萬里區北基里愛三街11號","121.681705","25.17668","6502800","萬里區"
"252002","178-VK","2018/06/23 20:09:38","新北市三芝區中正路一段68號","121.503843333333","25.2576783333333","6502100","三芝區"
"252001","292-VK","2018/06/23 20:09:43","新北市三芝區公正街9號","121.499733333333","25.257475","6502100","三芝區"
"237006","5529-G3","2018/06/23 20:09:39","新北市三峽區中正路二段176巷84號","121.364428333333","24.912255","6500900","三峽區"
"236070","105-UM","2018/06/23 20:09:38","新北市土城區大安路18號","121.432938333333","24.96617","6501300","土城區"
"236042","107-UM","2018/06/23 20:09:42","新北市土城區學享街66號","121.452333333333","24.9863316666667","6501300","土城區"
"236079","166-UM","2018/06/23 20:09:37","新北市土城區福安街31號","121.419336666667","24.9647866666667","6501300","土城區"
"236030","253-BX","2018/06/23 20:09:35","新北市土城區中央路一段141號","121.446733333333","24.987965","6501300","土城區"
"236026","269-VK","2018/06/23 20:09:42","新北市土城區裕生路81號","121.447043333333","24.984235","6501300","土城區"
"236014","270-VK","2018/06/23 20:09:38","新北市土城區廣興街19號","121.455983333333","24.9916833333333","6501300","土城區"
"236038","271-VK","2018/06/23 20:09:31","新北市土城區延吉街363巷9號","121.464326666667","24.9834416666667","6501300","土城區"
"236021","401-BY","2018/06/23 20:09:41","新北市土城區延吉街57巷8-1號","121.472463333333","24.98739","6501300","土城區"
"236006","498-BY","2018/06/23 20:09:40","新北市土城區永平街51號","121.427553333333","24.9591283333333","6501300","土城區"
"236063","752-BX","2018/06/23 20:09:33","新北市土城區延和路12巷13號","121.464526666667","24.98745","6501300","土城區"
"236059","912-UM","2018/06/23 20:09:26","新北市土城區中央路二段137號","121.442028333333","24.9770566666667","6501300","土城區"
"236049","913-UM","2018/06/23 20:09:35","新北市土城區金城路三段103號","121.467485","24.9876716666667","6501300","土城區"
"236055","AAC-216","2018/06/23 20:09:34","新北市土城區中華路一段172號","121.44131","24.982825","6501300","土城區"
"242034","AAC-296","2018/06/23 20:09:32","新北市新莊區建中街105號","121.44657","25.036125","6500500","新莊區"
"242058","986-R7","2018/06/23 20:09:39","新北市新莊區八德街126號","121.423951666667","25.0206916666667","6500500","新莊區"
"242053","751-BX","2018/06/23 20:09:43","新北市新莊區西盛街395巷22弄6號","121.428306666667","25.01283","6500500","新莊區"
"242023","705-TV","2018/06/23 20:09:42","新北市新莊區化成路303號","121.46605","25.055225","6500500","新莊區"
"242027","615-BX","2018/06/23 20:09:30","新北市新莊區幸福路745號","121.448625","25.0490916666667","6500500","新莊區"
"242025","613-BX","2018/06/23 20:09:36","新北市新莊區五權一路12巷25弄5號","121.458013333333","25.0642983333333","6500500","新莊區"
"242029","612-BX","2018/06/23 20:09:27","新北市新莊區中原路301號","121.447461666667","25.0545516666667","6500500","新莊區"
"242042","566-BX","2018/06/23 20:09:44","新北市新莊區青山路一段200-4號","121.39795","25.03168","6500500","新莊區"
"242046","497-BY","2018/06/23 20:09:41","新北市新莊區裕民街103巷13號","121.419128333333","25.022865","6500500","新莊區"
"242051","441-UM","2018/06/23 20:09:34","新北市新莊區民安西路172巷7號","121.425485","25.01602","6500500","新莊區"
"242036","415-TV","2018/06/23 20:09:24","新北市新莊區建安街9巷16號","121.429575","25.0267","6500500","新莊區"
"242007","413-TV","2018/06/23 20:09:42","新北市新莊區福壽街184巷20號","121.45919","25.05306","6500500","新莊區"
"242044","400-BY","2018/06/23 20:09:41","新北市新莊區中正路895-46號","121.412166666667","25.0213166666667","6500500","新莊區"
"242061","353-BY","2018/06/23 20:09:32","新北市新莊區瓊林路118號","121.44233","25.02543","6500500","新莊區"
"242009","132-UY","2018/06/23 20:09:43","新北市新莊區昌盛街35巷3弄2號","121.454013333333","25.0506016666667","6500500","新莊區"
"242039","133-UY","2018/06/23 20:09:35","新北市新莊區民安西路109號","121.426805","25.01834","6500500","新莊區"
"242048","172-VK","2018/06/23 20:09:32","新北市新莊區四維路152巷27號","121.422068333333","25.0225083333333","6500500","新莊區"
"242056","173-VK","2018/06/23 20:09:26","新北市新莊區新莊路649巷15弄1號","121.445011666667","25.03152","6500500","新莊區"
"242017","175-VK","2018/06/23 20:09:46","新北市新莊區中港路340號","121.452006666667","25.0460333333333","6500500","新莊區"
"242004","176-VK","2018/06/23 20:09:35","新北市新莊區化成路554巷53號","121.467941666667","25.0541683333333","6500500","新莊區"
"242015","346-TH","2018/06/23 20:09:26","新北市新莊區中平路26巷52號","121.447263333333","25.0433633333333","6500500","新莊區"
"242011","347-TH","2018/06/23 20:09:42","新北市新莊區中信街50號","121.4494","25.0508366666667","6500500","新莊區"
"242021","348-TH","2018/06/23 20:09:42","新北市新莊區中興街9號","121.449236666667","25.0360783333333","6500500","新莊區"
"242002","349-TH","2018/06/23 20:09:25","新北市新莊區中正路149號","121.456201666667","25.0367683333333","6500500","新莊區"
"242019","350-TH","2018/06/23 20:09:38","新北市新莊區長青街35巷2號","121.456733333333","25.042185","6500500","新莊區"
"242013","351-TH","2018/06/23 20:09:28","新北市新莊區幸福路710巷5弄16號","121.449265","25.049805","6500500","新莊區"
"221008","489-VK","2018/06/23 20:09:30","台北市內湖區康樂街24號","121.618271666667","25.0684383333333","6501100","汐止區"
"221036","130-UY","2018/06/23 20:09:35","新北市汐止區新台五路二段43號","121.663291666667","25.0664166666667","6501100","汐止區"
"221015","131-UY","2018/06/23 20:09:41","新北市汐止區建成路50號","121.663826666667","25.0728433333333","6501100","汐止區"
"221010","269-BY","2018/06/23 20:09:40","新北市汐止區八連路一段267號","121.640488333333","25.0842583333333","6501100","汐止區"
"221012","278-VK","2018/06/23 20:09:36","新北市汐止區汐平路二段54號","121.69623","25.063775","6501100","汐止區"
"221023","279-VK","2018/06/23 20:09:34","新北市汐止區明峰街298巷10弄1號","121.624935","25.0690916666667","6501100","汐止區"
"221032","280-BY","2018/06/23 20:09:40","新北市汐止區弘道街9巷2弄1號","121.616986666667","25.04896","6501100","汐止區"
"221027","281-BY","2018/06/23 20:09:38","新北市汐止區光明街28號","121.660216666667","25.0687","6501100","汐止區"
"221029","298-VK","2018/06/23 20:09:41","新北市汐止區樟樹一路119巷8-6號","121.641303333333","25.064475","6501100","汐止區"
"221021","299-VK","2018/06/23 20:09:36","新北市汐止區莊敬街121號","121.65494","25.0609133333333","6501100","汐止區"
"221031","353-TW","2018/06/23 20:09:26","新北市汐止區福德二路106號","121.632131666667","25.06609","6501100","汐止區"
"221035","622-UM","2018/06/23 20:09:39","新北市汐止區長江街79巷2號","121.657163333333","25.0724883333333","6501100","汐止區"
"221025","623-UM","2018/06/23 20:09:36","新北市汐止區水源路一段231號","121.65433","25.0608733333333","6501100","汐止區"
"221038","646-BX","2018/06/23 20:09:40","新北市汐止區大同路三段66號","121.66798","25.0772083333333","6501100","汐止區"
"221033","647-BX","2018/06/23 20:09:25","新北市汐止區東勢街201巷129弄2號","121.633381666667","25.042745","6501100","汐止區"
"221018","753-BX","2018/06/23 20:09:44","新北市汐止區茄福街35巷29號","121.673275","25.06638","6501100","汐止區"
"220079","145-BY","2018/06/23 20:09:33","新北市板橋區南雅西路二段204號","121.451816666667","25.0148466666667","6500100","板橋區"
"220080","200-UY","2018/06/23 20:09:40","新北市板橋區大觀路二段179巷11號","121.44533","24.9999866666667","6500100","板橋區"
"220101","245-BX","2018/06/23 20:09:41","新北市板橋區雙十路二段47巷6號","121.476158333333","25.0261133333333","6500100","板橋區"
"220055","256-TC","2018/06/23 20:09:24","新北市板橋區仁愛路30號","121.45889","24.9993666666667","6500100","板橋區"
"220103","257-TC","2018/06/23 20:09:29","新北市板橋區陽明街251號","121.462726666667","25.02519","6500100","板橋區"
"220071","283-VK","2018/06/23 20:09:37","新北市中和區民德路386號","121.46557","24.99407","6500100","板橋區"
"220083","286-VK","2018/06/23 20:09:24","新北市板橋區大觀路一段38巷156弄177-1號","121.44416","25.0095383333333","6500100","板橋區"
"220081","287-VK","2018/06/23 20:09:33","新北市板橋區僑中一街124巷20弄33號","121.447488333333","25.0139083333333","6500100","板橋區"
"220090","288-VK","2018/06/23 20:09:40","新北市板橋區幸福路32巷2弄47號","121.460611666667","25.022265","6500100","板橋區"
"220061","293-UM","2018/06/23 20:09:42","新北市板橋區觀光街2-1號","121.472385","25.015375","6500100","板橋區"
"220092","307-R5","2018/06/23 20:09:44","新北市板橋區文化路一段109號","121.46155","25.014465","6500100","板橋區"
"220098","317-R6","2018/06/23 20:09:41","新北市板橋區新海路72巷5弄36號","121.461545","25.0231016666667","6500100","板橋區"
"242031","280-VK","2018/06/23 20:09:30","新北市新莊區中正路447號","121.443216666667","25.0341083333333","6500500","新莊區"
"220088","491-VK","2018/06/23 20:09:29","新北市板橋區民治街92號","121.479138333333","25.0317883333333","6500100","板橋區"
"220035","560-BX","2018/06/23 20:09:35","新北市板橋區新生街53巷3弄2號","121.457496666667","25.0215733333333","6500100","板橋區"
"220093","689-BX","2018/06/23 20:09:36","新北市板橋區長江路一段134號","121.460475","25.0300183333333","6500100","板橋區"
"220102","KEA-2699","2018/06/23 20:09:43","新北市板橋區民治街132號","121.477701666667","25.0308366666667","6500100","板橋區"
"220067","830-TW","2018/06/23 20:09:42","新北市板橋區中山路一段206巷34號","121.471085","25.0127883333333","6500100","板橋區"
"220089","833-TW","2018/06/23 20:09:25","新北市板橋區互助街35號","121.461378333333","25.02673","6500100","板橋區"
"220074","895-R6","2018/06/23 20:09:41","新北市板橋區館前西路109號","121.456893333333","25.0074033333333","6500100","板橋區"
"220097","AAC-210","2018/06/23 20:09:28","新北市板橋區光正街16巷34-1號","121.463548333333","25.01792","6500100","板橋區"
"220070","AAC-253","2018/06/23 20:09:32","新北市板橋區四川路二段245巷36號","121.451626666667","24.992675","6500100","板橋區"
"235068","KEA-2873","2018/06/23 20:09:30","新北市中和區福美路256巷16弄18號","121.498603333333","25.006055","6500300","中和區"
