"lineid","car","time","location","longitude","latitude","cityid","cityname"
"234007","207-UY","2018/06/23 20:19:41","新北市永和區環河西路二段219號","121.501375","25.010055","6500400","永和區"
"234081","298-R6","2018/06/23 20:19:34","新北市永和區福和路7巷10弄7號","121.524776666667","25.0075333333333","6500400","永和區"
"234036","336-UY","2018/06/23 20:19:40","新北市永和區成功路一段93巷18號","121.527791666667","25.0027516666667","6500400","永和區"
"234064","337-UY","2018/06/23 20:19:42","新北市永和區得和路120號","121.518661666667","25.000135","6500400","永和區"
"234086","338-UY","2018/06/23 20:19:43","新北市永和區永和路二段267號","121.51587","25.0154083333333","6500400","永和區"
"234070","552-UM","2018/06/23 20:19:44","新北市永和區福和路261號","121.51786","25.007235","6500400","永和區"
"234017","745-BX","2018/06/23 20:19:33","新北市永和區仁愛路38號","121.514323333333","25.013395","6500400","永和區"
"234030","746-BX","2018/06/23 20:19:27","新北市永和區民有街25巷10號","121.517426666667","24.996515","6500400","永和區"
"234054","KEA-2590","2018/06/23 20:19:43","新北市永和區光復街2巷16弄15號","121.517643333333","25.016425","6500400","永和區"
"234012","KEA-2591","2018/06/23 20:19:37","新北市永和區保生路40巷1號","121.505656666667","25.00826","6500400","永和區"
"234061","AAD-866","2018/06/23 20:19:44","新北市永和區安樂路166號","121.514411666667","25.0007433333333","6500400","永和區"
"234042","862-TW","2018/06/23 20:19:33","新北市永和區雙和街6巷2號","121.509923333333","25.0018216666667","6500400","永和區"
"234050","863-TW","2018/06/23 20:19:26","新北市永和區保安路21-1號","121.510395","25.0167116666667","6500400","永和區"
"249005","172-UM","2018/06/23 20:19:37","新北市八里區下罟子1-5號","121.388793333333","25.1420716666667","6502300","八里區"
"249001","173-UM","2018/06/23 20:19:37","新北市八里區中華路二段516號","121.399323333333","25.145175","6502300","八里區"
"249004","303-UY","2018/06/23 20:19:36","新北市八里區中山路一段131號","121.413351666667","25.1592433333333","6502300","八里區"
"249002","305-UY","2018/06/23 20:19:32","新北市八里區龍米路一段267號","121.44942","25.1381566666667","6502300","八里區"
"249003","593-UM","2018/06/23 20:19:31","新北市八里區中山路二段447巷16號","121.396815","25.1454416666667","6502300","八里區"
"248014","025-BX","2018/06/23 20:19:38","新北市八里區荖阡坑路15-66號","121.398655","25.13975","6501500","五股區"
"248012","247-BX","2018/06/23 20:19:33","新北市五股區民義路一段212號","121.430501666667","25.089445","6501500","五股區"
"248010","272-BY","2018/06/23 20:19:24","新北市五股區新五路二段2巷26-1號","121.43987","25.0679116666667","6501500","五股區"
"248004","655-BX","2018/06/23 20:19:45","新北市五股區成泰路一段153號","121.435261666667","25.07382","6501500","五股區"
"248002","678-BX","2018/06/23 20:19:41","新北市五股區成泰路三段165號","121.445216666667","25.0917616666667","6501500","五股區"
"234023","9380-KE","2018/06/23 20:19:36","新北市永和區中正路700號","121.516313333333","25.0098366666667","6500400","永和區"
"234077","969-R7","2018/06/23 20:19:31","新北市永和區民享街2巷1號","121.514881666667","24.9956916666667","6500400","永和區"
"234074","AAC-211","2018/06/23 20:19:36","新北市永和區豫溪街156號","121.522945","25.00976","6500400","永和區"
"234067","AAC-212","2018/06/23 20:19:33","新北市永和區保平路270號","121.508531666667","25.0051683333333","6500400","永和區"
"234003","AAC-295","2018/06/23 20:19:28","新北市永和區自強街22號","121.515281666667","25.0080333333333","6500400","永和區"
"244018","403-UM","2018/06/23 20:16:58","新北市林口區粉寮69號","121.404985","25.090855","6501700","林口區"
"243013","AAD-798","2018/06/23 20:19:36","新北市泰山區中央路1巷9號","121.427291666667","25.0439766666667","6501600","泰山區"
"243009","297-R6","2018/06/23 20:19:37","新北市泰山區福泰街15號","121.432816666667","25.060265","6501600","泰山區"
"243016","380-SR","2018/06/23 20:19:29","新北市泰山區明志路三段313號","121.422706666667","25.0363566666667","6501600","泰山區"
"243015","421-VK","2018/06/23 20:19:29","新北市泰山區同義街47巷30號","121.432653333333","25.05624","6501600","泰山區"
"243011","KEA-2215","2018/06/23 20:19:28","新北市新莊區丹鳳街36號","121.4216","25.0295483333333","6501600","泰山區"
"243010","KEA-2216","2018/06/23 20:19:25","新北市泰山區明志路二段246巷4號","121.426408333333","25.0483883333333","6501600","泰山區"
"243012","646-TV","2018/06/23 20:19:41","新北市泰山區楓江路81號","121.436753333333","25.0634883333333","6501600","泰山區"
"243014","680-BX","2018/06/23 20:19:42","新北市泰山區泰林路二段413號","121.426653333333","25.0642266666667","6501600","泰山區"
"222003","436-BY","2018/06/23 20:19:37","新北市深坑區文化街43號","121.617691666667","25.001775","6501800","深坑區"
"222002","659-BX","2018/06/23 20:19:27","新北市深坑區萬福路75巷46號","121.598308333333","25.009865","6501800","深坑區"
"231041","002-UM","2018/06/23 20:19:32","新北市新店區民權路39號","121.540598333333","24.9829183333333","6500600","新店區"
"231059","046-UY","2018/06/23 20:19:42","新北市新店區安成街38號","121.50989","24.96127","6500600","新店區"
"231040","047-UY","2018/06/23 20:19:33","新北市新店區三民路14號","121.539546666667","24.9723033333333","6500600","新店區"
"231044","106-UY","2018/06/23 20:19:35","新北市新店區北新路三段118號","121.541705","24.9817266666667","6500600","新店區"
"231052","108-UY","2018/06/23 20:19:30","新北市新店區松林路7號","121.547048333333","24.91134","6500600","新店區"
"231048","187-VK","2018/06/23 20:19:41","新北市新店區寶橋路98號","121.546883333333","24.9758933333333","6500600","新店區"
"231054","KEA-2219","2018/06/23 20:19:44","新北市新店區檳榔路109號","121.544466666667","24.9616783333333","6500600","新店區"
"231057","256-BX","2018/06/23 20:19:26","新北市新店區花園五路二段27號","121.554738333333","24.934715","6500600","新店區"
"231042","268-BY","2018/06/23 20:19:37","新北市新店區中興路二段100巷2號","121.547366666667","24.9714666666667","6500600","新店區"
"231051","278-BY","2018/06/23 20:19:33","新北市新店區溪園路465號","121.525386666667","24.9771133333333","6500600","新店區"
"231050","AAD-862","2018/06/23 20:19:30","新北市新店區中正路188號","121.540896666667","24.972285","6500600","新店區"
"231058","3713-VJ","2018/06/23 20:19:29","新北市新店區中正路360號","121.535483333333","24.9759083333333","6500600","新店區"
"231066","4716-K9","2018/06/23 20:19:30","新北市新店區安興路56號","121.516678333333","24.9747783333333","6500600","新店區"
"231056","4715-K9","2018/06/23 20:19:30","新北市新店區中正路328巷40號","121.53797","24.97629","6500600","新店區"
"231067","4772-VM","2018/06/23 20:19:32","新北市新店區安華路28-1號","121.51984","24.9607233333333","6500600","新店區"
"231065","512-UM","2018/06/23 20:19:28","新北市新店區安祥路104巷6弄36號","121.48311","24.9629566666667","6500600","新店區"
"231049","513-UM","2018/06/23 20:19:43","新北市新店區北新路二段19號","121.542768333333","24.9715883333333","6500600","新店區"
"231045","617-UM","2018/06/23 20:19:33","新北市新店區新坡一街16號","121.54848","24.961955","6500600","新店區"
"231061","619-UM","2018/06/23 20:19:44","新北市新店區安興路59號","121.516298333333","24.972215","6500600","新店區"
"231063","641-BX","2018/06/23 20:19:43","新北市新店區柴埕路116號","121.504316666667","24.9597916666667","6500600","新店區"
"231068","718-UY","2018/06/23 20:19:38","新北市新店區寶安街6巷2號","121.542276666667","24.9812783333333","6500600","新店區"
"231064","719-UM","2018/06/23 20:19:27","新北市新店區安利街30號","121.519098333333","24.9747383333333","6500600","新店區"
"231062","720-UM","2018/06/23 20:19:30","新北市新店區安泰路7巷16號","121.485671666667","24.9509633333333","6500600","新店區"
"231060","897-TW","2018/06/23 20:19:28","新北市新店區錦秀路11巷92弄2號","121.480288333333","24.9428183333333","6500600","新店區"
"231043","899-TW","2018/06/23 20:19:31","新北市新店區建國路133號","121.539343333333","24.9782483333333","6500600","新店區"
"231055","AKT-0513","2018/06/23 20:19:35","新北市新店區新明街11號","121.540936666667","24.9682766666667","6500600","新店區"
"241011","013-R5","2018/06/23 20:19:30","新北市三重區龍門路161號","121.498805","25.0730466666667","6500200","三重區"
"241028","022-UY","2018/06/23 20:19:41","新北市三重區大同南路70號","121.496061666667","25.0594733333333","6500200","三重區"
"241008","059-VK","2018/06/23 20:19:27","新北市三重區永福街211巷6號","121.479643333333","25.0741066666667","6500200","三重區"
"241022","060-VK","2018/06/23 20:19:40","新北市三重區新北大道一段50號","121.487676666667","25.0614233333333","6500200","三重區"
"241031","061-VK","2018/06/23 20:19:25","新北市三重區三寧街18號","121.489348333333","25.05982","6500200","三重區"
"241015","062-VK","2018/06/23 20:19:34","新北市三重區重新路一段128號","121.500258333333","25.0629283333333","6500200","三重區"
"241017","063-VK","2018/06/23 20:19:29","新北市三重區長壽西街168號","121.493283333333","25.06642","6500200","三重區"
"241024","065-VK","2018/06/23 20:19:36","新北市三重區忠孝路三段12號","121.481753333333","25.0673966666667","6500200","三重區"
"241026","066-VK","2018/06/23 20:19:44","新北市三重區重新路一段50號","121.502753333333","25.06379","6500200","三重區"
"241002","090-VK","2018/06/23 20:19:40","新北市三重區五華街1巷96號","121.497441666667","25.0804","6500200","三重區"
"241005","262-UM","2018/06/23 20:19:39","新北市三重區仁愛街506號","121.488251666667","25.0820966666667","6500200","三重區"
"241003","265-UM","2018/06/23 20:19:27","新北市三重區富華街69-2號","121.49133","25.0836133333333","6500200","三重區"
"241016","266-UM","2018/06/23 20:17:35","新北市三重區中正北路25巷2號","121.49305","25.0628216666667","6500200","三重區"
"241009","267-UM","2018/06/23 20:19:27","新北市三重區三和路四段382巷2-2號","121.481635","25.07858","6500200","三重區"
"241018","268-UM","2018/06/23 20:19:40","新北市三重區自強路一段155-1號","121.493626666667","25.067215","6500200","三重區"
"241032","269-UM","2018/06/23 20:19:32","新北市三重區捷運路19巷8弄11號","121.484448333333","25.05729","6500200","三重區"
"241013","270-UM","2018/06/23 20:19:28","新北市三重區溪尾街1號","121.491941666667","25.0740733333333","6500200","三重區"
"241025","271-UM","2018/06/23 20:19:43","新北市三重區自由街17巷16號","121.479926666667","25.06684","6500200","三重區"
"241007","398-BY","2018/06/23 20:19:42","新北市三重區溪尾街108巷50號","121.48747","25.0781883333333","6500200","三重區"
"241035","462-BY","2018/06/23 20:19:33","新北市三重區正義北路33巷55號","121.499173333333","25.0639316666667","6500200","三重區"
"241004","475-VK","2018/06/23 20:19:30","新北市三重區仁愛街390號","121.490828333333","25.0807533333333","6500200","三重區"
"241020","478-VK","2018/06/23 20:19:37","新北市三重區三和路四段20巷53號","121.489735","25.0737","6500200","三重區"
"241030","480-VK","2018/06/23 20:19:30","新北市三重區環河南路254巷53號","121.488046666667","25.0522233333333","6500200","三重區"
"241014","543-UM","2018/06/23 20:19:39","新北市三重區河邊北街96-1號","121.503978333333","25.0699433333333","6500200","三重區"
"241001","547-UM","2018/06/23 20:19:39","新北市三重區溪尾街42-7號","121.490636666667","25.0771","6500200","三重區"
"241019","KEA-2593","2018/06/23 20:19:43","新北市三重區忠孝路一段68號","121.490115","25.071775","6500200","三重區"
"241006","AAD-863","2018/06/23 20:19:33","新北市三重區車路頭街135-1號","121.484216666667","25.07618","6500200","三重區"
"241023","887-TS","2018/06/23 20:19:38","新北市三重區大有街1-10號","121.477583333333","25.0661116666667","6500200","三重區"
"241012","941-UM","2018/06/23 20:19:38","新北市三重區河邊北街379-1號","121.501728333333","25.076435","6500200","三重區"
"241029","942-UM","2018/06/23 20:19:33","新北市三重區重安街98號","121.492593333333","25.056265","6500200","三重區"
"241033","AAC-255","2018/06/23 20:19:39","新北市三重區五谷王北街50巷24號","121.475445","25.051395","6500200","三重區"
"235039","097-UM","2018/06/23 20:19:40","新北市中和區大勇街46巷2號","121.517383333333","24.9937783333333","6500300","中和區"
"235065","098-UM","2018/06/23 20:19:42","新北市中和區永和路128巷28號","121.497646666667","25.0068766666667","6500300","中和區"
"235050","4979-A6","2018/06/23 20:19:39","新北市中和區景平路466號","121.505685","24.9936433333333","6500300","中和區"
"235069","4980-A6","2018/06/23 20:19:46","新北市中和區圓通路198巷2弄3號","121.496291666667","24.9946566666667","6500300","中和區"
"235066","911-UM","2018/06/23 20:19:37","新北市中和區南工路102號","121.507296666667","25.0032483333333","6500300","中和區"
"235059","AAC-215","2018/06/23 20:19:40","新北市中和區員山路20-3號","121.483886666667","24.9836616666667","6500300","中和區"
"247024","893-R6","2018/06/23 20:19:38","新北市蘆洲區光榮路120巷8弄20號","121.464318333333","25.08782","6501400","蘆洲區"
"247014","546-UM","2018/06/23 20:19:45","新北市蘆洲區中山二路137巷15號","121.4722","25.0811766666667","6501400","蘆洲區"
"247022","500-BY","2018/06/23 20:19:25","新北市蘆洲區民族路455號","121.467533333333","25.0884733333333","6501400","蘆洲區"
"247010","341-TH","2018/06/23 20:19:27","新北市蘆洲區信義路188巷16號","121.480323333333","25.0845533333333","6501400","蘆洲區"
"247012","339-TH","2018/06/23 20:19:45","新北市蘆洲區中興街38號","121.481316666667","25.087145","6501400","蘆洲區"
"247006","336-TH","2018/06/23 20:19:33","新北市蘆洲區九芎街153巷4號","121.465206666667","25.0790016666667","6501400","蘆洲區"
"247018","057-VK","2018/06/23 20:19:40","新北市蘆洲區民族路408巷18-1號","121.475063333333","25.0921616666667","6501400","蘆洲區"
"247008","056-VK","2018/06/23 20:19:32","新北市蘆洲區集賢路240號","121.481971666667","25.0857216666667","6501400","蘆洲區"
"247004","053-VK","2018/06/23 20:19:29","新北市蘆洲區長安街297號","121.458115","25.0848383333333","6501400","蘆洲區"
"247016","007-UY","2018/06/23 20:19:28","新北市蘆洲區光華路132巷23號","121.465678333333","25.08341","6501400","蘆洲區"
"247002","002-UY","2018/06/23 20:19:30","新北市蘆洲區長安街331巷11號","121.45609","25.0864983333333","6501400","蘆洲區"
"247020","001-UY","2018/06/23 20:19:41","新北市蘆洲區仁愛街61號","121.471776666667","25.093425","6501400","蘆洲區"
"224010","AGQ-8101","2018/06/23 20:17:56","新北市瑞芳區金光路334號","121.848556666667","25.1102283333333","6501200","瑞芳區"
"224002","639-TC","2018/06/23 20:19:30","新北市瑞芳區明燈路一段215號","121.818326666667","25.1080566666667","6501200","瑞芳區"
"222001","KEA-2212","2018/06/23 20:19:39","新北市深坑區北深路三段205號","121.600708333333","25.0036983333333","6501800","深坑區"
"251004","009-UM","2018/06/23 20:19:35","新北市淡水區民生路124巷30號","121.464131666667","25.1375566666667","6501000","淡水區"
"251002","012-UM","2018/06/23 20:19:44","新北市淡水區中正路90-3號","121.442381666667","25.1695983333333","6501000","淡水區"
"251013","KEA-2871","2018/06/23 20:19:26","新北市淡水區相公山1-3號","121.474131666667","25.2066933333333","6501000","淡水區"
"251016","179-VK","2018/06/23 20:19:40","新北市淡水區淡金路四段660號","121.452533333333","25.2320466666667","6501000","淡水區"
"251014","180-VK","2018/06/23 20:19:34","新北市淡水區石頭厝1號","121.45872","25.2355433333333","6501000","淡水區"
"251008","181-VK","2018/06/23 20:19:44","新北市淡水區淡海路180巷13號","121.421131666667","25.18468","6501000","淡水區"
"251015","182-VK","2018/06/23 20:19:30","新北市淡水區淡金路三段419號","121.449218333333","25.2092666666667","6501000","淡水區"
"251010","413-VK","2018/06/23 20:19:41","新北市淡水區新民街一段134號","121.427625","25.18888","6501000","淡水區"
"251012","441-VK","2018/06/23 20:19:40","新北市淡水區淡金路三段426號","121.450451666667","25.21178","6501000","淡水區"
"251001","559-UM","2018/06/23 20:19:29","新北市淡水區新市二路四段265號","121.445903333333","25.1924783333333","6501000","淡水區"
"251006","561-UM","2018/06/23 20:19:40","新北市淡水區淡金路一段571號","121.452608333333","25.1805183333333","6501000","淡水區"
"251003","673-BX","2018/06/23 20:19:35","新北市淡水區中山北路一段229號","121.44447","25.1794883333333","6501000","淡水區"
"207004","225-TW","2018/06/23 20:19:43","新北市萬里區北基里仁二街1號","121.682486666667","25.1755566666667","6502800","萬里區"
"252002","178-VK","2018/06/23 20:19:38","新北市三芝區中正路一段37號","121.503178333333","25.258385","6502100","三芝區"
"252001","292-VK","2018/06/23 20:19:43","新北市三芝區中山路一段14號","121.500735","25.2581066666667","6502100","三芝區"
"237006","5529-G3","2018/06/23 20:19:39","新北市三峽區嘉添16號","121.368583333333","24.9119716666667","6500900","三峽區"
"236070","105-UM","2018/06/23 20:19:38","新北市土城區福安街52巷4號","121.418345","24.9654033333333","6501300","土城區"
"236030","253-BX","2018/06/23 20:19:26","新北市土城區學成路128巷11號","121.449481666667","24.99013","6501300","土城區"
"236026","269-VK","2018/06/23 20:19:42","新北市土城區裕生路82巷4號","121.44721","24.98577","6501300","土城區"
"236014","270-VK","2018/06/23 20:19:38","新北市土城區廣明街90巷18號","121.455478333333","24.9944933333333","6501300","土城區"
"236006","498-BY","2018/06/23 20:19:40","新北市土城區永平街51號","121.427563333333","24.9591183333333","6501300","土城區"
"236059","912-UM","2018/06/23 20:19:46","新北市土城區中央路三段38號","121.438518333333","24.96891","6501300","土城區"
"242034","AAC-296","2018/06/23 20:19:32","新北市新莊區建中街116巷3弄2號","121.44551","25.037145","6500500","新莊區"
"242058","986-R7","2018/06/23 20:19:36","新北市新莊區龍安路288-1號","121.422528333333","25.0191","6500500","新莊區"
"242053","751-BX","2018/06/23 20:19:32","新北市新莊區民安西路270號","121.426106666667","25.0129333333333","6500500","新莊區"
"242023","705-TV","2018/06/23 20:19:42","新北市新莊區化成路830號","121.464876666667","25.0601033333333","6500500","新莊區"
"242027","615-BX","2018/06/23 20:19:30","新北市新莊區幸福路550號","121.454963333333","25.04938","6500500","新莊區"
"242025","613-BX","2018/06/23 20:19:44","新北市新莊區五工二路86巷23號","121.460108333333","25.0670066666667","6500500","新莊區"
"242029","612-BX","2018/06/23 20:19:33","新北市新莊區中華路二段187號","121.452391666667","25.05243","6500500","新莊區"
"242042","566-BX","2018/06/23 20:19:24","新北市新莊區壽山路45號","121.414821666667","25.031045","6500500","新莊區"
"242046","497-BY","2018/06/23 20:19:41","新北市新莊區中正路新生巷37號","121.417261666667","25.0234483333333","6500500","新莊區"
"242051","441-UM","2018/06/23 20:19:35","新北市新莊區民安西路212巷3弄2號","121.42516","25.0148633333333","6500500","新莊區"
"242036","415-TV","2018/06/23 20:19:44","新北市新莊區建安街76巷3弄2號","121.42618","25.02493","6500500","新莊區"
"242007","413-TV","2018/06/23 20:19:42","新北市新莊區福壽街124巷34弄2號","121.459181666667","25.0512466666667","6500500","新莊區"
"242044","400-BY","2018/06/23 20:19:41","新北市新莊區中正路新建巷28弄18號","121.413691666667","25.0214783333333","6500500","新莊區"
"242061","353-BY","2018/06/23 20:19:41","新北市新莊區新樹路210號","121.433861666667","25.02031","6500500","新莊區"
"242009","132-UY","2018/06/23 20:19:35","新北市新莊區昌隆街63號","121.455106666667","25.0511333333333","6500500","新莊區"
"242039","133-UY","2018/06/23 20:19:35","新北市新莊區成功街72號","121.424221666667","25.0191916666667","6500500","新莊區"
"242048","172-VK","2018/06/23 20:19:32","新北市新莊區龍安路226號","121.420386666667","25.0198216666667","6500500","新莊區"
"242056","173-VK","2018/06/23 20:19:46","新北市新莊區豐年街20巷5號","121.445998333333","25.0324583333333","6500500","新莊區"
"242017","175-VK","2018/06/23 20:19:26","新北市新莊區中港一街131號","121.448275","25.04508","6500500","新莊區"
"242004","176-VK","2018/06/23 20:19:40","新北市新莊區化成路748號","121.465775","25.05774","6500500","新莊區"
"242015","346-TH","2018/06/23 20:18:59","新北市新莊區永樂街228號","121.446386666667","25.0443966666667","6500500","新莊區"
"242011","347-TH","2018/06/23 20:19:42","新北市新莊區中信街21號","121.451068333333","25.0506416666667","6500500","新莊區"
"242021","348-TH","2018/06/23 20:19:42","新北市新莊區和興街25號","121.44734","25.03945","6500500","新莊區"
"242002","349-TH","2018/06/23 20:19:25","新北市三重區重新路五段652號","121.467945","25.044055","6500500","新莊區"
"242019","350-TH","2018/06/23 20:19:32","新北市新莊區復興路二段196巷1號","121.459466666667","25.04415","6500500","新莊區"
"242013","351-TH","2018/06/23 20:19:28","新北市新莊區中和街155巷24弄30號","121.446666666667","25.051015","6500500","新莊區"
"221008","489-VK","2018/06/23 20:19:30","新北市汐止區康寧街480號","121.632216666667","25.068385","6501100","汐止區"
"221036","130-UY","2018/06/23 20:19:35","新北市汐止區福安街61巷18號","121.665173333333","25.0635583333333","6501100","汐止區"
"221015","131-UY","2018/06/23 20:19:39","新北市汐止區建成路142巷19弄12號","121.662068333333","25.07396","6501100","汐止區"
"221010","269-BY","2018/06/23 20:19:40","新北市汐止區八連路二段494號","121.628978333333","25.1061833333333","6501100","汐止區"
"221012","278-VK","2018/06/23 20:19:36","新北市汐止區保新街275號","121.692273333333","25.0685566666667","6501100","汐止區"
"221023","279-VK","2018/06/23 20:19:34","新北市汐止區湖前街110巷2弄18號","121.632191666667","25.071845","6501100","汐止區"
"221032","280-BY","2018/06/23 20:19:39","新北市汐止區弘道街53巷2號","121.618715","25.0483766666667","6501100","汐止區"
"221027","281-BY","2018/06/23 20:19:38","新北市汐止區大同路二段374號","121.657865","25.067205","6501100","汐止區"
"221029","298-VK","2018/06/23 20:19:41","新北市汐止區工建路98號","121.63949","25.0635716666667","6501100","汐止區"
"221021","299-VK","2018/06/23 20:19:29","新北市汐止區水源路一段286號","121.65413","25.0582083333333","6501100","汐止區"
"221031","353-TW","2018/06/23 20:19:46","新北市汐止區中興路150巷13號","121.633021666667","25.065025","6501100","汐止區"
"221035","622-UM","2018/06/23 20:19:39","新北市汐止區長江街101-5號","121.6587","25.0731966666667","6501100","汐止區"
"221025","623-UM","2018/06/23 20:19:36","新北市汐止區水源路二段34號","121.654868333333","25.05724","6501100","汐止區"
"221038","646-BX","2018/06/23 20:19:40","新北市汐止區忠孝東路479號","121.66608","25.073235","6501100","汐止區"
"221033","647-BX","2018/06/23 20:19:25","新北市汐止區東勢街201巷104號","121.633531666667","25.0428966666667","6501100","汐止區"
"221018","753-BX","2018/06/23 20:19:24","新北市汐止區大同路三段264號","121.67514","25.0688966666667","6501100","汐止區"
"220101","245-BX","2018/06/23 20:19:41","新北市板橋區萬板路820號","121.483565","25.0274583333333","6500100","板橋區"
"220103","257-TC","2018/06/23 20:19:29","新北市板橋區漢生西路26號","121.463611666667","25.01816","6500100","板橋區"
"220083","286-VK","2018/06/23 20:19:24","新北市板橋區僑中二街100巷22-4號","121.445066666667","25.0086516666667","6500100","板橋區"
"220081","287-VK","2018/06/23 20:19:33","新北市板橋區僑中一街80巷7弄19號","121.446921666667","25.0128033333333","6500100","板橋區"
"220061","293-UM","2018/06/23 20:19:42","新北市板橋區四川路一段212號","121.459375","25.0020966666667","6500100","板橋區"
"242031","280-VK","2018/06/23 20:19:34","新北市新莊區三和路13-6號","121.439025","25.0361133333333","6500500","新莊區"
"220088","491-VK","2018/06/23 20:19:28","新北市新莊區化成路565號","121.464863333333","25.0660683333333","6500100","板橋區"
"220102","KEA-2699","2018/06/23 20:19:28","新北市板橋區漢生東路45號","121.465643333333","25.016715","6500100","板橋區"
"220089","833-TW","2018/06/23 20:19:45","新北市板橋區四維路137巷1弄1號","121.464868333333","25.0251516666667","6500100","板橋區"
"220074","895-R6","2018/06/23 20:19:41","新北市土城區城林路6巷51號","121.43668","24.977165","6500100","板橋區"
"220097","AAC-210","2018/06/23 20:19:28","新北市板橋區復興街128號","121.460935","25.0178733333333","6500100","板橋區"
"220070","AAC-253","2018/06/23 20:19:32","新北市板橋區華東街300號","121.452713333333","25.002845","6500100","板橋區"
"235068","KEA-2873","2018/06/23 20:19:31","新北市中和區福美路267號","121.498306666667","25.0051","6500300","中和區"
