"lineid","car","time","location","longitude","latitude","cityid","cityname"
"234081","298-R6","2018/06/23 20:29:34","新北市永和區福和路174號","121.52094","25.0077433333333","6500400","永和區"
"234036","336-UY","2018/06/23 20:29:40","新北市永和區民樂街31巷6弄14號","121.52892","25.0015566666667","6500400","永和區"
"234064","337-UY","2018/06/23 20:29:42","新北市永和區中正路528號","121.517241666667","25.00508","6500400","永和區"
"234070","552-UM","2018/06/23 20:29:32","新北市永和區永亨路7號","121.519368333333","25.00568","6500400","永和區"
"234030","746-BX","2018/06/23 20:29:27","新北市永和區民族街81巷28號","121.519046666667","24.99659","6500400","永和區"
"234054","KEA-2590","2018/06/23 20:29:23","新北市永和區環河東路一段42號","121.518768333333","25.0169966666667","6500400","永和區"
"234061","AAD-866","2018/06/23 20:29:44","新北市永和區安樂路194巷19號","121.515906666667","25.001085","6500400","永和區"
"234042","862-TW","2018/06/23 20:29:32","新北市永和區安樂路248-2號","121.514605","25.003475","6500400","永和區"
"234050","863-TW","2018/06/23 20:29:46","新北市永和區新生路175號","121.507041666667","25.0144966666667","6500400","永和區"
"249001","173-UM","2018/06/23 20:29:32","新北市八里區下罟子5-11號","121.386911666667","25.1422766666667","6502300","八里區"
"249004","303-UY","2018/06/23 20:29:36","新北市八里區中山路一段129巷29號","121.414053333333","25.1585633333333","6502300","八里區"
"249002","305-UY","2018/06/23 20:29:32","新北市八里區龍米路二段125巷2號","121.44642","25.1450166666667","6502300","八里區"
"249003","593-UM","2018/06/23 20:29:31","新北市八里區華峰一街39號","121.398863333333","25.14615","6502300","八里區"
"248004","655-BX","2018/06/23 20:29:25","新北市五股區中興路四段23號","121.43893","25.0826383333333","6501500","五股區"
"248002","678-BX","2018/06/23 20:29:41","新北市五股區成泰路三段43-7號","121.442445","25.0890466666667","6501500","五股區"
"234023","9380-KE","2018/06/23 20:29:36","新北市永和區永和路二段239-1號","121.515706666667","25.0145966666667","6500400","永和區"
"234077","969-R7","2018/06/23 20:29:31","新北市中和區景新街568-1號","121.514605","24.9866","6500400","永和區"
"234074","AAC-211","2018/06/23 20:29:36","新北市永和區豫溪街191巷7弄13號","121.523423333333","25.0107783333333","6500400","永和區"
"234067","AAC-212","2018/06/23 20:29:38","新北市永和區保平路292巷13弄6號","121.507138333333","25.0053366666667","6500400","永和區"
"234003","AAC-295","2018/06/23 20:29:46","新北市永和區大新街63巷1號","121.516263333333","25.0083333333333","6500400","永和區"
"244018","403-UM","2018/06/23 20:16:58","新北市林口區粉寮69號","121.404985","25.090855","6501700","林口區"
"243013","AAD-798","2018/06/23 20:29:44","新北市泰山區明志路三段31號","121.42487","25.04296","6501600","泰山區"
"243009","297-R6","2018/06/23 20:29:41","新北市泰山區忠孝街16巷15號","121.4281","25.0650616666667","6501600","泰山區"
"243016","380-SR","2018/06/23 20:29:29","新北市泰山區明志路二段382號","121.425386666667","25.0445683333333","6501600","泰山區"
"243015","421-VK","2018/06/23 20:29:29","新北市泰山區泰林路二段232號","121.43242","25.0620183333333","6501600","泰山區"
"243011","KEA-2215","2018/06/23 20:29:28","新北市泰山區德安街24號","121.418548333333","25.0313866666667","6501600","泰山區"
"243010","KEA-2216","2018/06/23 20:29:25","新北市泰山區明志路二段273巷16弄2號","121.427916666667","25.0472716666667","6501600","泰山區"
"243012","646-TV","2018/06/23 20:29:41","新北市泰山區泰林路二段364號","121.428748333333","25.0637433333333","6501600","泰山區"
"243014","680-BX","2018/06/23 20:29:32","新北市泰山區泰林路三段272號","121.413821666667","25.06803","6501600","泰山區"
"222003","436-BY","2018/06/23 20:29:37","新北市深坑區深坑街47號","121.615356666667","25.0018466666667","6501800","深坑區"
"222002","659-BX","2018/06/23 20:29:27","新北市深坑區萬福路16巷49號","121.611113333333","25.008585","6501800","深坑區"
"231041","002-UM","2018/06/23 20:29:32","新北市新店區中正路524號","121.533726666667","24.9838416666667","6500600","新店區"
"231059","046-UY","2018/06/23 20:29:39","新北市新店區安康路二段217號","121.508728333333","24.9588166666667","6500600","新店區"
"231040","047-UY","2018/06/23 20:29:33","新北市新店區中正路327號","121.536251666667","24.9751916666667","6500600","新店區"
"231044","106-UY","2018/06/23 20:29:35","新北市新店區建國路189號","121.538041666667","24.9797583333333","6500600","新店區"
"231052","108-UY","2018/06/23 20:29:30","新北市新店區松林路38號","121.546315","24.9102583333333","6500600","新店區"
"231048","187-VK","2018/06/23 20:29:41","新北市新店區寶慶街58巷21-1號","121.542","24.9873133333333","6500600","新店區"
"231054","KEA-2219","2018/06/23 20:29:44","新北市新店區檳榔路109號","121.544398333333","24.9616816666667","6500600","新店區"
"231057","256-BX","2018/06/23 20:29:26","新北市新店區花園五路二段3號","121.553571666667","24.9341833333333","6500600","新店區"
"231042","268-BY","2018/06/23 20:29:34","新北市新店區寶橋路99號","121.547625","24.9764866666667","6500600","新店區"
"231051","278-BY","2018/06/23 20:29:42","新北市新店區中央七街34號","121.5292","24.9755183333333","6500600","新店區"
"231050","AAD-862","2018/06/23 20:29:30","新北市新店區建興街9巷11號","121.539865","24.976265","6500600","新店區"
"231058","3713-VJ","2018/06/23 20:29:29","新北市新店區三民路98-5號","121.534201666667","24.9732483333333","6500600","新店區"
"231066","4716-K9","2018/06/23 20:29:30","新北市新店區安民街365巷1弄8號","121.51633","24.975245","6500600","新店區"
"231056","4715-K9","2018/06/23 20:29:31","新北市新店區民生路75巷225-1號","121.533133333333","24.981195","6500600","新店區"
"231067","4772-VM","2018/06/23 20:29:32","新北市新店區安華路28-1號","121.519856666667","24.9606933333333","6500600","新店區"
"231065","512-UM","2018/06/23 20:29:28","新北市新店區安祥路102巷42弄35號","121.485196666667","24.9634416666667","6500600","新店區"
"231049","513-UM","2018/06/23 20:29:23","新北市新店區華潭街52號","121.528985","24.955135","6500600","新店區"
"231045","617-UM","2018/06/23 20:29:33","新北市新店區長春路21巷2號","121.548608333333","24.9569416666667","6500600","新店區"
"231061","619-UM","2018/06/23 20:29:44","新北市新店區安興路141號","121.516486666667","24.9793","6500600","新店區"
"231063","641-BX","2018/06/23 20:29:24","新北市新店區玫瑰路4-1號","121.493476666667","24.951435","6500600","新店區"
"231068","718-UY","2018/06/23 20:29:38","新北市新店區寶元路一段65號","121.542218333333","24.9858466666667","6500600","新店區"
"231064","719-UM","2018/06/23 20:29:27","新北市新店區安和路三段99號","121.51783","24.9843333333333","6500600","新店區"
"231062","720-UM","2018/06/23 20:29:41","新北市新店區安泰路60巷55弄131號","121.48435","24.9468933333333","6500600","新店區"
"231060","897-TW","2018/06/23 20:29:28","新北市新店區錦秀路48號","121.479055","24.9434083333333","6500600","新店區"
"231043","899-TW","2018/06/23 20:29:31","新北市新店區建國路129號","121.539628333333","24.9780616666667","6500600","新店區"
"241011","013-R5","2018/06/23 20:29:30","新北市三重區龍門路70號","121.496856666667","25.0725616666667","6500200","三重區"
"241028","022-UY","2018/06/23 20:29:41","新北市三重區光興街89號","121.497438333333","25.0599583333333","6500200","三重區"
"241008","059-VK","2018/06/23 20:29:27","新北市三重區下竹圍街42-1號","121.481033333333","25.07492","6500200","三重區"
"241022","060-VK","2018/06/23 20:29:39","新北市三重區中正北路20巷12號","121.487956666667","25.062495","6500200","三重區"
"241031","061-VK","2018/06/23 20:29:25","新北市三重區三寧街18號","121.489333333333","25.0598566666667","6500200","三重區"
"241015","062-VK","2018/06/23 20:29:34","新北市三重區長元街2-2號","121.498743333333","25.0658716666667","6500200","三重區"
"241017","063-VK","2018/06/23 20:29:29","新北市三重區自強路一段288號","121.491591666667","25.0682216666667","6500200","三重區"
"241024","065-VK","2018/06/23 20:29:36","新北市三重區三民街258號","121.479341666667","25.067805","6500200","三重區"
"241026","066-VK","2018/06/23 20:29:24","新北市三重區福德南路24巷2-5號","121.503355","25.0632183333333","6500200","三重區"
"241002","090-VK","2018/06/23 20:29:40","新北市三重區仁義街211巷25號","121.497703333333","25.0822683333333","6500200","三重區"
"241005","262-UM","2018/06/23 20:29:39","新北市三重區五華街133號","121.491176666667","25.0844733333333","6500200","三重區"
"241003","265-UM","2018/06/23 20:29:27","新北市三重區富華街159號","121.493218333333","25.084935","6500200","三重區"
"241016","266-UM","2018/06/23 20:29:35","新北市三重區正義北路105號","121.496906666667","25.0655433333333","6500200","三重區"
"241009","267-UM","2018/06/23 20:29:27","新北市三重區永福街60號","121.48106","25.077885","6500200","三重區"
"241018","268-UM","2018/06/23 20:29:40","新北市三重區正義北路222號","121.49601","25.0677383333333","6500200","三重區"
"241032","269-UM","2018/06/23 20:29:32","新北市三重區重陽路一段120巷35號","121.485085","25.0601666666667","6500200","三重區"
"241013","270-UM","2018/06/23 20:29:28","新北市三重區溪尾街5巷22號","121.49246","25.0745783333333","6500200","三重區"
"241025","271-UM","2018/06/23 20:29:23","新北市三重區頂崁街210巷27號","121.47576","25.0681466666667","6500200","三重區"
"241007","398-BY","2018/06/23 20:29:30","新北市三重區自強路四段32-2號","121.489036666667","25.0770866666667","6500200","三重區"
"241035","462-BY","2018/06/23 20:29:32","新北市三重區正義北路106號","121.496915","25.0650916666667","6500200","三重區"
"241004","475-VK","2018/06/23 20:29:30","新北市三重區溪尾街210號","121.48809","25.0812683333333","6500200","三重區"
"241020","478-VK","2018/06/23 20:29:37","新北市三重區明德街61號","121.491981666667","25.072195","6500200","三重區"
"241030","480-VK","2018/06/23 20:29:30","新北市三重區成功路62號","121.488586666667","25.05096","6500200","三重區"
"241014","543-UM","2018/06/23 20:29:39","新北市三重區長興街96號","121.501731666667","25.0691916666667","6500200","三重區"
"241001","547-UM","2018/06/23 20:29:19","新北市三重區三和路四段160巷81號","121.485593333333","25.074925","6500200","三重區"
"241019","KEA-2593","2018/06/23 20:29:43","新北市三重區重陽路四段77號","121.492555","25.0709483333333","6500200","三重區"
"241006","AAD-863","2018/06/23 20:29:33","新北市三重區車路頭街139巷12號","121.484246666667","25.0763416666667","6500200","三重區"
"241023","887-TS","2018/06/23 20:29:44","新北市三重區自由街17巷1號","121.479886666667","25.0666133333333","6500200","三重區"
"241012","941-UM","2018/06/23 20:29:38","新北市三重區龍濱路269號","121.501396666667","25.0730766666667","6500200","三重區"
"241029","942-UM","2018/06/23 20:29:33","新北市三重區集美街112巷25號","121.48999","25.0542483333333","6500200","三重區"
"241033","AAC-255","2018/06/23 20:29:39","新北市三重區五谷王北街80巷48號","121.475018333333","25.0525616666667","6500200","三重區"
"235039","097-UM","2018/06/23 20:29:40","新北市中和區大勇街29巷14號","121.515806666667","24.9946116666667","6500300","中和區"
"235050","4979-A6","2018/06/23 20:29:39","新北市中和區景平路385巷9弄1號","121.502318333333","24.994185","6500300","中和區"
"235069","4980-A6","2018/06/23 20:29:26","新北市中和區中正路440號","121.491061666667","24.99421","6500300","中和區"
"235066","911-UM","2018/06/23 20:29:37","新北市中和區保平路362巷13號","121.505778333333","25.00392","6500300","中和區"
"235059","AAC-215","2018/06/23 20:29:43","新北市中和區員山路45巷18號","121.48116","24.99159","6500300","中和區"
"247024","893-R6","2018/06/23 20:29:38","新北市蘆洲區光復路69號","121.464168333333","25.0855716666667","6501400","蘆洲區"
"247014","546-UM","2018/06/23 20:29:45","新北市蘆洲區中山二路104號","121.472386666667","25.0817716666667","6501400","蘆洲區"
"247022","500-BY","2018/06/23 20:29:25","新北市蘆洲區中正路222號","121.466263333333","25.0887783333333","6501400","蘆洲區"
"247010","341-TH","2018/06/23 20:29:27","新北市蘆洲區集賢路300號","121.481485","25.08523","6501400","蘆洲區"
"247012","339-TH","2018/06/23 20:29:45","新北市蘆洲區復興路233號","121.480183333333","25.0898133333333","6501400","蘆洲區"
"247006","336-TH","2018/06/23 20:29:33","新北市蘆洲區光華路175巷62號","121.465716666667","25.0806816666667","6501400","蘆洲區"
"247018","057-VK","2018/06/23 20:29:40","新北市蘆洲區民族路327巷30號","121.474265","25.0909783333333","6501400","蘆洲區"
"247008","056-VK","2018/06/23 20:29:33","新北市蘆洲區永安北路二段76巷22號","121.48277","25.0853916666667","6501400","蘆洲區"
"247004","053-VK","2018/06/23 20:29:29","新北市蘆洲區長安街222號","121.458081666667","25.084955","6501400","蘆洲區"
"247016","007-UY","2018/06/23 20:29:33","新北市蘆洲區光華路23-1號","121.469401666667","25.08325","6501400","蘆洲區"
"247002","002-UY","2018/06/23 20:29:30","新北市蘆洲區環堤大道134號","121.455708333333","25.0880383333333","6501400","蘆洲區"
"247020","001-UY","2018/06/23 20:29:41","新北市蘆洲區仁愛街132號","121.469135","25.09441","6501400","蘆洲區"
"222001","KEA-2212","2018/06/23 20:29:39","新北市深坑區北深路三段345號","121.59721","25.0052333333333","6501800","深坑區"
"251002","012-UM","2018/06/23 20:29:24","新北市淡水區中正路38-1號","121.443678333333","25.1693583333333","6501000","淡水區"
"251013","KEA-2871","2018/06/23 20:29:26","新北市淡水區後坑子7號","121.463746666667","25.205375","6501000","淡水區"
"251016","179-VK","2018/06/23 20:29:40","新北市淡水區後洲子8-2號","121.449663333333","25.2240283333333","6501000","淡水區"
"251014","180-VK","2018/06/23 20:29:33","新北市淡水區石頭厝2-7號","121.459755","25.2363833333333","6501000","淡水區"
"251008","181-VK","2018/06/23 20:29:44","新北市淡水區淡海路189巷10號","121.419796666667","25.1844716666667","6501000","淡水區"
"251015","182-VK","2018/06/23 20:29:30","新北市淡水區淡金路四段542巷17號","121.452708333333","25.2271066666667","6501000","淡水區"
"251010","413-VK","2018/06/23 20:29:41","新北市淡水區沙崙路181巷15號","121.423948333333","25.184365","6501000","淡水區"
"251012","441-VK","2018/06/23 20:29:40","新北市淡水區興仁路108號","121.451658333333","25.2181633333333","6501000","淡水區"
"251001","559-UM","2018/06/23 20:29:29","新北市淡水區淡金路二段30號","121.452106666667","25.1811233333333","6501000","淡水區"
"251006","561-UM","2018/06/23 20:29:44","新北市淡水區商工路296號","121.460915","25.1862633333333","6501000","淡水區"
"251003","673-BX","2018/06/23 20:29:35","新北市淡水區新生街108巷1-2號","121.440203333333","25.174755","6501000","淡水區"
"252002","178-VK","2018/06/23 20:29:38","新北市三芝區淡金路二段47-1號","121.503586666667","25.2605283333333","6502100","三芝區"
"252001","292-VK","2018/06/23 20:29:23","新北市三芝區中山路一段14號","121.500741666667","25.2580466666667","6502100","三芝區"
"236006","498-BY","2018/06/23 20:29:40","新北市土城區永平街51號","121.427581666667","24.9591116666667","6501300","土城區"
"242034","AAC-296","2018/06/23 20:29:41","新北市新莊區新泰路198號","121.44711","25.0383816666667","6500500","新莊區"
"242058","986-R7","2018/06/23 20:29:42","新北市新莊區四維路206號","121.42164","25.020145","6500500","新莊區"
"242053","751-BX","2018/06/23 20:29:32","新北市新莊區西盛街367號","121.427963333333","25.013685","6500500","新莊區"
"242023","705-TV","2018/06/23 20:29:42","新北市新莊區化成路493-2號","121.464875","25.0629266666667","6500500","新莊區"
"242027","615-BX","2018/06/23 20:29:30","新北市新莊區思源路309號","121.459865","25.0490066666667","6500500","新莊區"
"242025","613-BX","2018/06/23 20:29:05","新北市新莊區五工三路62巷7號","121.459936666667","25.0647083333333","6500500","新莊區"
"242029","612-BX","2018/06/23 20:29:27","新北市新莊區昌隆街3巷1弄2號","121.454058333333","25.0514333333333","6500500","新莊區"
"242042","566-BX","2018/06/23 20:29:25","新北市新莊區天祥街54巷2弄1號","121.416648333333","25.029175","6500500","新莊區"
"242046","497-BY","2018/06/23 20:29:43","新北市新莊區中正路新雅巷2弄20號","121.417685","25.02484","6500500","新莊區"
"242051","441-UM","2018/06/23 20:29:34","新北市新莊區民安西路252巷14號","121.425313333333","25.0136416666667","6500500","新莊區"
"242036","415-TV","2018/06/23 20:29:44","新北市新莊區後港一路76巷10弄2號","121.427073333333","25.0260783333333","6500500","新莊區"
"242007","413-TV","2018/06/23 20:29:41","新北市新莊區思源路333號","121.459695","25.0497533333333","6500500","新莊區"
"242044","400-BY","2018/06/23 20:29:41","新北市新莊區中正路891-46號","121.413618333333","25.0228333333333","6500500","新莊區"
"242061","353-BY","2018/06/23 20:29:28","新北市新莊區新樹路244巷55號","121.43122","25.019255","6500500","新莊區"
"242009","132-UY","2018/06/23 20:29:35","新北市新莊區昌隆街74號","121.455455","25.0508566666667","6500500","新莊區"
"242039","133-UY","2018/06/23 20:29:35","新北市新莊區成功街3號","121.425833333333","25.0219716666667","6500500","新莊區"
"242048","172-VK","2018/06/23 20:29:32","新北市新莊區富國路62號","121.419631666667","25.0260366666667","6500500","新莊區"
"242056","173-VK","2018/06/23 20:29:26","新北市新莊區瓊泰路152號","121.443176666667","25.0323966666667","6500500","新莊區"
"242017","175-VK","2018/06/23 20:29:26","新北市新莊區中港三街7號","121.451133333333","25.0464033333333","6500500","新莊區"
"242004","176-VK","2018/06/23 20:29:29","新北市新莊區化成路371巷23號","121.463786666667","25.057","6500500","新莊區"
"242015","346-TH","2018/06/23 20:29:44","新北市新莊區中平路46巷2號","121.445","25.0437733333333","6500500","新莊區"
"242011","347-TH","2018/06/23 20:29:42","新北市新莊區中信街56號","121.449131666667","25.0510666666667","6500500","新莊區"
"242021","348-TH","2018/06/23 20:29:43","新北市新莊區公園路78號","121.450085","25.0397366666667","6500500","新莊區"
"242002","349-TH","2018/06/23 20:29:45","新北市新莊區中正路48-2號","121.463948333333","25.0410366666667","6500500","新莊區"
"242019","350-TH","2018/06/23 20:29:31","新北市新莊區銘德街49巷4弄2號","121.457191666667","25.0431983333333","6500500","新莊區"
"242013","351-TH","2018/06/23 20:29:28","新北市新莊區中和街191巷1-1號","121.447801666667","25.0511916666667","6500500","新莊區"
"221008","489-VK","2018/06/23 20:29:30","新北市汐止區康寧街706-2號","121.63849","25.0730066666667","6501100","汐止區"
"221036","130-UY","2018/06/23 20:29:35","新北市汐止區新台五路二段87-1號","121.664906666667","25.0668866666667","6501100","汐止區"
"221015","131-UY","2018/06/23 20:29:39","新北市汐止區建成路142巷19弄3號","121.662155","25.0738916666667","6501100","汐止區"
"221010","269-BY","2018/06/23 20:29:40","新北市汐止區八連路二段551巷2號","121.628328333333","25.1068866666667","6501100","汐止區"
"221012","278-VK","2018/06/23 20:29:36","新北市汐止區大同路三段279號","121.674276666667","25.0748633333333","6501100","汐止區"
"221023","279-VK","2018/06/23 20:29:34","新北市汐止區湖東街49號","121.635736666667","25.0734383333333","6501100","汐止區"
"221032","280-BY","2018/06/23 20:29:39","新北市汐止區弘道街53巷12號","121.618756666667","25.0489566666667","6501100","汐止區"
"221027","281-BY","2018/06/23 20:29:38","新北市汐止區中正路198號","121.658646666667","25.069005","6501100","汐止區"
"221029","298-VK","2018/06/23 20:29:21","新北市汐止區樟樹一路135巷28號","121.640956666667","25.065675","6501100","汐止區"
"221021","299-VK","2018/06/23 20:29:29","新北市汐止區水源路一段286號","121.654233333333","25.05821","6501100","汐止區"
"221031","353-TW","2018/06/23 20:29:26","新北市汐止區福德一路237號","121.63423","25.0646583333333","6501100","汐止區"
"221035","622-UM","2018/06/23 20:29:39","新北市汐止區長江街101-5號","121.658705","25.07317","6501100","汐止區"
"221025","623-UM","2018/06/23 20:29:36","新北市汐止區水源路二段88巷1弄1號","121.65628","25.0559433333333","6501100","汐止區"
"221038","646-BX","2018/06/23 20:29:40","新北市汐止區水源路一段56號","121.657283333333","25.0653933333333","6501100","汐止區"
"221033","647-BX","2018/06/23 20:29:45","新北市汐止區林森街73巷15號","121.623761666667","25.0414116666667","6501100","汐止區"
"221002","707-TV","2018/06/23 20:29:38","新北市汐止區福德二路21-1號","121.635316666667","25.068275","6501100","汐止區"
"221018","753-BX","2018/06/23 20:29:44","新北市汐止區茄苳路225巷11弄33號","121.670336666667","25.0701","6501100","汐止區"
"220103","257-TC","2018/06/23 20:29:29","新北市板橋區漢生東路53巷25號","121.466641666667","25.0173683333333","6500100","板橋區"
"220083","286-VK","2018/06/23 20:29:24","新北市板橋區僑中二街106巷13號","121.445265","25.0076566666667","6500100","板橋區"
"220061","293-UM","2018/06/23 20:29:42","新北市板橋區文華街6號","121.45808","25.0003666666667","6500100","板橋區"
"242031","280-VK","2018/06/23 20:29:31","新北市新莊區三和路13-25號","121.440383333333","25.0368966666667","6500500","新莊區"
"220089","833-TW","2018/06/23 20:29:25","新北市板橋區四維路343號","121.462425","25.0298016666667","6500100","板橋區"
"220074","895-R6","2018/06/23 20:26:41","新北市樹林區環河路2-2號","121.424968333333","24.9765266666667","6500100","板橋區"
"220097","AAC-210","2018/06/23 20:29:28","新北市板橋區文化路一段101巷9號","121.46068","25.0144416666667","6500100","板橋區"
"220070","AAC-253","2018/06/23 20:29:31","新北市五股區新五路二段130-1號","121.438293333333","25.0784333333333","6500100","板橋區"
