"lineid","car","time","location","longitude","latitude","cityid","cityname"
"249002","305-UY","2018/06/23 21:19:32","新北市八里區中山路二段210巷128號","121.404005","25.1550283333333","6502300","八里區"
"243001","297-R6","2018/06/23 21:10:13","新北市泰山區黎明路25號","121.42181","25.06093","6501600","泰山區"
"243006","680-BX","2018/06/23 21:02:25","新北市泰山區犁頭窠3-1號","121.422098333333","25.060385","6501600","泰山區"
"231059","046-UY","2018/06/23 21:19:39","新北市新店區薏仁坑路自強巷6號","121.496635","24.9584733333333","6500600","新店區"
"231040","047-UY","2018/06/23 21:19:33","新北市新店區北新路一段189號","121.540343333333","24.964635","6500600","新店區"
"231048","187-VK","2018/06/23 21:19:41","新北市新店區民生路149巷22號","121.529453333333","24.98014","6500600","新店區"
"231054","KEA-2219","2018/06/23 21:19:44","新北市新店區光明街314號","121.540616666667","24.9651716666667","6500600","新店區"
"231051","278-BY","2018/06/23 21:19:33","新北市新店區溪園路87號","121.527886666667","24.985775","6500600","新店區"
"231050","AAD-862","2018/06/23 21:19:30","新北市新店區中正路189巷14號","121.540196666667","24.9718866666667","6500600","新店區"
"231066","4716-K9","2018/06/23 21:19:30","新北市新店區車子路10-2號","121.504603333333","24.9547466666667","6500600","新店區"
"231063","641-BX","2018/06/23 21:19:43","新北市新店區吉祥街15巷1號","121.497766666667","24.9456016666667","6500600","新店區"
"231060","897-TW","2018/06/23 21:19:28","新北市新店區薏仁坑路自強巷6號","121.496321666667","24.95828","6500600","新店區"
"241011","013-R5","2018/06/23 21:19:30","新北市三重區龍濱路197號","121.501908333333","25.07135","6500200","三重區"
"241028","022-UY","2018/06/23 21:19:41","新北市三重區正義南路169號","121.498958333333","25.0575233333333","6500200","三重區"
"241008","059-VK","2018/06/23 21:19:38","新北市三重區自強路一段68號","121.497106666667","25.0664916666667","6500200","三重區"
"241031","061-VK","2018/06/23 21:19:25","新北市三重區五谷王南街46巷37號","121.475736666667","25.04554","6500200","三重區"
"241017","063-VK","2018/06/23 21:19:29","新北市三重區中正北路25巷25弄2號","121.493196666667","25.0626333333333","6500200","三重區"
"241024","065-VK","2018/06/23 21:19:35","新北市三重區中正北路145巷14號","121.484136666667","25.0677683333333","6500200","三重區"
"241026","066-VK","2018/06/23 21:19:23","新北市三重區大同南路220號","121.496735","25.0562866666667","6500200","三重區"
"241002","090-VK","2018/06/23 21:19:40","新北市三重區自強路五段59號","121.494611666667","25.0817683333333","6500200","三重區"
"241005","262-UM","2018/06/23 21:19:39","新北市三重區集智街6號","121.487553333333","25.0861316666667","6500200","三重區"
"241003","265-UM","2018/06/23 21:19:27","新北市三重區仁義街319號","121.495423333333","25.0843016666667","6500200","三重區"
"241016","266-UM","2018/06/23 21:19:35","新北市三重區自強路一段95號","121.495813333333","25.066385","6500200","三重區"
"241009","267-UM","2018/06/23 21:19:27","新北市三重區忠孝路三段2號","121.481908333333","25.067635","6500200","三重區"
"241018","268-UM","2018/06/23 21:19:40","新北市三重區忠孝路二段99號","121.484168333333","25.069905","6500200","三重區"
"241032","269-UM","2018/06/23 21:19:32","新北市三重區光復路二段168號","121.472146666667","25.0610716666667","6500200","三重區"
"241013","270-UM","2018/06/23 21:19:29","新北市三重區仁愛街83號","121.495921666667","25.0732066666667","6500200","三重區"
"241025","271-UM","2018/06/23 21:19:43","新北市三重區忠孝路三段40巷16弄10號","121.48233","25.0669033333333","6500200","三重區"
"241007","398-BY","2018/06/23 21:19:42","新北市三重區忠孝路一段50號","121.490735","25.0719733333333","6500200","三重區"
"241004","475-VK","2018/06/23 21:19:30","新北市三重區碧華街213號","121.48869","25.0826583333333","6500200","三重區"
"241030","480-VK","2018/06/23 21:19:30","新北市三重區五谷王北街181-1號","121.477213333333","25.0542233333333","6500200","三重區"
"241014","543-UM","2018/06/23 21:19:39","新北市三重區萬全街9號","121.4993","25.0696733333333","6500200","三重區"
"241019","KEA-2593","2018/06/23 21:19:43","新北市三重區自強路二段74巷5號","121.488248333333","25.0700666666667","6500200","三重區"
"241006","AAD-863","2018/06/23 21:19:33","新北市三重區重陽路二段67號","121.487683333333","25.0639016666667","6500200","三重區"
"241023","887-TS","2018/06/23 21:19:44","新北市三重區中正北路176巷27號","121.482651666667","25.0659666666667","6500200","三重區"
"241033","AAC-255","2018/06/23 21:19:39","新北市三重區光復路二段102巷40號","121.470021666667","25.0580666666667","6500200","三重區"
"247024","893-R6","2018/06/23 21:19:38","新北市蘆洲區光明路90號","121.462975","25.087895","6501400","蘆洲區"
"247014","546-UM","2018/06/23 21:19:45","新北市蘆洲區保和街50-5號","121.469781666667","25.086305","6501400","蘆洲區"
"247022","500-BY","2018/06/23 21:19:45","新北市蘆洲區三民路241號","121.469135","25.0888666666667","6501400","蘆洲區"
"247010","341-TH","2018/06/23 21:19:27","新北市蘆洲區鷺江街16-2號","121.478823333333","25.0824933333333","6501400","蘆洲區"
"247012","339-TH","2018/06/23 21:19:35","新北市蘆洲區集賢路224巷36號","121.481355","25.0875816666667","6501400","蘆洲區"
"247006","336-TH","2018/06/23 21:19:33","新北市蘆洲區長安街70號","121.462613333333","25.08007","6501400","蘆洲區"
"247018","057-VK","2018/06/23 21:19:40","新北市蘆洲區復興路105巷7號","121.476376666667","25.088225","6501400","蘆洲區"
"247008","056-VK","2018/06/23 21:19:32","新北市蘆洲區中山一路97巷30號","121.475876666667","25.0808983333333","6501400","蘆洲區"
"247004","053-VK","2018/06/23 21:19:29","新北市蘆洲區永安南路二段322號","121.456938333333","25.0826816666667","6501400","蘆洲區"
"247016","007-UY","2018/06/23 21:19:28","新北市蘆洲區長榮路98號","121.461886666667","25.083885","6501400","蘆洲區"
"247002","002-UY","2018/06/23 21:19:30","新北市蘆洲區永樂街90號","121.456678333333","25.0887233333333","6501400","蘆洲區"
"247020","001-UY","2018/06/23 21:19:41","新北市蘆洲區民族路426巷66號","121.472725","25.0941966666667","6501400","蘆洲區"
"251013","KEA-2871","2018/06/23 21:19:46","新北市淡水區行忠路328號","121.460455","25.1995733333333","6501000","淡水區"
"251016","179-VK","2018/06/23 21:19:40","新北市淡水區前洲子28號","121.441033333333","25.2193016666667","6501000","淡水區"
"251014","180-VK","2018/06/23 21:19:33","新北市淡水區六塊厝2-1號","121.450148333333","25.2404466666667","6501000","淡水區"
"251008","181-VK","2018/06/23 21:19:35","新北市淡水區水源街二段225號","121.46021","25.1764883333333","6501000","淡水區"
"251015","182-VK","2018/06/23 21:19:30","新北市淡水區淡金路四段542巷17號","121.452733333333","25.2271033333333","6501000","淡水區"
"251010","413-VK","2018/06/23 21:19:41","新北市淡水區中正路一段156巷12號","121.421833333333","25.1808233333333","6501000","淡水區"
"251012","441-VK","2018/06/23 21:19:40","新北市淡水區淡金路五段35巷46號","121.452461666667","25.2347433333333","6501000","淡水區"
"251007","442-VK","2018/06/23 21:19:37","新北市淡水區淡金路一段69號","121.4581","25.1736366666667","6501000","淡水區"
"251005","443-VK","2018/06/23 21:19:27","新北市淡水區水源街一段124號","121.447238333333","25.1715566666667","6501000","淡水區"
"251001","559-UM","2018/06/23 21:19:29","新北市淡水區濱海路一段308號","121.440941666667","25.189395","6501000","淡水區"
"251006","561-UM","2018/06/23 21:19:35","新北市淡水區中正路一段122號","121.422988333333","25.1784566666667","6501000","淡水區"
"251011","650-BX","2018/06/23 21:19:35","新北市淡水區新民街120巷29號","121.43883","25.1788116666667","6501000","淡水區"
"251003","673-BX","2018/06/23 21:19:35","新北市淡水區崁頂15-5號","121.438908333333","25.1861","6501000","淡水區"
"236006","498-BY","2018/06/23 21:19:40","新北市土城區永平街51號","121.427535","24.9591233333333","6501300","土城區"
"220070","AAC-253","2018/06/23 21:19:31","新北市五股區新五路三段17號","121.445375","25.089115","6500100","板橋區"
