"lineid","car","time","location","longitude","latitude","cityid","cityname"
"234040","862-TW","2018/06/23 21:29:32","新北市永和區福和路1號","121.525523333333","25.0093933333333","6500400","永和區"
"249002","305-UY","2018/06/23 21:29:32","新北市八里區挖子尾街6號","121.415555","25.1641883333333","6502300","八里區"
"243001","297-R6","2018/06/23 21:10:13","新北市泰山區黎明路25號","121.42181","25.06093","6501600","泰山區"
"243006","680-BX","2018/06/23 21:02:25","新北市泰山區犁頭窠3-1號","121.422098333333","25.060385","6501600","泰山區"
"231048","187-VK","2018/06/23 21:29:41","新北市新店區薏仁坑路11號","121.498398333333","24.9590816666667","6500600","新店區"
"231063","641-BX","2018/06/23 21:29:43","新北市新店區如意街66號","121.494375","24.947","6500600","新店區"
"241024","065-VK","2018/06/23 21:29:35","新北市三重區中正北路192號","121.482903333333","25.0671583333333","6500200","三重區"
"241005","262-UM","2018/06/23 21:29:39","新北市三重區仁華街118巷6號","121.485693333333","25.0830166666667","6500200","三重區"
"241003","265-UM","2018/06/23 21:29:27","新北市三重區集賢路87-1號","121.493655","25.0868633333333","6500200","三重區"
"241016","266-UM","2018/06/23 21:29:35","新北市三重區信義西街138號","121.495461666667","25.064145","6500200","三重區"
"241007","398-BY","2018/06/23 21:29:42","新北市三重區正義北路99號","121.497","25.0654233333333","6500200","三重區"
"241030","480-VK","2018/06/23 21:28:30","新北市五股區中直路21號","121.421823333333","25.1116666666667","6500200","三重區"
"241033","AAC-255","2018/06/23 21:29:39","新北市三重區光華路20號","121.469048333333","25.0597616666667","6500200","三重區"
"247010","341-TH","2018/06/23 21:29:27","新北市蘆洲區中山二路44號","121.473948333333","25.0821466666667","6501400","蘆洲區"
"247006","336-TH","2018/06/23 21:29:33","新北市蘆洲區中原路13-5號","121.460616666667","25.08307","6501400","蘆洲區"
"251004","009-UM","2018/06/23 21:29:34","新北市淡水區民族路9號","121.460293333333","25.137045","6501000","淡水區"
"251013","KEA-2871","2018/06/23 21:29:46","新北市淡水區埤島61-5號","121.459858333333","25.19542","6501000","淡水區"
"251016","179-VK","2018/06/23 21:29:40","新北市淡水區前洲子11號","121.441491666667","25.2190316666667","6501000","淡水區"
"251014","180-VK","2018/06/23 21:29:33","新北市淡水區六塊厝2-1號","121.449905","25.2402183333333","6501000","淡水區"
"251008","181-VK","2018/06/23 21:29:37","新北市淡水區水源街二段148號","121.454206666667","25.175015","6501000","淡水區"
"251015","182-VK","2018/06/23 21:29:30","新北市淡水區淡金路三段69號","121.448011666667","25.19931","6501000","淡水區"
"251010","413-VK","2018/06/23 21:29:41","新北市淡水區沙崙路25巷23號","121.420673333333","25.18235","6501000","淡水區"
"251012","441-VK","2018/06/23 21:29:40","新北市淡水區淡金路五段35巷46號","121.452441666667","25.23473","6501000","淡水區"
"251007","442-VK","2018/06/23 21:29:37","新北市淡水區淡金路一段69號","121.458195","25.1734016666667","6501000","淡水區"
"251005","443-VK","2018/06/23 21:29:27","新北市淡水區長興街43巷9號","121.44364","25.171765","6501000","淡水區"
"251001","559-UM","2018/06/23 21:29:29","新北市淡水區濱海路二段202巷65弄37號","121.433158333333","25.192615","6501000","淡水區"
"251006","561-UM","2018/06/23 21:29:36","新北市淡水區公明街43號","121.443256666667","25.168805","6501000","淡水區"
"251011","650-BX","2018/06/23 21:29:35","新北市淡水區真理街32號","121.436871666667","25.1783166666667","6501000","淡水區"
"251003","673-BX","2018/06/23 21:29:35","新北市淡水區崁頂15-5號","121.43897","25.185855","6501000","淡水區"
"236006","498-BY","2018/06/23 21:29:40","新北市土城區永平街51號","121.427515","24.95914","6501300","土城區"
"220070","AAC-253","2018/06/23 21:29:31","新北市板橋區僑中一街124巷70-5號","121.448741666667","25.0163566666667","6500100","板橋區"
