"lineid","car","time","location","longitude","latitude","cityid","cityname"
"234040","862-TW","2018/06/23 21:51:56","新北市永和區福和路1號","121.526406666667","25.0097816666667","6500400","永和區"
"241033","AAC-255","2018/06/23 21:59:39","新北市八里區中山路三段409號","121.368566666667","25.1342883333333","6500200","三重區"
"235010","733-UM","2018/06/23 21:38:38","新北市中和區員山路36巷13號","121.484175","24.9907516666667","6500300","中和區"
"247010","341-TH","2018/06/23 21:58:47","新北市八里區中山路三段409號","121.368731666667","25.1341083333333","6501400","蘆洲區"
"251004","009-UM","2018/06/23 21:59:34","新北市淡水區民權路92巷35-1號","121.462083333333","25.1267966666667","6501000","淡水區"
"251008","181-VK","2018/06/23 21:59:35","新北市淡水區學府路104號","121.44984","25.17178","6501000","淡水區"
"251010","413-VK","2018/06/23 21:59:41","新北市淡水區中正路二段211號","121.426183333333","25.1890816666667","6501000","淡水區"
"251007","442-VK","2018/06/23 21:59:37","新北市淡水區北新路184巷50號","121.450835","25.1776766666667","6501000","淡水區"
"251005","443-VK","2018/06/23 21:59:47","新北市淡水區鄧公路30巷1弄67號","121.4544","25.1695516666667","6501000","淡水區"
"251001","559-UM","2018/06/23 21:59:49","新北市淡水區後洲路一段157號","121.428093333333","25.1978966666667","6501000","淡水區"
"251006","561-UM","2018/06/23 21:59:35","新北市淡水區中正路11巷3號","121.437826666667","25.1707","6501000","淡水區"
"251011","650-BX","2018/06/23 21:59:35","新北市淡水區水碓街7號","121.44318","25.1771083333333","6501000","淡水區"
"251003","673-BX","2018/06/23 21:59:35","新北市淡水區新春街87號","121.438836666667","25.182615","6501000","淡水區"
"236006","498-BY","2018/06/23 21:59:40","新北市土城區永平街51號","121.427526666667","24.95913","6501300","土城區"
"220070","AAC-253","2018/06/23 21:51:48","新北市板橋區華東街1-9號","121.44826","24.9948466666667","6500100","板橋區"
