"lineid","car","time","location","longitude","latitude","cityid","cityname"
"234040","862-TW","2018/06/23 21:51:56","新北市永和區福和路1號","121.526406666667","25.0097816666667","6500400","永和區"
"241033","AAC-255","2018/06/23 22:19:39","新北市五股區中興路三段2巷10號","121.447718333333","25.0829266666667","6500200","三重區"
"251004","009-UM","2018/06/23 22:19:34","新北市淡水區民族路33號","121.462266666667","25.1357616666667","6501000","淡水區"
"251008","181-VK","2018/06/23 22:19:35","新北市淡水區學府路104號","121.449835","25.1717666666667","6501000","淡水區"
"251010","413-VK","2018/06/23 22:19:41","新北市淡水區沙崙路200號","121.424608333333","25.1838566666667","6501000","淡水區"
"251007","442-VK","2018/06/23 22:19:37","新北市淡水區北新路137號","121.449441666667","25.178825","6501000","淡水區"
"251001","559-UM","2018/06/23 22:19:49","新北市淡水區下圭柔山90-8號","121.4316","25.2105283333333","6501000","淡水區"
"251006","561-UM","2018/06/23 22:17:35","新北市淡水區崁頂61號","121.440836666667","25.199875","6501000","淡水區"
"251011","650-BX","2018/06/23 22:19:35","新北市淡水區水碓街7號","121.443183333333","25.17715","6501000","淡水區"
"236006","498-BY","2018/06/23 22:19:40","新北市土城區永平街51號","121.427556666667","24.9590833333333","6501300","土城區"
"220070","AAC-253","2018/06/23 21:51:48","新北市板橋區華東街1-9號","121.44826","24.9948466666667","6500100","板橋區"
