"lineid","car","time","location","longitude","latitude","cityid","cityname"
"248005","653-BX","2018/09/20 07:19:30","新北市五股區明德路10號","121.433401666667","25.07175","6501500","五股區"
"232001","290-BY","2018/09/20 07:19:48","新北市坪林區桶盤嶼10-3號","121.706313333333","24.95804","6502000","坪林區"
"232014","291-BY","2018/09/20 07:19:42","新北市坪林區金瓜寮13-2號","121.681581666667","24.9155483333333","6502000","坪林區"
"232010","375-UM","2018/09/20 07:19:38","新北市坪林區水聳淒坑3號","121.726313333333","24.9256883333333","6502000","坪林區"
"232018","705-BZ","2018/09/20 07:19:43","新北市坪林區樟空子5-1號","121.727276666667","24.9674516666667","6502000","坪林區"
"232007","758-BX","2018/09/20 07:19:48","新北市坪林區魚堀38-1號","121.697308333333","24.931745","6502000","坪林區"
"244003","248-BX","2018/09/20 07:19:45","新北市林口區文化北路一段409-1號","121.364215","25.076245","6501700","林口區"
"235001","611-BX","2018/09/20 07:19:21","新北市中和區圓通路367巷6號","121.49146","24.9892416666667","6500300","中和區"
"226005","5620-A6","2018/09/20 07:19:44","新北市平溪區菁桐里二坑路18號","121.721316666667","25.024465","6502400","平溪區"
"226007","7418-A5","2018/09/20 07:19:35","新北市平溪區望古里灰4-2號","121.763655","25.0281116666667","6502400","平溪區"
"226003","AGD-0702","2018/09/20 07:19:35","新北市平溪區嶺腳里嶺腳寮61號","121.747865","25.0312933333333","6502400","平溪區"
"223006","022-BY","2018/09/20 07:19:30","新北市石碇區深按1號","121.657531666667","25.0175016666667","6501900","石碇區"
"223002","KEA-2673","2018/09/20 07:19:38","新北市石碇區北宜路五段坑內巷14號","121.633911666667","24.9558166666667","6501900","石碇區"
"223003","205-TH","2018/09/20 07:19:48","新北市石碇區烏塗窟7-1號","121.653508333333","24.9760783333333","6501900","石碇區"
"223008","406-TH","2018/09/20 07:19:38","新北市石碇區蚯蚓坑22-1號","121.688943333333","25.00644","6501900","石碇區"
"223001","592-UM","2018/09/20 07:19:37","新北市石碇區烏塗窟26-1號","121.65729","24.97531","6501900","石碇區"
"223004","660-BX","2018/09/20 07:19:46","新北市石碇區新興坑1-1號","121.65458","25.0134216666667","6501900","石碇區"
"223007","661-BX","2018/09/20 07:19:44","新北市石碇區蚯蚓坑19-7號","121.691776666667","25.0040783333333","6501900","石碇區"
"223005","677-TV","2018/09/20 07:19:42","新北市石碇區新興坑1-1號","121.652811666667","25.014065","6501900","石碇區"
"227007","282-VK","2018/09/20 07:19:49","新北市雙溪區新基里自強路5號","121.866318333333","25.0391033333333","6502500","雙溪區"
"252004","249-BX","2018/09/20 07:19:33","新北市三芝區福德里大湖8-2號","121.502818333333","25.2263783333333","6502100","三芝區"
"252007","AAC-283","2018/09/20 07:19:32","新北市三芝區錫板里海尾23-3號","121.480845","25.2569283333333","6502100","三芝區"
"242026","615-BX","2018/09/20 07:19:37","新北市新莊區新泰路255巷83號","121.442226666667","25.0388583333333","6500500","新莊區"
"242022","362-BY","2018/09/20 07:19:33","新北市新莊區三和路12-21號","121.442298333333","25.0385583333333","6500500","新莊區"
"242001","233-RS","2018/09/20 07:19:38","新北市新莊區中華路二段2號","121.45298","25.0445066666667","6500500","新莊區"
"242014","351-TH","2018/09/20 07:19:39","新北市新莊區新泰路357巷3弄57號","121.442046666667","25.0395233333333","6500500","新莊區"
