"lineid","car","time","location","longitude","latitude","cityid","cityname"
"248005","653-BX","2018/09/20 07:39:30","新北市五股區明德路8號","121.433345","25.0717183333333","6501500","五股區"
"232001","290-BY","2018/09/20 07:39:48","新北市坪林區上坑子口1-1號","121.698393333333","24.9573383333333","6502000","坪林區"
"232014","291-BY","2018/09/20 07:39:42","新北市坪林區九芎根2-1號","121.66772","24.8877983333333","6502000","坪林區"
"232010","375-UM","2018/09/20 07:39:34","新北市坪林區苦苓腳3-4號","121.714756666667","24.9397116666667","6502000","坪林區"
"232007","758-BX","2018/09/20 07:39:47","新北市坪林區魚堀33-1號","121.698116666667","24.925785","6502000","坪林區"
"244003","248-BX","2018/09/20 07:39:45","新北市林口區頂福里71-100號","121.345248333333","25.08435","6501700","林口區"
"244012","KEA-2802","2018/09/20 07:39:35","新北市林口區粉寮路二段88巷100-12號","121.409606666667","25.0901466666667","6501700","林口區"
"222006","289-BY","2018/09/20 07:39:49","新北市深坑區文化街39巷13號","121.618943333333","25.0010416666667","6501800","深坑區"
"231053","719-UY","2018/09/20 07:39:42","新北市新店區安一路一段1-1號","121.519648333333","24.9615083333333","6500600","新店區"
"235001","611-BX","2018/09/20 07:39:41","新北市中和區圓通路367巷6號","121.491508333333","24.989245","6500300","中和區"
"226005","5620-A6","2018/09/20 07:39:44","新北市平溪區石底里公園街22號","121.737343333333","25.024925","6502400","平溪區"
"226007","7418-A5","2018/09/20 07:39:34","新北市平溪區南山里南山坪94號","121.776896666667","25.04106","6502400","平溪區"
"226003","AGD-0702","2018/09/20 07:38:15","新北市平溪區嶺腳里嶺腳寮83-2號","121.750468333333","25.0350633333333","6502400","平溪區"
"223006","022-BY","2018/09/20 07:39:50","新北市石碇區碇坪路一段16號","121.651625","25.0059233333333","6501900","石碇區"
"223002","KEA-2673","2018/09/20 07:39:38","新北市石碇區北宜路五段大湖巷7號","121.632451666667","24.9464683333333","6501900","石碇區"
"223003","205-TH","2018/09/20 07:39:48","新北市石碇區中楒子腳1-1號","121.644536666667","24.97055","6501900","石碇區"
"223001","592-UM","2018/09/20 07:38:57","新北市石碇區中楒子腳1-2號","121.64549","24.9707883333333","6501900","石碇區"
"223004","660-BX","2018/09/20 07:39:46","新北市石碇區八分寮49-1號","121.642691666667","25.014285","6501900","石碇區"
"223007","661-BX","2018/09/20 07:39:44","新北市石碇區靜安路一段337號","121.698905","25.0145266666667","6501900","石碇區"
"223005","677-TV","2018/09/20 07:39:42","新北市石碇區八分寮47-1號","121.642473333333","25.0138933333333","6501900","石碇區"
"227007","282-VK","2018/09/20 07:39:48","新北市雙溪區雙溪里太平路54號","121.8648","25.0354533333333","6502500","雙溪區"
"252004","249-BX","2018/09/20 07:39:33","新北市三芝區店子里菜公坑99-4號","121.514531666667","25.20769","6502100","三芝區"
"252007","AAC-283","2018/09/20 07:39:32","新北市三芝區古庄里茂興店78號","121.490268333333","25.266545","6502100","三芝區"
"237001","159-UY","2018/09/20 07:39:47","新北市三峽區三樹路142號","121.378323333333","24.9402283333333","6500900","三峽區"
"242057","986-R7","2018/09/20 07:39:30","新北市新莊區新泰路357巷3弄57號","121.442246666667","25.0392433333333","6500500","新莊區"
"242055","751-BX","2018/09/20 07:39:40","新北市新莊區新泰路357巷3弄57號","121.442065","25.039155","6500500","新莊區"
"242028","705-TV","2018/09/20 07:39:38","新北市新莊區三和路12-12號","121.442205","25.0370316666667","6500500","新莊區"
"242026","615-BX","2018/09/20 07:39:37","新北市新莊區新泰路255巷83號","121.442168333333","25.0388333333333","6500500","新莊區"
"242043","566-BX","2018/09/20 07:39:39","新北市新莊區新泰路357巷3弄57號","121.442073333333","25.0391016666667","6500500","新莊區"
"242047","497-BY","2018/09/20 07:39:43","新北市新莊區中正路400號","121.44199","25.0341933333333","6500500","新莊區"
"242052","442-UM","2018/09/20 07:39:31","新北市新莊區瓊林路59-83號","121.441953333333","25.02358","6500500","新莊區"
"242001","440-UM","2018/09/20 07:39:38","新北市新莊區新泰路357巷3弄57號","121.442028333333","25.0391566666667","6500500","新莊區"
"242038","415-TV","2018/09/20 07:39:38","新北市新莊區中正路400號","121.441928333333","25.0344266666667","6500500","新莊區"
"242008","413-TV","2018/09/20 07:39:49","新北市新莊區新泰路357巷3弄57號","121.441915","25.03944","6500500","新莊區"
"242045","400-BY","2018/09/20 07:39:49","新北市新莊區新泰路357巷3弄57號","121.44218","25.03964","6500500","新莊區"
"242022","362-BY","2018/09/20 07:39:33","新北市新莊區新泰路255巷83號","121.442226666667","25.0390283333333","6500500","新莊區"
"242059","353-BY","2018/09/20 07:39:47","新北市新莊區新樹路69-67號","121.442145","25.0294316666667","6500500","新莊區"
"242040","133-UY","2018/09/20 07:39:33","新北市新莊區新泰路357巷3弄51號","121.441905","25.0400316666667","6500500","新莊區"
"242033","135-UY","2018/09/20 07:39:36","新北市新莊區三和路12-21號","121.44207","25.0388116666667","6500500","新莊區"
"242018","175-VK","2018/09/20 07:39:37","新北市新莊區三和路12-21號","121.442093333333","25.0386233333333","6500500","新莊區"
"242006","176-VK","2018/09/20 07:39:33","新北市新莊區新泰路357巷3弄57號","121.44211","25.0393716666667","6500500","新莊區"
"242001","233-RS","2018/09/20 07:39:38","新北市新莊區中華路二段2號","121.45298","25.0444733333333","6500500","新莊區"
"242003","347-TH","2018/09/20 07:39:33","新北市新莊區三和路12-17號","121.442058333333","25.037535","6500500","新莊區"
"242030","348-TH","2018/09/20 07:39:37","新北市新莊區新泰路357巷3弄57號","121.442028333333","25.0395633333333","6500500","新莊區"
"242020","350-TH","2018/09/20 07:39:42","新北市新莊區三和路12-21號","121.44187","25.0388816666667","6500500","新莊區"
"242014","351-TH","2018/09/20 07:39:39","新北市新莊區新泰路357巷3弄57號","121.441866666667","25.0394483333333","6500500","新莊區"
