"lineid","car","time","location","longitude","latitude","cityid","cityname"
"248005","653-BX","2018/01/26 07:43:20","新北市五股區明德路12巷1號","121.433351666667","25.071775","6501500","五股區"
"232008","758-BX","2018/01/26 07:59:27","新北市坪林區魚堀1-15號","121.72006","24.8943883333333","6502000","坪林區"
"244004","248-BX","2018/01/26 07:59:24","新北市林口區下福里10-1號","121.31307","25.1118816666667","6501700","林口區"
"231007","189-VK","2018/01/26 07:59:16","新北市新店區安華路28-1號","121.519631666667","24.960785","6500600","新店區"
"231009","192-VK","2018/01/26 07:59:10","新北市新店區安華路28-1號","121.519133333333","24.9613683333333","6500600","新店區"
"235001","611-BX","2018/01/26 07:59:23","新北市中和區圓通路367巷4號","121.491416666667","24.9892583333333","6500300","中和區"
"226005","5620-A6","2018/01/26 07:59:18","新北市平溪區靜安路三段152號","121.774911666667","25.0384516666667","6502400","平溪區"
"226001","7418-A5","2018/01/26 07:59:19","新北市平溪區南山里乾坑11號","121.782721666667","25.047135","6502400","平溪區"
"226003","AGD-0702","2018/01/26 07:59:20","新北市平溪區新寮里頂寮子62-1號","121.773861666667","25.0511533333333","6502400","平溪區"
"223006","022-BY","2018/01/26 07:59:06","新北市坪林區北宜路八段553號","121.717135","24.90966","6501900","石碇區"
"223002","198-BX","2018/01/26 07:48:26","新北市石碇區大格門5號","121.667226666667","24.9566666666667","6501900","石碇區"
"223001","205-TH","2018/01/26 07:59:12","新北市石碇區崩山36-1號","121.671116666667","24.9580333333333","6501900","石碇區"
"223008","406-TH","2018/01/26 07:59:22","新北市石碇區靜安路一段295號","121.695171666667","25.0069816666667","6501900","石碇區"
"223001","437-BY","2018/01/26 07:57:36","新北市石碇區樟空子1號","121.666468333333","24.9591683333333","6501900","石碇區"
"223007","592-UM","2018/01/26 07:59:18","新北市石碇區靜安路一段291號","121.694958333333","25.0069833333333","6501900","石碇區"
"223004","660-BX","2018/01/26 07:59:12","新北市石碇區楓子林61-1號","121.645183333333","25.0101466666667","6501900","石碇區"
"223005","677-TV","2018/01/26 07:59:07","新北市石碇區碇坪路一段18號","121.651736666667","25.0055933333333","6501900","石碇區"
"227005","282-VK","2018/01/26 07:59:13","新北市雙溪區雙溪里內挖路4-1號","121.863218333333","25.0354283333333","6502500","雙溪區"
"237001","159-UY","2018/01/26 07:59:11","新北市三峽區學成路285號","121.37621","24.94324","6500900","三峽區"
"236010","165-UM","2018/01/26 07:59:15","新北市土城區青雲路603號","121.459416666667","24.969865","6501300","土城區"
"236004","339-SR","2018/01/26 07:58:58","新北市土城區龍泉路68-2號","121.421283333333","24.9430883333333","6501300","土城區"
