"lineid","car","time","location","longitude","latitude","cityid","cityname"
"248005","653-BX","2018/01/26 08:01:52","新北市五股區明德路12巷8號","121.433588333333","25.0720666666667","6501500","五股區"
"232008","758-BX","2018/01/26 08:19:27","新北市坪林區北宜路八段505號","121.708168333333","24.9191183333333","6502000","坪林區"
"244004","248-BX","2018/01/26 08:19:24","新北市林口區寶斗厝坑52號","121.323985","25.1212033333333","6501700","林口區"
"222005","289-BY","2018/01/26 08:15:54","台北市南港區舊莊街一段290巷49號","121.623578333333","25.0187333333333","6501800","深坑區"
"231007","189-VK","2018/01/26 08:19:16","新北市新店區新潭路一段28號","121.523221666667","24.9424966666667","6500600","新店區"
"231009","192-VK","2018/01/26 08:19:09","新北市新店區中興路一段34號","121.538796666667","24.9588666666667","6500600","新店區"
"235001","611-BX","2018/01/26 08:19:23","新北市中和區錦和路187號","121.490648333333","24.9908916666667","6500300","中和區"
"226005","5620-A6","2018/01/26 08:19:18","新北市平溪區南山里乾坑10號","121.79037","25.0470716666667","6502400","平溪區"
"226001","7418-A5","2018/01/26 08:19:19","新北市平溪區東勢里芊蓁林32-1號","121.750981666667","25.0182366666667","6502400","平溪區"
"226003","AGD-0702","2018/01/26 08:19:20","新北市平溪區新寮里新寮路12號","121.79301","25.0594683333333","6502400","平溪區"
"223006","022-BY","2018/01/26 08:19:26","新北市坪林區坪林街16-1號","121.712655","24.936295","6501900","石碇區"
"223002","198-BX","2018/01/26 08:18:08","新北市石碇區溪邊寮2-2號","121.657675","24.97602","6501900","石碇區"
"223001","205-TH","2018/01/26 08:19:12","新北市石碇區北宜路六段塗潭巷27號","121.649026666667","24.933135","6501900","石碇區"
"223008","406-TH","2018/01/26 08:19:22","新北市石碇區串空湖7-1號","121.67072","25.0015033333333","6501900","石碇區"
"223001","437-BY","2018/01/26 08:19:16","新北市石碇區北宜路六段塗潭巷18號","121.649675","24.93264","6501900","石碇區"
"223007","592-UM","2018/01/26 08:19:18","新北市石碇區靜安路一段97號","121.661571666667","25.00747","6501900","石碇區"
"223004","660-BX","2018/01/26 08:19:12","新北市石碇區碇坪路一段38號","121.653931666667","24.9967266666667","6501900","石碇區"
"223005","677-TV","2018/01/26 08:14:34","新北市石碇區外按16-1號","121.650701666667","24.9974833333333","6501900","石碇區"
"227005","282-VK","2018/01/26 08:19:13","新北市雙溪區外柑里三叉坑5號","121.825966666667","25.0138766666667","6502500","雙溪區"
"237001","159-UY","2018/01/26 08:19:11","新北市三峽區三樹路279號","121.379025","24.9432","6500900","三峽區"
"236010","165-UM","2018/01/26 08:18:55","新北市土城區石門路100-3號","121.458498333333","24.9513583333333","6501300","土城區"
"236004","339-SR","2018/01/26 08:19:19","新北市土城區中州路1-5號","121.414543333333","24.9573666666667","6501300","土城區"
"236006","498-BY","2018/01/26 08:19:25","新北市土城區大暖路18號","121.423603333333","24.9601033333333","6501300","土城區"
"220088","491-VK","2018/01/26 08:19:22","新北市板橋區民生路二段120號","121.470486666667","25.0195616666667","6500100","板橋區"
