"lineid","car","time","location","longitude","latitude","cityid","cityname"
"248005","653-BX","2018/01/26 08:40:45","新北市五股區明德路12巷6號","121.433466666667","25.0719066666667","6501500","五股區"
"244004","248-BX","2018/01/26 08:49:24","新北市林口區粉寮69號","121.404955","25.0909316666667","6501700","林口區"
"222005","289-BY","2018/01/26 08:36:59","新北市深坑區土庫尖路75-1號","121.631188333333","25.01821","6501800","深坑區"
"231007","189-VK","2018/01/26 08:49:16","新北市新店區小坑二路126巷1號","121.516936666667","24.9121566666667","6500600","新店區"
"231009","192-VK","2018/01/26 08:49:09","新北市烏來區新烏路四段2號","121.548181666667","24.892365","6500600","新店區"
"235001","611-BX","2018/01/26 08:49:23","新北市中和區民享街95-5號","121.475111666667","24.9999566666667","6500300","中和區"
"226005","5620-A6","2018/01/26 08:49:18","新北市平溪區南山里南山坪58號","121.776023333333","25.040205","6502400","平溪區"
"226001","7418-A5","2018/01/26 08:41:39","新北市平溪區東勢里番仔坑16號","121.7553","24.9914033333333","6502400","平溪區"
"226003","AGD-0702","2018/01/26 08:49:20","新北市平溪區十分里姜仔坑2號","121.766433333333","25.035305","6502400","平溪區"
"223006","022-BY","2018/01/26 08:49:06","新北市石碇區烏塗窟8號","121.655908333333","24.975075","6501900","石碇區"
"223001","205-TH","2018/01/26 08:49:12","新北市石碇區北宜路六段水底寮巷6號","121.664723333333","24.947035","6501900","石碇區"
"223008","406-TH","2018/01/26 08:48:22","新北市石碇區光明路耳空龜巷10-2號","121.690946666667","25.0382233333333","6501900","石碇區"
"223001","437-BY","2018/01/26 08:49:16","新北市石碇區北宜路五段79號","121.645941666667","24.9519216666667","6501900","石碇區"
"223007","592-UM","2018/01/26 08:44:57","新北市石碇區光明路17-2號","121.685823333333","25.0320133333333","6501900","石碇區"
"223004","660-BX","2018/01/26 08:49:12","新北市石碇區崩山53號","121.682386666667","24.96889","6501900","石碇區"
"223005","677-TV","2018/01/26 08:49:26","新北市石碇區崩山43號","121.679928333333","24.9665466666667","6501900","石碇區"
"227005","282-VK","2018/01/26 08:49:13","新北市雙溪區泰平里料角坑3號","121.821311666667","24.9704966666667","6502500","雙溪區"
"237001","159-UY","2018/01/26 08:49:11","新北市樹林區學勤路200號","121.377383333333","24.9469533333333","6500900","三峽區"
"236010","165-UM","2018/01/26 08:49:15","新北市土城區石門路68號","121.458966666667","24.9568116666667","6501300","土城區"
"236004","339-SR","2018/01/26 08:49:19","新北市土城區水源街38-1號","121.440663333333","24.975795","6501300","土城區"
"236006","498-BY","2018/01/26 08:49:27","新北市土城區承天路4巷25-2號","121.437035","24.9603733333333","6501300","土城區"
"220088","491-VK","2018/01/26 08:49:22","新北市板橋區區運路32號","121.465456666667","25.00994","6500100","板橋區"
