"lineid","car","time","location","longitude","latitude","cityid","cityname"
"234044","148-BY","2018/01/26 13:19:26","新北市永和區永元路94號","121.522455","25.0017316666667","6500400","永和區"
"234005","207-UY","2018/01/26 13:19:17","新北市中和區中山路二段63號","121.504168333333","25.0047133333333","6500400","永和區"
"234078","298-R6","2018/01/26 13:19:10","新北市永和區福和路7巷11弄2號","121.52553","25.0072316666667","6500400","永和區"
"234036","336-UY","2018/01/26 13:19:28","新北市永和區民樂街49號","121.527465","24.9988183333333","6500400","永和區"
"234062","337-UY","2018/01/26 13:19:14","新北市永和區永元路17巷6弄1號","121.521348333333","25.000775","6500400","永和區"
"234084","338-UY","2018/01/26 13:19:17","新北市永和區永亨路25號","121.519626666667","25.0060033333333","6500400","永和區"
"234068","552-UM","2018/01/26 13:19:29","新北市永和區中正路696-1號","121.516505","25.0097316666667","6500400","永和區"
"234015","745-BX","2018/01/26 13:19:31","新北市永和區環河西路一段95巷19弄2號","121.511636666667","25.017115","6500400","永和區"
"234028","746-BX","2018/01/26 13:19:16","新北市永和區厚德街83號","121.524315","24.9987616666667","6500400","永和區"
"234052","KEA-2590","2018/01/26 13:19:20","新北市永和區中興街30號","121.516235","25.011785","6500400","永和區"
"234012","KEA-2591","2018/01/26 13:19:29","新北市永和區信義路34號","121.513715","25.0123783333333","6500400","永和區"
"234060","AAD-866","2018/01/26 13:19:20","新北市永和區秀朗路一段120號","121.517026666667","25.0036283333333","6500400","永和區"
"234040","862-TW","2018/01/26 13:19:24","新北市永和區保平路151巷2弄5號","121.509903333333","25.0054566666667","6500400","永和區"
"234048","863-TW","2018/01/26 13:19:31","新北市永和區保福路二段88巷18號","121.511551666667","25.0136433333333","6500400","永和區"
"234025","9371-KE","2018/01/26 13:19:27","新北市永和區豫溪街42巷11號","121.515435","25.009285","6500400","永和區"
"234010","9373-KE","2018/01/26 13:19:23","新北市永和區忠孝街34巷2弄2號","121.514841666667","25.016","6500400","永和區"
"248019","225-UY","2018/01/26 13:19:30","新北市五股區孝義路47巷23號","121.45026","25.1093783333333","6501500","五股區"
"234022","9380-KE","2018/01/26 13:19:22","新北市永和區竹林路91巷11號","121.520045","25.0122916666667","6500400","永和區"
"234076","969-R7","2018/01/26 13:19:29","新北市永和區民有街28號","121.516925","24.9963316666667","6500400","永和區"
"234072","AAC-211","2018/01/26 13:19:33","新北市永和區竹林路30號","121.51714","25.0147683333333","6500400","永和區"
"234066","AAC-212","2018/01/26 13:19:24","新北市永和區保平路50巷2號","121.511311666667","25.00727","6500400","永和區"
"234001","AAC-295","2018/01/26 13:19:24","新北市永和區保福路一段94號","121.512125","25.010505","6500400","永和區"
"244004","248-BX","2018/01/26 13:19:27","新北市林口區頂福里16-3號","121.356358333333","25.0915516666667","6501700","林口區"
"231002","002-UM","2018/01/26 13:19:25","新北市新店區安華路28-1號","121.519771666667","24.9606783333333","6500600","新店區"
"231027","0291-UT","2018/01/26 13:19:12","新北市新店區安康路一段121號","121.52832","24.9618","6500600","新店區"
"231025","0293-UT","2018/01/26 13:19:20","新北市新店區中央路208號","121.530195","24.9739366666667","6500600","新店區"
"231028","046-UY","2018/01/26 13:19:28","新北市新店區安華路28-1號","121.519691666667","24.9607966666667","6500600","新店區"
"231030","047-UY","2018/01/26 13:19:28","新北市新店區安華路28-1號","121.519106666667","24.960965","6500600","新店區"
"231018","107-UY","2018/01/26 13:19:31","新北市新店區安康路一段70號","121.528393333333","24.96178","6500600","新店區"
"231022","110-UY","2018/01/26 13:19:29","新北市新店區北宜路一段121-3號","121.540395","24.953885","6500600","新店區"
"231016","KEA-2219","2018/01/26 13:19:19","新北市新店區安康路一段216號","121.523926666667","24.9635033333333","6500600","新店區"
"231026","256-BX","2018/01/26 13:19:25","新北市新店區安華路28-1號","121.519815","24.961095","6500600","新店區"
"231010","278-BY","2018/01/26 13:19:20","新北市新店區安康路一段85號","121.529406666667","24.9614266666667","6500600","新店區"
"231023","AAD-862","2018/01/26 13:19:23","新北市新店區安康路一段283號","121.523571666667","24.96352","6500600","新店區"
"231024","4716-K9","2018/01/26 13:19:23","新北市新店區安康路一段105號","121.529015","24.9616033333333","6500600","新店區"
"231038","4715-K9","2018/01/26 13:19:27","新北市新店區安華路3號","121.5191","24.9603116666667","6500600","新店區"
"231036","512-UM","2018/01/26 13:15:52","新北市新店區安康路二段362號","121.501771666667","24.95744","6500600","新店區"
"231035","515-UM","2018/01/26 13:19:18","新北市新店區安華路28-1號","121.519791666667","24.9614833333333","6500600","新店區"
"231003","616-UM","2018/01/26 13:19:26","新北市新店區安華路28-1號","121.519921666667","24.9612683333333","6500600","新店區"
"231029","618-UM","2018/01/26 13:19:16","新北市新店區安華路28-1號","121.519305","24.9607783333333","6500600","新店區"
"231001","619-UM","2018/01/26 13:19:27","新北市新店區安華路28-1號","121.519556666667","24.96072","6500600","新店區"
"231034","645-TV","2018/01/26 13:19:30","新北市新店區安華路28-1號","121.51927","24.9605816666667","6500600","新店區"
"231013","719-UM","2018/01/26 13:19:31","新北市新店區安康路一段84號","121.528085","24.961875","6500600","新店區"
"231012","719-UY","2018/01/26 13:19:29","新北市新店區安康路一段243號","121.524946666667","24.9632566666667","6500600","新店區"
"231032","720-UM","2018/01/26 13:19:27","新北市新店區安忠路205巷8號","121.51002","24.9553383333333","6500600","新店區"
"231005","897-TW","2018/01/26 13:19:22","新北市新店區安康路一段102號","121.527386666667","24.9623666666667","6500600","新店區"
"231006","898-TW","2018/01/26 13:19:23","新北市新店區安華路28-1號","121.519308333333","24.9608566666667","6500600","新店區"
"231004","899-TW","2018/01/26 13:19:16","新北市新店區安華路28-1號","121.519231666667","24.9608416666667","6500600","新店區"
"231037","AKT-0513","2018/01/26 13:19:32","新北市新店區安華路1-1號","121.519488333333","24.960445","6500600","新店區"
"235028","005-UY","2018/01/26 13:19:22","新北市中和區中正路221號","121.49634","24.9936483333333","6500300","中和區"
"235027","006-UY","2018/01/26 13:19:24","新北市中和區中正路637巷52弄1號","121.4854","24.99343","6500300","中和區"
"235020","096-UM","2018/01/26 13:19:26","新北市中和區員山路36巷13號","121.484268333333","24.9916516666667","6500300","中和區"
"235003","097-UM","2018/01/26 13:19:17","新北市中和區景安路100號","121.505476666667","24.995625","6500300","中和區"
"235029","098-UM","2018/01/26 13:19:27","新北市中和區莊敬路49巷20弄20號","121.502663333333","25.0057133333333","6500300","中和區"
"235004","150-BY","2018/01/26 13:19:15","新北市中和區安平路30號","121.509505","24.9946966666667","6500300","中和區"
"235022","151-BY","2018/01/26 13:19:19","新北市中和區圓通路367巷7號","121.492251666667","24.9878866666667","6500300","中和區"
"235019","183-VK","2018/01/26 13:19:24","新北市中和區中正路637巷60弄61號","121.485441666667","24.9926866666667","6500300","中和區"
"235002","185-VK","2018/01/26 13:19:28","新北市中和區大智街106巷1號","121.524331666667","24.99253","6500300","中和區"
"235013","186-VK","2018/01/26 13:19:19","新北市中和區員山路36巷13號","121.484093333333","24.9907116666667","6500300","中和區"
"235031","255-BX","2018/01/26 13:19:25","新北市中和區員山路142巷23號","121.48252","24.9966016666667","6500300","中和區"
"235036","301-VK","2018/01/26 13:19:24","新北市中和區連城路301號","121.48984","24.9960616666667","6500300","中和區"
"235007","352-BY","2018/01/26 13:19:14","新北市中和區景平路377號","121.504141666667","24.993445","6500300","中和區"
"235025","378-QA","2018/01/26 13:19:24","新北市中和區國光街215巷24弄12號","121.466763333333","24.9999716666667","6500300","中和區"
"235014","4979-A6","2018/01/26 13:19:19","新北市中和區捷運路61巷9號","121.509048333333","24.9893","6500300","中和區"
"235033","4980-A6","2018/01/26 13:19:17","新北市中和區連城路139巷66號","121.496846666667","24.9967183333333","6500300","中和區"
"235006","551-UM","2018/01/26 13:19:25","新北市中和區大仁街19巷8號","121.517286666667","24.9933616666667","6500300","中和區"
"235034","558-UM","2018/01/26 13:19:22","新北市中和區圓通路172號","121.497276666667","24.9946583333333","6500300","中和區"
"235009","565-BX","2018/01/26 13:19:29","新北市中和區中興街116號","121.499913333333","24.9930033333333","6500300","中和區"
"235018","640-BX","2018/01/26 13:19:23","新北市中和區民享街86巷26號","121.473403333333","25.0006333333333","6500300","中和區"
"235011","732-UM","2018/01/26 13:19:23","新北市中和區建八路1號","121.485395","24.998525","6500300","中和區"
"235026","800-TS","2018/01/26 13:19:17","新北市中和區景平路999巷2號","121.495388333333","25.0059766666667","6500300","中和區"
"235016","805-TS","2018/01/26 13:19:18","新北市中和區南山路300號","121.507935","24.9870983333333","6500300","中和區"
"235012","896-TW","2018/01/26 13:19:19","新北市中和區員山路36巷16-3號","121.484926666667","24.9919016666667","6500300","中和區"
"235017","900-TW","2018/01/26 13:19:28","新北市中和區員山路36巷16-3號","121.484873333333","24.9919333333333","6500300","中和區"
"235015","157-BY","2018/01/26 13:19:14","新北市中和區忠孝街73號","121.512088333333","24.98504","6500300","中和區"
"235001","AAC-213","2018/01/26 13:18:59","新北市中和區景德街29號","121.518795","24.9912283333333","6500300","中和區"
"235023","AAC-215","2018/01/26 13:19:19","新北市中和區員山路36巷16-3號","121.484731666667","24.991115","6500300","中和區"
"235021","251-BX","2018/01/26 13:19:30","新北市中和區員山路109號","121.480853333333","24.994725","6500300","中和區"
"227005","282-VK","2018/01/26 13:19:33","新北市雙溪區三貂里政光路3-1號","121.850811666667","25.0634","6502500","雙溪區"
"208004","AAC-292","2018/01/26 13:19:21","新北市金山區南勢湖86號","121.607323333333","25.210115","6502700","金山區"
"207002","749-BX","2018/01/26 13:19:22","新北市萬里區崁腳里崁腳路166號","121.64514","25.1559483333333","6502800","萬里區"
"207001","662-BX","2018/01/26 13:19:09","新北市萬里區龜吼里玉田路62-1號","121.680011666667","25.191575","6502800","萬里區"
"236006","498-BY","2018/01/26 13:19:30","新北市土城區亞洲路9號","121.434325","24.97238","6501300","土城區"
"221032","280-BY","2018/01/26 13:19:18","新北市汐止區龍安路44號","121.654078333333","25.0635766666667","6501100","汐止區"
"220028","200-UY","2018/01/26 13:19:21","新北市板橋區華東街1-9號","121.44815","24.9947483333333","6500100","板橋區"
"220030","610-BX","2018/01/26 13:19:29","新北市板橋區華東街1-10號","121.448296666667","24.9949033333333","6500100","板橋區"
"220022","895-R6","2018/01/26 13:19:25","新北市板橋區華東街1-9號","121.448256666667","24.9949033333333","6500100","板橋區"
