"lineid","car","time","location","longitude","latitude","cityid","cityname"
"234044","148-BY","2018/01/26 13:59:26","新北市永和區成功路一段113號","121.526865","25.002235","6500400","永和區"
"234005","207-UY","2018/01/26 13:59:17","新北市中和區中和路300-1號","121.508843333333","24.9998216666667","6500400","永和區"
"234078","298-R6","2018/01/26 13:59:29","新北市永和區永亨路98號","121.523023333333","25.0047016666667","6500400","永和區"
"234036","336-UY","2018/01/26 13:59:27","新北市永和區成功路二段115號","121.526635","24.998655","6500400","永和區"
"234062","337-UY","2018/01/26 13:59:34","新北市永和區中正路412巷20弄10號","121.518663333333","25.0017633333333","6500400","永和區"
"234084","338-UY","2018/01/26 13:59:27","新北市永和區福和路82-1號","121.522801666667","25.0080016666667","6500400","永和區"
"234068","552-UM","2018/01/26 13:59:29","新北市永和區國光路16號","121.518995","25.0083116666667","6500400","永和區"
"234015","745-BX","2018/01/26 13:59:31","新北市永和區文化路86號","121.513948333333","25.0152166666667","6500400","永和區"
"234028","746-BX","2018/01/26 13:59:16","新北市永和區民生路67巷46號","121.525126666667","24.99747","6500400","永和區"
"234052","KEA-2590","2018/01/26 13:59:20","新北市永和區竹林路39巷35-1號","121.520226666667","25.0153633333333","6500400","永和區"
"234012","KEA-2591","2018/01/26 13:59:18","新北市永和區仁愛路295號","121.505218333333","25.0093116666667","6500400","永和區"
"234060","AAD-866","2018/01/26 13:59:20","新北市永和區中正路151巷14號","121.515603333333","24.9987983333333","6500400","永和區"
"234040","862-TW","2018/01/26 13:59:24","新北市永和區雙和街64巷25號","121.509671666667","25.0033016666667","6500400","永和區"
"234048","863-TW","2018/01/26 13:59:31","新北市永和區保安路260號","121.505946666667","25.0124183333333","6500400","永和區"
"234025","9371-KE","2018/01/26 13:59:27","新北市永和區自由街50號","121.513716666667","25.0060766666667","6500400","永和區"
"234010","9373-KE","2018/01/26 13:59:32","新北市永和區仁愛路352巷112弄7號","121.50074","25.0084716666667","6500400","永和區"
"248019","225-UY","2018/01/26 13:57:26","新北市五股區凌雲路三段57號","121.425306666667","25.1250383333333","6501500","五股區"
"234022","9380-KE","2018/01/26 13:59:22","新北市永和區永和路二段241號","121.51571","25.01455","6500400","永和區"
"234076","969-R7","2018/01/26 13:59:29","新北市永和區民族街43巷9號","121.518853333333","24.9984333333333","6500400","永和區"
"234072","AAC-211","2018/01/26 13:59:33","新北市永和區豫溪街187巷1號","121.522503333333","25.0104283333333","6500400","永和區"
"234066","AAC-212","2018/01/26 13:59:35","新北市永和區永貞路313號","121.510095","25.0065616666667","6500400","永和區"
"234001","AAC-295","2018/01/26 13:59:31","新北市永和區福和路318號","121.515783333333","25.0072733333333","6500400","永和區"
"244004","248-BX","2018/01/26 13:59:27","新北市林口區民族路276號","121.370058333333","25.078715","6501700","林口區"
"231002","002-UM","2018/01/26 13:59:25","新北市新店區中正路613號","121.5339","24.988715","6500600","新店區"
"231027","0291-UT","2018/01/26 13:59:12","新北市新店區北宜路一段39巷20號","121.538743333333","24.95842","6500600","新店區"
"231025","0293-UT","2018/01/26 13:59:20","新北市新店區中正路275巷45號","121.536656666667","24.9726583333333","6500600","新店區"
"231028","046-UY","2018/01/26 13:59:28","新北市新店區安和路三段157號","121.516443333333","24.9857316666667","6500600","新店區"
"231030","047-UY","2018/01/26 13:59:28","新北市新店區安民街65巷21-2號","121.51514","24.9674533333333","6500600","新店區"
"231018","107-UY","2018/01/26 13:59:31","新北市新店區中央路116號","121.531098333333","24.9751016666667","6500600","新店區"
"231022","110-UY","2018/01/26 13:59:29","新北市新店區新烏路二段198巷2弄2號","121.547786666667","24.917015","6500600","新店區"
"231016","KEA-2219","2018/01/26 13:59:19","新北市新店區北宜路二段150號","121.557753333333","24.952955","6500600","新店區"
"231026","256-BX","2018/01/26 13:59:25","新北市新店區安康路一段35-1號","121.532003333333","24.9606383333333","6500600","新店區"
"231023","AAD-862","2018/01/26 13:59:23","新北市新店區文中路40號","121.539706666667","24.9565133333333","6500600","新店區"
"231024","4716-K9","2018/01/26 13:59:24","新北市新店區新生街18巷1號","121.539953333333","24.9663283333333","6500600","新店區"
"231038","4715-K9","2018/01/26 13:59:27","新北市新店區溪洲路121號","121.531158333333","24.9628183333333","6500600","新店區"
"231036","512-UM","2018/01/26 13:59:31","新北市新店區安祥路109巷3弄104號","121.479326666667","24.960485","6500600","新店區"
"231035","515-UM","2018/01/26 13:59:18","新北市新店區安和路一段52巷2號","121.51763","24.9662533333333","6500600","新店區"
"231003","616-UM","2018/01/26 13:59:26","新北市新店區北宜路一段3號","121.538475","24.9585533333333","6500600","新店區"
"231029","618-UM","2018/01/26 13:59:16","新北市新店區安康路二段51號","121.51439","24.963425","6500600","新店區"
"231001","619-UM","2018/01/26 13:59:27","新北市新店區三民路24號","121.537098333333","24.9709933333333","6500600","新店區"
"231034","645-TV","2018/01/26 13:59:30","新北市新店區達觀路16號","121.503465","24.94021","6500600","新店區"
"231013","719-UM","2018/01/26 13:59:31","新北市新店區明德路113號","121.541406666667","24.9795483333333","6500600","新店區"
"231012","719-UY","2018/01/26 13:59:29","新北市新店區中興路一段282-5號","121.546296666667","24.9681216666667","6500600","新店區"
"231032","720-UM","2018/01/26 13:59:27","新北市新店區華城路11號","121.529713333333","24.9601483333333","6500600","新店區"
"231005","897-TW","2018/01/26 13:59:22","新北市新店區中興路三段170號","121.544231666667","24.98088","6500600","新店區"
"231006","898-TW","2018/01/26 13:59:23","新北市新店區北宜路二段215號","121.553308333333","24.9533","6500600","新店區"
"231004","899-TW","2018/01/26 13:59:16","新北市新店區北新路二段184號","121.542925","24.9762716666667","6500600","新店區"
"231037","AKT-0513","2018/01/26 13:59:32","新北市新店區安康路三段165巷2弄6號","121.48939","24.95135","6500600","新店區"
"235030","003-UY","2018/01/26 13:59:30","新北市中和區中山路二段131巷5弄2號","121.502856666667","25.00282","6500300","中和區"
"235028","005-UY","2018/01/26 13:59:22","新北市中和區泰和街44巷19號","121.498383333333","25.0007733333333","6500300","中和區"
"235027","006-UY","2018/01/26 13:59:24","新北市中和區中正路634號","121.48559","24.99606","6500300","中和區"
"235020","096-UM","2018/01/26 13:59:26","新北市中和區員山路570號","121.478896666667","25.011445","6500300","中和區"
"235003","097-UM","2018/01/26 13:59:17","新北市中和區景平路64巷18號","121.52248","24.9913016666667","6500300","中和區"
"235029","098-UM","2018/01/26 13:59:26","新北市中和區勝利路35巷1弄36號","121.500383333333","25.0079483333333","6500300","中和區"
"235004","150-BY","2018/01/26 13:59:35","新北市中和區保健路46巷20弄2號","121.509008333333","24.99618","6500300","中和區"
"235022","151-BY","2018/01/26 13:59:19","新北市中和區連城路428巷13號","121.479828333333","24.995575","6500300","中和區"
"235019","183-VK","2018/01/26 13:59:24","新北市中和區中山路三段206號","121.47159","25.0064816666667","6500300","中和區"
"235002","185-VK","2018/01/26 13:59:28","新北市中和區立人街24-5號","121.518853333333","24.9942116666667","6500300","中和區"
"235013","186-VK","2018/01/26 13:59:19","新北市中和區景新街168-2號","121.505875","24.9967366666667","6500300","中和區"
"235031","255-BX","2018/01/26 13:59:25","新北市中和區新生街158號","121.483631666667","25.00045","6500300","中和區"
"235008","293-VK","2018/01/26 13:59:19","新北市中和區中興街161巷10弄1號","121.501331666667","24.99093","6500300","中和區"
"235036","301-VK","2018/01/26 13:59:24","新北市中和區中山路二段153號","121.50172","25.00278","6500300","中和區"
"235007","352-BY","2018/01/26 13:59:14","新北市中和區秀朗路三段103號","121.526445","24.9947716666667","6500300","中和區"
"235032","377-QA","2018/01/26 13:59:26","新北市中和區圓通路215號","121.496803333333","24.9943266666667","6500300","中和區"
"235025","378-QA","2018/01/26 13:59:24","新北市中和區中山路三段83號","121.475743333333","25.005865","6500300","中和區"
"235014","4979-A6","2018/01/26 13:59:18","新北市中和區華新街50巷6號","121.507708333333","24.9839833333333","6500300","中和區"
"235033","4980-A6","2018/01/26 13:59:17","新北市中和區中和路217巷12號","121.504475","25.000495","6500300","中和區"
"235006","551-UM","2018/01/26 13:59:25","新北市中和區秀朗路三段10巷35弄3號","121.524456666667","24.99587","6500300","中和區"
"235034","558-UM","2018/01/26 13:59:02","新北市中和區景新街41巷16號","121.504263333333","24.9995566666667","6500300","中和區"
"235009","565-BX","2018/01/26 13:59:29","新北市中和區景新街467巷22號","121.514221666667","24.98834","6500300","中和區"
"235018","640-BX","2018/01/26 13:59:23","新北市中和區中山路三段147號","121.4737","25.006055","6500300","中和區"
"235024","647-TV","2018/01/26 13:59:15","新北市中和區中山路三段150號","121.473543333333","25.0062733333333","6500300","中和區"
"235011","732-UM","2018/01/26 13:59:23","新北市中和區興南路二段101號","121.505983333333","24.98462","6500300","中和區"
"235010","733-UM","2018/01/26 13:59:24","新北市中和區興南路二段11號","121.508178333333","24.9861583333333","6500300","中和區"
"235026","800-TS","2018/01/26 13:59:17","新北市中和區中山路二段366巷13-1號","121.491776666667","25.0045533333333","6500300","中和區"
"235005","802-TS","2018/01/26 13:59:25","新北市中和區新興街17巷28號","121.512746666667","25.0028833333333","6500300","中和區"
"235016","805-TS","2018/01/26 13:59:29","新北市中和區興南路二段261巷6-2號","121.503975","24.9801483333333","6500300","中和區"
"235012","896-TW","2018/01/26 13:59:19","新北市中和區華新街38號","121.507888333333","24.984335","6500300","中和區"
"235017","900-TW","2018/01/26 13:59:28","新北市板橋區和平路190巷28號","121.464986666667","24.99455","6500300","中和區"
"235015","157-BY","2018/01/26 13:59:14","新北市中和區忠孝街19巷7號","121.509948333333","24.98382","6500300","中和區"
"235001","AAC-213","2018/01/26 13:59:16","新北市中和區自立路99巷1號","121.522141666667","24.9948116666667","6500300","中和區"
"235023","AAC-215","2018/01/26 13:59:19","新北市中和區圓通路367巷20弄29號","121.491295","24.9881916666667","6500300","中和區"
"220013","072-UY","2018/01/26 13:59:20","新北市板橋區民族路287巷12號","121.471153333333","25.0071533333333","6500100","板橋區"
"220034","073-UY","2018/01/26 13:59:15","新北市板橋區中正路236巷13號","121.456581666667","25.0191366666667","6500100","板橋區"
"220105","075-UY","2018/01/26 13:59:27","新北市板橋區莊敬路155號","121.471583333333","25.02479","6500100","板橋區"
"220017","AAD-861","2018/01/26 13:59:21","新北市板橋區東興街1號","121.458833333333","25.0051516666667","6500100","板橋區"
"220051","120-SR","2018/01/26 13:59:29","新北市板橋區田單街2巷38號","121.48186","25.0274566666667","6500100","板橋區"
"247019","500-BY","2018/01/26 13:59:28","新北市蘆洲區民族路422巷82弄2號","121.473598333333","25.0937066666667","6501400","蘆洲區"
"247007","341-TH","2018/01/26 13:59:28","新北市三重區三和路四段237號","121.481111666667","25.08035","6501400","蘆洲區"
"247009","339-TH","2018/01/26 13:59:24","新北市蘆洲區集賢路400號","121.480218333333","25.08219","6501400","蘆洲區"
"247001","337-TH","2018/01/26 13:59:18","新北市蘆洲區三民路605號","121.46055","25.0937066666667","6501400","蘆洲區"
"247003","336-TH","2018/01/26 13:59:27","新北市蘆洲區長榮路38-3號","121.463251666667","25.0826616666667","6501400","蘆洲區"
"247015","057-VK","2018/01/26 13:59:29","新北市蘆洲區光華路43號","121.468811666667","25.08303","6501400","蘆洲區"
"247005","056-VK","2018/01/26 13:59:28","新北市蘆洲區永安南路二段58-1號","121.465403333333","25.0778483333333","6501400","蘆洲區"
"247013","007-UY","2018/01/26 13:59:27","新北市蘆洲區中正路100號","121.469753333333","25.0843433333333","6501400","蘆洲區"
"247017","001-UY","2018/01/26 13:59:17","新北市蘆洲區民權路96巷15號","121.475493333333","25.0891516666667","6501400","蘆洲區"
"235021","251-BX","2018/01/26 13:59:30","新北市中和區民利街11號","121.480558333333","24.9991316666667","6500300","中和區"
"208004","AAC-292","2018/01/26 13:59:21","新北市金山區六股里下六股65號","121.614403333333","25.22363","6502700","金山區"
"207002","749-BX","2018/01/26 13:59:22","新北市萬里區溪底里溪底路10號","121.614361666667","25.1476733333333","6502800","萬里區"
"207001","662-BX","2018/01/26 13:59:28","新北市萬里區磺潭里清水18號","121.637863333333","25.1976366666667","6502800","萬里區"
"236067","105-UM","2018/01/26 13:59:27","新北市土城區城林路6巷80號","121.4385","24.9796533333333","6501300","土城區"
"236041","107-UM","2018/01/26 13:59:34","新北市土城區城林路6巷80號","121.438398333333","24.9797916666667","6501300","土城區"
"236077","166-UM","2018/01/26 13:59:23","新北市土城區永寧路24-1號","121.4296","24.9611916666667","6501300","土城區"
"236029","253-BX","2018/01/26 13:59:35","新北市土城區城林路6巷80號","121.438505","24.979835","6501300","土城區"
"236024","269-VK","2018/01/26 13:59:14","新北市土城區承天路18號","121.4394","24.9635066666667","6501300","土城區"
"236013","270-VK","2018/01/26 13:59:21","新北市土城區城林路6巷80號","121.438546666667","24.9797516666667","6501300","土城區"
"236019","401-BY","2018/01/26 13:59:17","新北市土城區城林路6巷80號","121.438578333333","24.9797866666667","6501300","土城區"
"236006","498-BY","2018/01/26 13:59:30","新北市土城區中央路一段365巷18弄2號","121.445843333333","24.9801983333333","6501300","土城區"
"236057","912-UM","2018/01/26 13:59:17","新北市土城區中央路三段188號","121.43048","24.96487","6501300","土城區"
"236046","913-UM","2018/01/26 13:59:17","新北市土城區城林路6巷80號","121.438405","24.9798083333333","6501300","土城區"
"236061","915-UM","2018/01/26 13:59:32","新北市土城區城林路6巷80號","121.438356666667","24.979725","6501300","土城區"
"236054","AAC-216","2018/01/26 13:59:26","新北市土城區城林路6巷80號","121.43836","24.9797833333333","6501300","土城區"
"220027","145-BY","2018/01/26 13:59:30","新北市板橋區民權路202巷9弄16號","121.459886666667","25.0155716666667","6500100","板橋區"
"220028","200-UY","2018/01/26 13:59:32","新北市板橋區大觀路二段265巷3弄13-1號","121.443416666667","24.9982733333333","6500100","板橋區"
"220030","610-BX","2018/01/26 13:59:29","新北市板橋區滿平街76號","121.427466666667","24.9892416666667","6500100","板橋區"
"220050","245-BX","2018/01/26 13:59:32","新北市板橋區文化路二段182巷3弄2號","121.471458333333","25.0271966666667","6500100","板橋區"
"220016","255-TC","2018/01/26 13:59:30","新北市板橋區中山路二段443巷52弄2號","121.48117","25.0215016666667","6500100","板橋區"
"220052","257-TC","2018/01/26 13:59:29","新北市板橋區縣民大道二段283號","121.470241666667","25.01796","6500100","板橋區"
"220004","276-BY","2018/01/26 13:59:30","新北市板橋區信義路116號","121.45837","24.9925833333333","6500100","板橋區"
"220020","277-BY","2018/01/26 13:59:20","新北市板橋區溪北路154號","121.430436666667","24.9882216666667","6500100","板橋區"
"220043","283-UM","2018/01/26 13:59:19","新北市板橋區文化路二段76號","121.469331666667","25.0249933333333","6500100","板橋區"
"220019","283-VK","2018/01/26 13:59:25","新北市板橋區重慶路245巷50弄28號","121.465263333333","25.000415","6500100","板橋區"
"220001","285-VK","2018/01/26 13:59:22","新北市板橋區中山路二段89巷45號","121.473668333333","25.0173166666667","6500100","板橋區"
"220031","286-VK","2018/01/26 13:59:34","新北市板橋區大觀路一段38巷170弄1號","121.441965","25.0045933333333","6500100","板橋區"
"220029","287-VK","2018/01/26 13:59:33","新北市板橋區光華街19巷2號","121.453915","25.012335","6500100","板橋區"
"220039","288-VK","2018/01/26 13:59:28","新北市板橋區四維路177巷2弄1號","121.464056666667","25.0262883333333","6500100","板橋區"
"220009","293-UM","2018/01/26 13:59:28","新北市板橋區永豐街120巷5號","121.476621666667","25.02055","6500100","板橋區"
"220010","295-UM","2018/01/26 13:56:53","新北市板橋區三民路二段253-1號","121.478971666667","25.0116216666667","6500100","板橋區"
"220032","296-UM","2018/01/26 13:59:25","新北市板橋區大觀路二段142-1號","121.442663333333","24.9991566666667","6500100","板橋區"
"220023","303-R5","2018/01/26 13:59:20","新北市板橋區館前西路211號","121.454616666667","25.0083633333333","6500100","板橋區"
"220041","307-R5","2018/01/26 13:59:22","新北市板橋區文化路一段104巷1號","121.464971666667","25.0180666666667","6500100","板橋區"
"220047","317-R6","2018/01/26 13:59:32","新北市板橋區民有街26號","121.466091666667","25.0252533333333","6500100","板橋區"
"220012","486-VK","2018/01/26 13:59:26","新北市板橋區板新路237號","121.467508333333","25.015865","6500100","板橋區"
"220038","487-VK","2018/01/26 13:59:28","新北市板橋區文化路二段282號","121.47164","25.0291366666667","6500100","板橋區"
"220037","491-VK","2018/01/26 13:59:33","新北市板橋區文化路二段22號","121.468868333333","25.02442","6500100","板橋區"
"220104","560-BX","2018/01/26 13:59:33","新北市板橋區中正路294號","121.454991666667","25.0204066666667","6500100","板橋區"
"220003","568-UM","2018/01/26 13:59:35","新北市板橋區中山路一段158巷15號","121.466343333333","25.0113816666667","6500100","板橋區"
"220011","609-BX","2018/01/26 13:59:29","新北市板橋區中山路二段193號","121.47643","25.0170133333333","6500100","板橋區"
"220040","637-BX","2018/01/26 13:59:30","新北市板橋區雙十路二段47巷52號","121.474946666667","25.0253983333333","6500100","板橋區"
"220005","686-BX","2018/01/26 13:59:33","新北市板橋區館前東路11號","121.459938333333","25.0071483333333","6500100","板橋區"
"220025","687-BX","2018/01/26 13:59:28","新北市板橋區大觀路二段174巷137號","121.441158333333","25.00202","6500100","板橋區"
"220042","689-BX","2018/01/26 13:59:34","新北市板橋區民生路三段64號","121.467111666667","25.0252383333333","6500100","板橋區"
"220002","741-BX","2018/01/26 13:59:29","新北市板橋區後埔街79號","121.460635","25.0054916666667","6500100","板橋區"
"220014","829-TW","2018/01/26 13:59:14","新北市板橋區三民路二段正隆巷62號","121.476591666667","25.0143516666667","6500100","板橋區"
"220045","831-TW","2018/01/26 13:59:14","新北市板橋區莒光路99號","121.472523333333","25.0240133333333","6500100","板橋區"
"220022","895-R6","2018/01/26 13:59:25","新北市板橋區南雅南路一段51號","121.45592","25.00616","6500100","板橋區"
"220021","985-R7","2018/01/26 13:59:30","新北市板橋區中正路157號","121.456621666667","25.0160766666667","6500100","板橋區"
"220046","AAC-210","2018/01/26 13:59:24","新北市板橋區陽明街166號","121.463645","25.024575","6500100","板橋區"
"220018","AAC-253","2018/01/26 13:59:33","新北市板橋區四川路一段288號","121.45874","25.00073","6500100","板橋區"
