"lineid","car","time","location","longitude","latitude","cityid","cityname"
"234013","KEA-2591","2018/01/26 16:26:01","新北市永和區福和路1號","121.52628","25.00947","6500400","永和區"
"234042","862-TW","2018/01/26 16:10:49","新北市永和區福和路1號","121.526588333333","25.0096516666667","6500400","永和區"
"248010","682-TV","2018/01/26 16:18:11","新北市五股區中興路二段37巷26號","121.46027","25.0751883333333","6501500","五股區"
"231046","278-BY","2018/01/26 16:29:25","新北市新店區灣潭路3-2號","121.538286666667","24.9507833333333","6500600","新店區"
"241011","013-R5","2018/01/26 16:29:30","新北市三重區秀江街53號","121.50103","25.072575","6500200","三重區"
"241028","022-UY","2018/01/26 16:29:36","新北市三重區中正南路157號","121.493843333333","25.05607","6500200","三重區"
"241008","059-VK","2018/01/26 16:29:21","新北市三重區力行路二段136巷45弄10號","121.4792","25.07533","6500200","三重區"
"241009","060-VK","2018/01/26 16:29:21","新北市三重區三和路四段191巷76號","121.484296666667","25.0798316666667","6500200","三重區"
"241031","061-VK","2018/01/26 16:29:33","新北市三重區重陽路一段45號","121.486758333333","25.0581416666667","6500200","三重區"
"241015","062-VK","2018/01/26 16:29:29","新北市三重區福德北路36-1號","121.50178","25.06517","6500200","三重區"
"241017","063-VK","2018/01/26 16:29:24","新北市三重區大同北路91號","121.494616666667","25.063645","6500200","三重區"
"241002","090-VK","2018/01/26 16:29:35","新北市三重區五華街6號","121.495105","25.0800066666667","6500200","三重區"
"241025","156-TC","2018/01/26 16:29:33","新北市三重區中正北路560巷100弄17-1號","121.472745","25.0682983333333","6500200","三重區"
"241005","262-UM","2018/01/26 16:29:30","新北市三重區仁華街146-1號","121.48746","25.0830083333333","6500200","三重區"
"241026","265-UM","2018/01/26 16:29:28","新北市三重區光興街1號","121.500366666667","25.06041","6500200","三重區"
"241016","266-UM","2018/01/26 16:29:20","新北市三重區大智街21號","121.494245","25.0658216666667","6500200","三重區"
"241018","268-UM","2018/01/26 16:29:29","新北市三重區重陽路四段75號","121.492393333333","25.0707716666667","6500200","三重區"
"241032","269-UM","2018/01/26 16:29:38","新北市三重區三陽路100巷3弄13號","121.483","25.0580383333333","6500200","三重區"
"241013","270-UM","2018/01/26 16:29:29","新北市三重區仁愛街50號","121.496091666667","25.0727666666667","6500200","三重區"
"241007","398-BY","2018/01/26 16:29:26","新北市三重區三和路四段167巷137號","121.487871666667","25.0802633333333","6500200","三重區"
"241003","KEA-2210","2018/01/26 16:29:25","新北市三重區仁義街220巷29號","121.49429","25.08357","6500200","三重區"
"241020","413-TH","2018/01/26 16:29:33","新北市三重區後竹圍街211號","121.484808333333","25.0714916666667","6500200","三重區"
"241004","475-VK","2018/01/26 16:29:25","新北市三重區仁愛街377巷40號","121.492225","25.0808483333333","6500200","三重區"
"241019","478-VK","2018/01/26 16:29:22","新北市三重區重陽路三段95號","121.490326666667","25.067885","6500200","三重區"
"241014","543-UM","2018/01/26 16:29:23","新北市三重區河邊北街70-3號","121.504336666667","25.0683633333333","6500200","三重區"
"241023","545-UM","2018/01/26 16:29:32","新北市三重區忠孝路三段50巷47號","121.482936666667","25.0644483333333","6500200","三重區"
"241001","547-UM","2018/01/26 16:29:23","新北市三重區仁政街116號","121.491823333333","25.078125","6500200","三重區"
"241006","AAD-863","2018/01/26 16:29:19","新北市三重區力行路二段131號","121.483271666667","25.0768833333333","6500200","三重區"
"241022","887-TS","2018/01/26 16:29:31","新北市三重區新北大道一段86巷1號","121.486006666667","25.06173","6500200","三重區"
"241012","941-UM","2018/01/26 16:29:18","新北市三重區河邊北街252號","121.5018","25.0760833333333","6500200","三重區"
"241029","942-UM","2018/01/26 16:29:27","新北市三重區集美街122號","121.488963333333","25.0535633333333","6500200","三重區"
"241033","AAC-255","2018/01/26 16:29:19","新北市三重區重新路五段317巷3弄7號","121.477556666667","25.0496666666667","6500200","三重區"
"235026","800-TS","2018/01/26 16:29:37","新北市中和區建八路143號","121.490351666667","24.998675","6500300","中和區"
"224006","676-BX","2018/01/26 16:29:22","新北市瑞芳區明燈路二段66號","121.809408333333","25.10741","6501200","瑞芳區"
"224007","273-VK","2018/01/26 16:29:23","新北市瑞芳區瑞竹路36巷1號","121.764178333333","25.10355","6501200","瑞芳區"
"224005","271-BY","2018/01/26 16:29:34","新北市瑞芳區阿美家園53號","121.820931666667","25.1174016666667","6501200","瑞芳區"
"227011","642-TC","2018/01/26 16:29:19","新北市雙溪區三港里雙澳路37-5號","121.872741666667","25.0501633333333","6502500","雙溪區"
"227003","400-TW","2018/01/26 16:29:18","新北市雙溪區上林里內平林120-2號","121.824446666667","25.0262633333333","6502500","雙溪區"
"251008","181-VK","2018/01/26 16:29:19","新北市淡水區中正東路一段2號","121.451966666667","25.1631316666667","6501000","淡水區"
