"lineid","car","time","location","longitude","latitude","cityid","cityname"
"234046","148-BY","2018/01/26 19:19:26","新北市永和區得和路361號","121.524633333333","24.99937","6500400","永和區"
"234007","207-UY","2018/01/26 19:19:26","新北市永和區中山路一段230號","121.508003333333","25.008085","6500400","永和區"
"234081","298-R6","2018/01/26 19:19:32","新北市永和區福和路7巷12弄1號","121.525425","25.0074966666667","6500400","永和區"
"234038","336-UY","2018/01/26 19:19:25","新北市永和區民樂街59巷1-1號","121.52774","24.9982983333333","6500400","永和區"
"234064","337-UY","2018/01/26 19:19:22","新北市永和區永元路17巷21號","121.521331666667","25.0011983333333","6500400","永和區"
"234086","338-UY","2018/01/26 19:19:27","新北市永和區永亨路9號","121.519386666667","25.0058283333333","6500400","永和區"
"234070","552-UM","2018/01/26 19:19:24","新北市永和區豫溪街35號","121.516628333333","25.009905","6500400","永和區"
"234017","745-BX","2018/01/26 19:19:28","新北市永和區文化路144巷31弄1號","121.512398333333","25.01669","6500400","永和區"
"234030","746-BX","2018/01/26 19:19:37","新北市永和區厚德街83號","121.524266666667","24.9987083333333","6500400","永和區"
"234054","KEA-2590","2018/01/26 19:19:34","新北市永和區中興街17號","121.51595","25.0119666666667","6500400","永和區"
"234013","KEA-2591","2018/01/26 19:19:29","新北市永和區信義路39號","121.513263333333","25.0122933333333","6500400","永和區"
"234061","AAD-866","2018/01/26 19:19:40","新北市永和區秀朗路一段171號","121.51696","25.00384","6500400","永和區"
"234042","862-TW","2018/01/26 19:19:42","新北市永和區保平路151巷17號","121.510681666667","25.005115","6500400","永和區"
"234050","863-TW","2018/01/26 19:19:21","新北市永和區保福路二段88巷18號","121.511518333333","25.0136883333333","6500400","永和區"
"234026","9371-KE","2018/01/26 19:19:31","新北市永和區得和路42巷23號","121.515333333333","24.9996083333333","6500400","永和區"
"234011","9373-KE","2018/01/26 19:19:25","新北市永和區保福路二段37號","121.510851666667","25.0114583333333","6500400","永和區"
"249001","173-UM","2018/01/26 19:19:37","新北市八里區中華路二段103-1號","121.409188333333","25.152345","6502300","八里區"
"249003","593-UM","2018/01/26 19:19:22","新北市八里區中山路二段446號","121.399426666667","25.14751","6502300","八里區"
"248018","225-UY","2018/01/26 19:19:24","新北市五股區壟路8-2號","121.416428333333","25.0899183333333","6501500","五股區"
"248012","247-BX","2018/01/26 19:19:40","新北市五股區中興路四段48巷16號","121.438623333333","25.0834216666667","6501500","五股區"
"248004","677-BX","2018/01/26 19:19:22","新北市五股區五福路145號","121.431851666667","25.0916666666667","6501500","五股區"
"248002","678-BX","2018/01/26 19:19:33","新北市五股區凌雲路一段158巷14-1號","121.447961666667","25.103515","6501500","五股區"
"248010","682-TV","2018/01/26 19:19:33","新北市五股區自強路90巷72號","121.430696666667","25.0712916666667","6501500","五股區"
"234023","9380-KE","2018/01/26 19:19:25","新北市永和區竹林路109巷5號","121.520176666667","25.0119483333333","6500400","永和區"
"234077","969-R7","2018/01/26 19:19:40","新北市永和區民族街44號","121.51837","24.9987866666667","6500400","永和區"
"234074","AAC-211","2018/01/26 19:19:28","新北市永和區竹林路90號","121.5195","25.0123566666667","6500400","永和區"
"234067","AAC-212","2018/01/26 19:19:25","新北市永和區保平路50巷2號","121.51127","25.007235","6500400","永和區"
"234003","AAC-295","2018/01/26 19:19:30","新北市永和區中山路一段108巷5-1號","121.510833333333","25.01052","6500400","永和區"
"244013","069-UM","2018/01/26 19:19:31","新北市林口區麗園一街5號","121.376146666667","25.071945","6501700","林口區"
"244019","402-UM","2018/01/26 19:19:25","新北市林口區麗園一街15號","121.377036666667","25.069165","6501700","林口區"
"244023","483-VK","2018/01/26 19:19:38","新北市林口區文化三路一段555巷91號","121.369208333333","25.077255","6501700","林口區"
"244011","656-BX","2018/01/26 19:19:34","新北市林口區中山路253號","121.385611666667","25.07953","6501700","林口區"
"243012","AAD-798","2018/01/26 19:19:39","新北市泰山區仁愛路100巷9號","121.43347","25.0552666666667","6501600","泰山區"
"243011","297-R6","2018/01/26 19:19:24","新北市泰山區中央路11巷16號","121.426623333333","25.042495","6501600","泰山區"
"243015","380-SR","2018/01/26 19:19:32","新北市泰山區公園路29號","121.42866","25.0544433333333","6501600","泰山區"
"243014","421-VK","2018/01/26 19:19:38","新北市泰山區泰林路二段282號","121.431286666667","25.062395","6501600","泰山區"
"243010","KEA-2215","2018/01/26 19:19:32","新北市泰山區明志路一段492巷6弄2號","121.429923333333","25.0548616666667","6501600","泰山區"
"243009","KEA-2216","2018/01/26 19:19:35","新北市泰山區明志路一段19巷4號","121.434111666667","25.0656516666667","6501600","泰山區"
"243013","646-TV","2018/01/26 19:19:32","新北市泰山區明志路三段145巷7號","121.425498333333","25.039885","6501600","泰山區"
"243016","680-BX","2018/01/26 19:19:29","新北市泰山區明志路三段165號","121.42456","25.0395083333333","6501600","泰山區"
"222003","016-RS","2018/01/26 19:19:32","新北市深坑區深南路204號","121.626656666667","25.0159966666667","6501800","深坑區"
"222002","659-BX","2018/01/26 19:19:28","新北市深坑區北深路一段177號","121.63243","25.0107733333333","6501800","深坑區"
"231041","002-UM","2018/01/26 19:19:29","新北市新店區溪園路245-6號","121.525428333333","24.9833016666667","6500600","新店區"
"231058","0291-UT","2018/01/26 19:19:32","新北市新店區北新路二段2號","121.542598333333","24.9705466666667","6500600","新店區"
"231059","046-UY","2018/01/26 19:19:33","新北市新店區安和路三段35-2號","121.516975","24.9802216666667","6500600","新店區"
"231061","047-UY","2018/01/26 19:19:27","新北市新店區安康路一段230-1號","121.522485","24.96379","6500600","新店區"
"231051","107-UY","2018/01/26 19:19:36","新北市新店區中央路99號","121.531101666667","24.9750433333333","6500600","新店區"
"231048","108-UY","2018/01/26 19:19:38","新北市新店區五峰路83號","121.546201666667","24.9676233333333","6500600","新店區"
"231053","110-UY","2018/01/26 19:19:37","新北市新店區櫻花街206號","121.548025","24.919755","6500600","新店區"
"231050","KEA-2219","2018/01/26 19:18:32","新北市新店區竹林路167號","121.557026666667","24.94807","6500600","新店區"
"231046","278-BY","2018/01/26 19:19:25","新北市新店區華城路36巷1-1號","121.528376666667","24.955365","6500600","新店區"
"231054","AAD-862","2018/01/26 19:19:38","新北市新店區國校路2巷1號","121.537871666667","24.956525","6500600","新店區"
"231055","4716-K9","2018/01/26 19:19:37","新北市新店區新生街13巷26號","121.538968333333","24.966505","6500600","新店區"
"231065","512-UM","2018/01/26 19:19:22","新北市新店區安祥路109巷3弄104號","121.479325","24.9604283333333","6500600","新店區"
"231064","515-UM","2018/01/26 19:19:26","新北市新店區安忠路57巷26弄36號","121.512165","24.9579983333333","6500600","新店區"
"231042","616-UM","2018/01/26 19:19:34","新北市新店區中興路一段24-2號","121.538498333333","24.958335","6500600","新店區"
"231060","618-UM","2018/01/26 19:19:40","新北市新店區安康路二段136號","121.512463333333","24.9620366666667","6500600","新店區"
"231040","619-UM","2018/01/26 19:19:23","新北市新店區中華路70巷2號","121.539008333333","24.969275","6500600","新店區"
"231063","645-TV","2018/01/26 19:19:21","新北市新店區達觀路14巷5號","121.503711666667","24.9426066666667","6500600","新店區"
"231049","719-UM","2018/01/26 19:19:30","新北市新店區明德路62號","121.541561666667","24.979345","6500600","新店區"
"231062","720-UM","2018/01/26 19:19:29","新北市新店區莒光路70號","121.522931666667","24.9547883333333","6500600","新店區"
"231044","897-TW","2018/01/26 19:19:31","新北市新店區中興路三段295號","121.542288333333","24.9850266666667","6500600","新店區"
"231045","898-TW","2018/01/26 19:19:40","新北市新店區北宜路二段6號","121.547703333333","24.9518083333333","6500600","新店區"
"231043","899-TW","2018/01/26 19:19:30","新北市新店區北新路二段141-1號","121.54285","24.9756716666667","6500600","新店區"
"231066","AKT-0513","2018/01/26 19:19:32","新北市新店區安康路三段356-1號","121.486101666667","24.9516833333333","6500600","新店區"
"241031","061-VK","2018/01/26 19:19:33","新北市三重區重新路四段91-2號","121.48598","25.0551633333333","6500200","三重區"
"241017","063-VK","2018/01/26 19:19:23","新北市三重區長壽西街208號","121.492226666667","25.0660883333333","6500200","三重區"
"241025","156-TC","2018/01/26 19:19:42","新北市三重區中正北路406號","121.475276666667","25.0703833333333","6500200","三重區"
"241026","265-UM","2018/01/26 19:19:31","新北市三重區光興街61號","121.498756666667","25.0602866666667","6500200","三重區"
"241032","269-UM","2018/01/26 19:19:37","新北市三重區新生街88號","121.483893333333","25.0593116666667","6500200","三重區"
"241007","398-BY","2018/01/26 19:19:25","新北市三重區慈愛街47號","121.486031666667","25.0790583333333","6500200","三重區"
"241020","413-TH","2018/01/26 19:19:30","新北市三重區永德街14號","121.488733333333","25.0726333333333","6500200","三重區"
"241030","480-VK","2018/01/26 19:19:39","新北市三重區成功路41巷72號","121.491398333333","25.0532166666667","6500200","三重區"
"241006","AAD-863","2018/01/26 19:19:40","新北市三重區車路頭街182號","121.483695","25.0772216666667","6500200","三重區"
"241022","887-TS","2018/01/26 19:19:31","新北市三重區中正北路60號","121.486886666667","25.0643733333333","6500200","三重區"
"241029","942-UM","2018/01/26 19:19:33","新北市三重區重安街19號","121.490708333333","25.057245","6500200","三重區"
"235066","003-UY","2018/01/26 19:19:29","新北市中和區枋寮街2號","121.502413333333","24.9999166666667","6500300","中和區"
"235028","005-UY","2018/01/26 19:19:39","新北市中和區泰和街4號","121.499816666667","25.001315","6500300","中和區"
"235063","006-UY","2018/01/26 19:19:25","新北市中和區連城路224號","121.491051666667","24.99643","6500300","中和區"
"235056","096-UM","2018/01/26 19:19:25","新北市中和區員山路527號","121.479671666667","25.0068866666667","6500300","中和區"
"235039","097-UM","2018/01/26 19:19:33","新北市中和區景平路64巷14弄22號","121.522893333333","24.991275","6500300","中和區"
"235065","098-UM","2018/01/26 19:19:32","新北市中和區中山路二段2巷3弄2號","121.504833333333","25.0061533333333","6500300","中和區"
"235040","150-BY","2018/01/26 19:19:37","新北市中和區保健路50巷9號","121.510185","24.996535","6500300","中和區"
"235058","151-BY","2018/01/26 19:19:35","新北市中和區連城路523巷9弄11號","121.482195","24.9947183333333","6500300","中和區"
"235055","183-VK","2018/01/26 19:19:32","新北市中和區德光路21號","121.470901666667","25.0042133333333","6500300","中和區"
"235038","185-VK","2018/01/26 19:19:36","新北市中和區大智街23巷2弄3號","121.520083333333","24.9923466666667","6500300","中和區"
"235049","186-VK","2018/01/26 19:19:33","新北市中和區景新街241號","121.508178333333","24.9943916666667","6500300","中和區"
"235067","255-BX","2018/01/26 19:19:24","新北市中和區民樂路81號","121.484843333333","25.001265","6500300","中和區"
"235044","293-VK","2018/01/26 19:19:26","新北市中和區復興路310號","121.501155","24.990325","6500300","中和區"
"235072","301-VK","2018/01/26 19:19:33","新北市中和區連城路265-2號","121.491201666667","24.9963816666667","6500300","中和區"
"235043","352-BY","2018/01/26 19:19:35","新北市中和區景平路388號","121.510546666667","24.99297","6500300","中和區"
"235068","377-QA","2018/01/26 19:19:32","新北市中和區連城路127巷35號","121.497446666667","24.9971316666667","6500300","中和區"
"235061","378-QA","2018/01/26 19:19:30","新北市中和區員山路394巷12弄8號","121.481328333333","25.004185","6500300","中和區"
"235050","4979-A6","2018/01/26 19:19:42","新北市中和區景安路208巷13號","121.50328","24.9913","6500300","中和區"
"235069","4980-A6","2018/01/26 19:19:38","新北市中和區中山路二段181巷7號","121.501123333333","25.0019233333333","6500300","中和區"
"235042","551-UM","2018/01/26 19:19:35","新北市永和區民有街69號","121.51783","24.9956916666667","6500300","中和區"
"235070","558-UM","2018/01/26 19:19:35","新北市中和區中山路二段207號","121.499715","25.002335","6500300","中和區"
"235045","565-BX","2018/01/26 19:19:38","新北市中和區景新街423巷37號","121.514145","24.9896966666667","6500300","中和區"
"235054","640-BX","2018/01/26 19:19:36","新北市中和區國光街109巷2弄19號","121.46898","25.0006733333333","6500300","中和區"
"235060","647-TV","2018/01/26 19:19:40","新北市中和區民有街43號","121.475878333333","25.00487","6500300","中和區"
"235047","732-UM","2018/01/26 19:19:40","新北市中和區景平路239巷5-2號","121.50974","24.9924433333333","6500300","中和區"
"235046","733-UM","2018/01/26 19:19:22","新北市中和區忠孝街2巷14弄10號","121.510673333333","24.9813716666667","6500300","中和區"
"235041","802-TS","2018/01/26 19:19:21","新北市中和區中和路252巷3號","121.507738333333","24.9992233333333","6500300","中和區"
"235052","805-TS","2018/01/26 19:19:37","新北市中和區華新街143巷13弄2號","121.506783333333","24.9809483333333","6500300","中和區"
"235048","896-TW","2018/01/26 19:19:39","新北市中和區忠孝街99-3號","121.512031666667","24.9861033333333","6500300","中和區"
"235053","900-TW","2018/01/26 19:19:27","新北市中和區民德路224號","121.468216666667","24.99773","6500300","中和區"
"235051","157-BY","2018/01/26 19:19:35","新北市中和區和平街36號","121.509106666667","24.9904016666667","6500300","中和區"
"235037","AAC-213","2018/01/26 19:19:32","新北市中和區秀朗路三段10巷37弄6號","121.523998333333","24.9958516666667","6500300","中和區"
"235059","AAC-215","2018/01/26 19:19:43","新北市中和區圓通路286巷22號","121.491866666667","24.9913233333333","6500300","中和區"
"220065","072-UY","2018/01/26 19:19:32","新北市板橋區國泰街82號","121.467231666667","25.0066133333333","6500100","板橋區"
"220086","073-UY","2018/01/26 19:19:40","新北市板橋區中正路216巷44號","121.457231666667","25.0188083333333","6500100","板橋區"
"220106","075-UY","2018/01/26 19:19:37","新北市板橋區長江路二段275號","121.469896666667","25.0329966666667","6500100","板橋區"
"220069","AAD-861","2018/01/26 19:19:25","新北市板橋區華興街21巷18號","121.458605","25.0037216666667","6500100","板橋區"
"220102","120-SR","2018/01/26 19:19:27","新北市板橋區田單街13號","121.482051666667","25.0294216666667","6500100","板橋區"
"226004","205-ST","2018/01/26 19:19:31","新北市平溪區十分里十分街96-2號","121.776656666667","25.04257","6502400","平溪區"
"235057","251-BX","2018/01/26 19:19:42","新北市中和區民利街3號","121.480965","24.9991366666667","6500300","中和區"
"228003","097-TW","2018/01/26 19:19:21","新北市貢寮區和美里和美街19-2號","121.912801666667","25.0826033333333","6502600","貢寮區"
"228001","212-TW","2018/01/26 19:19:24","新北市貢寮區真理里新港街10號","121.9255","25.0543883333333","6502600","貢寮區"
"228002","663-BX","2018/01/26 19:19:32","新北市貢寮區雙玉里田寮洋街21號","121.926655","25.0242883333333","6502600","貢寮區"
"224010","AGQ-8101","2018/01/26 19:19:36","新北市瑞芳區輕便路135號","121.843645","25.1090516666667","6501200","瑞芳區"
"224006","676-BX","2018/01/26 19:19:38","新北市瑞芳區中山路258號","121.799668333333","25.1073583333333","6501200","瑞芳區"
"224009","285-BY","2018/01/26 19:19:20","新北市瑞芳區海濱路3巷2-9號","121.842815","25.12681","6501200","瑞芳區"
"224008","275-VK","2018/01/26 19:19:25","新北市瑞芳區一坑路99號","121.802205","25.1078866666667","6501200","瑞芳區"
"224005","271-BY","2018/01/26 19:19:34","新北市瑞芳區三爪子坑路335號","121.818806666667","25.1050383333333","6501200","瑞芳區"
"227011","642-TC","2018/01/26 19:19:39","新北市雙溪區新基里新基北街40號","121.86852","25.0380233333333","6502500","雙溪區"
"227003","400-TW","2018/01/26 19:19:38","新北市雙溪區平林里梅竹蹊66-1號","121.860128333333","25.0358183333333","6502500","雙溪區"
"253005","032-BX","2018/01/26 19:19:25","新北市石門區阿里荖42-1號","121.603953333333","25.2850716666667","6502200","石門區"
"253006","295-VK","2018/01/26 19:19:37","新北市石門區楓林23-10號","121.538635","25.2910716666667","6502200","石門區"
"222001","KEA-2212","2018/01/26 19:19:27","新北市深坑區北深路二段103號","121.617346666667","25.0032583333333","6501800","深坑區"
"208002","742-BX","2018/01/26 19:19:28","新北市金山區中正路136號","121.63167","25.2217166666667","6502700","金山區"
"208003","665-BX","2018/01/26 19:19:40","新北市金山區忠孝一路44號","121.637826666667","25.2201083333333","6502700","金山區"
"208001","761-BX","2018/01/26 19:19:25","新北市金山區民生路69號","121.640143333333","25.2197666666667","6502700","金山區"
"251010","413-VK","2018/01/26 19:19:25","新北市淡水區沙崙路30號","121.42152","25.18144","6501000","淡水區"
"251012","441-VK","2018/01/26 19:19:21","新北市淡水區中山北路三段164號","121.445703333333","25.196555","6501000","淡水區"
"251005","443-VK","2018/01/26 19:19:25","新北市淡水區水源街一段29號","121.443143333333","25.172305","6501000","淡水區"
"251001","559-UM","2018/01/26 19:19:38","新北市淡水區民權路225號","121.458403333333","25.1315916666667","6501000","淡水區"
"251006","561-UM","2018/01/26 19:19:24","新北市淡水區大信街33號","121.442045","25.1773066666667","6501000","淡水區"
"251009","575-R6","2018/01/26 19:19:38","新北市淡水區大忠街5巷9號","121.443395","25.17652","6501000","淡水區"
"251007","577-R6","2018/01/26 19:19:28","新北市淡水區民生路117巷9號","121.46489","25.13913","6501000","淡水區"
"251003","766-UM","2018/01/26 19:19:21","新北市淡水區中山北路一段168號","121.444306666667","25.1785883333333","6501000","淡水區"
"207003","550-UM","2018/01/26 19:19:37","新北市萬里區大鵬里萬里加投79-3號","121.647323333333","25.2123366666667","6502800","萬里區"
"207004","225-TW","2018/01/26 19:19:31","新北市萬里區萬里里瑪鋉路4號","121.687586666667","25.17505","6502800","萬里區"
"252002","178-VK","2018/01/26 19:19:40","新北市三芝區淡金路二段21號","121.502726666667","25.2594883333333","6502100","三芝區"
"252001","292-VK","2018/01/26 19:19:32","新北市三芝區長勤街9巷11弄3號","121.501866666667","25.2546416666667","6502100","三芝區"
"237004","078-UY","2018/01/26 19:19:28","新北市三峽區有木203號","121.439188333333","24.85127","6500900","三峽區"
"237007","153-BY","2018/01/26 19:19:34","新北市三峽區二鬮路178號","121.359076666667","24.9068133333333","6500900","三峽區"
"237009","210-TH","2018/01/26 19:19:39","新北市三峽區和平街33號","121.37038","24.93544","6500900","三峽區"
"237013","252-BX","2018/01/26 19:19:28","新北市三峽區大同路39巷33號","121.378011666667","24.927525","6500900","三峽區"
"237012","275-BY","2018/01/26 19:19:30","新北市三峽區三樹路222巷236弄8-3號","121.391368333333","24.9429816666667","6500900","三峽區"
"237008","302-VK","2018/01/26 19:19:42","新北市三峽區永安街93號","121.374696666667","24.9290366666667","6500900","三峽區"
"237014","433-BY","2018/01/26 19:19:31","新北市三峽區中山路63巷12號","121.366963333333","24.93427","6500900","三峽區"
"237006","5529-G3","2018/01/26 19:19:35","新北市三峽區中正路一段336巷15弄2號","121.36996","24.924935","6500900","三峽區"
"237015","649-BX","2018/01/26 19:16:48","新北市三峽區安坑12-2號","121.442805","24.9264016666667","6500900","三峽區"
"237005","AKY-6261","2018/01/26 19:19:28","新北市三峽區中山路459巷50-1號","121.35627","24.9373316666667","6500900","三峽區"
"236072","105-UM","2018/01/26 19:19:40","新北市土城區學成路76巷6號","121.451505","24.9885333333333","6501300","土城區"
"236079","166-UM","2018/01/26 19:19:24","新北市土城區中央路四段323號","121.410528333333","24.9510916666667","6501300","土城區"
"236031","253-BX","2018/01/26 19:19:37","新北市土城區城林路6巷80號","121.438511666667","24.97959","6501300","土城區"
"236026","269-VK","2018/01/26 19:19:40","新北市土城區中央路二段94號","121.442228333333","24.978645","6501300","土城區"
"236015","270-VK","2018/01/26 19:19:23","新北市土城區學府路一段23巷25弄7號","121.457983333333","24.98659","6501300","土城區"
"236022","401-BY","2018/01/26 19:19:17","新北市土城區峰廷街3號","121.469166666667","24.98732","6501300","土城區"
"236059","912-UM","2018/01/26 19:19:25","新北市土城區中央路三段38號","121.438431666667","24.96877","6501300","土城區"
"236050","913-UM","2018/01/26 19:19:30","新北市土城區明德路一段398-1號","121.45364","24.9790866666667","6501300","土城區"
"238015","755-BX","2018/01/26 19:19:27","新北市樹林區大安路523號","121.414063333333","24.986035","6500700","樹林區"
"238023","601-UM","2018/01/26 19:19:26","新北市樹林區三興路64號","121.393731666667","25.0145816666667","6500700","樹林區"
"238019","599-UM","2018/01/26 19:19:29","新北市樹林區鎮前街347巷3弄27號","121.417433333333","24.9837633333333","6500700","樹林區"
"238018","571-TV","2018/01/26 19:19:20","新北市樹林區中華路221號","121.418996666667","24.98107","6500700","樹林區"
"238024","5061-A6","2018/01/26 19:19:37","新北市樹林區福德街48-12號","121.398703333333","24.9747983333333","6500700","樹林區"
"238021","KEA-2217","2018/01/26 19:19:39","新北市樹林區柑園街二段441號","121.363771666667","24.9465533333333","6500700","樹林區"
"238022","KEA-2213","2018/01/26 19:19:31","新北市樹林區東興街4巷2號","121.408628333333","24.9801216666667","6500700","樹林區"
"238025","303-VK","2018/01/26 19:19:23","新北市樹林區中山路二段40號","121.41711","24.984855","6500700","樹林區"
"238017","283-BY","2018/01/26 19:19:35","新北市樹林區光興街125號","121.40825","25.0023216666667","6500700","樹林區"
"238014","282-BY","2018/01/26 19:19:26","新北市樹林區中正路23號","121.427581666667","24.99942","6500700","樹林區"
"238026","172-UY","2018/01/26 19:19:36","新北市樹林區佳園路三段87號","121.387523333333","24.952465","6500700","樹林區"
"238016","169-UY","2018/01/26 19:19:34","新北市樹林區中山路二段72-2號","121.415341666667","24.9841466666667","6500700","樹林區"
"239007","AAC-297","2018/01/26 19:19:35","新北市鶯歌區西湖街53巷30號","121.341818333333","24.9601033333333","6500800","鶯歌區"
"239006","891-R6","2018/01/26 19:19:31","新北市鶯歌區中正一路4號","121.35261","24.9526616666667","6500800","鶯歌區"
"239008","527-UM","2018/01/26 19:19:22","新北市鶯歌區大湖路349號","121.33828","24.9721116666667","6500800","鶯歌區"
"239005","526-UM","2018/01/26 19:19:35","新北市鶯歌區中湖街319號","121.348715","24.97568","6500800","鶯歌區"
"239001","417-VK","2018/01/26 19:19:29","新北市鶯歌區建國路367巷1號","121.339226666667","24.9496016666667","6500800","鶯歌區"
"239003","360-BY","2018/01/26 19:19:34","新北市鶯歌區中正二路11號","121.351488333333","24.951545","6500800","鶯歌區"
"239002","359-BY","2018/01/26 19:19:24","新北市鶯歌區湖山路54巷1號","121.339513333333","24.97535","6500800","鶯歌區"
"239004","193-VK","2018/01/26 19:19:34","新北市鶯歌區二甲路43-29號","121.33659","24.9342266666667","6500800","鶯歌區"
"221036","130-UY","2018/01/26 19:19:34","新北市汐止區汐萬路一段256巷3號","121.653333333333","25.07463","6501100","汐止區"
"221010","269-BY","2018/01/26 19:19:27","新北市汐止區康寧街901號","121.651466666667","25.0748966666667","6501100","汐止區"
"221012","278-VK","2018/01/26 19:19:35","新北市汐止區汐萬路一段312號","121.650455","25.0751233333333","6501100","汐止區"
"221023","279-VK","2018/01/26 19:19:26","新北市汐止區康寧街901號","121.650993333333","25.0752333333333","6501100","汐止區"
"221027","281-BY","2018/01/26 19:19:30","新北市汐止區汐萬路一段312號","121.65055","25.0753616666667","6501100","汐止區"
"221002","297-VK","2018/01/26 19:19:39","新北市汐止區大同路一段90號","121.629255","25.054045","6501100","汐止區"
"221029","298-VK","2018/01/26 19:19:37","新北市汐止區康寧街901號","121.651618333333","25.0748833333333","6501100","汐止區"
"221031","353-TW","2018/01/26 19:19:30","新北市汐止區汐萬路一段312號","121.650146666667","25.0755533333333","6501100","汐止區"
"221008","358-BY","2018/01/26 19:19:28","新北市汐止區康寧街277號","121.625885","25.0672116666667","6501100","汐止區"
"221015","567-BX","2018/01/26 19:19:34","新北市汐止區汐萬路一段256巷1號","121.65176","25.0748466666667","6501100","汐止區"
"221025","623-UM","2018/01/26 19:19:24","新北市汐止區汐萬路一段312號","121.650386666667","25.0750333333333","6501100","汐止區"
"221038","646-BX","2018/01/26 19:19:33","新北市汐止區汐萬路一段312號","121.650648333333","25.0752883333333","6501100","汐止區"
"221033","647-BX","2018/01/26 19:19:28","新北市汐止區南勢街1巷1號","121.62702","25.0374166666667","6501100","汐止區"
"220079","145-BY","2018/01/26 19:19:31","新北市板橋區民權路202巷17弄26號","121.459715","25.0166516666667","6500100","板橋區"
"220080","200-UY","2018/01/26 19:19:27","新北市板橋區大觀路二段19巷58號","121.44838","25.0029666666667","6500100","板橋區"
"220082","610-BX","2018/01/26 19:19:36","新北市板橋區金門街249號","121.431931666667","24.98914","6500100","板橋區"
"220101","245-BX","2018/01/26 19:19:29","新北市板橋區莊敬路262-1號","121.474101666667","25.0216983333333","6500100","板橋區"
"220096","255-TC","2018/01/26 19:19:38","新北市板橋區文聖街156-1號","121.4787","25.0272683333333","6500100","板橋區"
"220103","257-TC","2018/01/26 19:19:30","新北市板橋區文化路一段188巷5弄17號","121.467498333333","25.0198933333333","6500100","板橋區"
"220056","276-BY","2018/01/26 19:19:39","新北市板橋區干城路143號","121.459941666667","24.9930716666667","6500100","板橋區"
"220072","277-BY","2018/01/26 19:19:24","新北市板橋區金門街337巷9弄1號","121.43043","24.984645","6500100","板橋區"
"220094","283-UM","2018/01/26 19:19:36","新北市板橋區吳鳳路21巷2號","121.467","25.0311733333333","6500100","板橋區"
"220071","283-VK","2018/01/26 19:19:28","新北市板橋區大豐街120號","121.46117","25.001155","6500100","板橋區"
"220053","285-VK","2018/01/26 19:19:38","新北市板橋區富山街30號","121.47804","25.0218266666667","6500100","板橋區"
"220083","286-VK","2018/01/26 19:19:22","新北市板橋區大觀路二段174巷177號","121.442003333333","25.0036933333333","6500100","板橋區"
"220081","287-VK","2018/01/26 19:19:37","新北市板橋區南雅西路一段126號","121.45257","25.0068283333333","6500100","板橋區"
"220090","288-VK","2018/01/26 19:19:29","新北市板橋區長江路一段106巷13弄20號","121.460905","25.0293466666667","6500100","板橋區"
"220061","293-UM","2018/01/26 19:19:30","新北市板橋區中山路二段318巷11號","121.480306666667","25.0187616666667","6500100","板橋區"
"220062","295-UM","2018/01/26 19:19:23","新北市板橋區三民路二段153巷20號","121.480445","25.01501","6500100","板橋區"
"220084","296-UM","2018/01/26 19:19:33","新北市板橋區溪崑二街68號","121.427645","24.990505","6500100","板橋區"
"242048","281-VK","2018/01/26 19:19:38","新北市新莊區後港一路3號","121.424206666667","25.0262616666667","6500500","新莊區"
"220075","303-R5","2018/01/26 19:19:31","新北市板橋區中正路275巷93號","121.450628333333","25.0180216666667","6500100","板橋區"
"220092","307-R5","2018/01/26 19:19:39","新北市板橋區文化路二段225巷72弄30號","121.46875","25.0290866666667","6500100","板橋區"
"220098","317-R6","2018/01/26 19:19:39","新北市板橋區民有街75號","121.465003333333","25.02717","6500100","板橋區"
"220064","486-VK","2018/01/26 19:19:33","新北市板橋區板新路202號","121.468981666667","25.0160633333333","6500100","板橋區"
"220089","487-VK","2018/01/26 19:19:28","新北市板橋區文化路一段479巷44號","121.467851666667","25.022695","6500100","板橋區"
"220088","491-VK","2018/01/26 19:19:37","新北市板橋區雙十路二段52號","121.475455","25.02771","6500100","板橋區"
"220035","560-BX","2018/01/26 19:19:26","新北市板橋區中正路360巷11號","121.454941666667","25.0237116666667","6500100","板橋區"
"220055","568-UM","2018/01/26 19:19:39","新北市板橋區館前東路156巷10號","121.464285","25.0071233333333","6500100","板橋區"
"220063","609-BX","2018/01/26 19:19:42","新北市板橋區三民路二段185號","121.479078333333","25.01423","6500100","板橋區"
"220091","637-BX","2018/01/26 19:19:31","新北市板橋區大同街52號","121.478771666667","25.027535","6500100","板橋區"
"220057","686-BX","2018/01/26 19:19:34","新北市板橋區重慶路291號","121.463616666667","24.9991433333333","6500100","板橋區"
"220077","687-BX","2018/01/26 19:19:41","新北市板橋區僑中二街90巷2號","121.446425","25.0091516666667","6500100","板橋區"
"220093","689-BX","2018/01/26 19:19:32","新北市板橋區文化路一段190號","121.465941666667","25.0197866666667","6500100","板橋區"
"220054","741-BX","2018/01/26 19:19:32","新北市板橋區校前街36號","121.460896666667","25.0031866666667","6500100","板橋區"
"220067","829-TW","2018/01/26 19:19:38","新北市板橋區長安街138巷1弄56號","121.474058333333","25.0101433333333","6500100","板橋區"
"220074","895-R6","2018/01/26 19:19:34","新北市板橋區中正路1巷14號","121.45522","25.0116166666667","6500100","板橋區"
"220073","985-R7","2018/01/26 19:19:34","新北市板橋區瑞安街56號","121.455393333333","25.0216716666667","6500100","板橋區"
"220097","AAC-210","2018/01/26 19:19:25","新北市板橋區中正路216巷150弄5號","121.46098","25.0193316666667","6500100","板橋區"
"220070","AAC-253","2018/01/26 19:19:28","新北市板橋區忠孝路58號","121.46109","25.0019816666667","6500100","板橋區"
