"lineid","car","time","location","longitude","latitude","cityid","cityname"
"234046","148-BY","2018/01/26 19:39:31","新北市永和區永利路156號","121.522565","25.0025266666667","6500400","永和區"
"234007","207-UY","2018/01/26 19:39:26","新北市永和區中和路545號","121.511596666667","25.0032983333333","6500400","永和區"
"234081","298-R6","2018/01/26 19:39:43","新北市永和區林森路20巷7號","121.52584","25.0057383333333","6500400","永和區"
"234038","336-UY","2018/01/26 19:39:42","新北市永和區民樂街29號","121.5277","25.0015633333333","6500400","永和區"
"234064","337-UY","2018/01/26 19:39:42","新北市永和區秀朗路一段192巷6弄14號","121.51915","25.0022433333333","6500400","永和區"
"234086","338-UY","2018/01/26 19:39:27","新北市永和區永亨路165巷10號","121.526215","25.004185","6500400","永和區"
"234070","552-UM","2018/01/26 19:39:43","新北市永和區永和路二段233號","121.515531666667","25.0141466666667","6500400","永和區"
"234017","745-BX","2018/01/26 19:39:33","新北市永和區永和路二段425巷37弄1號","121.514215","25.017305","6500400","永和區"
"234030","746-BX","2018/01/26 19:39:26","新北市永和區民生路37巷11號","121.523835","24.99809","6500400","永和區"
"234054","KEA-2590","2018/01/26 19:39:34","新北市永和區竹林路39巷26號","121.519028333333","25.01475","6500400","永和區"
"234013","KEA-2591","2018/01/26 19:39:29","新北市永和區仁愛路219號","121.509443333333","25.0122566666667","6500400","永和區"
"234061","AAD-866","2018/01/26 19:39:40","新北市永和區中正路446號","121.517423333333","25.0027516666667","6500400","永和區"
"234042","862-TW","2018/01/26 19:39:42","新北市永和區中和路305巷10弄1號","121.506978333333","25.0008783333333","6500400","永和區"
"234050","863-TW","2018/01/26 19:39:21","新北市永和區保福路二段158巷5號","121.509241666667","25.0151466666667","6500400","永和區"
"234026","9371-KE","2018/01/26 19:39:31","新北市永和區中和路501巷2號","121.5105","25.0025316666667","6500400","永和區"
"234011","9373-KE","2018/01/26 19:39:25","新北市永和區保安路292號","121.505018333333","25.0117416666667","6500400","永和區"
"249004","303-UY","2018/01/26 19:39:25","新北市八里區博物館路9號","121.41539","25.1640733333333","6502300","八里區"
"249002","305-UY","2018/01/26 19:39:29","新北市八里區頂寮二街33-1號","121.45038","25.125195","6502300","八里區"
"249003","593-UM","2018/01/26 19:39:22","新北市八里區中華路二段532號","121.3991","25.1456916666667","6502300","八里區"
"248016","026-BX","2018/01/26 19:39:30","新北市五股區成泰路三段641號","121.452881666667","25.1046416666667","6501500","五股區"
"248008","095-VK","2018/01/26 19:39:42","新北市五股區四維路155巷2號","121.46772","25.074705","6501500","五股區"
"248018","225-UY","2018/01/26 19:26:44","新北市五股區外寮路9-25號","121.416186666667","25.078655","6501500","五股區"
"248012","247-BX","2018/01/26 19:39:40","新北市五股區成泰路二段65號","121.43792","25.083655","6501500","五股區"
"248014","261-SL","2018/01/26 19:39:35","新北市五股區五福路23巷8號","121.433491666667","25.0888416666667","6501500","五股區"
"248004","677-BX","2018/01/26 19:39:22","新北市五股區成泰路二段38號","121.437185","25.0815116666667","6501500","五股區"
"248002","678-BX","2018/01/26 19:39:33","新北市五股區成泰路三段577巷56號","121.450605","25.10337","6501500","五股區"
"248010","682-TV","2018/01/26 19:39:33","新北市五股區自強路90巷52號","121.43148","25.0717016666667","6501500","五股區"
"234077","969-R7","2018/01/26 19:39:40","新北市永和區民權路82號","121.519668333333","24.9972416666667","6500400","永和區"
"234074","AAC-211","2018/01/26 19:39:28","新北市永和區福和路152號","121.521791666667","25.0080066666667","6500400","永和區"
"234067","AAC-212","2018/01/26 19:39:30","新北市永和區中山路一段191巷2弄1號","121.509345","25.0085316666667","6500400","永和區"
"234003","AAC-295","2018/01/26 19:39:30","新北市永和區永和路一段33號","121.512983333333","25.00592","6500400","永和區"
"244023","483-VK","2018/01/26 19:39:38","新北市林口區仁愛路二段700號","121.369123333333","25.0809933333333","6501700","林口區"
"243012","AAD-798","2018/01/26 19:39:39","新北市泰山區仁愛路100巷63號","121.433796666667","25.05453","6501600","泰山區"
"243011","297-R6","2018/01/26 19:39:43","新北市泰山區明志路三段201號","121.424056666667","25.0384766666667","6501600","泰山區"
"243015","380-SR","2018/01/26 19:39:26","新北市泰山區民權街91號","121.428563333333","25.0495983333333","6501600","泰山區"
"243014","421-VK","2018/01/26 19:39:35","新北市泰山區仁愛路6巷5弄1號","121.43121","25.0538233333333","6501600","泰山區"
"243010","KEA-2215","2018/01/26 19:39:32","新北市泰山區中港西路490號","121.432513333333","25.052475","6501600","泰山區"
"243009","KEA-2216","2018/01/26 19:39:35","新北市泰山區美寧街75號","121.431336666667","25.0647733333333","6501600","泰山區"
"243013","646-TV","2018/01/26 19:39:32","新北市泰山區應化街13號","121.423803333333","25.0437383333333","6501600","泰山區"
"243016","680-BX","2018/01/26 19:39:38","新北市泰山區新北大道七段30號","121.419803333333","25.0321233333333","6501600","泰山區"
"222003","016-RS","2018/01/26 19:30:29","新北市深坑區深南路51-1號","121.62126","25.0097966666667","6501800","深坑區"
"222002","659-BX","2018/01/26 19:39:28","新北市深坑區北深路一段177號","121.632528333333","25.0108466666667","6501800","深坑區"
"231041","002-UM","2018/01/26 19:39:29","新北市新店區中正路487號","121.533921666667","24.9821","6500600","新店區"
"231058","0291-UT","2018/01/26 19:39:32","新北市新店區北新路一段96巷25號","121.54281","24.96926","6500600","新店區"
"231059","046-UY","2018/01/26 19:39:33","新北市新店區安業街1-1號","121.516616666667","24.9787633333333","6500600","新店區"
"231061","047-UY","2018/01/26 19:39:27","新北市新店區安民街189-1號","121.51693","24.9710266666667","6500600","新店區"
"231051","107-UY","2018/01/26 19:39:36","新北市新店區中央四街40號","121.528143333333","24.974585","6500600","新店區"
"231048","108-UY","2018/01/26 19:39:24","新北市新店區五峰路61巷2號","121.547335","24.9701183333333","6500600","新店區"
"231053","110-UY","2018/01/26 19:39:35","新北市新店區廣興路12號","121.546078333333","24.9125016666667","6500600","新店區"
"231050","KEA-2219","2018/01/26 19:39:32","新北市新店區郵政路1號","121.557635","24.9525766666667","6500600","新店區"
"231057","256-BX","2018/01/26 19:39:27","新北市新店區橘園一路11號","121.547876666667","24.9341333333333","6500600","新店區"
"231046","278-BY","2018/01/26 19:39:25","新北市新店區中正路329巷7弄2號","121.53512","24.974125","6500600","新店區"
"231054","AAD-862","2018/01/26 19:39:35","新北市新店區文中路51號","121.539748333333","24.9566716666667","6500600","新店區"
"231055","4716-K9","2018/01/26 19:39:17","新北市新店區新生街13巷42號","121.53892","24.9665383333333","6500600","新店區"
"231067","4772-VM","2018/01/26 19:39:24","新北市新店區精忠路10-1號","121.53268","24.9590383333333","6500600","新店區"
"231065","512-UM","2018/01/26 19:39:42","新北市新店區安祥路109巷92號","121.478253333333","24.959515","6500600","新店區"
"231064","515-UM","2018/01/26 19:39:26","新北市新店區安和路一段52巷2號","121.51759","24.9661166666667","6500600","新店區"
"231042","616-UM","2018/01/26 19:39:34","新北市新店區中興路一段216號","121.543851666667","24.9657533333333","6500600","新店區"
"231060","618-UM","2018/01/26 19:39:35","新北市新店區安康路二段159巷21號","121.510686666667","24.958775","6500600","新店區"
"231040","619-UM","2018/01/26 19:39:23","新北市新店區北新路一段96巷23號","121.543006666667","24.9688583333333","6500600","新店區"
"231063","645-TV","2018/01/26 19:39:41","新北市新店區達觀路20號","121.501808333333","24.9411633333333","6500600","新店區"
"231049","719-UM","2018/01/26 19:39:30","新北市新店區建國路150號","121.538821666667","24.9792133333333","6500600","新店區"
"231062","720-UM","2018/01/26 19:39:29","新北市新店區永業路7-1號","121.533723333333","24.95595","6500600","新店區"
"231044","897-TW","2018/01/26 19:39:31","新北市新店區北新路三段220號","121.541041666667","24.9844016666667","6500600","新店區"
"231045","898-TW","2018/01/26 19:39:40","新北市新店區北宜路二段431號","121.560706666667","24.9543866666667","6500600","新店區"
"231043","899-TW","2018/01/26 19:39:24","新北市新店區北新路二段4號","121.542888333333","24.9709816666667","6500600","新店區"
"231066","AKT-0513","2018/01/26 19:39:32","新北市新店區安德街60巷19-1號","121.510405","24.9632416666667","6500600","新店區"
"241011","013-R5","2018/01/26 19:39:30","新北市三重區秀江街209號","121.497565","25.0716616666667","6500200","三重區"
"241028","022-UY","2018/01/26 19:39:31","新北市三重區中正南路157號","121.493848333333","25.0561116666667","6500200","三重區"
"241008","059-VK","2018/01/26 19:39:25","新北市三重區永福街127號","121.478923333333","25.0769183333333","6500200","三重區"
"241009","060-VK","2018/01/26 19:39:41","新北市三重區三和路四段400巷30號","121.480043333333","25.0791066666667","6500200","三重區"
"241031","061-VK","2018/01/26 19:39:33","新北市三重區重新路四段242-2號","121.486025","25.05359","6500200","三重區"
"241015","062-VK","2018/01/26 19:39:29","新北市三重區福德北路34號","121.50202","25.0652183333333","6500200","三重區"
"241017","063-VK","2018/01/26 19:39:43","新北市三重區大同北路184巷10號","121.491348333333","25.0656866666667","6500200","三重區"
"241025","156-TC","2018/01/26 19:39:42","新北市三重區大有街1-1號","121.477673333333","25.0656433333333","6500200","三重區"
"241026","265-UM","2018/01/26 19:39:31","新北市三重區文化南路42號","121.500363333333","25.0601633333333","6500200","三重區"
"241018","268-UM","2018/01/26 19:39:28","新北市三重區雙園街57巷34弄72號","121.492771666667","25.0679083333333","6500200","三重區"
"241032","269-UM","2018/01/26 19:39:37","新北市三重區重陽路一段60巷38號","121.48504","25.0582266666667","6500200","三重區"
"241013","270-UM","2018/01/26 19:39:28","新北市三重區仁愛街129巷2號","121.495626666667","25.0749983333333","6500200","三重區"
"241007","398-BY","2018/01/26 19:39:25","新北市三重區仁美街59號","121.486821666667","25.0783433333333","6500200","三重區"
"241020","413-TH","2018/01/26 19:39:30","新北市三重區三和路四段20巷94號","121.488735","25.0732083333333","6500200","三重區"
"241019","478-VK","2018/01/26 19:39:42","新北市三重區六張街194巷1弄24號","121.488031666667","25.0680683333333","6500200","三重區"
"241030","480-VK","2018/01/26 19:39:39","新北市三重區新興路29號","121.492111666667","25.0534283333333","6500200","三重區"
"241014","543-UM","2018/01/26 19:39:23","新北市三重區河邊北街82號","121.504216666667","25.0689866666667","6500200","三重區"
"241023","545-UM","2018/01/26 19:39:35","新北市三重區忠孝路三段99巷16號","121.47959","25.064235","6500200","三重區"
"241001","547-UM","2018/01/26 19:39:43","新北市三重區仁愛街315巷18號","121.493265","25.079795","6500200","三重區"
"241006","AAD-863","2018/01/26 19:39:40","新北市三重區聯華街80號","121.485858333333","25.0752316666667","6500200","三重區"
"241035","743-BX","2018/01/26 19:39:24","新北市三重區正義北路101號","121.497086666667","25.06551","6500200","三重區"
"241022","887-TS","2018/01/26 19:39:31","新北市三重區中正北路162號","121.484558333333","25.0660116666667","6500200","三重區"
"241012","941-UM","2018/01/26 19:39:38","新北市三重區仁義街6號","121.499933333333","25.075665","6500200","三重區"
"241029","942-UM","2018/01/26 19:39:33","新北市三重區重安街102號","121.493015","25.0557816666667","6500200","三重區"
"235066","003-UY","2018/01/26 19:39:29","新北市中和區中和路196巷9弄1號","121.505176666667","24.999185","6500300","中和區"
"235028","005-UY","2018/01/26 19:39:39","新北市中和區南山路127巷8弄5號","121.502986666667","24.9971","6500300","中和區"
"235063","006-UY","2018/01/26 19:39:31","新北市中和區連勝街95號","121.495223333333","24.9961166666667","6500300","中和區"
"235056","096-UM","2018/01/26 19:39:25","新北市中和區民富街94號","121.476915","25.0085383333333","6500300","中和區"
"235039","097-UM","2018/01/26 19:39:33","新北市中和區秀峰街103巷8弄14號","121.519605","24.9896766666667","6500300","中和區"
"235065","098-UM","2018/01/26 19:39:32","新北市中和區永和路7號","121.499303333333","25.00388","6500300","中和區"
"235040","150-BY","2018/01/26 19:39:37","新北市中和區宜安路121號","121.510096666667","24.9979483333333","6500300","中和區"
"235058","151-BY","2018/01/26 19:39:35","新北市中和區連城路374巷13號","121.481453333333","24.995905","6500300","中和區"
"235055","183-VK","2018/01/26 19:39:32","新北市中和區中山路三段177號","121.47283","25.0060566666667","6500300","中和區"
"235038","185-VK","2018/01/26 19:39:36","新北市中和區大智街55巷30弄58-1號","121.522138333333","24.9933616666667","6500300","中和區"
"235049","186-VK","2018/01/26 19:39:33","新北市中和區明仁街1號","121.505558333333","24.9956583333333","6500300","中和區"
"235067","255-BX","2018/01/26 19:39:24","新北市中和區新生街206號","121.48382","24.9990316666667","6500300","中和區"
"235044","293-VK","2018/01/26 19:39:26","新北市中和區南山路300號","121.507853333333","24.987105","6500300","中和區"
"235072","301-VK","2018/01/26 19:39:33","新北市中和區錦和路91-1號","121.489998333333","24.9957333333333","6500300","中和區"
"235043","352-BY","2018/01/26 19:39:35","新北市中和區景新街328號","121.511618333333","24.9909633333333","6500300","中和區"
"235068","377-QA","2018/01/26 19:39:31","新北市中和區景平路493巷3弄1號","121.499961666667","24.9975416666667","6500300","中和區"
"235061","378-QA","2018/01/26 19:39:38","新北市中和區民利街7號","121.480708333333","24.999035","6500300","中和區"
"235050","4979-A6","2018/01/26 19:39:22","新北市中和區錦和路350-1號","121.490311666667","24.9935433333333","6500300","中和區"
"235042","551-UM","2018/01/26 19:39:35","新北市中和區宜安路141號","121.509338333333","24.9985883333333","6500300","中和區"
"235070","558-UM","2018/01/26 19:38:55","新北市中和區景平路632-8號","121.499628333333","24.998795","6500300","中和區"
"235045","565-BX","2018/01/26 19:39:37","新北市中和區景新街551號","121.51502","24.9865283333333","6500300","中和區"
"235054","640-BX","2018/01/26 19:39:35","新北市中和區國光街102巷20號","121.470611666667","25.0005983333333","6500300","中和區"
"235060","647-TV","2018/01/26 19:39:40","新北市中和區新生街112巷20號","121.482333333333","25.0030733333333","6500300","中和區"
"235047","732-UM","2018/01/26 19:39:40","新北市中和區景安路199號","121.504883333333","24.992775","6500300","中和區"
"235046","733-UM","2018/01/26 19:39:22","新北市中和區四維街37巷2號","121.512361666667","24.9869","6500300","中和區"
"235041","802-TS","2018/01/26 19:39:21","新北市中和區中和路458巷1號","121.512455","25.003745","6500300","中和區"
"235052","805-TS","2018/01/26 19:39:32","新北市中和區華新街121號","121.50702","24.98201","6500300","中和區"
"235048","896-TW","2018/01/26 19:39:39","新北市中和區華新街76號","121.508273333333","24.9835366666667","6500300","中和區"
"235053","900-TW","2018/01/26 19:39:27","新北市中和區國光街213號","121.466388333333","25.001835","6500300","中和區"
"235051","157-BY","2018/01/26 19:39:35","新北市中和區板南路132號","121.502413333333","24.9925516666667","6500300","中和區"
"235037","AAC-213","2018/01/26 19:39:32","新北市中和區秀朗路三段50巷4弄2號","121.525771666667","24.995625","6500300","中和區"
"235059","AAC-215","2018/01/26 19:39:23","新北市中和區圓通路268-2號","121.492465","24.9908316666667","6500300","中和區"
"220065","072-UY","2018/01/26 19:39:31","新北市板橋區國泰街39巷5弄2號","121.468586666667","25.0060383333333","6500100","板橋區"
"220086","073-UY","2018/01/26 19:39:40","新北市板橋區中正路91號","121.456411666667","25.0144633333333","6500100","板橋區"
"220106","075-UY","2018/01/26 19:39:37","新北市板橋區文化路二段548巷37號","121.477241666667","25.0337083333333","6500100","板橋區"
"220069","AAD-861","2018/01/26 19:39:25","新北市板橋區貴興路86號","121.456081666667","25.0027016666667","6500100","板橋區"
"220102","120-SR","2018/01/26 19:39:27","新北市板橋區文化路二段410巷2弄18號","121.474243333333","25.0306066666667","6500100","板橋區"
"247008","341-TH","2018/01/26 19:39:27","新北市蘆洲區中山一路124號","121.476655","25.08163","6501400","蘆洲區"
"247004","336-TH","2018/01/26 19:39:24","新北市蘆洲區中華街6巷5號","121.462313333333","25.0825066666667","6501400","蘆洲區"
"226004","205-ST","2018/01/26 19:39:31","新北市平溪區十分里十分街76號","121.776305","25.0421166666667","6502400","平溪區"
"235057","251-BX","2018/01/26 19:39:42","新北市中和區員山路258號","121.481463333333","25.0016316666667","6500300","中和區"
"228003","097-TW","2018/01/26 19:39:21","新北市貢寮區真理里美艷山街15-3號","121.923716666667","25.0679916666667","6502600","貢寮區"
"228001","212-TW","2018/01/26 19:39:24","新北市貢寮區真理里延平街49號","121.924556666667","25.0556416666667","6502600","貢寮區"
"224010","AGQ-8101","2018/01/26 19:34:36","新北市瑞芳區烏勢巷131號","121.846611666667","25.1072316666667","6501200","瑞芳區"
"224002","639-TC","2018/01/26 19:39:27","新北市瑞芳區民享新村25號","121.81721","25.1057866666667","6501200","瑞芳區"
"224009","285-BY","2018/01/26 19:39:40","新北市瑞芳區靜安路四段6號","121.794925","25.0838983333333","6501200","瑞芳區"
"227011","642-TC","2018/01/26 19:39:39","新北市雙溪區新基里新基北街18號","121.867148333333","25.038505","6502500","雙溪區"
"227003","400-TW","2018/01/26 19:39:38","新北市雙溪區雙溪里太平路25號","121.864445","25.0353666666667","6502500","雙溪區"
"253006","295-VK","2018/01/26 19:39:37","新北市石門區小坑9號","121.594286666667","25.2884016666667","6502200","石門區"
"222001","KEA-2212","2018/01/26 19:39:27","新北市深坑區北深路二段204號","121.612891666667","25.0015233333333","6501800","深坑區"
"208002","742-BX","2018/01/26 19:39:28","新北市金山區中正路50號","121.634901666667","25.222235","6502700","金山區"
"208003","665-BX","2018/01/26 19:39:40","新北市金山區仁愛路10號","121.638513333333","25.2200633333333","6502700","金山區"
"208001","761-BX","2018/01/26 19:39:34","新北市金山區重和里六股林口6號","121.609355","25.22211","6502700","金山區"
"251004","009-UM","2018/01/26 19:39:33","新北市淡水區民權路13-5號","121.459688333333","25.1419","6501000","淡水區"
"251008","181-VK","2018/01/26 19:39:38","新北市淡水區中正路一段8巷2弄2號","121.428296666667","25.1770466666667","6501000","淡水區"
"251010","413-VK","2018/01/26 19:39:25","新北市淡水區崁頂三路133號","121.431331666667","25.2010133333333","6501000","淡水區"
"251012","441-VK","2018/01/26 19:39:21","新北市淡水區中山北路三段164號","121.445713333333","25.196555","6501000","淡水區"
"251005","443-VK","2018/01/26 19:39:25","新北市淡水區原德路108巷2號","121.443411666667","25.1735216666667","6501000","淡水區"
"251001","559-UM","2018/01/26 19:39:38","新北市淡水區民權路39號","121.459726666667","25.140615","6501000","淡水區"
"251006","561-UM","2018/01/26 19:39:24","新北市淡水區中山北路一段207巷18號","121.443608333333","25.17918","6501000","淡水區"
"251009","575-R6","2018/01/26 19:39:38","新北市淡水區中山北路一段188-5號","121.444443333333","25.1791283333333","6501000","淡水區"
"251007","577-R6","2018/01/26 19:39:28","新北市淡水區中正東路一段111巷28號","121.455496666667","25.16086","6501000","淡水區"
"251011","650-BX","2018/01/26 19:39:41","新北市淡水區中正東路二段5巷31號","121.460331666667","25.158795","6501000","淡水區"
"207003","550-UM","2018/01/26 19:39:37","新北市萬里區大鵬里下社35號","121.649366666667","25.2167366666667","6502800","萬里區"
"207004","225-TW","2018/01/26 19:39:31","新北市萬里區萬里里瑪鋉路21號","121.687351666667","25.1753133333333","6502800","萬里區"
"252002","178-VK","2018/01/26 19:39:40","新北市三芝區三民街14號","121.504121666667","25.2587183333333","6502100","三芝區"
"252001","292-VK","2018/01/26 19:39:32","新北市三芝區公正街9號","121.499755","25.2574933333333","6502100","三芝區"
"237004","078-UY","2018/01/26 19:39:28","新北市三峽區插角24號","121.402893333333","24.87272","6500900","三峽區"
"237007","153-BY","2018/01/26 19:39:34","新北市三峽區二鬮路136巷37號","121.358448333333","24.9084916666667","6500900","三峽區"
"237009","210-TH","2018/01/26 19:39:39","新北市三峽區中園街44號","121.368211666667","24.9263766666667","6500900","三峽區"
"237013","252-BX","2018/01/26 19:39:28","新北市三峽區橫溪路20號","121.396266666667","24.9358033333333","6500900","三峽區"
"237012","275-BY","2018/01/26 19:39:30","新北市三峽區民生街3號","121.374571666667","24.9353716666667","6500900","三峽區"
"237008","302-VK","2018/01/26 19:39:22","新北市三峽區中華路105-1號","121.37146","24.9286383333333","6500900","三峽區"
"237014","433-BY","2018/01/26 19:39:31","新北市三峽區添福139號","121.375371666667","24.9009583333333","6500900","三峽區"
"237006","5529-G3","2018/01/26 19:39:35","新北市三峽區中正路一段336巷15弄2號","121.36995","24.9249466666667","6500900","三峽區"
"237015","649-BX","2018/01/26 19:22:28","新北市三峽區成福路243-1號","121.426745","24.9253716666667","6500900","三峽區"
"237005","AKY-6261","2018/01/26 19:39:28","新北市三峽區中山路167-1號","121.364393333333","24.9365066666667","6500900","三峽區"
"236072","105-UM","2018/01/26 19:39:40","新北市土城區清水路1號","121.452698333333","24.9802016666667","6501300","土城區"
"236043","107-UM","2018/01/26 19:39:26","新北市土城區學士路12巷2號","121.453608333333","24.9830433333333","6501300","土城區"
"236079","166-UM","2018/01/26 19:39:36","新北市土城區中州路49號","121.412816666667","24.9578983333333","6501300","土城區"
"236031","253-BX","2018/01/26 19:39:37","新北市土城區福祥街64號","121.441546666667","24.9815833333333","6501300","土城區"
"236026","269-VK","2018/01/26 19:39:20","新北市土城區中央路二段61巷26號","121.443335","24.9787283333333","6501300","土城區"
"236039","271-VK","2018/01/26 19:39:39","新北市土城區清水路98巷3弄31號","121.458406666667","24.9809233333333","6501300","土城區"
"236022","401-BY","2018/01/26 19:39:37","新北市土城區峰廷街3號","121.469226666667","24.9873166666667","6501300","土城區"
"236050","913-UM","2018/01/26 19:39:30","新北市土城區明德路一段59號","121.465425","24.9845233333333","6501300","土城區"
"236063","915-UM","2018/01/26 19:39:32","新北市土城區延平街64號","121.467886666667","24.9927616666667","6501300","土城區"
"236055","AAC-216","2018/01/26 19:39:39","新北市土城區學府路一段112號","121.455658333333","24.987815","6501300","土城區"
"242032","AAC-296","2018/01/26 19:39:40","新北市新莊區新泰路213巷54號","121.44496","25.038435","6500500","新莊區"
"242027","612-BX","2018/01/26 19:39:36","新北市新莊區新泰路357巷3弄57號","121.441908333333","25.0392416666667","6500500","新莊區"
"242044","442-UM","2018/01/26 19:39:30","新北市泰山區新北大道六段468號","121.4219","25.03279","6500500","新莊區"
"242005","413-TV","2018/01/26 19:39:37","新北市新莊區化成路29巷59號","121.462535","25.0439816666667","6500500","新莊區"
"242060","362-BY","2018/01/26 19:39:33","新北市新莊區新泰路255巷83號","121.442416666667","25.0386933333333","6500500","新莊區"
"242037","133-UY","2018/01/26 19:39:38","新北市新莊區民安路207巷10弄4號","121.426768333333","25.0227466666667","6500500","新莊區"
"242013","346-TH","2018/01/26 19:39:37","新北市新莊區中誠街121巷13號","121.449651666667","25.0469483333333","6500500","新莊區"
"242019","348-TH","2018/01/26 19:39:32","新北市新莊區新泰路357巷3弄49號","121.442423333333","25.0400616666667","6500500","新莊區"
"238015","755-BX","2018/01/26 19:39:27","新北市樹林區日新街58號","121.422058333333","24.9911033333333","6500700","樹林區"
"238023","601-UM","2018/01/26 19:39:26","新北市樹林區三福街134號","121.405673333333","25.0162833333333","6500700","樹林區"
"238018","571-TV","2018/01/26 19:39:40","新北市樹林區中山路三段214號","121.37987","24.9676783333333","6500700","樹林區"
"238024","5061-A6","2018/01/26 19:39:37","新北市樹林區八德街1262號","121.390118333333","24.9689166666667","6500700","樹林區"
"238021","KEA-2217","2018/01/26 19:39:31","新北市樹林區學成路685號","121.382886666667","24.9463416666667","6500700","樹林區"
"238022","KEA-2213","2018/01/26 19:39:31","新北市樹林區名園街51巷6弄1號","121.420596666667","24.9782866666667","6500700","樹林區"
"238025","303-VK","2018/01/26 19:39:23","新北市樹林區鎮前街433號","121.413323333333","24.982825","6500700","樹林區"
"238017","283-BY","2018/01/26 19:39:35","新北市樹林區保安街二段107巷1弄3號","121.415175","25.0008","6500700","樹林區"
"238014","282-BY","2018/01/26 19:39:37","新北市樹林區千歲街28巷8號","121.425708333333","24.9958233333333","6500700","樹林區"
"238020","268-VK","2018/01/26 19:39:39","新北市板橋區大觀路三段50巷79號","121.431428333333","24.99634","6500700","樹林區"
"239006","891-R6","2018/01/26 19:39:31","新北市鶯歌區中正一路113-1號","121.370288333333","24.9582716666667","6500800","鶯歌區"
"239002","359-BY","2018/01/26 19:39:24","新北市鶯歌區中山路300-2號","121.342956666667","24.9581733333333","6500800","鶯歌區"
"221036","130-UY","2018/01/26 19:39:34","新北市汐止區汐萬路一段256巷1號","121.651765","25.074855","6501100","汐止區"
"221010","269-BY","2018/01/26 19:39:27","新北市汐止區汐萬路二段23巷1號","121.649561666667","25.0809183333333","6501100","汐止區"
"221012","278-VK","2018/01/26 19:39:35","新北市汐止區大同路三段342號","121.679845","25.070995","6501100","汐止區"
"221023","279-VK","2018/01/26 19:39:26","新北市汐止區明峰街190號","121.628128333333","25.0697383333333","6501100","汐止區"
"221032","280-BY","2018/01/26 19:39:38","新北市汐止區大同路二段187巷47號","121.652013333333","25.06602","6501100","汐止區"
"221027","281-BY","2018/01/26 19:39:30","新北市汐止區大同路二段330號","121.65639","25.0668933333333","6501100","汐止區"
"221002","297-VK","2018/01/26 19:39:39","新北市汐止區大同路一段337巷17弄1號","121.637331666667","25.0597933333333","6501100","汐止區"
"221029","298-VK","2018/01/26 19:39:37","新北市汐止區康寧街901號","121.651495","25.075","6501100","汐止區"
"221021","299-VK","2018/01/26 19:39:40","新北市汐止區南興路6巷4號","121.651831666667","25.0631016666667","6501100","汐止區"
"221031","353-TW","2018/01/26 19:39:28","新北市汐止區康寧街901號","121.650973333333","25.0751866666667","6501100","汐止區"
"221008","358-BY","2018/01/26 19:39:28","新北市汐止區康寧街61巷24號","121.619415","25.0673816666667","6501100","汐止區"
"221015","567-BX","2018/01/26 19:39:34","新北市汐止區康寧街901號","121.651593333333","25.0749266666667","6501100","汐止區"
"221025","623-UM","2018/01/26 19:39:24","新北市汐止區福安街20巷11號","121.662355","25.0648066666667","6501100","汐止區"
"221038","646-BX","2018/01/26 19:39:32","新北市汐止區忠孝東路206號","121.661841666667","25.0663633333333","6501100","汐止區"
"221033","647-BX","2018/01/26 19:39:28","台北市南港區舊莊街二段17號","121.625628333333","25.037445","6501100","汐止區"
"221018","753-BX","2018/01/26 19:39:43","新北市汐止區汐萬路一段312號","121.650553333333","25.0753916666667","6501100","汐止區"
"220079","145-BY","2018/01/26 19:39:31","新北市板橋區復興街128號","121.460866666667","25.01802","6500100","板橋區"
"220080","200-UY","2018/01/26 19:39:39","新北市板橋區大觀路二段37巷280號","121.449765","25.00094","6500100","板橋區"
"220082","610-BX","2018/01/26 19:39:36","新北市板橋區篤行路二段132號","121.429661666667","24.9901516666667","6500100","板橋區"
"220101","245-BX","2018/01/26 19:39:29","新北市板橋區莊敬路220巷66號","121.471823333333","25.0208616666667","6500100","板橋區"
"220096","255-TC","2018/01/26 19:39:40","新北市板橋區民生路二段250號","121.468316666667","25.023285","6500100","板橋區"
"220103","257-TC","2018/01/26 19:39:26","新北市板橋區文化路一段220號","121.466795","25.0205416666667","6500100","板橋區"
"220056","276-BY","2018/01/26 19:39:24","新北市土城區廣明街63巷2弄26號","121.454505","24.9939066666667","6500100","板橋區"
"220072","277-BY","2018/01/26 19:39:24","新北市板橋區金門街253巷17弄25號","121.433443333333","24.9891083333333","6500100","板橋區"
"220094","283-UM","2018/01/26 19:39:36","新北市板橋區宏國路94號","121.470063333333","25.0321933333333","6500100","板橋區"
"220071","283-VK","2018/01/26 19:39:28","新北市板橋區信義路147號","121.458101666667","24.9929616666667","6500100","板橋區"
"220053","285-VK","2018/01/26 19:39:38","新北市板橋區民享街93號","121.477048333333","25.0160133333333","6500100","板橋區"
"220083","286-VK","2018/01/26 19:39:22","新北市板橋區龍興街71巷10號","121.443313333333","25.0020533333333","6500100","板橋區"
"220081","287-VK","2018/01/26 19:39:28","新北市板橋區大觀路一段29巷131弄23號","121.450573333333","25.0047933333333","6500100","板橋區"
"220090","288-VK","2018/01/26 19:39:38","新北市板橋區裕民街92號","121.460273333333","25.02806","6500100","板橋區"
"220061","293-UM","2018/01/26 19:39:30","新北市板橋區中山路一段265巷13號","121.468698333333","25.0148716666667","6500100","板橋區"
"220062","295-UM","2018/01/26 19:39:23","新北市板橋區三民路二段29巷6號","121.481541666667","25.0180633333333","6500100","板橋區"
"220084","296-UM","2018/01/26 19:39:33","新北市板橋區滿平街84巷78號","121.42598","24.9872866666667","6500100","板橋區"
"242048","281-VK","2018/01/26 19:39:38","新北市新莊區後港一路19號","121.42427","25.0261816666667","6500500","新莊區"
"220075","303-R5","2018/01/26 19:39:31","新北市板橋區大仁街14巷10號","121.455896666667","25.01756","6500100","板橋區"
"220092","307-R5","2018/01/26 19:39:39","新北市板橋區莒光路2巷25號","121.469183333333","25.024185","6500100","板橋區"
"220098","317-R6","2018/01/26 19:39:35","新北市板橋區四維路269巷35號","121.46178","25.0275866666667","6500100","板橋區"
"220064","486-VK","2018/01/26 19:39:28","新北市板橋區中山路一段69號","121.461261666667","25.0097833333333","6500100","板橋區"
"220089","487-VK","2018/01/26 19:39:28","新北市板橋區雨農路17巷1號","121.461995","25.0244783333333","6500100","板橋區"
"220088","491-VK","2018/01/26 19:39:37","新北市板橋區文化路二段528號","121.47605","25.033965","6500100","板橋區"
"220035","560-BX","2018/01/26 19:39:28","新北市板橋區金華街85巷19號","121.458398333333","25.0213966666667","6500100","板橋區"
"220055","568-UM","2018/01/26 19:39:34","新北市板橋區國慶路149巷13弄3號","121.46085","24.997115","6500100","板橋區"
"220063","609-BX","2018/01/26 19:39:23","新北市板橋區中山路二段531巷15-1號","121.482675","25.0221216666667","6500100","板橋區"
"220091","637-BX","2018/01/26 19:39:31","新北市板橋區懷德街168號","121.479178333333","25.03039","6500100","板橋區"
"220057","686-BX","2018/01/26 19:39:34","新北市板橋區國慶路160-1號","121.461953333333","24.995995","6500100","板橋區"
"220077","687-BX","2018/01/26 19:39:30","新北市板橋區僑中一街125巷1號","121.445908333333","25.01171","6500100","板橋區"
"220093","689-BX","2018/01/26 19:39:32","新北市板橋區長江路一段30號","121.457961666667","25.0287666666667","6500100","板橋區"
"220054","741-BX","2018/01/26 19:39:32","新北市板橋區忠孝路241號","121.46622","25.0029566666667","6500100","板橋區"
"220067","829-TW","2018/01/26 19:39:38","新北市板橋區長安街138巷1弄5號","121.47309","25.009695","6500100","板橋區"
"220074","895-R6","2018/01/26 19:39:34","新北市板橋區福德街39號","121.45617","25.0086116666667","6500100","板橋區"
"220073","985-R7","2018/01/26 19:39:34","新北市板橋區國光路53號","121.458201666667","25.0179333333333","6500100","板橋區"
"220097","AAC-210","2018/01/26 19:39:28","新北市板橋區幸福路32巷2弄3號","121.4619","25.0209833333333","6500100","板橋區"
"220070","AAC-253","2018/01/26 19:39:28","新北市中和區中山路三段227號","121.470913333333","25.006635","6500100","板橋區"
