"lineid","car","time","location","longitude","latitude","cityid","cityname"
"234046","148-BY","2018/01/26 19:59:26","新北市永和區成功路一段74號","121.526908333333","25.0033416666667","6500400","永和區"
"234007","207-UY","2018/01/26 19:59:26","新北市永和區保生路22巷8號","121.50719","25.007935","6500400","永和區"
"234081","298-R6","2018/01/26 19:59:43","新北市永和區國中路12號","121.524375","25.004855","6500400","永和區"
"234038","336-UY","2018/01/26 19:59:22","新北市永和區成功路二段179-1號","121.526593333333","24.9965983333333","6500400","永和區"
"234064","337-UY","2018/01/26 19:59:22","新北市永和區中正路412巷2弄11號","121.51845","25.0019883333333","6500400","永和區"
"234086","338-UY","2018/01/26 19:59:27","新北市永和區福和路188號","121.520261666667","25.0077416666667","6500400","永和區"
"234070","552-UM","2018/01/26 19:59:24","新北市永和區國光路37號","121.519236666667","25.0082966666667","6500400","永和區"
"234017","745-BX","2018/01/26 19:59:32","新北市永和區文化路68號","121.51431","25.0152116666667","6500400","永和區"
"234030","746-BX","2018/01/26 19:59:26","新北市永和區民生路22巷23號","121.521346666667","24.996935","6500400","永和區"
"234054","KEA-2590","2018/01/26 19:59:34","新北市永和區環河東路一段122號","121.52062","25.0154433333333","6500400","永和區"
"234013","KEA-2591","2018/01/26 19:59:29","新北市永和區保生路55號","121.504681666667","25.0105733333333","6500400","永和區"
"234061","AAD-866","2018/01/26 19:59:40","新北市永和區得和路49號","121.516651666667","25.000105","6500400","永和區"
"234042","862-TW","2018/01/26 19:59:24","新北市永和區雙和街16巷18號","121.509953333333","25.00264","6500400","永和區"
"234050","863-TW","2018/01/26 19:59:41","新北市永和區保安路143號","121.507396666667","25.0131883333333","6500400","永和區"
"234011","9373-KE","2018/01/26 19:59:25","新北市永和區仁愛路352巷122弄11號","121.50064","25.0088183333333","6500400","永和區"
"249005","172-UM","2018/01/26 19:59:40","新北市八里區楓林路4號","121.381736666667","25.1293783333333","6502300","八里區"
"249001","173-UM","2018/01/26 19:59:33","新北市八里區中華路二段310號","121.403775","25.1484383333333","6502300","八里區"
"249004","303-UY","2018/01/26 19:59:23","新北市八里區中華路一段333-1號","121.413283333333","25.1538566666667","6502300","八里區"
"249002","305-UY","2018/01/26 19:59:29","新北市八里區頂寮一街20-1號","121.451958333333","25.124365","6502300","八里區"
"249003","593-UM","2018/01/26 19:59:42","新北市八里區中華路二段560巷1號","121.398723333333","25.1450033333333","6502300","八里區"
"248016","026-BX","2018/01/26 19:59:30","新北市五股區成泰路三段577巷80弄54號","121.449711666667","25.1051183333333","6501500","五股區"
"248008","095-VK","2018/01/26 19:59:42","新北市五股區中興路一段3號","121.46962","25.072265","6501500","五股區"
"248018","225-UY","2018/01/26 19:59:44","新北市五股區登林路95-10號","121.417245","25.0747116666667","6501500","五股區"
"248012","247-BX","2018/01/26 19:59:20","新北市五股區民義路一段132號","121.434581666667","25.0859966666667","6501500","五股區"
"248014","261-SL","2018/01/26 19:59:35","新北市五股區五福路14巷8號","121.43482","25.08873","6501500","五股區"
"248004","677-BX","2018/01/26 19:59:22","新北市五股區成泰路一段32巷62號","121.43504","25.06703","6501500","五股區"
"248002","678-BX","2018/01/26 19:43:33","新北市五股區成泰路三段577巷22號","121.45158","25.1028933333333","6501500","五股區"
"248010","682-TV","2018/01/26 19:59:36","新北市五股區登林路92-5號","121.42845","25.0698516666667","6501500","五股區"
"234023","9380-KE","2018/01/26 19:59:25","新北市永和區中正路702巷18號","121.516453333333","25.01058","6500400","永和區"
"234077","969-R7","2018/01/26 19:59:40","新北市永和區民有街25巷2號","121.517191666667","24.9961133333333","6500400","永和區"
"234074","AAC-211","2018/01/26 19:59:28","新北市永和區豫溪街207巷7號","121.5234","25.01008","6500400","永和區"
"234067","AAC-212","2018/01/26 19:59:25","新北市永和區永貞路376號","121.509773333333","25.006925","6500400","永和區"
"234003","AAC-295","2018/01/26 19:59:30","新北市永和區中正路688號","121.516723333333","25.0095766666667","6500400","永和區"
"243012","AAD-798","2018/01/26 19:59:39","新北市泰山區福興街32號","121.434545","25.0571583333333","6501600","泰山區"
"243011","297-R6","2018/01/26 19:59:23","新北市泰山區明志路三段182巷50號","121.422956666667","25.0396883333333","6501600","泰山區"
"243015","380-SR","2018/01/26 19:59:26","新北市泰山區明志路二段188-1號","121.427186666667","25.0498316666667","6501600","泰山區"
"243014","421-VK","2018/01/26 19:59:35","新北市泰山區明志路一段173號","121.433086666667","25.062175","6501600","泰山區"
"243010","KEA-2215","2018/01/26 19:59:32","新北市泰山區中華街10巷1號","121.42783","25.052545","6501600","泰山區"
"243009","KEA-2216","2018/01/26 19:59:35","新北市泰山區泰林路二段164巷17號","121.434511666667","25.060975","6501600","泰山區"
"243013","646-TV","2018/01/26 19:49:58","新北市泰山區應化街13號","121.423821666667","25.0437266666667","6501600","泰山區"
"243016","680-BX","2018/01/26 19:59:29","新北市泰山區明志路三段521號","121.421128333333","25.0314783333333","6501600","泰山區"
"222003","016-RS","2018/01/26 19:59:30","新北市深坑區埔新街14號","121.62071","25.0039366666667","6501800","深坑區"
"222002","659-BX","2018/01/26 19:59:28","新北市深坑區埔新街104-1號","121.61854","25.002175","6501800","深坑區"
"231041","002-UM","2018/01/26 19:59:29","新北市新店區中正路406號","121.534451666667","24.977595","6500600","新店區"
"231059","046-UY","2018/01/26 19:59:33","新北市新店區安康路二段147-1號","121.511268333333","24.959735","6500600","新店區"
"231061","047-UY","2018/01/26 19:59:27","新北市新店區安興路33-1號","121.515813333333","24.9704133333333","6500600","新店區"
"231051","107-UY","2018/01/26 19:59:36","新北市新店區中央二街1號","121.529281666667","24.972965","6500600","新店區"
"231048","108-UY","2018/01/26 19:59:24","新北市新店區寶橋路160號","121.549036666667","24.97715","6500600","新店區"
"231053","110-UY","2018/01/26 19:59:37","新北市新店區新烏路三段290巷13號","121.54845","24.8974","6500600","新店區"
"231050","KEA-2219","2018/01/26 19:59:32","新北市新店區北宜路二段6號","121.547731666667","24.95186","6500600","新店區"
"231057","256-BX","2018/01/26 19:59:27","新北市新店區花園二路一段11號","121.555445","24.9325183333333","6500600","新店區"
"231054","AAD-862","2018/01/26 19:59:35","新北市新店區光明街166號","121.539515","24.9619083333333","6500600","新店區"
"231056","3713-VJ","2018/01/26 19:59:39","新北市新店區北新路三段137號","121.541146666667","24.982975","6500600","新店區"
"231055","4716-K9","2018/01/26 19:59:37","新北市新店區中華路83巷67號","121.538421666667","24.9674083333333","6500600","新店區"
"231067","4772-VM","2018/01/26 19:59:36","新北市新店區秀山路45巷27號","121.530936666667","24.9597366666667","6500600","新店區"
"231065","512-UM","2018/01/26 19:59:42","新北市新店區安祥路106巷321號","121.472201666667","24.9585283333333","6500600","新店區"
"231064","515-UM","2018/01/26 19:59:26","新北市新店區安民街3巷5號","121.5145","24.96425","6500600","新店區"
"231042","616-UM","2018/01/26 19:59:34","新北市新店區中興路二段89號","121.547036666667","24.9714416666667","6500600","新店區"
"231060","618-UM","2018/01/26 19:59:35","新北市新店區安康路二段408號","121.496765","24.9552016666667","6500600","新店區"
"231040","619-UM","2018/01/26 19:59:23","新北市新店區中正路10號","121.545505","24.9695433333333","6500600","新店區"
"231063","645-TV","2018/01/26 19:59:21","新北市新店區黎明路3號","121.503543333333","24.9524383333333","6500600","新店區"
"231068","718-UY","2018/01/26 19:59:30","新北市新店區安康路一段258-2號","121.520391666667","24.9655683333333","6500600","新店區"
"231049","719-UM","2018/01/26 19:59:30","新北市新店區明德路73號","121.541343333333","24.9779466666667","6500600","新店區"
"231062","720-UM","2018/01/26 19:59:29","新北市新店區華城路12號","121.52886","24.957775","6500600","新店區"
"231044","897-TW","2018/01/26 19:59:31","新北市新店區順安街69號","121.540623333333","24.9866266666667","6500600","新店區"
"231045","898-TW","2018/01/26 19:59:40","新北市新店區北宜路二段70號","121.551836666667","24.9530266666667","6500600","新店區"
"231043","899-TW","2018/01/26 19:59:24","新北市新店區中正路265號","121.538106666667","24.97409","6500600","新店區"
"231066","AKT-0513","2018/01/26 19:59:31","新北市新店區柴埕路52巷3號","121.511641666667","24.9645016666667","6500600","新店區"
"241011","013-R5","2018/01/26 19:59:30","新北市三重區三和路二段228號","121.497618333333","25.069835","6500200","三重區"
"241028","022-UY","2018/01/26 19:59:31","新北市三重區中正南路46號","121.4939","25.05999","6500200","三重區"
"241008","059-VK","2018/01/26 19:59:44","新北市三重區永福街179巷28號","121.478025","25.0747616666667","6500200","三重區"
"241009","060-VK","2018/01/26 19:59:21","新北市三重區三和路四段388-2號","121.481968333333","25.078975","6500200","三重區"
"241031","061-VK","2018/01/26 19:59:33","新北市三重區重新路四段184巷16號","121.487095","25.0550383333333","6500200","三重區"
"241015","062-VK","2018/01/26 19:59:29","新北市三重區三和路二段27號","121.501105","25.0670333333333","6500200","三重區"
"241017","063-VK","2018/01/26 19:59:23","新北市三重區重陽路四段1號","121.491051666667","25.0686666666667","6500200","三重區"
"241024","065-VK","2018/01/26 19:59:31","新北市三重區力行路二段2號","121.481931666667","25.07187","6500200","三重區"
"241025","156-TC","2018/01/26 19:59:42","新北市三重區頂崁街210巷16號","121.476471666667","25.0677016666667","6500200","三重區"
"241005","262-UM","2018/01/26 19:59:30","新北市三重區溪尾街370號","121.488798333333","25.085595","6500200","三重區"
"241026","265-UM","2018/01/26 19:59:31","新北市三重區仁慈街18號","121.501983333333","25.063115","6500200","三重區"
"241016","266-UM","2018/01/26 19:59:31","新北市三重區正義北路48巷41-2號","121.496106666667","25.06367","6500200","三重區"
"241018","268-UM","2018/01/26 19:59:28","新北市三重區雙園街84號","121.495375","25.0675666666667","6500200","三重區"
"241032","269-UM","2018/01/26 19:59:37","新北市三重區捷運路65號","121.483453333333","25.05558","6500200","三重區"
"241013","270-UM","2018/01/26 19:59:28","新北市三重區三和路三段125巷33號","121.494215","25.0735783333333","6500200","三重區"
"241007","398-BY","2018/01/26 19:59:25","新北市三重區慈愛街133號","121.488818333333","25.0797866666667","6500200","三重區"
"241003","KEA-2210","2018/01/26 19:59:26","新北市三重區仁愛街445巷55號","121.491285","25.0832066666667","6500200","三重區"
"241020","413-TH","2018/01/26 19:59:30","新北市三重區忠孝路一段101號","121.489581666667","25.0721016666667","6500200","三重區"
"241004","475-VK","2018/01/26 19:59:22","新北市三重區五華街74號","121.493476666667","25.0819733333333","6500200","三重區"
"241019","478-VK","2018/01/26 19:59:42","新北市三重區自強路二段9號","121.490138333333","25.0690966666667","6500200","三重區"
"241030","480-VK","2018/01/26 19:59:39","新北市三重區重新路四段244巷10號","121.486295","25.0534883333333","6500200","三重區"
"241014","543-UM","2018/01/26 19:59:23","新北市三重區三和路二段156號","121.49935","25.0685616666667","6500200","三重區"
"241023","545-UM","2018/01/26 19:59:32","新北市三重區大有街1-1號","121.47769","25.065585","6500200","三重區"
"241001","547-UM","2018/01/26 19:59:43","新北市三重區福隆路97號","121.492338333333","25.078315","6500200","三重區"
"241006","AAD-863","2018/01/26 19:59:40","新北市三重區力行路二段91巷1弄18號","121.483348333333","25.0758416666667","6500200","三重區"
"241035","743-BX","2018/01/26 19:59:43","新北市三重區重新路二段13巷13號","121.498303333333","25.0630133333333","6500200","三重區"
"241022","887-TS","2018/01/26 19:59:31","新北市三重區新北大道一段7號","121.489735","25.0615833333333","6500200","三重區"
"241012","941-UM","2018/01/26 19:59:38","新北市三重區仁義街16號","121.499586666667","25.076155","6500200","三重區"
"241029","942-UM","2018/01/26 19:59:33","新北市三重區重安街1號","121.489851666667","25.05838","6500200","三重區"
"241033","AAC-255","2018/01/26 19:59:39","新北市三重區中興北街28號","121.469656666667","25.0486783333333","6500200","三重區"
"235066","003-UY","2018/01/26 19:59:29","新北市中和區中山路二段9號","121.505228333333","25.0056116666667","6500300","中和區"
"235056","096-UM","2018/01/26 19:59:25","新北市中和區中山路三段170巷8弄24號","121.473133333333","25.0075883333333","6500300","中和區"
"235039","097-UM","2018/01/26 19:59:33","新北市中和區大勇街25巷29弄2號","121.51521","24.9940216666667","6500300","中和區"
"235065","098-UM","2018/01/26 19:59:32","新北市中和區福美路238號","121.498855","25.0052266666667","6500300","中和區"
"235040","150-BY","2018/01/26 19:59:37","新北市中和區保健路10巷3弄1號","121.507736666667","24.997715","6500300","中和區"
"235058","151-BY","2018/01/26 19:59:35","新北市中和區員山路150巷2弄57號","121.481828333333","24.99734","6500300","中和區"
"235055","183-VK","2018/01/26 19:59:32","新北市中和區民生街23巷3弄2號","121.471036666667","25.0050216666667","6500300","中和區"
"235049","186-VK","2018/01/26 19:59:33","新北市中和區景平路516號","121.50343","24.9938033333333","6500300","中和區"
"235044","293-VK","2018/01/26 19:59:26","新北市中和區南山路152號","121.504255","24.992165","6500300","中和區"
"235043","352-BY","2018/01/26 19:59:35","新北市中和區興南路二段159巷4號","121.505048333333","24.9833583333333","6500300","中和區"
"235068","377-QA","2018/01/26 19:56:31","新北市中和區福美路301巷14號","121.497426666667","25.00426","6500300","中和區"
"235061","378-QA","2018/01/26 19:59:14","新北市中和區新生街176巷34號","121.482458333333","24.9994133333333","6500300","中和區"
"235050","4979-A6","2018/01/26 19:59:02","新北市中和區景平路155巷2弄1號","121.513298333333","24.991735","6500300","中和區"
"235069","4980-A6","2018/01/26 19:59:38","新北市中和區南山路37巷3弄2號","121.502845","24.9991233333333","6500300","中和區"
"235070","558-UM","2018/01/26 19:59:15","新北市中和區圓通路97號","121.499655","24.9966716666667","6500300","中和區"
"235054","640-BX","2018/01/26 19:59:35","新北市中和區莒光路90號","121.472326666667","25.0025416666667","6500300","中和區"
"235060","647-TV","2018/01/26 19:59:40","新北市中和區新生街30巷5弄1號","121.483023333333","25.00364","6500300","中和區"
"235046","733-UM","2018/01/26 19:59:22","新北市中和區興南路一段93巷89弄3號","121.510738333333","24.9861233333333","6500300","中和區"
"235041","802-TS","2018/01/26 19:59:41","新北市中和區中安街85號","121.512511666667","25.001115","6500300","中和區"
"235052","805-TS","2018/01/26 19:59:32","新北市中和區忠孝街80號","121.512111666667","24.984325","6500300","中和區"
"235048","896-TW","2018/01/26 19:59:42","新北市中和區景新街447-1號","121.513073333333","24.9887816666667","6500300","中和區"
"235051","157-BY","2018/01/26 19:59:35","新北市中和區景安路249號","121.504016666667","24.9906566666667","6500300","中和區"
"235037","AAC-213","2018/01/26 19:59:32","新北市中和區立人街1號","121.521971666667","24.993885","6500300","中和區"
"235059","AAC-215","2018/01/26 19:59:26","新北市中和區圓通路333號","121.491955","24.9905066666667","6500300","中和區"
"220065","072-UY","2018/01/26 19:59:31","新北市板橋區中山路一段154巷18號","121.46474","25.01121","6500100","板橋區"
"220106","075-UY","2018/01/26 19:59:37","新北市板橋區仁化街150巷5-1號","121.478073333333","25.0329583333333","6500100","板橋區"
"220069","AAD-861","2018/01/26 19:59:25","新北市板橋區大明街17號","121.458846666667","25.0024516666667","6500100","板橋區"
"220102","120-SR","2018/01/26 19:59:27","新北市板橋區文聖街20號","121.475796666667","25.0318483333333","6500100","板橋區"
"247008","341-TH","2018/01/26 19:59:32","新北市蘆洲區中山一路61巷41號","121.477435","25.080565","6501400","蘆洲區"
"247010","339-TH","2018/01/26 19:59:26","新北市三重區集賢路188號","121.48393","25.088015","6501400","蘆洲區"
"247004","336-TH","2018/01/26 19:59:24","新北市蘆洲區長安街267巷20號","121.45781","25.0834","6501400","蘆洲區"
"247016","057-VK","2018/01/26 19:59:36","新北市蘆洲區光華路13-1號","121.469863333333","25.0832733333333","6501400","蘆洲區"
"247006","056-VK","2018/01/26 19:59:37","新北市蘆洲區九芎街103號","121.465908333333","25.0797016666667","6501400","蘆洲區"
"247002","053-VK","2018/01/26 19:59:27","新北市蘆洲區長安街274巷1號","121.457673333333","25.0871233333333","6501400","蘆洲區"
"247014","007-UY","2018/01/26 19:59:33","新北市蘆洲區成功路104號","121.47246","25.0821683333333","6501400","蘆洲區"
"247024","002-UY","2018/01/26 19:59:39","新北市蘆洲區光榮路120巷8弄20號","121.464345","25.087815","6501400","蘆洲區"
"226004","205-ST","2018/01/26 19:59:31","新北市平溪區靜安路二段550號","121.747558333333","25.025075","6502400","平溪區"
"228003","097-TW","2018/01/26 19:59:37","新北市貢寮區仁理村仁和路110號","121.922896666667","25.0508166666667","6502600","貢寮區"
"224010","AGQ-8101","2018/01/26 19:59:36","新北市瑞芳區輕便路200號","121.845176666667","25.1103816666667","6501200","瑞芳區"
"227011","642-TC","2018/01/26 19:59:39","新北市雙溪區新基里新基南街25號","121.86623","25.0381933333333","6502500","雙溪區"
"227003","400-TW","2018/01/26 19:59:38","新北市雙溪區雙溪里長安街16號","121.864981666667","25.034715","6502500","雙溪區"
"222001","KEA-2212","2018/01/26 19:59:27","新北市深坑區北深路三段165-1號","121.602165","25.00338","6501800","深坑區"
"208002","742-BX","2018/01/26 19:59:28","新北市萬里區大鵬里萬里加投241號","121.642231666667","25.216735","6502700","金山區"
"208003","665-BX","2018/01/26 19:59:40","新北市金山區香園9號","121.63471","25.2511566666667","6502700","金山區"
"208001","761-BX","2018/01/26 19:59:25","新北市金山區南勢41-1號","121.629088333333","25.2198533333333","6502700","金山區"
"251004","009-UM","2018/01/26 19:59:33","新北市淡水區民權路177巷7號","121.460848333333","25.1356233333333","6501000","淡水區"
"251008","181-VK","2018/01/26 19:59:38","新北市淡水區淡海路61號","121.422953333333","25.1809333333333","6501000","淡水區"
"251010","413-VK","2018/01/26 19:59:25","新北市淡水區崁頂里77號","121.430706666667","25.20335","6501000","淡水區"
"251012","441-VK","2018/01/26 19:59:41","新北市淡水區下圭柔山100-1號","121.437723333333","25.2105533333333","6501000","淡水區"
"251005","443-VK","2018/01/26 19:59:25","新北市淡水區學府路136巷48號","121.452278333333","25.1726216666667","6501000","淡水區"
"251001","559-UM","2018/01/26 19:59:38","新北市淡水區淡金路二段30號","121.45232","25.181255","6501000","淡水區"
"251006","561-UM","2018/01/26 19:59:24","新北市淡水區水碓街55號","121.444278333333","25.1774483333333","6501000","淡水區"
"251009","575-R6","2018/01/26 19:59:38","新北市淡水區英專路28巷2弄17號","121.445903333333","25.16938","6501000","淡水區"
"251011","650-BX","2018/01/26 19:59:20","新北市淡水區崁頂55-3號","121.442245","25.1967216666667","6501000","淡水區"
"251002","672-BX","2018/01/26 19:59:39","新北市淡水區中正路二段12號","121.420453333333","25.18053","6501000","淡水區"
"207003","550-UM","2018/01/26 19:59:37","新北市萬里區磺潭里公館崙5號","121.641883333333","25.2142283333333","6502800","萬里區"
"207004","225-TW","2018/01/26 19:59:31","新北市萬里區北基里忠二街35號","121.685608333333","25.1757583333333","6502800","萬里區"
"252002","178-VK","2018/01/26 19:59:40","新北市三芝區忠孝街116-3號","121.505518333333","25.2574783333333","6502100","三芝區"
"252001","292-VK","2018/01/26 19:59:32","新北市三芝區公正街9號","121.499761666667","25.25749","6502100","三芝區"
"237007","153-BY","2018/01/26 19:59:34","新北市三峽區二鬮路108號","121.360558333333","24.9088583333333","6500900","三峽區"
"237012","275-BY","2018/01/26 19:59:30","新北市三峽區中華路3巷8-1號","121.374926666667","24.931175","6500900","三峽區"
"237006","5529-G3","2018/01/26 19:59:35","新北市三峽區中正路二段168號","121.365933333333","24.9157066666667","6500900","三峽區"
"237015","649-BX","2018/01/26 19:59:08","新北市三峽區介壽路二段138巷1弄166-2號","121.403221666667","24.9276316666667","6500900","三峽區"
"237005","AKY-6261","2018/01/26 19:59:28","新北市三峽區民生街1巷16號","121.380233333333","24.9355833333333","6500900","三峽區"
"236072","105-UM","2018/01/26 19:59:40","新北市土城區忠義路77號","121.443088333333","24.9650083333333","6501300","土城區"
"236043","107-UM","2018/01/26 19:59:26","新北市土城區學府路一段98巷22號","121.455718333333","24.9887","6501300","土城區"
"236079","166-UM","2018/01/26 19:59:23","新北市土城區福安街106號","121.417345","24.9639416666667","6501300","土城區"
"236031","253-BX","2018/01/26 19:59:42","新北市土城區中央路一段242巷8弄1號","121.443756666667","24.9853083333333","6501300","土城區"
"236026","269-VK","2018/01/26 19:59:40","新北市土城區中央路一段299號","121.444055","24.9837466666667","6501300","土城區"
"236015","270-VK","2018/01/26 19:59:23","新北市土城區廣福街123號","121.456258333333","24.992915","6501300","土城區"
"236039","271-VK","2018/01/26 19:59:39","新北市土城區國際路64號","121.466558333333","24.9774616666667","6501300","土城區"
"236022","401-BY","2018/01/26 19:59:37","新北市土城區延吉街165巷5號","121.47037","24.9853466666667","6501300","土城區"
"236059","912-UM","2018/01/26 19:59:25","新北市土城區中央路一段193號","121.446143333333","24.9869933333333","6501300","土城區"
"236050","913-UM","2018/01/26 19:59:30","新北市土城區金城路三段186號","121.468223333333","24.9878866666667","6501300","土城區"
"236063","915-UM","2018/01/26 19:59:37","新北市土城區金城路三段73巷4弄1號","121.466306666667","24.98788","6501300","土城區"
"236055","AAC-216","2018/01/26 19:59:39","新北市土城區青雲路33號","121.46046","24.9883433333333","6501300","土城區"
"242032","AAC-296","2018/01/26 19:59:40","新北市新莊區公園一路39號","121.443233333333","25.0355516666667","6500500","新莊區"
"242029","986-R7","2018/01/26 19:59:38","新北市新莊區中平路348號","121.445196666667","25.0528616666667","6500500","新莊區"
"242025","615-BX","2018/01/26 19:59:32","新北市新莊區五工一路86號","121.461386666667","25.0675033333333","6500500","新莊區"
"242023","613-BX","2018/01/26 19:59:38","新北市新莊區化成路400號","121.465926666667","25.0505966666667","6500500","新莊區"
"242027","612-BX","2018/01/26 19:59:36","新北市新莊區幸福路896號","121.443405","25.04927","6500500","新莊區"
"242039","566-BX","2018/01/26 19:59:25","新北市新莊區民安路287-5號","121.428841666667","25.02306","6500500","新莊區"
"242044","442-UM","2018/01/26 19:59:30","新北市新莊區中正路746巷58-1號","121.412321666667","25.0239116666667","6500500","新莊區"
"242054","440-UM","2018/01/26 19:59:41","新北市新莊區民安西路344號","121.427046666667","25.0114283333333","6500500","新莊區"
"242034","415-TV","2018/01/26 19:59:22","新北市新莊區建中街84號","121.447243333333","25.0367033333333","6500500","新莊區"
"242005","413-TV","2018/01/26 19:59:25","新北市新莊區化成路352巷29號","121.467081666667","25.0491533333333","6500500","新莊區"
"242041","400-BY","2018/01/26 19:59:38","新北市新莊區新北大道七段321號","121.41218","25.02822","6500500","新莊區"
"242060","362-BY","2018/01/26 19:59:40","新北市新莊區瓊泰路20號","121.444548333333","25.0286616666667","6500500","新莊區"
"242058","353-BY","2018/01/26 19:59:42","新北市新莊區八德街117號","121.424101666667","25.0207183333333","6500500","新莊區"
"242007","132-UY","2018/01/26 19:59:28","新北市新莊區富貴路53號","121.458576666667","25.0573","6500500","新莊區"
"242037","133-UY","2018/01/26 19:59:30","新北市新莊區建安街26巷2號","121.428898333333","25.0259316666667","6500500","新莊區"
"242046","172-VK","2018/01/26 19:59:28","新北市新莊區裕民街19巷4號","121.419705","25.0252366666667","6500500","新莊區"
"242009","173-VK","2018/01/26 19:59:40","新北市新莊區幸福路788號","121.446643333333","25.0491066666667","6500500","新莊區"
"242015","175-VK","2018/01/26 19:59:23","新北市新莊區復興路一段33巷5號","121.446236666667","25.0422916666667","6500500","新莊區"
"242002","176-VK","2018/01/26 19:59:26","新北市新莊區中正路219號","121.450946666667","25.0357416666667","6500500","新莊區"
"242013","346-TH","2018/01/26 19:59:37","新北市新莊區中信街37巷1弄11號","121.450916666667","25.050525","6500500","新莊區"
"242050","347-TH","2018/01/26 19:59:38","新北市新莊區民本街25巷2號","121.428266666667","25.0193716666667","6500500","新莊區"
"242019","348-TH","2018/01/26 19:59:32","新北市新莊區長青街35巷9號","121.456918333333","25.0418133333333","6500500","新莊區"
"242056","349-TH","2018/01/26 19:59:21","新北市新莊區中正路347巷15號","121.447301666667","25.0343916666667","6500500","新莊區"
"242017","350-TH","2018/01/26 19:59:37","新北市新莊區中港路328號","121.452555","25.0458266666667","6500500","新莊區"
"238015","755-BX","2018/01/26 19:59:26","新北市樹林區中山路三段210-2號","121.380798333333","24.9661833333333","6500700","樹林區"
"238021","KEA-2217","2018/01/26 19:59:31","新北市樹林區佳園路三段101巷62弄40-9號","121.394071666667","24.9478166666667","6500700","樹林區"
"221036","130-UY","2018/01/26 19:59:34","新北市汐止區忠孝東路258巷11弄9號","121.663953333333","25.0676733333333","6501100","汐止區"
"221010","269-BY","2018/01/26 19:59:27","新北市汐止區連峰街227號","121.645006666667","25.08133","6501100","汐止區"
"221012","278-VK","2018/01/26 19:59:35","新北市汐止區大同路三段194號","121.674558333333","25.0741283333333","6501100","汐止區"
"221023","279-VK","2018/01/26 19:59:26","新北市汐止區明峰街206號","121.627595","25.0692516666667","6501100","汐止區"
"221032","280-BY","2018/01/26 19:59:38","新北市汐止區橫科路18巷33弄1號","121.61747","25.0497516666667","6501100","汐止區"
"221027","281-BY","2018/01/26 19:59:31","新北市汐止區中正路57號","121.661833333333","25.0699133333333","6501100","汐止區"
"221029","298-VK","2018/01/26 19:54:56","新北市汐止區樟樹二路339巷18號","121.64214","25.071915","6501100","汐止區"
"221021","299-VK","2018/01/26 19:59:40","新北市汐止區復興路58巷8號","121.656296666667","25.0622916666667","6501100","汐止區"
"221031","353-TW","2018/01/26 19:59:27","新北市汐止區福德一路184號","121.635563333333","25.06581","6501100","汐止區"
"221008","358-BY","2018/01/26 19:59:28","台北市內湖區康樂街125巷16號","121.620368333333","25.0732883333333","6501100","汐止區"
"221015","567-BX","2018/01/26 19:59:34","新北市汐止區大同路二段703號","121.665115","25.0727533333333","6501100","汐止區"
"221035","622-UM","2018/01/26 19:59:42","新北市汐止區長江街57巷10號","121.656171666667","25.07191","6501100","汐止區"
"221025","623-UM","2018/01/26 19:59:24","新北市汐止區秀峰路107號","121.660251666667","25.0634133333333","6501100","汐止區"
"221038","646-BX","2018/01/26 19:59:32","新北市汐止區忠孝東路462巷20號","121.666493333333","25.0736483333333","6501100","汐止區"
"221033","647-BX","2018/01/26 19:59:28","新北市汐止區東勢街201巷104號","121.6335","25.042945","6501100","汐止區"
"221018","753-BX","2018/01/26 19:59:43","新北市汐止區茄安路2號","121.672691666667","25.067645","6501100","汐止區"
"220079","145-BY","2018/01/26 19:59:31","新北市板橋區南雅西路二段205號","121.451238333333","25.013285","6500100","板橋區"
"220080","200-UY","2018/01/26 19:59:39","新北市板橋區大觀路二段169巷17號","121.44616","24.99992","6500100","板橋區"
"220101","245-BX","2018/01/26 19:59:29","新北市板橋區縣民大道三段69號","121.475056666667","25.02139","6500100","板橋區"
"220096","255-TC","2018/01/26 19:59:40","新北市板橋區莒光路133巷7弄2號","121.472611666667","25.0244733333333","6500100","板橋區"
"220103","257-TC","2018/01/26 19:59:26","新北市板橋區自由路18-3號","121.465573333333","25.0225283333333","6500100","板橋區"
"220072","277-BY","2018/01/26 19:59:24","新北市板橋區大觀路三段201號","121.431821666667","24.9932866666667","6500100","板橋區"
"220094","283-UM","2018/01/26 19:59:36","新北市板橋區漢生西路197-1號","121.463123333333","25.0244416666667","6500100","板橋區"
"220071","283-VK","2018/01/26 19:59:34","新北市板橋區和平路174巷25號","121.464671666667","24.9944966666667","6500100","板橋區"
"220053","285-VK","2018/01/26 19:59:38","新北市板橋區永豐街115號","121.474351666667","25.019585","6500100","板橋區"
"220083","286-VK","2018/01/26 19:59:22","新北市板橋區僑中二街8巷33號","121.445528333333","25.011315","6500100","板橋區"
"220081","287-VK","2018/01/26 19:59:28","新北市板橋區僑中一街80巷10弄1號","121.447993333333","25.01283","6500100","板橋區"
"220061","293-UM","2018/01/26 19:59:30","新北市板橋區觀光街3巷1號","121.47189","25.0156783333333","6500100","板橋區"
"220062","295-UM","2018/01/26 19:59:23","新北市板橋區中山路二段494號","121.485671666667","25.0223366666667","6500100","板橋區"
"220084","296-UM","2018/01/26 19:59:33","新北市板橋區溪崑二街101號","121.426901666667","24.9889166666667","6500100","板橋區"
"242048","281-VK","2018/01/26 19:59:38","新北市新莊區民安路209號","121.426321666667","25.0222566666667","6500500","新莊區"
"220075","303-R5","2018/01/26 19:59:39","新北市板橋區金華街10巷65號","121.457751666667","25.020385","6500100","板橋區"
"220090","305-R5","2018/01/26 19:59:37","新北市板橋區裕民街43號","121.461456666667","25.028605","6500100","板橋區"
"220092","307-R5","2018/01/26 19:59:39","新北市板橋區互助街40號","121.461873333333","25.0271966666667","6500100","板橋區"
"220098","317-R6","2018/01/26 19:59:39","新北市板橋區新海路72巷44號","121.462271666667","25.02288","6500100","板橋區"
"220064","486-VK","2018/01/26 19:59:29","新北市板橋區實踐路116號","121.46411","25.0042733333333","6500100","板橋區"
"220089","487-VK","2018/01/26 19:59:28","新北市板橋區龍泉街55巷10號","121.45732","25.0255616666667","6500100","板橋區"
"242021","280-VK","2018/01/26 19:59:34","新北市新莊區建中街48巷8弄11號","121.448653333333","25.03836","6500500","新莊區"
"220088","491-VK","2018/01/26 19:59:37","新北市板橋區懷德街181巷3號","121.47935","25.0301133333333","6500100","板橋區"
"220035","560-BX","2018/01/26 19:59:26","新北市板橋區新生街37號","121.456705","25.0211016666667","6500100","板橋區"
"220055","568-UM","2018/01/26 19:59:33","新北市板橋區仁愛路62巷14弄1-3號","121.459916666667","24.99849","6500100","板橋區"
"220091","637-BX","2018/01/26 19:59:31","新北市板橋區民治街119巷5號","121.478476666667","25.0307266666667","6500100","板橋區"
"220057","686-BX","2018/01/26 19:59:34","新北市板橋區四川路二段78號","121.452205","24.9947283333333","6500100","板橋區"
"220093","689-BX","2018/01/26 19:59:32","新北市板橋區長江路三段122號","121.475333333333","25.0342716666667","6500100","板橋區"
"220054","741-BX","2018/01/26 19:59:35","新北市板橋區忠孝路201巷39號","121.464876666667","25.0036433333333","6500100","板橋區"
"220067","829-TW","2018/01/26 19:59:38","新北市板橋區漢生東路193巷69弄1號","121.472255","25.0122166666667","6500100","板橋區"
"220074","895-R6","2018/01/26 19:59:34","新北市板橋區民權路39巷22號","121.461518333333","25.01045","6500100","板橋區"
"220073","985-R7","2018/01/26 19:59:34","新北市板橋區南雅西路二段2-1號","121.453113333333","25.0088366666667","6500100","板橋區"
"220097","AAC-210","2018/01/26 19:59:25","新北市板橋區光正街45巷33號","121.46171","25.0159616666667","6500100","板橋區"
"220070","AAC-253","2018/01/26 19:59:29","新北市板橋區四川路一段131號","121.45989","25.004675","6500100","板橋區"
