"lineid","car","time","location","longitude","latitude","cityid","cityname"
"249004","303-UY","2018/01/26 20:59:23","新北市八里區商港路105巷15號","121.389485","25.14788","6502300","八里區"
"244018","402-UM","2018/01/26 20:50:48","新北市林口區粉寮69號","121.405091666667","25.090775","6501700","林口區"
"222002","659-BX","2018/01/26 20:59:28","新北市深坑區北深路三段93巷11號","121.605476666667","25.0011433333333","6501800","深坑區"
"231059","046-UY","2018/01/26 20:59:33","新北市新店區僑信路80號","121.499655","24.94838","6500600","新店區"
"231061","047-UY","2018/01/26 20:59:27","新北市新店區永安街60號","121.51887","24.9868816666667","6500600","新店區"
"231051","107-UY","2018/01/26 20:59:36","新北市新店區中正路663巷1弄15號","121.532766666667","24.989805","6500600","新店區"
"231048","108-UY","2018/01/26 20:59:23","新北市新店區文化路73巷1號","121.54486","24.982505","6500600","新店區"
"231053","110-UY","2018/01/26 20:59:37","新北市新店區新烏路一段65號","121.54614","24.94369","6500600","新店區"
"231050","KEA-2219","2018/01/26 20:59:32","新北市新店區三民路75巷6-1號","121.535515","24.9707933333333","6500600","新店區"
"231054","AAD-862","2018/01/26 20:59:35","新北市新店區北新路一段96巷23號","121.543053333333","24.9688283333333","6500600","新店區"
"231067","4772-VM","2018/01/26 20:59:35","新北市新店區安德街153號","121.508315","24.9597166666667","6500600","新店區"
"231065","512-UM","2018/01/26 20:59:42","新北市新店區安祥路67巷50弄10號","121.484793333333","24.95904","6500600","新店區"
"231064","515-UM","2018/01/26 20:59:33","新北市新店區安民街251巷10弄1號","121.516795","24.97281","6500600","新店區"
"231042","616-UM","2018/01/26 20:59:34","新北市新店區寶興路60巷6號","121.549763333333","24.97181","6500600","新店區"
"231060","618-UM","2018/01/26 20:59:35","新北市新店區安康路三段578-2號","121.48029","24.94809","6500600","新店區"
"231040","619-UM","2018/01/26 20:59:43","新北市新店區北新路一段351號","121.541946666667","24.9694483333333","6500600","新店區"
"231063","645-TV","2018/01/26 20:59:41","新北市新店區玫瑰路28號","121.495305","24.9501483333333","6500600","新店區"
"231068","718-UY","2018/01/26 20:59:29","新北市新店區寶中路71號","121.547445","24.9805666666667","6500600","新店區"
"231062","720-UM","2018/01/26 20:59:29","新北市新店區雙城路100號","121.492361666667","24.9482683333333","6500600","新店區"
"231043","899-TW","2018/01/26 20:59:24","新北市新店區中正路373號","121.534811666667","24.9766383333333","6500600","新店區"
"231066","AKT-0513","2018/01/26 20:59:31","新北市新店區安民街68-1號","121.516735","24.9665183333333","6500600","新店區"
"241011","013-R5","2018/01/26 20:59:30","新北市三重區秀江街119號","121.499673333333","25.0722066666667","6500200","三重區"
"241028","022-UY","2018/01/26 20:59:31","新北市三重區重新路三段90號","121.492968333333","25.060855","6500200","三重區"
"241008","059-VK","2018/01/26 20:59:25","新北市三重區力行路二段162巷3號","121.482716666667","25.0766283333333","6500200","三重區"
"241009","060-VK","2018/01/26 20:59:41","新北市三重區三和路四段386號","121.482268333333","25.0790833333333","6500200","三重區"
"241031","061-VK","2018/01/26 20:59:33","新北市三重區重陽路一段113巷2弄2號","121.487476666667","25.0599083333333","6500200","三重區"
"241015","062-VK","2018/01/26 20:59:29","新北市三重區福德北路69號","121.502046666667","25.06565","6500200","三重區"
"241017","063-VK","2018/01/26 20:59:43","新北市三重區國隆路31號","121.492205","25.0645733333333","6500200","三重區"
"241024","065-VK","2018/01/26 20:59:31","新北市三重區國道路一段58巷20號","121.481293333333","25.072085","6500200","三重區"
"241002","090-VK","2018/01/26 20:59:35","新北市三重區仁義街128號","121.497171666667","25.0805533333333","6500200","三重區"
"241025","156-TC","2018/01/26 20:59:22","新北市三重區貴陽街18號","121.484181666667","25.0618716666667","6500200","三重區"
"241005","262-UM","2018/01/26 20:59:30","新北市三重區三信路182號","121.488088333333","25.0861633333333","6500200","三重區"
"241026","265-UM","2018/01/26 20:59:31","新北市三重區文化南路36號","121.500343333333","25.061415","6500200","三重區"
"241016","266-UM","2018/01/26 20:59:31","新北市三重區正義北路93號","121.497108333333","25.0652416666667","6500200","三重區"
"241018","268-UM","2018/01/26 20:59:28","新北市三重區自強路一段236號","121.493275","25.0670983333333","6500200","三重區"
"241032","269-UM","2018/01/26 20:59:41","新北市三重區三陽路133號","121.483126666667","25.0588733333333","6500200","三重區"
"241013","270-UM","2018/01/26 20:59:28","新北市三重區仁賢街12-1號","121.495715","25.0748033333333","6500200","三重區"
"241007","398-BY","2018/01/26 20:59:45","新北市三重區慈愛街10號","121.484645","25.07854","6500200","三重區"
"241020","413-TH","2018/01/26 20:59:30","新北市三重區忠孝路二段35號","121.48588","25.0710583333333","6500200","三重區"
"241004","475-VK","2018/01/26 20:59:42","新北市三重區仁愛街423-1號","121.490395","25.0814333333333","6500200","三重區"
"241019","478-VK","2018/01/26 20:59:42","新北市三重區自強路二段74巷19號","121.48794","25.0699333333333","6500200","三重區"
"241030","480-VK","2018/01/26 20:59:39","新北市三重區環河南路220-8號","121.493378333333","25.0526816666667","6500200","三重區"
"241014","543-UM","2018/01/26 20:59:43","新北市三重區長榮路77號","121.502708333333","25.0690433333333","6500200","三重區"
"241023","545-UM","2018/01/26 20:59:32","新北市三重區忠孝路三段50巷41弄64號","121.482401666667","25.0637366666667","6500200","三重區"
"241001","547-UM","2018/01/26 20:59:23","新北市三重區自強路三段87巷14號","121.488098333333","25.074975","6500200","三重區"
"241006","AAD-863","2018/01/26 20:59:40","新北市三重區永福街52號","121.481683333333","25.0781066666667","6500200","三重區"
"241022","887-TS","2018/01/26 20:59:31","新北市三重區中正北路20巷12號","121.488021666667","25.0625266666667","6500200","三重區"
"241012","941-UM","2018/01/26 20:59:38","新北市三重區仁信街27號","121.501283333333","25.0755633333333","6500200","三重區"
"241029","942-UM","2018/01/26 20:59:33","新北市三重區電信街90號","121.495723333333","25.0582433333333","6500200","三重區"
"241033","AAC-255","2018/01/26 20:59:39","新北市三重區光復路二段28號","121.472063333333","25.0542583333333","6500200","三重區"
"235064","005-UY","2018/01/26 20:59:39","新北市中和區員山路36巷13號","121.484355","24.990805","6500300","中和區"
"235049","186-VK","2018/01/26 20:59:32","新北市八里區商港路6號","121.397081666667","25.1442283333333","6500300","中和區"
"235069","4980-A6","2018/01/26 20:59:38","新北市中和區連城路469巷44弄18號","121.482815","24.9941","6500300","中和區"
"247022","893-R6","2018/01/26 20:59:19","新北市蘆洲區三民路226號","121.468705","25.0895733333333","6501400","蘆洲區"
"247012","546-UM","2018/01/26 20:59:41","新北市蘆洲區民權路5號","121.476568333333","25.0858366666667","6501400","蘆洲區"
"247020","500-BY","2018/01/26 20:59:41","新北市蘆洲區民族路375號","121.470725","25.091045","6501400","蘆洲區"
"247008","341-TH","2018/01/26 20:59:27","新北市蘆洲區民生街74號","121.47281","25.0790933333333","6501400","蘆洲區"
"247010","339-TH","2018/01/26 20:59:26","新北市蘆洲區鷺江街76號","121.476958333333","25.0837933333333","6501400","蘆洲區"
"247004","336-TH","2018/01/26 20:59:44","新北市蘆洲區永安南路二段268號","121.458605","25.080735","6501400","蘆洲區"
"247016","057-VK","2018/01/26 20:59:39","新北市蘆洲區正和街77巷10號","121.468395","25.08059","6501400","蘆洲區"
"247006","056-VK","2018/01/26 20:59:37","新北市蘆洲區永安南路二段16巷16號","121.467968333333","25.0777683333333","6501400","蘆洲區"
"247002","053-VK","2018/01/26 20:59:27","新北市蘆洲區永平街20號","121.459095","25.090685","6501400","蘆洲區"
"247014","007-UY","2018/01/26 20:59:33","新北市蘆洲區中山二路36巷31號","121.47419","25.08319","6501400","蘆洲區"
"247024","002-UY","2018/01/26 20:59:41","新北市蘆洲區長興路255號","121.460478333333","25.0876366666667","6501400","蘆洲區"
"247018","001-UY","2018/01/26 20:59:28","新北市蘆洲區民權路140號","121.472886666667","25.0891216666667","6501400","蘆洲區"
"222001","KEA-2212","2018/01/26 20:59:27","新北市深坑區北深路三段25巷13-3號","121.608726666667","25.0002","6501800","深坑區"
"251010","413-VK","2018/01/26 20:59:25","新北市淡水區中正路一段116-3號","121.423888333333","25.1787033333333","6501000","淡水區"
"251012","441-VK","2018/01/26 20:59:41","新北市淡水區淡金路五段62號","121.454411666667","25.2333666666667","6501000","淡水區"
"251005","443-VK","2018/01/26 20:59:25","新北市淡水區學府路71號","121.448305","25.1699016666667","6501000","淡水區"
"251001","559-UM","2018/01/26 20:59:38","新北市淡水區北投子14-3號","121.449108333333","25.1832583333333","6501000","淡水區"
"251007","577-R6","2018/01/26 20:59:36","新北市淡水區仁愛街2巷25號","121.446466666667","25.1710466666667","6501000","淡水區"
"251011","650-BX","2018/01/26 20:59:40","新北市淡水區新民街294號","121.435198333333","25.1822983333333","6501000","淡水區"
"251002","672-BX","2018/01/26 20:59:39","新北市淡水區水源街一段145號","121.447325","25.1718666666667","6501000","淡水區"
"251003","766-UM","2018/01/26 20:59:40","新北市淡水區新春街103-39號","121.44076","25.182835","6501000","淡水區"
"242029","986-R7","2018/01/26 20:59:38","新北市新莊區中華路二段26-1號","121.453576666667","25.0450866666667","6500500","新莊區"
"242050","347-TH","2018/01/26 20:59:38","新北市新莊區新樹路206巷4號","121.43365","25.0204083333333","6500500","新莊區"
"242056","349-TH","2018/01/26 20:59:41","新北市樹林區八德街369號","121.41645","24.9717033333333","6500500","新莊區"
"221027","281-BY","2018/01/26 20:59:30","新北市汐止區康寧街901號","121.651715","25.074915","6501100","汐止區"
"220080","200-UY","2018/01/26 20:59:39","新北市八里區中華路三段55號","121.395038333333","25.14137","6500100","板橋區"
"242048","281-VK","2018/01/26 20:59:38","新北市新莊區新樹路605號","121.433146666667","25.0056683333333","6500500","新莊區"
"220070","AAC-253","2018/01/26 20:59:28","新北市八里區中山路三段409號","121.36835","25.1350616666667","6500100","板橋區"
