"lineid","car","time","location","longitude","latitude","cityid","cityname"
"231050","KEA-2219","2018/01/26 21:39:32","新北市新店區薏仁坑路2-1號","121.500585","24.9581083333333","6500600","新店區"
"241005","262-UM","2018/01/26 21:39:30","新北市三重區碧華街1號","121.483566666667","25.08109","6500200","三重區"
"241030","480-VK","2018/01/26 21:39:19","新北市林口區太平里180號","121.366555","25.1341266666667","6500200","三重區"
"241033","AAC-255","2018/01/26 21:38:19","新北市五股區中直路17-3號","121.422038333333","25.1116466666667","6500200","三重區"
"235049","186-VK","2018/01/26 21:39:32","新北市中和區員山路36巷13號","121.484275","24.99066","6500300","中和區"
"235010","733-UM","2018/01/26 21:39:42","新北市中和區員山路36巷13號","121.484153333333","24.99082","6500300","中和區"
"247008","341-TH","2018/01/26 21:39:27","新北市八里區荖阡坑路34號","121.402545","25.1287833333333","6501400","蘆洲區"
"251004","009-UM","2018/01/26 21:39:35","新北市淡水區民權路38號","121.46007","25.1373166666667","6501000","淡水區"
"251008","181-VK","2018/01/26 21:39:38","新北市淡水區水源街二段2號","121.448885","25.173285","6501000","淡水區"
"251010","413-VK","2018/01/26 21:39:45","新北市淡水區沙崙路216巷56號","121.426298333333","25.184125","6501000","淡水區"
"251012","441-VK","2018/01/26 21:39:41","新北市淡水區淡金路四段478號","121.451945","25.224085","6501000","淡水區"
"251005","443-VK","2018/01/26 21:39:25","新北市淡水區學府路88號","121.449091666667","25.1710466666667","6501000","淡水區"
"251001","559-UM","2018/01/26 21:39:38","新北市淡水區新市二路三段152號","121.435356666667","25.19412","6501000","淡水區"
"251006","561-UM","2018/01/26 21:39:44","新北市淡水區中正路11巷3號","121.437801666667","25.1707716666667","6501000","淡水區"
"251009","575-R6","2018/01/26 21:39:38","新北市淡水區民生路124巷32弄11號","121.463691666667","25.137485","6501000","淡水區"
"251011","650-BX","2018/01/26 21:39:41","新北市淡水區新民街322巷2號","121.43532","25.183505","6501000","淡水區"
"251002","672-BX","2018/01/26 21:39:39","新北市淡水區學府路168號","121.446558333333","25.1750116666667","6501000","淡水區"
"251003","766-UM","2018/01/26 21:39:41","新北市淡水區新春街42號","121.437341666667","25.1816","6501000","淡水區"
"220070","AAC-253","2018/01/26 21:39:28","新北市板橋區華東街1-9號","121.448273333333","24.9948766666667","6500100","板橋區"
