"lineid","car","time","location","longitude","latitude","cityid","cityname"
"234012","KEA-2591","2018/01/26 21:54:48","新北市永和區福和路1號","121.52614","25.00944","6500400","永和區"
"235010","733-UM","2018/01/26 21:39:58","新北市中和區員山路36巷13號","121.484153333333","24.9908216666667","6500300","中和區"
"251004","009-UM","2018/01/26 21:59:35","新北市淡水區自強路51號","121.459306666667","25.1299116666667","6501000","淡水區"
"251008","181-VK","2018/01/26 21:59:38","新北市淡水區學府路104號","121.44986","25.171795","6501000","淡水區"
"251010","413-VK","2018/01/26 21:59:45","新北市淡水區中正路二段211號","121.426211666667","25.1891083333333","6501000","淡水區"
"251005","443-VK","2018/01/26 21:59:25","新北市淡水區鄧公路30巷1弄65號","121.454505","25.1695966666667","6501000","淡水區"
"251009","575-R6","2018/01/26 21:59:18","新北市淡水區淡金路8號","121.457456666667","25.1594383333333","6501000","淡水區"
"251007","577-R6","2018/01/26 21:59:36","新北市淡水區北新路184巷60號","121.451118333333","25.1775816666667","6501000","淡水區"
"251011","650-BX","2018/01/26 21:59:40","新北市淡水區水碓街7號","121.443165","25.1771866666667","6501000","淡水區"
