"lineid","car","time","location","longitude","latitude","cityid","cityname"
"248005","653-BX","2018/01/27 06:59:38","新北市五股區中興路二段83巷26-6號","121.459988333333","25.0751466666667","6501500","五股區"
"232004","290-BY","2018/01/27 06:59:42","新北市坪林區九芎坑13號","121.735083333333","24.95141","6502000","坪林區"
"232016","291-BY","2018/01/27 06:59:39","新北市坪林區仁里11號","121.689931666667","24.9284483333333","6502000","坪林區"
"232010","375-UM","2018/01/27 06:59:53","新北市坪林區水聳淒坑21號","121.712906666667","24.9318933333333","6502000","坪林區"
"232009","758-BX","2018/01/27 06:59:40","新北市坪林區九芎林28-1號","121.703043333333","24.92357","6502000","坪林區"
"244005","248-BX","2018/01/27 06:59:40","新北市林口區中山路568號","121.37778","25.0839616666667","6501700","林口區"
"222004","289-BY","2018/01/27 06:59:36","新北市深坑區昇高坑路50號","121.628675","24.9978833333333","6501800","深坑區"
"235001","611-BX","2018/01/27 06:59:46","新北市中和區圓通路367巷4號","121.491343333333","24.9892466666667","6500300","中和區"
"223006","022-BY","2018/01/27 06:59:45","新北市石碇區深按8號","121.657918333333","25.0179716666667","6501900","石碇區"
"223002","198-BX","2018/01/27 06:59:47","新北市石碇區北宜路五段崙尾寮巷2-1號","121.647833333333","24.952565","6501900","石碇區"
"223001","205-TH","2018/01/27 06:59:39","新北市石碇區石碇東街143號","121.658978333333","24.9891883333333","6501900","石碇區"
"223008","406-TH","2018/01/27 06:59:44","新北市石碇區排寮1號","121.667405","25.0077266666667","6501900","石碇區"
"223001","437-BY","2018/01/27 06:59:42","新北市石碇區石碇西街9號","121.659078333333","24.9908083333333","6501900","石碇區"
"223007","592-UM","2018/01/27 06:59:54","新北市石碇區十八重溪81-1號","121.672245","25.0107533333333","6501900","石碇區"
"223004","660-BX","2018/01/27 06:59:41","新北市石碇區碇坪路一段52號","121.656965","24.9915433333333","6501900","石碇區"
"223005","677-TV","2018/01/27 06:59:42","新北市石碇區碇坪路一段60號","121.657111666667","24.9915566666667","6501900","石碇區"
"227006","282-VK","2018/01/27 06:59:42","新北市雙溪區新基里自強路5號","121.86631","25.0389816666667","6502500","雙溪區"
"252004","249-BX","2018/01/27 06:59:45","新北市三芝區埔坪里埔頭坑41號","121.504561666667","25.264595","6502100","三芝區"
"237001","159-UY","2018/01/27 06:59:52","新北市三峽區中山路459巷163-1號","121.349308333333","24.9334066666667","6500900","三峽區"
"236011","165-UM","2018/01/27 06:59:48","新北市土城區永平街51號","121.427985","24.9591833333333","6501300","土城區"
"220022","461-BY","2018/01/27 06:59:52","新北市板橋區國光路49巷17號","121.45897","25.0188266666667","6500100","板橋區"
