"lineid","car","time","location","longitude","latitude","cityid","cityname"
"244022","069-UM","2018/11/22 09:08:17","新北市林口區東湖路75巷19號","121.385138333333","25.072745","6501700","林口區"
"244006","080-UY","2018/11/22 09:08:13","新北市林口區林口路124巷10弄7號","121.389263333333","25.0816866666667","6501700","林口區"
"244018","403-UM","2018/11/22 09:08:12","新北市林口區文化一路一段78號","121.371735","25.0698866666667","6501700","林口區"
"244012","KEA-2802","2018/11/22 09:08:02","新北市林口區文化一路一段135巷12號","121.373383333333","25.0722783333333","6501700","林口區"
"244003","410-SL","2018/11/22 09:08:18","新北市林口區嘉溪雅坑46號","121.321921666667","25.1211216666667","6501700","林口區"
"244016","485-VK","2018/11/22 09:08:03","新北市林口區八德路56號","121.366225","25.0658183333333","6501700","林口區"
"244008","656-BX","2018/11/22 09:08:15","新北市林口區中山路598號","121.375758333333","25.085815","6501700","林口區"
"244010","701-TV","2018/11/22 09:08:08","新北市林口區興林路17巷5弄1號","121.390413333333","25.07703","6501700","林口區"
"244024","837-TS","2018/11/22 09:08:09","新北市林口區文化北路一段411-1號","121.364595","25.0765466666667","6501700","林口區"
"244020","838-TS","2018/11/22 09:08:13","新北市林口區工六路76號","121.400246666667","25.0773783333333","6501700","林口區"
"222006","289-BY","2018/11/22 09:08:16","新北市深坑區土庫尖路92-1號","121.633953333333","25.0173616666667","6501800","深坑區"
"231069","189-VK","2018/11/22 09:08:10","新北市新店區新潭路三段215巷25號","121.508106666667","24.9040566666667","6500600","新店區"
"231008","192-VK","2018/11/22 09:08:02","新北市新店區廣興路66巷3號","121.538848333333","24.913715","6500600","新店區"
"226007","7418-A5","2018/11/22 09:07:29","新北市平溪區東勢里芊蓁坑20號","121.73624","24.98736","6502400","平溪區"
"226003","AGD-0702","2018/11/22 09:08:10","新北市平溪區望古里望古坑26號","121.763353333333","25.034385","6502400","平溪區"
"223006","022-BY","2018/11/22 09:08:12","新北市石碇區石崁10號","121.654828333333","24.9961283333333","6501900","石碇區"
"223003","205-TH","2018/11/22 09:07:59","新北市石碇區北宜路四段26號","121.623185","24.957945","6501900","石碇區"
"223008","406-TH","2018/11/22 09:08:13","新北市石碇區光明路15號","121.6804","25.0337033333333","6501900","石碇區"
"223004","437-BY","2018/11/22 09:08:02","新北市石碇區磨石坑24-5號","121.690583333333","24.9713416666667","6501900","石碇區"
"223001","592-UM","2018/11/22 09:08:16","新北市石碇區北宜路四段30號","121.623663333333","24.9567183333333","6501900","石碇區"
"223007","661-BX","2018/11/22 09:08:11","新北市石碇區光明路15-1號","121.682255","25.0341933333333","6501900","石碇區"
"223005","677-TV","2018/11/22 09:08:11","新北市石碇區磨石坑24-6號","121.690388333333","24.9716266666667","6501900","石碇區"
"252004","249-BX","2018/11/22 09:08:14","新北市三芝區興華里車埕69-3號","121.493356666667","25.1936333333333","6502100","三芝區"
"252007","AAC-283","2018/11/22 09:08:09","新北市三芝區古庄里山豬堀14-1號","121.492391666667","25.2594083333333","6502100","三芝區"
"237001","159-UY","2018/11/22 09:08:12","新北市樹林區中山路三段210-2號","121.380751666667","24.966965","6500900","三峽區"
"242035","AAC-296","2018/11/22 09:08:10","新北市新莊區建安街28號","121.428191666667","25.0255166666667","6500500","新莊區"
"242057","986-R7","2018/11/22 09:08:11","新北市新莊區八德街76號","121.424613333333","25.021915","6500500","新莊區"
"242055","751-BX","2018/11/22 09:08:07","新北市新莊區新豐街22號","121.448265","25.03433","6500500","新莊區"
"242028","705-TV","2018/11/22 09:08:10","新北市新莊區昌平街1號","121.4549","25.0513533333333","6500500","新莊區"
"242026","615-BX","2018/11/22 09:08:09","新北市新莊區中港路390號","121.452416666667","25.049275","6500500","新莊區"
"242024","613-BX","2018/11/22 09:08:07","新北市新莊區五工一路80巷23號","121.461188333333","25.06674","6500500","新莊區"
"242043","566-BX","2018/11/22 09:08:07","新北市新莊區新北大道七段712號","121.412371666667","25.026365","6500500","新莊區"
"242047","497-BY","2018/11/22 09:08:15","新北市新莊區後港二路16號","121.422613333333","25.0238083333333","6500500","新莊區"
"242045","442-UM","2018/11/22 09:08:05","新北市新莊區裕民街85巷20號","121.419548333333","25.0232133333333","6500500","新莊區"
"242052","441-UM","2018/11/22 09:07:59","新北市新莊區西盛街435號","121.4271","25.0118916666667","6500500","新莊區"
"242001","440-UM","2018/11/22 09:08:13","新北市新莊區化成路7號","121.464911666667","25.0429216666667","6500500","新莊區"
"242038","415-TV","2018/11/22 09:08:06","新北市新莊區龍安路473號","121.425191666667","25.01835","6500500","新莊區"
"242008","413-TV","2018/11/22 09:08:04","新北市新莊區幸福路62號","121.457135","25.0494633333333","6500500","新莊區"
"242022","362-BY","2018/11/22 09:08:00","新北市新莊區新北大道二段302號","121.464548333333","25.06132","6500500","新莊區"
"242059","353-BY","2018/11/22 09:08:17","新北市新莊區瓊林路68號","121.445238333333","25.0286716666667","6500500","新莊區"
"242010","132-UY","2018/11/22 09:08:07","新北市新莊區中信街59號","121.449366666667","25.0507766666667","6500500","新莊區"
"242033","135-UY","2018/11/22 09:08:15","新北市新莊區建中街97號","121.446665","25.0360516666667","6500500","新莊區"
"242012","173-VK","2018/11/22 09:08:19","新北市新莊區中平路302巷4號","121.445363333333","25.0515033333333","6500500","新莊區"
"242018","175-VK","2018/11/22 09:08:05","新北市新莊區銘德街51號","121.457186666667","25.0436733333333","6500500","新莊區"
"242016","346-TH","2018/11/22 09:08:00","新北市新莊區新泰路357巷3弄41號","121.442015","25.0403","6500500","新莊區"
"242030","348-TH","2018/11/22 09:08:10","新北市新莊區忠孝街95號","121.443931666667","25.0370366666667","6500500","新莊區"
"242003","349-TH","2018/11/22 09:08:04","新北市新莊區化成路219號","121.465938333333","25.0524666666667","6500500","新莊區"
"242020","350-TH","2018/11/22 09:08:14","新北市新莊區復興路一段9號","121.445661666667","25.04162","6500500","新莊區"
"242014","351-TH","2018/11/22 09:08:10","新北市新莊區中和街31巷22號","121.44716","25.0438783333333","6500500","新莊區"
"242040","281-VK","2018/11/22 09:08:15","新北市新莊區壽山路61號","121.410206666667","25.032695","6500500","新莊區"
"242049","280-VK","2018/11/22 09:08:11","新北市新莊區民安西路173巷5號","121.426596666667","25.01596","6500500","新莊區"
