"lineid","car","time","location","longitude","latitude","cityid","cityname"
"244022","069-UM","2018/11/22 10:17:37","新北市林口區仁愛路二段377號","121.37032","25.0799966666667","6501700","林口區"
"244003","410-SL","2018/11/22 10:17:38","新北市林口區粉寮路二段160巷28號","121.405146666667","25.090655","6501700","林口區"
"222006","289-BY","2018/11/22 10:17:36","新北市深坑區大崙尾8-2號","121.613636666667","24.9780833333333","6501800","深坑區"
"231069","189-VK","2018/11/22 10:17:50","新北市新店區新烏路三段215巷19號","121.50695","24.9032","6500600","新店區"
"231008","192-VK","2018/11/22 10:17:42","新北市新店區小坑一路41號","121.527271666667","24.9101616666667","6500600","新店區"
"235018","640-BX","2018/11/22 10:17:42","新北市中和區建八路1號","121.485545","24.9987066666667","6500300","中和區"
"252007","AAC-283","2018/11/22 10:17:49","新北市三芝區新庄里番社后15-6號","121.499423333333","25.2681783333333","6502100","三芝區"
"237001","159-UY","2018/11/22 10:17:32","新北市三峽區中山路459巷137號","121.349846666667","24.93359","6500900","三峽區"
"242003","349-TH","2018/11/22 10:17:44","新北市樹林區八德街856號","121.391913333333","24.9685883333333","6500500","新莊區"
