"lineid","car","time","location","longitude","latitude","cityid","cityname"
"234036","336-UY","2018/11/22 12:18:13","新北市永和區福和路1號","121.52667","25.0100433333333","6500400","永和區"
"234084","338-UY","2018/11/22 12:18:20","新北市永和區福和路1號","121.526438333333","25.0098433333333","6500400","永和區"
"234015","745-BX","2018/11/22 12:18:15","新北市永和區福和路1號","121.52641","25.0097066666667","6500400","永和區"
"244019","403-UM","2018/11/22 11:59:00","新北市林口區粉寮69號","121.405118333333","25.090795","6501700","林口區"
"243008","KEA-2801","2018/11/22 12:07:51","新北市泰山區犁頭窠3-1號","121.42228","25.0605816666667","6501600","泰山區"
"235029","098-UM","2018/11/22 12:18:11","新北市中和區員山路36巷16-3號","121.485115","24.99132","6500300","中和區"
"228005","097-TW","2018/11/22 12:18:06","新北市貢寮區福連里香蘭街26-2號","121.984323333333","25.0213516666667","6502600","貢寮區"
"228004","212-TW","2018/11/22 12:18:10","新北市貢寮區貢寮里長泰路21號","121.891468333333","25.0214133333333","6502600","貢寮區"
