"lineid","car","time","location","longitude","latitude","cityid","cityname"
"234044","148-BY","2018/11/22 12:37:54","新北市永和區永元路116號","121.522663333333","25.002445","6500400","永和區"
"234005","207-UY","2018/11/22 12:37:46","新北市永和區福和路1號","121.526103333333","25.00975","6500400","永和區"
"234078","298-R6","2018/11/22 12:37:53","新北市永和區林森路81號","121.523945","25.0038866666667","6500400","永和區"
"234036","336-UY","2018/11/22 12:37:53","新北市永和區環河東路二段90號","121.524473333333","25.0106783333333","6500400","永和區"
"234062","337-UY","2018/11/22 12:37:36","新北市永和區福和路1號","121.526575","25.0100533333333","6500400","永和區"
"234084","338-UY","2018/11/22 12:37:40","新北市永和區中正路17號","121.514241666667","24.9958316666667","6500400","永和區"
"234068","552-UM","2018/11/22 12:37:47","新北市永和區福和路1號","121.525235","25.009425","6500400","永和區"
"234015","745-BX","2018/11/22 12:37:35","新北市永和區福和路1號","121.526381666667","25.0096883333333","6500400","永和區"
"234028","746-BX","2018/11/22 12:37:48","新北市永和區福和路7巷11弄16號","121.525903333333","25.00787","6500400","永和區"
"234012","KEA-2591","2018/11/22 12:37:52","新北市永和區信義路14-1號","121.514278333333","25.0121316666667","6500400","永和區"
"234048","863-TW","2018/11/22 12:37:55","新北市永和區福和路1號","121.526391666667","25.0096383333333","6500400","永和區"
"248015","026-BX","2018/11/22 12:37:17","新北市五股區中興路二段83巷26-6號","121.459883333333","25.0753","6501500","五股區"
"248007","095-VK","2018/11/22 12:37:53","新北市五股區中興路二段37巷28號","121.460206666667","25.0751233333333","6501500","五股區"
"234076","969-R7","2018/11/22 12:37:39","新北市永和區中正路17號","121.514146666667","24.99567","6500400","永和區"
"234066","AAC-212","2018/11/22 12:37:30","新北市永和區豫溪街217巷7號","121.525131666667","25.0099333333333","6500400","永和區"
"234001","AAC-295","2018/11/22 12:37:44","新北市永和區福和路1號","121.526578333333","25.0099233333333","6500400","永和區"
"244003","410-SL","2018/11/22 12:37:43","新北市林口區粉寮路二段160巷28號","121.405186666667","25.0907716666667","6501700","林口區"
"231010","107-UY","2018/11/22 12:37:53","新北市新店區安一路一段1-1號","121.519428333333","24.9614883333333","6500600","新店區"
"231036","512-UM","2018/11/22 12:37:40","新北市新店區安一路一段1-1號","121.519286666667","24.9615733333333","6500600","新店區"
"231035","515-UM","2018/11/22 12:37:51","新北市新店區安一路一段1-1號","121.519753333333","24.9611883333333","6500600","新店區"
"235029","098-UM","2018/11/22 12:37:51","新北市中和區員山路36巷16-3號","121.485033333333","24.99128","6500300","中和區"
"235031","255-BX","2018/11/22 12:37:36","新北市中和區和城路一段271巷1號","121.485785","24.9918033333333","6500300","中和區"
"235005","802-TS","2018/11/22 12:37:54","新北市中和區和城路一段271巷1號","121.485598333333","24.9918433333333","6500300","中和區"
"228005","097-TW","2018/11/22 12:37:47","新北市貢寮區福連里蓬萊街16號","121.981313333333","24.9928783333333","6502600","貢寮區"
"228004","212-TW","2018/11/22 12:37:50","新北市貢寮區吉林里枋腳街7-1號","121.887948333333","25.00895","6502600","貢寮區"
"207002","749-BX","2018/11/22 12:37:57","新北市萬里區雙興里太和路7-2號","121.658568333333","25.17402","6502800","萬里區"
"221008","489-VK","2018/11/22 12:37:37","新北市汐止區康寧街901號","121.651331666667","25.0750866666667","6501100","汐止區"
"221010","269-BY","2018/11/22 12:37:46","新北市汐止區汐萬路一段256巷3號","121.652141666667","25.0749066666667","6501100","汐止區"
"235025","KEA-2875","2018/11/22 12:30:39","新北市中和區員山路36巷16-3號","121.485035","24.9916216666667","6500300","中和區"
