"lineid","car","time","location","longitude","latitude","cityid","cityname"
"234044","148-BY","2018/11/22 13:27:54","新北市永和區秀朗路二段99號","121.523703333333","25.0018383333333","6500400","永和區"
"234005","207-UY","2018/11/22 13:27:46","新北市永和區永貞路375號","121.508341666667","25.0083366666667","6500400","永和區"
"234078","298-R6","2018/11/22 13:27:53","新北市永和區林森路10巷31號","121.525851666667","25.006285","6500400","永和區"
"234036","336-UY","2018/11/22 13:27:53","新北市永和區民樂街20號","121.527611666667","25.00197","6500400","永和區"
"234062","337-UY","2018/11/22 13:27:56","新北市永和區永元路17巷25弄10號","121.52095","25.0016816666667","6500400","永和區"
"234084","338-UY","2018/11/22 13:27:40","新北市永和區永利路72號","121.520286666667","25.004255","6500400","永和區"
"234068","552-UM","2018/11/22 13:27:53","新北市永和區中正路666巷55號","121.51885","25.009135","6500400","永和區"
"234015","745-BX","2018/11/22 13:27:55","新北市永和區環河西路一段51巷6號","121.513938333333","25.0181583333333","6500400","永和區"
"234028","746-BX","2018/11/22 13:27:54","新北市永和區民生路49號","121.522735","24.9978516666667","6500400","永和區"
"234052","KEA-2590","2018/11/22 13:27:44","新北市永和區復興街19巷8號","121.516223333333","25.0132166666667","6500400","永和區"
"234012","KEA-2591","2018/11/22 13:27:52","新北市永和區永和路二段119號","121.514851666667","25.0119916666667","6500400","永和區"
"234060","AAD-866","2018/11/22 13:27:49","新北市永和區中正路570號","121.517106666667","25.0063333333333","6500400","永和區"
"234040","862-TW","2018/11/22 13:27:43","新北市永和區中和路573號","121.511721666667","25.0034733333333","6500400","永和區"
"234048","863-TW","2018/11/22 13:27:55","新北市永和區信義路100號","121.512466666667","25.0138466666667","6500400","永和區"
"234025","9371-KE","2018/11/22 13:27:53","新北市永和區中山路一段17號","121.513825","25.0101933333333","6500400","永和區"
"234010","9373-KE","2018/11/22 13:27:54","新北市永和區仁愛路141巷3弄9號","121.511973333333","25.0125416666667","6500400","永和區"
"248013","025-BX","2018/11/22 13:27:45","新北市五股區明德路7巷37號","121.434613333333","25.0708116666667","6501500","五股區"
"248015","026-BX","2018/11/22 13:27:44","新北市五股區凌雲路一段83巷6號","121.45034","25.1011466666667","6501500","五股區"
"248005","077-UY","2018/11/22 13:27:47","新北市五股區四維路66號","121.467431666667","25.0723116666667","6501500","五股區"
"248007","095-VK","2018/11/22 13:27:53","新北市五股區四維路185巷46號","121.463405","25.0775533333333","6501500","五股區"
"248017","225-UY","2018/11/22 13:27:22","新北市五股區民義路二段52巷22號","121.415411666667","25.1115166666667","6501500","五股區"
"248011","247-BX","2018/11/22 13:27:55","新北市五股區御史路22號","121.442058333333","25.091365","6501500","五股區"
"248003","677-BX","2018/11/22 13:27:57","新北市五股區民義路一段152號","121.433128333333","25.0873666666667","6501500","五股區"
"248001","678-BX","2018/11/22 13:27:42","新北市五股區西雲路147號","121.445035","25.093965","6501500","五股區"
"248009","682-TV","2018/11/22 13:27:44","新北市五股區明德路12巷6號","121.433375","25.07182","6501500","五股區"
"234022","9380-KE","2018/11/22 13:27:45","新北市永和區豫溪街191巷3弄4號","121.523466666667","25.010495","6500400","永和區"
"234076","969-R7","2018/11/22 13:27:39","新北市永和區民有街23巷57號","121.517813333333","24.9975033333333","6500400","永和區"
"234072","AAC-211","2018/11/22 13:27:45","新北市永和區永和路二段127號","121.514968333333","25.0121133333333","6500400","永和區"
"234066","AAC-212","2018/11/22 13:27:55","新北市永和區保平路174巷1號","121.510416666667","25.0071233333333","6500400","永和區"
"234001","AAC-295","2018/11/22 13:27:44","新北市永和區保平路12號","121.512506666667","25.00765","6500400","永和區"
"244003","410-SL","2018/11/22 13:27:43","新北市林口區瑞平里8鄰52號","121.349875","25.1180433333333","6501700","林口區"
"243005","AAD-798","2018/11/22 13:21:43","新北市泰山區明志路三段206巷3號","121.423273333333","25.0379716666667","6501600","泰山區"
"243008","KEA-2801","2018/11/22 13:27:34","新北市泰山區犁頭窠3-1號","121.42209","25.060585","6501600","泰山區"
"243002","KEA-2216","2018/11/22 13:27:40","新北市泰山區黎明路31號","121.421743333333","25.0606266666667","6501600","泰山區"
"231002","002-UM","2018/11/22 13:27:50","新北市新店區環河路29巷1號","121.537001666667","24.9613783333333","6500600","新店區"
"231028","046-UY","2018/11/22 13:27:49","新北市新店區安華路28-1號","121.519745","24.9608716666667","6500600","新店區"
"231001","047-UY","2018/11/22 13:27:48","新北市新店區環河路29巷1號","121.536703333333","24.9613083333333","6500600","新店區"
"231005","106-UY","2018/11/22 13:27:49","新北市新店區安康路一段3-1號","121.535473333333","24.960945","6500600","新店區"
"231010","107-UY","2018/11/22 13:27:53","新北市新店區中央路17號","121.533226666667","24.9782183333333","6500600","新店區"
"231021","108-UY","2018/11/22 13:27:47","新北市新店區新烏路一段12號","121.546923333333","24.951525","6500600","新店區"
"231031","110-UY","2018/11/22 13:27:54","新北市新店區安豐路49號","121.500073333333","24.9540583333333","6500600","新店區"
"231011","187-VK","2018/11/22 13:27:55","新北市新店區環河路1-1號","121.537806666667","24.9614133333333","6500600","新店區"
"231023","KEA-2219","2018/11/22 13:27:49","新北市新店區北宜路一段168號","121.540456666667","24.95299","6500600","新店區"
"231026","256-BX","2018/11/22 13:27:48","新北市新店區安華路1-1號","121.519483333333","24.9600216666667","6500600","新店區"
"231003","268-BY","2018/11/22 13:27:53","新北市新店區安康路一段3-1號","121.535625","24.961005","6500600","新店區"
"231018","278-BY","2018/11/22 13:27:42","新北市新店區中央路153號","121.529895","24.973145","6500600","新店區"
"231017","AAD-862","2018/11/22 13:27:52","新北市新店區北宜路二段30巷5弄3號","121.548343333333","24.9507616666667","6500600","新店區"
"231038","3712-VJ","2018/11/22 13:27:51","新北市新店區安華路28-1號","121.519403333333","24.9607416666667","6500600","新店區"
"231027","3713-VJ","2018/11/22 13:27:35","新北市新店區北宜路一段20號","121.538043333333","24.95707","6500600","新店區"
"231037","4716-K9","2018/11/22 13:27:52","新北市新店區車子路10-4號","121.50492","24.9545666666667","6500600","新店區"
"231025","4715-K9","2018/11/22 13:27:52","新北市新店區中央五街37號","121.528626666667","24.9749766666667","6500600","新店區"
"231036","512-UM","2018/11/22 13:27:40","新北市新店區建業路90號","121.479636666667","24.9554333333333","6500600","新店區"
"231013","513-UM","2018/11/22 13:27:54","新北市新店區環河路29巷1-1號","121.53594","24.96112","6500600","新店區"
"231035","515-UM","2018/11/22 13:27:51","新北市新店區安一路一段1-1號","121.519671666667","24.9613033333333","6500600","新店區"
"231034","616-UM","2018/11/22 13:27:49","新北市新店區安華路1-1號","121.519583333333","24.95991","6500600","新店區"
"231006","617-UM","2018/11/22 13:27:47","新北市新店區安華路28-1號","121.519605","24.960995","6500600","新店區"
"231030","619-UM","2018/11/22 13:27:39","新北市新店區安華路28-1號","121.519846666667","24.9606716666667","6500600","新店區"
"231029","897-TW","2018/11/22 13:27:43","新北市新店區安華路3號","121.519111666667","24.9593866666667","6500600","新店區"
"231004","899-TW","2018/11/22 13:27:56","新北市新店區安一路一段1-1號","121.51974","24.96215","6500600","新店區"
"231024","AKT-0513","2018/11/22 13:27:59","新北市新店區北新路二段29巷3弄2號","121.542195","24.973095","6500600","新店區"
"235030","003-UY","2018/11/22 13:27:38","新北市中和區中山路二段110號","121.502955","25.0038233333333","6500300","中和區"
"235028","005-UY","2018/11/22 13:27:47","新北市中和區連城路139巷63號","121.496896666667","24.99711","6500300","中和區"
"235027","006-UY","2018/11/22 13:27:46","新北市中和區連城路347巷16號","121.488333333333","24.99518","6500300","中和區"
"235020","096-UM","2018/11/22 13:27:40","新北市中和區新民街83號","121.481451666667","25.0079866666667","6500300","中和區"
"235003","097-UM","2018/11/22 13:27:56","新北市中和區大勇街34號","121.517271666667","24.9933766666667","6500300","中和區"
"235029","098-UM","2018/11/22 13:27:51","新北市中和區莊敬路49巷20弄30號","121.503273333333","25.0051666666667","6500300","中和區"
"235022","151-BY","2018/11/22 13:27:55","新北市中和區圓通路369巷165號","121.490165","24.9821866666667","6500300","中和區"
"235019","183-VK","2018/11/22 13:27:42","新北市中和區莒光路207-7號","121.470671666667","24.9966916666667","6500300","中和區"
"235002","185-VK","2018/11/22 13:27:47","新北市中和區秀朗路三段128巷17弄4號","121.524196666667","24.9935766666667","6500300","中和區"
"235013","186-VK","2018/11/22 13:27:58","新北市中和區景安路157號","121.5053","24.9948433333333","6500300","中和區"
"235031","255-BX","2018/11/22 13:27:36","新北市中和區連城路340巷14弄22號","121.482833333333","24.9972566666667","6500300","中和區"
"235036","301-VK","2018/11/22 13:27:48","新北市中和區連城路263號","121.491756666667","24.9964483333333","6500300","中和區"
"235007","352-BY","2018/11/22 13:27:57","新北市中和區景平路313號","121.506343333333","24.9932416666667","6500300","中和區"
"235006","KEA-2878","2018/11/22 13:27:55","新北市中和區秀朗路三段150巷8號","121.523841666667","24.9910016666667","6500300","中和區"
"235014","4979-A6","2018/11/22 13:27:58","新北市中和區景新街362巷10號","121.511955","24.9901683333333","6500300","中和區"
"235033","4980-A6","2018/11/22 13:27:45","新北市中和區連城路127巷4弄1號","121.496405","24.9987383333333","6500300","中和區"
"235034","558-UM","2018/11/22 13:27:44","新北市中和區南華路11號","121.502308333333","24.9955033333333","6500300","中和區"
"235009","565-BX","2018/11/22 13:27:38","新北市中和區南山路236巷22弄21號","121.504976666667","24.9891816666667","6500300","中和區"
"235018","640-BX","2018/11/22 13:27:42","新北市中和區民享街117巷2號","121.474553333333","24.9989683333333","6500300","中和區"
"235024","647-TV","2018/11/22 13:27:45","新北市中和區員山路379號","121.481233333333","25.0024583333333","6500300","中和區"
"235011","732-UM","2018/11/22 13:27:40","新北市中和區南山路282號","121.507831666667","24.987955","6500300","中和區"
"235035","783-BX","2018/11/22 13:27:51","新北市中和區環中路120號","121.482026666667","25.0123633333333","6500300","中和區"
"235026","800-TS","2018/11/22 13:27:44","新北市中和區景平路989巷33號","121.495216666667","25.00512","6500300","中和區"
"235021","801-TS","2018/11/22 13:27:36","新北市中和區民安街42巷2號","121.479963333333","25.0005966666667","6500300","中和區"
"235005","802-TS","2018/11/22 13:27:54","新北市中和區中和路320號","121.50966","25.000605","6500300","中和區"
"235016","805-TS","2018/11/22 13:27:44","新北市中和區興南路二段159巷2號","121.504993333333","24.98355","6500300","中和區"
"235012","896-TW","2018/11/22 13:27:44","新北市中和區員山路36巷16-2號","121.485175","24.991765","6500300","中和區"
"235017","900-TW","2018/11/22 13:27:43","新北市土城區金城路三段245號","121.471611666667","24.99","6500300","中和區"
"235015","157-BY","2018/11/22 13:27:56","新北市中和區興南路二段142巷37弄1號","121.502256666667","24.9846133333333","6500300","中和區"
"235001","AAC-213","2018/11/22 13:27:52","新北市中和區景德街141號","121.514516666667","24.99101","6500300","中和區"
"235023","AAC-215","2018/11/22 13:27:40","新北市中和區員山路36巷16-3號","121.484973333333","24.9914583333333","6500300","中和區"
"220016","013-TV","2018/11/22 13:27:45","新北市板橋區民生路二段120號","121.470571666667","25.01959","6500100","板橋區"
"220013","072-UY","2018/11/22 13:27:42","新北市板橋區南雅南路一段112號","121.454851666667","25.0039966666667","6500100","板橋區"
"220017","AAD-861","2018/11/22 13:27:52","新北市板橋區華東街1-10號","121.448341666667","24.99514","6500100","板橋區"
"247009","056-VK","2018/11/22 13:27:55","新北市五股區中興路三段2巷10號","121.44911","25.0810883333333","6501400","蘆洲區"
"247007","053-VK","2018/11/22 13:27:54","新北市五股區中興路三段160號","121.445126666667","25.0810083333333","6501400","蘆洲區"
"247021","001-UY","2018/11/22 13:27:41","新北市五股區中興路三段2巷10號","121.448983333333","25.0808783333333","6501400","蘆洲區"
"228005","097-TW","2018/11/22 13:27:46","新北市貢寮區美豐里文秀坑8號","121.902228333333","25.0502233333333","6502600","貢寮區"
"228004","212-TW","2018/11/22 13:27:50","新北市貢寮區龍崗里石壁坑街17號","121.910356666667","24.9895416666667","6502600","貢寮區"
"253003","6232-TK","2018/11/22 13:27:46","新北市石門區內石門91號","121.56703","25.270985","6502200","石門區"
"253004","6251-TK","2018/11/22 13:25:43","新北市石門區竹子湖13號","121.617283333333","25.2557333333333","6502200","石門區"
"253002","637-UY","2018/11/22 13:27:40","新北市石門區老崩山40-3號","121.563143333333","25.2666833333333","6502200","石門區"
"253001","KEC-0718","2018/11/22 13:27:45","新北市石門區下員坑30-2號","121.520065","25.2827483333333","6502200","石門區"
"207002","749-BX","2018/11/22 13:27:57","新北市萬里區崁腳里崁腳路166號","121.64506","25.1558","6502800","萬里區"
"252005","073-UM","2018/11/22 13:27:49","新北市三芝區福德里土地公埔69號","121.519663333333","25.2248316666667","6502100","三芝區"
"207001","662-BX","2018/11/22 13:27:41","新北市萬里區龜吼里玉田路43-6號","121.681635","25.188585","6502800","萬里區"
"221008","489-VK","2018/11/22 13:27:37","新北市汐止區伯爵街92巷1號","121.636681666667","25.0831616666667","6501100","汐止區"
"221010","269-BY","2018/11/22 13:27:46","新北市汐止區康寧街379號","121.628871666667","25.067765","6501100","汐止區"
"221033","647-BX","2018/11/22 13:27:45","台北市南港區研究院路三段273巷1-1號","121.608376666667","25.0285183333333","6501100","汐止區"
"220027","145-BY","2018/11/22 13:27:47","新北市板橋區大觀路288號","121.449385","24.998365","6500100","板橋區"
"220012","282-UM","2018/11/22 13:27:59","新北市板橋區大觀路2段435-7號","121.447806666667","24.995495","6500100","板橋區"
"220031","286-VK","2018/11/22 13:27:51","新北市板橋區華東街1-10號","121.448398333333","24.995135","6500100","板橋區"
"220029","287-VK","2018/11/22 13:27:41","新北市板橋區華東街1-10號","121.448256666667","24.99502","6500100","板橋區"
"242049","280-VK","2018/11/22 13:27:46","新北市新莊區中華路二段227號","121.452036666667","25.0532833333333","6500500","新莊區"
"220104","560-BX","2018/11/22 13:27:57","新北市板橋區華東街1-10號","121.448465","24.9950083333333","6500100","板橋區"
"220005","686-BX","2018/11/22 13:27:55","新北市板橋區華東街1-9號","121.44826","24.994915","6500100","板橋區"
"220025","687-BX","2018/11/22 13:27:42","新北市板橋區大觀路三段59巷17弄6-1號","121.43714","24.9954716666667","6500100","板橋區"
"220042","689-BX","2018/11/22 13:27:55","新北市板橋區民生路二段188號","121.470291666667","25.0205616666667","6500100","板橋區"
"220002","741-BX","2018/11/22 13:27:45","新北市板橋區華東街1-9號","121.448136666667","24.99493","6500100","板橋區"
"220018","806-UM","2018/11/22 13:27:49","新北市板橋區華東街1-9號","121.448218333333","24.9948983333333","6500100","板橋區"
"220014","829-TW","2018/11/22 13:27:54","新北市板橋區民生路二段89-6號","121.470641666667","25.0193466666667","6500100","板橋區"
"220022","895-R6","2018/11/22 13:27:36","新北市板橋區華東街1-10號","121.448548333333","24.994855","6500100","板橋區"
"220021","985-R7","2018/11/22 13:27:53","新北市板橋區華東街1-10號","121.448283333333","24.9949583333333","6500100","板橋區"
"220030","AAC-253","2018/11/22 13:27:42","新北市板橋區華東街1-10號","121.448303333333","24.99493","6500100","板橋區"
"235032","KEA-2873","2018/11/22 13:27:28","新北市中和區錦和路350-1號","121.490506666667","24.9935483333333","6500300","中和區"
"235025","KEA-2875","2018/11/22 13:27:54","新北市中和區民享街97巷16號","121.475291666667","24.9998183333333","6500300","中和區"
