"lineid","car","time","location","longitude","latitude","cityid","cityname"
"234044","148-BY","2018/11/22 14:37:54","新北市板橋區文化路二段656號","121.481538333333","25.037355","6500400","永和區"
"234062","337-UY","2018/11/22 14:37:56","新北市永和區永和路二段169號","121.515323333333","25.0131716666667","6500400","永和區"
"234084","338-UY","2018/11/22 14:37:40","新北市永和區光復街21號","121.516506666667","25.017405","6500400","永和區"
"234068","552-UM","2018/11/22 14:37:47","","121.514941666667","25.0116583333333","6500400","永和區"
"234028","746-BX","2018/11/22 14:37:48","新北市板橋區長江路二段35號","121.463878333333","25.0314583333333","6500400","永和區"
"234052","KEA-2590","2018/11/22 14:37:44","新北市永和區環河東路一段80號","121.51954","25.0164916666667","6500400","永和區"
"234040","862-TW","2018/11/22 14:37:43","新北市永和區光復街33巷7號","121.516016666667","25.0181116666667","6500400","永和區"
"234025","9371-KE","2018/11/22 14:37:53","新北市永和區中和路501巷5號","121.510446666667","25.002595","6500400","永和區"
"248013","025-BX","2018/11/22 14:37:44","新北市五股區五福路52巷1號","121.433743333333","25.0897616666667","6501500","五股區"
"248015","026-BX","2018/11/22 14:37:44","新北市五股區成泰路四段18-2號","121.453665","25.1067533333333","6501500","五股區"
"248007","095-VK","2018/11/22 14:37:53","新北市五股區四維路116-9號","121.468526666667","25.07439","6501500","五股區"
"248017","225-UY","2018/11/22 14:26:02","新北市五股區外寮路7-11號","121.423793333333","25.080325","6501500","五股區"
"248011","247-BX","2018/11/22 14:37:55","新北市五股區民義路一段25號","121.436553333333","25.084245","6501500","五股區"
"248003","677-BX","2018/11/22 14:37:37","新北市五股區成泰路二段107號","121.438433333333","25.084385","6501500","五股區"
"248001","678-BX","2018/11/22 14:37:42","新北市五股區成洲一路15號","121.448983333333","25.09582","6501500","五股區"
"248009","682-TV","2018/11/22 14:37:44","新北市五股區自強路184號","121.431358333333","25.0695166666667","6501500","五股區"
"234072","AAC-211","2018/11/22 14:37:55","新北市永和區環河東路二段10號","121.522195","25.0132633333333","6500400","永和區"
"234001","AAC-295","2018/11/22 14:37:44","新北市永和區中正路620號","121.516948333333","25.0078216666667","6500400","永和區"
"244003","410-SL","2018/11/22 14:35:22","新北市林口區林口路76號","121.38972","25.0807016666667","6501700","林口區"
"243005","AAD-798","2018/11/22 14:37:50","新北市泰山區應化街13號","121.423738333333","25.0436433333333","6501600","泰山區"
"243001","297-R6","2018/11/22 14:37:41","新北市泰山區楓江路16巷7號","121.4339","25.0619816666667","6501600","泰山區"
"243008","KEA-2801","2018/11/22 14:37:43","新北市泰山區明志路三段516號","121.420821666667","25.0307483333333","6501600","泰山區"
"243007","421-VK","2018/11/22 14:37:53","","121.427033333333","25.04813","6501600","泰山區"
"243003","KEA-2215","2018/11/22 14:37:56","新北市泰山區明志路三段204巷10弄20號","121.42297","25.0388233333333","6501600","泰山區"
"243002","KEA-2216","2018/11/22 14:37:40","新北市泰山區明志路二段136巷24號","121.426285","25.051975","6501600","泰山區"
"243004","646-TV","2018/11/22 14:37:19","新北市泰山區仁愛路83號","121.433401666667","25.0555833333333","6501600","泰山區"
"243006","680-BX","2018/11/22 14:37:44","新北市泰山區泰林路二段159號","121.433776666667","25.0605183333333","6501600","泰山區"
"231002","002-UM","2018/11/22 14:37:50","新北市新店區中正路347號","121.535356666667","24.9758166666667","6500600","新店區"
"231028","046-UY","2018/11/22 14:37:49","新北市新店區安康路二段149號","121.511178333333","24.9598233333333","6500600","新店區"
"231001","047-UY","2018/11/22 14:37:48","","121.545116666667","24.9699016666667","6500600","新店區"
"231005","106-UY","2018/11/22 14:37:49","","121.540738333333","24.98654","6500600","新店區"
"231021","108-UY","2018/11/22 14:37:47","","121.563085","24.90127","6500600","新店區"
"231031","110-UY","2018/11/22 14:37:54","新北市新店區安業街33號","121.517458333333","24.9771666666667","6500600","新店區"
"231011","187-VK","2018/11/22 14:37:55","新北市新店區寶興路63巷1號","121.55084","24.971915","6500600","新店區"
"231023","KEA-2219","2018/11/22 14:37:41","新北市新店區檳榔路7號","121.540966666667","24.9649583333333","6500600","新店區"
"231003","268-BY","2018/11/22 14:37:53","新北市新店區中興路一段278號","121.54544","24.9683366666667","6500600","新店區"
"231018","278-BY","2018/11/22 14:37:42","新北市新店區中央一街20-1號","121.528386666667","24.9730966666667","6500600","新店區"
"231017","AAD-862","2018/11/22 14:37:52","新北市新店區北宜路三段221號","121.592401666667","24.9532233333333","6500600","新店區"
"231038","3712-VJ","2018/11/22 14:37:51","新北市新店區溪洲路182號","121.52875","24.9658766666667","6500600","新店區"
"231027","3713-VJ","2018/11/22 14:37:55","新北市新店區寶橋路69-1號","121.545483333333","24.975005","6500600","新店區"
"231037","4716-K9","2018/11/22 14:37:51","新北市新店區安康路二段320巷6號","121.504485","24.95868","6500600","新店區"
"231025","4715-K9","2018/11/22 14:37:52","新北市新店區民族路161號","121.53769","24.9767366666667","6500600","新店區"
"231036","512-UM","2018/11/22 14:37:39","新北市新店區安祥路106巷341號","121.472698333333","24.959255","6500600","新店區"
"231013","513-UM","2018/11/22 14:37:53","新北市新店區明德路31號","121.541671666667","24.9773583333333","6500600","新店區"
"231035","515-UM","2018/11/22 14:37:51","","121.513753333333","24.9641616666667","6500600","新店區"
"231034","616-UM","2018/11/22 14:37:49","新北市新店區黎明路53巷1號","121.502318333333","24.9487483333333","6500600","新店區"
"231006","617-UM","2018/11/22 14:37:47","","121.551826666667","24.95316","6500600","新店區"
"231030","619-UM","2018/11/22 14:37:40","新北市新店區安民街172號","121.516775","24.970685","6500600","新店區"
"231029","897-TW","2018/11/22 14:37:42","新北市新店區安康路三段216號","121.48839","24.9518216666667","6500600","新店區"
"231004","899-TW","2018/11/22 14:37:56","新北市新店區中正路267號","121.537833333333","24.9741216666667","6500600","新店區"
"231024","AKT-0513","2018/11/22 14:37:58","新北市新店區中華路83巷61號","121.538395","24.9674716666667","6500600","新店區"
"235030","003-UY","2018/11/22 14:37:58","新北市中和區景新街140-3號","121.505486666667","24.9975933333333","6500300","中和區"
"235028","005-UY","2018/11/22 14:37:47","","121.502105","24.996975","6500300","中和區"
"235027","006-UY","2018/11/22 14:37:46","新北市中和區中山路二段315巷1號","121.494396666667","25.001395","6500300","中和區"
"235020","096-UM","2018/11/22 14:37:40","新北市中和區員山路581巷2-10號","121.477298333333","25.0088466666667","6500300","中和區"
"235003","097-UM","2018/11/22 14:37:55","新北市中和區安平路147號","121.512118333333","24.9980333333333","6500300","中和區"
"235029","098-UM","2018/11/22 14:37:51","","121.500168333333","25.0046283333333","6500300","中和區"
"235022","151-BY","2018/11/22 14:37:55","新北市中和區員山路132巷19號","121.482281666667","24.996305","6500300","中和區"
"235019","183-VK","2018/11/22 14:37:56","新北市中和區民生街18號","121.47033","25.0055016666667","6500300","中和區"
"235002","185-VK","2018/11/22 14:37:47","","121.522465","24.993575","6500300","中和區"
"235013","186-VK","2018/11/22 14:37:58","新北市中和區景平路423號","121.501748333333","24.99526","6500300","中和區"
"235031","255-BX","2018/11/22 14:37:56","新北市中和區新生街277號","121.483895","24.9980466666667","6500300","中和區"
"235008","293-VK","2018/11/22 14:37:46","新北市中和區捷運路123-1號","121.507438333333","24.99062","6500300","中和區"
"235036","301-VK","2018/11/22 14:37:48","","121.506061666667","25.0045333333333","6500300","中和區"
"235007","352-BY","2018/11/22 14:37:57","新北市中和區景平路508號","121.503853333333","24.9938466666667","6500300","中和區"
"235006","KEA-2878","2018/11/22 14:37:55","新北市中和區保健路2巷32號","121.506936666667","24.9973966666667","6500300","中和區"
"247011","KEA-2869","2018/11/22 14:37:50","","121.48085","25.0880083333333","6501400","蘆洲區"
"235014","4979-A6","2018/11/22 14:37:57","新北市中和區中正路637巷60弄61號","121.485315","24.9930033333333","6500300","中和區"
"235034","558-UM","2018/11/22 14:37:44","新北市中和區景平路549號","121.498558333333","24.9995533333333","6500300","中和區"
"235009","565-BX","2018/11/22 14:37:58","新北市中和區景平路404號","121.509151666667","24.993055","6500300","中和區"
"235018","640-BX","2018/11/22 14:37:49","","121.472485","25.0024883333333","6500300","中和區"
"235024","647-TV","2018/11/22 14:37:45","新北市中和區新生街11號","121.483238333333","25.0043816666667","6500300","中和區"
"235011","732-UM","2018/11/22 14:37:40","新北市中和區景安路203巷1號","121.505168333333","24.9926766666667","6500300","中和區"
"235010","733-UM","2018/11/22 14:37:48","新北市中和區忠孝街59號","121.511758333333","24.9846833333333","6500300","中和區"
"235035","783-BX","2018/11/22 14:37:51","新北市中和區連城路469巷23號","121.483665","24.9950633333333","6500300","中和區"
"235026","800-TS","2018/11/22 14:37:43","新北市中和區中山路二段538號","121.485358333333","25.0052316666667","6500300","中和區"
"235021","801-TS","2018/11/22 14:37:56","新北市中和區員山路150-22號","121.481363333333","24.9979883333333","6500300","中和區"
"235005","802-TS","2018/11/22 14:37:54","新北市中和區宜安路137號","121.509548333333","24.998485","6500300","中和區"
"235016","805-TS","2018/11/22 14:37:44","新北市中和區興南路二段159巷27號","121.505685","24.98275","6500300","中和區"
"235012","896-TW","2018/11/22 14:37:44","新北市中和區四維街20號","121.513003333333","24.9872416666667","6500300","中和區"
"235017","900-TW","2018/11/22 14:37:55","新北市中和區國光街215巷71-2號","121.467855","24.9995616666667","6500300","中和區"
"235015","157-BY","2018/11/22 14:37:48","","121.499956666667","24.990205","6500300","中和區"
"235001","AAC-213","2018/11/22 14:37:53","","121.52521","24.996145","6500300","中和區"
"235023","AAC-215","2018/11/22 14:37:40","新北市中和區圓通路274-7號","121.492351666667","24.9907883333333","6500300","中和區"
"220016","013-TV","2018/11/22 14:37:45","新北市板橋區中山路二段553巷12號","121.483481666667","25.0223483333333","6500100","板橋區"
"220013","072-UY","2018/11/22 14:37:41","新北市板橋區國泰街99號","121.466828333333","25.0064316666667","6500100","板橋區"
"220034","073-UY","2018/11/22 14:37:45","新北市板橋區中正路48號","121.456431666667","25.0141883333333","6500100","板橋區"
"220105","075-UY","2018/11/22 14:37:57","新北市板橋區雙十路27號","121.470483333333","25.0312233333333","6500100","板橋區"
"220017","AAD-861","2018/11/22 14:37:56","新北市板橋區貴興路88-3號","121.455956666667","25.0033433333333","6500100","板橋區"
"247001","893-R6","2018/11/22 14:37:41","新北市蘆洲區永樂街38巷45弄15號","121.45759","25.0899716666667","6501400","蘆洲區"
"247015","546-UM","2018/11/22 14:37:46","新北市蘆洲區正和街29號","121.469726666667","25.0819566666667","6501400","蘆洲區"
"247023","500-BY","2018/11/22 14:37:52","新北市蘆洲區中山二路198號","121.47016","25.0804833333333","6501400","蘆洲區"
"247013","339-TH","2018/11/22 14:37:53","新北市蘆洲區得勝街118號","121.470936666667","25.0827416666667","6501400","蘆洲區"
"247005","337-TH","2018/11/22 14:37:44","新北市蘆洲區長安街46巷7弄12號","121.463371666667","25.080615","6501400","蘆洲區"
"247019","057-VK","2018/11/22 14:37:39","新北市蘆洲區民權路176號","121.471948333333","25.0902416666667","6501400","蘆洲區"
"247009","056-VK","2018/11/22 14:37:54","新北市蘆洲區信義路222巷27號","121.479825","25.0854833333333","6501400","蘆洲區"
"247007","053-VK","2018/11/22 14:37:54","新北市蘆洲區民生街95號","121.473816666667","25.07864","6501400","蘆洲區"
"247017","007-UY","2018/11/22 14:37:42","新北市蘆洲區民族路314巷23號","121.478085","25.0906616666667","6501400","蘆洲區"
"247003","002-UY","2018/11/22 14:37:51","","121.458136666667","25.0836383333333","6501400","蘆洲區"
"247021","001-UY","2018/11/22 14:37:41","新北市蘆洲區三民路246號","121.468008333333","25.08984","6501400","蘆洲區"
"228005","097-TW","2018/11/22 14:37:46","","121.902106666667","25.06428","6502600","貢寮區"
"228004","212-TW","2018/11/22 14:37:50","","121.945823333333","25.0149316666667","6502600","貢寮區"
"253003","6232-TK","2018/11/22 14:37:46","新北市石門區尖子鹿40號","121.581253333333","25.2571133333333","6502200","石門區"
"253004","6251-TK","2018/11/22 14:37:43","新北市石門區內阿里磅43號","121.579956666667","25.237875","6502200","石門區"
"253002","637-UY","2018/11/22 14:37:40","新北市三芝區橫山里橫山32號","121.545518333333","25.2597266666667","6502200","石門區"
"253001","KEC-0718","2018/11/22 14:37:44","新北市石門區崁子腳66-2號","121.530861666667","25.283855","6502200","石門區"
"207002","749-BX","2018/11/22 14:37:57","新北市萬里區崁腳里崁腳路73號","121.6476","25.159605","6502800","萬里區"
"252005","073-UM","2018/11/22 14:37:49","","121.512288333333","25.2550066666667","6502100","三芝區"
"207001","662-BX","2018/11/22 14:37:41","新北市萬里區磺潭里員潭路49號","121.643935","25.1946633333333","6502800","萬里區"
"236068","105-UM","2018/11/22 14:37:56","新北市土城區永豐路282號","121.470813333333","24.9780033333333","6501300","土城區"
"236040","KED-0685","2018/11/22 14:37:47","","121.449253333333","24.988985","6501300","土城區"
"236074","166-UM","2018/11/22 14:37:43","新北市土城區中央路四段52巷32號","121.419665","24.9608266666667","6501300","土城區"
"236029","253-BX","2018/11/22 14:37:46","新北市土城區慶利街30號","121.438923333333","24.9744666666667","6501300","土城區"
"236024","269-VK","2018/11/22 14:37:55","新北市土城區忠義路55巷2號","121.441135","24.9685833333333","6501300","土城區"
"236012","270-VK","2018/11/22 14:37:53","","121.459576666667","24.982775","6501300","土城區"
"236032","271-VK","2018/11/22 14:37:56","新北市土城區明德路一段291巷16號","121.46034","24.97654","6501300","土城區"
"236017","401-BY","2018/11/22 14:37:49","新北市土城區明德路一段34號","121.465135","24.98459","6501300","土城區"
"236057","912-UM","2018/11/22 14:37:42","新北市土城區中央路四段15號","121.42534","24.962615","6501300","土城區"
"236045","913-UM","2018/11/22 14:37:52","新北市土城區明德路一段97號","121.465528333333","24.982925","6501300","土城區"
"236060","915-UM","2018/11/22 14:37:54","新北市土城區延壽路55巷9弄1號","121.469766666667","24.9915316666667","6501300","土城區"
"236054","AAC-216","2018/11/22 14:37:45","新北市土城區中華路一段121號","121.444376666667","24.9868466666667","6501300","土城區"
"221008","489-VK","2018/11/22 14:37:57","新北市新店區薏仁坑路5號","121.499031666667","24.9590466666667","6501100","汐止區"
"221010","269-BY","2018/11/22 14:37:46","新北市汐止區長青路210巷6弄2號","121.612906666667","25.11279","6501100","汐止區"
"221033","647-BX","2018/11/22 14:37:45","新北市汐止區中興路206號","121.631326666667","25.0660716666667","6501100","汐止區"
"220027","145-BY","2018/11/22 14:38:00","新北市板橋區建國街77號","121.459273333333","25.0174516666667","6500100","板橋區"
"220028","200-UY","2018/11/22 14:37:59","新北市板橋區大觀路二段37巷158號","121.449256666667","25.001285","6500100","板橋區"
"220050","245-BX","2018/11/22 14:37:39","新北市板橋區莊敬路220巷31號","121.472466666667","25.0204533333333","6500100","板橋區"
"220004","276-BY","2018/11/22 14:37:56","新北市板橋區信義路1巷26弄2號","121.457988333333","24.9969766666667","6500100","板橋區"
"220020","277-BY","2018/11/22 14:37:52","新北市板橋區金門街215巷93號","121.433793333333","24.9887033333333","6500100","板橋區"
"220012","282-UM","2018/11/22 14:37:59","新北市板橋區中山路一段26號","121.46047","25.0082283333333","6500100","板橋區"
"220019","283-VK","2018/11/22 14:37:46","新北市板橋區廣權路79號","121.46393","24.99241","6500100","板橋區"
"220043","285-UM","2018/11/22 14:37:44","新北市板橋區銘傳街88號","121.469433333333","25.0314733333333","6500100","板橋區"
"220031","286-VK","2018/11/22 14:37:51","","121.441913333333","25.0021433333333","6500100","板橋區"
"220029","287-VK","2018/11/22 14:38:01","新北市板橋區大觀路一段29巷137弄1號","121.450191666667","25.0054516666667","6500100","板橋區"
"220039","288-VK","2018/11/22 14:37:54","新北市板橋區長江路一段59號","121.458893333333","25.0292766666667","6500100","板橋區"
"220009","293-UM","2018/11/22 14:37:51","","121.468666666667","25.014675","6500100","板橋區"
"220032","296-UM","2018/11/22 14:37:42","新北市板橋區滿平二街4號","121.425511666667","24.9863966666667","6500100","板橋區"
"220001","299-UM","2018/11/22 14:37:49","","121.475823333333","25.02039","6500100","板橋區"
"220023","303-R5","2018/11/22 14:37:57","新北市板橋區南雅西路二段301巷50弄12號","121.452356666667","25.0170466666667","6500100","板橋區"
"220010","305-R5","2018/11/22 14:37:57","新北市板橋區三民路二段109巷27號","121.48053","25.016065","6500100","板橋區"
"220041","307-R5","2018/11/22 14:37:53","新北市板橋區自由路51巷24弄11-2號","121.464295","25.023515","6500100","板橋區"
"220047","317-R6","2018/11/22 14:37:41","新北市板橋區四維路269巷23號","121.462248333333","25.0279583333333","6500100","板橋區"
"220038","487-VK","2018/11/22 14:37:47","新北市板橋區英士路190巷2號","121.45824","25.0223733333333","6500100","板橋區"
"220104","560-BX","2018/11/22 14:37:57","新北市板橋區中正路415號","121.454156666667","25.0226416666667","6500100","板橋區"
"220052","561-BX","2018/11/22 14:37:47","","121.466298333333","25.0202683333333","6500100","板橋區"
"220011","609-BX","2018/11/22 14:37:49","新北市板橋區三民路二段140號","121.479181666667","25.0158616666667","6500100","板橋區"
"220040","637-BX","2018/11/22 14:37:50","新北市板橋區懷德街201巷12號","121.481296666667","25.0294733333333","6500100","板橋區"
"220005","686-BX","2018/11/22 14:37:55","新北市板橋區國慶路182巷28-1號","121.463205","24.9953316666667","6500100","板橋區"
"220025","687-BX","2018/11/22 14:37:57","新北市板橋區僑中二街2號","121.447371666667","25.0114383333333","6500100","板橋區"
"220042","689-BX","2018/11/22 14:37:55","新北市板橋區新海路360號","121.459775","25.025065","6500100","板橋區"
"220002","741-BX","2018/11/22 14:37:56","新北市板橋區忠孝路241號","121.466248333333","25.0029","6500100","板橋區"
"220018","806-UM","2018/11/22 14:37:49","","121.463251666667","25.0078483333333","6500100","板橋區"
"220003","827-TW","2018/11/22 14:37:55","新北市板橋區國慶路165號","121.462138333333","24.996325","6500100","板橋區"
"220014","829-TW","2018/11/22 14:37:54","新北市板橋區漢生東路279巷10弄9號","121.47205","25.0087666666667","6500100","板橋區"
"220051","830-TW","2018/11/22 14:37:44","新北市板橋區文化路二段410巷40號","121.474598333333","25.0304516666667","6500100","板橋區"
"220045","831-TW","2018/11/22 14:37:42","新北市板橋區民生路二段232-10號","121.468806666667","25.02274","6500100","板橋區"
"220037","833-TW","2018/11/22 14:37:50","","121.47553","25.0276666666667","6500100","板橋區"
"220022","895-R6","2018/11/22 14:37:55","新北市板橋區府中路21號","121.459301666667","25.0094983333333","6500100","板橋區"
"220021","985-R7","2018/11/22 14:37:59","新北市板橋區新生街13號","121.455386666667","25.0213566666667","6500100","板橋區"
"220046","AAC-210","2018/11/22 14:37:57","新北市板橋區幸福路32巷6號","121.4616","25.0206233333333","6500100","板橋區"
"220030","AAC-253","2018/11/22 14:37:42","新北市板橋區金門街105號","121.433128333333","24.992315","6500100","板橋區"
"235032","KEA-2873","2018/11/22 14:37:28","新北市中和區福美路232號","121.498966666667","25.0053183333333","6500300","中和區"
"235025","KEA-2875","2018/11/22 14:37:59","新北市中和區員山路174巷20號","121.482016666667","24.9996516666667","6500300","中和區"
