"lineid","car","time","location","longitude","latitude","cityid","cityname"
"234044","148-BY","2018/11/22 14:57:54","新北市八里區下罟子30-35號","121.36785","25.135245","6500400","永和區"
"234025","9371-KE","2018/11/22 14:57:53","新北市永和區水源街21巷14弄4號","121.511385","25.0038116666667","6500400","永和區"
"248013","025-BX","2018/11/22 14:57:44","新北市五股區成泰路三段6號","121.441015","25.087515","6501500","五股區"
"248015","026-BX","2018/11/22 14:57:47","新北市五股區天乙路60號","121.448151666667","25.1046733333333","6501500","五股區"
"248007","095-VK","2018/11/22 14:57:53","新北市五股區四維路153號","121.46775","25.0745316666667","6501500","五股區"
"248017","225-UY","2018/11/22 14:57:45","新北市五股區登林路106巷20號","121.427123333333","25.0723","6501500","五股區"
"248011","247-BX","2018/11/22 14:57:55","新北市五股區五福路49號","121.432863333333","25.0894366666667","6501500","五股區"
"248003","677-BX","2018/11/22 14:57:37","新北市五股區成泰路一段32巷58號","121.43499","25.067085","6501500","五股區"
"248001","678-BX","2018/11/22 14:57:42","新北市五股區成泰路三段6-1號","121.441443333333","25.087845","6501500","五股區"
"248009","682-TV","2018/11/22 14:57:44","新北市五股區成泰路一段2-6號","121.434121666667","25.0671016666667","6501500","五股區"
"244003","410-SL","2018/11/22 14:35:22","新北市林口區林口路76號","121.38972","25.0807016666667","6501700","林口區"
"243005","AAD-798","2018/11/22 14:57:54","新北市泰山區中央路5巷23號","121.427415","25.0432683333333","6501600","泰山區"
"243001","297-R6","2018/11/22 14:57:41","新北市泰山區泰林路二段294號","121.431065","25.0627483333333","6501600","泰山區"
"243008","KEA-2801","2018/11/22 14:57:43","新北市泰山區明志路三段277號","121.42287","25.036615","6501600","泰山區"
"243007","421-VK","2018/11/22 14:57:53","新北市泰山區仁愛路85號","121.433563333333","25.0557233333333","6501600","泰山區"
"243003","KEA-2215","2018/11/22 14:57:55","新北市泰山區壽山路160巷4號","121.416975","25.03106","6501600","泰山區"
"243002","KEA-2216","2018/11/22 14:57:40","新北市泰山區民生路17巷19號","121.429746666667","25.0519533333333","6501600","泰山區"
"243004","646-TV","2018/11/22 14:57:39","新北市泰山區文化街32號","121.43519","25.0634016666667","6501600","泰山區"
"243006","680-BX","2018/11/22 14:57:44","新北市泰山區泰林路二段2-9號","121.419891666667","25.0649833333333","6501600","泰山區"
"231002","002-UM","2018/11/22 14:57:50","新北市新店區民權路43號","121.540103333333","24.9828433333333","6500600","新店區"
"231028","046-UY","2018/11/22 14:57:49","新北市新店區安德街164號","121.508533333333","24.9590933333333","6500600","新店區"
"231001","047-UY","2018/11/22 14:57:48","新北市新店區中正路263號","121.538671666667","24.9736333333333","6500600","新店區"
"231005","106-UY","2018/11/22 14:57:49","新北市新店區復興路43號","121.537066666667","24.9870116666667","6500600","新店區"
"231021","108-UY","2018/11/22 14:57:47","新北市新店區永福路38-1號","121.552988333333","24.92945","6500600","新店區"
"231031","110-UY","2018/11/22 14:57:54","新北市新店區安泰路18-1號","121.485556666667","24.94866","6500600","新店區"
"231011","187-VK","2018/11/22 14:57:55","新北市新店區寶橋路85巷51號","121.544453333333","24.97695","6500600","新店區"
"231023","KEA-2219","2018/11/22 14:57:41","新北市新店區檳榔路109號","121.544523333333","24.9616883333333","6500600","新店區"
"231026","256-BX","2018/11/22 14:57:55","新北市新店區博愛街1號","121.540515","24.972525","6500600","新店區"
"231003","268-BY","2018/11/22 14:57:57","新北市新店區中興路一段292號","121.54607","24.9691066666667","6500600","新店區"
"231018","278-BY","2018/11/22 14:57:42","新北市新店區中央六街6號","121.530258333333","24.9744066666667","6500600","新店區"
"231017","AAD-862","2018/11/22 14:57:52","新北市新店區銀河路66-4號","121.579363333333","24.95877","6500600","新店區"
"231038","3712-VJ","2018/11/22 14:57:51","新北市新店區安華路28-1號","121.519708333333","24.9609266666667","6500600","新店區"
"231027","3713-VJ","2018/11/22 14:57:55","新北市新店區溪園路395號","121.523645","24.9772983333333","6500600","新店區"
"231037","4716-K9","2018/11/22 14:57:51","新北市新店區安德街148巷31號","121.505906666667","24.960485","6500600","新店區"
"231025","4715-K9","2018/11/22 14:57:52","新北市新店區建國路217號","121.537631666667","24.9807883333333","6500600","新店區"
"231036","512-UM","2018/11/22 14:57:59","新北市新店區安祥路102巷46弄57號","121.4865","24.9634833333333","6500600","新店區"
"231035","515-UM","2018/11/22 14:57:51","新北市新店區安業街33號","121.517488333333","24.9771883333333","6500600","新店區"
"231034","616-UM","2018/11/22 14:57:49","新北市新店區玫瑰路4-1號","121.493598333333","24.95143","6500600","新店區"
"231006","617-UM","2018/11/22 14:57:47","新北市新店區新坡一街102號","121.547773333333","24.9640516666667","6500600","新店區"
"231030","619-UM","2018/11/22 14:57:39","新北市新店區安民街341-1號","121.516768333333","24.9749866666667","6500600","新店區"
"231039","718-UY","2018/11/22 14:57:42","新北市新店區中興路二段186-2號","121.547998333333","24.972565","6500600","新店區"
"231029","897-TW","2018/11/22 14:57:42","新北市新店區錦秀路33號","121.479238333333","24.9439416666667","6500600","新店區"
"231004","899-TW","2018/11/22 14:57:56","新北市新店區民族路56號","121.539941666667","24.9785883333333","6500600","新店區"
"231024","AKT-0513","2018/11/22 14:57:39","新北市新店區中華路83號","121.539335","24.9686683333333","6500600","新店區"
"235030","003-UY","2018/11/22 14:57:58","新北市中和區光華街33號","121.504965","25.0040016666667","6500300","中和區"
"235020","096-UM","2018/11/22 14:57:40","新北市中和區中山路三段168號","121.472931666667","25.0064033333333","6500300","中和區"
"235003","097-UM","2018/11/22 14:57:55","新北市中和區安樂路143巷38弄1號","121.512888333333","24.9964333333333","6500300","中和區"
"235029","098-UM","2018/11/22 14:57:51","新北市中和區福美路269號","121.4982","25.0050716666667","6500300","中和區"
"235004","150-BY","2018/11/22 14:57:22","新北市中和區景安路79巷23號","121.507071666667","24.9966566666667","6500300","中和區"
"235022","151-BY","2018/11/22 14:57:55","新北市中和區員山路173號","121.481166666667","24.9969683333333","6500300","中和區"
"235013","186-VK","2018/11/22 14:57:58","新北市中和區明仁街20號","121.506465","24.9953816666667","6500300","中和區"
"235031","255-BX","2018/11/22 14:57:56","新北市中和區中正路830號","121.484818333333","25.0040216666667","6500300","中和區"
"235008","293-VK","2018/11/22 14:57:46","新北市中和區板南路150號","121.501968333333","24.9926","6500300","中和區"
"235036","301-VK","2018/11/22 14:57:48","新北市中和區連城路96號","121.49657","25.0001233333333","6500300","中和區"
"235007","352-BY","2018/11/22 14:57:57","新北市中和區興南路二段46號","121.506685","24.9851433333333","6500300","中和區"
"235014","4979-A6","2018/11/22 14:57:57","新北市中和區景平路227號","121.510263333333","24.99271","6500300","中和區"
"235033","4980-A6","2018/11/22 14:57:45","新北市中和區圓通路108號","121.499351666667","24.996545","6500300","中和區"
"235034","558-UM","2018/11/22 14:57:44","新北市中和區景平路481號","121.500236666667","24.9974583333333","6500300","中和區"
"235018","640-BX","2018/11/22 14:57:58","新北市中和區民享街38號","121.473808333333","25.0031","6500300","中和區"
"235010","733-UM","2018/11/22 14:57:44","新北市中和區興南路一段93巷63號","121.510306666667","24.9870416666667","6500300","中和區"
"235035","783-BX","2018/11/22 14:57:51","新北市中和區中正路801號","121.484766666667","25.0009033333333","6500300","中和區"
"235016","805-TS","2018/11/22 14:57:44","新北市中和區華新街192巷22弄9號","121.506605","24.9832516666667","6500300","中和區"
"235012","896-TW","2018/11/22 14:57:44","新北市中和區忠孝街5巷9號","121.50927","24.983105","6500300","中和區"
"235017","900-TW","2018/11/22 14:57:55","新北市中和區民德路204號","121.468291666667","24.9984933333333","6500300","中和區"
"235015","157-BY","2018/11/22 14:57:48","新北市中和區景安路220巷20號","121.50279","24.9914666666667","6500300","中和區"
"235001","AAC-213","2018/11/22 14:57:52","新北市中和區自立路20巷1號","121.522205","24.993455","6500300","中和區"
"235023","AAC-215","2018/11/22 14:57:40","新北市中和區圓通路365號","121.491385","24.989705","6500300","中和區"
"220016","013-TV","2018/11/22 14:57:57","新北市板橋區中山路二段416巷57弄15號","121.48364","25.0188416666667","6500100","板橋區"
"220013","072-UY","2018/11/22 14:57:41","新北市板橋區海山路41號","121.467276666667","25.0097466666667","6500100","板橋區"
"220105","075-UY","2018/11/22 14:57:57","新北市板橋區仁化街131號","121.477105","25.032685","6500100","板橋區"
"220017","AAD-861","2018/11/22 14:57:52","新北市板橋區大明街13號","121.45892","25.0025266666667","6500100","板橋區"
"247001","893-R6","2018/11/22 14:57:41","新北市蘆洲區長安街313巷24號","121.456108333333","25.086265","6501400","蘆洲區"
"228004","212-TW","2018/11/22 14:57:50","新北市貢寮區雙玉里田寮洋街25-1號","121.929878333333","25.017745","6502600","貢寮區"
"253003","6232-TK","2018/11/22 14:57:46","新北市石門區尖子鹿103-1號","121.57955","25.294345","6502200","石門區"
"253004","6251-TK","2018/11/22 14:57:52","新北市石門區茂林社區57號","121.592516666667","25.27006","6502200","石門區"
"253002","637-UY","2018/11/22 14:57:46","新北市石門區崁子腳28-2號","121.539976666667","25.2890283333333","6502200","石門區"
"253001","KEC-0718","2018/11/22 14:57:44","新北市石門區崁子腳31-2號","121.537366666667","25.284975","6502200","石門區"
"207002","749-BX","2018/11/22 14:57:57","新北市萬里區崁腳里崁腳路73號","121.647541666667","25.15965","6502800","萬里區"
"207001","662-BX","2018/11/22 14:57:57","新北市萬里區雙興里太和路28-1號","121.652896666667","25.1752133333333","6502800","萬里區"
"236068","105-UM","2018/11/22 14:57:56","新北市土城區裕生路84巷10號","121.446785","24.9856116666667","6501300","土城區"
"236040","KED-0685","2018/11/22 14:57:44","新北市土城區學府路一段189巷15號","121.452615","24.98451","6501300","土城區"
"236074","166-UM","2018/11/22 14:57:42","新北市土城區中央路四段67巷2弄14號","121.417083333333","24.9576633333333","6501300","土城區"
"236029","253-BX","2018/11/22 14:57:46","新北市土城區慶利街15號","121.43932","24.973765","6501300","土城區"
"236024","269-VK","2018/11/22 14:57:55","新北市土城區光明街4號","121.4419","24.9746333333333","6501300","土城區"
"236012","270-VK","2018/11/22 14:57:53","新北市土城區永豐路92號","121.46304","24.987595","6501300","土城區"
"236032","271-VK","2018/11/22 14:57:56","新北市土城區清水路185號","121.459601666667","24.9815683333333","6501300","土城區"
"236017","401-BY","2018/11/22 14:57:49","新北市土城區延吉街168巷7號","121.468173333333","24.9856533333333","6501300","土城區"
"236057","912-UM","2018/11/22 14:57:42","新北市土城區明德路一段385-1號","121.452458333333","24.9798483333333","6501300","土城區"
"236045","913-UM","2018/11/22 14:57:52","新北市土城區青雲路261號","121.459108333333","24.9807166666667","6501300","土城區"
"236060","915-UM","2018/11/22 14:57:54","新北市土城區延和路88巷7號","121.46676","24.9889966666667","6501300","土城區"
"236054","AAC-216","2018/11/22 14:57:45","新北市土城區裕民路73號","121.449598333333","24.9874983333333","6501300","土城區"
"238002","755-BX","2018/11/22 14:57:46","新北市樹林區育德街78-1號","121.38809","24.9680466666667","6500700","樹林區"
"238010","601-UM","2018/11/22 14:57:41","新北市樹林區育德街78號","121.388043333333","24.9684783333333","6500700","樹林區"
"238006","599-UM","2018/11/22 14:57:53","新北市樹林區育德街78號","121.388375","24.9683366666667","6500700","樹林區"
"238018","571-TV","2018/11/22 14:57:45","新北市樹林區育德街78-1號","121.388303333333","24.96809","6500700","樹林區"
"238009","KEA-2213","2018/11/22 14:57:38","新北市樹林區育德街78-1號","121.387833333333","24.9681333333333","6500700","樹林區"
"238008","KEA-2539","2018/11/22 14:57:45","新北市樹林區育德街78-1號","121.387998333333","24.968105","6500700","樹林區"
"238012","303-VK","2018/11/22 14:57:50","新北市樹林區育德街78號","121.387938333333","24.968415","6500700","樹林區"
"238004","283-BY","2018/11/22 14:57:47","新北市樹林區育德街78號","121.388138333333","24.9683","6500700","樹林區"
"238001","282-BY","2018/11/22 14:57:44","新北市樹林區中山路三段204號","121.387006666667","24.9680983333333","6500700","樹林區"
"238013","172-UY","2018/11/22 14:57:49","新北市樹林區八德街445-1號","121.404711666667","24.96994","6500700","樹林區"
"221008","489-VK","2018/11/22 14:57:57","台北市文山區新光路二段98號","121.594728333333","24.9997616666667","6501100","汐止區"
"221010","269-BY","2018/11/22 14:57:46","新北市汐止區八連路二段625-3號","121.620986666667","25.1136983333333","6501100","汐止區"
"221033","647-BX","2018/11/22 14:57:45","新北市汐止區康寧街777-1號","121.644806666667","25.0753583333333","6501100","汐止區"
"220027","145-BY","2018/11/22 14:57:48","新北市板橋區大仁街115號","121.452355","25.0156033333333","6500100","板橋區"
"220028","200-UY","2018/11/22 14:57:48","新北市板橋區大觀路二段153巷39弄1號","121.446965","25.0005333333333","6500100","板橋區"
"220050","245-BX","2018/11/22 14:57:57","新北市板橋區縣民大道三段79巷17號","121.475143333333","25.0221816666667","6500100","板橋區"
"220020","277-BY","2018/11/22 14:57:38","新北市板橋區金門街182號","121.432551666667","24.9909416666667","6500100","板橋區"
"220012","282-UM","2018/11/22 14:57:59","新北市板橋區實踐路110號","121.464103333333","25.00451","6500100","板橋區"
"220019","283-VK","2018/11/22 14:57:26","新北市板橋區廣權路99號","121.464515","24.9927316666667","6500100","板橋區"
"220043","285-UM","2018/11/22 14:57:46","新北市板橋區雨農路10號","121.46224","25.0248433333333","6500100","板橋區"
"220031","286-VK","2018/11/22 14:57:51","新北市板橋區僑中二街40號","121.44518","25.0108266666667","6500100","板橋區"
"220029","287-VK","2018/11/22 14:58:01","新北市板橋區僑中一街80巷6弄1號","121.447678333333","25.0121516666667","6500100","板橋區"
"220039","288-VK","2018/11/22 14:57:54","新北市板橋區龍泉街108巷15號","121.456243333333","25.0240866666667","6500100","板橋區"
"220009","293-UM","2018/11/22 14:57:50","新北市板橋區觀光街88號","121.469485","25.016915","6500100","板橋區"
"220032","296-UM","2018/11/22 14:57:42","新北市板橋區溪崑二街112巷2號","121.426313333333","24.9887733333333","6500100","板橋區"
"220001","299-UM","2018/11/22 14:57:49","新北市板橋區中山路二段60巷1弄25號","121.475146666667","25.0158066666667","6500100","板橋區"
"220023","303-R5","2018/11/22 14:57:49","新北市板橋區金華街10巷48弄58號","121.459181666667","25.0201833333333","6500100","板橋區"
"220010","305-R5","2018/11/22 14:57:57","新北市板橋區光復街224巷16號","121.486085","25.0210866666667","6500100","板橋區"
"220041","307-R5","2018/11/22 14:57:53","新北市板橋區裕民街135號","121.45911","25.0272683333333","6500100","板橋區"
"220047","317-R6","2018/11/22 14:58:01","新北市板橋區新海路135巷21號","121.460316666667","25.023145","6500100","板橋區"
"220038","487-VK","2018/11/22 14:57:47","新北市板橋區龍泉街82巷10號","121.455886666667","25.02557","6500100","板橋區"
"220104","560-BX","2018/11/22 14:57:57","新北市板橋區新生街29巷15弄5號","121.45625","25.0220016666667","6500100","板橋區"
"220052","561-BX","2018/11/22 14:57:47","新北市板橋區文化路一段435巷31弄11號","121.466903333333","25.0229266666667","6500100","板橋區"
"220011","609-BX","2018/11/22 14:57:49","新北市板橋區中山路二段505巷55號","121.481961666667","25.022985","6500100","板橋區"
"220040","637-BX","2018/11/22 14:57:41","新北市板橋區文聖街115號","121.478016666667","25.0291333333333","6500100","板橋區"
"220005","686-BX","2018/11/22 14:57:55","新北市板橋區廣權路35號","121.462611666667","24.9918233333333","6500100","板橋區"
"220025","687-BX","2018/11/22 14:57:42","新北市板橋區僑中二街106巷1號","121.445906666667","25.0074483333333","6500100","板橋區"
"220042","689-BX","2018/11/22 14:57:55","新北市板橋區長江路二段165號","121.466515","25.0319433333333","6500100","板橋區"
"220002","741-BX","2018/11/22 14:57:45","新北市板橋區實踐路93巷10號","121.464551666667","25.0054266666667","6500100","板橋區"
"220018","806-UM","2018/11/22 14:57:49","新北市板橋區民族路79號","121.465583333333","25.00852","6500100","板橋區"
"220003","827-TW","2018/11/22 14:57:55","新北市板橋區仁愛路86巷22-1號","121.460885","24.99865","6500100","板橋區"
"220014","829-TW","2018/11/22 14:57:54","新北市板橋區漢生東路193巷56號","121.472855","25.0118066666667","6500100","板橋區"
"220051","830-TW","2018/11/22 14:57:44","新北市板橋區文聖街20號","121.47573","25.03185","6500100","板橋區"
"220045","831-TW","2018/11/22 14:57:42","新北市板橋區莒光路17號","121.46991","25.02496","6500100","板橋區"
"220037","833-TW","2018/11/22 14:57:50","新北市板橋區文聖街52號","121.476603333333","25.0311016666667","6500100","板橋區"
"220022","895-R6","2018/11/22 14:57:55","新北市板橋區館前西路110號","121.456996666667","25.0074633333333","6500100","板橋區"
"220021","985-R7","2018/11/22 14:57:53","新北市板橋區南雅西路二段151號","121.452175","25.01198","6500100","板橋區"
"220046","AAC-210","2018/11/22 14:57:57","新北市板橋區光正街11號","121.462821666667","25.017015","6500100","板橋區"
"220030","AAC-253","2018/11/22 14:57:42","新北市板橋區溪北路67號","121.42811","24.9897633333333","6500100","板橋區"
"235032","KEA-2873","2018/11/22 14:57:57","新北市中和區勝利路35巷1弄3號","121.499133333333","25.0075016666667","6500300","中和區"
"235025","KEA-2875","2018/11/22 14:57:54","新北市新店區薏仁坑路自強巷1號","121.496823333333","24.958065","6500300","中和區"
