"lineid","car","time","location","longitude","latitude","cityid","cityname"
"249005","172-UM","2018/11/22 17:18:02","新北市五股區中直路崩山巷36號","121.41701","25.126915","6502300","八里區"
"249001","173-UM","2018/11/22 17:17:58","新北市八里區中華路二段165巷3號","121.407653333333","25.15087","6502300","八里區"
"249004","303-UY","2018/11/22 17:17:56","新北市八里區忠七街6號","121.420825","25.1594466666667","6502300","八里區"
"249002","305-UY","2018/11/22 17:17:53","新北市八里區龍米路二段117巷2號","121.446658333333","25.1431416666667","6502300","八里區"
"249003","593-UM","2018/11/22 17:17:56","新北市八里區商港路88號","121.395333333333","25.1467033333333","6502300","八里區"
"232011","375-UM","2018/11/22 17:17:45","新北市坪林區北宜路八段558號","121.718235","24.9092516666667","6502000","坪林區"
"244023","069-UM","2018/11/22 17:17:56","新北市林口區興林路12號","121.38976","25.0762483333333","6501700","林口區"
"244007","080-UY","2018/11/22 17:17:50","新北市林口區中湖40-9號","121.383121666667","25.0912816666667","6501700","林口區"
"244019","403-UM","2018/11/22 17:17:59","新北市林口區公園路223巷7號","121.373633333333","25.0739683333333","6501700","林口區"
"244013","KEA-2802","2018/11/22 17:18:03","新北市林口區粉寮69號","121.404788333333","25.0908166666667","6501700","林口區"
"244017","485-VK","2018/11/22 17:17:55","新北市林口區粉寮路17巷1號","121.398415","25.0806566666667","6501700","林口區"
"244009","656-BX","2018/11/22 17:17:59","新北市林口區松柏路10號","121.380136666667","25.0926883333333","6501700","林口區"
"244011","701-TV","2018/11/22 17:17:57","新北市林口區粉寮路一段105號","121.397891666667","25.080305","6501700","林口區"
"244025","837-TS","2018/11/22 17:18:00","新北市林口區民族路181號","121.367408333333","25.0765716666667","6501700","林口區"
"244021","838-TS","2018/11/22 17:18:02","新北市林口區粉寮路二段160巷9號","121.40512","25.093205","6501700","林口區"
"243010","KEA-2216","2018/11/22 17:17:48","新北市泰山區黎明路25號","121.421856666667","25.0607166666667","6501600","泰山區"
"243014","680-BX","2018/11/22 17:17:55","新北市泰山區黎明路25號","121.422003333333","25.0606533333333","6501600","泰山區"
"231046","107-UY","2018/11/22 17:17:57","新北市新店區直潭路92號","121.530911666667","24.937615","6500600","新店區"
"241011","013-R5","2018/11/22 17:18:00","新北市三重區龍濱路190號","121.501105","25.0732983333333","6500200","三重區"
"241028","022-UY","2018/11/22 17:17:45","新北市三重區仁化商場11號","121.493653333333","25.05932","6500200","三重區"
"241008","059-VK","2018/11/22 17:17:47","新北市三重區下竹圍街34號","121.481013333333","25.07513","6500200","三重區"
"241022","060-VK","2018/11/22 17:17:59","新北市三重區中正北路64巷9號","121.486448333333","25.064105","6500200","三重區"
"241015","062-VK","2018/11/22 17:17:46","新北市三重區長元街82-1號","121.501891666667","25.0662983333333","6500200","三重區"
"241017","063-VK","2018/11/22 17:17:57","新北市三重區大同北路44巷1號","121.495036666667","25.0630133333333","6500200","三重區"
"241024","065-VK","2018/11/22 17:18:02","新北市三重區中正北路193巷11弄40號","121.478581666667","25.0705783333333","6500200","三重區"
"241026","066-VK","2018/11/22 17:17:55","新北市三重區福裕街53號","121.498678333333","25.0615616666667","6500200","三重區"
"241002","090-VK","2018/11/22 17:17:56","新北市三重區自強路五段23號","121.493143333333","25.0807916666667","6500200","三重區"
"241003","091-VK","2018/11/22 17:17:52","新北市三重區富福街49號","121.49169","25.0842966666667","6500200","三重區"
"251014","742-BX","2018/11/22 17:17:58","新北市淡水區公埔子30-2號","121.465708333333","25.2287066666667","6501000","淡水區"
"241005","262-UM","2018/11/22 17:17:50","新北市三重區永安北路二段25巷45號","121.483163333333","25.0817483333333","6500200","三重區"
"241016","265-UM","2018/11/22 17:17:48","新北市三重區中正北路25巷25弄5號","121.493353333333","25.0627366666667","6500200","三重區"
"241009","267-UM","2018/11/22 17:18:00","新北市三重區仁美街123號","121.485526666667","25.08132","6500200","三重區"
"241018","268-UM","2018/11/22 17:17:47","新北市三重區安慶街117號","121.495011666667","25.0689716666667","6500200","三重區"
"241032","269-UM","2018/11/22 17:17:44","新北市三重區興華街145號","121.482748333333","25.0599216666667","6500200","三重區"
"241013","270-UM","2018/11/22 17:17:58","新北市三重區仁愛街99號","121.495728333333","25.0737283333333","6500200","三重區"
"241025","271-UM","2018/11/22 17:17:58","新北市三重區中正北路416號","121.475298333333","25.0707216666667","6500200","三重區"
"241007","398-BY","2018/11/22 17:17:44","新北市三重區三和路四段155巷3號","121.484215","25.07855","6500200","三重區"
"241004","475-VK","2018/11/22 17:17:55","新北市三重區五華街110巷16號","121.491118333333","25.0823133333333","6500200","三重區"
"241030","480-VK","2018/11/22 17:17:44","新北市三重區集成路36號","121.488946666667","25.0524566666667","6500200","三重區"
"241014","543-UM","2018/11/22 17:17:58","新北市三重區長榮路6號","121.500143333333","25.0685216666667","6500200","三重區"
"241023","545-UM","2018/11/22 17:17:53","新北市三重區三民街213-1號","121.481225","25.0662233333333","6500200","三重區"
"241001","547-UM","2018/11/22 17:17:55","新北市三重區仁愛街269巷31號","121.4939","25.0792283333333","6500200","三重區"
"241019","KEA-2593","2018/11/22 17:17:59","新北市三重區三張街180號","121.485555","25.0692433333333","6500200","三重區"
"241006","AAD-863","2018/11/22 17:17:58","新北市三重區車路頭街139巷20號","121.484435","25.0764983333333","6500200","三重區"
"241020","743-BX","2018/11/22 17:17:46","新北市三重區自強路三段45號","121.48692","25.072715","6500200","三重區"
"241012","941-UM","2018/11/22 17:17:56","新北市三重區河邊北街256巷28號","121.500925","25.075775","6500200","三重區"
"241029","942-UM","2018/11/22 17:17:44","新北市三重區重新路四段122號","121.486918333333","25.0566566666667","6500200","三重區"
"235064","005-UY","2018/11/22 17:17:59","新北市中和區員山路36巷16-3號","121.484968333333","24.991265","6500300","中和區"
"235065","098-UM","2018/11/22 17:17:51","新北市中和區員山路36巷16-3號","121.4851","24.9911183333333","6500300","中和區"
"247012","KEA-2869","2018/11/22 17:17:49","新北市蘆洲區信義路321號","121.47823","25.0864116666667","6501400","蘆洲區"
"235054","640-BX","2018/11/22 17:03:11","新北市中和區員山路36巷16-3號","121.484973333333","24.9918816666667","6500300","中和區"
"247002","893-R6","2018/11/22 17:17:43","新北市蘆洲區永樂街38巷33弄3號","121.457935","25.0894633333333","6501400","蘆洲區"
"247024","500-BY","2018/11/22 17:17:48","新北市蘆洲區長榮路98號","121.462173333333","25.08371","6501400","蘆洲區"
"247014","339-TH","2018/11/22 17:18:02","新北市蘆洲區中正路79-2號","121.470113333333","25.0834083333333","6501400","蘆洲區"
"247006","337-TH","2018/11/22 17:17:47","新北市蘆洲區長安街73巷10號","121.462086666667","25.0797516666667","6501400","蘆洲區"
"247020","057-VK","2018/11/22 17:17:44","新北市蘆洲區民族路426巷8號","121.473791666667","25.0921416666667","6501400","蘆洲區"
"247010","056-VK","2018/11/22 17:17:55","新北市蘆洲區中山一路120巷7弄6號","121.477545","25.0820866666667","6501400","蘆洲區"
"247008","053-VK","2018/11/22 17:17:53","新北市蘆洲區信義路30巷135號","121.475295","25.0766716666667","6501400","蘆洲區"
"247018","007-UY","2018/11/22 17:18:03","新北市蘆洲區民權路82巷1弄12號","121.474488333333","25.0882216666667","6501400","蘆洲區"
"247004","002-UY","2018/11/22 17:17:53","新北市蘆洲區永安南路二段274號","121.458286666667","25.0809916666667","6501400","蘆洲區"
"247022","001-UY","2018/11/22 17:18:00","新北市蘆洲區三民路128巷35號","121.469876666667","25.08964","6501400","蘆洲區"
"228003","097-TW","2018/11/22 17:17:52","新北市貢寮區福隆里東興街60號","121.948168333333","25.0176233333333","6502600","貢寮區"
"228001","212-TW","2018/11/22 17:17:46","新北市貢寮區仁理村尖山腳街18-3號","121.925478333333","25.0483116666667","6502600","貢寮區"
"228002","585-TW","2018/11/22 17:17:42","新北市貢寮區雙玉里下雙溪街19號","121.918548333333","25.010505","6502600","貢寮區"
"224006","676-BX","2018/11/22 17:17:50","新北市瑞芳區傑魚坑路309號","121.786333333333","25.1045916666667","6501200","瑞芳區"
"224008","285-BY","2018/11/22 17:17:49","新北市瑞芳區侯硐路50號","121.825805","25.08298","6501200","瑞芳區"
"224009","273-VK","2018/11/22 17:18:02","新北市瑞芳區汽車路123號","121.839198333333","25.110285","6501200","瑞芳區"
"224005","271-BY","2018/11/22 17:17:48","新北市瑞芳區鼻頭路109號","121.91611","25.1230483333333","6501200","瑞芳區"
"227010","642-TC","2018/11/22 17:18:00","新北市雙溪區三貂里定福路1號","121.849283333333","25.0644316666667","6502500","雙溪區"
"227004","400-TW","2018/11/22 17:18:01","新北市雙溪區上林里內平林90號","121.82755","25.027475","6502500","雙溪區"
"251009","008-UM","2018/11/22 17:18:02","新北市淡水區三民街20號","121.439016666667","25.1717133333333","6501000","淡水區"
"251005","010-UM","2018/11/22 17:17:45","新北市淡水區鄧公路19-1號","121.450303333333","25.1698983333333","6501000","淡水區"
"251013","KEA-2871","2018/11/22 17:18:00","新北市淡水區演戲埔腳9-1號","121.473083333333","25.19602","6501000","淡水區"
"251016","179-VK","2018/11/22 17:17:56","新北市淡水區鄒厝崙14號","121.461686666667","25.1904733333333","6501000","淡水區"
"251008","181-VK","2018/11/22 17:17:44","新北市淡水區大同路285號","121.468011666667","25.1424333333333","6501000","淡水區"
"251015","182-VK","2018/11/22 17:17:53","新北市淡水區樹林口41號","121.47197","25.1681716666667","6501000","淡水區"
"251010","413-VK","2018/11/22 17:17:45","新北市淡水區沙崙路341號","121.427875","25.1878233333333","6501000","淡水區"
"251012","441-VK","2018/11/22 17:17:56","新北市淡水區中山北路一段158號","121.44431","25.1778933333333","6501000","淡水區"
"251004","443-VK","2018/11/22 17:08:51","新北市淡水區中正東路二段88巷15號","121.459015","25.1504633333333","6501000","淡水區"
"251006","561-UM","2018/11/22 17:17:55","新北市淡水區新民街19巷12號","121.43847","25.174945","6501000","淡水區"
"251007","577-R6","2018/11/22 17:18:00","新北市淡水區民生路47-4號","121.462048333333","25.1379616666667","6501000","淡水區"
"251011","650-BX","2018/11/22 17:17:48","新北市淡水區坪頂路107號","121.463868333333","25.162215","6501000","淡水區"
"251002","672-BX","2018/11/22 17:18:00","新北市淡水區中正路二段31號","121.419385","25.1816066666667","6501000","淡水區"
"251003","766-UM","2018/11/22 17:17:44","新北市淡水區中正路二段31號","121.419463333333","25.1815033333333","6501000","淡水區"
"252002","178-VK","2018/11/22 17:17:48","新北市三芝區忠孝街1-15號","121.505575","25.2539366666667","6502100","三芝區"
"252001","292-VK","2018/11/22 17:17:59","新北市三芝區長安街119號","121.498053333333","25.2596616666667","6502100","三芝區"
"242036","AAC-296","2018/11/22 17:17:49","新北市新莊區中正路461號","121.442066666667","25.034185","6500500","新莊區"
"242058","986-R7","2018/11/22 17:17:49","新北市新莊區新泰路357巷2-2號","121.442021666667","25.04117","6500500","新莊區"
"242056","751-BX","2018/11/22 17:17:53","新北市新莊區新莊路769號","121.442335","25.032545","6500500","新莊區"
"242029","705-TV","2018/11/22 17:17:57","新北市新莊區中和街186巷2弄12號","121.447761666667","25.0491833333333","6500500","新莊區"
"242027","615-BX","2018/11/22 17:17:53","新北市新莊區新泰路502巷57號","121.444541666667","25.0464016666667","6500500","新莊區"
"242044","566-BX","2018/11/22 17:17:49","新北市新莊區中正路400號","121.441946666667","25.0342033333333","6500500","新莊區"
"242048","497-BY","2018/11/22 17:17:49","新北市新莊區龍安路249-1號","121.419201666667","25.0214283333333","6500500","新莊區"
"242053","441-UM","2018/11/22 17:17:52","新北市新莊區環河路636-7號","121.436721666667","25.0109333333333","6500500","新莊區"
"242002","440-UM","2018/11/22 17:17:59","新北市新莊區中環路一段10號","121.442886666667","25.0258316666667","6500500","新莊區"
"242039","415-TV","2018/11/22 17:17:56","新北市新莊區新樹路52-3號","121.437561666667","25.0270516666667","6500500","新莊區"
"242009","413-TV","2018/11/22 17:17:41","新北市新莊區新泰路357巷1弄44號","121.442611666667","25.0402333333333","6500500","新莊區"
"242046","400-BY","2018/11/22 17:17:22","新北市新莊區中正路486-1號","121.436776666667","25.0330783333333","6500500","新莊區"
"242023","362-BY","2018/11/22 17:17:59","新北市新莊區新泰路502巷57號","121.44453","25.046395","6500500","新莊區"
"242061","353-BY","2018/11/22 17:18:00","新北市新莊區三和路12-21號","121.441976666667","25.0382066666667","6500500","新莊區"
"242034","135-UY","2018/11/22 17:17:54","新北市新莊區三和路12-21號","121.441985","25.0386383333333","6500500","新莊區"
"242013","173-VK","2018/11/22 17:18:02","新北市新莊區三和路12-21號","121.441831666667","25.0387416666667","6500500","新莊區"
"242019","175-VK","2018/11/22 17:17:48","新北市新莊區中平路107號","121.444698333333","25.0463216666667","6500500","新莊區"
"242007","176-VK","2018/11/22 17:17:57","新北市新莊區新泰路502巷2號","121.442623333333","25.0462983333333","6500500","新莊區"
"242031","348-TH","2018/11/22 17:18:00","新北市新莊區新泰路486號","121.442613333333","25.0457833333333","6500500","新莊區"
"242004","349-TH","2018/11/22 17:17:55","新北市新莊區新泰路417-1號","121.443271666667","25.0445033333333","6500500","新莊區"
"242021","350-TH","2018/11/22 17:17:46","新北市新莊區新泰路502巷57號","121.444491666667","25.0464016666667","6500500","新莊區"
"242015","351-TH","2018/11/22 17:17:55","新北市新莊區新泰路341號","121.444826666667","25.0419883333333","6500500","新莊區"
"238015","755-BX","2018/11/22 17:17:54","新北市樹林區大安路537巷1號","121.413103333333","24.9847283333333","6500700","樹林區"
"238023","601-UM","2018/11/22 17:18:01","新北市樹林區中正路433-2號","121.41495","25.0084866666667","6500700","樹林區"
"238019","599-UM","2018/11/22 17:17:58","新北市樹林區八德街170號","121.421681666667","24.9781416666667","6500700","樹林區"
"238018","571-TV","2018/11/22 17:17:45","新北市樹林區樹中街55號","121.421078333333","24.9854683333333","6500700","樹林區"
"238024","5061-A6","2018/11/22 17:18:03","新北市樹林區樹新路79巷11號","121.427108333333","24.9955883333333","6500700","樹林區"
"238022","KEA-2213","2018/11/22 17:17:58","新北市樹林區仁愛街73巷1號","121.423536666667","24.9827466666667","6500700","樹林區"
"238021","KEA-2539","2018/11/22 17:17:59","新北市樹林區西圳街一段111號","121.399025","24.9644383333333","6500700","樹林區"
"238025","303-VK","2018/11/22 17:17:50","新北市樹林區保安二街67號","121.424586666667","24.994765","6500700","樹林區"
"238017","283-BY","2018/11/22 17:17:47","新北市樹林區光武街30巷6號","121.416946666667","25.0053733333333","6500700","樹林區"
"238014","282-BY","2018/11/22 17:17:44","新北市樹林區復興路48號","121.422081666667","24.9939683333333","6500700","樹林區"
"238026","172-UY","2018/11/22 17:17:56","新北市樹林區東大街166號","121.40955","24.975695","6500700","樹林區"
"238016","169-UY","2018/11/22 17:17:53","新北市樹林區八德街1號","121.417656666667","24.9850283333333","6500700","樹林區"
"239007","AAC-297","2018/11/22 17:17:59","新北市鶯歌區行政路7號","121.351241666667","24.9555616666667","6500800","鶯歌區"
"239006","891-R6","2018/11/22 17:17:43","新北市鶯歌區德昌二街33號","121.333276666667","24.9588483333333","6500800","鶯歌區"
"239008","527-UM","2018/11/22 17:17:54","新北市鶯歌區中山路164號","121.349093333333","24.9570633333333","6500800","鶯歌區"
"239005","526-UM","2018/11/22 17:17:47","新北市鶯歌區鶯桃路551號","121.330213333333","24.9679383333333","6500800","鶯歌區"
"239001","417-VK","2018/11/22 17:17:46","新北市鶯歌區尖山路191巷3號","121.344345","24.9469433333333","6500800","鶯歌區"
"239003","360-BY","2018/11/22 17:17:47","新北市鶯歌區德昌二街70巷29弄1號","121.33148","24.95735","6500800","鶯歌區"
"239002","359-BY","2018/11/22 17:17:53","新北市鶯歌區建國路302號","121.344586666667","24.952615","6500800","鶯歌區"
"239004","193-VK","2018/11/22 17:17:43","新北市鶯歌區文化路238號","121.352808333333","24.948485","6500800","鶯歌區"
"221008","489-VK","2018/11/22 17:17:57","新北市汐止區康寧街901號","121.651396666667","25.075125","6501100","汐止區"
"242042","281-VK","2018/11/22 17:17:55","新北市新莊區新樹路52-3號","121.437495","25.02702","6500500","新莊區"
"242017","280-VK","2018/11/22 17:18:00","新北市新莊區新泰路361巷23號","121.442391666667","25.0426683333333","6500500","新莊區"
