"lineid","car","time","location","longitude","latitude","cityid","cityname"
"234038","336-UY","2018/11/22 17:41:06","新北市永和區福和路1號","121.52655","25.01007","6500400","永和區"
"234026","9371-KE","2018/11/22 17:47:55","新北市永和區永平路160號","121.511078333333","25.00893","6500400","永和區"
"249005","172-UM","2018/11/22 17:47:42","新北市八里區荖阡坑路34-1號","121.402693333333","25.129815","6502300","八里區"
"249001","173-UM","2018/11/22 17:47:38","新北市八里區龍米路二段108-1號","121.443868333333","25.149415","6502300","八里區"
"249004","303-UY","2018/11/22 17:47:55","新北市八里區中華路一段81巷15號","121.42048","25.15667","6502300","八里區"
"249002","305-UY","2018/11/22 17:42:13","新北市八里區石壁腳9號","121.444071666667","25.1349483333333","6502300","八里區"
"249003","593-UM","2018/11/22 17:47:56","新北市八里區中山路二段125號","121.405428333333","25.151835","6502300","八里區"
"248002","678-BX","2018/11/22 17:47:47","新北市五股區中興路二段37巷28號","121.460128333333","25.0748916666667","6501500","五股區"
"232011","375-UM","2018/11/22 17:47:45","新北市坪林區北宜路八段298號","121.710098333333","24.9351833333333","6502000","坪林區"
"244023","069-UM","2018/11/22 17:47:56","新北市林口區興林路52-5號","121.38886","25.0744183333333","6501700","林口區"
"244007","080-UY","2018/11/22 17:47:50","新北市林口區林口路194號","121.387385","25.0829983333333","6501700","林口區"
"244019","403-UM","2018/11/22 17:47:39","新北市林口區麗園路121號","121.371561666667","25.067515","6501700","林口區"
"244013","KEA-2802","2018/11/22 17:47:43","新北市林口區中正路505巷5號","121.383365","25.0772033333333","6501700","林口區"
"244017","485-VK","2018/11/22 17:47:35","新北市林口區文化二路一段256號","121.37063","25.0734016666667","6501700","林口區"
"244009","656-BX","2018/11/22 17:47:39","新北市林口區竹林路564號","121.386781666667","25.083695","6501700","林口區"
"244011","701-TV","2018/11/22 17:47:37","新北市林口區竹林路35號","121.386495","25.07769","6501700","林口區"
"244025","837-TS","2018/11/22 17:47:40","新北市林口區文化三路一段177號","121.361998333333","25.0694383333333","6501700","林口區"
"244021","838-TS","2018/11/22 17:47:42","新北市林口區仁愛路一段139巷15號","121.397878333333","25.0716833333333","6501700","林口區"
"222003","436-BY","2018/11/22 17:47:59","新北市深坑區阿柔洋60-1號","121.608261666667","24.9987666666667","6501800","深坑區"
"222002","659-BX","2018/11/22 17:47:41","新北市深坑區平埔街22巷17弄1號","121.614911666667","25.0008333333333","6501800","深坑區"
"231046","107-UY","2018/11/22 17:47:57","新北市新店區下石厝路2-1號","121.531633333333","24.928035","6500600","新店區"
"241011","013-R5","2018/11/22 17:47:40","新北市三重區龍濱路285號","121.501028333333","25.07338","6500200","三重區"
"251014","742-BX","2018/11/22 17:47:38","新北市淡水區公埔子16-6號","121.481","25.224595","6501000","淡水區"
"241005","262-UM","2018/11/22 17:47:50","新北市三重區碧華街139號","121.486356666667","25.0819833333333","6500200","三重區"
"241016","265-UM","2018/11/22 17:47:48","新北市三重區重新路二段132號","121.496106666667","25.0615966666667","6500200","三重區"
"241013","270-UM","2018/11/22 17:47:58","新北市三重區仁福街64巷38號","121.497298333333","25.0760683333333","6500200","三重區"
"241024","462-BY","2018/11/22 17:47:40","新北市三重區力行路二段9巷10號","121.482833333333","25.0723333333333","6500200","三重區"
"241012","941-UM","2018/11/22 17:47:56","新北市三重區河邊北街311號","121.502378333333","25.074755","6500200","三重區"
"235064","005-UY","2018/11/22 17:47:39","新北市中和區員山路36巷16-3號","121.485045","24.9912366666667","6500300","中和區"
"235063","006-UY","2018/11/22 17:47:44","新北市中和區員山路36巷16-3號","121.484963333333","24.99135","6500300","中和區"
"235065","098-UM","2018/11/22 17:47:50","新北市中和區中正路637巷52弄3號","121.485313333333","24.9937","6500300","中和區"
"247012","KEA-2869","2018/11/22 17:47:49","新北市蘆洲區復興路60巷1弄1號","121.474628333333","25.0860283333333","6501400","蘆洲區"
"235054","640-BX","2018/11/22 17:47:45","新北市中和區員山路36巷16-2號","121.485053333333","24.9917916666667","6500300","中和區"
"247002","893-R6","2018/11/22 17:47:43","新北市蘆洲區永平街32巷33弄24號","121.458491666667","25.0925833333333","6501400","蘆洲區"
"247016","546-UM","2018/11/22 17:47:52","新北市蘆洲區中正路185巷25弄10號","121.466973333333","25.0840566666667","6501400","蘆洲區"
"247024","500-BY","2018/11/22 17:47:48","新北市蘆洲區光榮路78號","121.463376666667","25.08891","6501400","蘆洲區"
"247014","339-TH","2018/11/22 17:47:42","新北市蘆洲區保和街69巷2弄1號","121.469475","25.0857933333333","6501400","蘆洲區"
"247006","337-TH","2018/11/22 17:47:47","新北市蘆洲區長安街22巷43號","121.465238333333","25.0805716666667","6501400","蘆洲區"
"247020","057-VK","2018/11/22 17:47:44","新北市蘆洲區民義街71巷27號","121.472378333333","25.0909033333333","6501400","蘆洲區"
"247010","056-VK","2018/11/22 17:47:55","新北市蘆洲區民族路66號","121.477325","25.0847233333333","6501400","蘆洲區"
"247008","053-VK","2018/11/22 17:47:53","新北市蘆洲區民生街131巷8號","121.47237","25.078955","6501400","蘆洲區"
"247018","007-UY","2018/11/22 17:47:43","新北市蘆洲區復興路227巷2弄2號","121.480026666667","25.08997","6501400","蘆洲區"
"247004","002-UY","2018/11/22 17:47:53","新北市蘆洲區中原路12巷20號","121.460951666667","25.08388","6501400","蘆洲區"
"247022","001-UY","2018/11/22 17:47:40","新北市蘆洲區中正路487號","121.462018333333","25.096195","6501400","蘆洲區"
"228003","097-TW","2018/11/22 17:47:52","新北市貢寮區真理里延平街60號","121.924878333333","25.0573383333333","6502600","貢寮區"
"228002","585-TW","2018/11/22 17:47:42","新北市貢寮區福隆里外隆林街15-3號","121.958606666667","25.0038466666667","6502600","貢寮區"
"224006","676-BX","2018/11/22 17:47:50","新北市瑞芳區傑魚坑路183號","121.788456666667","25.1082916666667","6501200","瑞芳區"
"224008","285-BY","2018/11/22 17:47:49","新北市瑞芳區明燈路一段18巷6號","121.821925","25.1076016666667","6501200","瑞芳區"
"224009","273-VK","2018/11/22 17:47:41","新北市瑞芳區新山路195號","121.850728333333","25.108705","6501200","瑞芳區"
"224005","271-BY","2018/11/22 17:47:48","新北市瑞芳區海濱路29-9號","121.83085","25.1243666666667","6501200","瑞芳區"
"227010","642-TC","2018/11/22 17:31:48","新北市雙溪區三貂里政光路3-1號","121.850795","25.06334","6502500","雙溪區"
"253006","032-BX","2018/11/22 17:47:48","新北市石門區中山路62-7號","121.567461666667","25.29023","6502200","石門區"
"208002","KEA-2872","2018/11/22 17:47:38","新北市金山區磺清路135號","121.639238333333","25.2275266666667","6502700","金山區"
"208001","761-BX","2018/11/22 17:47:50","新北市金山區磺清路135號","121.639318333333","25.2277216666667","6502700","金山區"
"251009","008-UM","2018/11/22 17:47:42","新北市淡水區長興街29號","121.444","25.17109","6501000","淡水區"
"251005","010-UM","2018/11/22 17:47:45","新北市淡水區學府路118巷7號","121.451018333333","25.1719533333333","6501000","淡水區"
"251001","011-UM","2018/11/22 17:47:55","新北市淡水區民權路92巷35-1號","121.46213","25.1266116666667","6501000","淡水區"
"251013","KEA-2871","2018/11/22 17:47:40","新北市淡水區口湖子1-3號","121.477996666667","25.190595","6501000","淡水區"
"251016","179-VK","2018/11/22 17:35:00","新北市淡水區埤島39-15號","121.452761666667","25.195875","6501000","淡水區"
"251008","181-VK","2018/11/22 17:47:42","新北市淡水區八勢路一段156號","121.468121666667","25.1564133333333","6501000","淡水區"
"251015","182-VK","2018/11/22 17:47:53","新北市淡水區樹興里25號","121.486928333333","25.1698733333333","6501000","淡水區"
"251010","413-VK","2018/11/22 17:47:45","新北市淡水區淡海路280巷33弄34-2號","121.41874","25.1885966666667","6501000","淡水區"
"251012","441-VK","2018/11/22 17:47:36","新北市淡水區北新路一段403號","121.46812","25.182765","6501000","淡水區"
"251004","443-VK","2018/11/22 17:47:48","新北市淡水區民權一街17巷2號","121.458688333333","25.13653","6501000","淡水區"
"251006","561-UM","2018/11/22 17:47:55","新北市淡水區大信街1巷25號","121.440243333333","25.1767","6501000","淡水區"
"251007","577-R6","2018/11/22 17:47:39","新北市淡水區民生路52巷10號","121.462146666667","25.137595","6501000","淡水區"
"251011","650-BX","2018/11/22 17:45:08","新北市淡水區吳(仔)厝7-1號","121.480781666667","25.1476683333333","6501000","淡水區"
"251002","672-BX","2018/11/22 17:47:41","新北市淡水區中山路88號","121.44295","25.1705766666667","6501000","淡水區"
"251003","766-UM","2018/11/22 17:47:44","新北市淡水區大忠街5巷1號","121.443123333333","25.17639","6501000","淡水區"
"207003","550-UM","2018/11/22 17:47:44","新北市萬里區野柳里東澳路66號","121.692798333333","25.2009416666667","6502800","萬里區"
"207004","225-TW","2018/11/22 17:47:41","新北市萬里區萬里里瑪鋉路79號","121.68838","25.1765516666667","6502800","萬里區"
"252002","178-VK","2018/11/22 17:47:48","新北市三芝區智成街73號","121.50445","25.2558366666667","6502100","三芝區"
"252001","292-VK","2018/11/22 17:47:39","新北市三芝區淡金路一段6號","121.499126666667","25.2595383333333","6502100","三芝區"
"237004","KEA-2597","2018/11/22 17:47:48","新北市三峽區中山路110號","121.365896666667","24.9357916666667","6500900","三峽區"
"237009","210-TH","2018/11/22 17:47:52","新北市三峽區大勇路27號","121.367216666667","24.9363266666667","6500900","三峽區"
"237013","252-BX","2018/11/22 17:47:42","新北市三峽區安溪路309巷11號","121.373436666667","24.933275","6500900","三峽區"
"237012","275-BY","2018/11/22 17:47:48","新北市三峽區文化路129號","121.369821666667","24.9360583333333","6500900","三峽區"
"237008","302-VK","2018/11/22 17:47:41","新北市三峽區中正路二段23號","121.367076666667","24.9192083333333","6500900","三峽區"
"237014","433-BY","2018/11/22 17:47:55","新北市三峽區文化路120巷3號","121.370995","24.9364616666667","6500900","三峽區"
"237006","5529-G3","2018/11/22 17:47:50","新北市三峽區介壽路一段385-1號","121.38847","24.9341666666667","6500900","三峽區"
"237011","KEA-2596","2018/11/22 17:47:56","新北市三峽區大同路176號","121.372556666667","24.9267866666667","6500900","三峽區"
"237016","649-BX","2018/11/22 17:47:37","新北市三峽區白雞149-2號","121.400113333333","24.9055","6500900","三峽區"
"237005","AKY-6261","2018/11/22 17:47:20","新北市三峽區中山路459巷66號","121.35582","24.9365266666667","6500900","三峽區"
"236070","105-UM","2018/11/22 17:47:48","新北市土城區青雲路591號","121.459533333333","24.9711316666667","6501300","土城區"
"236042","KED-0685","2018/11/22 17:47:50","新北市土城區城林路6巷80號","121.438508333333","24.97974","6501300","土城區"
"236078","166-UM","2018/11/22 17:47:33","新北市土城區永寧路121號","121.4307","24.9538033333333","6501300","土城區"
"236014","270-VK","2018/11/22 17:47:50","新北市土城區城林路6巷80號","121.438481666667","24.97962","6501300","土城區"
"236038","271-VK","2018/11/22 17:47:50","新北市土城區城林路6巷80號","121.438475","24.9797483333333","6501300","土城區"
"236021","401-BY","2018/11/22 17:47:41","新北市土城區城林路6巷80號","121.438575","24.9796733333333","6501300","土城區"
"236059","912-UM","2018/11/22 17:47:37","新北市土城區中華路二段2號","121.439403333333","24.9795916666667","6501300","土城區"
"236049","913-UM","2018/11/22 17:47:43","新北市土城區中華路二段2號","121.438805","24.9798666666667","6501300","土城區"
"236063","915-UM","2018/11/22 17:47:54","新北市土城區城林路6巷80號","121.438531666667","24.9796033333333","6501300","土城區"
"236055","AAC-216","2018/11/22 17:47:49","新北市土城區城林路6巷80號","121.438556666667","24.9796133333333","6501300","土城區"
"242036","AAC-296","2018/11/22 17:47:49","新北市新莊區建福路55號","121.426818333333","25.027435","6500500","新莊區"
"242058","986-R7","2018/11/22 17:47:49","新北市新莊區中正路867-8號","121.4182","25.02734","6500500","新莊區"
"242056","751-BX","2018/11/22 17:47:53","新北市新莊區豐年街116號","121.44647","25.0303633333333","6500500","新莊區"
"242029","705-TV","2018/11/22 17:47:36","新北市新莊區復興路一段27號","121.446263333333","25.041785","6500500","新莊區"
"242027","615-BX","2018/11/22 17:47:53","新北市新莊區福壽街141號","121.457948333333","25.05275","6500500","新莊區"
"242025","613-BX","2018/11/22 17:47:58","新北市新莊區中山路一段7號","121.4652","25.061245","6500500","新莊區"
"242044","566-BX","2018/11/22 17:47:48","新北市新莊區福營路378號","121.420671666667","25.02639","6500500","新莊區"
"242048","497-BY","2018/11/22 17:47:49","新北市新莊區萬安街62號","121.420948333333","25.02356","6500500","新莊區"
"242053","441-UM","2018/11/22 17:47:52","新北市新莊區民安西路470-1號","121.43168","25.00781","6500500","新莊區"
"242002","440-UM","2018/11/22 17:47:55","新北市新莊區景德路138號","121.451246666667","25.03432","6500500","新莊區"
"242039","415-TV","2018/11/22 17:47:36","新北市新莊區民安路211號","121.426406666667","25.0221866666667","6500500","新莊區"
"242009","413-TV","2018/11/22 17:47:41","新北市新莊區昌明街28號","121.456766666667","25.0522933333333","6500500","新莊區"
"242046","400-BY","2018/11/22 17:47:54","新北市新莊區建國一路49號","121.434461666667","25.030495","6500500","新莊區"
"242023","362-BY","2018/11/22 17:47:39","新北市新莊區福樂街62號","121.45778","25.0462","6500500","新莊區"
"242061","353-BY","2018/11/22 17:47:39","新北市新莊區瓊林南路204號","121.4341","25.0065716666667","6500500","新莊區"
"242011","132-UY","2018/11/22 17:47:48","新北市新莊區榮華路二段2號","121.450706666667","25.0557983333333","6500500","新莊區"
"242034","135-UY","2018/11/22 17:47:54","新北市新莊區新莊路682號","121.44114","25.0327116666667","6500500","新莊區"
"242013","173-VK","2018/11/22 17:47:42","新北市新莊區幸福路753巷1號","121.448621666667","25.0486166666667","6500500","新莊區"
"242019","175-VK","2018/11/22 17:47:48","新北市新莊區復興路二段60巷2弄8號","121.45486","25.0441483333333","6500500","新莊區"
"242007","176-VK","2018/11/22 17:47:46","新北市新莊區福樂街134號","121.456676666667","25.0480283333333","6500500","新莊區"
"242031","348-TH","2018/11/22 17:47:40","新北市新莊區新泰路321巷35號","121.443176666667","25.0411283333333","6500500","新莊區"
"242004","349-TH","2018/11/22 17:47:35","新北市新莊區自立街245號","121.458593333333","25.0455883333333","6500500","新莊區"
"242021","350-TH","2018/11/22 17:47:46","新北市新莊區永寧街37巷1號","121.452871666667","25.0395416666667","6500500","新莊區"
"242015","351-TH","2018/11/22 17:47:56","新北市新莊區新泰路462號","121.443245","25.0448183333333","6500500","新莊區"
"238015","755-BX","2018/11/22 17:47:54","新北市樹林區啟智街34號","121.420725","24.9932483333333","6500700","樹林區"
"238023","601-UM","2018/11/22 17:47:44","桃園市龜山區龍興街12巷1號","121.402558333333","25.016365","6500700","樹林區"
"238019","599-UM","2018/11/22 17:47:38","新北市樹林區太順街28號","121.419531666667","24.980195","6500700","樹林區"
"238018","571-TV","2018/11/22 17:47:45","新北市樹林區博愛街2巷30號","121.426415","24.9928366666667","6500700","樹林區"
"238022","KEA-2213","2018/11/22 17:47:47","新北市樹林區太順街96巷11號","121.416376666667","24.97889","6500700","樹林區"
"238021","KEA-2539","2018/11/22 17:47:42","新北市樹林區柑園街一段67-2號","121.402223333333","24.9602333333333","6500700","樹林區"
"238025","303-VK","2018/11/22 17:47:49","新北市樹林區三俊街138號","121.416128333333","25.0153216666667","6500700","樹林區"
"238017","283-BY","2018/11/22 17:47:47","新北市樹林區三俊街81巷1號","121.415501666667","25.0154383333333","6500700","樹林區"
"238014","282-BY","2018/11/22 17:47:44","新北市樹林區保安街一段289巷7-1號","121.414571666667","24.9957333333333","6500700","樹林區"
"238026","172-UY","2018/11/22 17:47:36","新北市樹林區新興街19巷6號","121.400445","24.972775","6500700","樹林區"
"238016","169-UY","2018/11/22 17:47:53","新北市樹林區復興路335巷6弄8號","121.417673333333","24.9873233333333","6500700","樹林區"
"239007","AAC-297","2018/11/22 17:47:56","新北市鶯歌區永利街16號","121.339016666667","24.954945","6500800","鶯歌區"
"239006","891-R6","2018/11/22 17:47:43","新北市鶯歌區永和街116號","121.33473","24.9690233333333","6500800","鶯歌區"
"239008","527-UM","2018/11/22 17:47:54","新北市鶯歌區大湖路732巷10號","121.333233333333","24.9771166666667","6500800","鶯歌區"
"239005","526-UM","2018/11/22 17:47:47","新北市鶯歌區鳳吉四街34號","121.327323333333","24.9728816666667","6500800","鶯歌區"
"239001","417-VK","2018/11/22 17:47:46","新北市鶯歌區中正三路313號","121.328903333333","24.93592","6500800","鶯歌區"
"239003","360-BY","2018/11/22 17:47:47","新北市鶯歌區鶯桃路234巷1號","121.336551666667","24.9593733333333","6500800","鶯歌區"
"239002","359-BY","2018/11/22 17:47:35","新北市鶯歌區育德街11號","121.34456","24.9551533333333","6500800","鶯歌區"
"239004","193-VK","2018/11/22 17:47:43","新北市鶯歌區文化路525號","121.352876666667","24.9481633333333","6500800","鶯歌區"
"221008","489-VK","2018/11/22 17:47:57","新北市汐止區康寧街901號","121.65137","25.0750533333333","6501100","汐止區"
"221036","130-UY","2018/11/22 17:47:49","新北市汐止區汐萬路一段215號","121.652011666667","25.0723633333333","6501100","汐止區"
"221010","269-BY","2018/11/22 17:47:41","新北市汐止區汐萬路二段101號","121.648395","25.0833833333333","6501100","汐止區"
"221012","278-VK","2018/11/22 17:47:55","新北市汐止區長江街97號","121.658021666667","25.072665","6501100","汐止區"
"221032","280-BY","2018/11/22 17:47:49","新北市汐止區大同路一段150號","121.631741666667","25.0557266666667","6501100","汐止區"
"221027","281-BY","2018/11/22 17:47:46","新北市汐止區汐萬路一段310號","121.650348333333","25.0748916666667","6501100","汐止區"
"221021","299-VK","2018/11/22 17:47:37","新北市汐止區汐萬路一段24號","121.655745","25.0679516666667","6501100","汐止區"
"221035","622-UM","2018/11/22 17:47:42","新北市汐止區汐萬路一段204號","121.652091666667","25.072295","6501100","汐止區"
"221025","623-UM","2018/11/22 17:47:41","新北市汐止區汐萬路一段37號","121.655611666667","25.06819","6501100","汐止區"
"221038","646-BX","2018/11/22 17:47:45","新北市汐止區汐萬路一段273號","121.650493333333","25.0744616666667","6501100","汐止區"
"221033","647-BX","2018/11/22 17:47:51","新北市汐止區林森街33-2號","121.62279","25.0402133333333","6501100","汐止區"
"221018","753-BX","2018/11/22 17:47:51","新北市汐止區水源路一段3號","121.657243333333","25.0671983333333","6501100","汐止區"
"242042","281-VK","2018/11/22 17:47:55","新北市泰山區新北大道六段347號","121.422853333333","25.0334566666667","6500500","新莊區"
"242017","280-VK","2018/11/22 17:47:49","新北市新莊區永安街71號","121.450971666667","25.04465","6500500","新莊區"
"235061","KEA-2875","2018/11/22 17:26:09","新北市中和區和城路一段271巷1號","121.485403333333","24.9916516666667","6500300","中和區"
