"lineid","car","time","location","longitude","latitude","cityid","cityname"
"234038","336-UY","2018/11/22 17:41:06","新北市永和區福和路1號","121.52655","25.01007","6500400","永和區"
"234026","9371-KE","2018/11/22 17:57:55","新北市永和區永和路一段70號","121.51297","25.0061633333333","6500400","永和區"
"249005","172-UM","2018/11/22 17:57:42","新北市八里區荖阡坑路22-7號","121.399276666667","25.1360916666667","6502300","八里區"
"249001","173-UM","2018/11/22 17:57:38","新北市八里區龍米路二段30號","121.448655","25.1401266666667","6502300","八里區"
"249004","303-UY","2018/11/22 17:57:55","新北市八里區忠六街1號","121.422755","25.1589566666667","6502300","八里區"
"249002","305-UY","2018/11/22 17:42:13","新北市八里區石壁腳9號","121.444071666667","25.1349483333333","6502300","八里區"
"249003","593-UM","2018/11/22 17:57:56","新北市八里區中山路二段76號","121.408385","25.15578","6502300","八里區"
"248014","025-BX","2018/11/22 17:57:53","新北市五股區中興路二段83巷26-6號","121.45981","25.07522","6501500","五股區"
"248016","026-BX","2018/11/22 17:57:39","新北市五股區中興路二段83巷26-6號","121.460026666667","25.0752583333333","6501500","五股區"
"248008","095-VK","2018/11/22 17:57:53","新北市五股區中興路二段150號","121.458595","25.0785533333333","6501500","五股區"
"248004","677-BX","2018/11/22 17:57:55","新北市五股區中興路二段83巷26-3號","121.460168333333","25.075325","6501500","五股區"
"248002","678-BX","2018/11/22 17:57:48","新北市五股區中興路二段37巷28號","121.460068333333","25.0748633333333","6501500","五股區"
"248010","682-TV","2018/11/22 17:57:40","新北市五股區中興路二段57-6號","121.460381666667","25.0752766666667","6501500","五股區"
"232011","375-UM","2018/11/22 17:57:45","新北市坪林區水柳腳34號","121.710055","24.9355566666667","6502000","坪林區"
"244023","069-UM","2018/11/22 17:57:56","新北市林口區育林街30號","121.385885","25.0737133333333","6501700","林口區"
"244007","080-UY","2018/11/22 17:57:50","新北市林口區竹林路266號","121.389665","25.0811166666667","6501700","林口區"
"244019","403-UM","2018/11/22 17:57:39","新北市林口區文化一路一段126號","121.375383333333","25.0725116666667","6501700","林口區"
"244013","KEA-2802","2018/11/22 17:57:43","新北市林口區中山路67號","121.393548333333","25.0784533333333","6501700","林口區"
"244017","485-VK","2018/11/22 17:57:35","新北市林口區文化二路一段339號","121.370355","25.0731883333333","6501700","林口區"
"244009","656-BX","2018/11/22 17:57:39","新北市林口區佳林路56巷6弄24號","121.385068333333","25.0824533333333","6501700","林口區"
"244011","701-TV","2018/11/22 17:57:37","新北市林口區中正路253號","121.390715","25.0776566666667","6501700","林口區"
"244025","837-TS","2018/11/22 17:57:40","新北市林口區忠孝三路71號","121.359761666667","25.0689783333333","6501700","林口區"
"244021","838-TS","2018/11/22 17:57:42","新北市林口區新寮45號","121.404136666667","25.0647366666667","6501700","林口區"
"243013","AAD-798","2018/11/22 17:57:54","新北市泰山區黎明路25號","121.422026666667","25.0607816666667","6501600","泰山區"
"222003","436-BY","2018/11/22 17:57:38","新北市深坑區炮子崙24號","121.604515","24.9870466666667","6501800","深坑區"
"222002","659-BX","2018/11/22 17:57:41","新北市深坑區深坑街35號","121.615965","25.001815","6501800","深坑區"
"231046","107-UY","2018/11/22 17:57:57","新北市新店區直潭路113號","121.532495","24.9345566666667","6500600","新店區"
"241011","013-R5","2018/11/22 17:57:40","新北市蘆洲區復興路323巷140號","121.480898333333","25.0956483333333","6500200","三重區"
"251014","742-BX","2018/11/22 17:57:58","新北市淡水區公埔子16-6號","121.480996666667","25.2245816666667","6501000","淡水區"
"241016","265-UM","2018/11/22 17:57:48","新北市三重區重陽路二段2號","121.486683333333","25.061545","6500200","三重區"
"241024","462-BY","2018/11/22 17:57:53","新北市三重區大勇街82巷24號","121.479533333333","25.07207","6500200","三重區"
"235064","005-UY","2018/11/22 17:57:39","新北市中和區員山路36巷16-3號","121.48508","24.991235","6500300","中和區"
"235063","006-UY","2018/11/22 17:57:44","新北市中和區員山路36巷16-3號","121.485051666667","24.991315","6500300","中和區"
"235065","098-UM","2018/11/22 17:57:50","新北市中和區橋和路150號","121.493846666667","25.00615","6500300","中和區"
"235058","151-BY","2018/11/22 17:57:48","新北市中和區錦和路356號","121.490683333333","24.99134","6500300","中和區"
"235038","185-VK","2018/11/22 17:57:55","新北市中和區中正路305號","121.492705","24.99386","6500300","中和區"
"247012","KEA-2869","2018/11/22 17:57:49","新北市蘆洲區民族路165號","121.479271666667","25.0883366666667","6501400","蘆洲區"
"235054","640-BX","2018/11/22 17:57:45","新北市中和區員山路36巷16-3號","121.484961666667","24.9918216666667","6500300","中和區"
"235057","801-TS","2018/11/22 17:57:42","新北市中和區員山路36巷16-3號","121.485066666667","24.9913316666667","6500300","中和區"
"235051","157-BY","2018/11/22 17:57:56","新北市中和區和城路一段271巷1號","121.485491666667","24.9919483333333","6500300","中和區"
"235037","AAC-213","2018/11/22 17:57:49","新北市中和區中正路637巷52弄1號","121.485575","24.993545","6500300","中和區"
"220069","AAD-861","2018/11/22 17:49:32","新北市板橋區華東街1-10號","121.448248333333","24.9951033333333","6500100","板橋區"
"247002","893-R6","2018/11/22 17:57:44","新北市蘆洲區永平街32巷57弄12號","121.459396666667","25.0930766666667","6501400","蘆洲區"
"247016","546-UM","2018/11/22 17:57:52","新北市蘆洲區中正路185巷78弄21號","121.465485","25.08508","6501400","蘆洲區"
"247024","500-BY","2018/11/22 17:57:48","新北市蘆洲區光復路41巷29號","121.462453333333","25.08567","6501400","蘆洲區"
"247014","339-TH","2018/11/22 17:57:42","新北市蘆洲區三民路105號","121.4728","25.0857916666667","6501400","蘆洲區"
"247006","337-TH","2018/11/22 17:57:47","新北市蘆洲區長榮路1號","121.463775","25.0818533333333","6501400","蘆洲區"
"247020","057-VK","2018/11/22 17:57:44","新北市蘆洲區民權路121巷15弄3號","121.471511666667","25.0892583333333","6501400","蘆洲區"
"247010","056-VK","2018/11/22 17:57:55","新北市蘆洲區信義路271巷5號","121.47862","25.08486","6501400","蘆洲區"
"247008","053-VK","2018/11/22 17:57:53","新北市蘆洲區中山一路197巷6弄21號","121.474095","25.08025","6501400","蘆洲區"
"247018","007-UY","2018/11/22 17:57:43","新北市蘆洲區復興路252號","121.479825","25.0896383333333","6501400","蘆洲區"
"226004","312-R5","2018/11/22 17:57:54","新北市平溪區石底里公園街18-3號","121.733335","25.0257283333333","6502400","平溪區"
"228003","097-TW","2018/11/22 17:57:52","新北市貢寮區真理里美艷山街6-2號","121.92887","25.0607283333333","6502600","貢寮區"
"228001","212-TW","2018/11/22 17:57:45","新北市貢寮區真理里新港街26巷31號","121.92943","25.0545933333333","6502600","貢寮區"
"228002","585-TW","2018/11/22 17:57:42","新北市貢寮區福隆里桂安街15號","121.962883333333","25.020905","6502600","貢寮區"
"224006","676-BX","2018/11/22 17:57:50","新北市瑞芳區大寮路356-1號","121.784858333333","25.1031983333333","6501200","瑞芳區"
"224008","285-BY","2018/11/22 17:57:49","新北市瑞芳區明燈路一段131號","121.820091666667","25.1070666666667","6501200","瑞芳區"
"224009","273-VK","2018/11/22 17:57:41","新北市瑞芳區山尖路49號","121.852385","25.115165","6501200","瑞芳區"
"224005","271-BY","2018/11/22 17:57:48","新北市瑞芳區深澳路67-1號","121.818485","25.1299883333333","6501200","瑞芳區"
"227010","642-TC","2018/11/22 17:31:48","新北市雙溪區三貂里政光路3-1號","121.850795","25.06334","6502500","雙溪區"
"253006","032-BX","2018/11/22 17:57:46","新北市石門區大丘田45-2號","121.549775","25.27486","6502200","石門區"
"208002","KEA-2872","2018/11/22 17:57:46","新北市金山區三界壇路2號","121.628276666667","25.2277283333333","6502700","金山區"
"208003","665-BX","2018/11/22 17:57:45","新北市金山區磺港里磺港路306號","121.643885","25.22716","6502700","金山區"
"208001","761-BX","2018/11/22 17:57:50","新北市金山區磺港里社寮16-1號","121.638603333333","25.2264016666667","6502700","金山區"
"251009","008-UM","2018/11/22 17:57:44","新北市淡水區大仁街8號","121.442373333333","25.1746366666667","6501000","淡水區"
"251005","010-UM","2018/11/22 17:57:45","新北市淡水區水源街一段129號","121.446835","25.17201","6501000","淡水區"
"251001","011-UM","2018/11/22 17:57:55","新北市淡水區民權路94巷1號","121.463058333333","25.1251166666667","6501000","淡水區"
"251013","KEA-2871","2018/11/22 17:57:40","新北市淡水區泉洲厝31號","121.479555","25.1910266666667","6501000","淡水區"
"251016","179-VK","2018/11/22 17:57:55","新北市淡水區埤島34-1號","121.448925","25.1975833333333","6501000","淡水區"
"251008","181-VK","2018/11/22 17:57:42","新北市淡水區八勢一街32巷1號","121.461873333333","25.155705","6501000","淡水區"
"251015","182-VK","2018/11/22 17:57:53","新北市淡水區興福寮32-3號","121.490171666667","25.1626783333333","6501000","淡水區"
"251010","413-VK","2018/11/22 17:57:45","新北市淡水區中正路一段87巷7號","121.41977","25.1783133333333","6501000","淡水區"
"251012","441-VK","2018/11/22 17:57:56","新北市淡水區北新路三段38巷7號","121.484545","25.1869866666667","6501000","淡水區"
"251004","443-VK","2018/11/22 17:57:32","新北市淡水區民權路185-10號","121.45926","25.1337866666667","6501000","淡水區"
"251006","561-UM","2018/11/22 17:57:55","新北市淡水區新生街20-5號","121.438846666667","25.1738233333333","6501000","淡水區"
"251011","650-BX","2018/11/22 17:57:56","新北市淡水區坪頂路506號","121.479921666667","25.1600866666667","6501000","淡水區"
"251002","672-BX","2018/11/22 17:57:41","新北市淡水區鼻頭街18-1號","121.446851666667","25.166665","6501000","淡水區"
"251003","766-UM","2018/11/22 17:57:44","新北市淡水區大忠街90號","121.44486","25.1763133333333","6501000","淡水區"
"207003","550-UM","2018/11/22 17:57:44","新北市萬里區港東路野柳風景區攤販66號","121.691326666667","25.2058366666667","6502800","萬里區"
"207004","225-TW","2018/11/22 17:57:41","新北市萬里區中幅里中福路48號","121.683436666667","25.1741616666667","6502800","萬里區"
"252002","178-VK","2018/11/22 17:57:48","新北市三芝區中山路二段29號","121.502785","25.2553283333333","6502100","三芝區"
"252001","292-VK","2018/11/22 17:57:39","新北市三芝區中興街一段45號","121.497923333333","25.2574783333333","6502100","三芝區"
"237004","KEA-2597","2018/11/22 17:57:48","新北市三峽區中正路二段249-1號","121.365918333333","24.9122916666667","6500900","三峽區"
"237007","153-BY","2018/11/22 17:57:52","新北市三峽區中園街106-6號","121.366685","24.923315","6500900","三峽區"
"237009","210-TH","2018/11/22 17:57:52","新北市三峽區中山路106巷3號","121.366043333333","24.93598","6500900","三峽區"
"237013","252-BX","2018/11/22 17:57:52","新北市三峽區介壽路一段232號","121.378473333333","24.9304916666667","6500900","三峽區"
"237012","275-BY","2018/11/22 17:57:48","新北市三峽區民生街19巷3號","121.376183333333","24.93622","6500900","三峽區"
"237008","302-VK","2018/11/22 17:57:41","新北市三峽區白雞30-3號","121.369738333333","24.91231","6500900","三峽區"
"237014","433-BY","2018/11/22 17:57:55","新北市三峽區復興路101巷1弄79號","121.370945","24.9376683333333","6500900","三峽區"
"237006","5529-G3","2018/11/22 17:57:50","新北市三峽區介壽路二段136巷83-2號","121.39311","24.93138","6500900","三峽區"
"237011","KEA-2596","2018/11/22 17:57:56","新北市三峽區中正路一段53號","121.375478333333","24.9303183333333","6500900","三峽區"
"237016","649-BX","2018/11/22 17:57:57","新北市三峽區紫微路87號","121.404266666667","24.90969","6500900","三峽區"
"237005","AKY-6261","2018/11/22 17:57:40","新北市三峽區復興路177巷7號","121.36995","24.93802","6500900","三峽區"
"236070","105-UM","2018/11/22 17:57:48","新北市土城區青雲路643號","121.461038333333","24.96765","6501300","土城區"
"236042","KED-0685","2018/11/22 17:57:50","新北市土城區城林路6巷80號","121.438493333333","24.979725","6501300","土城區"
"236078","166-UM","2018/11/22 17:57:53","新北市土城區永寧路32巷10弄25號","121.428811666667","24.9610733333333","6501300","土城區"
"236030","253-BX","2018/11/22 17:57:38","新北市土城區城林路6巷80號","121.438683333333","24.9796383333333","6501300","土城區"
"236026","269-VK","2018/11/22 17:57:44","新北市土城區中華路二段80號","121.438718333333","24.975725","6501300","土城區"
"236014","270-VK","2018/11/22 17:57:50","新北市土城區城林路6巷80號","121.438498333333","24.979625","6501300","土城區"
"236038","271-VK","2018/11/22 17:57:50","新北市土城區城林路6巷80號","121.438476666667","24.979735","6501300","土城區"
"236021","401-BY","2018/11/22 17:57:41","新北市土城區城林路6巷80號","121.438596666667","24.9796716666667","6501300","土城區"
"236059","912-UM","2018/11/22 17:57:37","新北市土城區中央路三段208號","121.429578333333","24.96463","6501300","土城區"
"236049","913-UM","2018/11/22 17:57:45","新北市土城區中正路65號","121.44452","24.975605","6501300","土城區"
"236063","915-UM","2018/11/22 17:57:54","新北市土城區城林路6巷80號","121.438523333333","24.9795983333333","6501300","土城區"
"236055","AAC-216","2018/11/22 17:57:49","新北市土城區城林路6巷80號","121.438571666667","24.9796033333333","6501300","土城區"
"242036","AAC-296","2018/11/22 17:57:49","新北市新莊區建福路38號","121.42641","25.0282216666667","6500500","新莊區"
"242058","986-R7","2018/11/22 17:57:53","新北市新莊區雙鳳路170號","121.4125","25.026935","6500500","新莊區"
"242056","751-BX","2018/11/22 17:57:53","新北市新莊區豐年街57-1號","121.446571666667","25.02977","6500500","新莊區"
"242029","705-TV","2018/11/22 17:57:56","新北市新莊區中平路88號","121.44484","25.0451316666667","6500500","新莊區"
"242027","615-BX","2018/11/22 17:57:53","新北市新莊區中原路1號","121.459643333333","25.054525","6500500","新莊區"
"242025","613-BX","2018/11/22 17:57:46","新北市新莊區五工路52號","121.45933","25.0625416666667","6500500","新莊區"
"242044","566-BX","2018/11/22 17:57:57","新北市新莊區雙鳳路80號","121.41504","25.02772","6500500","新莊區"
"242048","497-BY","2018/11/22 17:57:49","新北市新莊區萬安街59號","121.421483333333","25.0242433333333","6500500","新莊區"
"242053","441-UM","2018/11/22 17:57:54","新北市新莊區光華街52號","121.42855","25.0117816666667","6500500","新莊區"
"242002","440-UM","2018/11/22 17:57:39","新北市新莊區中正路153-2號","121.455963333333","25.036805","6500500","新莊區"
"242039","415-TV","2018/11/22 17:57:56","新北市新莊區民安路138號","121.42421","25.0253283333333","6500500","新莊區"
"242009","413-TV","2018/11/22 17:57:54","新北市新莊區中華路二段262號","121.452413333333","25.053385","6500500","新莊區"
"242046","400-BY","2018/11/22 17:57:54","新北市新莊區福營路165巷51號","121.433063333333","25.0298716666667","6500500","新莊區"
"242023","362-BY","2018/11/22 17:57:39","新北市新莊區福壽街63號","121.458188333333","25.04925","6500500","新莊區"
"242061","353-BY","2018/11/22 17:57:51","新北市新莊區新樹路525號","121.432763333333","25.0101716666667","6500500","新莊區"
"242011","132-UY","2018/11/22 17:57:48","新北市新莊區富貴路406號","121.45011","25.0570683333333","6500500","新莊區"
"242034","135-UY","2018/11/22 17:57:54","新北市新莊區中正路421巷7號","121.444613333333","25.0339","6500500","新莊區"
"242013","173-VK","2018/11/22 17:57:41","新北市新莊區中和街67號","121.44748","25.0473283333333","6500500","新莊區"
"242019","175-VK","2018/11/22 17:57:48","新北市新莊區明中街20號","121.457405","25.0393383333333","6500500","新莊區"
"242007","176-VK","2018/11/22 17:57:38","新北市新莊區自信街51號","121.454758333333","25.0482683333333","6500500","新莊區"
"242031","348-TH","2018/11/22 17:57:46","新北市新莊區新泰路311號","121.445251666667","25.04123","6500500","新莊區"
"242004","349-TH","2018/11/22 17:57:41","新北市新莊區福樂街71巷25號","121.456933333333","25.0470783333333","6500500","新莊區"
"242021","350-TH","2018/11/22 17:57:46","新北市新莊區建興街33號","121.450076666667","25.0364716666667","6500500","新莊區"
"242015","351-TH","2018/11/22 17:57:55","新北市新莊區中平路119巷16號","121.444083333333","25.046695","6500500","新莊區"
"238015","755-BX","2018/11/22 17:57:54","新北市樹林區啟智街34號","121.420751666667","24.9932416666667","6500700","樹林區"
"238023","601-UM","2018/11/22 17:57:41","新北市樹林區龍興街59巷4號","121.40369","25.01529","6500700","樹林區"
"238019","599-UM","2018/11/22 17:57:58","新北市樹林區八德街225號","121.421696666667","24.97955","6500700","樹林區"
"238018","571-TV","2018/11/22 17:57:45","新北市樹林區樹新路108號","121.429883333333","24.99785","6500700","樹林區"
"238022","KEA-2213","2018/11/22 17:57:38","新北市樹林區太平路150巷14號","121.417853333333","24.977705","6500700","樹林區"
"238021","KEA-2539","2018/11/22 17:57:42","新北市樹林區柑園街一段33巷12號","121.40443","24.9584833333333","6500700","樹林區"
"238025","303-VK","2018/11/22 17:57:49","新北市樹林區三俊街87號","121.416433333333","25.015385","6500700","樹林區"
"238017","283-BY","2018/11/22 17:57:47","新北市樹林區中正路767號","121.410266666667","25.0155916666667","6500700","樹林區"
"238014","282-BY","2018/11/22 17:57:44","新北市樹林區大安路125巷17號","121.422986666667","24.9969583333333","6500700","樹林區"
"238026","172-UY","2018/11/22 17:57:56","新北市樹林區中洲街30巷13弄41號","121.398231666667","24.9724183333333","6500700","樹林區"
"238016","169-UY","2018/11/22 17:53:32","新北市樹林區太平路56巷31號","121.418183333333","24.9816666666667","6500700","樹林區"
"239007","AAC-297","2018/11/22 17:57:44","新北市鶯歌區鶯桃路94巷59弄2-1號","121.341751666667","24.9553233333333","6500800","鶯歌區"
"239006","891-R6","2018/11/22 17:57:43","新北市鶯歌區鶯桃路413巷34弄20號","121.330873333333","24.9639316666667","6500800","鶯歌區"
"239008","527-UM","2018/11/22 17:57:55","新北市鶯歌區香賓街3巷2號","121.336198333333","24.978505","6500800","鶯歌區"
"239005","526-UM","2018/11/22 17:57:47","新北市鶯歌區鶯桃路668巷74-8號","121.330883333333","24.9719466666667","6500800","鶯歌區"
"239001","417-VK","2018/11/22 17:57:46","新北市鶯歌區中正三路373-1號","121.327201666667","24.9344816666667","6500800","鶯歌區"
"239003","360-BY","2018/11/22 17:57:47","新北市鶯歌區永吉街45號","121.335501666667","24.95708","6500800","鶯歌區"
"239002","359-BY","2018/11/22 17:57:53","新北市鶯歌區國華路71-1號","121.342903333333","24.9544533333333","6500800","鶯歌區"
"239004","193-VK","2018/11/22 17:57:43","新北市鶯歌區文化路117巷60號","121.358573333333","24.9548783333333","6500800","鶯歌區"
"221008","489-VK","2018/11/22 17:57:57","新北市汐止區明峰街16-1號","121.634878333333","25.0715","6501100","汐止區"
"221036","130-UY","2018/11/22 17:57:49","新北市汐止區大同路三段153號","121.669765","25.0775633333333","6501100","汐止區"
"221015","131-UY","2018/11/22 17:57:54","新北市汐止區長江街271號","121.664573333333","25.0805733333333","6501100","汐止區"
"221010","269-BY","2018/11/22 17:57:55","新北市汐止區汐萬路二段245巷38號","121.644258333333","25.0879733333333","6501100","汐止區"
"221012","278-VK","2018/11/22 17:57:55","新北市汐止區保一街8巷8號","121.673418333333","25.08135","6501100","汐止區"
"221032","280-BY","2018/11/22 17:57:50","新北市汐止區橫科路73巷2-1號","121.619381666667","25.0507683333333","6501100","汐止區"
"221027","281-BY","2018/11/22 17:57:46","新北市汐止區大同路二段374號","121.657813333333","25.0671366666667","6501100","汐止區"
"221029","298-VK","2018/11/22 17:57:39","新北市汐止區康寧街901號","121.650898333333","25.07516","6501100","汐止區"
"221021","299-VK","2018/11/22 17:57:57","新北市汐止區復興路23號","121.656098333333","25.0652266666667","6501100","汐止區"
"221035","622-UM","2018/11/22 17:57:41","新北市汐止區汐萬路一段115巷50號","121.653085","25.0701833333333","6501100","汐止區"
"221025","623-UM","2018/11/22 17:57:41","新北市汐止區仁愛路13號","121.659145","25.0639816666667","6501100","汐止區"
"221038","646-BX","2018/11/22 17:57:46","新北市汐止區連興街128巷7弄1號","121.653603333333","25.06155","6501100","汐止區"
"221033","647-BX","2018/11/22 17:57:51","新北市汐止區合順街37號","121.620655","25.0432183333333","6501100","汐止區"
"221002","707-TV","2018/11/22 17:57:53","新北市汐止區工建路100號","121.63951","25.0638566666667","6501100","汐止區"
"221018","753-BX","2018/11/22 17:57:51","新北市汐止區忠孝東路348號","121.665553333333","25.0697583333333","6501100","汐止區"
"224002","257-TC","2018/11/22 17:57:42","新北市瑞芳區三爪子坑路151號","121.81056","25.10623","6501200","瑞芳區"
"242042","281-VK","2018/11/22 17:57:35","新北市新莊區中正路640號","121.421868333333","25.028685","6500500","新莊區"
"242017","280-VK","2018/11/22 17:57:40","新北市新莊區中港路339巷42號","121.450413333333","25.0450783333333","6500500","新莊區"
"235061","KEA-2875","2018/11/22 17:57:47","新北市中和區員山路36巷16-2號","121.48531","24.99176","6500300","中和區"
