"lineid","car","time","location","longitude","latitude","cityid","cityname"
"234007","207-UY","2018/11/22 18:17:54","新北市永和區保順路11號","121.504703333333","25.0093966666667","6500400","永和區"
"234042","862-TW","2018/11/22 18:17:48","新北市永和區福和路1號","121.526308333333","25.0096833333333","6500400","永和區"
"234026","9371-KE","2018/11/22 18:17:56","新北市永和區豫溪街28巷15號","121.515181666667","25.0092433333333","6500400","永和區"
"234011","9373-KE","2018/11/22 18:17:47","新北市永和區環河東路二段90號","121.524365","25.0106133333333","6500400","永和區"
"249005","172-UM","2018/11/22 18:17:42","新北市八里區荖阡坑路15-40號","121.401693333333","25.13999","6502300","八里區"
"249001","173-UM","2018/11/22 18:17:38","新北市八里區龍米路一段133號","121.452145","25.1267733333333","6502300","八里區"
"249004","303-UY","2018/11/22 18:17:55","新北市八里區龍米路二段203-9號","121.432418333333","25.158375","6502300","八里區"
"249003","593-UM","2018/11/22 18:17:40","新北市八里區松子腳3-2號","121.403015","25.14431","6502300","八里區"
"248014","025-BX","2018/11/22 18:17:52","新北市五股區成泰路一段169號","121.435085","25.0745433333333","6501500","五股區"
"248016","026-BX","2018/11/22 18:17:39","新北市五股區成泰路三段477巷18號","121.449911666667","25.09888","6501500","五股區"
"248006","077-UY","2018/11/22 18:17:49","新北市五股區中興路一段169號","121.464745","25.073775","6501500","五股區"
"248008","095-VK","2018/11/22 18:17:53","新北市五股區更洲路32巷8弄14號","121.459245","25.0796366666667","6501500","五股區"
"248020","225-UY","2018/11/22 18:17:40","新北市五股區孝義路47巷1號","121.453981666667","25.1103433333333","6501500","五股區"
"248012","247-BX","2018/11/22 18:17:54","新北市五股區御史路9號","121.441793333333","25.090485","6501500","五股區"
"248004","677-BX","2018/11/22 18:17:50","新北市五股區成泰路二段142號","121.438208333333","25.0838083333333","6501500","五股區"
"248002","678-BX","2018/11/22 18:17:48","新北市五股區西雲路46號","121.443495","25.0909166666667","6501500","五股區"
"248010","682-TV","2018/11/22 18:17:56","新北市五股區成泰路一段189巷8號","121.434561666667","25.0765983333333","6501500","五股區"
"232011","375-UM","2018/11/22 18:16:07","新北市坪林區坪雙路一段43號","121.711688333333","24.942435","6502000","坪林區"
"244023","069-UM","2018/11/22 18:17:56","新北市林口區仁愛路二段113號","121.383825","25.0749766666667","6501700","林口區"
"244007","080-UY","2018/11/22 18:17:50","新北市林口區竹林路462號","121.387733333333","25.08485","6501700","林口區"
"244019","403-UM","2018/11/22 18:17:39","新北市林口區忠孝路604巷18號","121.37658","25.06725","6501700","林口區"
"244013","KEA-2802","2018/11/22 18:17:43","新北市林口區中山路206號","121.387361666667","25.0792616666667","6501700","林口區"
"244017","485-VK","2018/11/22 18:17:55","新北市林口區公園路1號","121.366276666667","25.0660283333333","6501700","林口區"
"244009","656-BX","2018/11/22 18:17:39","新北市林口區民生路62號","121.376848333333","25.0868133333333","6501700","林口區"
"244011","701-TV","2018/11/22 18:17:37","新北市林口區中正路74巷5弄1號","121.394583333333","25.07798","6501700","林口區"
"244025","837-TS","2018/11/22 18:17:40","新北市林口區文化北路一段149-1號","121.356931666667","25.0698816666667","6501700","林口區"
"244021","838-TS","2018/11/22 18:17:42","新北市林口區自強一街36號","121.398975","25.0777683333333","6501700","林口區"
"243013","AAD-798","2018/11/22 18:17:54","新北市泰山區錢厝坑13號","121.416466666667","25.0364733333333","6501600","泰山區"
"222003","436-BY","2018/11/22 18:17:38","新北市深坑區旺耽路67號","121.626275","25.0030066666667","6501800","深坑區"
"222002","659-BX","2018/11/22 18:17:43","新北市深坑區文化街8號","121.62045","25.0013383333333","6501800","深坑區"
"231041","002-UM","2018/11/22 18:17:47","新北市新店區安華路28-1號","121.519815","24.9608266666667","6500600","新店區"
"231059","046-UY","2018/11/22 18:17:55","新北市新店區安華路28-1號","121.519585","24.9607766666667","6500600","新店區"
"231040","047-UY","2018/11/22 18:17:53","新北市新店區安華路28-1號","121.519145","24.960865","6500600","新店區"
"231044","106-UY","2018/11/22 18:17:43","新北市新店區安華路28-1號","121.519641666667","24.9609283333333","6500600","新店區"
"231046","107-UY","2018/11/22 18:17:57","新北市新店區直潭七街60號","121.532261666667","24.9397466666667","6500600","新店區"
"231052","108-UY","2018/11/22 18:17:48","新北市新店區安康路一段355-10號","121.520243333333","24.9638083333333","6500600","新店區"
"231062","110-UY","2018/11/22 18:17:53","新北市新店區安一路一段1-1號","121.519026666667","24.9613983333333","6500600","新店區"
"231047","187-VK","2018/11/22 18:17:49","新北市新店區安一路一段1-1號","121.519528333333","24.9611866666667","6500600","新店區"
"231054","KEA-2219","2018/11/22 18:17:48","新北市新店區安一路一段1-1號","121.519678333333","24.96129","6500600","新店區"
"231057","256-BX","2018/11/22 18:17:55","新北市新店區安一路一段1-1號","121.519636666667","24.9611133333333","6500600","新店區"
"231042","268-BY","2018/11/22 18:17:45","新北市新店區安華路28-1號","121.519415","24.960525","6500600","新店區"
"231050","AAD-862","2018/11/22 18:17:53","新北市新店區安一路一段1-1號","121.519986666667","24.9612","6500600","新店區"
"231058","3713-VJ","2018/11/22 18:17:53","新北市新店區安一路一段1-1號","121.519765","24.9617633333333","6500600","新店區"
"231066","4716-K9","2018/11/22 18:17:38","新北市新店區安一路一段1-1號","121.519253333333","24.961305","6500600","新店區"
"231056","4715-K9","2018/11/22 18:17:40","新北市新店區環河路18號","121.537101666667","24.961555","6500600","新店區"
"231065","512-UM","2018/11/22 18:17:47","新北市新店區安一路一段1-1號","121.519426666667","24.9612466666667","6500600","新店區"
"231049","513-UM","2018/11/22 18:17:43","新北市新店區安一路一段1-1號","121.51963","24.9611716666667","6500600","新店區"
"231063","616-UM","2018/11/22 18:17:51","新北市新店區安華路1-1號","121.519471666667","24.9604983333333","6500600","新店區"
"231045","617-UM","2018/11/22 18:04:54","新北市新店區安華路28-1號","121.519521666667","24.9608183333333","6500600","新店區"
"231061","619-UM","2018/11/22 18:17:38","新北市新店區安華路28-1號","121.519751666667","24.9608033333333","6500600","新店區"
"231060","897-TW","2018/11/22 18:17:41","新北市新店區安華路28-1號","121.51967","24.9607883333333","6500600","新店區"
"231043","899-TW","2018/11/22 18:17:52","新北市新店區安華路28-1號","121.519205","24.9608833333333","6500600","新店區"
"231055","AKT-0513","2018/11/22 18:17:55","新北市新店區安康路一段152號","121.526308333333","24.9629283333333","6500600","新店區"
"251014","742-BX","2018/11/22 18:17:50","新北市淡水區崙頂14號","121.491468333333","25.2216366666667","6501000","淡水區"
"235066","003-UY","2018/11/22 18:17:57","新北市中和區中山路二段120號","121.502841666667","25.0037433333333","6500300","中和區"
"235064","005-UY","2018/11/22 18:17:39","新北市中和區中正路158號","121.498573333333","24.993855","6500300","中和區"
"235063","006-UY","2018/11/22 18:17:44","新北市中和區中正路573號","121.486493333333","24.9943833333333","6500300","中和區"
"235056","096-UM","2018/11/22 18:17:36","新北市中和區中正路748號","121.485543333333","24.998515","6500300","中和區"
"235039","097-UM","2018/11/22 18:17:43","新北市中和區景平路357號","121.504668333333","24.9933466666667","6500300","中和區"
"235065","098-UM","2018/11/22 18:17:50","新北市中和區莊敬路49巷18號","121.501645","25.0061233333333","6500300","中和區"
"235058","151-BY","2018/11/22 18:17:48","新北市中和區圓通路391-4號","121.489816666667","24.9892516666667","6500300","中和區"
"235055","183-VK","2018/11/22 18:17:52","新北市中和區員山路72-2號","121.481146666667","24.9935483333333","6500300","中和區"
"235038","185-VK","2018/11/22 18:17:55","新北市中和區大智街42巷28號","121.522653333333","24.99201","6500300","中和區"
"235049","186-VK","2018/11/22 18:17:54","新北市中和區員山路36巷13號","121.484141666667","24.9910783333333","6500300","中和區"
"235072","301-VK","2018/11/22 18:17:43","新北市中和區錦和路166號","121.48985","24.9958666666667","6500300","中和區"
"235043","352-BY","2018/11/22 18:17:56","新北市中和區景平路379號","121.504085","24.9933783333333","6500300","中和區"
"235042","KEA-2878","2018/11/22 18:17:43","新北市中和區景平路159巷1號","121.512648333333","24.9920916666667","6500300","中和區"
"247012","KEA-2869","2018/11/22 18:17:49","新北市五股區四維路185巷1號","121.468138333333","25.0761183333333","6501400","蘆洲區"
"235050","4979-A6","2018/11/22 18:17:38","新北市中和區中正路45號","121.50206","24.99351","6500300","中和區"
"235069","4980-A6","2018/11/22 18:17:50","新北市中和區中正路589巷11號","121.485876666667","24.9939","6500300","中和區"
"235070","558-UM","2018/11/22 18:17:45","新北市中和區圓通路132號","121.498496666667","24.9957933333333","6500300","中和區"
"235045","565-BX","2018/11/22 18:17:42","新北市中和區景安路200巷1弄2號","121.50382","24.9914566666667","6500300","中和區"
"235054","640-BX","2018/11/22 18:17:45","新北市中和區莒光路185號","121.472696666667","24.9989966666667","6500300","中和區"
"235060","647-TV","2018/11/22 18:17:48","新北市中和區連城路372-2號","121.481635","24.9952883333333","6500300","中和區"
"235047","732-UM","2018/11/22 18:17:48","新北市中和區復興路10號","121.505975","24.9897466666667","6500300","中和區"
"235046","733-UM","2018/11/22 18:17:41","新北市中和區中正路637巷60弄61號","121.48559","24.9932716666667","6500300","中和區"
"235062","800-TS","2018/11/22 18:17:55","新北市中和區景平路999巷2號","121.495396666667","25.0061683333333","6500300","中和區"
"235057","801-TS","2018/11/22 18:17:42","新北市中和區民享街97巷19號","121.475406666667","24.9995383333333","6500300","中和區"
"235041","802-TS","2018/11/22 18:17:52","新北市中和區和城路一段271巷1號","121.485398333333","24.9917333333333","6500300","中和區"
"235052","805-TS","2018/11/22 18:17:50","新北市中和區南山路521號","121.507985","24.987355","6500300","中和區"
"235048","896-TW","2018/11/22 18:17:52","新北市中和區中正路637巷52弄1號","121.485541666667","24.99351","6500300","中和區"
"235053","900-TW","2018/11/22 18:17:51","新北市中和區員山路36巷16-8號","121.485398333333","24.99224","6500300","中和區"
"235051","157-BY","2018/11/22 18:17:56","新北市中和區興南路一段55-2號","121.510671666667","24.99007","6500300","中和區"
"235037","AAC-213","2018/11/22 18:17:49","新北市中和區景平路91號","121.517663333333","24.9916233333333","6500300","中和區"
"220065","072-UY","2018/11/22 18:17:47","新北市板橋區南雅南路二段144巷92號","121.450103333333","24.99571","6500100","板橋區"
"220069","AAD-861","2018/11/22 17:49:32","新北市板橋區華東街1-10號","121.448248333333","24.9951033333333","6500100","板橋區"
"226004","312-R5","2018/11/22 18:17:14","新北市平溪區靜安路二段3巷37號","121.70448","25.0189066666667","6502400","平溪區"
"228003","097-TW","2018/11/22 18:17:52","新北市貢寮區真理里美艷山街29-1號","121.923373333333","25.0689833333333","6502600","貢寮區"
"228001","212-TW","2018/11/22 18:17:45","新北市貢寮區真理里新港街26巷55弄2-1號","121.927375","25.05285","6502600","貢寮區"
"228002","585-TW","2018/11/22 18:17:42","新北市貢寮區福連里馬崗街2-2號","122.000961666667","25.0143416666667","6502600","貢寮區"
"224006","676-BX","2018/11/22 18:17:50","新北市瑞芳區三爪子坑路106巷1-2號","121.808035","25.1048333333333","6501200","瑞芳區"
"224008","285-BY","2018/11/22 18:17:49","新北市瑞芳區逢甲路38號","121.811368333333","25.108405","6501200","瑞芳區"
"224009","273-VK","2018/11/22 18:17:41","新北市瑞芳區新山路43號","121.855965","25.108355","6501200","瑞芳區"
"224005","271-BY","2018/11/22 18:17:48","新北市瑞芳區建基新村1號","121.813078333333","25.1296283333333","6501200","瑞芳區"
"227010","642-TC","2018/11/22 18:17:50","新北市雙溪區牡丹里牡丹73號","121.85172","25.05933","6502500","雙溪區"
"253006","032-BX","2018/11/22 18:17:46","新北市石門區老梅路99號","121.5468","25.2892116666667","6502200","石門區"
"253005","295-VK","2018/11/22 18:17:49","新北市石門區中央路42號","121.567951666667","25.2928316666667","6502200","石門區"
"222001","KEA-2212","2018/11/22 18:17:48","新北市深坑區北深路二段51-1號","121.619235","25.0041483333333","6501800","深坑區"
"208002","KEA-2872","2018/11/22 18:17:38","新北市金山區清泉里清水路60巷18號","121.633833333333","25.2340583333333","6502700","金山區"
"208003","665-BX","2018/11/22 18:17:56","新北市金山區民生路196號","121.645836666667","25.2217983333333","6502700","金山區"
"208001","761-BX","2018/11/22 18:17:50","新北市金山區中山路16號","121.641676666667","25.2180216666667","6502700","金山區"
"251005","010-UM","2018/11/22 18:17:45","新北市淡水區水源街一段122巷37號","121.447141666667","25.1705833333333","6501000","淡水區"
"251001","011-UM","2018/11/22 18:17:55","新北市淡水區自強路110-8號","121.461626666667","25.131365","6501000","淡水區"
"251013","KEA-2871","2018/11/22 18:17:40","新北市淡水區行忠路592號","121.468958333333","25.19926","6501000","淡水區"
"251016","179-VK","2018/11/22 18:17:55","新北市淡水區淡金路三段70巷1號","121.44825","25.20033","6501000","淡水區"
"251008","181-VK","2018/11/22 18:17:42","新北市淡水區淡金路一段102號","121.457688333333","25.17473","6501000","淡水區"
"251015","182-VK","2018/11/22 18:17:53","新北市淡水區興福寮88巷1號","121.485308333333","25.164885","6501000","淡水區"
"251010","413-VK","2018/11/22 18:17:44","新北市淡水區淡海路196號","121.420288333333","25.1854433333333","6501000","淡水區"
"251012","441-VK","2018/11/22 18:17:56","新北市淡水區北新路二段77-5號","121.480585","25.1855366666667","6501000","淡水區"
"251004","443-VK","2018/11/22 18:17:48","新北市淡水區民族路134號","121.462938333333","25.1345616666667","6501000","淡水區"
"251006","561-UM","2018/11/22 18:17:55","新北市淡水區新民街76巷36弄1號","121.43948","25.1780033333333","6501000","淡水區"
"251011","650-BX","2018/11/22 18:17:47","新北市淡水區坪頂路82號","121.46185","25.163655","6501000","淡水區"
"251002","672-BX","2018/11/22 18:17:41","新北市淡水區中正東路一段89號","121.45308","25.1615466666667","6501000","淡水區"
"251003","766-UM","2018/11/22 18:17:44","新北市淡水區北新路180號","121.449451666667","25.1786916666667","6501000","淡水區"
"207003","550-UM","2018/11/22 18:17:44","新北市萬里區野柳里港東路6號","121.686396666667","25.2031516666667","6502800","萬里區"
"207004","225-TW","2018/11/22 18:17:41","新北市萬里區中幅里中福路215號","121.671906666667","25.1652466666667","6502800","萬里區"
"252002","178-VK","2018/11/22 18:17:48","新北市三芝區中山路二段39號","121.50294","25.2551166666667","6502100","三芝區"
"252003","249-BX","2018/11/22 18:17:33","新北市三芝區古庄里四棧橋39號","121.48234","25.26377","6502100","三芝區"
"252001","292-VK","2018/11/22 18:17:39","新北市三芝區中興街二段2號","121.498418333333","25.25663","6502100","三芝區"
"237004","KEA-2597","2018/11/22 18:17:48","新北市三峽區五寮12號","121.375566666667","24.8709266666667","6500900","三峽區"
"237007","153-BY","2018/11/22 18:17:52","新北市三峽區中正路二段562號","121.359821666667","24.90613","6500900","三峽區"
"237009","210-TH","2018/11/22 18:17:52","新北市三峽區中山路106巷28號","121.36623","24.9370566666667","6500900","三峽區"
"237013","252-BX","2018/11/22 18:17:42","新北市三峽區長泰街9號","121.378748333333","24.9310033333333","6500900","三峽區"
"237012","275-BY","2018/11/22 18:17:48","新北市三峽區民生街1巷5-17號","121.378778333333","24.9359416666667","6500900","三峽區"
"237008","302-VK","2018/11/22 18:17:41","新北市三峽區白雞68-349號","121.392666666667","24.908835","6500900","三峽區"
"237014","433-BY","2018/11/22 18:17:55","新北市三峽區復興路110巷1弄21號","121.372241666667","24.9383233333333","6500900","三峽區"
"237006","5529-G3","2018/11/22 18:17:50","新北市三峽區溪東路178巷13弄13號","121.406173333333","24.9322433333333","6500900","三峽區"
"237011","KEA-2596","2018/11/22 18:17:36","新北市三峽區溪東路155號","121.40307","24.9340566666667","6500900","三峽區"
"237016","649-BX","2018/11/22 18:17:57","新北市三峽區紫微路42-1號","121.422386666667","24.9201816666667","6500900","三峽區"
"237005","AKY-6261","2018/11/22 18:17:52","新北市三峽區秀川街82號","121.370671666667","24.933495","6500900","三峽區"
"236070","105-UM","2018/11/22 18:17:48","新北市土城區永豐路169-2號","121.467631666667","24.9803933333333","6501300","土城區"
"236042","KED-0685","2018/11/22 18:17:50","新北市土城區裕生路21巷1弄2號","121.448683333333","24.98721","6501300","土城區"
"236078","166-UM","2018/11/22 18:17:53","新北市土城區永平街9號","121.427875","24.9629683333333","6501300","土城區"
"236030","253-BX","2018/11/22 18:17:38","新北市土城區中央路二段180巷15號","121.441026666667","24.9765766666667","6501300","土城區"
"236026","269-VK","2018/11/22 18:17:44","新北市土城區承天路43巷2號","121.438935","24.964055","6501300","土城區"
"236014","270-VK","2018/11/22 18:17:50","新北市土城區青雲路39巷7號","121.460305","24.9874133333333","6501300","土城區"
"236038","271-VK","2018/11/22 18:17:50","新北市土城區青雲路451巷6號","121.459608333333","24.974665","6501300","土城區"
"236021","401-BY","2018/11/22 18:17:41","新北市土城區明德路一段369-2號","121.453266666667","24.9793516666667","6501300","土城區"
"236059","912-UM","2018/11/22 18:17:44","新北市土城區中央路四段440號","121.410686666667","24.9514633333333","6501300","土城區"
"236049","913-UM","2018/11/22 18:17:55","新北市土城區明德路一段365-1號","121.453996666667","24.9786483333333","6501300","土城區"
"236063","915-UM","2018/11/22 18:17:54","新北市土城區金城路三段243號","121.471543333333","24.9897683333333","6501300","土城區"
"236055","AAC-216","2018/11/22 18:17:49","新北市土城區中華路二段92號","121.438273333333","24.9746966666667","6501300","土城區"
"242058","986-R7","2018/11/22 18:17:56","新北市新莊區新北大道七段788號","121.413115","25.0245233333333","6500500","新莊區"
"242056","751-BX","2018/11/22 18:17:53","新北市新莊區豐年街66號","121.446435","25.0315066666667","6500500","新莊區"
"242029","705-TV","2018/11/22 18:17:56","新北市新莊區新泰路500號","121.441985","25.04657","6500500","新莊區"
"242027","615-BX","2018/11/22 18:17:53","新北市新莊區中華路二段126號","121.452913333333","25.04924","6500500","新莊區"
"242025","613-BX","2018/11/22 18:17:46","新北市新莊區五工三路94巷8號","121.458555","25.06591","6500500","新莊區"
"242044","566-BX","2018/11/22 18:17:48","新北市新莊區鳳山街56巷35號","121.413606666667","25.026635","6500500","新莊區"
"242053","441-UM","2018/11/22 18:17:52","新北市樹林區樹新路213號","121.430973333333","25.0001833333333","6500500","新莊區"
"242002","440-UM","2018/11/22 18:17:39","新北市新莊區碧江街27號","121.45345","25.0336116666667","6500500","新莊區"
"242039","415-TV","2018/11/22 18:17:56","新北市新莊區民安東路37號","121.42884","25.0209133333333","6500500","新莊區"
"242009","413-TV","2018/11/22 18:17:41","新北市新莊區自立街62號","121.453951666667","25.0454016666667","6500500","新莊區"
"242046","400-BY","2018/11/22 18:17:53","新北市新莊區福營路336號","121.42167","25.0267533333333","6500500","新莊區"
"242061","353-BY","2018/11/22 18:17:47","新北市新莊區新樹路69-34號","121.43818","25.0288233333333","6500500","新莊區"
"242011","132-UY","2018/11/22 18:17:57","新北市新莊區中榮街16號","121.450716666667","25.05281","6500500","新莊區"
"242034","135-UY","2018/11/22 18:17:54","新北市新莊區景德路209號","121.449375","25.03374","6500500","新莊區"
"242031","348-TH","2018/11/22 18:17:40","新北市新莊區新泰路255巷41號","121.444536666667","25.03961","6500500","新莊區"
"242004","349-TH","2018/11/22 18:17:55","新北市新莊區新泰路357巷1弄1號","121.442855","25.041245","6500500","新莊區"
"242021","350-TH","2018/11/22 18:17:46","新北市新莊區中正路170號","121.450786666667","25.0359216666667","6500500","新莊區"
"242015","351-TH","2018/11/22 18:17:56","新北市新莊區中平路198巷17號","121.445953333333","25.0484116666667","6500500","新莊區"
"238015","755-BX","2018/11/22 18:17:55","新北市樹林區樹德街136巷41號","121.420136666667","24.9944266666667","6500700","樹林區"
"238023","601-UM","2018/11/22 18:17:41","新北市樹林區忠義街25號","121.40959","25.0145966666667","6500700","樹林區"
"238019","599-UM","2018/11/22 18:17:38","新北市樹林區國凱街136巷6號","121.423408333333","24.9800716666667","6500700","樹林區"
"238018","571-TV","2018/11/22 18:17:45","新北市樹林區樹新路34巷7號","121.428135","24.9943533333333","6500700","樹林區"
"238024","5061-A6","2018/11/22 18:17:54","新北市樹林區立仁街1號","121.422338333333","24.9885666666667","6500700","樹林區"
"238025","303-VK","2018/11/22 18:17:49","新北市樹林區保安街一段75號","121.42281","24.9950933333333","6500700","樹林區"
"238017","283-BY","2018/11/22 18:17:47","新北市樹林區保安街二段333巷2號","121.412451666667","25.0076333333333","6500700","樹林區"
"238014","282-BY","2018/11/22 18:17:44","新北市樹林區大安路159號","121.42143","24.9968066666667","6500700","樹林區"
"238026","172-UY","2018/11/22 18:17:56","新北市樹林區佳園路一段81號","121.393463333333","24.96975","6500700","樹林區"
"238016","169-UY","2018/11/22 18:17:53","新北市樹林區中山路二段34號","121.417266666667","24.9849033333333","6500700","樹林區"
"239007","AAC-297","2018/11/22 18:17:43","新北市鶯歌區尖山埔路72號","121.348325","24.95104","6500800","鶯歌區"
"239006","891-R6","2018/11/22 18:17:43","新北市鶯歌區德昌街140巷53號","121.332436666667","24.9617383333333","6500800","鶯歌區"
"239008","527-UM","2018/11/22 18:17:54","新北市鶯歌區朝陽路五柳巷2號","121.3368","24.9770766666667","6500800","鶯歌區"
"239005","526-UM","2018/11/22 18:17:49","新北市鶯歌區鶯桃路668巷74號","121.329686666667","24.971365","6500800","鶯歌區"
"239001","417-VK","2018/11/22 18:17:46","新北市鶯歌區高職東街13號","121.339736666667","24.9418216666667","6500800","鶯歌區"
"239003","360-BY","2018/11/22 18:17:47","新北市鶯歌區福安街58號","121.3356","24.9651816666667","6500800","鶯歌區"
"239002","359-BY","2018/11/22 18:17:53","新北市鶯歌區光明街206號","121.34293","24.955905","6500800","鶯歌區"
"221008","489-VK","2018/11/22 18:17:57","新北市汐止區康寧街706-1號","121.638346666667","25.0729066666667","6501100","汐止區"
"221036","130-UY","2018/11/22 18:17:49","新北市汐止區長興街一段47號","121.670145","25.0791333333333","6501100","汐止區"
"221015","131-UY","2018/11/22 18:17:54","新北市汐止區鄉長路二段40巷1號","121.66719","25.0836983333333","6501100","汐止區"
"221010","269-BY","2018/11/22 18:17:35","新北市汐止區祥雲街18巷11號","121.646785","25.0895916666667","6501100","汐止區"
"221012","278-VK","2018/11/22 18:17:35","新北市汐止區保長路35巷15弄5號","121.673028333333","25.08029","6501100","汐止區"
"221032","280-BY","2018/11/22 18:17:49","新北市汐止區民權街二段109巷30號","121.619963333333","25.0463916666667","6501100","汐止區"
"221027","281-BY","2018/11/22 18:17:46","新北市汐止區和平街6巷8-1號","121.663626666667","25.07172","6501100","汐止區"
"221029","298-VK","2018/11/22 18:17:59","新北市汐止區康寧街861巷1號","121.645483333333","25.0759116666667","6501100","汐止區"
"221021","299-VK","2018/11/22 18:17:37","新北市汐止區龍安路202巷49號","121.65262","25.064035","6501100","汐止區"
"221031","353-TW","2018/11/22 18:17:45","新北市汐止區中興路96巷1-3號","121.63523","25.062535","6501100","汐止區"
"221035","622-UM","2018/11/22 18:17:41","新北市汐止區大同路二段189號","121.652175","25.0645916666667","6501100","汐止區"
"221025","623-UM","2018/11/22 18:17:41","新北市汐止區勤進路12巷15號","121.659351666667","25.0620166666667","6501100","汐止區"
"221038","646-BX","2018/11/22 18:17:45","新北市汐止區仁愛路320號","121.664725","25.0675983333333","6501100","汐止區"
"221033","647-BX","2018/11/22 18:17:51","新北市汐止區宜興街50巷2號","121.622453333333","25.042315","6501100","汐止區"
"221002","707-TV","2018/11/22 18:17:53","新北市汐止區福德一路213巷35號","121.635801666667","25.0648","6501100","汐止區"
"221018","753-BX","2018/11/22 18:17:51","新北市汐止區茄苳路123號","121.667448333333","25.0704683333333","6501100","汐止區"
"224002","257-TC","2018/11/22 18:17:42","新北市瑞芳區三爪子坑路109號","121.810733333333","25.10713","6501200","瑞芳區"
"220064","282-UM","2018/11/22 18:17:57","新北市板橋區華東街1-10號","121.448376666667","24.9949866666667","6500100","板橋區"
"242042","281-VK","2018/11/22 18:17:55","新北市新莊區天祥街121巷19號","121.414196666667","25.0289783333333","6500500","新莊區"
"220054","741-BX","2018/11/22 18:17:51","新北市板橋區華東街1-9號","121.44808","24.9949016666667","6500100","板橋區"
"220073","985-R7","2018/11/22 18:17:49","新北市板橋區華東街1-10號","121.448283333333","24.9949783333333","6500100","板橋區"
"235061","KEA-2875","2018/11/22 18:17:47","新北市中和區國光街215巷57號","121.467536666667","24.999895","6500300","中和區"
