"lineid","car","time","location","longitude","latitude","cityid","cityname"
"234046","148-BY","2018/11/22 19:27:49","新北市永和區秀朗路二段175號","121.525701666667","25.0015716666667","6500400","永和區"
"234007","207-UY","2018/11/22 19:27:54","新北市永和區中山路一段31號","121.513235","25.0105466666667","6500400","永和區"
"234081","298-R6","2018/11/22 19:27:51","新北市永和區林森路10巷27號","121.525933333333","25.0061966666667","6500400","永和區"
"234038","336-UY","2018/11/22 19:27:46","新北市永和區成功路二段1巷4號","121.527183333333","25.0014183333333","6500400","永和區"
"234064","337-UY","2018/11/22 19:27:48","新北市永和區永元路17巷25弄7號","121.520916666667","25.0016566666667","6500400","永和區"
"234086","338-UY","2018/11/22 19:27:43","新北市永和區永利路91-1號","121.52154","25.0032166666667","6500400","永和區"
"234070","552-UM","2018/11/22 19:27:53","新北市永和區警光街16號","121.519593333333","25.0095","6500400","永和區"
"234017","745-BX","2018/11/22 19:27:48","新北市永和區環河西路一段87號","121.512308333333","25.0178783333333","6500400","永和區"
"234030","746-BX","2018/11/22 19:27:56","新北市永和區四維街80號","121.523326666667","24.9983716666667","6500400","永和區"
"234054","KEA-2590","2018/11/22 19:28:00","新北市永和區復興街19巷7號","121.51607","25.0131183333333","6500400","永和區"
"234013","KEA-2591","2018/11/22 19:27:57","新北市永和區中山路一段207號","121.508805","25.008605","6500400","永和區"
"234061","AAD-866","2018/11/22 19:27:55","新北市永和區中正路568號","121.517131666667","25.00619","6500400","永和區"
"234042","862-TW","2018/11/22 19:27:48","新北市永和區水源街39巷30號","121.510805","25.0031066666667","6500400","永和區"
"234050","863-TW","2018/11/22 19:27:54","新北市永和區信義路122號","121.512471666667","25.0147433333333","6500400","永和區"
"234026","9371-KE","2018/11/22 19:27:55","新北市中和區宜安路2號","121.513755","24.9955633333333","6500400","永和區"
"234011","9373-KE","2018/11/22 19:27:47","新北市永和區保福路二段62-1號","121.510835","25.0124266666667","6500400","永和區"
"249003","593-UM","2018/11/22 19:27:56","新北市八里區商港路52巷1弄2號","121.395478333333","25.148295","6502300","八里區"
"248014","025-BX","2018/11/22 19:27:46","新北市五股區民義路一段183巷5號","121.430785","25.0871816666667","6501500","五股區"
"248016","026-BX","2018/11/22 19:27:59","新北市五股區凌雲路一段46號","121.451776666667","25.1007716666667","6501500","五股區"
"248008","095-VK","2018/11/22 19:27:53","新北市五股區中興路一段97號","121.46666","25.07292","6501500","五股區"
"248020","225-UY","2018/11/22 19:27:40","新北市五股區凌雲路三段94-2號","121.426658333333","25.1216933333333","6501500","五股區"
"248012","247-BX","2018/11/22 19:27:43","新北市五股區中興路四段48巷16號","121.438631666667","25.0834383333333","6501500","五股區"
"248004","677-BX","2018/11/22 19:27:55","新北市五股區五福路21號","121.434033333333","25.0890433333333","6501500","五股區"
"248002","678-BX","2018/11/22 19:27:48","新北市五股區凌雲路一段158巷6號","121.447755","25.1030366666667","6501500","五股區"
"248010","682-TV","2018/11/22 19:27:40","新北市五股區水碓一路23號","121.430635","25.071255","6501500","五股區"
"234023","9380-KE","2018/11/22 19:27:46","新北市永和區竹林路91巷43弄2號","121.521275","25.0127816666667","6500400","永和區"
"234077","969-R7","2018/11/22 19:27:46","新北市永和區民權路56號","121.520015","24.998215","6500400","永和區"
"234074","AAC-211","2018/11/22 19:27:49","新北市永和區竹林路9號","121.516543333333","25.0149383333333","6500400","永和區"
"234067","AAC-212","2018/11/22 19:27:48","新北市永和區永貞路360巷5號","121.510525","25.00693","6500400","永和區"
"234003","AAC-295","2018/11/22 19:27:54","新北市永和區永和路一段204號","121.514336666667","25.0093033333333","6500400","永和區"
"244023","069-UM","2018/11/22 19:27:56","新北市林口區民有街68號","121.372911666667","25.07712","6501700","林口區"
"243013","AAD-798","2018/11/22 19:27:41","新北市泰山區明志路三段123巷1弄6號","121.425698333333","25.040825","6501600","泰山區"
"243009","297-R6","2018/11/22 19:27:56","新北市泰山區半山雅2號","121.431713333333","25.06741","6501600","泰山區"
"243016","KEA-2801","2018/11/22 19:27:59","新北市泰山區明志路三段191號","121.424246666667","25.0388683333333","6501600","泰山區"
"243015","421-VK","2018/11/22 19:27:41","新北市泰山區民權街50號","121.428735","25.0506466666667","6501600","泰山區"
"243011","KEA-2215","2018/11/22 19:27:55","新北市泰山區貴子路120號","121.42828","25.0406483333333","6501600","泰山區"
"243010","KEA-2216","2018/11/22 19:27:40","新北市泰山區民權街41號","121.429175","25.0508666666667","6501600","泰山區"
"243012","646-TV","2018/11/22 19:27:56","新北市泰山區仁愛路130號","121.434038333333","25.0557866666667","6501600","泰山區"
"243014","680-BX","2018/11/22 19:27:59","新北市泰山區仁愛路36-3號","121.43149","25.05443","6501600","泰山區"
"222003","436-BY","2018/11/22 19:27:38","新北市深坑區深南路88巷1號","121.620956666667","25.01175","6501800","深坑區"
"222002","659-BX","2018/11/22 19:27:41","新北市深坑區北深路一段177號","121.632591666667","25.0108066666667","6501800","深坑區"
"231041","002-UM","2018/11/22 19:27:47","新北市新店區中正路613號","121.53387","24.988695","6500600","新店區"
"231059","046-UY","2018/11/22 19:27:55","新北市新店區安和路三段22-4號","121.517948333333","24.9815883333333","6500600","新店區"
"231040","047-UY","2018/11/22 19:27:53","新北市新店區北新路一段229號","121.540645","24.9654866666667","6500600","新店區"
"231044","106-UY","2018/11/22 19:27:43","新北市新店區中興路三段173號","121.544221666667","24.98073","6500600","新店區"
"231046","107-UY","2018/11/22 19:27:57","新北市新店區環河路66號","121.537013333333","24.9629883333333","6500600","新店區"
"231052","108-UY","2018/11/22 19:27:48","新北市新店區新烏路二段301-3號","121.54934","24.9116966666667","6500600","新店區"
"231062","110-UY","2018/11/22 19:27:53","新北市新店區莒光路12號","121.527076666667","24.960905","6500600","新店區"
"231047","187-VK","2018/11/22 19:27:51","新北市新店區五峰路97號","121.545821666667","24.9672583333333","6500600","新店區"
"231054","KEA-2219","2018/11/22 19:27:48","新北市新店區文中路40號","121.539745","24.956455","6500600","新店區"
"231057","256-BX","2018/11/22 19:27:52","新北市新店區花園一路二段17號","121.550815","24.93322","6500600","新店區"
"231042","268-BY","2018/11/22 19:27:45","新北市新店區北宜路一段3號","121.538421666667","24.9584016666667","6500600","新店區"
"231051","278-BY","2018/11/22 19:27:40","新北市新店區中央五街86號","121.526265","24.97614","6500600","新店區"
"231050","AAD-862","2018/11/22 19:27:52","新北市新店區竹林路157-1號","121.556473333333","24.9478166666667","6500600","新店區"
"231058","3713-VJ","2018/11/22 19:27:53","新北市新店區北新路二段228巷13號","121.543436666667","24.9771633333333","6500600","新店區"
"231066","4716-K9","2018/11/22 19:27:58","新北市新店區安康路三段359巷10弄2號","121.484311666667","24.9503733333333","6500600","新店區"
"231065","512-UM","2018/11/22 19:27:47","新北市新店區安祥路109巷3弄6號","121.475333333333","24.959525","6500600","新店區"
"231049","513-UM","2018/11/22 19:27:43","新北市新店區北新路三段95巷12號","121.54075","24.9818283333333","6500600","新店區"
"231063","616-UM","2018/11/22 19:27:51","新北市新店區達觀路16號","121.503158333333","24.9406583333333","6500600","新店區"
"231045","617-UM","2018/11/22 19:27:56","新北市新店區北宜路二段209號","121.553178333333","24.9533033333333","6500600","新店區"
"231061","619-UM","2018/11/22 19:27:58","新北市新店區安康路一段235-1號","121.525123333333","24.9632316666667","6500600","新店區"
"231064","720-UM","2018/11/22 19:27:43","新北市新店區安忠路57巷9弄2號","121.513508333333","24.95826","6500600","新店區"
"231060","897-TW","2018/11/22 19:27:40","新北市新店區安康路二段51-1號","121.514906666667","24.96362","6500600","新店區"
"231043","899-TW","2018/11/22 19:27:52","新北市新店區北新路二段226號","121.542893333333","24.97729","6500600","新店區"
"241028","022-UY","2018/11/22 19:27:45","新北市三重區中寮街70號","121.493053333333","25.0582916666667","6500200","三重區"
"241008","059-VK","2018/11/22 19:27:51","新北市三重區永福街135巷32弄7號","121.477048333333","25.0771083333333","6500200","三重區"
"241022","060-VK","2018/11/22 19:27:59","新北市三重區三民街157巷1號","121.483913333333","25.064545","6500200","三重區"
"241031","061-VK","2018/11/22 19:27:52","新北市三重區集美街43號","121.488188333333","25.0553783333333","6500200","三重區"
"241017","063-VK","2018/11/22 19:27:56","新北市三重區長壽西街182號","121.492826666667","25.066305","6500200","三重區"
"241026","066-VK","2018/11/22 19:27:50","新北市三重區文化南路47巷35號","121.499338333333","25.06118","6500200","三重區"
"241003","091-VK","2018/11/22 19:27:40","新北市三重區五華街141巷58號","121.49357","25.0867583333333","6500200","三重區"
"251014","742-BX","2018/11/22 19:27:58","新北市淡水區小中寮19-7號","121.484758333333","25.229575","6501000","淡水區"
"241009","267-UM","2018/11/22 19:27:59","新北市三重區溪尾街242巷47號","121.486443333333","25.0815566666667","6500200","三重區"
"241032","269-UM","2018/11/22 19:27:39","新北市三重區三陽路25號","121.485551666667","25.058805","6500200","三重區"
"241025","271-UM","2018/11/22 19:27:53","新北市三重區頂崁街210巷23弄13號","121.476113333333","25.0686316666667","6500200","三重區"
"241007","398-BY","2018/11/22 19:27:44","新北市三重區溪尾街154號","121.488926666667","25.0800083333333","6500200","三重區"
"241035","462-BY","2018/11/22 19:27:40","新北市三重區信義西街1號","121.498176666667","25.0648133333333","6500200","三重區"
"241030","480-VK","2018/11/22 19:27:44","新北市三重區成功路41巷22號","121.49046","25.0518816666667","6500200","三重區"
"241006","AAD-863","2018/11/22 19:27:38","新北市三重區三和路四段97-1號","121.487575","25.07615","6500200","三重區"
"241020","743-BX","2018/11/22 19:27:54","新北市三重區三和路四段44巷4號","121.490198333333","25.0743316666667","6500200","三重區"
"241029","942-UM","2018/11/22 19:27:44","新北市三重區環河南路220-8號","121.493375","25.052665","6500200","三重區"
"235066","003-UY","2018/11/22 19:27:57","新北市中和區景新街32號","121.50325","24.9992683333333","6500300","中和區"
"235064","005-UY","2018/11/22 19:27:39","新北市中和區南山路131-1號","121.502235","24.996635","6500300","中和區"
"235063","006-UY","2018/11/22 19:27:50","新北市中和區連城路219巷10號","121.494661666667","24.9970833333333","6500300","中和區"
"235056","096-UM","2018/11/22 19:27:56","新北市中和區民富街46號","121.476741666667","25.0069216666667","6500300","中和區"
"235039","097-UM","2018/11/22 19:27:43","新北市中和區秀峰街103巷7弄1號","121.520221666667","24.9895383333333","6500300","中和區"
"235065","098-UM","2018/11/22 19:27:50","新北市中和區中山路二段2巷7弄2號","121.504155","25.0065883333333","6500300","中和區"
"235058","151-BY","2018/11/22 19:27:48","新北市中和區連城路348號","121.482361666667","24.995505","6500300","中和區"
"235055","183-VK","2018/11/22 19:27:52","新北市中和區莒光路120巷58號","121.471656666667","25.0007716666667","6500300","中和區"
"235038","185-VK","2018/11/22 19:27:54","新北市中和區立人街33-3號","121.520958333333","24.9940833333333","6500300","中和區"
"235049","186-VK","2018/11/22 19:27:54","新北市中和區景新街273巷32號","121.51079","24.99416","6500300","中和區"
"235067","255-BX","2018/11/22 19:27:46","新北市中和區中正路673號","121.485136666667","24.9968666666667","6500300","中和區"
"235044","293-VK","2018/11/22 19:27:57","新北市中和區景安路209號","121.504593333333","24.991835","6500300","中和區"
"235072","301-VK","2018/11/22 19:27:43","新北市中和區連城路263巷4弄10號","121.491691666667","24.9953683333333","6500300","中和區"
"235043","352-BY","2018/11/22 19:27:56","新北市中和區南華路89號","121.505636666667","24.99734","6500300","中和區"
"235042","KEA-2878","2018/11/22 19:27:43","新北市中和區中安街192號","121.511381666667","24.9993133333333","6500300","中和區"
"235050","4979-A6","2018/11/22 19:27:38","新北市中和區中正路406號","121.492521666667","24.99422","6500300","中和區"
"235070","558-UM","2018/11/22 19:27:45","新北市中和區景平路624-1號","121.500436666667","24.99769","6500300","中和區"
"235045","565-BX","2018/11/22 19:27:42","新北市中和區景新街399巷3號","121.512795","24.9898366666667","6500300","中和區"
"235054","640-BX","2018/11/22 19:27:45","新北市中和區國光街102巷11弄22號","121.470721666667","25.0014383333333","6500300","中和區"
"235060","647-TV","2018/11/22 19:27:48","新北市中和區新生街52號","121.483166666667","25.0030183333333","6500300","中和區"
"235047","732-UM","2018/11/22 19:27:48","新北市中和區景平路259巷18號","121.507748333333","24.9926866666667","6500300","中和區"
"235046","733-UM","2018/11/22 19:27:57","新北市中和區忠孝街37巷2號","121.511095","24.9837","6500300","中和區"
"235071","783-BX","2018/11/22 19:27:46","新北市中和區中正路637巷3號","121.484841666667","24.9953883333333","6500300","中和區"
"235057","801-TS","2018/11/22 19:27:42","新北市中和區員山路374號","121.480706666667","25.0041283333333","6500300","中和區"
"235041","802-TS","2018/11/22 19:27:51","新北市中和區中和路350巷6-1號","121.510635","25.0004916666667","6500300","中和區"
"235052","805-TS","2018/11/22 19:27:50","新北市中和區華新街143巷65弄2號","121.506723333333","24.97893","6500300","中和區"
"235048","896-TW","2018/11/22 19:27:52","新北市中和區忠孝街129號","121.512766666667","24.9880466666667","6500300","中和區"
"235053","900-TW","2018/11/22 19:27:51","新北市中和區華順街55號","121.466506666667","24.99854","6500300","中和區"
"235051","157-BY","2018/11/22 19:27:56","新北市中和區景新街107號","121.505601666667","24.9976916666667","6500300","中和區"
"235037","AAC-213","2018/11/22 19:27:49","新北市中和區秀朗路三段10巷14弄54號","121.524011666667","24.9965016666667","6500300","中和區"
"235059","AAC-215","2018/11/22 19:27:53","新北市中和區圓通路252巷36弄1號","121.492396666667","24.993085","6500300","中和區"
"220068","013-TV","2018/11/22 19:27:46","新北市板橋區林森街1巷30號","121.48276","25.0243016666667","6500100","板橋區"
"220065","072-UY","2018/11/22 19:27:49","新北市板橋區國泰街75巷28弄33-1號","121.467711666667","25.004525","6500100","板橋區"
"220086","073-UY","2018/11/22 19:27:51","新北市板橋區中正路236巷34號","121.456953333333","25.01919","6500100","板橋區"
"220106","075-UY","2018/11/22 19:27:45","新北市板橋區江寧路三段83-2號","121.472591666667","25.032535","6500100","板橋區"
"220069","AAD-861","2018/11/22 19:27:46","新北市板橋區稚暉街46巷1號","121.456475","25.004265","6500100","板橋區"
"247004","002-UY","2018/11/22 19:27:53","新北市蘆洲區長安街164號","121.45937","25.0830083333333","6501400","蘆洲區"
"226004","312-R5","2018/11/22 19:27:54","新北市平溪區十分里十分街132-1號","121.777291666667","25.0432366666667","6502400","平溪區"
"228003","097-TW","2018/11/22 19:27:52","新北市貢寮區和美里和美街22-1號","121.912813333333","25.08262","6502600","貢寮區"
"228001","212-TW","2018/11/22 19:27:45","新北市貢寮區真理里大澳街60號","121.925411666667","25.0571833333333","6502600","貢寮區"
"228002","585-TW","2018/11/22 19:27:42","新北市貢寮區龍門里龍門街2-1號","121.93262","25.0253883333333","6502600","貢寮區"
"224010","AGQ-8101","2018/11/22 19:27:55","新北市瑞芳區基山街171號","121.843288333333","25.1080866666667","6501200","瑞芳區"
"227010","642-TC","2018/11/22 19:27:50","新北市雙溪區新基里新基北街43號","121.868236666667","25.03969","6502500","雙溪區"
"227004","400-TW","2018/11/22 19:27:41","新北市雙溪區雙溪里光復街18號","121.86515","25.0353933333333","6502500","雙溪區"
"253006","032-BX","2018/11/22 19:27:46","新北市石門區楓林23-10號","121.538745","25.2911433333333","6502200","石門區"
"253005","295-VK","2018/11/22 19:27:44","新北市石門區小坑9號","121.594391666667","25.2883783333333","6502200","石門區"
"222001","KEA-2212","2018/11/22 19:27:48","新北市深坑區深坑街10號","121.615951666667","25.0028466666667","6501800","深坑區"
"208002","KEA-2872","2018/11/22 19:27:38","新北市金山區仁愛路78巷2號","121.634646666667","25.2215433333333","6502700","金山區"
"208003","665-BX","2018/11/22 19:27:44","新北市金山區中山路263巷10號","121.636351666667","25.2216583333333","6502700","金山區"
"208001","761-BX","2018/11/22 19:27:50","新北市金山區中正路143-1號","121.632105","25.2214633333333","6502700","金山區"
"251009","008-UM","2018/11/22 19:27:42","新北市淡水區中山路46號","121.444178333333","25.17008","6501000","淡水區"
"251005","010-UM","2018/11/22 19:27:45","新北市淡水區水源街一段71巷18號","121.444383333333","25.17294","6501000","淡水區"
"251001","011-UM","2018/11/22 19:27:55","新北市淡水區民權路185-1號","121.459446666667","25.13436","6501000","淡水區"
"251013","KEA-2871","2018/11/22 19:27:40","新北市淡水區安子內16號","121.478668333333","25.2188183333333","6501000","淡水區"
"251016","179-VK","2018/11/22 19:27:41","新北市淡水區下圭柔山119-51號","121.450758333333","25.2084666666667","6501000","淡水區"
"251008","181-VK","2018/11/22 19:27:40","新北市淡水區中正路二段28號","121.419841666667","25.1816333333333","6501000","淡水區"
"251015","182-VK","2018/11/22 19:27:53","新北市淡水區山子頂24-1號","121.491388333333","25.1871933333333","6501000","淡水區"
"251010","413-VK","2018/11/22 19:27:44","新北市淡水區淡海路220號","121.42022","25.1857933333333","6501000","淡水區"
"251012","441-VK","2018/11/22 19:27:56","新北市淡水區下圭柔山91-4號","121.428915","25.207915","6501000","淡水區"
"251006","561-UM","2018/11/22 19:27:55","新北市淡水區大義街51號","121.441441666667","25.178085","6501000","淡水區"
"251007","577-R6","2018/11/22 19:25:39","新北市淡水區民生路117巷52弄1號","121.464788333333","25.1402283333333","6501000","淡水區"
"251003","766-UM","2018/11/22 19:27:44","新北市淡水區中山北路三段71號","121.444461666667","25.19176","6501000","淡水區"
"207003","550-UM","2018/11/22 19:27:44","新北市萬里區大鵬里萬里加投132-5號","121.645181666667","25.213755","6502800","萬里區"
"207004","225-TW","2018/11/22 19:27:41","新北市萬里區萬里里瑪鋉路59號","121.688016666667","25.17616","6502800","萬里區"
"252002","178-VK","2018/11/22 19:27:48","新北市三芝區淡金路二段17號","121.502653333333","25.25945","6502100","三芝區"
"252001","292-VK","2018/11/22 19:27:59","新北市三芝區長勤街39號","121.500705","25.255465","6502100","三芝區"
"237004","KEA-2597","2018/11/22 19:27:48","新北市三峽區有木206號","121.439085","24.8515666666667","6500900","三峽區"
"237007","153-BY","2018/11/22 19:27:52","新北市三峽區二鬮路136巷20弄101號","121.358316666667","24.9087133333333","6500900","三峽區"
"237009","210-TH","2018/11/22 19:27:52","新北市三峽區民生街257號","121.370525","24.93479","6500900","三峽區"
"237013","252-BX","2018/11/22 19:27:42","新北市三峽區介壽路一段251號","121.379531666667","24.9301866666667","6500900","三峽區"
"237012","275-BY","2018/11/22 19:27:48","新北市三峽區三樹路60號","121.377736666667","24.9382383333333","6500900","三峽區"
"237008","302-VK","2018/11/22 19:27:41","新北市三峽區大同路154號","121.373106666667","24.9268083333333","6500900","三峽區"
"237014","433-BY","2018/11/22 19:27:55","新北市三峽區中山路299巷13弄2號","121.36104","24.9369066666667","6500900","三峽區"
"237006","5529-G3","2018/11/22 19:27:49","新北市三峽區中正路一段336巷15弄2號","121.36995","24.9249633333333","6500900","三峽區"
"237011","KEA-2596","2018/11/22 19:27:56","新北市三峽區介壽路一段383-1號","121.387526666667","24.9338016666667","6500900","三峽區"
"237016","649-BX","2018/11/22 19:27:37","新北市三峽區安坑46-3號","121.455541666667","24.9320083333333","6500900","三峽區"
"237005","AKY-6261","2018/11/22 19:27:40","新北市三峽區復興路367巷1弄2號","121.363916666667","24.93816","6500900","三峽區"
"236070","105-UM","2018/11/22 19:27:48","新北市土城區裕民路185巷36弄10號","121.454355","24.984515","6501300","土城區"
"236042","KED-0685","2018/11/22 19:27:50","新北市土城區學府路一段239號","121.450433333333","24.9833633333333","6501300","土城區"
"236078","166-UM","2018/11/22 19:27:56","新北市土城區中州路3巷11弄11號","121.41407","24.956855","6501300","土城區"
"236030","253-BX","2018/11/22 19:27:38","新北市土城區福祥街22號","121.440953333333","24.9801366666667","6501300","土城區"
"236026","269-VK","2018/11/22 19:27:44","新北市土城區中央路二段61巷26號","121.443261666667","24.9786283333333","6501300","土城區"
"236014","270-VK","2018/11/22 19:27:50","新北市土城區廣福街92巷2號","121.45652","24.991295","6501300","土城區"
"236021","401-BY","2018/11/22 19:27:41","新北市土城區峰廷街8號","121.468673333333","24.9877633333333","6501300","土城區"
"236049","913-UM","2018/11/22 19:27:44","新北市土城區清水路140號","121.458678333333","24.9814733333333","6501300","土城區"
"242048","497-BY","2018/11/22 19:27:49","新北市新莊區後港一路3號","121.424111666667","25.0263533333333","6500500","新莊區"
"242023","362-BY","2018/11/22 19:27:44","新北市新莊區三和路12-21號","121.442355","25.03815","6500500","新莊區"
"242013","173-VK","2018/11/22 19:27:41","新北市新莊區新泰路255巷83號","121.442085","25.0388016666667","6500500","新莊區"
"242031","348-TH","2018/11/22 19:27:47","新北市新莊區新泰路225巷6號","121.445826666667","25.0391966666667","6500500","新莊區"
"238015","755-BX","2018/11/22 19:27:57","新北市樹林區啟智街127巷24號","121.419111666667","24.9897433333333","6500700","樹林區"
"238023","601-UM","2018/11/22 19:28:01","新北市樹林區三福街38號","121.408133333333","25.016525","6500700","樹林區"
"238019","599-UM","2018/11/22 19:27:49","新北市樹林區鎮前街345號","121.416561666667","24.98408","6500700","樹林區"
"238018","571-TV","2018/11/22 19:27:55","新北市樹林區中華路365號","121.414563333333","24.9802116666667","6500700","樹林區"
"238024","5061-A6","2018/11/22 19:27:43","新北市樹林區中山路三段125號","121.399008333333","24.974305","6500700","樹林區"
"238022","KEA-2213","2018/11/22 19:27:58","新北市樹林區名園街45號","121.419755","24.9786616666667","6500700","樹林區"
"238021","KEA-2539","2018/11/22 19:27:49","新北市樹林區學勤路450號","121.380728333333","24.9483533333333","6500700","樹林區"
"238025","303-VK","2018/11/22 19:27:49","新北市樹林區中山路一段112號","121.422861666667","24.9908433333333","6500700","樹林區"
"238017","283-BY","2018/11/22 19:27:47","新北市樹林區光興街186號","121.407645","25.0045816666667","6500700","樹林區"
"238014","282-BY","2018/11/22 19:27:44","新北市樹林區千歲街4號","121.424968333333","24.9956483333333","6500700","樹林區"
"238026","172-UY","2018/11/22 19:27:56","新北市樹林區寶園街8-2號","121.385568333333","24.9535983333333","6500700","樹林區"
"238016","169-UY","2018/11/22 19:27:53","新北市樹林區復興路418號","121.414276666667","24.9847216666667","6500700","樹林區"
"239007","AAC-297","2018/11/22 19:27:49","新北市鶯歌區大湖路85巷1號","121.342003333333","24.96251","6500800","鶯歌區"
"239006","891-R6","2018/11/22 19:27:43","新北市鶯歌區鶯桃路91巷20弄1號","121.338456666667","24.9528916666667","6500800","鶯歌區"
"239008","527-UM","2018/11/22 19:27:54","新北市鶯歌區大湖路468巷7弄2號","121.339606666667","24.972555","6500800","鶯歌區"
"239001","417-VK","2018/11/22 19:27:48","新北市鶯歌區建國路596巷48號","121.340511666667","24.9515933333333","6500800","鶯歌區"
"239003","360-BY","2018/11/22 19:27:46","新北市鶯歌區中正一路阿南巷501號","121.380168333333","24.96438","6500800","鶯歌區"
"239004","193-VK","2018/11/22 19:27:43","新北市鶯歌區中正三路335巷12號","121.32839","24.9350283333333","6500800","鶯歌區"
"221008","489-VK","2018/11/22 19:27:50","新北市汐止區康寧街243號","121.624733333333","25.0668316666667","6501100","汐止區"
"221036","130-UY","2018/11/22 19:27:49","新北市汐止區康寧街901號","121.651626666667","25.0750016666667","6501100","汐止區"
"221015","131-UY","2018/11/22 19:27:53","新北市汐止區康寧街901號","121.65164","25.074915","6501100","汐止區"
"221010","269-BY","2018/11/22 19:27:55","新北市汐止區汐萬路一段312號","121.650361666667","25.07546","6501100","汐止區"
"221012","278-VK","2018/11/22 19:27:55","新北市汐止區大同路三段271號","121.674651666667","25.07583","6501100","汐止區"
"221032","280-BY","2018/11/22 19:27:49","新北市汐止區大同路一段302巷42號","121.63756","25.0555783333333","6501100","汐止區"
"221027","281-BY","2018/11/22 19:27:46","新北市汐止區忠孝東路9號","121.65832","25.065895","6501100","汐止區"
"221029","298-VK","2018/11/22 19:27:59","新北市汐止區康寧街901號","121.651463333333","25.0749633333333","6501100","汐止區"
"221021","299-VK","2018/11/22 19:27:37","新北市汐止區康寧街901號","121.651433333333","25.07507","6501100","汐止區"
"221031","353-TW","2018/11/22 19:27:45","新北市汐止區樟樹二路339號","121.640085","25.0727966666667","6501100","汐止區"
"221038","646-BX","2018/11/22 19:27:45","新北市汐止區汐萬路一段10號","121.656155","25.067395","6501100","汐止區"
"221002","707-TV","2018/11/22 19:27:53","新北市汐止區大同路一段335號","121.638498333333","25.059385","6501100","汐止區"
"220079","145-BY","2018/11/22 19:27:48","新北市板橋區民權路308號","121.457063333333","25.0162333333333","6500100","板橋區"
"220080","200-UY","2018/11/22 19:27:59","新北市板橋區大觀路二段3巷97號","121.450441666667","25.003235","6500100","板橋區"
"220101","245-BX","2018/11/22 19:27:56","新北市板橋區縣民大道三段133巷8號","121.477515","25.023475","6500100","板橋區"
"220056","276-BY","2018/11/22 19:27:34","新北市板橋區國慶路39號","121.459075","24.9957033333333","6500100","板橋區"
"220072","277-BY","2018/11/22 19:27:58","新北市板橋區金門街230號","121.430658333333","24.9876716666667","6500100","板橋區"
"220064","282-UM","2018/11/22 19:27:57","新北市板橋區重慶路10號","121.460801666667","25.0080116666667","6500100","板橋區"
"220071","283-VK","2018/11/22 19:27:42","新北市板橋區四川路一段283巷2號","121.459738333333","25.0012566666667","6500100","板橋區"
"220094","285-UM","2018/11/22 19:27:57","新北市板橋區吳鳳路50巷7號","121.467891666667","25.0305183333333","6500100","板橋區"
"220053","285-VK","2018/11/22 19:27:53","新北市板橋區富山街22號","121.478233333333","25.0218366666667","6500100","板橋區"
"220083","286-VK","2018/11/22 19:27:44","新北市板橋區龍興街73巷17號","121.44308","25.0024","6500100","板橋區"
"220081","287-VK","2018/11/22 19:27:58","新北市板橋區南雅南路一段106號","121.455005","25.004355","6500100","板橋區"
"220090","288-VK","2018/11/22 19:27:52","新北市板橋區長江路一段106巷20弄12號","121.460046666667","25.028375","6500100","板橋區"
"220061","295-UM","2018/11/22 19:27:54","新北市板橋區中山路二段309巷12號","121.478556666667","25.01897","6500100","板橋區"
"220084","296-UM","2018/11/22 19:27:54","新北市板橋區篤行路三段玉平巷76弄2號","121.42797","24.9855366666667","6500100","板橋區"
"220075","303-R5","2018/11/22 19:27:59","新北市板橋區中正路253巷64號","121.453173333333","25.0173566666667","6500100","板橋區"
"220062","305-R5","2018/11/22 19:27:38","新北市板橋區三民路二段153巷4弄2號","121.479593333333","25.0145916666667","6500100","板橋區"
"220092","307-R5","2018/11/22 19:27:56","新北市板橋區松江街74號","121.468831666667","25.0278333333333","6500100","板橋區"
"220098","317-R6","2018/11/22 19:27:41","新北市板橋區四維路266巷2弄2-1號","121.463756666667","25.0286133333333","6500100","板橋區"
"220089","487-VK","2018/11/22 19:27:43","新北市板橋區文化路一段51號","121.460676666667","25.0134566666667","6500100","板橋區"
"220035","560-BX","2018/11/22 19:28:01","新北市板橋區中正路399巷11號","121.453491666667","25.02241","6500100","板橋區"
"220103","561-BX","2018/11/22 19:27:53","新北市板橋區介壽街3號","121.467155","25.0204016666667","6500100","板橋區"
"220063","609-BX","2018/11/22 19:27:39","新北市板橋區三民路一段5巷22-1號","121.480131666667","25.0234233333333","6500100","板橋區"
"220091","637-BX","2018/11/22 19:27:56","新北市板橋區文聖街149巷23弄16號","121.47923","25.0288766666667","6500100","板橋區"
"220057","686-BX","2018/11/22 19:27:43","新北市板橋區和平路61號","121.461121666667","24.9945883333333","6500100","板橋區"
"220077","687-BX","2018/11/22 19:27:57","新北市板橋區僑中二街112巷1號","121.445791666667","25.00689","6500100","板橋區"
"220093","689-BX","2018/11/22 19:27:55","新北市板橋區新海路97號","121.461445","25.02233","6500100","板橋區"
"220054","741-BX","2018/11/22 19:27:51","新北市板橋區光明街4號","121.459945","25.002415","6500100","板橋區"
"220070","806-UM","2018/11/22 19:27:59","新北市板橋區四川路一段107號","121.45973","25.0052383333333","6500100","板橋區"
"220055","827-TW","2018/11/22 19:27:55","新北市板橋區重慶路262號","121.462991666667","25.0005583333333","6500100","板橋區"
"220067","829-TW","2018/11/22 19:27:42","新北市板橋區漢生東路313巷2弄3號","121.472318333333","25.0082","6500100","板橋區"
"220102","830-TW","2018/11/22 19:27:58","新北市板橋區松柏街22巷45號","121.475071666667","25.0287166666667","6500100","板橋區"
"220096","831-TW","2018/11/22 19:27:58","新北市板橋區大同街12號","121.477176666667","25.02685","6500100","板橋區"
"220088","833-TW","2018/11/22 19:27:49","新北市板橋區雙十路二段223號","121.473046666667","25.0292683333333","6500100","板橋區"
"220074","895-R6","2018/11/22 19:27:39","新北市板橋區北門街58號","121.456605","25.011345","6500100","板橋區"
"220073","985-R7","2018/11/22 19:27:48","新北市板橋區瑞安街1號","121.454648333333","25.0233983333333","6500100","板橋區"
"220097","AAC-210","2018/11/22 19:27:48","新北市板橋區陽明街29巷40號","121.463306666667","25.022925","6500100","板橋區"
"220082","AAC-253","2018/11/22 19:27:40","新北市板橋區金門街31巷10號","121.433316666667","24.9936966666667","6500100","板橋區"
"235068","KEA-2873","2018/11/22 19:27:30","新北市中和區圓通路158巷3-1號","121.497683333333","24.996145","6500300","中和區"
"235061","KEA-2875","2018/11/22 19:27:47","新北市中和區員山路143巷21號","121.47988","24.99563","6500300","中和區"
