"lineid","car","time","location","longitude","latitude","cityid","cityname"
"234046","148-BY","2018/11/22 19:47:49","新北市永和區永利路326號","121.525183333333","25.00335","6500400","永和區"
"234007","207-UY","2018/11/22 19:47:54","新北市中和區南工路26號","121.505541666667","25.000825","6500400","永和區"
"234081","298-R6","2018/11/22 19:47:51","新北市永和區林森路52號","121.524561666667","25.0044533333333","6500400","永和區"
"234038","336-UY","2018/11/22 19:47:46","新北市永和區成功路二段113號","121.526705","24.9986916666667","6500400","永和區"
"234064","337-UY","2018/11/22 19:47:48","新北市永和區中正路295-1號","121.517518333333","25.0016916666667","6500400","永和區"
"234086","338-UY","2018/11/22 19:47:43","新北市永和區永亨路128號","121.524583333333","25.003985","6500400","永和區"
"234070","552-UM","2018/11/22 19:47:47","新北市永和區竹林路30號","121.517106666667","25.0147616666667","6500400","永和區"
"234017","745-BX","2018/11/22 19:47:48","新北市永和區永和路二段299號","121.516056666667","25.0161033333333","6500400","永和區"
"234030","746-BX","2018/11/22 19:47:56","新北市永和區民生路67巷28號","121.52415","24.9972733333333","6500400","永和區"
"234054","KEA-2590","2018/11/22 19:47:40","新北市永和區竹林路75巷25弄3號","121.520306666667","25.0142116666667","6500400","永和區"
"234013","KEA-2591","2018/11/22 19:47:38","新北市永和區永平路306號","121.50718","25.0124933333333","6500400","永和區"
"234061","AAD-866","2018/11/22 19:47:55","新北市永和區中正路226號","121.516018333333","24.99777","6500400","永和區"
"234042","862-TW","2018/11/22 19:47:48","新北市永和區中和路305巷20弄1號","121.50778","25.00194","6500400","永和區"
"234050","863-TW","2018/11/22 19:47:58","新北市永和區保安路83號","121.508486666667","25.0147683333333","6500400","永和區"
"234026","9371-KE","2018/11/22 19:47:55","新北市永和區雙和街3號","121.509718333333","25.001595","6500400","永和區"
"234011","9373-KE","2018/11/22 19:47:47","新北市永和區仁愛路352巷92弄2號","121.501223333333","25.0080166666667","6500400","永和區"
"249001","173-UM","2018/11/22 19:47:43","新北市八里區中華路二段145號","121.408765","25.1518433333333","6502300","八里區"
"249004","303-UY","2018/11/22 19:47:41","新北市八里區仁愛路71號","121.411778333333","25.15997","6502300","八里區"
"249003","593-UM","2018/11/22 19:47:56","新北市八里區華峰三街35號","121.398468333333","25.14546","6502300","八里區"
"248014","025-BX","2018/11/22 19:47:54","新北市五股區五福路32巷2號","121.434245","25.089215","6501500","五股區"
"248016","026-BX","2018/11/22 19:47:59","新北市五股區成泰路三段577巷80弄7號","121.449511666667","25.1043","6501500","五股區"
"248008","095-VK","2018/11/22 19:47:53","新北市蘆洲區中山一路417號","121.46836","25.0761666666667","6501500","五股區"
"248020","225-UY","2018/11/22 19:47:40","新北市五股區中直路27號","121.420996666667","25.1140233333333","6501500","五股區"
"248012","247-BX","2018/11/22 19:47:43","新北市五股區蓬萊路24號","121.433883333333","25.079915","6501500","五股區"
"248004","677-BX","2018/11/22 19:47:55","新北市五股區成泰路一段167號","121.435226666667","25.074515","6501500","五股區"
"248002","678-BX","2018/11/22 19:47:47","新北市五股區成泰路四段2號","121.452863333333","25.106155","6501500","五股區"
"248010","682-TV","2018/11/22 19:47:40","新北市五股區登林路貿商巷1弄1號","121.430491666667","25.069665","6501500","五股區"
"234077","969-R7","2018/11/22 19:47:46","新北市永和區中正路151巷1-1號","121.516391666667","24.9982966666667","6500400","永和區"
"234074","AAC-211","2018/11/22 19:47:49","新北市永和區竹林路211號","121.520891666667","25.0088283333333","6500400","永和區"
"234067","AAC-212","2018/11/22 19:47:48","新北市永和區永貞路375號","121.508391666667","25.008355","6500400","永和區"
"234003","AAC-295","2018/11/22 19:47:54","新北市永和區福和路343號","121.515606666667","25.0072133333333","6500400","永和區"
"243013","AAD-798","2018/11/22 19:38:37","新北市泰山區應化街7號","121.423883333333","25.04371","6501600","泰山區"
"243009","297-R6","2018/11/22 19:47:48","新北市泰山區美寧街69號","121.430918333333","25.0647933333333","6501600","泰山區"
"243016","KEA-2801","2018/11/22 19:47:39","新北市泰山區明志路三段521號","121.421148333333","25.03145","6501600","泰山區"
"243015","421-VK","2018/11/22 19:47:41","新北市泰山區明志路二段214巷9號","121.4268","25.0488633333333","6501600","泰山區"
"243011","KEA-2215","2018/11/22 19:47:55","新北市泰山區明志路三段196巷21弄30號","121.42242","25.03851","6501600","泰山區"
"243010","KEA-2216","2018/11/22 19:47:40","新北市泰山區民生路33號","121.4307","25.0522166666667","6501600","泰山區"
"243012","646-TV","2018/11/22 19:47:50","新北市泰山區全興路13號","121.432343333333","25.0589483333333","6501600","泰山區"
"243014","680-BX","2018/11/22 19:47:39","新北市泰山區泰林路二段33-7號","121.43519","25.0564","6501600","泰山區"
"222003","436-BY","2018/11/22 19:31:21","新北市深坑區深南路51-1號","121.621261666667","25.0098283333333","6501800","深坑區"
"222002","659-BX","2018/11/22 19:48:00","新北市深坑區北深路一段177號","121.632381666667","25.0107516666667","6501800","深坑區"
"231041","002-UM","2018/11/22 19:47:46","新北市新店區中央路151號","121.529515","24.9724666666667","6500600","新店區"
"231059","046-UY","2018/11/22 19:47:55","新北市新店區安和路三段1-1號","121.516836666667","24.979865","6500600","新店區"
"231040","047-UY","2018/11/22 19:47:53","新北市新店區中正路75巷71號","121.543193333333","24.9689016666667","6500600","新店區"
"231044","106-UY","2018/11/22 19:47:59","新北市新店區建國路299號","121.537186666667","24.9870866666667","6500600","新店區"
"231046","107-UY","2018/11/22 19:47:57","新北市新店區三民路159巷19弄46號","121.532186666667","24.9732333333333","6500600","新店區"
"231052","108-UY","2018/11/22 19:47:48","新北市新店區新烏路三段177號","121.550528333333","24.9012466666667","6500600","新店區"
"231062","110-UY","2018/11/22 19:47:53","新北市新店區永業路121號","121.52841","24.9478783333333","6500600","新店區"
"231047","187-VK","2018/11/22 19:47:49","新北市新店區五峰路61巷1號","121.548525","24.969735","6500600","新店區"
"231054","KEA-2219","2018/11/22 19:47:48","新北市新店區光明街39號","121.538596666667","24.9597783333333","6500600","新店區"
"231057","256-BX","2018/11/22 19:47:57","新北市新店區梅崗三路1號","121.558198333333","24.9311866666667","6500600","新店區"
"231042","268-BY","2018/11/22 19:47:45","新北市新店區中興路一段256號","121.544636666667","24.9669016666667","6500600","新店區"
"231051","278-BY","2018/11/22 19:47:40","新北市新店區中央路143號","121.530138333333","24.9735033333333","6500600","新店區"
"231050","AAD-862","2018/11/22 19:47:52","新北市新店區北宜路二段150-2號","121.557998333333","24.953985","6500600","新店區"
"231058","3713-VJ","2018/11/22 19:47:53","新北市新店區環河路180-3號","121.53558","24.96916","6500600","新店區"
"231066","4716-K9","2018/11/22 19:47:38","新北市新店區安康路三段165巷2弄5號","121.489246666667","24.9513316666667","6500600","新店區"
"231067","4772-VM","2018/11/22 19:47:51","新北市新店區安康路一段75-1號","121.530128333333","24.9611083333333","6500600","新店區"
"231065","512-UM","2018/11/22 19:47:47","新北市新店區安祥路109巷120號","121.476525","24.9583","6500600","新店區"
"231049","513-UM","2018/11/22 19:47:43","新北市新店區民權路90巷21號","121.536238333333","24.9835566666667","6500600","新店區"
"231063","616-UM","2018/11/22 19:47:51","新北市新店區車子路11號","121.503045","24.95199","6500600","新店區"
"231045","617-UM","2018/11/22 19:47:56","新北市新店區北宜路二段382號","121.564455","24.9529383333333","6500600","新店區"
"231061","619-UM","2018/11/22 19:47:58","新北市新店區安民街143號","121.516493333333","24.9695783333333","6500600","新店區"
"231064","720-UM","2018/11/22 19:47:43","新北市新店區安和路二段113巷1弄2號","121.518335","24.9702166666667","6500600","新店區"
"231060","897-TW","2018/11/22 19:47:40","新北市新店區安康路二段161號","121.510211666667","24.9592766666667","6500600","新店區"
"231043","899-TW","2018/11/22 19:47:52","新北市新店區中正路263-2號","121.538426666667","24.973765","6500600","新店區"
"231055","AKT-0513","2018/11/22 19:47:55","新北市新店區新生街5巷3號","121.540163333333","24.965875","6500600","新店區"
"241011","013-R5","2018/11/22 19:47:56","新北市三重區三和路二段173巷9號","121.498201666667","25.0699233333333","6500200","三重區"
"241028","022-UY","2018/11/22 19:47:45","新北市三重區中正南路157號","121.493873333333","25.0561233333333","6500200","三重區"
"241008","059-VK","2018/11/22 19:47:51","新北市三重區永福街113號","121.479218333333","25.0773366666667","6500200","三重區"
"241022","060-VK","2018/11/22 19:47:39","新北市三重區市前街2號","121.489478333333","25.0617783333333","6500200","三重區"
"241031","061-VK","2018/11/22 19:47:52","新北市三重區重新路四段248號","121.486063333333","25.0533983333333","6500200","三重區"
"241015","062-VK","2018/11/22 19:47:53","新北市三重區三和路一段12-1號","121.503395","25.06474","6500200","三重區"
"241017","063-VK","2018/11/22 19:47:56","新北市三重區重陽路三段5巷8弄20號","121.48958","25.0665133333333","6500200","三重區"
"241026","066-VK","2018/11/22 19:47:50","新北市三重區文化南路42號","121.500388333333","25.0602816666667","6500200","三重區"
"241003","091-VK","2018/11/22 19:47:40","新北市三重區五華街93巷27號","121.492538333333","25.0840466666667","6500200","三重區"
"251014","742-BX","2018/11/22 19:47:58","新北市淡水區石頭厝18號","121.469693333333","25.237025","6501000","淡水區"
"241016","265-UM","2018/11/22 19:47:51","新北市三重區正義北路16巷30號","121.49651","25.062825","6500200","三重區"
"241009","267-UM","2018/11/22 19:47:39","新北市三重區三和路四段396巷23號","121.480465","25.0789883333333","6500200","三重區"
"241018","268-UM","2018/11/22 19:47:51","新北市三重區雙園街57巷34弄14號","121.494106666667","25.0683","6500200","三重區"
"241032","269-UM","2018/11/22 19:47:59","新北市三重區重陽路一段45號","121.486678333333","25.0581566666667","6500200","三重區"
"241013","270-UM","2018/11/22 19:47:50","新北市三重區仁賢街49號","121.496961666667","25.0750066666667","6500200","三重區"
"241025","271-UM","2018/11/22 19:47:53","新北市三重區忠孝路三段52號","121.48067","25.0656483333333","6500200","三重區"
"241007","398-BY","2018/11/22 19:47:44","新北市三重區三和路四段133-1號","121.484818333333","25.0780366666667","6500200","三重區"
"241035","462-BY","2018/11/22 19:47:40","新北市三重區文化北路25號","121.49959","25.0637466666667","6500200","三重區"
"241004","475-VK","2018/11/22 19:47:55","新北市三重區仁愛街377巷132號","121.493543333333","25.08191","6500200","三重區"
"241030","480-VK","2018/11/22 19:47:44","新北市三重區環河南路247號","121.49154","25.050865","6500200","三重區"
"241014","543-UM","2018/11/22 19:47:58","新北市三重區三和路二段21巷20號","121.501755","25.0672616666667","6500200","三重區"
"241023","545-UM","2018/11/22 19:47:53","新北市三重區頂崁街172號","121.477556666667","25.065965","6500200","三重區"
"241033","557-UM","2018/11/22 19:30:11","新北市三重區五谷王南街30巷15號","121.474676666667","25.0456083333333","6500200","三重區"
"241019","KEA-2593","2018/11/22 19:47:44","新北市三重區自強路二段74巷25號","121.487671666667","25.0696083333333","6500200","三重區"
"241006","AAD-863","2018/11/22 19:47:38","新北市三重區永福街218號","121.483021666667","25.0744933333333","6500200","三重區"
"241020","743-BX","2018/11/22 19:47:51","新北市三重區自強路四段1號","121.48843","25.0760833333333","6500200","三重區"
"241012","941-UM","2018/11/22 19:47:56","新北市三重區仁福街64巷19號","121.497788333333","25.0753166666667","6500200","三重區"
"241029","942-UM","2018/11/22 19:47:44","新北市三重區光明路55號","121.491628333333","25.0579583333333","6500200","三重區"
"235066","003-UY","2018/11/22 19:47:57","新北市中和區南工路40號","121.505776666667","25.001185","6500300","中和區"
"235056","096-UM","2018/11/22 19:47:56","新北市中和區中山路三段114巷26弄1號","121.475885","25.0069983333333","6500300","中和區"
"235039","097-UM","2018/11/22 19:47:43","新北市中和區大勇街27巷8號","121.517025","24.9936616666667","6500300","中和區"
"235065","098-UM","2018/11/22 19:47:50","新北市中和區莊敬路31巷2號","121.500381666667","25.0047416666667","6500300","中和區"
"235058","151-BY","2018/11/22 19:47:48","新北市中和區員山路146-4號","121.481198333333","24.9970333333333","6500300","中和區"
"235055","183-VK","2018/11/22 19:47:52","新北市中和區德光路23號","121.47075","25.00428","6500300","中和區"
"235038","185-VK","2018/11/22 19:47:54","新北市中和區自強路52號","121.520141666667","24.994835","6500300","中和區"
"235049","186-VK","2018/11/22 19:47:54","新北市中和區景平路385巷85號","121.500971666667","24.9942483333333","6500300","中和區"
"235067","255-BX","2018/11/22 19:47:46","新北市中和區新生街244號","121.483736666667","24.9978733333333","6500300","中和區"
"235044","293-VK","2018/11/22 19:47:57","新北市中和區南山路222號","121.506401666667","24.9902666666667","6500300","中和區"
"235072","301-VK","2018/11/22 19:47:43","新北市中和區永和路220巷32號","121.49198","25.0083933333333","6500300","中和區"
"235043","352-BY","2018/11/22 19:47:56","新北市中和區華新街232巷8號","121.505835","24.98202","6500300","中和區"
"235042","KEA-2878","2018/11/22 19:47:43","新北市中和區保健路2巷16號","121.507403333333","24.9978183333333","6500300","中和區"
"235050","4979-A6","2018/11/22 19:47:58","新北市中和區和平街164巷4號","121.506068333333","24.9924733333333","6500300","中和區"
"235070","558-UM","2018/11/22 19:47:45","新北市中和區景平路495-4號","121.499873333333","24.9983033333333","6500300","中和區"
"235054","640-BX","2018/11/22 19:47:45","新北市中和區莒光路175-4號","121.472831666667","24.999425","6500300","中和區"
"235060","647-TV","2018/11/22 19:47:56","新北市中和區新生街30巷11號","121.482706666667","25.0038233333333","6500300","中和區"
"235047","732-UM","2018/11/22 19:47:48","新北市中和區捷運路135號","121.506901666667","24.990895","6500300","中和區"
"235046","733-UM","2018/11/22 19:47:41","新北市中和區仁愛街67號","121.51149","24.9876166666667","6500300","中和區"
"235057","801-TS","2018/11/22 19:47:53","新北市中和區員山路144號","121.481233333333","24.99652","6500300","中和區"
"235041","802-TS","2018/11/22 19:47:51","新北市中和區永貞路239巷13號","121.512711666667","25.003125","6500300","中和區"
"235052","805-TS","2018/11/22 19:47:57","新北市中和區華新街192巷20號","121.506423333333","24.9830866666667","6500300","中和區"
"235048","896-TW","2018/11/22 19:47:52","新北市中和區興南路一段164號","121.50805","24.9866566666667","6500300","中和區"
"235053","900-TW","2018/11/22 19:47:51","新北市中和區國光街189巷21號","121.467798333333","25.0009516666667","6500300","中和區"
"235051","157-BY","2018/11/22 19:47:56","新北市中和區中興街134號","121.49977","24.9921233333333","6500300","中和區"
"235037","AAC-213","2018/11/22 19:47:49","新北市中和區秀朗路三段130號","121.524623333333","24.99207","6500300","中和區"
"235059","AAC-215","2018/11/22 19:47:53","新北市中和區圓通路305巷13弄1號","121.494175","24.9898533333333","6500300","中和區"
"220068","013-TV","2018/11/22 19:47:47","新北市板橋區中山路二段416巷2號","121.48306","25.020865","6500100","板橋區"
"220065","072-UY","2018/11/22 19:47:47","新北市板橋區民族路276巷1弄1號","121.469928333333","25.0066616666667","6500100","板橋區"
"220086","073-UY","2018/11/22 19:47:51","新北市板橋區南雅西路二段123巷9號","121.451796666667","25.0105333333333","6500100","板橋區"
"220106","075-UY","2018/11/22 19:47:45","新北市板橋區民治街71巷36號","121.480536666667","25.0328066666667","6500100","板橋區"
"220069","AAD-861","2018/11/22 19:47:46","新北市板橋區貴興路119巷6號","121.455723333333","25.0021666666667","6500100","板橋區"
"247014","339-TH","2018/11/22 19:47:42","新北市蘆洲區中央路103號","121.472245","25.0840566666667","6501400","蘆洲區"
"247008","053-VK","2018/11/22 19:47:53","新北市蘆洲區中山一路49號","121.478873333333","25.0810066666667","6501400","蘆洲區"
"247004","002-UY","2018/11/22 19:47:53","新北市蘆洲區中原路48號","121.459291666667","25.0823333333333","6501400","蘆洲區"
"226004","312-R5","2018/11/22 19:47:54","新北市平溪區靜安路三段392巷3號","121.784498333333","25.0495683333333","6502400","平溪區"
"228003","097-TW","2018/11/22 19:47:52","新北市貢寮區真理里美艷山街12-8號","121.928468333333","25.0632816666667","6502600","貢寮區"
"228001","212-TW","2018/11/22 19:47:45","新北市貢寮區真理里新港街113-2號","121.926386666667","25.05662","6502600","貢寮區"
"227010","642-TC","2018/11/22 19:47:50","新北市雙溪區新基里中華路60號","121.865906666667","25.0378816666667","6502500","雙溪區"
"227004","400-TW","2018/11/22 19:47:41","新北市雙溪區雙溪里內挖路47號","121.863326666667","25.03658","6502500","雙溪區"
"222001","KEA-2212","2018/11/22 19:47:48","新北市深坑區北深路三段110號","121.60683","25.00169","6501800","深坑區"
"208002","KEA-2872","2018/11/22 19:47:58","新北市金山區中華路366-1號","121.633226666667","25.22452","6502700","金山區"
"208003","665-BX","2018/11/22 19:47:44","新北市金山區清泉里清水路36號","121.629888333333","25.2311766666667","6502700","金山區"
"208001","761-BX","2018/11/22 19:47:50","新北市金山區重和里林口32號","121.596355","25.2096733333333","6502700","金山區"
"251009","008-UM","2018/11/22 19:47:42","新北市淡水區中正路38-1號","121.443736666667","25.1692483333333","6501000","淡水區"
"251005","010-UM","2018/11/22 19:47:45","新北市淡水區中山路126號","121.441911666667","25.1709516666667","6501000","淡水區"
"251001","011-UM","2018/11/22 19:47:55","新北市淡水區淡金路27號","121.456635","25.160395","6501000","淡水區"
"251013","KEA-2871","2018/11/22 19:47:40","新北市淡水區頂田寮路168號","121.45973","25.21561","6501000","淡水區"
"251016","179-VK","2018/11/22 19:47:41","新北市淡水區三塊厝8-2號","121.457086666667","25.21132","6501000","淡水區"
"251008","181-VK","2018/11/22 19:48:00","新北市淡水區中正路一段62巷18號","121.426298333333","25.177155","6501000","淡水區"
"251015","182-VK","2018/11/22 19:47:53","新北市淡水區商工路386號","121.469968333333","25.1851183333333","6501000","淡水區"
"251010","413-VK","2018/11/22 19:47:44","新北市淡水區崁頂76-2號","121.431871666667","25.20437","6501000","淡水區"
"251012","441-VK","2018/11/22 19:47:56","新北市淡水區淡金路三段26號","121.447525","25.1982666666667","6501000","淡水區"
"251006","561-UM","2018/11/22 19:47:55","新北市淡水區水碓街15號","121.443475","25.176955","6501000","淡水區"
"251007","577-R6","2018/11/22 19:47:59","新北市淡水區中正東路一段3巷29號","121.451651666667","25.165515","6501000","淡水區"
"251003","766-UM","2018/11/22 19:47:44","新北市淡水區崁頂98號","121.43502","25.2037516666667","6501000","淡水區"
"207003","550-UM","2018/11/22 19:47:44","新北市萬里區大鵬里萬里加投217號","121.642941666667","25.21613","6502800","萬里區"
"207004","225-TW","2018/11/22 19:48:00","新北市萬里區萬里里瑪鋉路120號","121.690633333333","25.1790133333333","6502800","萬里區"
"252002","178-VK","2018/11/22 19:47:48","新北市三芝區三民街33-1號","121.504608333333","25.2585983333333","6502100","三芝區"
"252001","292-VK","2018/11/22 19:47:59","新北市三芝區公正街9號","121.499753333333","25.257475","6502100","三芝區"
"237004","KEA-2597","2018/11/22 19:47:48","新北市三峽區金敏3號","121.384293333333","24.8750916666667","6500900","三峽區"
"237007","153-BY","2018/11/22 19:47:52","新北市三峽區二鬮路136巷20弄9號","121.356553333333","24.910155","6500900","三峽區"
"237009","210-TH","2018/11/22 19:47:55","新北市三峽區中園街31號","121.368308333333","24.9265833333333","6500900","三峽區"
"237013","252-BX","2018/11/22 19:47:42","新北市三峽區橫溪路62號","121.397233333333","24.9352416666667","6500900","三峽區"
"237012","275-BY","2018/11/22 19:47:48","新北市三峽區中華路9號","121.373601666667","24.9320683333333","6500900","三峽區"
"237008","302-VK","2018/11/22 19:47:41","新北市三峽區大同路154號","121.373138333333","24.9269066666667","6500900","三峽區"
"237014","433-BY","2018/11/22 19:47:55","新北市三峽區嘉添8號","121.368258333333","24.91179","6500900","三峽區"
"237006","5529-G3","2018/11/22 19:47:49","新北市三峽區中正路一段336巷15弄2號","121.369926666667","24.9249116666667","6500900","三峽區"
"237011","KEA-2596","2018/11/22 19:47:56","新北市三峽區中正路二段12號","121.367478333333","24.9198483333333","6500900","三峽區"
"237016","649-BX","2018/11/22 19:47:57","新北市三峽區成福路37號","121.41765","24.9286633333333","6500900","三峽區"
"237005","AKY-6261","2018/11/22 19:47:39","新北市三峽區民生街85號","121.374668333333","24.935495","6500900","三峽區"
"236070","105-UM","2018/11/22 19:47:48","新北市土城區水源街11號","121.441286666667","24.9750583333333","6501300","土城區"
"236042","KED-0685","2018/11/22 19:47:50","新北市土城區裕民路285號","121.456125","24.9816566666667","6501300","土城區"
"236078","166-UM","2018/11/22 19:47:59","新北市土城區溪頭路88號","121.409578333333","24.9510533333333","6501300","土城區"
"236030","253-BX","2018/11/22 19:47:57","新北市土城區中央路一段294號","121.44328","24.9823733333333","6501300","土城區"
"236026","269-VK","2018/11/22 19:47:44","新北市土城區中央路二段61巷22號","121.443213333333","24.978715","6501300","土城區"
"236038","271-VK","2018/11/22 19:47:50","新北市土城區國際路158巷54號","121.467933333333","24.9748333333333","6501300","土城區"
"236021","401-BY","2018/11/22 19:48:01","新北市土城區延吉街137巷8號","121.470943333333","24.98573","6501300","土城區"
"236059","912-UM","2018/11/22 19:47:57","新北市土城區中央路一段227號","121.445596666667","24.9863016666667","6501300","土城區"
"236049","913-UM","2018/11/22 19:47:44","新北市土城區清水路144號","121.459005","24.9813966666667","6501300","土城區"
"236063","915-UM","2018/11/22 19:47:54","新北市土城區延和路146巷10號","121.46807","24.9896083333333","6501300","土城區"
"236055","AAC-216","2018/11/22 19:47:49","新北市土城區延和路148號","121.467761666667","24.9902","6501300","土城區"
"242036","AAC-296","2018/11/22 19:47:43","新北市新莊區建安街58號","121.427305","25.0246633333333","6500500","新莊區"
"242058","986-R7","2018/11/22 19:47:39","新北市新莊區新樹路119號","121.437181666667","25.02637","6500500","新莊區"
"242048","497-BY","2018/11/22 19:47:48","新北市新莊區建安街90-1號","121.426065","25.0241416666667","6500500","新莊區"
"242002","440-UM","2018/11/22 19:47:57","新北市新莊區新泰路2-11號","121.450178333333","25.0324766666667","6500500","新莊區"
"242039","415-TV","2018/11/22 19:47:40","新北市新莊區民安路295號","121.4293","25.0229083333333","6500500","新莊區"
"242023","362-BY","2018/11/22 19:47:44","新北市新莊區化成路198號","121.465618333333","25.04615","6500500","新莊區"
"242061","353-BY","2018/11/22 19:47:57","新北市新莊區瓊林路108號","121.442205","25.0260833333333","6500500","新莊區"
"242034","135-UY","2018/11/22 19:47:54","新北市新莊區公園一路95號","121.444305","25.0379666666667","6500500","新莊區"
"242013","173-VK","2018/11/22 19:47:43","新北市新莊區中誠街95巷1號","121.450111666667","25.0475433333333","6500500","新莊區"
"242007","176-VK","2018/11/22 19:47:58","新北市新莊區新北大道三段7號","121.458178333333","25.0601","6500500","新莊區"
"242031","348-TH","2018/11/22 19:47:54","新北市新莊區忠孝街80號","121.443938333333","25.0366316666667","6500500","新莊區"
"242004","349-TH","2018/11/22 19:47:55","新北市新莊區化成路63巷24弄14號","121.46219","25.046085","6500500","新莊區"
"242021","350-TH","2018/11/22 19:47:55","新北市新莊區三和路12-13號","121.441946666667","25.0371083333333","6500500","新莊區"
"238015","755-BX","2018/11/22 19:47:46","新北市樹林區中山路一段175號","121.421568333333","24.98837","6500700","樹林區"
"238023","601-UM","2018/11/22 19:47:40","新北市樹林區中正路439號","121.415175","25.009275","6500700","樹林區"
"238019","599-UM","2018/11/22 19:47:58","新北市樹林區中山路三段206-1號","121.383825","24.9669716666667","6500700","樹林區"
"238021","KEA-2539","2018/11/22 19:47:52","新北市樹林區佳園路三段101巷38弄6號","121.391216666667","24.9505483333333","6500700","樹林區"
"238025","303-VK","2018/11/22 19:47:49","新北市樹林區中華路190-6號","121.410501666667","24.980915","6500700","樹林區"
"238017","283-BY","2018/11/22 19:47:47","新北市樹林區保安街二段107巷1弄2號","121.41519","25.00076","6500700","樹林區"
"238014","282-BY","2018/11/22 19:47:44","新北市樹林區千歲街70巷2弄18號","121.426398333333","24.997325","6500700","樹林區"
"238026","172-UY","2018/11/22 19:47:56","新北市樹林區佳園路二段41號","121.391623333333","24.9625316666667","6500700","樹林區"
"239006","891-R6","2018/11/22 19:47:58","新北市鶯歌區永昌街15號","121.343066666667","24.949785","6500800","鶯歌區"
"239004","193-VK","2018/11/22 19:47:43","新北市鶯歌區二甲路20-2號","121.339203333333","24.9356866666667","6500800","鶯歌區"
"221008","489-VK","2018/11/22 19:47:50","新北市汐止區康寧街83巷16號","121.620141666667","25.0669116666667","6501100","汐止區"
"221036","130-UY","2018/11/22 19:47:49","新北市汐止區汐萬路一段266號","121.650915","25.0739316666667","6501100","汐止區"
"221015","131-UY","2018/11/22 19:47:53","新北市汐止區大同路二段567號","121.662973333333","25.0697933333333","6501100","汐止區"
"221010","269-BY","2018/11/22 19:47:55","新北市汐止區康寧街885巷35號","121.650458333333","25.076895","6501100","汐止區"
"221012","278-VK","2018/11/22 19:47:55","新北市汐止區保長路273巷1號","121.681081666667","25.0740383333333","6501100","汐止區"
"221032","280-BY","2018/11/22 19:47:49","新北市汐止區橫科路119號","121.620013333333","25.05036","6501100","汐止區"
"221027","281-BY","2018/11/22 19:47:46","新北市汐止區秀峰路6巷12號","121.658781666667","25.0661183333333","6501100","汐止區"
"221029","298-VK","2018/11/22 19:47:39","新北市汐止區康寧街901號","121.651476666667","25.07493","6501100","汐止區"
"221021","299-VK","2018/11/22 19:47:57","新北市汐止區新興路85巷1號","121.657946666667","25.061565","6501100","汐止區"
"221031","353-TW","2018/11/22 19:47:45","新北市汐止區福德三路127號","121.633531666667","25.06753","6501100","汐止區"
"221035","622-UM","2018/11/22 19:47:40","新北市汐止區長江街13巷4號","121.654811666667","25.0713883333333","6501100","汐止區"
"221025","623-UM","2018/11/22 19:47:42","新北市汐止區仁愛路119巷24號","121.66205","25.06457","6501100","汐止區"
"221038","646-BX","2018/11/22 19:47:45","新北市汐止區忠孝東路414號","121.665893333333","25.0712383333333","6501100","汐止區"
"221033","647-BX","2018/11/22 19:47:51","新北市汐止區東勢街4號","121.629691666667","25.0404266666667","6501100","汐止區"
"221002","707-TV","2018/11/22 19:47:53","新北市汐止區大同路一段219巷27號","121.633258333333","25.0583716666667","6501100","汐止區"
"221018","753-BX","2018/11/22 19:47:51","新北市汐止區大同路二段362號","121.657383333333","25.0671733333333","6501100","汐止區"
"220079","145-BY","2018/11/22 19:47:53","新北市板橋區中正路183巷22-3號","121.45571","25.0164166666667","6500100","板橋區"
"220080","200-UY","2018/11/22 19:47:39","新北市板橋區大觀路二段37巷39號","121.448656666667","25.0027283333333","6500100","板橋區"
"220101","245-BX","2018/11/22 19:47:56","新北市板橋區縣民大道三段93巷34號","121.474691666667","25.022495","6500100","板橋區"
"224002","257-TC","2018/11/22 19:47:42","新北市瑞芳區民享新村13號","121.81658","25.1058033333333","6501200","瑞芳區"
"220056","276-BY","2018/11/22 19:47:41","新北市板橋區四川路二段99巷5弄2號","121.452836666667","24.994315","6500100","板橋區"
"220072","277-BY","2018/11/22 19:47:58","新北市板橋區金門街127巷10號","121.433266666667","24.9911166666667","6500100","板橋區"
"220064","282-UM","2018/11/22 19:47:37","新北市板橋區公園街58號","121.462115","25.0077933333333","6500100","板橋區"
"220071","283-VK","2018/11/22 19:47:42","新北市板橋區五權街30巷13號","121.464328333333","24.9931483333333","6500100","板橋區"
"220094","285-UM","2018/11/22 19:47:57","新北市板橋區民生路三段315號","121.46203","25.030735","6500100","板橋區"
"220053","285-VK","2018/11/22 19:47:53","新北市板橋區中山路二段273號","121.47769","25.0179716666667","6500100","板橋區"
"220083","286-VK","2018/11/22 19:47:44","新北市板橋區龍興街63巷15號","121.442491666667","25.0014933333333","6500100","板橋區"
"220081","287-VK","2018/11/22 19:47:57","新北市板橋區大觀路一段29巷59號","121.450355","25.0069783333333","6500100","板橋區"
"220090","288-VK","2018/11/22 19:47:52","新北市板橋區龍泉街54巷5號","121.456823333333","25.026595","6500100","板橋區"
"220061","295-UM","2018/11/22 19:47:54","新北市板橋區中山路一段265巷7-4號","121.468523333333","25.0145366666667","6500100","板橋區"
"220084","296-UM","2018/11/22 19:47:54","新北市板橋區滿平街46號","121.426896666667","24.989655","6500100","板橋區"
"220075","303-R5","2018/11/22 19:47:40","新北市板橋區金華街10巷48弄10號","121.45728","25.0198433333333","6500100","板橋區"
"220062","305-R5","2018/11/22 19:47:58","新北市板橋區光復街23號","121.48138","25.0192533333333","6500100","板橋區"
"220092","307-R5","2018/11/22 19:47:50","新北市板橋區陽明街18號","121.466448333333","25.0216716666667","6500100","板橋區"
"220098","317-R6","2018/11/22 19:47:41","新北市板橋區四維路279巷77號","121.460101666667","25.0270316666667","6500100","板橋區"
"220089","487-VK","2018/11/22 19:47:43","新北市板橋區龍泉街82巷11-4號","121.455876666667","25.02552","6500100","板橋區"
"220035","560-BX","2018/11/22 19:47:54","新北市板橋區金華街84號","121.457913333333","25.0206966666667","6500100","板橋區"
"220103","561-BX","2018/11/22 19:47:53","新北市板橋區陽明街29巷32號","121.463645","25.022695","6500100","板橋區"
"220063","609-BX","2018/11/22 19:47:49","新北市板橋區三民路一段141號","121.479233333333","25.019905","6500100","板橋區"
"220091","637-BX","2018/11/22 19:47:56","新北市板橋區民治街81巷3號","121.479878333333","25.0322516666667","6500100","板橋區"
"220057","686-BX","2018/11/22 19:47:43","新北市板橋區信義路98號","121.458133333333","24.99286","6500100","板橋區"
"220077","687-BX","2018/11/22 19:47:57","新北市板橋區僑中一街102巷3弄15-3號","121.445948333333","25.012265","6500100","板橋區"
"220093","689-BX","2018/11/22 19:47:54","新北市板橋區長江路二段163號","121.466308333333","25.0318916666667","6500100","板橋區"
"220054","741-BX","2018/11/22 19:47:51","新北市板橋區國泰街75巷28弄84-3號","121.467216666667","25.0040983333333","6500100","板橋區"
"220070","806-UM","2018/11/22 19:47:53","新北市板橋區民族路143號","121.467865","25.007845","6500100","板橋區"
"220055","827-TW","2018/11/22 19:47:54","新北市板橋區國慶路149巷21弄2號","121.460913333333","24.9974366666667","6500100","板橋區"
"220067","829-TW","2018/11/22 19:47:42","新北市板橋區長安街138巷1弄294號","121.474903333333","25.0112983333333","6500100","板橋區"
"220102","830-TW","2018/11/22 19:47:50","新北市板橋區松柏街35號","121.475348333333","25.0302833333333","6500100","板橋區"
"220096","831-TW","2018/11/22 19:47:53","新北市板橋區莒光路60號","121.470996666667","25.0240866666667","6500100","板橋區"
"220088","833-TW","2018/11/22 19:47:57","新北市板橋區文聖街142號","121.478498333333","25.02796","6500100","板橋區"
"220074","895-R6","2018/11/22 19:47:55","新北市板橋區文化路一段34號","121.459396666667","25.0116433333333","6500100","板橋區"
"220073","985-R7","2018/11/22 19:47:48","新北市板橋區大仁街37號","121.455116666667","25.0166183333333","6500100","板橋區"
"220097","AAC-210","2018/11/22 19:47:48","新北市板橋區文化路一段285巷1弄15號","121.464176666667","25.0186983333333","6500100","板橋區"
"220082","AAC-253","2018/11/22 19:47:40","新北市板橋區存德街52號","121.43072","24.9914633333333","6500100","板橋區"
"235068","KEA-2873","2018/11/22 19:47:30","新北市中和區中山路二段136巷3弄8號","121.501128333333","25.0039866666667","6500300","中和區"
"235061","KEA-2875","2018/11/22 19:47:47","新北市中和區民安街2巷37弄1號","121.479916666667","25.0015183333333","6500300","中和區"
