"lineid","car","time","location","longitude","latitude","cityid","cityname"
"234046","148-BY","2018/11/22 20:07:48","新北市永和區得和路415號","121.525676666667","24.9992566666667","6500400","永和區"
"234007","207-UY","2018/11/22 20:07:54","新北市永和區保順路39號","121.503308333333","25.0106916666667","6500400","永和區"
"234081","298-R6","2018/11/22 20:07:47","新北市永和區國中路10號","121.524375","25.0047766666667","6500400","永和區"
"234038","336-UY","2018/11/22 20:07:46","新北市永和區成功路一段56號","121.526931666667","25.0039466666667","6500400","永和區"
"234064","337-UY","2018/11/22 20:07:48","新北市永和區永利路92號","121.520815","25.0037283333333","6500400","永和區"
"234086","338-UY","2018/11/22 20:07:53","新北市永和區福和路152號","121.52173","25.0078283333333","6500400","永和區"
"234070","552-UM","2018/11/22 20:07:47","新北市永和區福和路289號","121.517241666667","25.0072616666667","6500400","永和區"
"234017","745-BX","2018/11/22 20:07:57","新北市永和區文化路117號","121.512613333333","25.0152433333333","6500400","永和區"
"234030","746-BX","2018/11/22 20:07:56","新北市永和區民權路49巷5弄28號","121.521865","24.99788","6500400","永和區"
"234054","KEA-2590","2018/11/22 20:08:00","新北市永和區博愛街29號","121.518305","25.0158116666667","6500400","永和區"
"234013","KEA-2591","2018/11/22 20:07:58","新北市永和區永貞路415號","121.507336666667","25.0093716666667","6500400","永和區"
"234061","AAD-866","2018/11/22 20:07:55","新北市永和區中正路151巷14號","121.515586666667","24.9988316666667","6500400","永和區"
"234042","862-TW","2018/11/22 20:07:48","新北市永和區雙和街16巷20號","121.509861666667","25.002845","6500400","永和區"
"234050","863-TW","2018/11/22 20:07:59","新北市永和區環河西路二段131號","121.506031666667","25.0142466666667","6500400","永和區"
"234026","9371-KE","2018/11/22 20:07:55","新北市永和區保生路54號","121.505531666667","25.0086966666667","6500400","永和區"
"234011","9373-KE","2018/11/22 20:07:47","新北市永和區仁愛路352巷122弄33號","121.500683333333","25.0091916666667","6500400","永和區"
"249005","172-UM","2018/11/22 20:07:48","新北市八里區下罟子47-5號","121.384013333333","25.1369583333333","6502300","八里區"
"249001","173-UM","2018/11/22 20:07:43","新北市八里區中華路二段310號","121.403781666667","25.1484233333333","6502300","八里區"
"249004","303-UY","2018/11/22 20:07:41","新北市八里區中山路一段398巷26號","121.411335","25.1589016666667","6502300","八里區"
"249003","593-UM","2018/11/22 20:07:56","新北市八里區訊塘路96號","121.397571666667","25.14638","6502300","八里區"
"248014","025-BX","2018/11/22 20:07:45","新北市五股區成泰路三段173號","121.445356666667","25.0919633333333","6501500","五股區"
"248016","026-BX","2018/11/22 20:07:59","新北市五股區凌雲路一段158巷39弄16號","121.446443333333","25.104165","6501500","五股區"
"248020","225-UY","2018/11/22 20:08:00","新北市五股區凌雲路三段16-2號","121.437936666667","25.10341","6501500","五股區"
"248012","247-BX","2018/11/22 20:07:43","新北市五股區六合街118號","121.430253333333","25.0908166666667","6501500","五股區"
"248004","677-BX","2018/11/22 20:07:56","新北市五股區成泰路一段116號","121.435443333333","25.0734483333333","6501500","五股區"
"248002","678-BX","2018/11/22 20:07:47","新北市五股區成泰路三段369-1號","121.448928333333","25.0959966666667","6501500","五股區"
"248010","682-TV","2018/11/22 20:07:40","新北市五股區成泰路一段7巷48弄8號","121.432645","25.0678266666667","6501500","五股區"
"234023","9380-KE","2018/11/22 20:07:46","新北市永和區中正路623號","121.515943333333","25.009925","6500400","永和區"
"234077","969-R7","2018/11/22 20:07:46","新北市永和區民享街23巷5弄8號","121.516185","24.99566","6500400","永和區"
"234074","AAC-211","2018/11/22 20:07:49","新北市永和區豫溪街185號","121.522491666667","25.010335","6500400","永和區"
"234067","AAC-212","2018/11/22 20:07:53","新北市永和區保平路214巷10弄2號","121.509333333333","25.00639","6500400","永和區"
"234003","AAC-295","2018/11/22 20:07:54","新北市永和區中正路605號","121.516358333333","25.0097666666667","6500400","永和區"
"243013","AAD-798","2018/11/22 20:07:55","新北市泰山區明志路三段74巷25弄2號","121.423615","25.041655","6501600","泰山區"
"243009","297-R6","2018/11/22 20:07:48","新北市泰山區泰林路二段142巷6號","121.434746666667","25.0601016666667","6501600","泰山區"
"243016","KEA-2801","2018/11/22 20:07:59","新北市泰山區明志路三段405號","121.421228333333","25.0340233333333","6501600","泰山區"
"243015","421-VK","2018/11/22 20:07:59","新北市泰山區明志路一段314號","121.431675","25.0594883333333","6501600","泰山區"
"243011","KEA-2215","2018/11/22 20:07:55","新北市泰山區中山路三段6號","121.420963333333","25.0324433333333","6501600","泰山區"
"243010","KEA-2216","2018/11/22 20:08:00","新北市泰山區明志路二段136巷24號","121.426213333333","25.0519733333333","6501600","泰山區"
"243012","646-TV","2018/11/22 20:07:50","新北市泰山區楓江路46巷1號","121.435205","25.0622883333333","6501600","泰山區"
"243014","680-BX","2018/11/22 20:07:53","新北市泰山區明志路一段148號","121.433366666667","25.0630633333333","6501600","泰山區"
"222003","436-BY","2018/11/22 20:07:59","新北市深坑區埔新街67號","121.620125","25.00235","6501800","深坑區"
"222002","659-BX","2018/11/22 20:08:00","新北市深坑區北深路二段156號","121.61506","25.0025633333333","6501800","深坑區"
"231041","002-UM","2018/11/22 20:07:47","新北市新店區中正路460號","121.533963333333","24.979355","6500600","新店區"
"231059","046-UY","2018/11/22 20:07:55","新北市新店區安成街2巷1號","121.510901666667","24.9602883333333","6500600","新店區"
"231040","047-UY","2018/11/22 20:07:53","新北市新店區中正路110號","121.542998333333","24.97065","6500600","新店區"
"231044","106-UY","2018/11/22 20:07:43","新北市新店區寶慶街66號","121.542013333333","24.9868966666667","6500600","新店區"
"231052","108-UY","2018/11/22 20:07:48","新北市新店區新烏路三段寶島巷8號","121.551843333333","24.8988716666667","6500600","新店區"
"231062","110-UY","2018/11/22 20:07:53","新北市新店區安康路二段60號","121.515","24.9637066666667","6500600","新店區"
"231047","187-VK","2018/11/22 20:07:49","新北市新店區寶橋路103號","121.548105","24.9767516666667","6500600","新店區"
"231054","KEA-2219","2018/11/22 20:07:48","新北市新店區光明街284號","121.540473333333","24.964635","6500600","新店區"
"231057","256-BX","2018/11/22 20:07:52","新北市新店區百齡一路12號","121.553103333333","24.9324566666667","6500600","新店區"
"231042","268-BY","2018/11/22 20:07:58","新北市新店區中興路二段55號","121.546533333333","24.97023","6500600","新店區"
"231051","278-BY","2018/11/22 20:07:40","新北市新店區中央六街6號","121.53024","24.9743166666667","6500600","新店區"
"231056","4715-K9","2018/11/22 20:08:00","新北市新店區北新路二段102號","121.54295","24.973675","6500600","新店區"
"231067","4772-VM","2018/11/22 20:07:56","新北市新店區安康路一段3-1號","121.534101666667","24.9605366666667","6500600","新店區"
"231065","512-UM","2018/11/22 20:07:48","新北市新店區安祥路106巷193號","121.4739","24.9601533333333","6500600","新店區"
"231049","513-UM","2018/11/22 20:07:43","新北市新店區北新路二段171巷9號","121.542208333333","24.9763766666667","6500600","新店區"
"231063","616-UM","2018/11/22 20:07:51","新北市新店區黎明路56巷2號","121.502331666667","24.9478883333333","6500600","新店區"
"231045","617-UM","2018/11/22 20:07:57","新北市新店區北宜路一段170號","121.540711666667","24.95306","6500600","新店區"
"231061","619-UM","2018/11/22 20:07:58","新北市新店區安民街339號","121.516941666667","24.9749266666667","6500600","新店區"
"231068","718-UY","2018/11/22 20:07:55","新北市新店區中興路二段99巷1號","121.54716","24.971945","6500600","新店區"
"231064","720-UM","2018/11/22 20:07:43","新北市新店區安光路10-1號","121.513606666667","24.9641183333333","6500600","新店區"
"231060","897-TW","2018/11/22 20:07:40","新北市新店區安康路三段179-1號","121.48831","24.9517866666667","6500600","新店區"
"231043","899-TW","2018/11/22 20:07:52","新北市新店區民族路186號","121.536903333333","24.9760933333333","6500600","新店區"
"231055","AKT-0513","2018/11/22 20:07:55","新北市新店區北新路一段297巷12號","121.540953333333","24.9677283333333","6500600","新店區"
"241011","013-R5","2018/11/22 20:08:00","新北市三重區秀江街262號","121.495973333333","25.0712266666667","6500200","三重區"
"241028","022-UY","2018/11/22 20:07:45","新北市三重區仁化街137號","121.494681666667","25.0575333333333","6500200","三重區"
"241008","059-VK","2018/11/22 20:07:51","新北市三重區永安北路一段1巷5號","121.476645","25.0742316666667","6500200","三重區"
"241022","060-VK","2018/11/22 20:07:59","新北市三重區新北大道一段50號","121.487743333333","25.0614783333333","6500200","三重區"
"241031","061-VK","2018/11/22 20:07:52","新北市三重區過圳街9-1號","121.488801666667","25.0600033333333","6500200","三重區"
"241015","062-VK","2018/11/22 20:07:53","新北市三重區福德北路43號","121.502313333333","25.0649","6500200","三重區"
"241017","063-VK","2018/11/22 20:07:56","新北市三重區自強路一段236號","121.493191666667","25.0669866666667","6500200","三重區"
"241024","065-VK","2018/11/22 20:07:56","新北市三重區力行路一段162號","121.482261666667","25.0711516666667","6500200","三重區"
"241026","066-VK","2018/11/22 20:07:49","新北市三重區福德南路61號","121.502491666667","25.06066","6500200","三重區"
"241002","090-VK","2018/11/22 20:07:56","新北市三重區五華街45號","121.494553333333","25.0812016666667","6500200","三重區"
"241003","091-VK","2018/11/22 20:08:00","新北市三重區富華街18號","121.489598333333","25.0824433333333","6500200","三重區"
"251014","742-BX","2018/11/22 20:07:38","新北市淡水區石頭厝1號","121.458728333333","25.235505","6501000","淡水區"
"241005","262-UM","2018/11/22 20:07:50","新北市三重區五華街180巷31號","121.488021666667","25.0854216666667","6500200","三重區"
"241016","265-UM","2018/11/22 20:07:48","新北市三重區大同北路61號","121.495086666667","25.0634066666667","6500200","三重區"
"241009","267-UM","2018/11/22 20:07:39","新北市三重區永安北路一段89號","121.478215","25.077745","6500200","三重區"
"241018","268-UM","2018/11/22 20:07:51","新北市三重區大智街116號","121.493045","25.067085","6500200","三重區"
"241032","269-UM","2018/11/22 20:07:59","新北市三重區捷運路65號","121.483453333333","25.0556283333333","6500200","三重區"
"241013","270-UM","2018/11/22 20:07:50","新北市三重區三和路三段139巷6號","121.492738333333","25.0737283333333","6500200","三重區"
"241025","271-UM","2018/11/22 20:07:53","新北市三重區中正北路237號","121.475546666667","25.07054","6500200","三重區"
"241007","398-BY","2018/11/22 20:07:44","新北市三重區三和路四段111-14號","121.486918333333","25.0776816666667","6500200","三重區"
"241035","462-BY","2018/11/22 20:08:00","新北市三重區平安街3號","121.49894","25.0643316666667","6500200","三重區"
"241004","475-VK","2018/11/22 20:07:55","新北市三重區仁愛街368號","121.491275","25.080655","6500200","三重區"
"241030","480-VK","2018/11/22 20:07:44","新北市三重區成功路145巷10號","121.487018333333","25.05272","6500200","三重區"
"241014","543-UM","2018/11/22 20:07:38","新北市三重區安和路38號","121.500783333333","25.069305","6500200","三重區"
"241023","545-UM","2018/11/22 20:07:53","新北市三重區頂崁街210巷2號","121.477196666667","25.0673883333333","6500200","三重區"
"241001","547-UM","2018/11/22 20:07:46","新北市三重區溪尾街56號","121.490718333333","25.0775333333333","6500200","三重區"
"241019","KEA-2593","2018/11/22 20:07:43","新北市三重區自強路二段24號","121.489616666667","25.069225","6500200","三重區"
"241006","AAD-863","2018/11/22 20:07:38","新北市三重區力行路二段71-2號","121.482346666667","25.0752366666667","6500200","三重區"
"241020","743-BX","2018/11/22 19:54:22","新北市三重區後竹圍街39巷3號","121.490718333333","25.073555","6500200","三重區"
"241012","941-UM","2018/11/22 20:07:55","新北市三重區仁福街64巷30號","121.497585","25.0755516666667","6500200","三重區"
"241029","942-UM","2018/11/22 20:07:44","新北市三重區光明路30號","121.49152","25.0585983333333","6500200","三重區"
"235066","003-UY","2018/11/22 20:07:57","新北市中和區水源路127巷9號","121.508058333333","25.003635","6500300","中和區"
"235039","097-UM","2018/11/22 20:07:43","新北市中和區大勇街25巷13弄1號","121.516191666667","24.9934733333333","6500300","中和區"
"235065","098-UM","2018/11/22 20:07:50","新北市中和區福美路256巷18號","121.49796","25.00599","6500300","中和區"
"247012","KEA-2869","2018/11/22 20:07:49","新北市蘆洲區民族路191號","121.478701666667","25.0888916666667","6501400","蘆洲區"
"235050","4979-A6","2018/11/22 20:07:58","新北市中和區安樂路66號","121.51221","24.9932283333333","6500300","中和區"
"235069","4980-A6","2018/11/22 20:07:50","新北市中和區景新街34巷2弄7號","121.502821666667","24.9990783333333","6500300","中和區"
"235070","558-UM","2018/11/22 20:07:45","新北市中和區中正路446號","121.490991666667","24.99419","6500300","中和區"
"235054","640-BX","2018/11/22 20:07:45","新北市三重區重新路5段221巷6弄11-1號","121.479196666667","25.0507433333333","6500300","中和區"
"235046","733-UM","2018/11/22 20:07:41","新北市中和區忠孝街33號","121.51046","24.9832383333333","6500300","中和區"
"235052","805-TS","2018/11/22 20:07:50","新北市中和區忠孝街32號","121.510698333333","24.9832766666667","6500300","中和區"
"235048","896-TW","2018/11/22 20:07:51","新北市中和區景新街467巷20弄110號","121.514808333333","24.9866366666667","6500300","中和區"
"235051","157-BY","2018/11/22 20:07:56","新北市中和區景安路220巷1弄1號","121.503263333333","24.9907233333333","6500300","中和區"
"235037","AAC-213","2018/11/22 20:07:49","新北市中和區秀朗路三段128巷17弄41號","121.522943333333","24.99328","6500300","中和區"
"235059","AAC-215","2018/11/22 20:07:53","新北市中和區圓通路335巷33弄13號","121.493316666667","24.9888566666667","6500300","中和區"
"220068","013-TV","2018/11/22 20:07:50","新北市板橋區中山路二段318巷4號","121.480113333333","25.0192033333333","6500100","板橋區"
"220086","073-UY","2018/11/22 20:07:51","新北市八里區中山路二段588巷12號","121.395796666667","25.1456533333333","6500100","板橋區"
"220069","AAD-861","2018/11/22 20:07:46","新北市板橋區貴興路119巷1弄7號","121.455935","25.0024416666667","6500100","板橋區"
"247002","893-R6","2018/11/22 20:07:40","新北市蘆洲區永康街2巷6號","121.45933","25.086115","6501400","蘆洲區"
"247024","500-BY","2018/11/22 20:07:49","新北市蘆洲區光明路90號","121.462991666667","25.0878283333333","6501400","蘆洲區"
"247014","339-TH","2018/11/22 20:07:50","新北市蘆洲區中山二路245號","121.47034","25.079535","6501400","蘆洲區"
"247006","337-TH","2018/11/22 20:07:49","新北市蘆洲區和平路89號","121.468428333333","25.0786216666667","6501400","蘆洲區"
"247020","057-VK","2018/11/22 20:07:47","新北市蘆洲區民權路106巷5弄2-1號","121.474316666667","25.0890783333333","6501400","蘆洲區"
"247010","056-VK","2018/11/22 20:07:51","新北市蘆洲區集賢路385號","121.480408333333","25.0825616666667","6501400","蘆洲區"
"247008","053-VK","2018/11/22 20:07:53","新北市蘆洲區中山一路97巷23號","121.476008333333","25.08079","6501400","蘆洲區"
"247018","007-UY","2018/11/22 20:07:43","新北市蘆洲區民族路314巷5號","121.477635","25.0903233333333","6501400","蘆洲區"
"247004","002-UY","2018/11/22 20:07:53","新北市蘆洲區長安街285巷24號","121.457145","25.084005","6501400","蘆洲區"
"247022","001-UY","2018/11/22 20:07:54","新北市蘆洲區三民路193號","121.47057","25.0876616666667","6501400","蘆洲區"
"226004","312-R5","2018/11/22 20:07:54","新北市平溪區十分里十分街66巷17號","121.774896666667","25.0426833333333","6502400","平溪區"
"222001","KEA-2212","2018/11/22 20:07:48","新北市深坑區北深路三段212號","121.601108333333","25.0037816666667","6501800","深坑區"
"208003","665-BX","2018/11/22 20:07:51","新北市金山區海興路41號","121.63072","25.2384116666667","6502700","金山區"
"251009","008-UM","2018/11/22 20:07:42","新北市淡水區英專路2巷27號","121.446423333333","25.1694233333333","6501000","淡水區"
"251005","010-UM","2018/11/22 20:07:45","新北市淡水區學府路136巷1號","121.450831666667","25.1729716666667","6501000","淡水區"
"251001","011-UM","2018/11/22 20:07:55","新北市淡水區淡金路二段599號","121.445936666667","25.1924683333333","6501000","淡水區"
"251013","KEA-2871","2018/11/22 20:07:40","新北市淡水區奎柔山路250號","121.45559","25.2053783333333","6501000","淡水區"
"251016","179-VK","2018/11/22 20:07:42","新北市淡水區番子田25-3號","121.45616","25.2305333333333","6501000","淡水區"
"251008","181-VK","2018/11/22 20:07:44","新北市淡水區淡海路72巷30弄21號","121.424996666667","25.1828083333333","6501000","淡水區"
"251015","182-VK","2018/11/22 20:07:55","新北市淡水區埤島3-18號","121.447155","25.1907633333333","6501000","淡水區"
"251010","413-VK","2018/11/22 20:07:44","新北市淡水區崁頂三路119號","121.431668333333","25.200985","6501000","淡水區"
"251012","441-VK","2018/11/22 20:07:56","新北市淡水區淡金路三段254號","121.449073333333","25.206185","6501000","淡水區"
"251004","443-VK","2018/11/22 20:07:46","新北市淡水區民族路29巷46號","121.461786666667","25.1368216666667","6501000","淡水區"
"251006","561-UM","2018/11/22 20:07:55","新北市淡水區北新路141巷29號","121.448168333333","25.17963","6501000","淡水區"
"251003","766-UM","2018/11/22 20:07:44","新北市淡水區中山北路二段189巷15弄29號","121.44336","25.1841","6501000","淡水區"
"207003","550-UM","2018/11/22 20:07:44","新北市萬里區大鵬里萬里加投68號","121.64256","25.21483","6502800","萬里區"
"207004","225-TW","2018/11/22 20:07:41","新北市萬里區北基里孝五街27號","121.683086666667","25.17687","6502800","萬里區"
"252002","178-VK","2018/11/22 20:07:48","新北市三芝區三民街5號","121.504115","25.25792","6502100","三芝區"
"252001","292-VK","2018/11/22 20:07:59","新北市三芝區公正街66號","121.499788333333","25.2574666666667","6502100","三芝區"
"237004","KEA-2597","2018/11/22 20:07:48","新北市三峽區嘉添109-5號","121.369586666667","24.91068","6500900","三峽區"
"237009","210-TH","2018/11/22 20:07:52","新北市三峽區民族街10號","121.36907","24.931325","6500900","三峽區"
"237008","302-VK","2018/11/22 20:07:41","新北市三峽區中正路一段174巷2號","121.372296666667","24.9288166666667","6500900","三峽區"
"237014","433-BY","2018/11/22 20:07:55","新北市三峽區嘉添109-2號","121.369688333333","24.910575","6500900","三峽區"
"237006","5529-G3","2018/11/22 20:07:49","新北市三峽區中正路二段295號","121.36605","24.9107916666667","6500900","三峽區"
"237016","649-BX","2018/11/22 20:07:37","新北市三峽區介壽路二段138巷1弄13-1號","121.396261666667","24.933925","6500900","三峽區"
"237005","AKY-6261","2018/11/22 20:07:39","新北市三峽區三樹路98巷121號","121.382768333333","24.9384633333333","6500900","三峽區"
"236070","105-UM","2018/11/22 20:07:48","新北市土城區中央路三段149號","121.432288333333","24.9653616666667","6501300","土城區"
"236042","KED-0685","2018/11/22 20:07:50","新北市土城區學府路一段164巷21號","121.453573333333","24.9873483333333","6501300","土城區"
"236078","166-UM","2018/11/22 20:07:59","新北市土城區中山路45號","121.420335","24.962785","6501300","土城區"
"236030","253-BX","2018/11/22 20:07:57","新北市土城區日新街8巷4號","121.445396666667","24.9872916666667","6501300","土城區"
"236026","269-VK","2018/11/22 20:07:44","新北市土城區中央路一段287號","121.444518333333","24.984375","6501300","土城區"
"236014","270-VK","2018/11/22 20:07:50","新北市土城區廣明街39號","121.455363333333","24.9930366666667","6501300","土城區"
"236038","271-VK","2018/11/22 20:07:50","新北市土城區延吉街296巷1弄1號","121.464495","24.9842683333333","6501300","土城區"
"236021","401-BY","2018/11/22 20:07:55","新北市土城區延吉街57巷7號","121.472668333333","24.9873816666667","6501300","土城區"
"236059","912-UM","2018/11/22 20:07:57","新北市土城區中央路二段207號","121.441638333333","24.9744416666667","6501300","土城區"
"236049","913-UM","2018/11/22 20:07:56","新北市土城區清水路95號","121.456545","24.9817516666667","6501300","土城區"
"236055","AAC-216","2018/11/22 20:07:49","新北市土城區中華路一段24號","121.447458333333","24.9902683333333","6501300","土城區"
"242036","AAC-296","2018/11/22 20:07:43","新北市新莊區後港一路130巷35號","121.42996","25.02601","6500500","新莊區"
"242058","986-R7","2018/11/22 20:07:59","新北市新莊區八德街147號","121.423626666667","25.0197233333333","6500500","新莊區"
"242056","751-BX","2018/11/22 20:07:58","新北市新莊區新莊路649巷11-3號","121.44503","25.0319533333333","6500500","新莊區"
"242029","705-TV","2018/11/22 20:07:54","新北市新莊區中原路512號","121.446505","25.0545816666667","6500500","新莊區"
"242027","615-BX","2018/11/22 20:07:39","新北市新莊區幸福路764號","121.447191666667","25.0491383333333","6500500","新莊區"
"242025","613-BX","2018/11/22 20:07:41","新北市新莊區五工三路78巷8號","121.459198333333","25.06532","6500500","新莊區"
"242044","566-BX","2018/11/22 20:07:45","新北市新莊區中正路929巷7弄17號","121.411598333333","25.0200816666667","6500500","新莊區"
"242048","497-BY","2018/11/22 20:07:54","新北市新莊區四維路152巷22號","121.422146666667","25.022765","6500500","新莊區"
"242053","441-UM","2018/11/22 20:07:55","新北市新莊區西盛街421號","121.427295","25.012215","6500500","新莊區"
"242002","440-UM","2018/11/22 20:07:57","新北市新莊區思源路23號","121.46025","25.03881","6500500","新莊區"
"242039","415-TV","2018/11/22 20:07:40","新北市新莊區民安西路99-1號","121.426973333333","25.0188016666667","6500500","新莊區"
"242009","413-TV","2018/11/22 20:07:26","新北市新莊區昌盛街35巷1弄2號","121.454061666667","25.0502933333333","6500500","新莊區"
"242046","400-BY","2018/11/22 20:07:53","新北市新莊區裕民街103巷14號","121.41895","25.02284","6500500","新莊區"
"242023","362-BY","2018/11/22 20:07:44","新北市新莊區化成路604號","121.466198333333","25.05457","6500500","新莊區"
"242061","353-BY","2018/11/22 20:07:57","新北市新莊區瓊林路96-6號","121.443975","25.0270266666667","6500500","新莊區"
"242011","132-UY","2018/11/22 20:07:48","新北市新莊區中和街206號","121.447756666667","25.0504483333333","6500500","新莊區"
"242034","135-UY","2018/11/22 20:07:54","新北市新莊區中正路316號","121.446391666667","25.0350233333333","6500500","新莊區"
"242013","173-VK","2018/11/22 20:07:22","新北市新莊區幸福路670巷2弄9號","121.451508333333","25.049685","6500500","新莊區"
"242019","175-VK","2018/11/22 20:07:59","新北市新莊區長青街35巷2號","121.456731666667","25.0422","6500500","新莊區"
"242007","176-VK","2018/11/22 20:07:57","新北市新莊區思源路419巷1弄7號","121.459301666667","25.052165","6500500","新莊區"
"242031","348-TH","2018/11/22 20:07:47","新北市新莊區中正路360號","121.443688333333","25.0344016666667","6500500","新莊區"
"242004","349-TH","2018/11/22 20:07:55","新北市新莊區頭興街8號","121.465466666667","25.0536483333333","6500500","新莊區"
"242021","350-TH","2018/11/22 20:07:55","新北市新莊區建中街32巷12號","121.44881","25.0380833333333","6500500","新莊區"
"242015","351-TH","2018/11/22 20:07:51","新北市新莊區中平路10號","121.444726666667","25.0427033333333","6500500","新莊區"
"238015","755-BX","2018/11/22 20:07:46","新北市樹林區中山路三段204號","121.387318333333","24.968295","6500700","樹林區"
"238021","KEA-2539","2018/11/22 20:07:39","新北市樹林區佳園路二段30號","121.391588333333","24.9624016666667","6500700","樹林區"
"239006","891-R6","2018/11/22 20:07:42","新北市鶯歌區文化路87號","121.357478333333","24.9554583333333","6500800","鶯歌區"
"221008","489-VK","2018/11/22 20:07:50","新北市汐止區忠一街9巷7號","121.620521666667","25.0731733333333","6501100","汐止區"
"221036","130-UY","2018/11/22 20:07:49","新北市汐止區新台五路二段23號","121.662683333333","25.066175","6501100","汐止區"
"221015","131-UY","2018/11/22 20:07:53","新北市汐止區建成路26號","121.664501666667","25.0726716666667","6501100","汐止區"
"221010","269-BY","2018/11/22 20:07:55","新北市汐止區八連路一段198巷2號","121.642843333333","25.0825366666667","6501100","汐止區"
"221012","278-VK","2018/11/22 20:07:55","新北市汐止區汐平路二段1號","121.69328","25.0665666666667","6501100","汐止區"
"221032","280-BY","2018/11/22 20:07:49","新北市汐止區弘道街8巷1弄2號","121.61706","25.048355","6501100","汐止區"
"221027","281-BY","2018/11/22 20:07:55","新北市汐止區中正路127號","121.660248333333","25.069365","6501100","汐止區"
"221029","298-VK","2018/11/22 20:07:59","新北市汐止區樟樹一路129巷18弄15號","121.641366666667","25.0653083333333","6501100","汐止區"
"221021","299-VK","2018/11/22 20:07:57","新北市汐止區連興街144號","121.654071666667","25.06146","6501100","汐止區"
"221031","353-TW","2018/11/22 20:07:45","新北市汐止區中興路151號","121.631318333333","25.065875","6501100","汐止區"
"221035","622-UM","2018/11/22 20:07:40","新北市汐止區長江街67巷2弄2號","121.656785","25.072215","6501100","汐止區"
"221025","623-UM","2018/11/22 20:07:42","新北市汐止區秀峰路109巷7號","121.660468333333","25.063515","6501100","汐止區"
"221038","646-BX","2018/11/22 20:07:45","新北市汐止區大同路三段89號","121.667995","25.0772366666667","6501100","汐止區"
"221033","647-BX","2018/11/22 20:07:51","新北市汐止區東勢街201巷129弄2號","121.633473333333","25.0428583333333","6501100","汐止區"
"221002","707-TV","2018/11/22 20:07:53","新北市汐止區大同路一段219巷26號","121.633123333333","25.058565","6501100","汐止區"
"221018","753-BX","2018/11/22 20:07:51","新北市汐止區招商街160號","121.670883333333","25.0673933333333","6501100","汐止區"
"220080","200-UY","2018/11/22 20:07:59","新北市板橋區大觀路二段179巷16號","121.445565","24.9998233333333","6500100","板橋區"
"220101","245-BX","2018/11/22 20:07:56","新北市板橋區莒光路165巷28號","121.474265","25.0246966666667","6500100","板橋區"
"224002","257-TC","2018/11/22 20:07:42","新北市瑞芳區員山子路3-2號","121.819265","25.1045983333333","6501200","瑞芳區"
"220064","282-UM","2018/11/22 20:07:57","新北市板橋區長安街331巷50-3號","121.473551666667","25.013005","6500100","板橋區"
"220053","285-VK","2018/11/22 20:07:53","新北市板橋區中山路二段90巷24號","121.475726666667","25.0156416666667","6500100","板橋區"
"220083","286-VK","2018/11/22 20:07:44","新北市板橋區僑中二街86號","121.446501666667","25.009495","6500100","板橋區"
"220081","287-VK","2018/11/22 20:07:58","新北市板橋區僑中一街124巷17弄2號","121.446105","25.0137783333333","6500100","板橋區"
"220090","288-VK","2018/11/22 20:07:52","新北市板橋區新海路174號","121.460646666667","25.0235516666667","6500100","板橋區"
"220061","295-UM","2018/11/22 20:07:54","新北市板橋區觀光街79巷2號","121.469341666667","25.01697","6500100","板橋區"
"242042","281-VK","2018/11/22 20:07:55","新北市新莊區壽山路67號","121.409733333333","25.03268","6500500","新莊區"
"220092","307-R5","2018/11/22 20:07:50","新北市板橋區幸福路60巷73號","121.459918333333","25.0216433333333","6500100","板橋區"
"220098","317-R6","2018/11/22 20:07:54","新北市板橋區漢生西路165巷16號","121.46289","25.0235733333333","6500100","板橋區"
"220089","487-VK","2018/11/22 20:07:43","新北市板橋區互助街56號","121.461453333333","25.0268383333333","6500100","板橋區"
"242017","280-VK","2018/11/22 20:07:59","新北市新莊區中港路370號","121.452225","25.0472033333333","6500500","新莊區"
"220103","561-BX","2018/11/22 20:07:53","新北市板橋區陽明街239號","121.463103333333","25.0245416666667","6500100","板橋區"
"220057","686-BX","2018/11/22 20:07:43","新北市新莊區中環路三段200號","121.442375","25.054795","6500100","板橋區"
"220093","689-BX","2018/11/22 20:07:54","新北市板橋區長江路二段275號","121.469961666667","25.03297","6500100","板橋區"
"220070","806-UM","2018/11/22 20:07:51","新北市板橋區四川路二段47巷4弄17號","121.453435","24.9943366666667","6500100","板橋區"
"220055","827-TW","2018/11/22 20:07:55","新北市板橋區仁愛路57號","121.46041","24.9996033333333","6500100","板橋區"
"220067","829-TW","2018/11/22 20:07:42","新北市板橋區中山路一段206巷65號","121.47144","25.01301","6500100","板橋區"
"220102","830-TW","2018/11/22 20:07:51","新北市板橋區民治街139號","121.477515","25.030685","6500100","板橋區"
"220088","833-TW","2018/11/22 20:07:58","新北市板橋區民治街73-1號","121.4796","25.0326733333333","6500100","板橋區"
"220074","895-R6","2018/11/22 20:07:59","新北市板橋區館前西路66號","121.457691666667","25.00709","6500100","板橋區"
"220073","985-R7","2018/11/22 20:07:48","新北市板橋區大觀路一段28巷96號","121.450411666667","25.01107","6500100","板橋區"
"220097","AAC-210","2018/11/22 20:07:48","新北市板橋區建國街125號","121.460841666667","25.0176483333333","6500100","板橋區"
"235068","KEA-2873","2018/11/22 20:07:30","新北市中和區景平路675號","121.496661666667","25.0028366666667","6500300","中和區"
