"lineid","car","time","location","longitude","latitude","cityid","cityname"
"234081","298-R6","2018/11/22 20:17:46","新北市永和區福和路57巷14弄1號","121.522778333333","25.00699","6500400","永和區"
"234038","336-UY","2018/11/22 20:17:46","新北市永和區成功路一段93巷11號","121.527606666667","25.0027283333333","6500400","永和區"
"234064","337-UY","2018/11/22 20:17:48","新北市永和區得和路168號","121.519516666667","25.0001133333333","6500400","永和區"
"234086","338-UY","2018/11/22 20:17:43","新北市永和區中正路613號","121.51625","25.009795","6500400","永和區"
"234070","552-UM","2018/11/22 20:17:47","新北市永和區永利路23號","121.517985","25.0061366666667","6500400","永和區"
"234017","745-BX","2018/11/22 20:17:54","新北市永和區仁愛路48號","121.513941666667","25.013405","6500400","永和區"
"234030","746-BX","2018/11/22 20:17:56","新北市永和區民有街25巷4號","121.517223333333","24.99629","6500400","永和區"
"234054","KEA-2590","2018/11/22 20:18:00","新北市永和區光復街2巷3號","121.51673","25.0166083333333","6500400","永和區"
"234013","KEA-2591","2018/11/22 20:17:57","新北市永和區仁愛路295號","121.505248333333","25.009195","6500400","永和區"
"234061","AAD-866","2018/11/22 20:17:55","新北市永和區安樂路100巷21弄1號","121.514653333333","24.999065","6500400","永和區"
"234042","862-TW","2018/11/22 20:17:48","新北市中和區中安街166號","121.510826666667","25.000085","6500400","永和區"
"234050","863-TW","2018/11/22 20:17:57","新北市永和區新生路2-3號","121.509241666667","25.016865","6500400","永和區"
"234011","9373-KE","2018/11/22 20:17:47","新北市永和區保生路55-1號","121.504536666667","25.01088","6500400","永和區"
"249005","172-UM","2018/11/22 20:17:43","新北市八里區下罟子8-1號","121.385411666667","25.1399166666667","6502300","八里區"
"249001","173-UM","2018/11/22 20:17:43","新北市八里區中華路二段466號","121.400878333333","25.14617","6502300","八里區"
"249004","303-UY","2018/11/22 20:17:41","新北市八里區中山路一段129巷19-1號","121.413958333333","25.1586133333333","6502300","八里區"
"249003","593-UM","2018/11/22 20:17:56","新北市八里區中山路二段447巷15號","121.397018333333","25.14542","6502300","八里區"
"248014","025-BX","2018/11/22 20:17:45","新北市八里區荖阡坑路34-2號","121.40154","25.1300283333333","6501500","五股區"
"248012","247-BX","2018/11/22 20:17:43","新北市五股區民義路一段212號","121.430611666667","25.0893183333333","6501500","五股區"
"248004","677-BX","2018/11/22 20:17:55","新北市五股區中興路四段54號","121.438036666667","25.0829483333333","6501500","五股區"
"248002","678-BX","2018/11/22 20:17:47","新北市五股區成泰路三段165號","121.445191666667","25.0918066666667","6501500","五股區"
"248010","682-TV","2018/11/22 20:17:40","新北市五股區新五路二段2巷2-1號","121.438375","25.0654533333333","6501500","五股區"
"234023","9380-KE","2018/11/22 20:17:46","新北市永和區勵行街4號","121.516015","25.0144383333333","6500400","永和區"
"234077","969-R7","2018/11/22 20:17:46","新北市永和區智光街128號","121.51501","24.9956166666667","6500400","永和區"
"234074","AAC-211","2018/11/22 20:17:49","新北市永和區竹林路201巷22弄11號","121.522558333333","25.0093916666667","6500400","永和區"
"234067","AAC-212","2018/11/22 20:17:48","新北市永和區保平路266號","121.508686666667","25.0051466666667","6500400","永和區"
"234003","AAC-295","2018/11/22 20:17:54","新北市永和區自強街16號","121.515046666667","25.0080716666667","6500400","永和區"
"243013","AAD-798","2018/11/22 20:17:55","新北市泰山區新民路36號","121.427088333333","25.0444283333333","6501600","泰山區"
"243009","297-R6","2018/11/22 20:17:48","新北市泰山區福泰街63號","121.433833333333","25.0596933333333","6501600","泰山區"
"243016","KEA-2801","2018/11/22 20:17:59","新北市泰山區明志路三段98號","121.425015","25.0412166666667","6501600","泰山區"
"243015","421-VK","2018/11/22 20:17:41","新北市泰山區仁德路84號","121.433095","25.05646","6501600","泰山區"
"243011","KEA-2215","2018/11/22 20:17:55","新北市泰山區德安街4號","121.41905","25.0320766666667","6501600","泰山區"
"243010","KEA-2216","2018/11/22 20:17:40","新北市泰山區明志路二段254巷6號","121.426696666667","25.0476316666667","6501600","泰山區"
"243012","646-TV","2018/11/22 20:17:50","新北市泰山區楓江路113號","121.438456666667","25.0640633333333","6501600","泰山區"
"243014","680-BX","2018/11/22 20:17:39","新北市泰山區泰林路二段462-1號","121.425741666667","25.0641266666667","6501600","泰山區"
"222003","436-BY","2018/11/22 20:17:59","新北市深坑區文化街43號","121.617531666667","25.001875","6501800","深坑區"
"222002","659-BX","2018/11/22 20:17:40","新北市深坑區北深路三段158巷1號","121.601226666667","25.0049816666667","6501800","深坑區"
"231041","002-UM","2018/11/22 20:17:55","新北市新店區民權路56號","121.53879","24.982985","6500600","新店區"
"231059","046-UY","2018/11/22 20:17:55","新北市新店區安德街55號","121.510783333333","24.9620966666667","6500600","新店區"
"231040","047-UY","2018/11/22 20:17:53","新北市新店區中正路118號","121.542298333333","24.9711","6500600","新店區"
"231044","106-UY","2018/11/22 20:17:43","新北市新店區北新路三段196號","121.541361666667","24.9832933333333","6500600","新店區"
"231052","108-UY","2018/11/22 20:17:48","新北市新店區廣興路松碧巷1號","121.5468","24.91198","6500600","新店區"
"231062","110-UY","2018/11/22 20:17:53","新北市新店區安泰路7巷16號","121.485716666667","24.9509916666667","6500600","新店區"
"231047","187-VK","2018/11/22 20:17:49","新北市新店區寶橋路85巷5弄3號","121.545676666667","24.975975","6500600","新店區"
"231054","KEA-2219","2018/11/22 20:17:48","新北市新店區檳榔路69號","121.543935","24.9621283333333","6500600","新店區"
"231057","256-BX","2018/11/22 20:17:52","新北市新店區花園五路二段27號","121.554731666667","24.9347766666667","6500600","新店區"
"231042","268-BY","2018/11/22 20:17:45","新北市新店區中興路一段292號","121.545965","24.9692183333333","6500600","新店區"
"231051","278-BY","2018/11/22 20:18:00","新北市新店區中央六街84號","121.526663333333","24.9765933333333","6500600","新店區"
"231050","AAD-862","2018/11/22 20:17:54","新北市新店區中正路179號","121.540816666667","24.9722116666667","6500600","新店區"
"231058","3713-VJ","2018/11/22 20:17:53","新北市新店區溪園路389-12號","121.52325","24.97883","6500600","新店區"
"231066","4716-K9","2018/11/22 20:17:58","新北市新店區柴埕路52巷12號","121.511825","24.9648083333333","6500600","新店區"
"231056","4715-K9","2018/11/22 20:18:00","新北市新店區中正路275巷7號","121.537446666667","24.973895","6500600","新店區"
"231067","4772-VM","2018/11/22 20:17:51","新北市新店區安康路一段44號","121.530821666667","24.9610633333333","6500600","新店區"
"231065","512-UM","2018/11/22 20:17:55","新北市新店區安祥路104巷1弄1號","121.481223333333","24.9627333333333","6500600","新店區"
"231049","513-UM","2018/11/22 20:17:43","新北市新店區北新路二段35號","121.542658333333","24.9726083333333","6500600","新店區"
"231063","616-UM","2018/11/22 20:17:51","新北市新店區柴埕路116號","121.504593333333","24.9594883333333","6500600","新店區"
"231045","617-UM","2018/11/22 20:17:56","新北市新店區新坡一街80-3號","121.547736666667","24.96438","6500600","新店區"
"231061","619-UM","2018/11/22 20:17:58","新北市新店區安興路33-1號","121.515951666667","24.97051","6500600","新店區"
"231068","718-UY","2018/11/22 20:17:56","新北市新店區寶安街35號","121.541971666667","24.982495","6500600","新店區"
"231064","720-UM","2018/11/22 20:17:43","新北市新店區安樂街1-1號","121.520031666667","24.9736416666667","6500600","新店區"
"231060","897-TW","2018/11/22 20:18:00","新北市新店區錦秀路3號","121.479196666667","24.945085","6500600","新店區"
"231043","899-TW","2018/11/22 20:17:52","新北市新店區建國路135號","121.53926","24.97837","6500600","新店區"
"231055","AKT-0513","2018/11/22 20:17:55","新北市新店區環河路2號","121.538385","24.9617333333333","6500600","新店區"
"241011","013-R5","2018/11/22 20:17:40","新北市三重區龍門路51號","121.496318333333","25.0722066666667","6500200","三重區"
"241028","022-UY","2018/11/22 20:17:45","新北市三重區大同南路128號","121.496351666667","25.058295","6500200","三重區"
"241008","059-VK","2018/11/22 20:17:51","新北市三重區永福街211巷2弄2號","121.479895","25.0741766666667","6500200","三重區"
"241022","060-VK","2018/11/22 20:17:59","新北市三重區新北大道一段42號","121.487885","25.06156","6500200","三重區"
"241031","061-VK","2018/11/22 20:17:52","新北市三重區三寧街25號","121.48955","25.0598166666667","6500200","三重區"
"241015","062-VK","2018/11/22 20:17:53","新北市三重區重新路一段102號","121.501103333333","25.0633016666667","6500200","三重區"
"241017","063-VK","2018/11/22 20:17:56","新北市三重區自強路一段147-1號","121.493996666667","25.066845","6500200","三重區"
"241024","065-VK","2018/11/22 20:17:56","新北市三重區中正北路278號","121.480793333333","25.0684516666667","6500200","三重區"
"241026","066-VK","2018/11/22 20:17:59","新北市三重區福德南路7號","121.502705","25.0632916666667","6500200","三重區"
"241002","090-VK","2018/11/22 20:17:56","新北市三重區仁義街157巷96號","121.499071666667","25.0820566666667","6500200","三重區"
"241003","091-VK","2018/11/22 20:17:40","新北市三重區富華街68號","121.490518333333","25.0831616666667","6500200","三重區"
"251014","742-BX","2018/11/22 20:17:58","新北市淡水區石頭厝1號","121.458728333333","25.235505","6501000","淡水區"
"241005","262-UM","2018/11/22 20:17:50","新北市三重區碧華街213號","121.488668333333","25.08274","6500200","三重區"
"241016","265-UM","2018/11/22 20:17:47","新北市三重區大同北路97-2號","121.49448","25.0636716666667","6500200","三重區"
"241009","267-UM","2018/11/22 20:17:59","新北市三重區三和路四段382巷21號","121.48181","25.0787083333333","6500200","三重區"
"241018","268-UM","2018/11/22 20:17:51","新北市三重區雙園街110-1號","121.494813333333","25.067515","6500200","三重區"
"241032","269-UM","2018/11/22 20:17:59","新北市三重區捷運路19巷6弄2號","121.485038333333","25.0569333333333","6500200","三重區"
"241013","270-UM","2018/11/22 20:17:50","新北市三重區三和路三段151巷7號","121.492401666667","25.07388","6500200","三重區"
"241025","271-UM","2018/11/22 20:17:52","新北市三重區三民街261號","121.479385","25.0679233333333","6500200","三重區"
"241007","398-BY","2018/11/22 20:17:44","新北市三重區三和路四段117巷28號","121.486391666667","25.0779266666667","6500200","三重區"
"241035","462-BY","2018/11/22 20:17:40","新北市三重區正義北路33巷48號","121.499008333333","25.06394","6500200","三重區"
"241004","475-VK","2018/11/22 20:17:55","新北市三重區仁政街205號","121.490585","25.0805733333333","6500200","三重區"
"241030","480-VK","2018/11/22 20:17:44","新北市三重區集美街116號","121.48866","25.0537833333333","6500200","三重區"
"241014","543-UM","2018/11/22 20:17:58","新北市三重區長樂街135巷1號","121.503428333333","25.06987","6500200","三重區"
"241023","545-UM","2018/11/22 20:17:53","新北市三重區自由街39巷7號","121.478381666667","25.0670533333333","6500200","三重區"
"241001","547-UM","2018/11/22 20:17:46","新北市三重區自強路四段5號","121.48877","25.076105","6500200","三重區"
"241019","KEA-2593","2018/11/22 20:17:43","新北市三重區忠孝路一段30巷58號","121.490505","25.0713116666667","6500200","三重區"
"241006","AAD-863","2018/11/22 20:18:00","新北市三重區車路頭街133號","121.484473333333","25.07614","6500200","三重區"
"241020","743-BX","2018/11/22 20:17:22","新北市三重區忠孝路一段87號","121.490133333333","25.0721266666667","6500200","三重區"
"241012","941-UM","2018/11/22 20:17:55","新北市三重區河邊北街262號","121.501688333333","25.07645","6500200","三重區"
"241029","942-UM","2018/11/22 20:17:44","新北市三重區光明路96巷15號","121.49303","25.05668","6500200","三重區"
"235066","003-UY","2018/11/22 20:17:57","新北市中和區保平路247號","121.507285","25.0041416666667","6500300","中和區"
"235039","097-UM","2018/11/22 20:17:43","新北市中和區大勇街27巷8號","121.517028333333","24.99382","6500300","中和區"
"235065","098-UM","2018/11/22 20:17:50","新北市中和區橋和路298號","121.496866666667","25.0068216666667","6500300","中和區"
"247012","KEA-2869","2018/11/22 20:17:49","新北市蘆洲區中興街15巷16號","121.480346666667","25.0874883333333","6501400","蘆洲區"
"235050","4979-A6","2018/11/22 20:17:38","新北市中和區景新街264號","121.509866666667","24.9930216666667","6500300","中和區"
"235069","4980-A6","2018/11/22 20:17:50","新北市中和區南山路127巷27弄14號","121.503358333333","24.9979783333333","6500300","中和區"
"235054","640-BX","2018/11/22 20:17:45","新北市八里區商港路12號","121.396885","25.1446733333333","6500300","中和區"
"235059","AAC-215","2018/11/22 20:17:53","新北市中和區圓通路367巷13弄17號","121.492768333333","24.9882433333333","6500300","中和區"
"247002","893-R6","2018/11/22 20:17:40","新北市蘆洲區長安街331巷32號","121.456006666667","25.0866816666667","6501400","蘆洲區"
"247016","546-UM","2018/11/22 20:17:48","新北市蘆洲區光華路150巷19號","121.4652","25.0831716666667","6501400","蘆洲區"
"247024","500-BY","2018/11/22 20:17:49","新北市蘆洲區光榮路120巷8弄41號","121.464561666667","25.0878283333333","6501400","蘆洲區"
"247014","339-TH","2018/11/22 20:17:42","新北市蘆洲區中山二路130號","121.471723333333","25.081745","6501400","蘆洲區"
"247006","337-TH","2018/11/22 20:17:49","新北市蘆洲區九芎街153巷29號","121.466248333333","25.0784333333333","6501400","蘆洲區"
"247020","057-VK","2018/11/22 20:17:47","新北市蘆洲區仁愛街42號","121.471991666667","25.0933116666667","6501400","蘆洲區"
"247010","056-VK","2018/11/22 20:18:01","新北市蘆洲區信義路188巷4弄2號","121.479838333333","25.08444","6501400","蘆洲區"
"247008","053-VK","2018/11/22 20:17:33","新北市蘆洲區集賢路393號","121.480466666667","25.0822916666667","6501400","蘆洲區"
"247018","007-UY","2018/11/22 20:17:42","新北市蘆洲區民族路257巷2號","121.476536666667","25.0905233333333","6501400","蘆洲區"
"247004","002-UY","2018/11/22 20:17:52","新北市蘆洲區永康街1巷10號","121.459595","25.0856716666667","6501400","蘆洲區"
"247022","001-UY","2018/11/22 20:17:52","新北市蘆洲區民族路439號","121.467838333333","25.0890216666667","6501400","蘆洲區"
"222001","KEA-2212","2018/11/22 20:17:48","新北市深坑區北深路三段243巷12弄2號","121.599116666667","25.0041016666667","6501800","深坑區"
"251001","011-UM","2018/11/22 20:17:55","新北市淡水區淡金路二段599號","121.44594","25.1924566666667","6501000","淡水區"
"251013","KEA-2871","2018/11/22 20:18:00","新北市淡水區奎柔山路752巷31號","121.474315","25.2052733333333","6501000","淡水區"
"251016","179-VK","2018/11/22 20:17:41","新北市淡水區番子田103號","121.461133333333","25.2285933333333","6501000","淡水區"
"251008","181-VK","2018/11/22 20:18:00","新北市淡水區淡海路150巷12號","121.422281666667","25.1841966666667","6501000","淡水區"
"251015","182-VK","2018/11/22 20:17:53","新北市淡水區淡金路四段542巷17號","121.452725","25.2270966666667","6501000","淡水區"
"251010","413-VK","2018/11/22 20:17:44","新北市淡水區濱海路三段138號","121.427178333333","25.1912083333333","6501000","淡水區"
"251012","441-VK","2018/11/22 20:17:56","新北市淡水區下圭柔山431-1號","121.449836666667","25.210255","6501000","淡水區"
"251006","561-UM","2018/11/22 20:17:55","新北市淡水區北新路169巷57號","121.448633333333","25.180775","6501000","淡水區"
"251002","672-BX","2018/11/22 20:17:40","新北市淡水區中正路232號","121.438978333333","25.1708916666667","6501000","淡水區"
"251003","766-UM","2018/11/22 20:17:44","新北市淡水區中山北路一段229號","121.444495","25.1794633333333","6501000","淡水區"
"207004","225-TW","2018/11/22 20:17:41","新北市萬里區北基里仁六街1號","121.681465","25.1750233333333","6502800","萬里區"
"252002","178-VK","2018/11/22 20:17:48","新北市三芝區中正路一段21號","121.502935","25.2586116666667","6502100","三芝區"
"252001","292-VK","2018/11/22 20:17:39","新北市三芝區中山路一段14號","121.500696666667","25.2580033333333","6502100","三芝區"
"237006","5529-G3","2018/11/22 20:17:49","新北市三峽區中正路二段269號","121.36612","24.9116333333333","6500900","三峽區"
"237016","649-BX","2018/11/22 20:17:57","新北市三峽區介壽路二段165號","121.394191666667","24.93598","6500900","三峽區"
"236070","105-UM","2018/11/22 20:17:48","新北市土城區中山路65號","121.426216666667","24.9648783333333","6501300","土城區"
"236042","KED-0685","2018/11/22 20:17:50","新北市土城區裕民路95號","121.450455","24.9871466666667","6501300","土城區"
"236078","166-UM","2018/11/22 20:17:53","新北市土城區德安街4巷1號","121.422208333333","24.9647733333333","6501300","土城區"
"236030","253-BX","2018/11/22 20:17:58","新北市土城區中央路一段45巷2弄5號","121.44848","24.9901366666667","6501300","土城區"
"236026","269-VK","2018/11/22 20:17:44","新北市土城區裕生路100巷1號","121.446456666667","24.9850133333333","6501300","土城區"
"236014","270-VK","2018/11/22 20:17:50","新北市土城區廣明街63巷21號","121.454103333333","24.993185","6501300","土城區"
"236059","912-UM","2018/11/22 20:17:57","新北市土城區大安路2號","121.432723333333","24.9655033333333","6501300","土城區"
"242036","AAC-296","2018/11/22 20:16:38","新北市新莊區建安街78號","121.426588333333","25.0243333333333","6500500","新莊區"
"242058","986-R7","2018/11/22 20:17:39","新北市新莊區龍安路278巷22號","121.421755","25.0185216666667","6500500","新莊區"
"242056","751-BX","2018/11/22 20:17:53","新北市新莊區豐年街28巷16號","121.445553333333","25.0323616666667","6500500","新莊區"
"242029","705-TV","2018/11/22 20:17:53","新北市新莊區中原路114號","121.45038","25.0545566666667","6500500","新莊區"
"242027","615-BX","2018/11/22 20:17:59","新北市新莊區幸福路552號","121.454955","25.0493816666667","6500500","新莊區"
"242025","613-BX","2018/11/22 20:17:40","新北市新莊區五工二路70巷4號","121.460505","25.0660716666667","6500500","新莊區"
"242044","566-BX","2018/11/22 20:17:49","新北市新莊區中正路893巷6-1號","121.413683333333","25.0208866666667","6500500","新莊區"
"242048","497-BY","2018/11/22 20:17:48","新北市新莊區龍安路293號","121.42101","25.0198166666667","6500500","新莊區"
"242053","441-UM","2018/11/22 20:17:55","新北市新莊區西盛街364號","121.427863333333","25.01354","6500500","新莊區"
"242002","440-UM","2018/11/22 20:17:57","新北市新莊區化成路32號","121.46498","25.0430216666667","6500500","新莊區"
"242039","415-TV","2018/11/22 20:17:40","新北市新莊區龍安路441號","121.42447","25.018625","6500500","新莊區"
"242009","413-TV","2018/11/22 20:17:52","新北市新莊區昌平街5號","121.454868333333","25.0516033333333","6500500","新莊區"
"242046","400-BY","2018/11/22 20:17:53","新北市新莊區中正路新生巷6號","121.416983333333","25.0240533333333","6500500","新莊區"
"242023","362-BY","2018/11/22 20:17:44","新北市新莊區化成路766號","121.465295","25.0587866666667","6500500","新莊區"
"242061","353-BY","2018/11/22 20:17:57","新北市新莊區新樹路172-13號","121.434613333333","25.0217083333333","6500500","新莊區"
"242011","132-UY","2018/11/22 20:17:48","新北市新莊區幸福路710巷6弄1號","121.449996666667","25.049645","6500500","新莊區"
"242034","135-UY","2018/11/22 20:17:57","新北市新莊區建中街90巷5弄2號","121.4468","25.0375466666667","6500500","新莊區"
"242013","173-VK","2018/11/22 20:17:52","新北市新莊區中和街186巷39號","121.448528333333","25.0499583333333","6500500","新莊區"
"242019","175-VK","2018/11/22 20:17:48","新北市新莊區復興路二段196巷2弄1號","121.45935","25.0440633333333","6500500","新莊區"
"242007","176-VK","2018/11/22 20:17:57","新北市新莊區福壽街124巷34弄8號","121.459261666667","25.0510016666667","6500500","新莊區"
"242031","348-TH","2018/11/22 20:17:47","新北市新莊區義豐街1號","121.440958333333","25.0344766666667","6500500","新莊區"
"242004","349-TH","2018/11/22 20:17:55","新北市新莊區頭前路70-1號","121.466531666667","25.0526183333333","6500500","新莊區"
"242021","350-TH","2018/11/22 20:17:55","新北市新莊區中正路283號","121.448943333333","25.035395","6500500","新莊區"
"242015","351-TH","2018/11/22 20:17:51","新北市新莊區永樂街209號","121.447581666667","25.0444933333333","6500500","新莊區"
"238015","755-BX","2018/11/22 20:17:46","新北市樹林區中山路三段204號","121.387231666667","24.9682966666667","6500700","樹林區"
"221008","489-VK","2018/11/22 20:17:50","台北市內湖區康樂街193-2號","121.620501666667","25.075795","6501100","汐止區"
"221036","130-UY","2018/11/22 20:17:48","新北市汐止區仁愛路152巷33-1號","121.66503","25.0636866666667","6501100","汐止區"
"221015","131-UY","2018/11/22 20:17:53","新北市汐止區建成路142巷19弄13號","121.661961666667","25.0739183333333","6501100","汐止區"
"221010","269-BY","2018/11/22 20:17:57","新北市汐止區八連路二段323號","121.629393333333","25.099655","6501100","汐止區"
"221012","278-VK","2018/11/22 20:17:55","新北市汐止區保新街275號","121.692246666667","25.0685433333333","6501100","汐止區"
"221032","280-BY","2018/11/22 20:17:49","新北市汐止區民權街二段28號","121.619436666667","25.04994","6501100","汐止區"
"221027","281-BY","2018/11/22 20:17:59","新北市汐止區大同路二段435號","121.65907","25.0673266666667","6501100","汐止區"
"221029","298-VK","2018/11/22 20:17:58","新北市汐止區樟樹一路99巷7弄2號","121.641113333333","25.0635816666667","6501100","汐止區"
"221021","299-VK","2018/11/22 20:17:37","新北市汐止區水源路一段261號","121.65411","25.0595633333333","6501100","汐止區"
"221031","353-TW","2018/11/22 20:17:45","新北市汐止區原興路60巷8-1號","121.63315","25.065725","6501100","汐止區"
"221035","622-UM","2018/11/22 20:18:00","新北市汐止區長江街101-5號","121.658686666667","25.0732266666667","6501100","汐止區"
"221025","623-UM","2018/11/22 20:17:43","新北市汐止區仁愛路1號","121.658635","25.0644033333333","6501100","汐止區"
"221038","646-BX","2018/11/22 20:17:45","新北市汐止區忠孝東路464號","121.666235","25.0731266666667","6501100","汐止區"
"221033","647-BX","2018/11/22 20:17:51","新北市汐止區東勢街201巷129弄2號","121.633466666667","25.0428583333333","6501100","汐止區"
"221002","707-TV","2018/11/22 20:17:53","新北市汐止區福德二路16巷14-1號","121.635728333333","25.0687033333333","6501100","汐止區"
"221018","753-BX","2018/11/22 20:17:51","新北市汐止區茄興街12號","121.673538333333","25.0671416666667","6501100","汐止區"
"220101","245-BX","2018/11/22 20:17:56","新北市板橋區雙十路二段4號","121.477153333333","25.0252466666667","6500100","板橋區"
"220053","285-VK","2018/11/22 20:17:53","新北市板橋區永豐街129號","121.474626666667","25.0198483333333","6500100","板橋區"
"220083","286-VK","2018/11/22 20:17:44","新北市板橋區僑中二街92巷2號","121.446206666667","25.0089633333333","6500100","板橋區"
"220081","287-VK","2018/11/22 20:17:57","新北市板橋區僑中一街102巷5弄15號","121.44602","25.0126583333333","6500100","板橋區"
"220061","295-UM","2018/11/22 20:17:54","新北市板橋區中山路一段156號","121.464908333333","25.01158","6500100","板橋區"
"242042","281-VK","2018/11/22 20:17:55","新北市新莊區天祥街54巷3弄2號","121.416948333333","25.029605","6500500","新莊區"
"220092","307-R5","2018/11/22 20:17:50","新北市板橋區民權路174號","121.459615","25.0133066666667","6500100","板橋區"
"220089","487-VK","2018/11/22 20:17:43","新北市板橋區四維路131號","121.465111666667","25.025205","6500100","板橋區"
"242017","280-VK","2018/11/22 20:17:56","新北市新莊區中港一街41號","121.450771666667","25.0455066666667","6500500","新莊區"
"220103","561-BX","2018/11/22 20:17:53","新北市板橋區漢生西路29號","121.463173333333","25.01832","6500100","板橋區"
"220057","686-BX","2018/11/22 20:17:42","新北市五股區中直路31號","121.41994","25.1125183333333","6500100","板橋區"
"220070","806-UM","2018/11/22 20:17:51","新北市板橋區四川路二段245巷14號","121.451003333333","24.9931033333333","6500100","板橋區"
"220055","827-TW","2018/11/22 20:17:54","新北市板橋區忠孝路48巷11弄16號","121.4621","24.9998433333333","6500100","板橋區"
"220102","830-TW","2018/11/22 20:17:52","新北市板橋區文化路一段156號","121.465655","25.0191383333333","6500100","板橋區"
"220088","833-TW","2018/11/22 20:17:57","新北市三重區重新路五段326巷25-1號","121.47905","25.0438083333333","6500100","板橋區"
"235068","KEA-2873","2018/11/22 20:17:30","新北市中和區勝利路35巷1弄5號","121.499153333333","25.0075383333333","6500300","中和區"
