"lineid","car","time","location","longitude","latitude","cityid","cityname"
"234081","298-R6","2018/11/22 20:27:54","新北市永和區福和路57巷4弄1號","121.522941666667","25.007255","6500400","永和區"
"234038","336-UY","2018/11/22 20:27:46","新北市永和區民樂街31巷6弄14號","121.528841666667","25.0015516666667","6500400","永和區"
"234064","337-UY","2018/11/22 20:27:48","新北市永和區中正路417號","121.517075","25.00481","6500400","永和區"
"234086","338-UY","2018/11/22 20:27:43","新北市永和區永和路二段217號","121.515596666667","25.0140616666667","6500400","永和區"
"234070","552-UM","2018/11/22 20:27:47","新北市永和區永亨路7號","121.51941","25.0057","6500400","永和區"
"234030","746-BX","2018/11/22 20:27:56","新北市永和區民族街81巷32號","121.519195","24.9965533333333","6500400","永和區"
"234054","KEA-2590","2018/11/22 20:27:40","新北市永和區光復街31-1號","121.516376666667","25.01788","6500400","永和區"
"234061","AAD-866","2018/11/22 20:27:55","新北市永和區得和路12號","121.515116666667","25.00055","6500400","永和區"
"234042","862-TW","2018/11/22 20:27:48","新北市永和區安樂路248號","121.514703333333","25.0032683333333","6500400","永和區"
"234050","863-TW","2018/11/22 20:27:54","新北市永和區環河西路二段19號","121.50774","25.0159716666667","6500400","永和區"
"249005","172-UM","2018/11/22 20:27:42","新北市八里區中山路三段279號","121.379066666667","25.1380066666667","6502300","八里區"
"249001","173-UM","2018/11/22 20:27:43","新北市八里區商港路46號","121.396325","25.1452233333333","6502300","八里區"
"249004","303-UY","2018/11/22 20:27:41","新北市八里區中山路一段129巷19-1號","121.413943333333","25.158595","6502300","八里區"
"249003","593-UM","2018/11/22 20:27:56","新北市八里區華峰一街40號","121.398643333333","25.1463733333333","6502300","八里區"
"248002","678-BX","2018/11/22 20:27:47","新北市五股區成泰路三段6-1號","121.441433333333","25.0877766666667","6501500","五股區"
"248010","682-TV","2018/11/22 20:28:00","新北市泰山區新五路一段135號","121.43956","25.0636616666667","6501500","五股區"
"234023","9380-KE","2018/11/22 20:27:46","新北市永和區博愛街30號","121.518656666667","25.015785","6500400","永和區"
"234074","AAC-211","2018/11/22 20:27:49","新北市永和區豫溪街217巷27號","121.524321666667","25.0102116666667","6500400","永和區"
"234067","AAC-212","2018/11/22 20:27:48","新北市永和區保平路292巷13弄2號","121.507308333333","25.005335","6500400","永和區"
"234003","AAC-295","2018/11/22 20:27:54","新北市永和區大新街62號","121.516366666667","25.008275","6500400","永和區"
"243009","297-R6","2018/11/22 20:27:48","新北市泰山區忠孝街41巷1號","121.428463333333","25.065425","6501600","泰山區"
"243016","KEA-2801","2018/11/22 20:27:39","新北市泰山區明志路二段304號","121.426475","25.0463083333333","6501600","泰山區"
"243015","421-VK","2018/11/22 20:27:41","新北市泰山區泰林路二段533號","121.423458333333","25.06373","6501600","泰山區"
"243011","KEA-2215","2018/11/22 20:27:54","新北市泰山區台麗街24-2號","121.42558","25.0376683333333","6501600","泰山區"
"243010","KEA-2216","2018/11/22 20:28:00","新北市泰山區新生路33號","121.427678333333","25.04524","6501600","泰山區"
"243012","646-TV","2018/11/22 20:27:50","新北市泰山區忠孝街19巷3-1號","121.427483333333","25.06575","6501600","泰山區"
"243014","680-BX","2018/11/22 20:27:59","新北市泰山區黎明里35號","121.41095","25.0703183333333","6501600","泰山區"
"222003","436-BY","2018/11/22 20:27:49","新北市深坑區深坑街49號","121.615308333333","25.0017966666667","6501800","深坑區"
"222002","659-BX","2018/11/22 20:27:40","新北市深坑區萬福路16巷3號","121.603158333333","25.0079116666667","6501800","深坑區"
"231041","002-UM","2018/11/22 20:27:59","新北市新店區中正路508號","121.533738333333","24.9829466666667","6500600","新店區"
"231059","046-UY","2018/11/22 20:27:55","新北市新店區安德街147號","121.508451666667","24.959955","6500600","新店區"
"231040","047-UY","2018/11/22 20:27:53","新北市新店區三民路122號","121.534493333333","24.9744366666667","6500600","新店區"
"231044","106-UY","2018/11/22 20:27:43","新北市新店區建國路132號","121.53913","24.9788983333333","6500600","新店區"
"231052","108-UY","2018/11/22 20:27:48","新北市新店區松林路38號","121.546288333333","24.9102416666667","6500600","新店區"
"231062","110-UY","2018/11/22 20:27:53","新北市新店區安泰路7巷16號","121.485666666667","24.950985","6500600","新店區"
"231047","187-VK","2018/11/22 20:27:49","新北市新店區寶慶街58巷21-1號","121.542021666667","24.9873166666667","6500600","新店區"
"231054","KEA-2219","2018/11/22 20:27:48","新北市新店區檳榔路123號","121.544655","24.9615316666667","6500600","新店區"
"231057","256-BX","2018/11/22 20:27:52","新北市新店區花園五路二段1號","121.553526666667","24.9342183333333","6500600","新店區"
"231042","268-BY","2018/11/22 20:27:45","新北市新店區中興路二段252號","121.547506666667","24.9759533333333","6500600","新店區"
"231051","278-BY","2018/11/22 20:27:40","新北市新店區中央七街33號","121.529301666667","24.9755616666667","6500600","新店區"
"231050","AAD-862","2018/11/22 20:27:54","新北市新店區建興街9巷1號","121.539973333333","24.9763216666667","6500600","新店區"
"231058","3713-VJ","2018/11/22 20:27:52","新北市新店區三民路191號","121.53551","24.97575","6500600","新店區"
"231066","4716-K9","2018/11/22 20:27:38","新北市新店區安興路33-1號","121.515811666667","24.9704216666667","6500600","新店區"
"231056","4715-K9","2018/11/22 20:27:40","新北市新店區中正路331-1號","121.536201666667","24.9752433333333","6500600","新店區"
"231067","4772-VM","2018/11/22 20:27:51","新北市新店區安華路28-1號","121.519596666667","24.9608583333333","6500600","新店區"
"231065","512-UM","2018/11/22 20:27:48","新北市新店區安祥路102巷42弄77號","121.486498333333","24.9631583333333","6500600","新店區"
"231049","513-UM","2018/11/22 20:27:43","新北市新店區華潭街31號","121.529996666667","24.9551833333333","6500600","新店區"
"231063","616-UM","2018/11/22 20:27:51","新北市新店區玫瑰路4-1號","121.493561666667","24.951405","6500600","新店區"
"231045","617-UM","2018/11/22 20:27:56","新北市新店區新坡一街32號","121.549213333333","24.9622566666667","6500600","新店區"
"231061","619-UM","2018/11/22 20:27:38","新北市新店區安和路三段47-1號","121.518026666667","24.9821016666667","6500600","新店區"
"231068","718-UY","2018/11/22 20:27:55","新北市新店區寶安街38號","121.542011666667","24.9825966666667","6500600","新店區"
"231064","720-UM","2018/11/22 20:27:43","新北市新店區新和街34號","121.519166666667","24.9847633333333","6500600","新店區"
"231060","897-TW","2018/11/22 20:27:40","新北市新店區錦秀路71巷1號","121.478875","24.9424766666667","6500600","新店區"
"231043","899-TW","2018/11/22 20:27:52","新北市新店區建國路104號","121.539838333333","24.9778433333333","6500600","新店區"
"231055","AKT-0513","2018/11/22 20:27:55","新北市新店區安德街60巷9-1號","121.509346666667","24.96229","6500600","新店區"
"241011","013-R5","2018/11/22 20:28:00","新北市三重區龍門路110號","121.497741666667","25.0728283333333","6500200","三重區"
"241028","022-UY","2018/11/22 20:27:45","新北市三重區光興街95號","121.497293333333","25.0599633333333","6500200","三重區"
"241008","059-VK","2018/11/22 20:27:51","新北市三重區車路頭街135號","121.484203333333","25.075835","6500200","三重區"
"241022","060-VK","2018/11/22 20:27:39","新北市三重區民生街61巷18弄6號","121.487653333333","25.062935","6500200","三重區"
"241031","061-VK","2018/11/22 20:27:52","新北市三重區三寧街18號","121.489405","25.059825","6500200","三重區"
"241015","062-VK","2018/11/22 20:27:53","新北市三重區文化北路41號","121.498958333333","25.06522","6500200","三重區"
"241017","063-VK","2018/11/22 20:27:56","新北市三重區自強路一段288號","121.491553333333","25.068295","6500200","三重區"
"241024","065-VK","2018/11/22 20:27:56","新北市三重區忠孝路三段15巷20號","121.48081","25.067695","6500200","三重區"
"241026","066-VK","2018/11/22 20:27:49","新北市三重區環河南路3號","121.503893333333","25.0636566666667","6500200","三重區"
"241002","090-VK","2018/11/22 20:27:56","新北市三重區五華街21巷35號","121.496313333333","25.0814416666667","6500200","三重區"
"241003","091-VK","2018/11/22 20:28:00","新北市三重區富華街160號","121.492471666667","25.0845","6500200","三重區"
"251014","742-BX","2018/11/22 20:27:58","新北市淡水區石頭厝8-9號","121.460451666667","25.2377","6501000","淡水區"
"241005","262-UM","2018/11/22 20:27:50","新北市三重區分子尾街121號","121.48832","25.08313","6500200","三重區"
"241016","265-UM","2018/11/22 20:27:57","新北市三重區正義北路188號","121.496386666667","25.0668566666667","6500200","三重區"
"241009","267-UM","2018/11/22 20:27:59","新北市三重區永福街75號","121.48019","25.0776766666667","6500200","三重區"
"241018","268-UM","2018/11/22 20:27:51","新北市三重區雙園街66號","121.495685","25.06776","6500200","三重區"
"241032","269-UM","2018/11/22 20:27:39","新北市三重區三陽路14巷3號","121.485931666667","25.0583783333333","6500200","三重區"
"241013","270-UM","2018/11/22 20:27:50","新北市三重區三和路三段167巷56號","121.493861666667","25.0748183333333","6500200","三重區"
"241025","271-UM","2018/11/22 20:27:52","新北市三重區頂崁街210巷27號","121.475793333333","25.0682016666667","6500200","三重區"
"241007","398-BY","2018/11/22 20:27:44","新北市三重區自強路四段41號","121.489521666667","25.077595","6500200","三重區"
"241035","462-BY","2018/11/22 20:27:40","新北市三重區正義北路37號","121.497396666667","25.0638483333333","6500200","三重區"
"241004","475-VK","2018/11/22 20:27:55","新北市三重區溪尾街215號","121.488393333333","25.0809483333333","6500200","三重區"
"241030","480-VK","2018/11/22 20:27:44","新北市三重區成功路145巷9號","121.487315","25.0525866666667","6500200","三重區"
"241014","543-UM","2018/11/22 20:27:58","新北市三重區龍濱路64號","121.502453333333","25.0691933333333","6500200","三重區"
"241023","545-UM","2018/11/22 20:27:53","新北市三重區自由街16號","121.479845","25.0665433333333","6500200","三重區"
"241001","547-UM","2018/11/22 20:27:45","新北市三重區自強路四段33號","121.488991666667","25.0767133333333","6500200","三重區"
"241019","KEA-2593","2018/11/22 20:27:43","新北市三重區重陽路四段83號","121.492598333333","25.07107","6500200","三重區"
"241006","AAD-863","2018/11/22 20:27:38","新北市三重區車路頭街139巷14號","121.484381666667","25.0761733333333","6500200","三重區"
"241020","743-BX","2018/11/22 20:27:42","新北市三重區三和路三段170巷8弄22號","121.4926","25.0724","6500200","三重區"
"241012","941-UM","2018/11/22 20:27:55","新北市三重區龍濱路196號","121.50106","25.0732833333333","6500200","三重區"
"241029","942-UM","2018/11/22 20:27:44","新北市三重區集美街227號","121.492196666667","25.055065","6500200","三重區"
"235065","098-UM","2018/11/22 20:27:50","新北市中和區福美路312巷2號","121.496755","25.0050616666667","6500300","中和區"
"247012","KEA-2869","2018/11/22 20:27:49","新北市蘆洲區復興路252號","121.479761666667","25.0896483333333","6501400","蘆洲區"
"235050","4979-A6","2018/11/22 20:27:58","新北市中和區景新街160巷20號","121.504878333333","24.996615","6500300","中和區"
"235069","4980-A6","2018/11/22 20:27:50","新北市中和區中正路358號","121.49357","24.99423","6500300","中和區"
"235059","AAC-215","2018/11/22 20:27:53","新北市中和區員山路6-1號","121.484038333333","24.9833166666667","6500300","中和區"
"247002","893-R6","2018/11/22 20:27:55","新北市蘆洲區長安街361巷32號","121.455785","25.0875983333333","6501400","蘆洲區"
"247016","546-UM","2018/11/22 20:27:48","新北市蘆洲區光華路109號","121.467136666667","25.0825433333333","6501400","蘆洲區"
"247024","500-BY","2018/11/22 20:27:49","新北市蘆洲區長樂路2-6號","121.464545","25.0843783333333","6501400","蘆洲區"
"247014","339-TH","2018/11/22 20:27:42","新北市蘆洲區中山二路104號","121.472411666667","25.081795","6501400","蘆洲區"
"247006","337-TH","2018/11/22 20:27:49","新北市蘆洲區永安南路二段72-1號","121.464736666667","25.0780933333333","6501400","蘆洲區"
"247020","057-VK","2018/11/22 20:27:47","新北市蘆洲區仁愛街130號","121.469205","25.094465","6501400","蘆洲區"
"247010","056-VK","2018/11/22 20:27:41","新北市蘆洲區信義路222巷33號","121.479995","25.085495","6501400","蘆洲區"
"247008","053-VK","2018/11/22 20:27:53","新北市三重區永安北路二段177號","121.483888333333","25.0853516666667","6501400","蘆洲區"
"247018","007-UY","2018/11/22 20:27:42","新北市蘆洲區民族路336巷28號","121.477533333333","25.0910633333333","6501400","蘆洲區"
"247004","002-UY","2018/11/22 20:27:57","新北市蘆洲區長安街303號","121.457913333333","25.0850016666667","6501400","蘆洲區"
"247022","001-UY","2018/11/22 20:27:43","新北市蘆洲區中正路315號","121.466346666667","25.0885083333333","6501400","蘆洲區"
"222001","KEA-2212","2018/11/22 20:27:48","新北市深坑區北深路三段329號","121.597253333333","25.0049916666667","6501800","深坑區"
"251001","011-UM","2018/11/22 20:27:55","新北市淡水區新市一路三段5號","121.445036666667","25.1829883333333","6501000","淡水區"
"251013","KEA-2871","2018/11/22 20:27:40","新北市淡水區奎柔山路417號","121.463991666667","25.2047716666667","6501000","淡水區"
"251016","179-VK","2018/11/22 20:28:01","新北市淡水區新埔子11-7號","121.447428333333","25.228525","6501000","淡水區"
"251008","181-VK","2018/11/22 20:28:00","新北市淡水區淡海路204號","121.420241666667","25.1856016666667","6501000","淡水區"
"251015","182-VK","2018/11/22 20:27:53","新北市淡水區淡金路四段542巷17號","121.452726666667","25.227085","6501000","淡水區"
"251010","413-VK","2018/11/22 20:27:49","新北市淡水區沙崙路214號","121.42493","25.1840766666667","6501000","淡水區"
"251012","441-VK","2018/11/22 20:27:56","新北市淡水區頂田寮路17號","121.454435","25.21663","6501000","淡水區"
"251006","561-UM","2018/11/22 20:27:55","新北市淡水區商工路335號","121.465215","25.185835","6501000","淡水區"
"251002","672-BX","2018/11/22 20:27:40","新北市淡水區中正路35號","121.442271666667","25.1695616666667","6501000","淡水區"
"251003","766-UM","2018/11/22 20:27:44","新北市淡水區新生街108巷2號","121.440143333333","25.1747616666667","6501000","淡水區"
"207004","225-TW","2018/11/22 20:27:56","新北市萬里區北基里忠三街21號","121.684683333333","25.17571","6502800","萬里區"
"252002","178-VK","2018/11/22 20:27:48","新北市三芝區淡金路二段47-1號","121.5037","25.2604583333333","6502100","三芝區"
"252001","292-VK","2018/11/22 20:27:59","新北市三芝區中山路一段35號","121.500668333333","25.25799","6502100","三芝區"
"236014","270-VK","2018/11/22 20:27:50","新北市土城區廣明街102號","121.45468","24.994515","6501300","土城區"
"242036","AAC-296","2018/11/22 20:27:53","新北市新莊區後港一路76巷14弄1號","121.427225","25.02548","6500500","新莊區"
"242058","986-R7","2018/11/22 20:27:59","新北市新莊區四維路169號","121.422425","25.0215716666667","6500500","新莊區"
"242056","751-BX","2018/11/22 20:27:53","新北市新莊區瓊泰路152號","121.443161666667","25.0323983333333","6500500","新莊區"
"242029","705-TV","2018/11/22 20:27:53","新北市新莊區昌隆街29號","121.454663333333","25.0509666666667","6500500","新莊區"
"242027","615-BX","2018/11/22 20:27:59","新北市新莊區思源路193號","121.459833333333","25.0454733333333","6500500","新莊區"
"242025","613-BX","2018/11/22 20:27:40","新北市新莊區五工三路50巷13號","121.460338333333","25.0649516666667","6500500","新莊區"
"242044","566-BX","2018/11/22 20:27:45","新北市新莊區中正路新建巷25號","121.414218333333","25.0221133333333","6500500","新莊區"
"242048","497-BY","2018/11/22 20:27:29","新北市新莊區富國路84號","121.420238333333","25.025565","6500500","新莊區"
"242053","441-UM","2018/11/22 20:27:55","新北市新莊區民安西路229巷24號","121.427238333333","25.014135","6500500","新莊區"
"242002","440-UM","2018/11/22 20:27:57","新北市新莊區中正路80號","121.457633333333","25.037345","6500500","新莊區"
"242039","415-TV","2018/11/22 20:27:40","新北市新莊區成功街41號","121.425393333333","25.0208366666667","6500500","新莊區"
"242009","413-TV","2018/11/22 20:27:26","新北市新莊區昌隆街58巷1弄12號","121.455406666667","25.05054","6500500","新莊區"
"242046","400-BY","2018/11/22 20:27:53","新北市新莊區中正路新雅巷2弄1號","121.417948333333","25.02537","6500500","新莊區"
"242023","362-BY","2018/11/22 20:27:44","新北市新莊區化成路940號","121.464886666667","25.0628533333333","6500500","新莊區"
"242061","353-BY","2018/11/22 20:27:56","新北市新莊區民安東路132號","121.430941666667","25.020495","6500500","新莊區"
"242011","132-UY","2018/11/22 20:27:48","新北市新莊區中信街2號","121.451605","25.0508483333333","6500500","新莊區"
"242034","135-UY","2018/11/22 20:27:54","新北市新莊區中正路355號","121.44681","25.034835","6500500","新莊區"
"242013","173-VK","2018/11/22 20:27:41","新北市新莊區中平路270巷2號","121.44504","25.05022","6500500","新莊區"
"242019","175-VK","2018/11/22 20:27:48","新北市新莊區銘德街49巷2弄2號","121.457241666667","25.04341","6500500","新莊區"
"242007","176-VK","2018/11/22 20:27:57","新北市新莊區思源路277號","121.45973","25.048025","6500500","新莊區"
"242031","348-TH","2018/11/22 20:27:58","新北市新莊區三和路60-18號","121.437825","25.04171","6500500","新莊區"
"242004","349-TH","2018/11/22 20:27:55","新北市新莊區化成路371巷1號","121.46529","25.05716","6500500","新莊區"
"242021","350-TH","2018/11/22 20:27:55","新北市新莊區和興街19號","121.447313333333","25.03938","6500500","新莊區"
"242015","351-TH","2018/11/22 20:27:51","新北市新莊區永樂街259號","121.445515","25.0443666666667","6500500","新莊區"
"238015","755-BX","2018/11/22 20:27:46","新北市樹林區育德街78-1號","121.387388333333","24.9681033333333","6500700","樹林區"
"221008","489-VK","2018/11/22 20:27:50","新北市汐止區康寧街115號","121.62089","25.0665683333333","6501100","汐止區"
"221036","130-UY","2018/11/22 20:27:29","新北市汐止區仁愛路215號","121.665145","25.06676","6501100","汐止區"
"221015","131-UY","2018/11/22 20:27:53","新北市汐止區建成路142巷19弄17號","121.66181","25.0739033333333","6501100","汐止區"
"221010","269-BY","2018/11/22 20:27:55","新北市汐止區八連路二段616號","121.625273333333","25.11012","6501100","汐止區"
"221012","278-VK","2018/11/22 20:27:55","新北市汐止區大同路三段491號","121.679913333333","25.0711516666667","6501100","汐止區"
"221032","280-BY","2018/11/22 20:27:49","新北市汐止區弘道街53巷15號","121.618698333333","25.04916","6501100","汐止區"
"221027","281-BY","2018/11/22 20:27:47","新北市汐止區中正路233號","121.657868333333","25.0686383333333","6501100","汐止區"
"221029","298-VK","2018/11/22 20:27:39","新北市汐止區樟樹一路119巷10弄20號","121.640478333333","25.0648533333333","6501100","汐止區"
"221021","299-VK","2018/11/22 20:27:57","新北市汐止區水源路一段284號","121.654128333333","25.0582483333333","6501100","汐止區"
"221031","353-TW","2018/11/22 20:27:45","新北市汐止區中興路110巷10號","121.633803333333","25.06418","6501100","汐止區"
"221035","622-UM","2018/11/22 20:27:40","新北市汐止區長江街101-5號","121.658756666667","25.0731016666667","6501100","汐止區"
"221025","623-UM","2018/11/22 20:27:42","新北市汐止區水源路二段70號","121.655891666667","25.05634","6501100","汐止區"
"221038","646-BX","2018/11/22 20:27:45","新北市汐止區忠孝東路200號","121.661451666667","25.0659266666667","6501100","汐止區"
"221033","647-BX","2018/11/22 20:27:51","新北市汐止區林森街132巷6弄6號","121.62427","25.0406133333333","6501100","汐止區"
"221002","707-TV","2018/11/22 20:27:53","新北市汐止區福德二路28號","121.634765","25.0676683333333","6501100","汐止區"
"221018","753-BX","2018/11/22 20:27:51","新北市汐止區茄苳路264號","121.67189","25.0681366666667","6501100","汐止區"
"220053","285-VK","2018/11/22 20:27:53","新北市板橋區懷仁街92-4號","121.477525","25.01808","6500100","板橋區"
"220083","286-VK","2018/11/22 20:27:44","新北市板橋區僑中二街102巷25-4號","121.445101666667","25.008395","6500100","板橋區"
"220061","295-UM","2018/11/22 20:27:54","新北市板橋區四川路一段287號","121.458843333333","25.0008033333333","6500100","板橋區"
"242042","281-VK","2018/11/22 20:27:55","新北市新莊區中正路700-39號","121.417436666667","25.0277466666667","6500500","新莊區"
"220092","307-R5","2018/11/22 20:27:50","新北市板橋區大觀路三段131-1號","121.435088333333","24.99219","6500100","板橋區"
"220089","487-VK","2018/11/22 20:27:43","新北市板橋區四維路290-3號","121.462878333333","25.0291","6500100","板橋區"
"242017","280-VK","2018/11/22 20:28:00","新北市新莊區中港二街96號","121.449246666667","25.0458333333333","6500500","新莊區"
"220103","561-BX","2018/11/22 20:27:54","新北市板橋區漢生東路33巷17號","121.465793333333","25.01749","6500100","板橋區"
"220070","806-UM","2018/11/22 20:27:51","新北市新莊區新泰路413巷25號","121.442266666667","25.04427","6500100","板橋區"
