"lineid","car","time","location","longitude","latitude","cityid","cityname"
"234012","KEA-2591","2018/11/22 21:21:06","新北市永和區福和路1號","121.526195","25.00937","6500400","永和區"
"251014","742-BX","2018/11/22 21:37:58","新北市淡水區淡金路四段215號","121.451676666667","25.2222366666667","6501000","淡水區"
"241005","262-UM","2018/11/22 21:37:50","新北市三重區仁愛街689號","121.483241666667","25.0810733333333","6500200","三重區"
"247012","KEA-2869","2018/11/22 21:37:49","新北市五股區凌雲路三段24巷21-25號","121.433465","25.1077083333333","6501400","蘆洲區"
"235018","640-BX","2018/11/22 21:09:06","新北市中和區員山路36巷16-2號","121.485076666667","24.9917666666667","6500300","中和區"
"251009","008-UM","2018/11/22 21:37:42","新北市淡水區民族路31巷68號","121.463055","25.1367766666667","6501000","淡水區"
"251005","010-UM","2018/11/22 21:37:45","新北市淡水區英專路101巷22號","121.444951666667","25.1721266666667","6501000","淡水區"
"251001","011-UM","2018/11/22 21:37:54","新北市淡水區崁頂二路250號","121.43587","25.19668","6501000","淡水區"
"251016","179-VK","2018/11/22 21:37:47","新北市淡水區淡金路三段159號","121.448361666667","25.20208","6501000","淡水區"
"251008","181-VK","2018/11/22 21:37:46","新北市淡水區水源街二段90號","121.45178","25.1742616666667","6501000","淡水區"
"251010","413-VK","2018/11/22 21:37:44","新北市淡水區沙崙路232號","121.42558","25.1845666666667","6501000","淡水區"
"251012","441-VK","2018/11/22 21:37:56","新北市淡水區淡金路四段463號","121.451803333333","25.2234166666667","6501000","淡水區"
"251004","443-VK","2018/11/22 21:37:26","新北市淡水區民生路48號","121.461785","25.137925","6501000","淡水區"
"251006","561-UM","2018/11/22 21:37:55","新北市淡水區中正路11巷3號","121.437795","25.1707633333333","6501000","淡水區"
"251007","577-R6","2018/11/22 21:37:59","新北市淡水區崁頂57-7號","121.442466666667","25.197265","6501000","淡水區"
"251011","650-BX","2018/11/22 21:37:51","新北市淡水區新民街216號","121.436141666667","25.1802216666667","6501000","淡水區"
"251002","672-BX","2018/11/22 21:37:40","新北市淡水區學府路155號","121.445771666667","25.1742433333333","6501000","淡水區"
"251003","766-UM","2018/11/22 21:37:44","新北市淡水區新春街44號","121.437458333333","25.1816583333333","6501000","淡水區"
"220070","806-UM","2018/11/22 21:37:51","新北市板橋區華東街1-10號","121.44863","24.994985","6500100","板橋區"
