"lineid","car","time","location","longitude","latitude","cityid","cityname"
"232003","290-BY","2018/11/23 06:47:54","新北市坪林區魚堀55-1號","121.708318333333","24.929315","6502000","坪林區"
"232015","291-BY","2018/11/23 06:48:02","新北市坪林區北宜路八段301號","121.711026666667","24.9339266666667","6502000","坪林區"
"232019","705-BZ","2018/11/23 06:48:09","新北市坪林區北宜路八段437號","121.708031666667","24.9253083333333","6502000","坪林區"
"232008","758-BX","2018/11/23 06:48:01","新北市坪林區鶯子瀨1-2號","121.708191666667","24.9179216666667","6502000","坪林區"
"244004","410-SL","2018/11/23 06:48:09","新北市林口區粉寮路二段160巷28號","121.405171666667","25.09068","6501700","林口區"
"223006","022-BY","2018/11/23 06:48:13","新北市石碇區楓子林36-1號","121.642506666667","25.0090566666667","6501900","石碇區"
"223002","KEA-2673","2018/11/23 06:48:02","新北市石碇區員山子1號","121.65223","24.9670733333333","6501900","石碇區"
"223003","205-TH","2018/11/23 06:48:08","新北市石碇區湳窟34-2號","121.665338333333","24.99407","6501900","石碇區"
"223008","406-TH","2018/11/23 06:48:10","新北市石碇區雙溪45號","121.651768333333","25.007685","6501900","石碇區"
"223004","437-BY","2018/11/23 06:47:55","新北市石碇區碇坪路一段95號","121.662333333333","24.9901283333333","6501900","石碇區"
"223001","592-UM","2018/11/23 06:46:41","新北市石碇區湳窟31-3號","121.663488333333","24.993215","6501900","石碇區"
"223007","661-BX","2018/11/23 06:48:06","新北市石碇區雙溪37-3號","121.6544","25.00805","6501900","石碇區"
"223005","677-TV","2018/11/23 06:47:56","新北市石碇區碇坪路一段95號","121.662793333333","24.989725","6501900","石碇區"
"227005","282-VK","2018/11/23 06:48:10","新北市雙溪區新基里自強路5-1號","121.866385","25.039195","6502500","雙溪區"
"252005","073-UM","2018/11/23 06:47:56","新北市三芝區中正路三段3號","121.50308","25.2543216666667","6502100","三芝區"
