"lineid","car","time","location","longitude","latitude","cityid","cityname"
"232003","290-BY","2018/11/23 07:27:54","新北市坪林區桶盤嶼4號","121.711468333333","24.95853","6502000","坪林區"
"232015","291-BY","2018/11/23 07:28:02","新北市坪林區黃舉皮寮6號","121.688366666667","24.9373416666667","6502000","坪林區"
"232019","705-BZ","2018/11/23 07:28:09","新北市坪林區樟空子4號","121.726471666667","24.9681583333333","6502000","坪林區"
"232008","758-BX","2018/11/23 07:27:53","新北市坪林區魚堀8-5號","121.70836","24.9061233333333","6502000","坪林區"
"244004","410-SL","2018/11/23 07:28:09","新北市林口區頂福里51-17號","121.350441666667","25.0847283333333","6501700","林口區"
"222005","289-BY","2018/11/23 07:28:02","新北市深坑區深坑街3巷22號","121.616853333333","25.0018533333333","6501800","深坑區"
"226005","5620-A6","2018/11/23 07:28:17","新北市平溪區菁桐里二坑路5號","121.72089","25.0242516666667","6502400","平溪區"
"226001","7418-A5","2018/11/23 07:19:41","新北市平溪區望古里灰4-2號","121.763636666667","25.028975","6502400","平溪區"
"226006","AGD-0702","2018/11/23 07:22:40","新北市平溪區嶺腳里嶺腳寮83-2號","121.74973","25.035345","6502400","平溪區"
"223006","022-BY","2018/11/23 07:28:10","新北市石碇區碇坪路二段90號","121.684071666667","24.958345","6501900","石碇區"
"223002","KEA-2673","2018/11/23 07:28:02","新北市石碇區北宜路六段獅子頭坑巷16號","121.642266666667","24.9322233333333","6501900","石碇區"
"223003","205-TH","2018/11/23 07:27:57","新北市石碇區蓬菜寮17號","121.649125","24.9720883333333","6501900","石碇區"
"223004","437-BY","2018/11/23 07:27:54","新北市石碇區靜安路一段15號","121.64183","25.0120066666667","6501900","石碇區"
"223001","592-UM","2018/11/23 07:27:56","新北市石碇區中楒子腳1-1號","121.644401666667","24.9705583333333","6501900","石碇區"
"223007","661-BX","2018/11/23 07:28:06","新北市石碇區靜安路一段337號","121.698881666667","25.0145033333333","6501900","石碇區"
"223005","677-TV","2018/11/23 07:27:56","新北市石碇區八分寮19-1號","121.64202","25.01189","6501900","石碇區"
"227005","282-VK","2018/11/23 07:28:10","新北市雙溪區新基里自強路5號","121.866381666667","25.0390783333333","6502500","雙溪區"
"252005","073-UM","2018/11/23 07:27:56","新北市三芝區中正路三段1號","121.502928333333","25.2543933333333","6502100","三芝區"
"237001","159-UY","2018/11/23 07:28:16","新北市三峽區隆恩街245號","121.3577","24.9409133333333","6500900","三峽區"
