"lineid","car","time","location","longitude","latitude","cityid","cityname"
"234070","149-BY","2018/07/30 08:09:36","新北市永和區永利路69號","121.519903333333","25.004845","6500400","永和區"
"248005","653-BX","2018/07/30 08:09:45","新北市五股區明德路12巷6號","121.433368333333","25.0717966666667","6501500","五股區"
"232001","290-BY","2018/07/30 08:09:42","新北市坪林區坪雙路一段102號","121.722913333333","24.9460466666667","6502000","坪林區"
"232012","291-BY","2018/07/30 08:09:34","新北市坪林區九芎根1號","121.669725","24.88877","6502000","坪林區"
"232010","375-UM","2018/07/30 08:09:47","新北市坪林區厚德岡坑8-5號","121.733171666667","24.9409716666667","6502000","坪林區"
"232017","705-BZ","2018/07/30 08:09:49","新北市坪林區坪雙路二段145號","121.760463333333","24.9601533333333","6502000","坪林區"
"232005","758-BX","2018/07/30 08:09:41","新北市坪林區鶯子瀨9-7號","121.70889","24.915465","6502000","坪林區"
"244006","080-UY","2018/07/30 08:09:48","新北市林口區竹林路462號","121.387838333333","25.08498","6501700","林口區"
"244001","248-BX","2018/07/30 08:09:29","新北市林口區頂福里8鄰68號","121.332418333333","25.1020566666667","6501700","林口區"
"244018","403-UM","2018/07/30 08:09:43","新北市林口區仁愛路二段82號","121.384281666667","25.0753233333333","6501700","林口區"
"244008","410-SL","2018/07/30 08:09:49","新北市林口區中北一街49巷2號","121.38585","25.08824","6501700","林口區"
"244022","483-VK","2018/07/30 08:09:35","新北市林口區仁愛路一段635號","121.389176666667","25.0766433333333","6501700","林口區"
"244016","485-VK","2018/07/30 08:09:44","新北市林口區中山路73號","121.392586666667","25.078585","6501700","林口區"
"244010","657-BX","2018/07/30 08:09:33","新北市林口區粉寮路一段45號","121.396675","25.077555","6501700","林口區"
"244024","837-TS","2018/07/30 08:09:38","新北市林口區中山路130號","121.392453333333","25.07859","6501700","林口區"
"244020","838-TS","2018/07/30 08:09:32","新北市林口區粉寮路二段160巷30號","121.405696666667","25.09089","6501700","林口區"
"222005","289-BY","2018/07/30 08:09:45","新北市深坑區平埔街22巷19號","121.614676666667","25.0010583333333","6501800","深坑區"
"222005","628-TS","2018/07/30 08:09:34","新北市深坑區北深路一段26號","121.639003333333","25.01045","6501800","深坑區"
"231007","189-VK","2018/07/30 08:09:45","新北市新店區華潭街1巷49號","121.526643333333","24.9469183333333","6500600","新店區"
"231008","192-VK","2018/07/30 08:09:47","新北市新店區安康路一段3-1號","121.534193333333","24.960655","6500600","新店區"
"235001","611-BX","2018/07/30 08:08:44","新北市中和區圓通路367巷33弄99號","121.495795","24.9843016666667","6500300","中和區"
"226005","5620-A6","2018/07/30 08:09:43","新北市平溪區靜安路二段557號","121.74898","25.024155","6502400","平溪區"
"226001","7418-A5","2018/07/30 08:09:36","新北市平溪區十分里姜仔坑2號","121.76649","25.0352533333333","6502400","平溪區"
"226003","AGD-0702","2018/07/30 08:09:34","新北市平溪區十分里十分街293號","121.77578","25.0462666666667","6502400","平溪區"
"223006","022-BY","2018/07/30 08:09:33","新北市石碇區蚯蚓坑22-1號","121.688741666667","25.00663","6501900","石碇區"
"223002","KEA-2673","2018/07/30 08:09:43","新北市石碇區北宜路五段80號","121.646556666667","24.95178","6501900","石碇區"
"223003","205-TH","2018/07/30 08:09:44","新北市石碇區北宜路五段崙尾寮巷2-1號","121.648296666667","24.9528433333333","6501900","石碇區"
"223008","406-TH","2018/07/30 08:09:43","新北市石碇區番子坑70號","121.676046666667","25.0109066666667","6501900","石碇區"
"223001","592-UM","2018/07/30 08:09:22","新北市石碇區北宜路五段崙尾寮巷2-1號","121.64933","24.9527983333333","6501900","石碇區"
"223004","660-BX","2018/07/30 08:09:46","新北市石碇區外按16-1號","121.650618333333","24.997575","6501900","石碇區"
"223007","661-BX","2018/07/30 08:09:51","新北市石碇區蚯蚓坑61-1號","121.683623333333","25.0100433333333","6501900","石碇區"
"223005","677-TV","2018/07/30 08:03:33","新北市石碇區外按16-1號","121.65066","24.997545","6501900","石碇區"
"227005","282-VK","2018/07/30 08:09:37","新北市雙溪區上林里大瀨10號","121.822355","25.02213","6502500","雙溪區"
"252006","073-UM","2018/07/30 08:09:31","新北市三芝區後厝里大片頭88號","121.457483333333","25.24567","6502100","三芝區"
"252004","249-BX","2018/07/30 08:09:48","新北市三芝區興華里車埕24-2號","121.502328333333","25.19581","6502100","三芝區"
"237001","159-UY","2018/07/30 08:09:47","新北市三峽區學成路287號","121.376256666667","24.9433866666667","6500900","三峽區"
"236007","165-UM","2018/07/30 08:09:39","新北市土城區青雲路318號","121.458938333333","24.9772283333333","6501300","土城區"
"236001","339-SR","2018/07/30 08:09:44","新北市土城區龍泉路72號","121.42773","24.94207","6501300","土城區"
"236005","498-BY","2018/07/30 08:09:35","新北市土城區永平街51號","121.42772","24.9591583333333","6501300","土城區"
"242033","AAC-296","2018/07/30 08:09:42","新北市新莊區新莊路645號","121.445131666667","25.0328533333333","6500500","新莊區"
"242057","986-R7","2018/07/30 08:09:44","新北市新莊區中正路730號","121.414951666667","25.0237033333333","6500500","新莊區"
"242052","751-BX","2018/07/30 08:09:46","新北市樹林區樹新路120巷20號","121.430585","24.996805","6500500","新莊區"
"242026","705-TV","2018/07/30 08:09:47","新北市新莊區福壽街101號","121.45801","25.05051","6500500","新莊區"
"242024","613-BX","2018/07/30 08:09:43","新北市新莊區思源路114號","121.46014","25.04672","6500500","新莊區"
"242028","612-BX","2018/07/30 08:09:45","新北市新莊區復興路一段121號","121.449621666667","25.0430516666667","6500500","新莊區"
"242040","566-BX","2018/07/30 08:09:39","新北市泰山區中山路二段845號","121.424865","25.0348316666667","6500500","新莊區"
"242045","497-BY","2018/07/30 08:09:28","新北市新莊區建國一路21號","121.433885","25.031565","6500500","新莊區"
"242049","441-UM","2018/07/30 08:09:45","新北市新莊區西盛街311巷7號","121.42832","25.0152833333333","6500500","新莊區"
"242055","440-UM","2018/07/30 08:09:54","新北市新莊區瓊林路13-3號","121.448813333333","25.030965","6500500","新莊區"
"242035","415-TV","2018/07/30 08:09:35","新北市新莊區建福路59巷28號","121.428061666667","25.0275233333333","6500500","新莊區"
"242006","413-TV","2018/07/30 08:09:36","新北市新莊區福樂街156巷12弄7號","121.456535","25.0488316666667","6500500","新莊區"
"242043","400-BY","2018/07/30 08:09:39","新北市新莊區中正路871巷9弄44號","121.419906666667","25.0266883333333","6500500","新莊區"
"242022","362-BY","2018/07/30 08:09:41","新北市新莊區民樂街85號","121.457921666667","25.04335","6500500","新莊區"
"242059","353-BY","2018/07/30 08:09:34","新北市新莊區新樹路601號","121.433178333333","25.0058483333333","6500500","新莊區"
"242008","132-UY","2018/07/30 08:09:38","新北市新莊區昌明街14巷12號","121.457491666667","25.053305","6500500","新莊區"
"242038","133-UY","2018/07/30 08:09:41","新北市新莊區民安東路2號","121.427818333333","25.02096","6500500","新莊區"
"242030","135-UY","2018/07/30 08:09:48","新北市新莊區新泰路319號","121.444991666667","25.0414366666667","6500500","新莊區"
"242016","175-VK","2018/07/30 08:09:38","新北市新莊區復興路一段149巷22弄1號","121.450208333333","25.04418","6500500","新莊區"
"242003","176-VK","2018/07/30 08:09:47","新北市新莊區自立街216號","121.457158333333","25.045355","6500500","新莊區"
"242047","347-TH","2018/07/30 08:09:51","新北市新莊區萬安街131號","121.420601666667","25.0222366666667","6500500","新莊區"
"242001","349-TH","2018/07/30 08:09:48","新北市新莊區新莊路437號","121.450056666667","25.0335066666667","6500500","新莊區"
"242018","350-TH","2018/07/30 08:09:48","新北市新莊區中港路201號","121.45489","25.041895","6500500","新莊區"
"242012","351-TH","2018/07/30 08:09:45","新北市新莊區中誠街144號","121.448735","25.0475783333333","6500500","新莊區"
"242014","281-VK","2018/07/30 08:09:42","新北市新莊區新泰路480號","121.442676666667","25.0455933333333","6500500","新莊區"
"242020","280-VK","2018/07/30 08:09:48","新北市新莊區中華路一段112號","121.45247","25.04045","6500500","新莊區"
