"lineid","car","time","location","longitude","latitude","cityid","cityname"
"234070","149-BY","2018/07/30 08:54:59","新北市永和區福和路1號","121.526563333333","25.0099066666667","6500400","永和區"
"248005","653-BX","2018/07/30 08:59:45","新北市五股區明德路12巷3號","121.433266666667","25.0717466666667","6501500","五股區"
"232001","290-BY","2018/07/30 08:59:42","新北市坪林區虎寮潭7-1號","121.746243333333","24.9452966666667","6502000","坪林區"
"232012","291-BY","2018/07/30 08:59:34","新北市坪林區金瓜寮13-2號","121.681718333333","24.91572","6502000","坪林區"
"232017","705-BZ","2018/07/30 08:59:49","新北市坪林區鷺鶿岫1號","121.787821666667","24.95698","6502000","坪林區"
"232005","758-BX","2018/07/30 08:59:41","新北市坪林區魚堀9-6號","121.704248333333","24.9055983333333","6502000","坪林區"
"244006","080-UY","2018/07/30 08:59:48","新北市林口區林口路239號","121.386866666667","25.0835083333333","6501700","林口區"
"244018","403-UM","2018/07/30 08:59:43","新北市林口區文化一路一段124號","121.374796666667","25.0721883333333","6501700","林口區"
"244008","410-SL","2018/07/30 08:59:34","新北市林口區文化三路二段319號","121.379603333333","25.0873983333333","6501700","林口區"
"244022","483-VK","2018/07/30 08:59:54","新北市林口區東湖路105巷79號","121.384515","25.07152","6501700","林口區"
"244016","485-VK","2018/07/30 08:59:44","新北市林口區八德路20巷1號","121.368238333333","25.0672433333333","6501700","林口區"
"244010","657-BX","2018/07/30 08:59:33","新北市林口區中正路150號","121.392568333333","25.0773416666667","6501700","林口區"
"244024","837-TS","2018/07/30 08:59:38","新北市林口區南勢里53-6號","121.354961666667","25.074975","6501700","林口區"
"244020","838-TS","2018/07/30 08:59:32","新北市林口區工六路100號","121.401183333333","25.0765533333333","6501700","林口區"
"222005","289-BY","2018/07/30 08:59:45","新北市深坑區風格街31巷3號","121.627981666667","25.0172216666667","6501800","深坑區"
"222005","628-TS","2018/07/30 08:59:34","新北市深坑區北深路一段26號","121.63889","25.010475","6501800","深坑區"
"231007","189-VK","2018/07/30 08:59:45","新北市新店區新潭路三段231巷13號","121.504656666667","24.9042483333333","6500600","新店區"
"231008","192-VK","2018/07/30 08:59:47","新北市新店區廣興路7-5號","121.546215","24.9119333333333","6500600","新店區"
"235001","611-BX","2018/07/30 08:59:44","新北市中和區莒光路222-8號","121.468948333333","24.9948683333333","6500300","中和區"
"226001","7418-A5","2018/07/30 08:50:35","新北市平溪區東勢里番仔坑16號","121.755323333333","24.9914633333333","6502400","平溪區"
"226003","AGD-0702","2018/07/30 08:59:34","新北市平溪區十分里十分街246號","121.777696666667","25.044435","6502400","平溪區"
"223006","022-BY","2018/07/30 08:52:36","新北市深坑區昇高坑路51-1號","121.630646666667","24.9939616666667","6501900","石碇區"
"223002","KEA-2673","2018/07/30 08:59:43","新北市石碇區員潭子坑9-3號","121.639015","24.9908266666667","6501900","石碇區"
"223003","205-TH","2018/07/30 08:59:44","新北市石碇區北宜路六段水底寮巷6號","121.662193333333","24.9485266666667","6501900","石碇區"
"223008","406-TH","2018/07/30 08:59:52","新北市石碇區光明路13號","121.680065","25.03364","6501900","石碇區"
"223001","592-UM","2018/07/30 08:59:41","新北市石碇區北宜路六段水底寮巷6號","121.662108333333","24.948525","6501900","石碇區"
"223004","660-BX","2018/07/30 08:59:46","新北市石碇區崩山24-5號","121.67914","24.9695683333333","6501900","石碇區"
"223007","661-BX","2018/07/30 08:59:51","新北市石碇區碇南路二段鹿窟巷19號","121.66692","25.03245","6501900","石碇區"
"223005","677-TV","2018/07/30 08:59:44","新北市石碇區崩山42-2號","121.679836666667","24.9651766666667","6501900","石碇區"
"227005","282-VK","2018/07/30 08:59:37","新北市雙溪區泰平里溪尾寮1-1號","121.819628333333","24.9705433333333","6502500","雙溪區"
"252006","073-UM","2018/07/30 08:59:50","新北市三芝區古庄里四棧橋18-3號","121.489588333333","25.260965","6502100","三芝區"
"252004","249-BX","2018/07/30 08:59:48","新北市三芝區興華里田心子31號","121.488865","25.2004","6502100","三芝區"
"237001","159-UY","2018/07/30 08:59:47","新北市樹林區柑園街二段237號","121.375025","24.9525466666667","6500900","三峽區"
"236007","165-UM","2018/07/30 08:59:39","新北市土城區金城路二段54號","121.451796666667","24.9794383333333","6501300","土城區"
"236001","339-SR","2018/07/30 08:59:44","新北市土城區中央路三段72號","121.43659","24.9671616666667","6501300","土城區"
"236005","498-BY","2018/07/30 08:59:55","新北市土城區承天路4巷28號","121.436145","24.9621266666667","6501300","土城區"
"242033","AAC-296","2018/07/30 08:59:42","新北市新莊區建中街83號","121.447223333333","25.0366116666667","6500500","新莊區"
"242057","986-R7","2018/07/30 08:59:40","新北市新莊區富國路75號","121.420013333333","25.0260133333333","6500500","新莊區"
"242052","751-BX","2018/07/30 08:59:46","新北市新莊區西盛街395巷9號","121.42817","25.0126283333333","6500500","新莊區"
"242026","705-TV","2018/07/30 08:59:47","新北市新莊區立信三街12巷12號","121.44417","25.0510316666667","6500500","新莊區"
"242024","613-BX","2018/07/30 08:59:43","新北市新莊區五工二路78巷9號","121.460283333333","25.0665033333333","6500500","新莊區"
"242028","612-BX","2018/07/30 08:59:45","新北市新莊區中原路305號","121.447295","25.0545466666667","6500500","新莊區"
"242040","566-BX","2018/07/30 08:59:49","新北市新莊區壽山路61號","121.410628333333","25.0327516666667","6500500","新莊區"
"242045","497-BY","2018/07/30 08:59:48","新北市新莊區福營路476號","121.41936","25.0243616666667","6500500","新莊區"
"242049","441-UM","2018/07/30 08:59:45","新北市新莊區民安西路252巷14號","121.425345","25.0136516666667","6500500","新莊區"
"242055","440-UM","2018/07/30 08:59:34","新北市新莊區瓊林路20號","121.449303333333","25.0314416666667","6500500","新莊區"
"242035","415-TV","2018/07/30 08:59:35","新北市新莊區建安街43號","121.428888333333","25.025495","6500500","新莊區"
"242006","413-TV","2018/07/30 08:59:38","新北市新莊區福壽街124巷25號","121.458725","25.0513533333333","6500500","新莊區"
"242043","400-BY","2018/07/30 08:59:39","新北市新莊區中正路新旺巷4號","121.415663333333","25.0235216666667","6500500","新莊區"
"242022","362-BY","2018/07/30 08:59:41","新北市新莊區化成路938號","121.464828333333","25.062605","6500500","新莊區"
"242059","353-BY","2018/07/30 08:59:35","新北市新莊區環漢路三段1號","121.442266666667","25.0239783333333","6500500","新莊區"
"242008","132-UY","2018/07/30 08:59:38","新北市新莊區昌盛街81巷4弄1號","121.455608333333","25.0506316666667","6500500","新莊區"
"242038","133-UY","2018/07/30 08:59:41","新北市新莊區民安西路109號","121.426826666667","25.018415","6500500","新莊區"
"242030","135-UY","2018/07/30 08:59:46","新北市新莊區公園一路121號","121.445225","25.0380166666667","6500500","新莊區"
"242016","175-VK","2018/07/30 08:59:52","新北市新莊區中港三街96號","121.448823333333","25.0462283333333","6500500","新莊區"
"242003","176-VK","2018/07/30 08:59:47","新北市新莊區化成路260號","121.465676666667","25.04757","6500500","新莊區"
"242047","347-TH","2018/07/30 08:59:51","新北市新莊區民安路189號","121.426028333333","25.022755","6500500","新莊區"
"242001","349-TH","2018/07/30 08:59:48","新北市新莊區中正路48-2號","121.463968333333","25.0410133333333","6500500","新莊區"
"242018","350-TH","2018/07/30 08:59:48","新北市新莊區銘德街83號","121.456246666667","25.0434866666667","6500500","新莊區"
"242012","351-TH","2018/07/30 08:59:45","新北市新莊區中和街184號","121.447483333333","25.0498383333333","6500500","新莊區"
"242014","281-VK","2018/07/30 08:59:42","新北市新莊區中平路66號","121.444926666667","25.044395","6500500","新莊區"
"242020","280-VK","2018/07/30 08:59:48","新北市新莊區新泰路150巷10弄15號","121.448198333333","25.0380416666667","6500500","新莊區"
