"lineid","car","time","location","longitude","latitude","cityid","cityname"
"248005","653-BX","2018/07/30 09:29:45","新北市五股區登林路76-9號","121.429825","25.0694916666667","6501500","五股區"
"244006","080-UY","2018/07/30 09:29:48","新北市林口區後湖13鄰44號","121.386208333333","25.0998916666667","6501700","林口區"
"244018","403-UM","2018/07/30 09:29:43","新北市林口區麗園二街23巷88號","121.380608333333","25.0702666666667","6501700","林口區"
"244008","410-SL","2018/07/30 09:29:34","新北市林口區竹林路330巷11號","121.392396666667","25.08288","6501700","林口區"
"244022","483-VK","2018/07/30 09:29:34","新北市林口區四維路245巷25號","121.382075","25.075115","6501700","林口區"
"244016","485-VK","2018/07/30 09:29:44","新北市林口區文化二路一段68巷2號","121.36617","25.068745","6501700","林口區"
"244010","657-BX","2018/07/30 09:29:53","新北市林口區中正路320號","121.387813333333","25.077735","6501700","林口區"
"222005","289-BY","2018/07/30 09:29:53","新北市深坑區土庫尖路62-1號","121.635741666667","25.01797","6501800","深坑區"
"222005","628-TS","2018/07/30 09:29:34","新北市深坑區深南路88巷1號","121.621263333333","25.011745","6501800","深坑區"
"231007","189-VK","2018/07/30 09:29:45","新北市新店區新潭路三段256號","121.50815","24.9039783333333","6500600","新店區"
"231008","192-VK","2018/07/30 09:29:47","新北市新店區平廣路一段30-1號","121.534746666667","24.9028683333333","6500600","新店區"
"235001","611-BX","2018/07/30 09:29:44","新北市中和區連城路378號","121.481033333333","24.9951433333333","6500300","中和區"
"223006","022-BY","2018/07/30 09:29:54","新北市石碇區小粗坑(潭邊里)3-2號","121.673456666667","24.983275","6501900","石碇區"
"223003","205-TH","2018/07/30 09:29:44","新北市石碇區北宜路四段26號","121.62317","24.9579583333333","6501900","石碇區"
"223008","406-TH","2018/07/30 09:29:48","新北市石碇區靜安路一段368號","121.701765","25.0178366666667","6501900","石碇區"
"223001","592-UM","2018/07/30 09:29:41","新北市石碇區北宜路四段25號","121.623063333333","24.9579116666667","6501900","石碇區"
"223004","660-BX","2018/07/30 09:29:46","新北市石碇區碇坪路二段22號","121.686968333333","24.974145","6501900","石碇區"
"223007","661-BX","2018/07/30 09:29:51","新北市石碇區大湖格21號","121.696886666667","25.0192033333333","6501900","石碇區"
"223005","677-TV","2018/07/30 09:29:42","新北市石碇區大崙15號","121.687838333333","24.9795783333333","6501900","石碇區"
"227005","282-VK","2018/07/30 09:29:37","新北市雙溪區泰平里溪尾寮20號","121.8169","24.9693933333333","6502500","雙溪區"
"252004","249-BX","2018/07/30 09:29:48","新北市三芝區店子里店子112-4號","121.510506666667","25.2096516666667","6502100","三芝區"
"252006","AAC-283","2018/07/30 09:29:37","新北市三芝區新庄里新庄子101-13號","121.516151666667","25.267815","6502100","三芝區"
"237001","159-UY","2018/07/30 09:29:47","新北市三峽區隆恩街245號","121.35765","24.9409333333333","6500900","三峽區"
"236007","165-UM","2018/07/30 09:29:39","新北市土城區中央路四段462號","121.410215","24.9508633333333","6501300","土城區"
"236001","339-SR","2018/07/30 09:29:46","新北市土城區明德路二段65號","121.45145","24.9808683333333","6501300","土城區"
"236005","498-BY","2018/07/30 09:29:34","新北市土城區承天路78號","121.442663333333","24.9614916666667","6501300","土城區"
"242033","AAC-296","2018/07/30 09:29:41","新北市新莊區建中街127號","121.44545","25.0364783333333","6500500","新莊區"
"242057","986-R7","2018/07/30 09:29:40","新北市新莊區龍安路278巷8號","121.422075","25.0189083333333","6500500","新莊區"
"242024","613-BX","2018/07/30 09:29:43","新北市新莊區化成路990-3號","121.465161666667","25.06417","6500500","新莊區"
"242049","441-UM","2018/07/30 09:29:45","新北市新莊區新樹路222號","121.433745","25.0200833333333","6500500","新莊區"
"242055","440-UM","2018/07/30 09:29:48","新北市新莊區瓊泰路126號","121.44321","25.0317016666667","6500500","新莊區"
"242035","415-TV","2018/07/30 09:29:35","新北市新莊區後港一路94巷1弄2號","121.42783","25.0263833333333","6500500","新莊區"
"242043","400-BY","2018/07/30 09:29:22","新北市新莊區中正路新建巷28弄27號","121.41403","25.0215316666667","6500500","新莊區"
"242022","362-BY","2018/07/30 09:29:41","新北市新莊區新莊路15號","121.459511666667","25.037195","6500500","新莊區"
"242059","353-BY","2018/07/30 09:29:49","新北市新莊區民安東路139巷3號","121.431286666667","25.0211266666667","6500500","新莊區"
"242038","133-UY","2018/07/30 09:29:42","新北市新莊區瓊林路63-2號","121.438223333333","25.02094","6500500","新莊區"
"242030","135-UY","2018/07/30 09:29:42","新北市新莊區三和路20-6號","121.439483333333","25.0374416666667","6500500","新莊區"
"242010","173-VK","2018/07/30 09:29:51","新北市新莊區中榮街106號","121.447166666667","25.052955","6500500","新莊區"
"242003","176-VK","2018/07/30 09:29:47","新北市新莊區化成路746巷37號","121.466956666667","25.0580416666667","6500500","新莊區"
"242047","347-TH","2018/07/30 09:29:51","新北市新莊區中正路871巷1號","121.418148333333","25.027085","6500500","新莊區"
"242001","349-TH","2018/07/30 09:29:48","新北市新莊區中港路五守新村35巷2號","121.454626666667","25.03872","6500500","新莊區"
"242020","280-VK","2018/07/30 09:29:48","新北市新莊區中華路一段3號","121.451951666667","25.0370416666667","6500500","新莊區"
