"lineid","car","time","location","longitude","latitude","cityid","cityname"
"234044","148-BY","2018/07/30 13:39:16","新北市永和區永利路103號","121.523203333333","25.0027166666667","6500400","永和區"
"234070","149-BY","2018/07/30 13:39:22","新北市永和區民治街59巷4號","121.518321666667","24.9976433333333","6500400","永和區"
"234005","207-UY","2018/07/30 13:39:19","新北市永和區中山路一段4號","121.51429","25.0104283333333","6500400","永和區"
"234078","298-R6","2018/07/30 13:39:22","新北市永和區國中路104巷12弄2號","121.525531666667","25.0065283333333","6500400","永和區"
"234036","336-UY","2018/07/30 13:39:12","新北市永和區民樂街31巷4號","121.52775","25.0014866666667","6500400","永和區"
"234062","337-UY","2018/07/30 13:39:22","新北市永和區秀朗路二段24巷28弄2號","121.519686666667","25.0017833333333","6500400","永和區"
"234084","338-UY","2018/07/30 13:39:15","新北市永和區永亨路165巷1-6號","121.52603","25.0039666666667","6500400","永和區"
"234068","552-UM","2018/07/30 13:39:17","新北市永和區永和路二段235號","121.515625","25.0142933333333","6500400","永和區"
"234015","745-BX","2018/07/30 13:39:12","新北市永和區永和路二段425巷51號","121.513833333333","25.01737","6500400","永和區"
"234028","746-BX","2018/07/30 13:39:27","新北市永和區民權路29巷17號","121.520915","24.9980133333333","6500400","永和區"
"234052","KEA-2590","2018/07/30 13:39:12","新北市永和區竹林路39巷18號","121.51867","25.0146433333333","6500400","永和區"
"234012","KEA-2591","2018/07/30 13:39:23","新北市永和區永平路236號","121.508751666667","25.0110333333333","6500400","永和區"
"234060","AAD-866","2018/07/30 13:39:26","新北市永和區永貞路198號","121.515866666667","25.0041716666667","6500400","永和區"
"234040","862-TW","2018/07/30 13:39:22","新北市永和區水源街46號","121.510676666667","25.004415","6500400","永和區"
"234048","863-TW","2018/07/30 13:39:28","新北市永和區保安路69號","121.509061666667","25.01542","6500400","永和區"
"234025","9371-KE","2018/07/30 13:39:09","新北市永和區永平路179號","121.510415","25.009195","6500400","永和區"
"234010","9373-KE","2018/07/30 13:39:28","新北市永和區仁愛路141巷30弄5號","121.51201","25.01152","6500400","永和區"
"248013","025-BX","2018/07/30 13:39:18","新北市五股區中興路四段70號","121.436955","25.083395","6501500","五股區"
"248015","026-BX","2018/07/30 13:39:28","新北市五股區凌雲路一段149巷42號","121.448625","25.1009","6501500","五股區"
"248005","077-UY","2018/07/30 13:39:22","新北市五股區中興路一段13號","121.469236666667","25.0723183333333","6501500","五股區"
"248007","095-VK","2018/07/30 13:39:18","新北市五股區中興路一段151巷48號","121.46514","25.072405","6501500","五股區"
"248019","225-UY","2018/07/30 13:39:01","新北市五股區孝義路87號","121.444018333333","25.1196933333333","6501500","五股區"
"248011","247-BX","2018/07/30 13:39:25","新北市五股區御史路37巷2號","121.442135","25.09199","6501500","五股區"
"248003","655-BX","2018/07/30 13:39:21","新北市五股區民義路二段22巷1號","121.419923333333","25.097015","6501500","五股區"
"248001","678-BX","2018/07/30 13:39:14","新北市五股區西雲路248號","121.448861666667","25.0969183333333","6501500","五股區"
"248009","682-TV","2018/07/30 13:39:24","新北市五股區水碓九路140號","121.430231666667","25.0731416666667","6501500","五股區"
"234022","9380-KE","2018/07/30 13:39:12","新北市永和區環河西路二段157號","121.505316666667","25.0138416666667","6500400","永和區"
"234076","969-R7","2018/07/30 13:39:15","新北市永和區民權路30號","121.520226666667","24.9991033333333","6500400","永和區"
"234072","AAC-211","2018/07/30 13:39:19","新北市永和區竹林路213巷35號","121.522968333333","25.0091066666667","6500400","永和區"
"234066","AAC-212","2018/07/30 13:39:11","新北市永和區中山路一段191巷16弄2號","121.509656666667","25.0079816666667","6500400","永和區"
"234001","AAC-295","2018/07/30 13:39:21","新北市永和區秀朗路一段22號","121.51395","25.006775","6500400","永和區"
"244001","248-BX","2018/07/30 13:39:08","新北市林口區瑞平里8鄰53-2號","121.342355","25.1227533333333","6501700","林口區"
"243005","AAD-798","2018/07/30 13:33:35","新北市泰山區明志路三段206巷3號","121.423323333333","25.0379516666667","6501600","泰山區"
"243004","646-TV","2018/07/30 13:39:26","新北市泰山區黎明路6-1號","121.421186666667","25.0617966666667","6501600","泰山區"
"222005","628-TS","2018/07/30 13:39:14","新北市深坑區深南路88巷1號","121.621221666667","25.011745","6501800","深坑區"
"231002","002-UM","2018/07/30 13:39:27","新北市新店區中央三街127號","121.524026666667","24.9768733333333","6500600","新店區"
"231027","0293-UT","2018/07/30 13:39:23","新北市新店區北宜路一段123-6號","121.540956666667","24.9537733333333","6500600","新店區"
"231028","046-UY","2018/07/30 13:39:03","新北市新店區安和路一段2號","121.517065","24.96466","6500600","新店區"
"231001","047-UY","2018/07/30 13:39:24","新北市新店區中正路397號","121.534495","24.9772666666667","6500600","新店區"
"231005","106-UY","2018/07/30 13:39:24","新北市新店區寶中路72號","121.547913333333","24.9806166666667","6500600","新店區"
"231010","107-UY","2018/07/30 13:39:24","新北市新店區中正路307巷17號","121.53587","24.9736266666667","6500600","新店區"
"231019","108-UY","2018/07/30 13:39:27","新北市新店區永興路88-1號","121.543955","24.93367","6500600","新店區"
"231011","187-VK","2018/07/30 13:39:23","新北市新店區德正街27巷1號","121.544563333333","24.971405","6500600","新店區"
"231023","KEA-2219","2018/07/30 13:39:10","新北市新店區新店路122號","121.537118333333","24.9549116666667","6500600","新店區"
"231026","256-BX","2018/07/30 13:39:29","新北市新店區中正路111號","121.542468333333","24.9705933333333","6500600","新店區"
"231003","268-BY","2018/07/30 13:39:21","新北市新店區中正路31號","121.54517","24.96962","6500600","新店區"
"231018","278-BY","2018/07/30 13:39:26","新北市新店區百忍街31號","121.533683333333","24.9757266666667","6500600","新店區"
"231014","AAD-862","2018/07/30 13:39:18","新北市新店區竹林路2巷27弄11號","121.550973333333","24.950895","6500600","新店區"
"231038","3712-VJ","2018/07/30 13:39:11","新北市新店區安華路1-1號","121.51935","24.9604933333333","6500600","新店區"
"231037","4716-K9","2018/07/30 13:39:07","新北市新店區薏仁坑路57號","121.490571666667","24.963975","6500600","新店區"
"231025","4715-K9","2018/07/30 13:39:18","新北市新店區中央六街56號","121.527941666667","24.975735","6500600","新店區"
"231036","512-UM","2018/07/30 13:39:23","新北市新店區安祥路142號","121.474271666667","24.9554783333333","6500600","新店區"
"231013","513-UM","2018/07/30 13:39:25","新北市新店區中正路454-5號","121.534446666667","24.9790683333333","6500600","新店區"
"231034","616-UM","2018/07/30 13:39:09","新北市新店區車子路134號","121.505193333333","24.9492916666667","6500600","新店區"
"231006","617-UM","2018/07/30 13:39:22","新北市新店區北宜路一段83號","121.538698333333","24.9559266666667","6500600","新店區"
"231030","619-UM","2018/07/30 13:39:17","新北市新店區安康路一段226-2號","121.523425","24.9636083333333","6500600","新店區"
"231035","719-UM","2018/07/30 13:39:07","新北市新店區安忠路56巷6號","121.513013333333","24.9594816666667","6500600","新店區"
"231031","720-UM","2018/07/30 13:39:27","新北市新店區安康路一段90號","121.52791","24.961925","6500600","新店區"
"231029","897-TW","2018/07/30 13:39:11","新北市新店區安康路二段352號","121.502293333333","24.9574533333333","6500600","新店區"
"231004","899-TW","2018/07/30 13:39:17","新北市新店區北新路二段18號","121.542756666667","24.9713216666667","6500600","新店區"
"231024","AKT-0513","2018/07/30 13:39:18","新北市新店區中華路47巷9號","121.539743333333","24.9672816666667","6500600","新店區"
"235030","003-UY","2018/07/30 13:39:22","新北市中和區水源路43號","121.50469","25.0036","6500300","中和區"
"235064","005-UY","2018/07/30 13:39:19","新北市中和區連城路109巷22號","121.496785","24.9987016666667","6500300","中和區"
"235027","006-UY","2018/07/30 13:39:07","新北市中和區連城路389巷10弄1號","121.486593333333","24.9954733333333","6500300","中和區"
"235020","096-UM","2018/07/30 13:39:10","新北市中和區員山路466巷21弄1號","121.480586666667","25.0070133333333","6500300","中和區"
"235003","097-UM","2018/07/30 13:39:14","新北市中和區大勇街25巷29弄2號","121.515291666667","24.994015","6500300","中和區"
"235029","098-UM","2018/07/30 13:39:26","新北市永和區仁愛路352巷90號","121.501206666667","25.0076716666667","6500300","中和區"
"235004","150-BY","2018/07/30 13:39:02","新北市中和區安平路59號","121.50957","24.9951216666667","6500300","中和區"
"235022","151-BY","2018/07/30 13:39:29","新北市中和區員山路7-1號","121.482848333333","24.9852033333333","6500300","中和區"
"235019","183-VK","2018/07/30 13:39:18","新北市中和區莒光路120巷58號","121.471661666667","25.0007466666667","6500300","中和區"
"235002","185-VK","2018/07/30 13:39:24","新北市中和區大勇街72號","121.518153333333","24.9947033333333","6500300","中和區"
"235013","186-VK","2018/07/30 13:39:08","新北市中和區明義街6號","121.505036666667","24.9949966666667","6500300","中和區"
"235031","255-BX","2018/07/30 13:39:13","新北市中和區新生街220巷13號","121.48294","24.9984883333333","6500300","中和區"
"235008","293-VK","2018/07/30 13:39:22","新北市中和區復興路276號","121.502706666667","24.99044","6500300","中和區"
"235036","301-VK","2018/07/30 13:39:13","新北市中和區連城路171巷41弄1號","121.496078333333","24.996735","6500300","中和區"
"235007","352-BY","2018/07/30 13:39:14","新北市中和區景平路163號","121.512361666667","24.9923833333333","6500300","中和區"
"235006","KEA-2878","2018/07/30 13:39:25","新北市中和區成功路41巷1號","121.526283333333","24.9932283333333","6500300","中和區"
"235014","4979-A6","2018/07/30 13:39:17","新北市中和區景新街496巷28弄6號","121.513195","24.9859166666667","6500300","中和區"
"235033","4980-A6","2018/07/30 13:39:24","新北市中和區連城路89巷1號","121.496646666667","25.000145","6500300","中和區"
"235034","558-UM","2018/07/30 13:39:18","新北市中和區南華路52號","121.504356666667","24.996905","6500300","中和區"
"235009","565-BX","2018/07/30 13:39:22","新北市中和區南山路236巷23弄2號","121.505545","24.98854","6500300","中和區"
"235018","640-BX","2018/07/30 13:39:21","新北市中和區民享街48號","121.473896666667","25.0026366666667","6500300","中和區"
"235024","647-TV","2018/07/30 13:39:25","新北市中和區中山路二段614號","121.481591666667","25.0054133333333","6500300","中和區"
"235011","732-UM","2018/07/30 13:39:17","新北市中和區南山路320巷6號","121.507633333333","24.9866133333333","6500300","中和區"
"235035","783-BX","2018/07/30 13:39:21","新北市中和區永和路356巷51號","121.487245","25.0142533333333","6500300","中和區"
"235026","800-TS","2018/07/30 13:39:16","新北市中和區中山路二段312巷10弄1號","121.495585","25.00307","6500300","中和區"
"235021","801-TS","2018/07/30 13:39:18","新北市中和區員山路327巷25號","121.480036666667","25.0018933333333","6500300","中和區"
"235005","802-TS","2018/07/30 13:39:11","新北市中和區中安街80號","121.512115","25.0018883333333","6500300","中和區"
"235016","805-TS","2018/07/30 13:39:18","新北市中和區興南路三段52巷2-5號","121.494383333333","24.9758116666667","6500300","中和區"
"235012","896-TW","2018/07/30 13:39:13","新北市中和區中正路135號","121.4995","24.99357","6500300","中和區"
"235017","900-TW","2018/07/30 13:39:10","新北市中和區民享街484號","121.469435","24.99234","6500300","中和區"
"235015","157-BY","2018/07/30 13:39:26","新北市中和區華新街143巷106弄28號","121.506066666667","24.9788033333333","6500300","中和區"
"235001","AAC-213","2018/07/30 13:39:14","新北市中和區景德街72號","121.516813333333","24.991515","6500300","中和區"
"235023","AAC-215","2018/07/30 13:39:18","新北市中和區中正路637巷52弄1號","121.485413333333","24.9933966666667","6500300","中和區"
"220013","072-UY","2018/07/30 13:39:20","新北市板橋區海山路1號","121.469635","25.0094966666667","6500100","板橋區"
"220034","073-UY","2018/07/30 13:39:15","新北市板橋區南雅西路二段175巷2號","121.451753333333","25.0125516666667","6500100","板橋區"
"220017","AAD-861","2018/07/30 13:39:06","新北市板橋區華東街1-10號","121.448716666667","24.9949516666667","6500100","板橋區"
"247007","056-VK","2018/07/30 13:39:20","新北市蘆洲區國道路二段105號","121.47055","25.0749016666667","6501400","蘆洲區"
"247001","002-UY","2018/07/30 13:39:25","新北市五股區新五路三段181號","121.44877","25.09213","6501400","蘆洲區"
"253003","6232-TK","2018/07/30 13:39:12","新北市石門區內石門102號","121.568166666667","25.275185","6502200","石門區"
"253001","6251-TK","2018/07/30 13:38:59","新北市石門區白沙灣別墅31號","121.510916666667","25.2774716666667","6502200","石門區"
"253002","637-UY","2018/07/30 13:39:11","新北市石門區九芎林35-1號","121.567745","25.2558283333333","6502200","石門區"
"253004","8270-PC","2018/07/30 13:39:15","新北市石門區五爪崙8-16號","121.609093333333","25.26049","6502200","石門區"
"207002","749-BX","2018/07/30 13:39:22","新北市萬里區崁腳里崁腳路166號","121.645041666667","25.1558233333333","6502800","萬里區"
"252005","073-UM","2018/07/30 13:39:05","新北市三芝區圓山里內柑宅25號","121.538903333333","25.2189","6502100","三芝區"
"207001","662-BX","2018/07/30 13:39:20","新北市萬里區大鵬里萬里加投29-11號","121.646951666667","25.2086066666667","6502800","萬里區"
"237001","159-UY","2018/07/30 13:39:26","新北市樹林區中山路三段210-2號","121.381326666667","24.9655716666667","6500900","三峽區"
"236064","105-UM","2018/07/30 13:39:24","新北市土城區城林路6巷80號","121.438548333333","24.9797766666667","6501300","土城區"
"236040","107-UM","2018/07/30 13:39:13","新北市土城區城林路6巷80號","121.438491666667","24.979775","6501300","土城區"
"236074","166-UM","2018/07/30 13:39:18","新北市土城區城林路6巷80號","121.438221666667","24.9793183333333","6501300","土城區"
"236016","401-BY","2018/07/30 13:39:26","新北市土城區城林路6巷80號","121.438573333333","24.9797833333333","6501300","土城區"
"236005","498-BY","2018/07/30 13:39:21","新北市土城區慶祥街42號","121.437065","24.9746133333333","6501300","土城區"
"236057","912-UM","2018/07/30 13:39:23","新北市土城區城林路6巷80號","121.438515","24.9797516666667","6501300","土城區"
"236045","913-UM","2018/07/30 13:39:13","新北市土城區城林路6巷80號","121.438555","24.9797183333333","6501300","土城區"
"236060","915-UM","2018/07/30 13:39:15","新北市土城區城林路6巷80號","121.438471666667","24.97979","6501300","土城區"
"221012","246-BX","2018/07/30 13:39:27","新北市汐止區龍安路183號","121.652801666667","25.063025","6501100","汐止區"
"221032","280-BY","2018/07/30 13:39:20","新北市汐止區秀峰路57號","121.659553333333","25.065375","6501100","汐止區"
"220028","200-UY","2018/07/30 13:39:21","新北市板橋區大觀路二段265巷76弄36號","121.441063333333","24.996785","6500100","板橋區"
"220027","256-TC","2018/07/30 13:39:23","新北市板橋區館前西路162號","121.452806666667","25.008625","6500100","板橋區"
"220004","276-BY","2018/07/30 13:39:27","新北市土城區廣興街38號","121.453516666667","24.9914633333333","6500100","板橋區"
"220020","277-BY","2018/07/30 13:39:25","新北市板橋區大觀路三段63-1號","121.43356","24.99543","6500100","板橋區"
"220019","283-VK","2018/07/30 13:39:09","新北市板橋區四川路二段14號","121.456123333333","24.9962833333333","6500100","板橋區"
"220043","285-UM","2018/07/30 13:39:10","新北市板橋區民生路二段161巷5號","121.469995","25.019665","6500100","板橋區"
"220001","285-VK","2018/07/30 13:39:12","新北市板橋區民生路二段188號","121.469988333333","25.0202783333333","6500100","板橋區"
"220031","286-VK","2018/07/30 13:39:24","新北市板橋區大觀路二段91號","121.446333333333","25.0019716666667","6500100","板橋區"
"220029","287-VK","2018/07/30 13:39:10","新北市板橋區大觀路二段95號","121.446265","25.0018933333333","6500100","板橋區"
"220039","288-VK","2018/07/30 13:39:10","新北市板橋區民生路二段120號","121.470375","25.019705","6500100","板橋區"
"220032","296-UM","2018/07/30 13:39:14","新北市板橋區大觀路二段148巷1-1號","121.441818333333","24.9991716666667","6500100","板橋區"
"220023","303-R5","2018/07/30 13:39:26","新北市板橋區華東街260號","121.452608333333","25.0014216666667","6500100","板橋區"
"220010","305-R5","2018/07/30 13:39:08","新北市板橋區民生路二段120號","121.470568333333","25.019685","6500100","板橋區"
"220012","486-VK","2018/07/30 13:39:22","新北市板橋區縣民大道一段322號","121.461683333333","25.0110083333333","6500100","板橋區"
"220104","560-BX","2018/07/30 13:39:23","新北市板橋區南雅西路二段145巷10號","121.451565","25.0118916666667","6500100","板橋區"
"220011","609-BX","2018/07/30 13:39:25","新北市板橋區民生路二段188號","121.470058333333","25.0202983333333","6500100","板橋區"
"220005","686-BX","2018/07/30 13:39:10","新北市板橋區華東街1-10號","121.448295","24.9949166666667","6500100","板橋區"
"220025","687-BX","2018/07/30 13:39:22","新北市板橋區大觀路三段212巷70號","121.429785","24.9935616666667","6500100","板橋區"
"220042","689-BX","2018/07/30 13:39:22","新北市板橋區民生路二段188號","121.470321666667","25.02021","6500100","板橋區"
"220002","741-BX","2018/07/30 13:39:14","新北市板橋區華東街1-9號","121.448245","24.99494","6500100","板橋區"
"220018","806-UM","2018/07/30 13:39:20","新北市板橋區華東街1-9號","121.448075","24.9949016666667","6500100","板橋區"
"220014","829-TW","2018/07/30 13:39:18","新北市板橋區民生路二段120號","121.470406666667","25.0198016666667","6500100","板橋區"
"220038","833-TW","2018/07/30 13:39:12","新北市板橋區三民路二段257號","121.47906","25.011585","6500100","板橋區"
"220022","895-R6","2018/07/30 13:39:08","新北市板橋區南雅南路一段8-5號","121.456051666667","25.0064933333333","6500100","板橋區"
"220021","985-R7","2018/07/30 13:39:23","新北市板橋區南雅南路二段11-5號","121.454078333333","25.0022616666667","6500100","板橋區"
"220030","AAC-253","2018/07/30 13:39:25","新北市板橋區大觀路三段52號","121.432243333333","24.9959566666667","6500100","板橋區"
"235032","KEA-2873","2018/07/30 13:39:12","新北市中和區圓通路265巷58號","121.496331666667","24.99235","6500300","中和區"
"235025","KEA-2875","2018/07/30 13:39:20","新北市中和區民享街92巷34號","121.47361","24.9996666666667","6500300","中和區"
