"lineid","car","time","location","longitude","latitude","cityid","cityname"
"234044","148-BY","2018/07/30 13:59:16","新北市永和區成功路一段16巷4號","121.52679","25.0055433333333","6500400","永和區"
"234070","149-BY","2018/07/30 13:59:22","新北市五股區五工一路112號","121.456121666667","25.071375","6500400","永和區"
"234005","207-UY","2018/07/30 13:59:19","新北市中和區中和路380號","121.51078","25.0020966666667","6500400","永和區"
"234078","298-R6","2018/07/30 13:59:22","新北市永和區永利路100號","121.521116666667","25.00356","6500400","永和區"
"234036","336-UY","2018/07/30 13:59:11","新北市永和區成功路二段193號","121.526516666667","24.9964766666667","6500400","永和區"
"234062","337-UY","2018/07/30 13:59:22","新北市永和區中正路412巷20弄32號","121.51914","25.0012233333333","6500400","永和區"
"234084","338-UY","2018/07/30 13:59:27","新北市永和區福和路248號","121.518655","25.0076616666667","6500400","永和區"
"234068","552-UM","2018/07/30 13:59:17","新北市永和區國光路12巷11弄3號","121.519298333333","25.0087883333333","6500400","永和區"
"234015","745-BX","2018/07/30 13:59:22","新北市永和區文化路123號","121.512213333333","25.0153616666667","6500400","永和區"
"234028","746-BX","2018/07/30 13:59:27","新北市永和區四維街103巷16號","121.523745","24.99714","6500400","永和區"
"234052","KEA-2590","2018/07/30 13:59:28","新北市永和區竹林路39巷40號","121.520006666667","25.0151633333333","6500400","永和區"
"234012","KEA-2591","2018/07/30 13:59:23","新北市永和區保生路55號","121.504671666667","25.0105366666667","6500400","永和區"
"234060","AAD-866","2018/07/30 13:59:12","新北市永和區得和路76號","121.516375","24.999965","6500400","永和區"
"234040","862-TW","2018/07/30 13:59:22","新北市永和區中和路393號","121.50864","25.0001583333333","6500400","永和區"
"234048","863-TW","2018/07/30 13:59:08","新北市永和區保安路145號","121.507086666667","25.0132116666667","6500400","永和區"
"234025","9371-KE","2018/07/30 13:59:09","新北市永和區自由街58號","121.51378","25.0059383333333","6500400","永和區"
"234010","9373-KE","2018/07/30 13:59:27","新北市永和區保生路55-1號","121.504533333333","25.0109166666667","6500400","永和區"
"248015","026-BX","2018/07/30 13:59:28","新北市五股區成泰路三段559巷14弄2號","121.451345","25.1024416666667","6501500","五股區"
"248007","095-VK","2018/07/30 13:59:18","新北市五股區中興路一段118巷9號","121.465901666667","25.073905","6501500","五股區"
"248019","225-UY","2018/07/30 13:59:21","新北市五股區凌雲路三段85-3號","121.42307","25.1245083333333","6501500","五股區"
"248011","247-BX","2018/07/30 13:59:25","新北市五股區成泰路二段195巷1號","121.44032","25.0873683333333","6501500","五股區"
"248003","655-BX","2018/07/30 13:59:21","新北市五股區六合街13號","121.431366666667","25.0885566666667","6501500","五股區"
"248001","678-BX","2018/07/30 13:59:14","新北市五股區凌雲路一段163號","121.448886666667","25.102635","6501500","五股區"
"248009","682-TV","2018/07/30 13:59:24","新北市五股區水碓二路1號","121.430561666667","25.0712983333333","6501500","五股區"
"234022","9380-KE","2018/07/30 13:59:22","新北市永和區中正路702巷11號","121.516323333333","25.0104583333333","6500400","永和區"
"234076","969-R7","2018/07/30 13:59:07","新北市永和區民族街43巷14號","121.519191666667","24.998295","6500400","永和區"
"234072","AAC-211","2018/07/30 13:59:13","新北市永和區豫溪街185號","121.522485","25.0103816666667","6500400","永和區"
"234066","AAC-212","2018/07/30 13:59:31","新北市永和區永貞路362號","121.510173333333","25.0066666666667","6500400","永和區"
"234001","AAC-295","2018/07/30 13:59:17","新北市永和區福和路299號","121.516468333333","25.00732","6500400","永和區"
"243005","AAD-798","2018/07/30 13:59:13","新北市泰山區明志路三段277號","121.422876666667","25.0366716666667","6501600","泰山區"
"243001","297-R6","2018/07/30 13:59:18","新北市泰山區福德街22號","121.432191666667","25.0629333333333","6501600","泰山區"
"243008","380-SR","2018/07/30 13:59:19","新北市泰山區明志路二段152-1號","121.42747","25.0506283333333","6501600","泰山區"
"243007","421-VK","2018/07/30 13:59:13","新北市泰山區美寧街3號","121.430078333333","25.0633933333333","6501600","泰山區"
"243003","KEA-2215","2018/07/30 13:59:21","新北市泰山區明志路二段268號","121.426865","25.0473983333333","6501600","泰山區"
"243002","KEA-2216","2018/07/30 13:59:21","新北市泰山區辭修路24號","121.429016666667","25.058165","6501600","泰山區"
"243004","646-TV","2018/07/30 13:59:26","新北市泰山區福興三街193號","121.433433333333","25.0573483333333","6501600","泰山區"
"243006","680-BX","2018/07/30 13:59:14","新北市泰山區黎明路23號","121.420901666667","25.0626483333333","6501600","泰山區"
"222005","628-TS","2018/07/30 13:59:14","新北市深坑區深南路88巷1號","121.621236666667","25.0117366666667","6501800","深坑區"
"231002","002-UM","2018/07/30 13:59:27","新北市新店區中正路707號","121.533931666667","24.990985","6500600","新店區"
"231027","0293-UT","2018/07/30 13:59:23","新北市新店區北宜路一段39巷20號","121.538831666667","24.9584033333333","6500600","新店區"
"231028","046-UY","2018/07/30 13:59:23","新北市新店區安和路三段9巷1號","121.518018333333","24.980625","6500600","新店區"
"231001","047-UY","2018/07/30 13:59:24","新北市新店區三民路43號","121.53718","24.970935","6500600","新店區"
"231005","106-UY","2018/07/30 13:59:24","新北市新店區中興路三段218號","121.543676666667","24.9825983333333","6500600","新店區"
"231010","107-UY","2018/07/30 13:59:24","新北市新店區環河路22號","121.536926666667","24.9617966666667","6500600","新店區"
"231019","108-UY","2018/07/30 13:59:27","新北市新店區湖子內路22號","121.54231","24.9308116666667","6500600","新店區"
"231011","187-VK","2018/07/30 13:59:23","新北市新店區中興路二段27號","121.546096666667","24.9695183333333","6500600","新店區"
"231023","KEA-2219","2018/07/30 13:59:30","新北市新店區文中路45號","121.539655","24.9566983333333","6500600","新店區"
"231026","256-BX","2018/07/30 13:59:09","新北市新店區安康路一段35-1號","121.532053333333","24.9605333333333","6500600","新店區"
"231003","268-BY","2018/07/30 13:59:21","新北市新店區中興路一段91號","121.540911666667","24.9621083333333","6500600","新店區"
"231018","278-BY","2018/07/30 13:59:27","新北市新店區中央路133巷7號","121.530808333333","24.9737316666667","6500600","新店區"
"231014","AAD-862","2018/07/30 13:59:18","新北市新店區郵政路81號","121.55514","24.9516416666667","6500600","新店區"
"231038","3712-VJ","2018/07/30 13:59:11","新北市新店區安華路30巷1號","121.519558333333","24.9592516666667","6500600","新店區"
"231037","4716-K9","2018/07/30 13:59:27","新北市新店區安康路三段355巷32號","121.484841666667","24.9494066666667","6500600","新店區"
"231025","4715-K9","2018/07/30 13:59:18","新北市新店區中正路328巷45號","121.538103333333","24.9764633333333","6500600","新店區"
"231036","512-UM","2018/07/30 13:59:23","新北市新店區安祥路128號","121.47451","24.95627","6500600","新店區"
"231013","513-UM","2018/07/30 13:59:25","新北市新店區明德路111號","121.541526666667","24.9794466666667","6500600","新店區"
"231034","616-UM","2018/07/30 13:59:09","新北市新店區黎明路65巷28號","121.504401666667","24.9456683333333","6500600","新店區"
"231006","617-UM","2018/07/30 13:59:22","新北市新店區北宜路二段213號","121.553233333333","24.9534","6500600","新店區"
"231030","619-UM","2018/07/30 13:59:17","新北市新店區安康路一段302-3號","121.517918333333","24.96406","6500600","新店區"
"231035","719-UM","2018/07/30 13:59:28","新北市新店區安和路一段6-6號","121.517338333333","24.96552","6500600","新店區"
"231031","720-UM","2018/07/30 13:59:27","新北市新店區華城路34-1號","121.528988333333","24.9567333333333","6500600","新店區"
"231029","897-TW","2018/07/30 13:59:11","新北市新店區安康路二段128號","121.512713333333","24.9624083333333","6500600","新店區"
"231004","899-TW","2018/07/30 13:59:17","新北市新店區北新路二段111號","121.542943333333","24.9747933333333","6500600","新店區"
"231024","AKT-0513","2018/07/30 13:59:11","新北市新店區新生街13巷42號","121.538883333333","24.9665866666667","6500600","新店區"
"235030","003-UY","2018/07/30 13:59:22","新北市中和區中山路二段131巷5弄4號","121.50297","25.00288","6500300","中和區"
"235064","005-UY","2018/07/30 13:59:19","新北市中和區泰和街30巷19號","121.498958333333","25.0010333333333","6500300","中和區"
"235027","006-UY","2018/07/30 13:59:27","新北市中和區中正路544號","121.487296666667","24.99441","6500300","中和區"
"235020","096-UM","2018/07/30 13:59:10","新北市中和區中正路1222號","121.479576666667","25.0107666666667","6500300","中和區"
"235003","097-UM","2018/07/30 13:59:14","新北市中和區自立路58巷23號","121.523121666667","24.991375","6500300","中和區"
"235029","098-UM","2018/07/30 13:59:26","新北市中和區莊敬路39號","121.500853333333","25.004985","6500300","中和區"
"235004","150-BY","2018/07/30 13:59:22","新北市中和區保健路46巷25-1號","121.508951666667","24.99608","6500300","中和區"
"235022","151-BY","2018/07/30 13:59:29","新北市中和區連城路607號","121.478025","24.9930516666667","6500300","中和區"
"235019","183-VK","2018/07/30 13:59:18","新北市板橋區民族路276巷1弄25號","121.470543333333","25.0063933333333","6500300","中和區"
"235002","185-VK","2018/07/30 13:59:24","新北市中和區大勇街60巷28號","121.51923","24.9946633333333","6500300","中和區"
"235013","186-VK","2018/07/30 13:59:28","新北市中和區明仁街18號","121.506286666667","24.9953066666667","6500300","中和區"
"235031","255-BX","2018/07/30 13:59:13","新北市中和區新生街266號","121.48353","24.9972733333333","6500300","中和區"
"235008","293-VK","2018/07/30 13:59:22","新北市中和區中興街161巷9弄1號","121.50122","24.9909333333333","6500300","中和區"
"235036","301-VK","2018/07/30 13:59:13","新北市中和區中山路二段45號","121.504551666667","25.004925","6500300","中和區"
"235007","352-BY","2018/07/30 13:59:14","新北市中和區秀朗路三段24號","121.526376666667","24.9963966666667","6500300","中和區"
"235006","KEA-2878","2018/07/30 13:59:25","新北市中和區秀朗路三段128巷13號","121.524558333333","24.99333","6500300","中和區"
"247009","KEA-2869","2018/07/30 13:59:12","新北市蘆洲區集賢路222-5號","121.482531666667","25.086755","6501400","蘆洲區"
"235014","4979-A6","2018/07/30 13:59:17","新北市中和區華新街50巷4號","121.50772","24.9840166666667","6500300","中和區"
"235033","4980-A6","2018/07/30 13:59:24","新北市中和區景平路461號","121.500613333333","24.9965266666667","6500300","中和區"
"235034","558-UM","2018/07/30 13:59:17","新北市中和區安和路163號","121.506101666667","24.997495","6500300","中和區"
"235009","565-BX","2018/07/30 13:59:22","新北市中和區景新街467巷20弄20號","121.514295","24.987875","6500300","中和區"
"235018","640-BX","2018/07/30 13:59:21","新北市中和區國光街8巷1號","121.471643333333","25.0002916666667","6500300","中和區"
"235024","647-TV","2018/07/30 13:59:25","新北市中和區民治街18號","121.475031666667","25.0043366666667","6500300","中和區"
"235011","732-UM","2018/07/30 13:59:17","新北市中和區興南路二段34巷14-1號","121.506436666667","24.9861216666667","6500300","中和區"
"235010","733-UM","2018/07/30 13:59:25","新北市中和區興南路一段135巷22弄2號","121.509171666667","24.98689","6500300","中和區"
"235035","783-BX","2018/07/30 13:59:21","新北市中和區立德街90號","121.487178333333","25.0080783333333","6500300","中和區"
"235026","800-TS","2018/07/30 13:59:16","新北市中和區中山路二段344號","121.493615","25.00247","6500300","中和區"
"235021","801-TS","2018/07/30 13:59:18","新北市中和區民利街58巷1號","121.478876666667","24.9989483333333","6500300","中和區"
"235005","802-TS","2018/07/30 13:59:13","新北市中和區永貞路221號","121.513603333333","25.00337","6500300","中和區"
"235016","805-TS","2018/07/30 13:59:18","新北市中和區興南路二段261巷6-3號","121.502518333333","24.97955","6500300","中和區"
"235012","896-TW","2018/07/30 13:59:13","新北市中和區華新街16號","121.507538333333","24.98497","6500300","中和區"
"235017","900-TW","2018/07/30 13:59:10","新北市中和區壽德街33-3號","121.466501666667","24.9946616666667","6500300","中和區"
"235015","157-BY","2018/07/30 13:59:26","新北市中和區忠孝街11巷3號","121.509745","24.9831066666667","6500300","中和區"
"235001","AAC-213","2018/07/30 13:59:14","新北市中和區自立路15巷1號","121.522456666667","24.9963583333333","6500300","中和區"
"235023","AAC-215","2018/07/30 13:59:18","新北市中和區圓通路367巷20弄7號","121.491945","24.9885416666667","6500300","中和區"
"220013","072-UY","2018/07/30 13:59:25","新北市板橋區漢生東路338號","121.471915","25.0075633333333","6500100","板橋區"
"220034","073-UY","2018/07/30 13:59:21","新北市板橋區中正路236巷66號","121.457848333333","25.0193733333333","6500100","板橋區"
"220105","075-UY","2018/07/30 13:59:13","新北市板橋區文化路二段124巷24號","121.471148333333","25.0256666666667","6500100","板橋區"
"220017","AAD-861","2018/07/30 13:59:26","新北市板橋區華興街55-4號","121.457496666667","25.0048466666667","6500100","板橋區"
"247013","546-UM","2018/07/30 13:59:19","新北市蘆洲區中正路181號","121.468711666667","25.08546","6501400","蘆洲區"
"247003","337-TH","2018/07/30 13:59:19","新北市蘆洲區長榮路38-8號","121.463025","25.0829483333333","6501400","蘆洲區"
"247005","336-TH","2018/07/30 13:59:12","新北市蘆洲區九芎街71巷33號","121.466146666667","25.0776366666667","6501400","蘆洲區"
"247017","057-VK","2018/07/30 13:59:18","新北市蘆洲區民族路255巷20號","121.476025","25.089285","6501400","蘆洲區"
"247007","056-VK","2018/07/30 13:59:20","新北市蘆洲區永安北路二段12巷1號","121.4813","25.0807083333333","6501400","蘆洲區"
"247015","007-UY","2018/07/30 13:59:30","新北市蘆洲區光華路22巷1號","121.46942","25.08354","6501400","蘆洲區"
"247001","002-UY","2018/07/30 13:59:19","新北市蘆洲區三民路605號","121.460603333333","25.0937566666667","6501400","蘆洲區"
"247019","001-UY","2018/07/30 13:59:22","新北市蘆洲區民族路422巷22-7號","121.473911666667","25.0925983333333","6501400","蘆洲區"
"253003","6232-TK","2018/07/30 13:59:12","新北市石門區尖子鹿7號","121.575106666667","25.27995","6502200","石門區"
"253001","6251-TK","2018/07/30 13:59:19","新北市石門區八甲60-5號","121.52607","25.271045","6502200","石門區"
"253002","637-UY","2018/07/30 13:58:11","新北市石門區尖山湖21號","121.55842","25.2474016666667","6502200","石門區"
"253004","8270-PC","2018/07/30 13:59:15","新北市石門區草埔尾20-1號","121.603405","25.2626133333333","6502200","石門區"
"207002","749-BX","2018/07/30 13:58:22","新北市萬里區溪底里烏塗炭9號","121.637576666667","25.1516733333333","6502800","萬里區"
"252005","073-UM","2018/07/30 13:59:23","新北市三芝區橫山里橫山56-6號","121.535348333333","25.248655","6502100","三芝區"
"207001","662-BX","2018/07/30 13:59:20","新北市萬里區磺潭里磺溪12號","121.630325","25.2030883333333","6502800","萬里區"
"236064","105-UM","2018/07/30 13:59:24","新北市土城區中華路一段259號","121.440453333333","24.9807616666667","6501300","土城區"
"236040","107-UM","2018/07/30 13:59:13","新北市土城區城林路6巷80號","121.438593333333","24.9797733333333","6501300","土城區"
"236074","166-UM","2018/07/30 13:59:27","新北市土城區永寧路32巷2號","121.429278333333","24.9606366666667","6501300","土城區"
"236024","269-VK","2018/07/30 13:59:18","新北市土城區承天路43巷6號","121.439385","24.96396","6501300","土城區"
"236012","270-VK","2018/07/30 13:59:29","新北市土城區城林路6巷80號","121.438578333333","24.9797583333333","6501300","土城區"
"236032","271-VK","2018/07/30 13:59:24","新北市土城區城林路6巷80號","121.4385","24.97979","6501300","土城區"
"236016","401-BY","2018/07/30 13:59:26","新北市土城區城林路6巷80號","121.438568333333","24.9797666666667","6501300","土城區"
"236005","498-BY","2018/07/30 13:59:21","新北市土城區中央路一段264-1號","121.44404","24.9838233333333","6501300","土城區"
"236057","912-UM","2018/07/30 13:59:23","新北市土城區中央路三段270號","121.426956666667","24.9638066666667","6501300","土城區"
"236045","913-UM","2018/07/30 13:59:13","新北市土城區城林路6巷80號","121.43837","24.97982","6501300","土城區"
"236060","915-UM","2018/07/30 13:59:15","新北市土城區中華路二段63號","121.439323333333","24.9785883333333","6501300","土城區"
"236054","AAC-216","2018/07/30 13:59:22","新北市土城區城林路6巷80號","121.43836","24.9798116666667","6501300","土城區"
"221012","246-BX","2018/07/30 13:59:27","新北市汐止區民權街二段79號","121.619306666667","25.048185","6501100","汐止區"
"220028","200-UY","2018/07/30 13:59:21","新北市板橋區大觀路二段265巷20弄2號","121.442868333333","24.9983383333333","6500100","板橋區"
"220050","245-BX","2018/07/30 13:59:24","新北市板橋區文化路二段182巷3弄2號","121.471536666667","25.0271666666667","6500100","板橋區"
"220027","256-TC","2018/07/30 13:59:23","新北市板橋區民權路260巷1弄17號","121.458338333333","25.0158783333333","6500100","板橋區"
"220004","276-BY","2018/07/30 13:59:27","新北市板橋區信義路165號","121.458681666667","24.992355","6500100","板橋區"
"220020","277-BY","2018/07/30 13:59:25","新北市板橋區溪北路168號","121.430893333333","24.9880733333333","6500100","板橋區"
"220019","283-VK","2018/07/30 13:59:29","新北市板橋區重慶路247-3號","121.463363333333","25.000465","6500100","板橋區"
"220043","285-UM","2018/07/30 13:59:30","新北市板橋區文化路二段51號","121.469125","25.0251116666667","6500100","板橋區"
"220001","285-VK","2018/07/30 13:59:27","新北市板橋區中山路二段89巷48號","121.473728333333","25.0172433333333","6500100","板橋區"
"220031","286-VK","2018/07/30 13:59:24","新北市板橋區龍興街101巷2號","121.444406666667","25.0032133333333","6500100","板橋區"
"220029","287-VK","2018/07/30 13:59:19","新北市板橋區光華街37巷2號","121.453691666667","25.0129383333333","6500100","板橋區"
"220039","288-VK","2018/07/30 13:59:12","新北市板橋區四維路179號","121.464293333333","25.026355","6500100","板橋區"
"220009","293-UM","2018/07/30 13:59:13","新北市板橋區富山街85巷6弄2號","121.476575","25.0212183333333","6500100","板橋區"
"220032","296-UM","2018/07/30 13:59:14","新北市板橋區大觀路二段156巷41號","121.440985","24.9997816666667","6500100","板橋區"
"220023","303-R5","2018/07/30 13:59:26","新北市板橋區館前西路158-8號","121.454656666667","25.0087333333333","6500100","板橋區"
"220010","305-R5","2018/07/30 13:59:28","新北市板橋區三民路二段245巷31號","121.480278333333","25.0126","6500100","板橋區"
"220041","307-R5","2018/07/30 13:59:10","新北市板橋區漢生東路31號","121.465263333333","25.01688","6500100","板橋區"
"220047","317-R6","2018/07/30 13:59:29","新北市板橋區民有街19號","121.466096666667","25.0249716666667","6500100","板橋區"
"220012","486-VK","2018/07/30 13:59:29","新北市板橋區縣民大道二段106號","121.46693","25.0154183333333","6500100","板橋區"
"220037","491-VK","2018/07/30 13:59:27","新北市板橋區民生路二段206號","121.469751666667","25.0211333333333","6500100","板橋區"
"220104","560-BX","2018/07/30 13:59:23","新北市板橋區中正路343號","121.454758333333","25.0206133333333","6500100","板橋區"
"220052","561-BX","2018/07/30 13:59:22","新北市板橋區縣民大道二段279號","121.470061666667","25.0177883333333","6500100","板橋區"
"220011","609-BX","2018/07/30 13:59:27","新北市板橋區中山路二段163號","121.475826666667","25.0168083333333","6500100","板橋區"
"220040","637-BX","2018/07/30 13:59:15","新北市板橋區莒光路165巷22號","121.474145","25.0245633333333","6500100","板橋區"
"220005","686-BX","2018/07/30 13:59:10","新北市板橋區重慶路100號","121.46196","25.0059433333333","6500100","板橋區"
"220025","687-BX","2018/07/30 13:59:22","新北市板橋區龍興街71巷52號","121.44164","25.002865","6500100","板橋區"
"220042","689-BX","2018/07/30 13:59:22","新北市板橋區民生路三段68-1號","121.466815","25.0258733333333","6500100","板橋區"
"220002","741-BX","2018/07/30 13:59:21","新北市板橋區四川路一段87巷40號","121.460646666667","25.0052433333333","6500100","板橋區"
"220051","KEA-2699","2018/07/30 13:59:22","新北市板橋區田單街2巷38號","121.481761666667","25.0274916666667","6500100","板橋區"
"220018","806-UM","2018/07/30 13:59:20","新北市板橋區四川路一段265號","121.45961","25.00217","6500100","板橋區"
"220003","827-TW","2018/07/30 13:59:12","新北市板橋區南雅南路二段4巷2號","121.454296666667","25.0038033333333","6500100","板橋區"
"220014","829-TW","2018/07/30 13:59:18","新北市板橋區三民路二段正隆巷30號","121.477296666667","25.013455","6500100","板橋區"
"220016","830-TW","2018/07/30 13:59:25","新北市板橋區中山路二段443巷52弄2號","121.481095","25.0215066666667","6500100","板橋區"
"220045","831-TW","2018/07/30 13:59:17","新北市板橋區莒光路133巷7弄3號","121.472596666667","25.02418","6500100","板橋區"
"220038","833-TW","2018/07/30 13:59:12","新北市板橋區文聖街20號","121.475765","25.031945","6500100","板橋區"
"220022","895-R6","2018/07/30 13:59:28","新北市板橋區林園街85號","121.453506666667","25.0106783333333","6500100","板橋區"
"220021","985-R7","2018/07/30 13:59:23","新北市板橋區館前西路興義巷3號","121.45499","25.00813","6500100","板橋區"
"220046","AAC-210","2018/07/30 13:59:31","新北市板橋區漢生東路7號","121.464696666667","25.017575","6500100","板橋區"
"220030","AAC-253","2018/07/30 13:59:25","新北市板橋區篤行路三段2-1號","121.429395","24.987845","6500100","板橋區"
"235032","KEA-2873","2018/07/30 13:59:10","新北市中和區連勝街38巷26號","121.497603333333","24.99821","6500300","中和區"
"235025","KEA-2875","2018/07/30 13:59:20","新北市中和區民治街130巷8號","121.474918333333","25.0026383333333","6500300","中和區"
