"lineid","car","time","location","longitude","latitude","cityid","cityname"
"234070","149-BY","2018/07/30 14:39:22","新北市五股區凌雲路二段18巷12號","121.44412","25.1067766666667","6500400","永和區"
"234078","298-R6","2018/07/30 14:39:22","新北市永和區永貞路82號","121.520185","25.0049533333333","6500400","永和區"
"234028","746-BX","2018/07/30 14:39:27","新北市永和區民權路51號","121.520001666667","24.9970283333333","6500400","永和區"
"234052","KEA-2590","2018/07/30 14:39:32","新北市永和區環河東路一段82號","121.519856666667","25.0166983333333","6500400","永和區"
"234040","862-TW","2018/07/30 14:39:22","新北市永和區永和路一段125號","121.514001666667","25.008265","6500400","永和區"
"234048","863-TW","2018/07/30 14:39:28","新北市永和區保安路73號","121.508758333333","25.015085","6500400","永和區"
"234025","9371-KE","2018/07/30 14:39:29","新北市中和區中和路380號","121.510605","25.0022016666667","6500400","永和區"
"248013","025-BX","2018/07/30 14:39:39","新北市五股區五福路32巷23號","121.435016666667","25.0897583333333","6501500","五股區"
"248015","026-BX","2018/07/30 14:39:28","新北市五股區成泰路四段6號","121.452891666667","25.10629","6501500","五股區"
"248007","095-VK","2018/07/30 14:39:38","新北市五股區四維路116-2號","121.468026666667","25.0744933333333","6501500","五股區"
"248019","225-UY","2018/07/30 14:39:33","新北市五股區凌雲路三段92-2號","121.428191666667","25.1197733333333","6501500","五股區"
"248011","247-BX","2018/07/30 14:39:25","新北市五股區蓬萊路10-2號","121.435103333333","25.0795533333333","6501500","五股區"
"248003","655-BX","2018/07/30 14:39:21","新北市五股區成泰路一段237-11號","121.436703333333","25.0802616666667","6501500","五股區"
"248001","678-BX","2018/07/30 14:39:35","新北市五股區成泰路三段311號","121.447775","25.0947266666667","6501500","五股區"
"248009","682-TV","2018/07/30 14:39:37","新北市五股區登林路貿商巷5弄3號","121.429498333333","25.0701516666667","6501500","五股區"
"234022","9380-KE","2018/07/30 14:39:32","新北市永和區竹林路27號","121.517351666667","25.01465","6500400","永和區"
"234072","AAC-211","2018/07/30 14:39:33","新北市永和區環河東路一段124號","121.520686666667","25.0153766666667","6500400","永和區"
"234001","AAC-295","2018/07/30 14:39:37","新北市永和區中正路620號","121.516996666667","25.0078366666667","6500400","永和區"
"244001","248-BX","2018/07/30 14:39:29","新北市林口區瑞平里33-1號","121.34835","25.12891","6501700","林口區"
"243005","AAD-798","2018/07/30 14:39:33","新北市泰山區應化街7號","121.423893333333","25.0437183333333","6501600","泰山區"
"243001","297-R6","2018/07/30 14:39:36","新北市泰山區泰林路二段164巷11號","121.434633333333","25.060715","6501600","泰山區"
"243008","380-SR","2018/07/30 14:39:39","新北市泰山區貴鳳街3號","121.421643333333","25.0313866666667","6501600","泰山區"
"243007","421-VK","2018/07/30 14:39:13","新北市泰山區明志路二段237巷11號","121.42759","25.048205","6501600","泰山區"
"243003","KEA-2215","2018/07/30 14:39:20","新北市泰山區明志路三段204巷10弄20號","121.422938333333","25.03881","6501600","泰山區"
"243002","KEA-2216","2018/07/30 14:39:21","新北市泰山區明志路二段136巷48號","121.426076666667","25.0520083333333","6501600","泰山區"
"243004","646-TV","2018/07/30 14:39:26","新北市泰山區全興路109號","121.43387","25.0567466666667","6501600","泰山區"
"243006","680-BX","2018/07/30 14:39:33","新北市泰山區泰林路二段33-7號","121.435375","25.0566266666667","6501600","泰山區"
"222005","628-TS","2018/07/30 14:39:34","新北市深坑區深南路88巷1號","121.62122","25.01173","6501800","深坑區"
"231002","002-UM","2018/07/30 14:39:28","新北市新店區中正路434號","121.534236666667","24.9782616666667","6500600","新店區"
"231027","0293-UT","2018/07/30 14:39:23","新北市新店區中正路334巷5號","121.536856666667","24.97537","6500600","新店區"
"231028","046-UY","2018/07/30 14:39:23","新北市新店區安成街28號","121.510306666667","24.9611766666667","6500600","新店區"
"231001","047-UY","2018/07/30 14:39:24","新北市新店區中正路30號","121.54526","24.9699283333333","6500600","新店區"
"231005","106-UY","2018/07/30 14:39:24","新北市新店區順安街51號","121.540823333333","24.9861666666667","6500600","新店區"
"231019","108-UY","2018/07/30 14:39:27","新北市新店區桂山路81巷1號","121.567478333333","24.8993016666667","6500600","新店區"
"231018","110-UY","2018/07/30 14:39:31","新北市新店區中央路149號","121.530038333333","24.973165","6500600","新店區"
"231011","187-VK","2018/07/30 14:39:23","新北市新店區寶宏路38號","121.549543333333","24.9756366666667","6500600","新店區"
"231023","KEA-2219","2018/07/30 14:39:30","新北市新店區檳榔路21號","121.541628333333","24.96389","6500600","新店區"
"231003","268-BY","2018/07/30 14:39:21","新北市新店區中正路5號","121.545808333333","24.969095","6500600","新店區"
"231014","AAD-862","2018/07/30 14:39:18","新北市新店區北宜路三段221號","121.592438333333","24.953175","6500600","新店區"
"231038","3712-VJ","2018/07/30 14:39:31","新北市新店區安華路8號","121.519866666667","24.9625766666667","6500600","新店區"
"231037","4716-K9","2018/07/30 14:39:27","新北市新店區柴埕路2-1號","121.514701666667","24.9659283333333","6500600","新店區"
"231036","512-UM","2018/07/30 14:39:23","新北市新店區安祥路106巷329號","121.472558333333","24.9587416666667","6500600","新店區"
"231013","513-UM","2018/07/30 14:39:27","新北市新店區明德路27號","121.541916666667","24.97714","6500600","新店區"
"231034","616-UM","2018/07/30 14:39:29","新北市新店區黎明路11號","121.502003333333","24.9497616666667","6500600","新店區"
"231006","617-UM","2018/07/30 14:39:22","新北市新店區北宜路二段133號","121.551155","24.952955","6500600","新店區"
"231030","619-UM","2018/07/30 14:39:37","新北市新店區安民街135號","121.516458333333","24.96931","6500600","新店區"
"231035","719-UM","2018/07/30 14:31:28","新北市新店區安民街26號","121.515696666667","24.96485","6500600","新店區"
"231029","897-TW","2018/07/30 14:39:31","新北市新店區安康路三段466-2號","121.484025","24.9509166666667","6500600","新店區"
"231004","899-TW","2018/07/30 14:39:37","新北市新店區中正路306號","121.537396666667","24.9745783333333","6500600","新店區"
"231024","AKT-0513","2018/07/30 14:39:31","新北市新店區安和路三段2-2號","121.51775","24.9797783333333","6500600","新店區"
"235030","003-UY","2018/07/30 14:39:22","新北市中和區景新街131號","121.505881666667","24.9974","6500300","中和區"
"235064","005-UY","2018/07/30 14:39:19","新北市中和區南山路127巷18弄24號","121.503561666667","24.99694","6500300","中和區"
"235027","006-UY","2018/07/30 14:39:27","新北市中和區連城路188巷2-1號","121.492785","24.9974316666667","6500300","中和區"
"235020","096-UM","2018/07/30 14:39:30","新北市中和區員山路581巷31弄24號","121.47665","25.010475","6500300","中和區"
"235003","097-UM","2018/07/30 14:39:34","新北市中和區安平路176號","121.512771666667","24.998895","6500300","中和區"
"235029","098-UM","2018/07/30 14:39:25","新北市中和區福美路246號","121.498635","25.00518","6500300","中和區"
"235004","150-BY","2018/07/30 14:39:22","新北市中和區宜安路13號","121.513168333333","24.99555","6500300","中和區"
"235022","151-BY","2018/07/30 14:39:29","新北市中和區連城路372-2號","121.48163","24.9953233333333","6500300","中和區"
"235019","183-VK","2018/07/30 14:39:38","新北市中和區民生街14號","121.470403333333","25.0055316666667","6500300","中和區"
"235002","185-VK","2018/07/30 14:39:24","新北市中和區自立路20巷9號","121.521828333333","24.99333","6500300","中和區"
"235013","186-VK","2018/07/30 14:39:30","新北市中和區中正路2號","121.503225","24.9937866666667","6500300","中和區"
"235031","255-BX","2018/07/30 14:39:33","新北市中和區連城路340巷14弄18號","121.48294","24.997215","6500300","中和區"
"235008","293-VK","2018/07/30 14:39:22","新北市中和區興南路一段86號","121.509928333333","24.98929","6500300","中和區"
"235036","301-VK","2018/07/30 14:39:33","新北市中和區中山路二段3巷22弄11號","121.506071666667","25.00463","6500300","中和區"
"235007","352-BY","2018/07/30 14:39:34","新北市中和區景平路526號","121.502836666667","24.9944266666667","6500300","中和區"
"235006","KEA-2878","2018/07/30 14:39:25","新北市中和區保健路7巷3號","121.508063333333","24.9986683333333","6500300","中和區"
"247009","KEA-2869","2018/07/30 14:39:32","新北市蘆洲區信義路222巷21號","121.479645","25.0853816666667","6501400","蘆洲區"
"235014","4979-A6","2018/07/30 14:39:37","新北市中和區中正路637巷52弄1號","121.485456666667","24.9936133333333","6500300","中和區"
"235034","558-UM","2018/07/30 14:39:17","新北市中和區景平路666-1號","121.497433333333","25.0007983333333","6500300","中和區"
"235009","565-BX","2018/07/30 14:39:22","新北市中和區景新街347號","121.511931666667","24.99093","6500300","中和區"
"235018","640-BX","2018/07/30 14:39:21","新北市中和區民德路8-1號","121.468771666667","25.0029933333333","6500300","中和區"
"235024","647-TV","2018/07/30 14:39:25","新北市中和區中山路二段523巷7號","121.481838333333","25.00429","6500300","中和區"
"235011","732-UM","2018/07/30 14:39:37","新北市中和區南山路283巷8號","121.504641666667","24.99237","6500300","中和區"
"235010","733-UM","2018/07/30 14:39:25","新北市中和區忠孝街51巷2號","121.511551666667","24.9844183333333","6500300","中和區"
"235035","783-BX","2018/07/30 14:39:21","新北市中和區中正路637巷18弄4號","121.484393333333","24.995085","6500300","中和區"
"235026","800-TS","2018/07/30 14:39:36","新北市中和區中山路二段526巷15弄4號","121.485571666667","25.0056116666667","6500300","中和區"
"235021","801-TS","2018/07/30 14:39:37","新北市中和區員山路146-4號","121.481301666667","24.9971216666667","6500300","中和區"
"235005","802-TS","2018/07/30 14:39:31","新北市中和區中和路232號","121.506658333333","24.99945","6500300","中和區"
"235016","805-TS","2018/07/30 14:39:38","新北市中和區華新街188號","121.506996666667","24.982165","6500300","中和區"
"235012","896-TW","2018/07/30 14:39:33","新北市中和區信義街115號","121.512023333333","24.98684","6500300","中和區"
"235017","900-TW","2018/07/30 14:39:30","新北市中和區國光街215巷22-3號","121.467146666667","25.0005566666667","6500300","中和區"
"235015","157-BY","2018/07/30 14:39:26","新北市中和區中興街127號","121.49993","24.9916633333333","6500300","中和區"
"235001","AAC-213","2018/07/30 14:39:34","新北市中和區秀朗路三段52號","121.526303333333","24.9953833333333","6500300","中和區"
"235023","AAC-215","2018/07/30 14:39:38","新北市中和區圓通路305巷5弄2號","121.493595","24.9902733333333","6500300","中和區"
"220013","072-UY","2018/07/30 14:39:34","新北市板橋區國泰街39巷4弄2號","121.468441666667","25.0060766666667","6500100","板橋區"
"220034","073-UY","2018/07/30 14:39:35","新北市板橋區南雅西路二段4號","121.453595","25.0091183333333","6500100","板橋區"
"220105","075-UY","2018/07/30 14:39:33","新北市板橋區文化路二段319號","121.472208333333","25.0300133333333","6500100","板橋區"
"220017","AAD-861","2018/07/30 14:39:26","新北市板橋區縣民大道一段64巷3號","121.455468333333","25.0037466666667","6500100","板橋區"
"247023","893-R6","2018/07/30 14:39:31","新北市蘆洲區中山二路222巷20號","121.46944","25.080345","6501400","蘆洲區"
"247013","546-UM","2018/07/30 14:39:19","新北市蘆洲區中正路2號","121.471703333333","25.0818233333333","6501400","蘆洲區"
"247021","500-BY","2018/07/30 14:39:39","新北市蘆洲區三民路122-1號","121.471048333333","25.0874283333333","6501400","蘆洲區"
"247003","337-TH","2018/07/30 14:39:19","新北市蘆洲區長安街267巷8弄2號","121.458286666667","25.08376","6501400","蘆洲區"
"247005","336-TH","2018/07/30 14:39:32","新北市蘆洲區長安街22巷31弄17號","121.464078333333","25.0803516666667","6501400","蘆洲區"
"247017","057-VK","2018/07/30 14:39:38","新北市蘆洲區民族路313號","121.474648333333","25.0913316666667","6501400","蘆洲區"
"247007","056-VK","2018/07/30 14:39:19","新北市蘆洲區信義路32號","121.474493333333","25.0793416666667","6501400","蘆洲區"
"247015","007-UY","2018/07/30 14:39:30","新北市蘆洲區正和街58號","121.46897","25.0814083333333","6501400","蘆洲區"
"247001","002-UY","2018/07/30 14:39:19","新北市蘆洲區永樂街38巷43號","121.458376666667","25.0897133333333","6501400","蘆洲區"
"247019","001-UY","2018/07/30 14:39:22","新北市蘆洲區民義街61巷7號","121.472346666667","25.0899716666667","6501400","蘆洲區"
"253003","6232-TK","2018/07/30 14:39:32","新北市石門區尖子鹿47號","121.580448333333","25.2684066666667","6502200","石門區"
"253001","6251-TK","2018/07/30 14:39:38","新北市石門區崁子腳65號","121.532116666667","25.2860566666667","6502200","石門區"
"253002","637-UY","2018/07/30 14:38:11","新北市三芝區橫山里橫山39-3號","121.54561","25.2548333333333","6502200","石門區"
"253004","8270-PC","2018/07/30 14:39:07","新北市石門區內阿里磅46號","121.581253333333","25.24121","6502200","石門區"
"207002","749-BX","2018/07/30 14:37:42","新北市萬里區溪底里富士坪路2號","121.626645","25.1601016666667","6502800","萬里區"
"252005","073-UM","2018/07/30 14:39:23","新北市三芝區埔坪里埔頭坑92號","121.508645","25.25103","6502100","三芝區"
"207001","662-BX","2018/07/30 14:39:20","新北市萬里區磺潭里員潭路53-1號","121.644003333333","25.1939733333333","6502800","萬里區"
"236064","105-UM","2018/07/30 14:39:24","新北市土城區永豐路183號","121.470045","24.9784083333333","6501300","土城區"
"236040","107-UM","2018/07/30 14:39:36","新北市土城區裕民路56號","121.4489","24.9878966666667","6501300","土城區"
"236074","166-UM","2018/07/30 14:39:27","新北市土城區中央路四段52巷50號","121.418571666667","24.9602333333333","6501300","土城區"
"236029","253-BX","2018/07/30 14:39:26","新北市土城區中華路二段199號","121.438006666667","24.9740883333333","6501300","土城區"
"236024","269-VK","2018/07/30 14:39:27","新北市土城區忠義路47號","121.44049","24.9693366666667","6501300","土城區"
"236012","270-VK","2018/07/30 14:39:29","新北市土城區清水路222號","121.460851666667","24.9822216666667","6501300","土城區"
"236032","271-VK","2018/07/30 14:39:25","新北市土城區明德路一段313巷3弄12號","121.460001666667","24.9763683333333","6501300","土城區"
"236016","401-BY","2018/07/30 14:39:26","新北市土城區永豐路6號","121.465393333333","24.9849416666667","6501300","土城區"
"236057","912-UM","2018/07/30 14:39:25","新北市土城區中央路三段217號","121.42949","24.964525","6501300","土城區"
"236045","913-UM","2018/07/30 14:39:33","新北市土城區明德路一段68-1號","121.465531666667","24.9832333333333","6501300","土城區"
"236060","915-UM","2018/07/30 14:39:35","新北市土城區延壽路20號","121.471276666667","24.9906566666667","6501300","土城區"
"236054","AAC-216","2018/07/30 14:39:22","新北市土城區中華路一段99號","121.444681666667","24.987195","6501300","土城區"
"221012","246-BX","2018/07/30 14:39:27","新北市汐止區樟樹二路351-1號","121.643418333333","25.0738133333333","6501100","汐止區"
"220028","200-UY","2018/07/30 14:39:21","新北市板橋區大觀路二段153巷46弄20號","121.44918","24.9999416666667","6500100","板橋區"
"220050","245-BX","2018/07/30 14:39:36","新北市板橋區莊敬路261號","121.473813333333","25.0215616666667","6500100","板橋區"
"220027","256-TC","2018/07/30 14:39:23","新北市板橋區建國街99號","121.45981","25.0174433333333","6500100","板橋區"
"220004","276-BY","2018/07/30 14:39:27","新北市板橋區四川路二段47巷1弄2號","121.45419","24.99496","6500100","板橋區"
"220020","277-BY","2018/07/30 14:39:25","新北市板橋區金門街215巷22號","121.433275","24.9895283333333","6500100","板橋區"
"220019","283-VK","2018/07/30 14:39:29","新北市板橋區五權街32巷30號","121.463776666667","24.9927","6500100","板橋區"
"220043","285-UM","2018/07/30 14:39:30","新北市板橋區宏國路83號","121.469305","25.032135","6500100","板橋區"
"220001","285-VK","2018/07/30 14:39:33","新北市板橋區富山街53巷1弄2號","121.477538333333","25.0206766666667","6500100","板橋區"
"220031","286-VK","2018/07/30 14:39:25","新北市板橋區龍興街95巷1號","121.444021666667","25.0022483333333","6500100","板橋區"
"220029","287-VK","2018/07/30 14:39:30","新北市板橋區大觀路一段26號","121.450043333333","25.0086766666667","6500100","板橋區"
"220039","288-VK","2018/07/30 14:39:30","新北市板橋區長江路一段48巷19弄1號","121.459528333333","25.02806","6500100","板橋區"
"220009","293-UM","2018/07/30 14:39:33","新北市板橋區漢生東路166號","121.466953333333","25.01481","6500100","板橋區"
"220032","296-UM","2018/07/30 14:39:34","新北市板橋區滿平街84巷80號","121.42608","24.9871933333333","6500100","板橋區"
"220023","303-R5","2018/07/30 14:39:26","新北市板橋區大勇街73-1號","121.453005","25.0166216666667","6500100","板橋區"
"220010","305-R5","2018/07/30 14:39:28","新北市板橋區三民路二段81巷25號","121.480536666667","25.016785","6500100","板橋區"
"220041","307-R5","2018/07/30 14:39:30","新北市板橋區民生路二段250號","121.468311666667","25.0234483333333","6500100","板橋區"
"220047","317-R6","2018/07/30 14:39:29","新北市板橋區四維路279巷77號","121.46014","25.02706","6500100","板橋區"
"220012","486-VK","2018/07/30 14:39:21","新北市板橋區民權路28號","121.463143333333","25.010215","6500100","板橋區"
"220037","491-VK","2018/07/30 14:39:27","新北市板橋區文化路二段318號","121.472583333333","25.02969","6500100","板橋區"
"220104","560-BX","2018/07/30 14:39:25","新北市板橋區新生街88巷1號","121.45807","25.0216083333333","6500100","板橋區"
"220052","561-BX","2018/07/30 14:39:30","新北市板橋區文化路一段357號","121.466781666667","25.0210783333333","6500100","板橋區"
"220011","609-BX","2018/07/30 14:39:25","新北市板橋區三民路二段197號","121.47912","25.0138633333333","6500100","板橋區"
"220040","637-BX","2018/07/30 14:39:35","新北市板橋區懷德街201巷3號","121.480821666667","25.0293233333333","6500100","板橋區"
"220005","686-BX","2018/07/30 14:39:30","新北市板橋區和平路25號","121.459453333333","24.995355","6500100","板橋區"
"220025","687-BX","2018/07/30 14:39:22","新北市板橋區僑中二街102巷1號","121.446016666667","25.0081433333333","6500100","板橋區"
"220042","689-BX","2018/07/30 14:39:22","新北市板橋區新海路360號","121.459781666667","25.025105","6500100","板橋區"
"220002","741-BX","2018/07/30 14:39:34","新北市板橋區忠孝路223號","121.465691666667","25.0028433333333","6500100","板橋區"
"220051","KEA-2699","2018/07/30 14:39:22","新北市板橋區松柏街36巷5號","121.475423333333","25.02978","6500100","板橋區"
"220018","806-UM","2018/07/30 14:39:19","新北市板橋區民族路218號","121.468518333333","25.0074516666667","6500100","板橋區"
"220003","827-TW","2018/07/30 14:39:32","新北市板橋區重慶路278巷1號","121.462821666667","24.9997133333333","6500100","板橋區"
"220014","829-TW","2018/07/30 14:39:18","新北市板橋區長安街251巷40號","121.471921666667","25.0113716666667","6500100","板橋區"
"220016","830-TW","2018/07/30 14:39:30","新北市板橋區中山路二段416巷1弄2號","121.483483333333","25.020765","6500100","板橋區"
"220045","831-TW","2018/07/30 14:39:27","新北市板橋區民生路二段240巷65號","121.470195","25.02298","6500100","板橋區"
"220038","833-TW","2018/07/30 14:39:32","新北市板橋區英士路54號","121.461005","25.0246833333333","6500100","板橋區"
"220022","895-R6","2018/07/30 14:39:28","新北市板橋區府中路11號","121.459785","25.0095","6500100","板橋區"
"220021","985-R7","2018/07/30 14:39:23","新北市板橋區中正路346號","121.454275","25.0234916666667","6500100","板橋區"
"220046","AAC-210","2018/07/30 14:39:31","新北市板橋區幸福路26號","121.461873333333","25.0203616666667","6500100","板橋區"
"220030","AAC-253","2018/07/30 14:39:25","新北市板橋區金門街202-4號","121.432533333333","24.9903433333333","6500100","板橋區"
"235032","KEA-2873","2018/07/30 14:39:10","新北市中和區福美路301巷10號","121.497373333333","25.00441","6500300","中和區"
"235025","KEA-2875","2018/07/30 14:39:20","新北市中和區員山路226巷7弄1號","121.481806666667","25.0006033333333","6500300","中和區"
