"lineid","car","time","location","longitude","latitude","cityid","cityname"
"234070","149-BY","2018/07/30 14:59:22","新北市永和區竹林路75巷4弄34號","121.521676666667","25.0141916666667","6500400","永和區"
"234025","9371-KE","2018/07/30 14:59:29","新北市永和區水源街33巷5號","121.510883333333","25.0041983333333","6500400","永和區"
"248013","025-BX","2018/07/30 14:59:19","新北市五股區成洲一路23號","121.450091666667","25.0957116666667","6501500","五股區"
"248015","026-BX","2018/07/30 14:59:28","新北市五股區凌雲路一段158巷50弄2號","121.447138333333","25.1044783333333","6501500","五股區"
"248007","095-VK","2018/07/30 14:59:22","新北市三重區中正北路592號","121.469763333333","25.07203","6501500","五股區"
"248019","225-UY","2018/07/30 14:59:34","新北市五股區中直路10-1號","121.426828333333","25.111405","6501500","五股區"
"248011","247-BX","2018/07/30 14:59:25","新北市五股區六合街118號","121.430266666667","25.0908016666667","6501500","五股區"
"248003","655-BX","2018/07/30 14:59:21","新北市五股區成泰路一段70-1號","121.435516666667","25.0699416666667","6501500","五股區"
"248001","678-BX","2018/07/30 14:59:38","新北市五股區成泰路三段43-1號","121.442263333333","25.0888583333333","6501500","五股區"
"244001","248-BX","2018/07/30 14:59:29","新北市林口區瑞平里33-1號","121.348298333333","25.1288066666667","6501700","林口區"
"243005","AAD-798","2018/07/30 14:59:33","新北市泰山區明志路二段325號","121.42587","25.0450433333333","6501600","泰山區"
"243001","297-R6","2018/07/30 14:59:36","新北市泰山區泰林路二段328號","121.430155","25.0631366666667","6501600","泰山區"
"243008","380-SR","2018/07/30 14:59:40","新北市泰山區明志路二段343號","121.42546","25.0445816666667","6501600","泰山區"
"243007","421-VK","2018/07/30 14:59:33","新北市泰山區仁愛路70號","121.432518333333","25.0550366666667","6501600","泰山區"
"243003","KEA-2215","2018/07/30 14:59:21","新北市泰山區壽山路152號","121.416916666667","25.0304116666667","6501600","泰山區"
"243002","KEA-2216","2018/07/30 14:59:21","新北市泰山區明志路二段273巷16弄21號","121.427831666667","25.0466233333333","6501600","泰山區"
"243004","646-TV","2018/07/30 14:59:34","新北市泰山區楓江路83巷3號","121.436968333333","25.0636166666667","6501600","泰山區"
"243006","680-BX","2018/07/30 14:59:39","新北市泰山區泰林路二段330號","121.429796666667","25.0632233333333","6501600","泰山區"
"222005","628-TS","2018/07/30 14:59:34","新北市深坑區深南路88巷1號","121.621223333333","25.0117333333333","6501800","深坑區"
"231002","002-UM","2018/07/30 14:59:27","新北市新店區民權路88號","121.537048333333","24.9829633333333","6500600","新店區"
"231028","046-UY","2018/07/30 14:59:23","新北市新店區安康路二段356號","121.50217","24.95739","6500600","新店區"
"231001","047-UY","2018/07/30 14:59:24","新北市新店區中正路276號","121.538901666667","24.9737266666667","6500600","新店區"
"231005","106-UY","2018/07/30 14:59:24","新北市新店區寶慶街66號","121.542028333333","24.986785","6500600","新店區"
"231019","108-UY","2018/07/30 14:59:27","新北市新店區新烏路二段9號","121.544541666667","24.929295","6500600","新店區"
"231018","110-UY","2018/07/30 14:59:31","新北市新店區中央六街5號","121.53029","24.9744783333333","6500600","新店區"
"231011","187-VK","2018/07/30 14:59:23","新北市新店區中興路三段205巷7弄1號","121.543318333333","24.9815683333333","6500600","新店區"
"231023","KEA-2219","2018/07/30 14:59:30","新北市新店區檳榔路109號","121.544416666667","24.961485","6500600","新店區"
"231026","256-BX","2018/07/30 14:59:22","新北市新店區博愛街9巷2號","121.54078","24.9729466666667","6500600","新店區"
"231003","268-BY","2018/07/30 14:59:26","新北市新店區中興路一段292號","121.545913333333","24.969115","6500600","新店區"
"231014","AAD-862","2018/07/30 14:59:38","新北市新店區銀河路88號","121.580645","24.9596033333333","6500600","新店區"
"231038","3712-VJ","2018/07/30 14:59:31","新北市新店區安華路28-1號","121.519675","24.9609566666667","6500600","新店區"
"231025","4715-K9","2018/07/30 14:59:38","新北市新店區大同街22號","121.539243333333","24.9802","6500600","新店區"
"231036","512-UM","2018/07/30 14:59:23","新北市新店區安祥路102巷30弄13號","121.484633333333","24.9635916666667","6500600","新店區"
"231034","616-UM","2018/07/30 14:59:29","新北市新店區玫瑰路4-1號","121.493613333333","24.95138","6500600","新店區"
"231006","617-UM","2018/07/30 14:59:22","新北市新店區新坡一街85號","121.548965","24.9645283333333","6500600","新店區"
"231030","619-UM","2018/07/30 14:59:37","新北市新店區安民街363號","121.516578333333","24.9758516666667","6500600","新店區"
"231039","718-UY","2018/07/30 14:59:24","新北市新店區寶安街36號","121.542115","24.9824483333333","6500600","新店區"
"231035","719-UM","2018/07/30 14:59:28","新北市新店區安業街19號","121.516946666667","24.977725","6500600","新店區"
"231031","720-UM","2018/07/30 14:59:27","新北市新店區安泰路60巷37號","121.483765","24.9461733333333","6500600","新店區"
"231029","897-TW","2018/07/30 14:59:31","新北市新店區錦秀路17號","121.47936","24.9445833333333","6500600","新店區"
"231004","899-TW","2018/07/30 14:59:37","新北市新店區民族路41號","121.540613333333","24.978665","6500600","新店區"
"231024","AKT-0513","2018/07/30 14:59:31","新北市新店區中華路83巷67號","121.538343333333","24.967285","6500600","新店區"
"235030","003-UY","2018/07/30 14:59:37","新北市中和區中山路二段58號","121.504096666667","25.0047666666667","6500300","中和區"
"235020","096-UM","2018/07/30 14:59:30","新北市中和區漢民路419號","121.472433333333","25.006855","6500300","中和區"
"235003","097-UM","2018/07/30 14:59:34","新北市中和區宜安路52巷19號","121.512498333333","24.99739","6500300","中和區"
"235029","098-UM","2018/07/30 14:59:25","新北市中和區永和路128巷45號","121.497795","25.0067716666667","6500300","中和區"
"235004","150-BY","2018/07/30 14:59:22","新北市中和區景安路79巷19弄23號","121.507565","24.9975716666667","6500300","中和區"
"235022","151-BY","2018/07/30 14:59:29","新北市中和區員山路150巷2弄33號","121.481725","24.9976766666667","6500300","中和區"
"235008","293-VK","2018/07/30 14:59:22","新北市中和區中興街116號","121.500098333333","24.9930966666667","6500300","中和區"
"235036","301-VK","2018/07/30 14:59:33","新北市中和區中正路448號","121.490915","24.994215","6500300","中和區"
"235007","352-BY","2018/07/30 14:59:34","新北市中和區華新街230號","121.506093333333","24.9816916666667","6500300","中和區"
"235014","4979-A6","2018/07/30 14:59:37","新北市中和區景平路183號","121.511655","24.9925316666667","6500300","中和區"
"235033","4980-A6","2018/07/30 14:59:24","新北市中和區景平路634-2號","121.500768333333","24.998765","6500300","中和區"
"235034","558-UM","2018/07/30 14:59:17","新北市中和區連勝街2號","121.499071666667","24.9987266666667","6500300","中和區"
"235009","565-BX","2018/07/30 14:59:22","新北市新莊區化成路585-15號","121.462798333333","25.0671033333333","6500300","中和區"
"235010","733-UM","2018/07/30 14:59:25","新北市中和區興南路一段93巷58弄1號","121.510638333333","24.985865","6500300","中和區"
"235035","783-BX","2018/07/30 14:59:21","新北市中和區中正路768號","121.485178333333","24.999805","6500300","中和區"
"235012","896-TW","2018/07/30 14:59:33","新北市中和區忠孝街1巷2-1號","121.509141666667","24.9830866666667","6500300","中和區"
"235017","900-TW","2018/07/30 14:59:30","新北市中和區民德路198號","121.46829","24.9986366666667","6500300","中和區"
"235015","157-BY","2018/07/30 14:59:26","新北市中和區景安路247巷30號","121.504525","24.9905366666667","6500300","中和區"
"235001","AAC-213","2018/07/30 14:59:34","新北市中和區自立路18號","121.522223333333","24.9935016666667","6500300","中和區"
"235023","AAC-215","2018/07/30 14:59:38","新北市中和區圓通路335巷4弄5號","121.492145","24.990225","6500300","中和區"
"220013","072-UY","2018/07/30 14:59:20","新北市板橋區中山路一段154巷3弄2號","121.465453333333","25.0103283333333","6500100","板橋區"
"220105","075-UY","2018/07/30 14:59:33","新北市板橋區民治街52巷22號","121.478718333333","25.0328683333333","6500100","板橋區"
"220017","AAD-861","2018/07/30 14:59:26","新北市板橋區大明街22號","121.458563333333","25.00257","6500100","板橋區"
"247001","002-UY","2018/07/30 14:59:39","新北市五股區成泰路一段98巷77號","121.451575","25.080365","6501400","蘆洲區"
"253003","6232-TK","2018/07/30 14:59:32","新北市石門區尖子鹿103-3號","121.580966666667","25.293365","6502200","石門區"
"253001","6251-TK","2018/07/30 14:59:19","新北市石門區崁子腳53號","121.53647","25.2824483333333","6502200","石門區"
"253002","637-UY","2018/07/30 14:59:31","新北市石門區楓林43號","121.54107","25.2829216666667","6502200","石門區"
"253004","8270-PC","2018/07/30 14:59:27","新北市石門區茂林社區86號","121.592751666667","25.2695883333333","6502200","石門區"
"207002","749-BX","2018/07/30 14:59:32","新北市萬里區崁腳里崁腳路70號","121.648436666667","25.1596683333333","6502800","萬里區"
"207001","662-BX","2018/07/30 14:59:20","新北市萬里區雙興里麗水路3-2號","121.652715","25.1822116666667","6502800","萬里區"
"236064","105-UM","2018/07/30 14:59:24","新北市土城區明德路二段237號","121.445555","24.9839666666667","6501300","土城區"
"236040","107-UM","2018/07/30 14:59:33","新北市土城區裕民路214巷5號","121.453101666667","24.98408","6501300","土城區"
"236074","166-UM","2018/07/30 14:59:27","新北市土城區中央路四段67巷2弄1號","121.417645","24.9578283333333","6501300","土城區"
"236029","253-BX","2018/07/30 14:59:26","新北市土城區福仁街38號","121.439825","24.975395","6501300","土城區"
"236024","269-VK","2018/07/30 14:59:38","新北市土城區中正路69號","121.444645","24.975635","6501300","土城區"
"236012","270-VK","2018/07/30 14:59:29","新北市土城區立德路105號","121.463773333333","24.9875333333333","6501300","土城區"
"236032","271-VK","2018/07/30 14:59:34","新北市土城區仁愛路13巷1號","121.460381666667","24.9807516666667","6501300","土城區"
"236016","401-BY","2018/07/30 14:59:26","新北市土城區延吉街168巷3號","121.468221666667","24.9855633333333","6501300","土城區"
"236057","912-UM","2018/07/30 14:59:23","新北市土城區明德路一段385-1號","121.453176666667","24.980415","6501300","土城區"
"236045","913-UM","2018/07/30 14:59:33","新北市土城區明德路一段365-1號","121.45366","24.9790983333333","6501300","土城區"
"236060","915-UM","2018/07/30 14:59:35","新北市土城區延和路41巷6弄16號","121.466653333333","24.990275","6501300","土城區"
"236054","AAC-216","2018/07/30 14:59:24","新北市土城區裕民路75號","121.449665","24.9874833333333","6501300","土城區"
"238010","601-UM","2018/07/30 14:59:23","新北市樹林區育德街78-1號","121.388345","24.9682","6500700","樹林區"
"238018","571-TV","2018/07/30 14:59:20","新北市樹林區育德街78-1號","121.388125","24.9682083333333","6500700","樹林區"
"238011","5061-A6","2018/07/30 14:59:08","新北市樹林區育德街78-1號","121.388273333333","24.9680816666667","6500700","樹林區"
"238009","KEA-2213","2018/07/30 14:59:26","新北市樹林區育德街78-1號","121.387795","24.9680266666667","6500700","樹林區"
"238001","282-BY","2018/07/30 14:59:22","新北市樹林區育德街78-1號","121.387786666667","24.9681283333333","6500700","樹林區"
"221012","246-BX","2018/07/30 14:53:48","新北市汐止區汐萬路一段256巷1號","121.652053333333","25.0746516666667","6501100","汐止區"
"220028","200-UY","2018/07/30 14:59:37","新北市板橋區大觀路二段171號","121.44522","25.0002783333333","6500100","板橋區"
"220050","245-BX","2018/07/30 14:59:36","新北市板橋區莒光路180巷21號","121.473265","25.02268","6500100","板橋區"
"220027","256-TC","2018/07/30 14:59:23","新北市板橋區南雅西路二段205號","121.451295","25.0132966666667","6500100","板橋區"
"220020","277-BY","2018/07/30 14:59:25","新北市板橋區金門街107號","121.433216666667","24.992075","6500100","板橋區"
"220043","285-UM","2018/07/30 14:59:30","新北市板橋區雨農路27巷9號","121.461571666667","25.0238083333333","6500100","板橋區"
"220001","285-VK","2018/07/30 14:59:33","新北市板橋區中山路二段90巷19號","121.475635","25.0158616666667","6500100","板橋區"
"220031","286-VK","2018/07/30 14:59:25","新北市板橋區僑中二街90巷28號","121.444883333333","25.0093783333333","6500100","板橋區"
"220029","287-VK","2018/07/30 14:59:30","新北市板橋區僑中一街124巷20弄43號","121.448043333333","25.013915","6500100","板橋區"
"220039","288-VK","2018/07/30 14:59:30","新北市板橋區新海路109巷1弄2號","121.460716666667","25.0223683333333","6500100","板橋區"
"220009","293-UM","2018/07/30 14:59:33","新北市板橋區觀光街79巷2號","121.469195","25.0170116666667","6500100","板橋區"
"220023","303-R5","2018/07/30 14:59:28","新北市板橋區金華街10巷110號","121.459056666667","25.02059","6500100","板橋區"
"220010","305-R5","2018/07/30 14:59:28","新北市板橋區光復街172巷31弄5-2號","121.486226666667","25.0189666666667","6500100","板橋區"
"220041","307-R5","2018/07/30 14:59:30","新北市板橋區四維路259巷73號","121.460536666667","25.0266166666667","6500100","板橋區"
"220047","317-R6","2018/07/30 14:59:29","新北市板橋區新海路72巷5弄6號","121.46207","25.0222683333333","6500100","板橋區"
"220012","486-VK","2018/07/30 14:59:29","新北市板橋區實踐路107號","121.464111666667","25.005245","6500100","板橋區"
"220037","491-VK","2018/07/30 14:59:29","新北市板橋區文聖街155號","121.478706666667","25.0278266666667","6500100","板橋區"
"220104","560-BX","2018/07/30 14:59:23","新北市板橋區新生街39號","121.456866666667","25.02112","6500100","板橋區"
"220052","561-BX","2018/07/30 14:59:29","新北市板橋區自由路43號","121.465623333333","25.0232616666667","6500100","板橋區"
"220011","609-BX","2018/07/30 14:59:25","新北市板橋區林森街3巷1弄19號","121.482745","25.0237416666667","6500100","板橋區"
"220040","637-BX","2018/07/30 14:59:35","新北市板橋區懷德街174巷18弄5號","121.478616666667","25.0298633333333","6500100","板橋區"
"220005","686-BX","2018/07/30 14:59:30","新北市板橋區信義路128號","121.45857","24.9923116666667","6500100","板橋區"
"220025","687-BX","2018/07/30 14:59:35","新北市板橋區僑中一街122號","121.445983333333","25.0119216666667","6500100","板橋區"
"220042","689-BX","2018/07/30 14:59:22","新北市板橋區長江路二段153號","121.465975","25.03193","6500100","板橋區"
"220002","741-BX","2018/07/30 14:59:34","新北市板橋區忠孝路201巷32號","121.465098333333","25.0035216666667","6500100","板橋區"
"220051","KEA-2699","2018/07/30 14:59:27","新北市板橋區仁化街42巷7號","121.475488333333","25.031385","6500100","板橋區"
"220018","806-UM","2018/07/30 14:59:39","新北市板橋區成都街78號","121.46365","25.0052433333333","6500100","板橋區"
"220003","827-TW","2018/07/30 14:59:32","新北市板橋區仁愛路49巷1號","121.459918333333","24.9994683333333","6500100","板橋區"
"220014","829-TW","2018/07/30 14:59:38","新北市板橋區漢生東路272-2號","121.46901","25.0124183333333","6500100","板橋區"
"220016","830-TW","2018/07/30 14:59:30","新北市板橋區中山路二段318巷2弄12號","121.480543333333","25.0193666666667","6500100","板橋區"
"220045","831-TW","2018/07/30 14:59:17","新北市板橋區莒光路79巷8號","121.472023333333","25.02448","6500100","板橋區"
"220038","833-TW","2018/07/30 14:59:32","新北市板橋區龍泉街110號","121.456743333333","25.0245583333333","6500100","板橋區"
"220021","985-R7","2018/07/30 14:59:23","新北市板橋區南雅西路二段20號","121.452965","25.00952","6500100","板橋區"
"220046","AAC-210","2018/07/30 14:59:31","新北市板橋區光正街11號","121.46279","25.0171233333333","6500100","板橋區"
"220030","AAC-253","2018/07/30 14:59:37","新北市板橋區溪北路101號","121.42879","24.9892966666667","6500100","板橋區"
"235032","KEA-2873","2018/07/30 14:59:40","新北市中和區勝利路33號","121.498866666667","25.00774","6500300","中和區"
