"lineid","car","time","location","longitude","latitude","cityid","cityname"
"234025","9371-KE","2018/07/30 15:09:29","新北市永和區保生路55-1號","121.504845","25.0116633333333","6500400","永和區"
"248019","225-UY","2018/07/30 15:09:34","新北市五股區凌雲路三段24巷16號","121.434775","25.1058066666667","6501500","五股區"
"248003","655-BX","2018/07/30 15:09:21","新北市五股區成泰路二段102號","121.43752","25.0829433333333","6501500","五股區"
"244001","248-BX","2018/07/30 15:09:29","新北市林口區寶斗厝坑42號","121.334466666667","25.1230433333333","6501700","林口區"
"243001","297-R6","2018/07/30 15:09:36","新北市泰山區泰林路二段542巷1弄1號","121.423341666667","25.0640516666667","6501600","泰山區"
"243008","380-SR","2018/07/30 15:09:19","新北市泰山區明志路二段229號","121.427436666667","25.048535","6501600","泰山區"
"243007","421-VK","2018/07/30 15:09:33","新北市泰山區泰林路二段202號","121.433361666667","25.0613133333333","6501600","泰山區"
"243003","KEA-2215","2018/07/30 15:09:31","新北市泰山區新北大道六段369號","121.422441666667","25.03279","6501600","泰山區"
"243004","646-TV","2018/07/30 15:09:37","新北市泰山區忠孝街14號","121.427621666667","25.0648833333333","6501600","泰山區"
"243006","680-BX","2018/07/30 15:09:33","新北市泰山區泰林路二段2-5號","121.41966","25.0651466666667","6501600","泰山區"
"222005","628-TS","2018/07/30 15:09:34","新北市深坑區深南路88巷1號","121.621211666667","25.0117333333333","6501800","深坑區"
"231002","002-UM","2018/07/30 15:09:27","新北市新店區中正路684號","121.53401","24.990075","6500600","新店區"
"231028","046-UY","2018/07/30 15:09:23","新北市新店區僑信路76號","121.499538333333","24.9485766666667","6500600","新店區"
"231001","047-UY","2018/07/30 15:09:26","新北市新店區中正路191號","121.54052","24.9723466666667","6500600","新店區"
"231005","106-UY","2018/07/30 15:09:34","新北市新店區北新路三段146號","121.541583333333","24.9823683333333","6500600","新店區"
"231019","108-UY","2018/07/30 15:09:27","新北市新店區金興路38-1號","121.553746666667","24.9292983333333","6500600","新店區"
"231018","110-UY","2018/07/30 15:09:31","新北市新店區溪園路465號","121.525475","24.9772033333333","6500600","新店區"
"231011","187-VK","2018/07/30 15:09:23","新北市新店區中興路三段312號","121.542275","24.9857316666667","6500600","新店區"
"231023","KEA-2219","2018/07/30 15:09:30","新北市新店區檳榔路150號","121.544405","24.9613583333333","6500600","新店區"
"231026","256-BX","2018/07/30 15:09:21","新北市新店區建安街17號","121.539708333333","24.9754666666667","6500600","新店區"
"231003","268-BY","2018/07/30 15:09:21","新北市新店區寶橋路78巷13號","121.547263333333","24.9750116666667","6500600","新店區"
"231014","AAD-862","2018/07/30 15:08:58","新北市新店區明山路45號","121.563716666667","24.9558216666667","6500600","新店區"
"231038","3712-VJ","2018/07/30 15:09:31","新北市新店區安華路28-1號","121.519671666667","24.9608416666667","6500600","新店區"
"231025","4715-K9","2018/07/30 15:09:38","新北市新店區二十張路46巷37弄37號","121.535901666667","24.9813683333333","6500600","新店區"
"231036","512-UM","2018/07/30 15:09:39","新北市新店區安祥路102巷42弄1號","121.484428333333","24.9642866666667","6500600","新店區"
"231034","616-UM","2018/07/30 15:09:29","新北市新店區玫瑰路4-1號","121.49361","24.9513983333333","6500600","新店區"
"231006","617-UM","2018/07/30 15:09:22","新北市新店區新坡一街18巷5弄8-1號","121.550756666667","24.961835","6500600","新店區"
"231030","619-UM","2018/07/30 15:09:36","新北市新店區安民街341-1號","121.51688","24.9749083333333","6500600","新店區"
"231039","718-UY","2018/07/30 15:09:24","新北市新店區中興路三段226號","121.543591666667","24.9830116666667","6500600","新店區"
"231035","719-UM","2018/07/30 15:09:28","新北市新店區安和路三段120巷20號","121.51792","24.9858933333333","6500600","新店區"
"231031","720-UM","2018/07/30 15:09:27","新北市新店區安泰路93-4號","121.486113333333","24.9445133333333","6500600","新店區"
"231029","897-TW","2018/07/30 15:09:31","新北市新店區安康路三段738號","121.473786666667","24.942065","6500600","新店區"
"231004","899-TW","2018/07/30 15:09:37","新北市新店區建國路30號","121.540478333333","24.9744766666667","6500600","新店區"
"231024","AKT-0513","2018/07/30 15:09:32","新北市新店區北新路一段297巷27號","121.540463333333","24.9680916666667","6500600","新店區"
"235030","003-UY","2018/07/30 15:09:22","新北市中和區中山路二段3巷28號","121.506785","25.0052933333333","6500300","中和區"
"235020","096-UM","2018/07/30 15:09:30","新北市中和區中山路三段2號","121.479838333333","25.0060433333333","6500300","中和區"
"235003","097-UM","2018/07/30 15:09:34","新北市中和區安平路70號","121.510823333333","24.9964183333333","6500300","中和區"
"235004","150-BY","2018/07/30 15:09:22","新北市中和區安平路59號","121.509665","24.99494","6500300","中和區"
"235007","352-BY","2018/07/30 15:09:34","新北市中和區興南路二段159巷7號","121.505331666667","24.983055","6500300","中和區"
"235014","4979-A6","2018/07/30 15:09:39","新北市中和區安樂路8-1號","121.51175","24.9918516666667","6500300","中和區"
"235033","4980-A6","2018/07/30 15:09:24","新北市中和區景新街34巷1號","121.503376666667","24.999","6500300","中和區"
"235034","558-UM","2018/07/30 15:09:38","新北市中和區圓通路229號","121.496295","24.9942383333333","6500300","中和區"
"235009","565-BX","2018/07/30 15:09:22","新北市八里區中華路三段7巷5號","121.397835","25.1436766666667","6500300","中和區"
"235035","783-BX","2018/07/30 15:09:21","新北市中和區中正路904號","121.483545","25.0069433333333","6500300","中和區"
"235012","896-TW","2018/07/30 15:09:33","新北市中和區興南路一段142-6號","121.508361666667","24.987145","6500300","中和區"
"235015","157-BY","2018/07/30 15:09:26","新北市中和區中興街109號","121.500006666667","24.9922833333333","6500300","中和區"
"235001","AAC-213","2018/07/30 15:09:34","新北市中和區立人街27號","121.52117","24.994145","6500300","中和區"
"235023","AAC-215","2018/07/30 15:09:38","新北市中和區圓通路367巷13弄39號","121.493463333333","24.9879483333333","6500300","中和區"
"220017","AAD-861","2018/07/30 15:09:26","新北市板橋區大明街25巷2弄2號","121.458238333333","25.0023533333333","6500100","板橋區"
"253003","6232-TK","2018/07/30 15:09:32","新北市石門區小坑12-8號","121.59528","25.285735","6502200","石門區"
"253001","6251-TK","2018/07/30 15:09:19","新北市石門區崁子腳28-3號","121.537743333333","25.2887266666667","6502200","石門區"
"253002","637-UY","2018/07/30 15:09:31","新北市石門區老崩山2-1號","121.553588333333","25.291555","6502200","石門區"
"253004","8270-PC","2018/07/30 15:09:27","新北市石門區小坑22號","121.593116666667","25.2809633333333","6502200","石門區"
"207002","749-BX","2018/07/30 15:09:22","新北市萬里區崁腳里內中福路38-1號","121.659578333333","25.1636416666667","6502800","萬里區"
"207001","662-BX","2018/07/30 15:09:40","新北市萬里區雙興里麗水路8-1號","121.649735","25.1876066666667","6502800","萬里區"
"236064","105-UM","2018/07/30 15:09:24","新北市土城區學成路147號","121.448786666667","24.9895183333333","6501300","土城區"
"236040","107-UM","2018/07/30 15:09:33","新北市土城區金城路二段216號","121.455925","24.9824516666667","6501300","土城區"
"236074","166-UM","2018/07/30 15:09:26","新北市土城區中州路3巷31弄1號","121.413853333333","24.9567466666667","6501300","土城區"
"236029","253-BX","2018/07/30 15:09:26","新北市土城區中央路二段80巷11弄1號","121.441513333333","24.979225","6501300","土城區"
"236024","269-VK","2018/07/30 15:09:18","新北市土城區中央路二段177巷36號","121.443418333333","24.9761616666667","6501300","土城區"
"236012","270-VK","2018/07/30 15:09:29","新北市土城區學府路一段99巷1號","121.456233333333","24.98769","6501300","土城區"
"236032","271-VK","2018/07/30 15:09:24","新北市土城區青雲路257巷2號","121.459325","24.9808116666667","6501300","土城區"
"236016","401-BY","2018/07/30 15:09:26","新北市土城區延峰街21號","121.469005","24.9860433333333","6501300","土城區"
"236057","912-UM","2018/07/30 15:09:23","新北市土城區金城路一段131號","121.44475","24.9737633333333","6501300","土城區"
"236045","913-UM","2018/07/30 15:09:34","新北市土城區清水路268號","121.461773333333","24.9833916666667","6501300","土城區"
"236054","AAC-216","2018/07/30 15:09:32","新北市土城區裕民路174號","121.452665","24.9854283333333","6501300","土城區"
"238010","601-UM","2018/07/30 15:09:23","新北市樹林區啟智街156巷9號","121.41484","24.9877616666667","6500700","樹林區"
"238006","599-UM","2018/07/30 15:09:20","新北市樹林區太平路269號","121.419493333333","24.973125","6500700","樹林區"
"238005","571-TV","2018/07/30 15:09:40","新北市板橋區金門街215巷90號","121.433606666667","24.9854883333333","6500700","樹林區"
"238011","5061-A6","2018/07/30 15:09:28","新北市樹林區水源街1號","121.424803333333","24.9839466666667","6500700","樹林區"
"238009","KEA-2213","2018/07/30 15:09:26","新北市樹林區國凱街136巷48號","121.423916666667","24.9782216666667","6500700","樹林區"
"238012","303-VK","2018/07/30 15:09:25","新北市樹林區中山路一段352號","121.419201666667","24.985905","6500700","樹林區"
"238001","283-BY","2018/07/30 15:09:25","新北市樹林區大安路593號","121.411741666667","24.9833333333333","6500700","樹林區"
"238001","282-BY","2018/07/30 15:09:22","新北市樹林區中山路二段89號","121.411456666667","24.9828566666667","6500700","樹林區"
"238007","268-VK","2018/07/30 15:09:22","新北市樹林區環河路2號","121.427906666667","24.9788083333333","6500700","樹林區"
"238013","172-UY","2018/07/30 15:09:34","新北市樹林區東順街113號","121.40741","24.9752666666667","6500700","樹林區"
"238003","169-UY","2018/07/30 15:09:24","新北市樹林區中山路二段89號","121.411418333333","24.982655","6500700","樹林區"
"221012","246-BX","2018/07/30 14:53:48","新北市汐止區汐萬路一段256巷1號","121.652053333333","25.0746516666667","6501100","汐止區"
"220050","245-BX","2018/07/30 15:09:36","新北市板橋區莒光路165巷32號","121.474465","25.0247233333333","6500100","板橋區"
"220027","256-TC","2018/07/30 15:09:23","新北市板橋區大觀路三段57號","121.433725","24.9954933333333","6500100","板橋區"
"220001","285-VK","2018/07/30 15:09:33","新北市板橋區永豐街100號","121.475823333333","25.0204666666667","6500100","板橋區"
"220031","286-VK","2018/07/30 15:09:24","新北市板橋區僑中二街102巷10號","121.445653333333","25.0084283333333","6500100","板橋區"
"220029","287-VK","2018/07/30 15:09:30","新北市板橋區僑中一街80巷1弄18號","121.44679","25.01204","6500100","板橋區"
"220009","293-UM","2018/07/30 15:09:33","新北市板橋區中山路一段156號","121.465205","25.0116533333333","6500100","板橋區"
"220041","307-R5","2018/07/30 15:09:30","新北市板橋區裕民街128巷3號","121.458731666667","25.0276566666667","6500100","板橋區"
"220012","486-VK","2018/07/30 15:09:25","新北市板橋區民族路219巷67號","121.468458333333","25.0090583333333","6500100","板橋區"
"220037","491-VK","2018/07/30 15:09:27","新北市板橋區懷德街54號","121.477403333333","25.03248","6500100","板橋區"
"220052","561-BX","2018/07/30 15:09:29","新北市板橋區陽明街243號","121.462973333333","25.0247033333333","6500100","板橋區"
"220011","609-BX","2018/07/30 15:09:25","新北市板橋區中山路二段422-3號","121.483276666667","25.0211033333333","6500100","板橋區"
"220005","686-BX","2018/07/30 15:09:30","新北市板橋區四川路二段119號","121.451348333333","24.9941983333333","6500100","板橋區"
"220025","687-BX","2018/07/30 15:09:32","新北市板橋區僑中一街124巷62-9號","121.446716666667","25.017145","6500100","板橋區"
"220042","689-BX","2018/07/30 15:09:22","新北市板橋區文化路二段652號","121.478413333333","25.03571","6500100","板橋區"
"220051","KEA-2699","2018/07/30 15:09:22","新北市板橋區懷德街76巷10號","121.477563333333","25.0316883333333","6500100","板橋區"
"220018","806-UM","2018/07/30 15:09:19","新北市板橋區四川路一段336號","121.45692","24.9970566666667","6500100","板橋區"
"220003","827-TW","2018/07/30 15:09:32","新北市板橋區國慶路256號","121.463383333333","24.9981683333333","6500100","板橋區"
"220014","829-TW","2018/07/30 15:09:18","新北市板橋區中山路一段206巷4弄2號","121.470215","25.0131016666667","6500100","板橋區"
"220016","830-TW","2018/07/30 15:09:30","新北市板橋區光復街230號","121.484841666667","25.0213766666667","6500100","板橋區"
"220038","833-TW","2018/07/30 15:09:35","新北市板橋區新海路403巷16號","121.457928333333","25.0264266666667","6500100","板橋區"
"220046","AAC-210","2018/07/30 15:09:31","新北市板橋區建國街125號","121.460881666667","25.0177033333333","6500100","板橋區"
"220030","AAC-253","2018/07/30 15:09:25","新北市板橋區篤行路二段119-2號","121.431345","24.9908783333333","6500100","板橋區"
