"lineid","car","time","location","longitude","latitude","cityid","cityname"
"249005","172-UM","2018/07/30 17:09:47","新北市八里區華富山6-1號","121.419113333333","25.1426183333333","6502300","八里區"
"249001","173-UM","2018/07/30 17:09:37","新北市八里區中華路二段205巷8-1號","121.405136666667","25.1492916666667","6502300","八里區"
"249002","305-UY","2018/07/30 17:06:31","新北市八里區米倉14-2號","121.439593333333","25.1499316666667","6502300","八里區"
"249003","593-UM","2018/07/30 17:09:51","新北市八里區訊塘路96號","121.397536666667","25.1465266666667","6502300","八里區"
"249004","759-BX","2018/07/30 17:09:51","新北市八里區忠孝路175號","121.423141666667","25.160845","6502300","八里區"
"244007","080-UY","2018/07/30 17:09:38","新北市林口區菁埔路35號","121.377428333333","25.0970633333333","6501700","林口區"
"244019","403-UM","2018/07/30 17:09:44","新北市林口區文化一路一段190巷7弄3號","121.380286666667","25.07495","6501700","林口區"
"244013","KEA-2802","2018/07/30 17:09:38","新北市林口區粉寮69號","121.405035","25.0908566666667","6501700","林口區"
"244023","483-VK","2018/07/30 17:09:43","新北市林口區仁愛路一段643號","121.38877","25.0766733333333","6501700","林口區"
"244017","485-VK","2018/07/30 17:09:38","新北市林口區粉寮69號","121.405115","25.090815","6501700","林口區"
"244011","657-BX","2018/07/30 17:09:56","新北市林口區粉寮路二段160巷28號","121.405146666667","25.0908016666667","6501700","林口區"
"244025","837-TS","2018/07/30 17:09:42","新北市林口區中山路303號","121.383916666667","25.0804333333333","6501700","林口區"
"244021","838-TS","2018/07/30 17:09:55","新北市林口區粉寮路二段167-1號","121.404406666667","25.0883766666667","6501700","林口區"
"231046","107-UY","2018/07/30 17:09:37","新北市新店區直潭路92-1號","121.530821666667","24.937235","6500600","新店區"
"241011","013-R5","2018/07/30 17:09:47","新北市三重區龍門路51號","121.496321666667","25.07223","6500200","三重區"
"241028","022-UY","2018/07/30 17:09:34","新北市三重區重新路三段108號","121.492255","25.060445","6500200","三重區"
"241008","059-VK","2018/07/30 17:09:54","新北市三重區力行路二段136巷9號","121.482123333333","25.0757133333333","6500200","三重區"
"241031","061-VK","2018/07/30 17:09:52","新北市三重區重陽路一段113巷1弄1號","121.487243333333","25.059905","6500200","三重區"
"241015","062-VK","2018/07/30 17:09:56","新北市三重區長生街38號","121.499733333333","25.0664733333333","6500200","三重區"
"241017","063-VK","2018/07/30 17:09:50","新北市三重區中正北路25巷14號","121.493501666667","25.06285","6500200","三重區"
"241024","065-VK","2018/07/30 17:09:38","新北市三重區後竹圍街285號","121.47898","25.06995","6500200","三重區"
"241026","066-VK","2018/07/30 17:09:43","新北市三重區重新路一段89號","121.501","25.0634116666667","6500200","三重區"
"241002","090-VK","2018/07/30 17:09:56","新北市三重區五華街35巷42號","121.495413333333","25.0815083333333","6500200","三重區"
"241003","091-VK","2018/07/30 17:09:44","新北市三重區富福街108號","121.493398333333","25.0856283333333","6500200","三重區"
"241022","742-BX","2018/07/30 17:09:51","新北市三重區三民街101號","121.485246666667","25.063405","6500200","三重區"
"241005","262-UM","2018/07/30 17:09:49","新北市三重區碧華街104號","121.484356666667","25.0817","6500200","三重區"
"241016","266-UM","2018/07/30 17:09:45","新北市三重區大同北路132巷2號","121.492748333333","25.064875","6500200","三重區"
"241009","267-UM","2018/07/30 17:09:46","新北市三重區三和路四段215巷46號","121.483323333333","25.080215","6500200","三重區"
"241018","268-UM","2018/07/30 17:09:36","新北市三重區六張街101號","121.492211666667","25.069795","6500200","三重區"
"241032","269-UM","2018/07/30 17:09:46","新北市三重區三陽路2號","121.486241666667","25.05876","6500200","三重區"
"241013","270-UM","2018/07/30 17:09:45","新北市三重區仁孝街62號","121.49729","25.074445","6500200","三重區"
"241025","271-UM","2018/07/30 17:09:55","新北市三重區中正北路560巷89號","121.470913333333","25.068695","6500200","三重區"
"241007","398-BY","2018/07/30 17:09:38","新北市三重區三和路四段163巷79號","121.486025","25.079415","6500200","三重區"
"241024","KEA-2210","2018/07/30 17:09:34","新北市三重區國道路一段58巷13號","121.481426666667","25.072145","6500200","三重區"
"241004","413-TH","2018/07/30 17:09:48","新北市三重區五華街124號","121.4918","25.0832433333333","6500200","三重區"
"241020","478-VK","2018/07/30 17:09:50","新北市三重區自強路三段30號","121.48694","25.0724583333333","6500200","三重區"
"241030","480-VK","2018/07/30 17:09:35","新北市三重區集成路21號","121.488858333333","25.0523516666667","6500200","三重區"
"241014","543-UM","2018/07/30 17:09:53","新北市三重區龍濱路120-1號","121.501926666667","25.07105","6500200","三重區"
"241023","545-UM","2018/07/30 17:09:54","新北市三重區忠孝路三段84巷1號","121.480148333333","25.0645866666667","6500200","三重區"
"241001","547-UM","2018/07/30 17:09:35","新北市三重區仁愛街269巷42號","121.49419","25.079425","6500200","三重區"
"241019","KEA-2593","2018/07/30 17:09:41","新北市三重區自強路二段74巷73號","121.48698","25.0693733333333","6500200","三重區"
"241006","AAD-863","2018/07/30 17:09:51","新北市三重區三和路四段264巷15號","121.484923333333","25.0768466666667","6500200","三重區"
"241012","941-UM","2018/07/30 17:09:48","新北市三重區仁興街10號","121.499485","25.0742616666667","6500200","三重區"
"241029","942-UM","2018/07/30 17:09:51","新北市三重區重安街15號","121.490625","25.0575666666667","6500200","三重區"
"241033","AAC-255","2018/07/30 17:09:53","新北市三重區中興北街271號","121.46907","25.0605766666667","6500200","三重區"
"247010","KEA-2869","2018/07/30 17:09:36","新北市蘆洲區民族路16號","121.475975","25.0840933333333","6501400","蘆洲區"
"235046","733-UM","2018/07/30 16:46:11","新北市中和區員山路36巷13號","121.484161666667","24.9908216666667","6500300","中和區"
"247024","893-R6","2018/07/30 17:09:43","新北市蘆洲區長興路21號","121.463986666667","25.0830733333333","6501400","蘆洲區"
"247014","546-UM","2018/07/30 17:09:41","新北市蘆洲區中央路37巷15-3號","121.473568333333","25.0826666666667","6501400","蘆洲區"
"247022","500-BY","2018/07/30 17:09:43","新北市蘆洲區三民路224號","121.468695","25.0892516666667","6501400","蘆洲區"
"247012","339-TH","2018/07/30 17:09:42","新北市蘆洲區信義路292巷7號","121.477973333333","25.0877116666667","6501400","蘆洲區"
"247004","337-TH","2018/07/30 17:09:38","新北市蘆洲區永安南路二段266號","121.459071666667","25.080575","6501400","蘆洲區"
"247006","336-TH","2018/07/30 17:09:48","新北市蘆洲區長安街102巷67號","121.462626666667","25.0822333333333","6501400","蘆洲區"
"247018","057-VK","2018/07/30 17:09:48","新北市蘆洲區復興路87巷8號","121.476266666667","25.087765","6501400","蘆洲區"
"247008","056-VK","2018/07/30 17:09:53","新北市蘆洲區信義路30巷102號","121.475013333333","25.0772766666667","6501400","蘆洲區"
"247016","007-UY","2018/07/30 17:09:55","新北市蘆洲區光華路65巷26號","121.468768333333","25.0820816666667","6501400","蘆洲區"
"247002","002-UY","2018/07/30 17:09:41","新北市蘆洲區永樂街108號","121.455861666667","25.08889","6501400","蘆洲區"
"247020","001-UY","2018/07/30 17:09:38","新北市蘆洲區民族路426巷54號","121.47281","25.0936966666667","6501400","蘆洲區"
"228003","097-TW","2018/07/30 17:09:40","新北市貢寮區福隆里東興街11號","121.95047","25.0183433333333","6502600","貢寮區"
"228001","212-TW","2018/07/30 17:09:52","新北市貢寮區仁理村研海街45號","121.925821666667","25.04272","6502600","貢寮區"
"228002","663-BX","2018/07/30 17:09:40","新北市貢寮區龍崗里嵩陽街55號","121.907523333333","25.016595","6502600","貢寮區"
"224006","676-BX","2018/07/30 17:09:53","新北市瑞芳區大寮路69號","121.781286666667","25.097685","6501200","瑞芳區"
"224008","285-BY","2018/07/30 17:09:54","新北市瑞芳區侯硐路125-1號","121.831396666667","25.0900483333333","6501200","瑞芳區"
"224007","275-VK","2018/07/30 17:09:39","新北市瑞芳區粗坑口路37號","121.760245","25.0992033333333","6501200","瑞芳區"
"224009","272-VK","2018/07/30 17:09:44","新北市瑞芳區豎崎路57號","121.842916666667","25.1104733333333","6501200","瑞芳區"
"224005","271-BY","2018/07/30 17:09:38","新北市瑞芳區鼻頭路193號","121.915481666667","25.1233733333333","6501200","瑞芳區"
"227008","642-TC","2018/07/30 17:09:46","新北市雙溪區三貂里子崙坑1-6號","121.849838333333","25.0574533333333","6502500","雙溪區"
"227001","400-TW","2018/07/30 17:09:52","新北市雙溪區外柑里外柑腳22號","121.8121","25.0193033333333","6502500","雙溪區"
"251004","009-UM","2018/07/30 17:09:36","新北市淡水區中正路264號","121.438356666667","25.1714666666667","6501000","淡水區"
"251005","010-UM","2018/07/30 17:09:50","新北市淡水區中正東路36-1號","121.44894","25.1657183333333","6501000","淡水區"
"251013","KEA-2871","2018/07/30 17:09:53","新北市淡水區大埤頭4號","121.487256666667","25.19577","6501000","淡水區"
"251016","179-VK","2018/07/30 17:09:37","新北市淡水區社厝坑3-6號","121.474813333333","25.1881","6501000","淡水區"
"251014","180-VK","2018/07/30 17:09:52","新北市淡水區八里堆12-1號","121.462281666667","25.2251366666667","6501000","淡水區"
"251008","181-VK","2018/07/30 17:09:40","新北市淡水區民生路169號","121.469606666667","25.1420533333333","6501000","淡水區"
"251015","182-VK","2018/07/30 17:09:47","新北市淡水區樹林口42-3號","121.47033","25.1687666666667","6501000","淡水區"
"251010","413-VK","2018/07/30 17:09:36","新北市淡水區新市五路二段75號","121.43129","25.1983333333333","6501000","淡水區"
"251012","441-VK","2018/07/30 17:09:49","新北市淡水區中山北路一段158號","121.444205","25.17786","6501000","淡水區"
"251007","442-VK","2018/07/30 17:09:38","新北市淡水區民權路103號","121.460233333333","25.1377516666667","6501000","淡水區"
"251006","561-UM","2018/07/30 17:09:37","新北市淡水區真理街6號","121.438406666667","25.1745133333333","6501000","淡水區"
"251011","650-BX","2018/07/30 17:09:40","新北市淡水區坪頂路49號","121.45787","25.1626366666667","6501000","淡水區"
"251003","673-BX","2018/07/30 17:09:54","新北市淡水區中正路二段31號","121.419576666667","25.1815283333333","6501000","淡水區"
"252002","178-VK","2018/07/30 17:09:39","新北市三芝區忠孝街1-12號","121.505486666667","25.2541933333333","6502100","三芝區"
"252001","292-VK","2018/07/30 17:09:38","新北市三芝區埔頭里埔頭37號","121.498458333333","25.2602883333333","6502100","三芝區"
"242034","AAC-296","2018/07/30 17:09:42","新北市新莊區新泰路357巷3弄57號","121.442161666667","25.0396216666667","6500500","新莊區"
"242058","986-R7","2018/07/30 17:09:39","新北市新莊區新泰路255巷83號","121.442211666667","25.0390883333333","6500500","新莊區"
"242053","751-BX","2018/07/30 17:09:44","新北市新莊區新泰路357巷3弄41號","121.442025","25.0403216666667","6500500","新莊區"
"242027","705-TV","2018/07/30 17:09:40","新北市新莊區新泰路255巷83號","121.442213333333","25.0388533333333","6500500","新莊區"
"242029","612-BX","2018/07/30 17:09:48","新北市新莊區新泰路357巷3弄57號","121.442166666667","25.039285","6500500","新莊區"
"242042","566-BX","2018/07/30 17:09:44","新北市新莊區新泰路255巷83號","121.44218","25.0389033333333","6500500","新莊區"
"242046","497-BY","2018/07/30 17:09:52","新北市泰山區磚雅厝3號","121.442005","25.0419566666667","6500500","新莊區"
"242050","441-UM","2018/07/30 17:09:40","新北市新莊區新樹路29號","121.440378333333","25.03239","6500500","新莊區"
"242056","440-UM","2018/07/30 17:09:42","新北市新莊區新泰路357巷3弄57號","121.442105","25.03928","6500500","新莊區"
"242036","415-TV","2018/07/30 17:09:49","新北市新莊區新泰路357巷3弄57號","121.442111666667","25.0392966666667","6500500","新莊區"
"242007","413-TV","2018/07/30 17:09:47","新北市新莊區新泰路357巷3弄57號","121.442101666667","25.0394633333333","6500500","新莊區"
"242044","400-BY","2018/07/30 17:09:46","新北市新莊區新泰路357巷3弄49號","121.442031666667","25.0401083333333","6500500","新莊區"
"242060","353-BY","2018/07/30 17:09:50","新北市新莊區三和路12-13號","121.442301666667","25.0371533333333","6500500","新莊區"
"242039","133-UY","2018/07/30 17:09:47","新北市新莊區新泰路361巷23號","121.441973333333","25.0430166666667","6500500","新莊區"
"242031","135-UY","2018/07/30 17:09:51","新北市新莊區三和路12-21號","121.441955","25.0388116666667","6500500","新莊區"
"242011","173-VK","2018/07/30 17:09:47","新北市新莊區新泰路357巷3弄57號","121.44226","25.039515","6500500","新莊區"
"242017","175-VK","2018/07/30 17:09:35","新北市新莊區三和路12-21號","121.442065","25.0386483333333","6500500","新莊區"
"242004","176-VK","2018/07/30 17:09:37","新北市新莊區三和路12-21號","121.44206","25.03867","6500500","新莊區"
"242048","347-TH","2018/07/30 17:09:48","新北市新莊區中正路535-6號","121.438316666667","25.0332016666667","6500500","新莊區"
"242002","349-TH","2018/07/30 17:09:53","新北市新莊區三和路12-16號","121.442048333333","25.0373966666667","6500500","新莊區"
"242019","350-TH","2018/07/30 17:09:36","新北市新莊區新泰路255巷83號","121.441988333333","25.0389766666667","6500500","新莊區"
"238023","601-UM","2018/07/30 17:09:43","新北市樹林區中正路433-2號","121.41492","25.0084416666667","6500700","樹林區"
"238019","599-UM","2018/07/30 17:09:39","新北市樹林區太平路273巷23號","121.42119","24.9763083333333","6500700","樹林區"
"238018","571-TV","2018/07/30 17:09:44","新北市樹林區博愛街253號","121.42451","24.9846066666667","6500700","樹林區"
"238024","5061-A6","2018/07/30 17:09:39","新北市樹林區鎮前街77-21號","121.424598333333","24.990185","6500700","樹林區"
"238022","KEA-2213","2018/07/30 17:09:45","新北市樹林區八德街146號","121.42154","24.9787066666667","6500700","樹林區"
"238021","KEA-2539","2018/07/30 17:09:40","新北市樹林區西圳街一段165巷20弄28號","121.395628333333","24.9601383333333","6500700","樹林區"
"238025","303-VK","2018/07/30 17:09:45","新北市樹林區中正路22-1號","121.427843333333","24.9994233333333","6500700","樹林區"
"238017","283-BY","2018/07/30 17:09:45","新北市樹林區光武街7-3號","121.41579","25.0052716666667","6500700","樹林區"
"238001","282-BY","2018/07/30 17:09:42","新北市樹林區大慶街176-1號","121.427926666667","24.9998766666667","6500700","樹林區"
"238020","268-VK","2018/07/30 17:09:42","新北市樹林區東佳路18號","121.407966666667","24.9811483333333","6500700","樹林區"
"238013","172-UY","2018/07/30 17:09:50","新北市樹林區東豐街115號","121.406138333333","24.97448","6500700","樹林區"
"238016","169-UY","2018/07/30 17:09:56","新北市樹林區八德街1號","121.417573333333","24.9849716666667","6500700","樹林區"
"239007","AAC-297","2018/07/30 17:09:45","新北市鶯歌區建國路79號","121.353421666667","24.954135","6500800","鶯歌區"
"239006","891-R6","2018/07/30 17:09:44","新北市鶯歌區八德路2巷37弄8號","121.33703","24.946505","6500800","鶯歌區"
"239008","527-UM","2018/07/30 17:09:40","新北市鶯歌區尖山路57-1號","121.349978333333","24.9497383333333","6500800","鶯歌區"
"239005","526-UM","2018/07/30 17:09:48","新北市鶯歌區鶯桃路300號","121.334046666667","24.9615916666667","6500800","鶯歌區"
"239001","417-VK","2018/07/30 17:09:46","新北市鶯歌區尖山路140巷8號","121.34636","24.9492016666667","6500800","鶯歌區"
"239002","359-BY","2018/07/30 17:09:52","新北市鶯歌區建國路208號","121.349118333333","24.9535216666667","6500800","鶯歌區"
"239004","193-VK","2018/07/30 17:09:41","新北市鶯歌區文化路324巷1-37號","121.352468333333","24.9458466666667","6500800","鶯歌區"
"242015","281-VK","2018/07/30 17:09:39","新北市新莊區三和路12-18號","121.442028333333","25.037635","6500500","新莊區"
"242021","280-VK","2018/07/30 17:09:46","新北市新莊區三和路12-13號","121.442188333333","25.0371166666667","6500500","新莊區"
