"lineid","car","time","location","longitude","latitude","cityid","cityname"
"234026","9371-KE","2018/07/30 17:59:52","新北市永和區永和路一段41號","121.512768333333","25.00624","6500400","永和區"
"249005","172-UM","2018/07/30 17:59:47","新北市八里區荖阡坑路22-1號","121.398785","25.137095","6502300","八里區"
"249001","173-UM","2018/07/30 17:59:37","新北市八里區龍米路二段35號","121.448463333333","25.1400183333333","6502300","八里區"
"249002","305-UY","2018/07/30 17:59:51","新北市八里區龍形五街7號","121.450605","25.1336583333333","6502300","八里區"
"249003","593-UM","2018/07/30 17:59:51","新北市八里區中華路二段203號","121.405413333333","25.1495866666667","6502300","八里區"
"249004","759-BX","2018/07/30 17:59:51","新北市八里區龍米路三段28號","121.428795","25.1590316666667","6502300","八里區"
"248014","025-BX","2018/07/30 17:59:51","新北市五股區更洲路47號","121.456875","25.0790633333333","6501500","五股區"
"248016","026-BX","2018/07/30 17:59:47","新北市五股區中興路二段83巷26號","121.459153333333","25.0756133333333","6501500","五股區"
"248006","077-UY","2018/07/30 17:59:43","新北市五股區中興路二段83巷26-6號","121.460108333333","25.0750833333333","6501500","五股區"
"248008","095-VK","2018/07/30 17:59:52","新北市五股區更洲路56號","121.457108333333","25.079585","6501500","五股區"
"248018","225-UY","2018/07/30 17:59:55","新北市五股區中興路二段83巷26-6號","121.459876666667","25.0752083333333","6501500","五股區"
"248004","677-BX","2018/07/30 17:59:47","新北市五股區中興路二段161號","121.457983333333","25.0770983333333","6501500","五股區"
"248010","682-TV","2018/07/30 17:59:49","新北市五股區更洲路47號","121.456906666667","25.0790666666667","6501500","五股區"
"232011","375-UM","2018/07/30 17:59:39","新北市坪林區北宜路八段337號","121.710971666667","24.93373","6502000","坪林區"
"244007","080-UY","2018/07/30 17:59:58","新北市林口區林口路160號","121.387818333333","25.0823383333333","6501700","林口區"
"244019","403-UM","2018/07/30 17:59:44","新北市林口區文化一路一段126號","121.375335","25.072555","6501700","林口區"
"244013","KEA-2802","2018/07/30 17:59:38","新北市林口區中山路73號","121.393035","25.0784883333333","6501700","林口區"
"244009","410-SL","2018/07/30 17:59:55","新北市林口區佳林路56巷6弄14號","121.385593333333","25.0822433333333","6501700","林口區"
"244023","483-VK","2018/07/30 17:59:43","新北市林口區東湖路75巷48號","121.385395","25.0719016666667","6501700","林口區"
"244017","485-VK","2018/07/30 17:59:38","新北市林口區忠孝路498號","121.370545","25.0702166666667","6501700","林口區"
"244011","657-BX","2018/07/30 17:59:56","新北市林口區中正路144號","121.392875","25.0773183333333","6501700","林口區"
"244025","837-TS","2018/07/30 17:59:47","新北市林口區文化三路一段39巷100號","121.359233333333","25.0671433333333","6501700","林口區"
"244021","838-TS","2018/07/30 17:58:49","新北市林口區新寮42-3號","121.4032","25.0653916666667","6501700","林口區"
"222003","436-BY","2018/07/30 17:59:39","新北市深坑區炮子崙20-2號","121.606691666667","24.9899566666667","6501800","深坑區"
"222002","659-BX","2018/07/30 17:59:40","新北市深坑區深坑街35號","121.61602","25.0018333333333","6501800","深坑區"
"231046","107-UY","2018/07/30 17:59:37","新北市新店區康雅崙路10號","121.536145","24.9262833333333","6500600","新店區"
"231058","3713-VJ","2018/07/30 17:59:36","新北市新店區安華路1-1號","121.51921","24.9605766666667","6500600","新店區"
"231055","AKT-0513","2018/07/30 17:59:37","新北市新店區安華路28-1號","121.519751666667","24.9607533333333","6500600","新店區"
"241015","062-VK","2018/07/30 17:59:56","新北市三重區光復路二段192號","121.470326666667","25.063235","6500200","三重區"
"241016","266-UM","2018/07/30 17:59:45","新北市三重區光復路二段143巷16號","121.474763333333","25.0616333333333","6500200","三重區"
"241024","KEA-2210","2018/07/30 17:59:54","新北市三重區力行路一段188巷16號","121.480008333333","25.0723183333333","6500200","三重區"
"241006","AAD-863","2018/07/30 17:59:51","新北市八里區中華路三段7巷5號","121.397456666667","25.1438566666667","6500200","三重區"
"241033","AAC-255","2018/07/30 17:59:53","新北市三重區重新路五段594號","121.469215","25.0454266666667","6500200","三重區"
"235063","006-UY","2018/07/30 17:59:41","新北市中和區員山路36巷16-3號","121.485015","24.991265","6500300","中和區"
"235065","098-UM","2018/07/30 17:59:54","新北市中和區橋和路83號","121.489825","25.00527","6500300","中和區"
"235058","151-BY","2018/07/30 17:59:40","新北市中和區圓通路367巷18-3號","121.491798333333","24.988695","6500300","中和區"
"235038","185-VK","2018/07/30 17:59:39","新北市中和區中正路244號","121.495866666667","24.9939433333333","6500300","中和區"
"235054","640-BX","2018/07/30 17:59:51","新北市土城區金城路三段253號","121.471781666667","24.9899683333333","6500300","中和區"
"235037","AAC-213","2018/07/30 17:59:38","新北市中和區中正路395號","121.49","24.9935766666667","6500300","中和區"
"235059","AAC-215","2018/07/30 17:59:52","新北市中和區員山路36巷16-3號","121.485023333333","24.9913133333333","6500300","中和區"
"247024","893-R6","2018/07/30 17:59:43","新北市蘆洲區光復路30巷31-1號","121.463675","25.0844466666667","6501400","蘆洲區"
"247014","546-UM","2018/07/30 17:59:41","新北市蘆洲區忠孝路53號","121.471381666667","25.086625","6501400","蘆洲區"
"247012","339-TH","2018/07/30 17:59:42","新北市蘆洲區民族路137號","121.479703333333","25.0875466666667","6501400","蘆洲區"
"247006","336-TH","2018/07/30 17:59:48","新北市蘆洲區中華街39號","121.463071666667","25.0813183333333","6501400","蘆洲區"
"247018","057-VK","2018/07/30 17:59:48","新北市蘆洲區復興路226號","121.47913","25.08926","6501400","蘆洲區"
"247016","007-UY","2018/07/30 17:59:55","新北市蘆洲區中正路185巷78弄50號","121.465643333333","25.0853916666667","6501400","蘆洲區"
"247002","002-UY","2018/07/30 17:59:41","新北市蘆洲區永平街32巷57弄13-1號","121.459278333333","25.09306","6501400","蘆洲區"
"247020","001-UY","2018/07/30 17:59:38","新北市蘆洲區民義街9巷9號","121.470986666667","25.0890416666667","6501400","蘆洲區"
"228003","097-TW","2018/07/30 17:59:40","新北市貢寮區真理里美艷山街6-2號","121.928876666667","25.0607366666667","6502600","貢寮區"
"228001","212-TW","2018/07/30 17:59:52","新北市貢寮區仁理村仁愛路106巷36號","121.929213333333","25.0538683333333","6502600","貢寮區"
"228002","663-BX","2018/07/30 17:59:40","新北市貢寮區福連里香蘭街5號","121.97418","25.02433","6502600","貢寮區"
"224010","AGQ-8101","2018/07/30 17:59:39","新北市瑞芳區汽車路16號","121.846296666667","25.110795","6501200","瑞芳區"
"224006","676-BX","2018/07/30 17:59:53","新北市瑞芳區大寮路356-1號","121.784891666667","25.1031683333333","6501200","瑞芳區"
"224002","639-TC","2018/07/30 17:59:51","新北市瑞芳區三爪子坑路32巷76號","121.81017","25.1059883333333","6501200","瑞芳區"
"224008","285-BY","2018/07/30 17:59:34","新北市瑞芳區明燈路一段75號","121.820143333333","25.1069816666667","6501200","瑞芳區"
"224009","272-VK","2018/07/30 17:59:44","新北市瑞芳區山尖路187號","121.85159","25.1115783333333","6501200","瑞芳區"
"224005","271-BY","2018/07/30 17:59:38","新北市瑞芳區深澳路8-2號","121.817151666667","25.1289666666667","6501200","瑞芳區"
"227008","642-TC","2018/07/30 17:59:46","新北市雙溪區三貂里政光路3-1號","121.850836666667","25.0634466666667","6502500","雙溪區"
"253005","032-BX","2018/07/30 17:59:49","新北市石門區中山路62-11號","121.567491666667","25.2896433333333","6502200","石門區"
"253006","295-VK","2018/07/30 17:59:29","新北市石門區大丘田45-1號","121.54979","25.2751766666667","6502200","石門區"
"222001","KEA-2212","2018/07/30 17:59:51","新北市深坑區北深路二段222號","121.612301666667","25.0014466666667","6501800","深坑區"
"208002","KEA-2872","2018/07/30 17:59:38","新北市金山區三界壇路34號","121.625265","25.228535","6502700","金山區"
"208003","665-BX","2018/07/30 17:59:43","新北市金山區磺港里磺港路309號","121.64406","25.2276116666667","6502700","金山區"
"208001","761-BX","2018/07/30 17:59:46","新北市金山區磺港里磺港路160號","121.644798333333","25.2257483333333","6502700","金山區"
"251004","009-UM","2018/07/30 17:59:50","新北市淡水區民權路20號","121.459878333333","25.1378466666667","6501000","淡水區"
"251005","010-UM","2018/07/30 17:59:50","新北市淡水區英專路122巷1號","121.446596666667","25.1727183333333","6501000","淡水區"
"251001","011-UM","2018/07/30 17:59:57","新北市淡水區民權路17號","121.463766666667","25.124045","6501000","淡水區"
"251013","KEA-2871","2018/07/30 17:59:52","新北市淡水區泉洲厝30號","121.479666666667","25.1909983333333","6501000","淡水區"
"251016","179-VK","2018/07/30 17:59:42","新北市淡水區埤島30-13號","121.447915","25.198185","6501000","淡水區"
"251014","180-VK","2018/07/30 17:59:52","新北市淡水區南平6-1號","121.48148","25.2231716666667","6501000","淡水區"
"251008","181-VK","2018/07/30 17:59:40","新北市淡水區八勢一街37號","121.46197","25.156335","6501000","淡水區"
"251015","182-VK","2018/07/30 17:59:47","新北市淡水區興福寮66巷539號","121.48458","25.1651483333333","6501000","淡水區"
"251010","413-VK","2018/07/30 17:59:50","新北市淡水區中正路一段130-7號","121.422116666667","25.1794033333333","6501000","淡水區"
"251012","441-VK","2018/07/30 17:59:49","新北市淡水區北新路三段38巷7號","121.484515","25.1870083333333","6501000","淡水區"
"251006","561-UM","2018/07/30 17:59:36","新北市淡水區新生街15號","121.438846666667","25.1732416666667","6501000","淡水區"
"251009","575-R6","2018/07/30 17:59:49","新北市淡水區大仁街6巷2號","121.442653333333","25.1745183333333","6501000","淡水區"
"251011","650-BX","2018/07/30 17:59:40","新北市淡水區三空泉8-1號","121.476011666667","25.1625883333333","6501000","淡水區"
"251002","672-BX","2018/07/30 17:59:46","新北市淡水區中正東路77號","121.447516666667","25.1674116666667","6501000","淡水區"
"251003","673-BX","2018/07/30 17:59:54","新北市淡水區大忠街90號","121.444801666667","25.1763566666667","6501000","淡水區"
"207003","550-UM","2018/07/30 17:59:43","新北市萬里區港東路野柳風景區攤販51號","121.691608333333","25.2058916666667","6502800","萬里區"
"207004","225-TW","2018/07/30 17:59:49","新北市萬里區中幅里中福路48號","121.683185","25.173965","6502800","萬里區"
"252002","178-VK","2018/07/30 17:59:39","新北市三芝區中山路二段17號","121.502675","25.2555266666667","6502100","三芝區"
"252001","292-VK","2018/07/30 17:59:38","新北市三芝區中興街二段2號","121.498388333333","25.256615","6502100","三芝區"
"237007","153-BY","2018/07/30 17:59:49","新北市三峽區中正路二段52號","121.366565","24.918825","6500900","三峽區"
"237011","572-TV","2018/07/30 17:59:40","新北市三峽區光明路48號","121.374636666667","24.9296483333333","6500900","三峽區"
"237009","210-TH","2018/07/30 17:59:49","新北市三峽區中山路106巷3號","121.366085","24.9359766666667","6500900","三峽區"
"237013","252-BX","2018/07/30 17:59:54","新北市三峽區長泰街79-2號","121.375528333333","24.9330183333333","6500900","三峽區"
"237012","275-BY","2018/07/30 17:59:36","新北市三峽區民生街19巷3號","121.376251666667","24.9361866666667","6500900","三峽區"
"237008","302-VK","2018/07/30 17:59:37","新北市三峽區白雞24號","121.368448333333","24.91251","6500900","三峽區"
"237014","433-BY","2018/07/30 17:59:55","新北市三峽區復興路101巷1弄79號","121.371026666667","24.9376416666667","6500900","三峽區"
"237006","5529-G3","2018/07/30 17:59:43","新北市三峽區介壽路二段138巷1弄110號","121.397905","24.9308516666667","6500900","三峽區"
"237015","649-BX","2018/07/30 17:59:37","新北市三峽區紫微路109號","121.408758333333","24.9111866666667","6500900","三峽區"
"237010","706-TV","2018/07/30 17:59:44","新北市三峽區民權街168號","121.367908333333","24.930145","6500900","三峽區"
"237005","AKY-6261","2018/07/30 17:59:52","新北市三峽區復興路179號","121.369816666667","24.93861","6500900","三峽區"
"236069","105-UM","2018/07/30 17:59:52","新北市土城區中華路一段279號","121.440138333333","24.98002","6501300","土城區"
"236042","107-UM","2018/07/30 17:59:39","新北市土城區城林路6巷80號","121.438553333333","24.9797116666667","6501300","土城區"
"236078","166-UM","2018/07/30 17:59:46","新北市土城區永寧路32巷10弄3號","121.428885","24.9610116666667","6501300","土城區"
"236030","253-BX","2018/07/30 17:59:49","新北市土城區城林路6巷80號","121.438611666667","24.979695","6501300","土城區"
"236026","269-VK","2018/07/30 17:59:49","新北市土城區承天路47號","121.438865","24.9637783333333","6501300","土城區"
"236014","270-VK","2018/07/30 17:59:37","新北市土城區城林路6巷80號","121.438578333333","24.97955","6501300","土城區"
"236039","271-VK","2018/07/30 17:59:37","新北市土城區城林路6巷80號","121.438555","24.97957","6501300","土城區"
"236020","401-BY","2018/07/30 17:59:51","新北市土城區城林路6巷80號","121.438766666667","24.97966","6501300","土城區"
"236059","912-UM","2018/07/30 17:59:40","新北市土城區中央路三段250號","121.427581666667","24.96422","6501300","土城區"
"236048","913-UM","2018/07/30 17:59:48","新北市土城區中華路二段62號","121.439016666667","24.9769066666667","6501300","土城區"
"236063","915-UM","2018/07/30 17:59:40","新北市土城區城林路6巷80號","121.438335","24.979645","6501300","土城區"
"236055","AAC-216","2018/07/30 17:59:42","新北市土城區城林路6巷80號","121.438558333333","24.9795733333333","6501300","土城區"
"242034","AAC-296","2018/07/30 17:59:47","新北市新莊區福海街26號","121.44537","25.0340366666667","6500500","新莊區"
"242058","986-R7","2018/07/30 17:59:39","新北市新莊區雙鳳路134巷22號","121.412663333333","25.02817","6500500","新莊區"
"242053","751-BX","2018/07/30 17:59:44","新北市新莊區光華街2號","121.428556666667","25.010615","6500500","新莊區"
"242027","705-TV","2018/07/30 17:59:53","新北市新莊區思源路449號","121.45978","25.0532566666667","6500500","新莊區"
"242025","613-BX","2018/07/30 17:59:47","新北市新莊區五工路58號","121.458753333333","25.062915","6500500","新莊區"
"242029","612-BX","2018/07/30 17:59:48","新北市新莊區中平路110巷36號","121.445891666667","25.045875","6500500","新莊區"
"242042","566-BX","2018/07/30 17:59:44","新北市新莊區中正路857-4號","121.41903","25.02788","6500500","新莊區"
"242046","497-BY","2018/07/30 17:59:52","新北市新莊區中正路651-8號","121.430101666667","25.0301883333333","6500500","新莊區"
"242050","441-UM","2018/07/30 17:59:40","新北市新莊區民安西路135號","121.4265","25.01756","6500500","新莊區"
"242056","440-UM","2018/07/30 17:59:42","新北市新莊區豐年街57-1號","121.446606666667","25.0298033333333","6500500","新莊區"
"242036","415-TV","2018/07/30 17:59:48","新北市新莊區中正路695號","121.42594","25.0299866666667","6500500","新莊區"
"242007","413-TV","2018/07/30 17:59:47","新北市新莊區自信街26號","121.45421","25.0482283333333","6500500","新莊區"
"242044","400-BY","2018/07/30 17:59:46","新北市新莊區雙鳳路139號","121.412896666667","25.02717","6500500","新莊區"
"242023","362-BY","2018/07/30 17:59:40","新北市新莊區福壽街65號","121.458243333333","25.0492966666667","6500500","新莊區"
"242060","353-BY","2018/07/30 17:59:50","新北市新莊區新樹路226號","121.4335","25.019825","6500500","新莊區"
"242009","132-UY","2018/07/30 17:59:34","新北市新莊區中華路二段258巷15號","121.45314","25.0536783333333","6500500","新莊區"
"242039","133-UY","2018/07/30 17:59:47","新北市新莊區民安西路24巷2號","121.426518333333","25.0212966666667","6500500","新莊區"
"242031","135-UY","2018/07/30 17:59:51","新北市新莊區新泰路289巷6號","121.445115","25.0406483333333","6500500","新莊區"
"242011","173-VK","2018/07/30 17:59:26","新北市新莊區中港路中慶巷15號","121.450491666667","25.0536333333333","6500500","新莊區"
"242017","175-VK","2018/07/30 17:59:55","新北市新莊區中和街58號","121.448073333333","25.044715","6500500","新莊區"
"242004","176-VK","2018/07/30 17:59:57","新北市新莊區自由街6號","121.455765","25.0478716666667","6500500","新莊區"
"242048","347-TH","2018/07/30 17:59:48","新北市新莊區萬安街47巷9號","121.422363333333","25.024415","6500500","新莊區"
"242002","349-TH","2018/07/30 17:59:53","新北市新莊區中正路149號","121.456205","25.036775","6500500","新莊區"
"242019","350-TH","2018/07/30 17:59:56","新北市新莊區明中街43巷11號","121.457488333333","25.03889","6500500","新莊區"
"242013","351-TH","2018/07/30 17:59:45","新北市新莊區幸福路819號","121.445486666667","25.049035","6500500","新莊區"
"238015","755-BX","2018/07/30 17:59:54","新北市樹林區大安路307巷1弄1號","121.418096666667","24.99211","6500700","樹林區"
"238023","601-UM","2018/07/30 17:59:43","新北市樹林區龍興街46巷8號","121.402691666667","25.0154433333333","6500700","樹林區"
"238019","599-UM","2018/07/30 17:59:39","新北市樹林區水源街32巷33號","121.425306666667","24.9807033333333","6500700","樹林區"
"238018","571-TV","2018/07/30 17:59:55","新北市樹林區樹新路200號","121.431196666667","25.00058","6500700","樹林區"
"238022","KEA-2213","2018/07/30 17:59:45","新北市樹林區太平路150巷25號","121.417431666667","24.9774983333333","6500700","樹林區"
"238021","KEA-2539","2018/07/30 17:59:40","新北市樹林區柑園街一段152號","121.39849","24.956715","6500700","樹林區"
"238025","303-VK","2018/07/30 17:59:45","新北市樹林區三俊街146號","121.416606666667","25.0153666666667","6500700","樹林區"
"238017","283-BY","2018/07/30 17:59:45","新北市樹林區中正路668號","121.409571666667","25.01689","6500700","樹林區"
"238014","282-BY","2018/07/30 17:59:42","新北市樹林區大安路13號","121.424843333333","25.00043","6500700","樹林區"
"238020","268-VK","2018/07/30 17:59:42","新北市樹林區俊興街286號","121.418601666667","25.0170083333333","6500700","樹林區"
"238013","172-UY","2018/07/30 17:59:50","新北市樹林區育德街79號","121.39082","24.97009","6500700","樹林區"
"238016","169-UY","2018/07/30 17:59:56","新北市樹林區中山路一段182巷61號","121.420906666667","24.9882733333333","6500700","樹林區"
"239007","AAC-297","2018/07/30 17:59:38","新北市鶯歌區鶯桃路94巷59弄13號","121.34145","24.9551866666667","6500800","鶯歌區"
"239006","891-R6","2018/07/30 17:59:45","新北市鶯歌區鶯桃路455巷6弄1號","121.331798333333","24.9647266666667","6500800","鶯歌區"
"239008","527-UM","2018/07/30 17:59:40","新北市鶯歌區欣欣街4號","121.335723333333","24.9774383333333","6500800","鶯歌區"
"239005","526-UM","2018/07/30 17:59:48","新北市鶯歌區鶯桃路668巷73號","121.32997","24.9718466666667","6500800","鶯歌區"
"239001","417-VK","2018/07/30 17:59:46","新北市鶯歌區中正三路106-1號","121.33804","24.9408283333333","6500800","鶯歌區"
"239003","360-BY","2018/07/30 17:59:42","新北市鶯歌區永吉街35-1號","121.335671666667","24.9574783333333","6500800","鶯歌區"
"239002","359-BY","2018/07/30 17:59:52","新北市鶯歌區育英街17巷1弄3號","121.347578333333","24.9552233333333","6500800","鶯歌區"
"221008","489-VK","2018/07/30 17:59:39","新北市汐止區明峰街27號","121.634281666667","25.0713766666667","6501100","汐止區"
"221036","130-UY","2018/07/30 17:59:42","新北市汐止區鄉長路一段31-1號","121.665275","25.0746616666667","6501100","汐止區"
"221015","131-UY","2018/07/30 17:59:50","新北市汐止區長江街287號","121.665286666667","25.0812333333333","6501100","汐止區"
"221010","269-BY","2018/07/30 17:59:40","新北市汐止區汐萬路二段245巷37號","121.643695","25.08784","6501100","汐止區"
"221012","278-VK","2018/07/30 17:59:48","新北市汐止區長興街二段50巷2弄2號","121.674018333333","25.08179","6501100","汐止區"
"221023","279-VK","2018/07/30 17:59:53","新北市汐止區明峰街137號","121.629821666667","25.0707116666667","6501100","汐止區"
"221032","280-BY","2018/07/30 17:59:46","新北市汐止區橫科路73巷8號","121.619576666667","25.0509733333333","6501100","汐止區"
"221027","281-BY","2018/07/30 17:59:47","新北市汐止區大同路二段374號","121.657818333333","25.0671116666667","6501100","汐止區"
"221029","298-VK","2018/07/30 17:59:42","新北市汐止區樟樹二路331號","121.641385","25.07053","6501100","汐止區"
"221021","299-VK","2018/07/30 17:59:51","新北市汐止區忠孝東路1號","121.656796666667","25.064145","6501100","汐止區"
"221031","353-TW","2018/07/30 17:59:39","新北市汐止區中興路149巷1號","121.631101666667","25.0657183333333","6501100","汐止區"
"221002","129-UY","2018/07/30 17:59:36","新北市汐止區中興路31號","121.634735","25.06181","6501100","汐止區"
"221035","622-UM","2018/07/30 17:59:53","新北市汐止區汐萬路一段81號","121.654631666667","25.0701816666667","6501100","汐止區"
"221025","623-UM","2018/07/30 17:59:45","新北市汐止區仁愛路10號","121.659433333333","25.0634866666667","6501100","汐止區"
"221038","646-BX","2018/07/30 17:59:43","新北市汐止區連興街128巷7弄9號","121.653553333333","25.0612616666667","6501100","汐止區"
"221018","753-BX","2018/07/30 17:59:53","新北市汐止區招商街11巷1號","121.666551666667","25.0688816666667","6501100","汐止區"
"242015","281-VK","2018/07/30 17:59:39","新北市新莊區中平路87巷5號","121.444235","25.0457066666667","6500500","新莊區"
"242021","280-VK","2018/07/30 17:59:46","新北市新莊區建興街33號","121.450085","25.0365416666667","6500500","新莊區"
"235068","KEA-2873","2018/07/30 17:59:35","新北市中和區員山路36巷16-3號","121.485063333333","24.9912483333333","6500300","中和區"
"235061","KEA-2875","2018/07/30 17:59:47","新北市中和區員山路36巷16-2號","121.485298333333","24.9917283333333","6500300","中和區"
