"lineid","car","time","location","longitude","latitude","cityid","cityname"
"234046","148-BY","2018/07/30 20:19:40","新北市永和區得和路322號","121.52286","24.9995683333333","6500400","永和區"
"234081","298-R6","2018/07/30 20:19:38","新北市永和區永亨路105巷2號","121.523513333333","25.0048983333333","6500400","永和區"
"234038","336-UY","2018/07/30 20:19:38","新北市永和區成功路一段47巷14號","121.527581666667","25.0038683333333","6500400","永和區"
"234064","337-UY","2018/07/30 20:19:27","新北市永和區得和路101號","121.518036666667","25.0002466666667","6500400","永和區"
"234086","338-UY","2018/07/30 20:19:38","新北市永和區永和路二段55號","121.514663333333","25.0108466666667","6500400","永和區"
"234070","552-UM","2018/07/30 20:19:38","新北市永和區福和路263巷14號","121.517946666667","25.0067933333333","6500400","永和區"
"234017","745-BX","2018/07/30 20:19:35","新北市永和區仁愛路30號","121.514568333333","25.01344","6500400","永和區"
"234030","746-BX","2018/07/30 20:19:35","新北市永和區民有街25巷14號","121.5175","24.9965583333333","6500400","永和區"
"234054","KEA-2590","2018/07/30 20:19:40","新北市永和區光復街2巷27號","121.517251666667","25.0166433333333","6500400","永和區"
"234013","KEA-2591","2018/07/30 20:19:38","新北市永和區保生路40巷1號","121.505921666667","25.008345","6500400","永和區"
"234061","AAD-866","2018/07/30 20:19:38","新北市永和區得和路19號","121.51541","25.0005666666667","6500400","永和區"
"234042","862-TW","2018/07/30 20:19:23","新北市中和區中安街166號","121.510828333333","25.000085","6500400","永和區"
"234050","863-TW","2018/07/30 20:19:29","新北市永和區文化路230號","121.509791666667","25.016915","6500400","永和區"
"234026","9371-KE","2018/07/30 20:19:31","新北市永和區保生路55號","121.504553333333","25.010765","6500400","永和區"
"249005","172-UM","2018/07/30 20:19:41","新北市八里區下罟子8號","121.385513333333","25.13976","6502300","八里區"
"249001","173-UM","2018/07/30 20:19:31","新北市八里區中華路二段468號","121.400746666667","25.1460516666667","6502300","八里區"
"249002","305-UY","2018/07/30 20:19:31","新北市八里區龍米路一段263-2號","121.449901666667","25.1362683333333","6502300","八里區"
"249003","593-UM","2018/07/30 20:19:31","新北市八里區中山路二段447巷16號","121.396941666667","25.1453766666667","6502300","八里區"
"249004","759-BX","2018/07/30 20:19:33","新北市八里區中山路一段129巷31號","121.414006666667","25.1585216666667","6502300","八里區"
"248014","025-BX","2018/07/30 20:19:27","新北市八里區荖阡坑路28-2號","121.403173333333","25.12802","6501500","五股區"
"248016","026-BX","2018/07/30 20:19:30","新北市五股區凌雲路一段158巷26號","121.447806666667","25.1037333333333","6501500","五股區"
"248012","247-BX","2018/07/30 20:19:32","新北市五股區民義路一段206號","121.430508333333","25.089055","6501500","五股區"
"248002","678-BX","2018/07/30 20:19:41","新北市五股區成泰路三段165號","121.445245","25.091835","6501500","五股區"
"234023","9380-KE","2018/07/30 20:19:39","新北市永和區勵行街11號","121.516241666667","25.0144","6500400","永和區"
"234077","969-R7","2018/07/30 20:19:26","新北市永和區民享街6號","121.515116666667","24.9954416666667","6500400","永和區"
"234074","AAC-211","2018/07/30 20:19:29","新北市永和區竹林路201巷22弄8號","121.522525","25.0093083333333","6500400","永和區"
"234067","AAC-212","2018/07/30 20:19:28","新北市永和區保平路266號","121.508698333333","25.00512","6500400","永和區"
"234003","AAC-295","2018/07/30 20:19:42","新北市永和區大新街14號","121.514976666667","25.0085033333333","6500400","永和區"
"243013","AAD-798","2018/07/30 20:19:36","新北市泰山區新民路14巷3號","121.426421666667","25.0445716666667","6501600","泰山區"
"243009","297-R6","2018/07/30 20:19:30","新北市泰山區福泰街35號","121.433215","25.0600333333333","6501600","泰山區"
"243016","380-SR","2018/07/30 20:19:29","新北市泰山區明志路三段98號","121.424931666667","25.0410816666667","6501600","泰山區"
"243015","421-VK","2018/07/30 20:19:33","新北市泰山區仁德路127號","121.432555","25.0560816666667","6501600","泰山區"
"243011","KEA-2215","2018/07/30 20:19:36","新北市新莊區壽山路33-18號","121.419058333333","25.02976","6501600","泰山區"
"243010","KEA-2216","2018/07/30 20:19:32","新北市泰山區明志路二段273巷3弄2號","121.427406666667","25.0471666666667","6501600","泰山區"
"243012","646-TV","2018/07/30 20:19:28","新北市泰山區楓江路67-1號","121.436385","25.0629283333333","6501600","泰山區"
"243014","680-BX","2018/07/30 20:19:34","新北市泰山區泰林路二段293號","121.430243333333","25.06298","6501600","泰山區"
"222003","436-BY","2018/07/30 20:19:39","新北市深坑區文化街74號","121.618068333333","25.0018533333333","6501800","深坑區"
"222002","659-BX","2018/07/30 20:19:40","新北市深坑區萬福路69-1號","121.601788333333","25.0092166666667","6501800","深坑區"
"231041","002-UM","2018/07/30 20:19:27","新北市新店區民權路42-1號","121.540361666667","24.9829166666667","6500600","新店區"
"231059","046-UY","2018/07/30 20:19:36","新北市新店區安德街90號","121.509661666667","24.9611383333333","6500600","新店區"
"231040","047-UY","2018/07/30 20:19:38","新北市新店區中正路228號","121.539968333333","24.9727866666667","6500600","新店區"
"231044","106-UY","2018/07/30 20:19:40","新北市新店區北新路三段190號","121.541565","24.9830666666667","6500600","新店區"
"231052","108-UY","2018/07/30 20:19:28","新北市新店區松林路1號","121.546835","24.91203","6500600","新店區"
"231047","187-VK","2018/07/30 20:19:28","新北市新店區寶橋路80號","121.546276666667","24.9755083333333","6500600","新店區"
"231054","KEA-2219","2018/07/30 20:19:24","新北市新店區檳榔路109號","121.544495","24.96163","6500600","新店區"
"231057","256-BX","2018/07/30 20:19:37","新北市新店區花園七路一段17號","121.55387","24.9348316666667","6500600","新店區"
"231042","268-BY","2018/07/30 20:19:25","新北市新店區中興路二段192號","121.548285","24.9732466666667","6500600","新店區"
"231051","278-BY","2018/07/30 20:19:30","新北市新店區中央六街88號","121.526403333333","24.976705","6500600","新店區"
"231050","AAD-862","2018/07/30 20:19:37","新北市新店區博愛街13巷1號","121.541056666667","24.97329","6500600","新店區"
"231058","3713-VJ","2018/07/30 20:19:16","新北市新店區中央路11號","121.533391666667","24.978475","6500600","新店區"
"231066","4716-K9","2018/07/30 20:19:38","新北市新店區安德街60巷35號","121.51051","24.9634516666667","6500600","新店區"
"231056","4715-K9","2018/07/30 20:19:44","新北市新店區中正路328巷40號","121.538093333333","24.9764166666667","6500600","新店區"
"231067","4772-VM","2018/07/30 20:19:25","新北市新店區安康路一段258號","121.520286666667","24.9639416666667","6500600","新店區"
"231065","512-UM","2018/07/30 20:19:41","新北市新店區安祥路104-10號","121.479185","24.96204","6500600","新店區"
"231049","513-UM","2018/07/30 20:19:42","新北市新店區北新路一段333號","121.541828333333","24.968585","6500600","新店區"
"231063","616-UM","2018/07/30 20:19:29","新北市新店區柴埕路116號","121.504536666667","24.9596333333333","6500600","新店區"
"231045","617-UM","2018/07/30 20:19:27","新北市新店區新坡一街111號","121.547518333333","24.9636516666667","6500600","新店區"
"231061","619-UM","2018/07/30 20:19:40","新北市新店區安民街133巷26號","121.515383333333","24.96956","6500600","新店區"
"231068","718-UY","2018/07/30 20:19:26","新北市新店區寶安街33號","121.54195","24.9823816666667","6500600","新店區"
"231064","719-UM","2018/07/30 20:19:27","新北市新店區安利街32號","121.519071666667","24.974795","6500600","新店區"
"231062","720-UM","2018/07/30 20:19:39","新北市新店區安泰路7巷16號","121.4857","24.9509666666667","6500600","新店區"
"231060","897-TW","2018/07/30 20:19:37","新北市新店區錦秀路11巷103號","121.480876666667","24.9445466666667","6500600","新店區"
"231043","899-TW","2018/07/30 20:19:44","新北市新店區建國路133號","121.539338333333","24.9782233333333","6500600","新店區"
"241011","013-R5","2018/07/30 20:19:28","新北市三重區龍門路203號","121.49994","25.0733633333333","6500200","三重區"
"241028","022-UY","2018/07/30 20:19:42","新北市三重區大同南路143-2號","121.496631666667","25.057395","6500200","三重區"
"241008","059-VK","2018/07/30 20:19:34","新北市三重區永福街211巷23號","121.479123333333","25.0740466666667","6500200","三重區"
"241031","061-VK","2018/07/30 20:19:28","新北市三重區三寧街18號","121.489351666667","25.0597933333333","6500200","三重區"
"241015","062-VK","2018/07/30 20:19:41","新北市三重區重新路一段126號","121.500326666667","25.0628616666667","6500200","三重區"
"241017","063-VK","2018/07/30 20:19:30","新北市三重區自強路一段236號","121.493178333333","25.0669783333333","6500200","三重區"
"241024","065-VK","2018/07/30 20:19:26","新北市三重區中正北路274號","121.480828333333","25.06846","6500200","三重區"
"241026","066-VK","2018/07/30 20:19:23","新北市三重區重新路一段52-1號","121.502706666667","25.0634466666667","6500200","三重區"
"241002","090-VK","2018/07/30 20:19:36","新北市三重區仁義街101巷42號","121.499163333333","25.0807466666667","6500200","三重區"
"241003","091-VK","2018/07/30 20:19:34","新北市三重區富華街84-3號","121.490986666667","25.083465","6500200","三重區"
"241022","742-BX","2018/07/30 20:19:29","新北市三重區中正北路2號","121.489278333333","25.0629183333333","6500200","三重區"
"241005","262-UM","2018/07/30 20:19:29","新北市三重區碧華街215號","121.488766666667","25.082755","6500200","三重區"
"241016","266-UM","2018/07/30 20:19:45","新北市三重區大同北路97-3號","121.494406666667","25.0635633333333","6500200","三重區"
"241009","267-UM","2018/07/30 20:19:26","新北市三重區三和路四段382巷44號","121.481218333333","25.0784366666667","6500200","三重區"
"241018","268-UM","2018/07/30 20:19:42","新北市三重區自強路一段155-1號","121.493761666667","25.0672016666667","6500200","三重區"
"241032","269-UM","2018/07/30 20:19:26","新北市三重區捷運路19巷6弄15號","121.484481666667","25.05686","6500200","三重區"
"241013","270-UM","2018/07/30 20:19:26","新北市三重區三和路三段167巷3號","121.492071666667","25.0740883333333","6500200","三重區"
"241025","271-UM","2018/07/30 20:19:37","新北市三重區三民街222號","121.480155","25.067205","6500200","三重區"
"241007","398-BY","2018/07/30 20:19:38","新北市三重區溪尾街108巷52號","121.487426666667","25.0781233333333","6500200","三重區"
"241035","KEA-2210","2018/07/30 20:19:34","新北市三重區文化北路22-2號","121.499111666667","25.0643183333333","6500200","三重區"
"241004","413-TH","2018/07/30 20:19:35","新北市三重區仁政街205號","121.490575","25.0804666666667","6500200","三重區"
"241020","478-VK","2018/07/30 20:19:30","新北市三重區三和路四段20巷51號","121.489798333333","25.0736616666667","6500200","三重區"
"241030","480-VK","2018/07/30 20:19:34","新北市三重區集成路32巷3號","121.488436666667","25.0527233333333","6500200","三重區"
"241014","543-UM","2018/07/30 20:19:33","新北市三重區龍濱路64號","121.502561666667","25.0692883333333","6500200","三重區"
"241023","545-UM","2018/07/30 20:19:34","新北市三重區忠孝路三段99巷21號","121.479456666667","25.0643366666667","6500200","三重區"
"241001","547-UM","2018/07/30 20:19:31","新北市三重區自強路四段3巷45號","121.490586666667","25.07657","6500200","三重區"
"241019","KEA-2593","2018/07/30 20:19:26","新北市三重區忠孝路一段75號","121.490521666667","25.0721366666667","6500200","三重區"
"241006","AAD-863","2018/07/30 20:19:31","新北市三重區中正北路273號","121.475136666667","25.0712033333333","6500200","三重區"
"241012","941-UM","2018/07/30 20:19:28","新北市三重區河邊北街379-1號","121.50173","25.07644","6500200","三重區"
"241029","942-UM","2018/07/30 20:19:33","新北市三重區中正南路129巷29號","121.493218333333","25.0568133333333","6500200","三重區"
"241033","AAC-255","2018/07/30 20:19:36","新北市三重區五谷王北街50巷4號","121.475808333333","25.05145","6500200","三重區"
"235066","003-UY","2018/07/30 20:19:39","新北市中和區南工路105號","121.50727","25.0038833333333","6500300","中和區"
"235039","097-UM","2018/07/30 20:19:34","新北市中和區大勇街27巷16號","121.516713333333","24.9939683333333","6500300","中和區"
"235065","098-UM","2018/07/30 20:19:34","新北市中和區永和路128巷47號","121.497663333333","25.0068366666667","6500300","中和區"
"247010","KEA-2869","2018/07/30 20:19:40","新北市蘆洲區信義路222巷32弄16號","121.4805","25.084615","6501400","蘆洲區"
"235050","4979-A6","2018/07/30 20:19:43","新北市中和區景平路464巷2弄1-4號","121.505875","24.9940066666667","6500300","中和區"
"235069","4980-A6","2018/07/30 20:19:42","新北市中和區圓通路207號","121.496973333333","24.9943933333333","6500300","中和區"
"235059","AAC-215","2018/07/30 20:19:12","新北市中和區圓通路435-7號","121.485733333333","24.9871116666667","6500300","中和區"
"247024","893-R6","2018/07/30 20:19:30","新北市蘆洲區光榮路120巷8弄20號","121.464338333333","25.0877166666667","6501400","蘆洲區"
"247022","500-BY","2018/07/30 20:19:30","新北市蘆洲區民族路568號","121.467253333333","25.0887916666667","6501400","蘆洲區"
"247012","339-TH","2018/07/30 20:19:42","新北市蘆洲區中興街38號","121.481298333333","25.08716","6501400","蘆洲區"
"247004","337-TH","2018/07/30 20:19:38","新北市蘆洲區長安街220巷10號","121.458851666667","25.0847616666667","6501400","蘆洲區"
"247006","336-TH","2018/07/30 20:19:40","新北市蘆洲區九芎街153巷7號","121.465458333333","25.0788483333333","6501400","蘆洲區"
"247018","057-VK","2018/07/30 20:19:40","新北市蘆洲區民族路408巷14號","121.474941666667","25.0920216666667","6501400","蘆洲區"
"247008","056-VK","2018/07/30 20:19:38","新北市蘆洲區集賢路209號","121.483318333333","25.0872666666667","6501400","蘆洲區"
"247016","007-UY","2018/07/30 20:19:37","新北市蘆洲區光華路132巷39號","121.465796666667","25.0837616666667","6501400","蘆洲區"
"247002","002-UY","2018/07/30 20:19:32","新北市蘆洲區環堤大道108號","121.455516666667","25.0865716666667","6501400","蘆洲區"
"247020","001-UY","2018/07/30 20:19:33","新北市蘆洲區仁愛街57號","121.471865","25.093295","6501400","蘆洲區"
"224010","AGQ-8101","2018/07/30 20:19:38","新北市瑞芳區汽車路7-5號","121.845715","25.1099133333333","6501200","瑞芳區"
"222001","KEA-2212","2018/07/30 20:19:39","新北市深坑區北深路三段223號","121.600191666667","25.004005","6501800","深坑區"
"251001","011-UM","2018/07/30 20:19:37","新北市淡水區新市二路四段265號","121.44576","25.1924633333333","6501000","淡水區"
"251013","KEA-2871","2018/07/30 20:19:32","新北市淡水區相公山1號","121.47499","25.2065533333333","6501000","淡水區"
"251016","179-VK","2018/07/30 20:19:37","新北市淡水區淡金路四段660號","121.452588333333","25.2320516666667","6501000","淡水區"
"251014","180-VK","2018/07/30 20:19:32","新北市淡水區石頭厝1號","121.458738333333","25.2355216666667","6501000","淡水區"
"251008","181-VK","2018/07/30 20:19:40","新北市淡水區淡海路180巷18弄1號","121.421241666667","25.1845833333333","6501000","淡水區"
"251015","182-VK","2018/07/30 20:19:27","新北市淡水區興仁路103巷35號","121.449896666667","25.2170883333333","6501000","淡水區"
"251010","413-VK","2018/07/30 20:19:36","新北市淡水區新民街一段134號","121.42752","25.18891","6501000","淡水區"
"251012","441-VK","2018/07/30 20:19:29","新北市淡水區下圭柔山431-1號","121.449958333333","25.2103716666667","6501000","淡水區"
"251006","561-UM","2018/07/30 20:19:36","新北市淡水區北新路169巷2號","121.450366666667","25.1794833333333","6501000","淡水區"
"251002","672-BX","2018/07/30 20:19:40","新北市淡水區中正路216號","121.439581666667","25.170355","6501000","淡水區"
"251003","673-BX","2018/07/30 20:19:34","新北市淡水區中山北路一段229號","121.444478333333","25.1794683333333","6501000","淡水區"
"207004","225-TW","2018/07/30 20:19:29","新北市萬里區北基里仁二街2號","121.682615","25.1756033333333","6502800","萬里區"
"252002","178-VK","2018/07/30 20:19:39","新北市三芝區中正路一段47號","121.503273333333","25.2581233333333","6502100","三芝區"
"252001","292-VK","2018/07/30 20:19:37","新北市三芝區中山路一段35號","121.500676666667","25.2579833333333","6502100","三芝區"
"237006","5529-G3","2018/07/30 20:19:43","新北市三峽區中正路二段41號","121.366715","24.918705","6500900","三峽區"
"237015","649-BX","2018/07/30 20:19:37","新北市三峽區介壽路二段138巷16號","121.395766666667","24.93486","6500900","三峽區"
"237005","AKY-6261","2018/07/30 20:19:32","新北市三峽區三樹路98巷74弄91號","121.385083333333","24.9384566666667","6500900","三峽區"
"236069","105-UM","2018/07/30 20:19:32","新北市土城區中山路74號","121.432768333333","24.9706483333333","6501300","土城區"
"236078","166-UM","2018/07/30 20:19:26","新北市土城區德安街4巷1號","121.422151666667","24.964785","6501300","土城區"
"236030","253-BX","2018/07/30 20:19:28","新北市土城區學成路128巷11號","121.449461666667","24.9900016666667","6501300","土城區"
"236026","269-VK","2018/07/30 20:19:42","新北市土城區裕生路67巷2弄2號","121.44739","24.98459","6501300","土城區"
"236014","270-VK","2018/07/30 20:19:39","新北市土城區廣明街90巷8號","121.45526","24.9943533333333","6501300","土城區"
"236059","912-UM","2018/07/30 20:19:39","新北市土城區大安路101-5號","121.433651666667","24.96856","6501300","土城區"
"242034","AAC-296","2018/07/30 20:19:24","新北市新莊區建中街90巷1弄8號","121.446463333333","25.0370283333333","6500500","新莊區"
"242058","986-R7","2018/07/30 20:19:36","新北市新莊區八德街167號","121.42343","25.0191183333333","6500500","新莊區"
"242053","751-BX","2018/07/30 20:19:24","新北市新莊區民安西路261巷10號","121.426703333333","25.013055","6500500","新莊區"
"242027","705-TV","2018/07/30 20:19:29","新北市新莊區幸福路576號","121.454041666667","25.0493133333333","6500500","新莊區"
"242025","613-BX","2018/07/30 20:18:33","新北市新莊區五工二路62巷3號","121.460723333333","25.0658516666667","6500500","新莊區"
"242029","612-BX","2018/07/30 20:18:25","新北市新莊區中華路二段209號","121.452216666667","25.0529566666667","6500500","新莊區"
"242042","566-BX","2018/07/30 20:19:24","新北市新莊區壽山路73號","121.409536666667","25.0326616666667","6500500","新莊區"
"242046","497-BY","2018/07/30 20:19:38","新北市新莊區中正路新生巷33號","121.417211666667","25.023485","6500500","新莊區"
"242056","440-UM","2018/07/30 20:19:41","新北市新莊區新莊路649巷15弄1號","121.444961666667","25.0316383333333","6500500","新莊區"
"242036","415-TV","2018/07/30 20:19:37","新北市新莊區建安街62巷1弄12號","121.426433333333","25.024615","6500500","新莊區"
"242007","413-TV","2018/07/30 20:19:27","新北市新莊區福壽街124巷34弄15號","121.459376666667","25.0506033333333","6500500","新莊區"
"242044","400-BY","2018/07/30 20:19:39","新北市新莊區中正路新建巷30號","121.414295","25.0217283333333","6500500","新莊區"
"242023","362-BY","2018/07/30 20:19:20","新北市新莊區化成路846號","121.464856666667","25.0604733333333","6500500","新莊區"
"242060","353-BY","2018/07/30 20:19:24","新北市新莊區瓊林路206-6號","121.435683333333","25.022115","6500500","新莊區"
"242009","132-UY","2018/07/30 20:19:21","新北市新莊區昌平街1號","121.454921666667","25.051275","6500500","新莊區"
"242039","133-UY","2018/07/30 20:19:34","新北市新莊區成功街56號","121.424483333333","25.0197866666667","6500500","新莊區"
"242031","135-UY","2018/07/30 20:19:40","新北市新莊區三和路48號","121.437835","25.0382566666667","6500500","新莊區"
"242011","173-VK","2018/07/30 20:19:38","新北市新莊區中信街12號","121.451168333333","25.0508383333333","6500500","新莊區"
"242017","175-VK","2018/07/30 20:19:35","新北市新莊區中港一街138號","121.448065","25.0451433333333","6500500","新莊區"
"242004","176-VK","2018/07/30 20:19:36","新北市新莊區頭前路30號","121.467628333333","25.05246","6500500","新莊區"
"242048","347-TH","2018/07/30 20:19:40","新北市新莊區龍安路218號","121.420176666667","25.019855","6500500","新莊區"
"242002","349-TH","2018/07/30 20:19:33","新北市三重區重新路五段623號","121.467943333333","25.0441216666667","6500500","新莊區"
"242019","350-TH","2018/07/30 20:19:37","新北市新莊區銘德街83號","121.45624","25.0434933333333","6500500","新莊區"
"242013","351-TH","2018/07/30 20:19:45","新北市新莊區中和街155巷24弄16號","121.446671666667","25.050315","6500500","新莊區"
"221008","489-VK","2018/07/30 20:19:41","新北市汐止區康寧街397號","121.62947","25.067855","6501100","汐止區"
"221036","130-UY","2018/07/30 20:19:28","新北市汐止區福安街61巷14號","121.664848333333","25.0637583333333","6501100","汐止區"
"221015","131-UY","2018/07/30 20:19:29","新北市汐止區建成路142巷19弄11號","121.661973333333","25.0738833333333","6501100","汐止區"
"221010","269-BY","2018/07/30 20:19:40","新北市汐止區八連路二段326號","121.62951","25.09988","6501100","汐止區"
"221012","278-VK","2018/07/30 20:19:28","新北市汐止區保新街158號","121.689481666667","25.068195","6501100","汐止區"
"221023","279-VK","2018/07/30 20:19:33","新北市汐止區明峰街115號","121.631148333333","25.0710766666667","6501100","汐止區"
"221032","280-BY","2018/07/30 20:19:26","新北市汐止區弘道街53巷2號","121.618611666667","25.0483783333333","6501100","汐止區"
"221027","281-BY","2018/07/30 20:19:32","新北市汐止區水源路一段3號","121.657185","25.0672216666667","6501100","汐止區"
"221029","298-VK","2018/07/30 20:19:42","新北市汐止區樟樹一路99巷7弄1號","121.641235","25.0635783333333","6501100","汐止區"
"221021","299-VK","2018/07/30 20:19:31","新北市汐止區水源路一段291巷1號","121.654323333333","25.0584466666667","6501100","汐止區"
"221031","353-TW","2018/07/30 20:19:39","新北市汐止區中興路150巷13號","121.632933333333","25.0649783333333","6501100","汐止區"
"221002","129-UY","2018/07/30 20:19:36","新北市汐止區福德三路95號","121.636023333333","25.0689716666667","6501100","汐止區"
"221035","622-UM","2018/07/30 20:19:32","新北市汐止區長江街101-5號","121.658701666667","25.0732083333333","6501100","汐止區"
"221025","623-UM","2018/07/30 20:19:25","新北市汐止區水源路二段32號","121.654796666667","25.0572866666667","6501100","汐止區"
"221038","646-BX","2018/07/30 20:19:23","新北市汐止區忠孝東路462巷22號","121.666598333333","25.07368","6501100","汐止區"
"221018","753-BX","2018/07/30 20:19:33","新北市汐止區茄安路12號","121.673055","25.0678033333333","6501100","汐止區"
"220101","245-BX","2018/07/30 20:19:44","新北市板橋區文聖街211號","121.48024","25.0260833333333","6500100","板橋區"
"220083","286-VK","2018/07/30 20:19:36","新北市板橋區大觀路一段38巷156弄154號","121.44386","25.008825","6500100","板橋區"
"220081","287-VK","2018/07/30 20:19:44","新北市板橋區僑中一街80巷5弄6號","121.447576666667","25.0125366666667","6500100","板橋區"
"220061","293-UM","2018/07/30 20:19:29","新北市板橋區四川路一段286巷26號","121.457861666667","25.00132","6500100","板橋區"
"242015","281-VK","2018/07/30 20:19:37","新北市新莊區永樂街239巷1號","121.446216666667","25.04432","6500500","新莊區"
"242021","280-VK","2018/07/30 20:19:25","新北市新莊區和興街49號","121.446525","25.0406966666667","6500500","新莊區"
"220088","491-VK","2018/07/30 20:19:31","新北市五股區成泰路三段318-1號","121.450321666667","25.0964966666667","6500100","板橋區"
"220103","561-BX","2018/07/30 20:19:32","新北市板橋區新海路97號","121.461378333333","25.022385","6500100","板橋區"
"220102","KEA-2699","2018/07/30 20:19:24","新北市板橋區文聖街89巷2號","121.477525","25.029895","6500100","板橋區"
"220055","827-TW","2018/07/30 20:19:36","新北市板橋區仁愛路23號","121.45896","24.99947","6500100","板橋區"
"220089","833-TW","2018/07/30 20:19:26","新北市板橋區四維路133號","121.465065","25.025185","6500100","板橋區"
"220097","AAC-210","2018/07/30 20:19:42","新北市板橋區光正街42號","121.461848333333","25.017465","6500100","板橋區"
"235068","KEA-2873","2018/07/30 20:19:35","新北市中和區勝利路35巷1弄18號","121.499665","25.007635","6500300","中和區"
