"lineid","car","time","location","longitude","latitude","cityid","cityname"
"234081","298-R6","2018/07/30 20:29:44","新北市永和區國中路132巷5號","121.523635","25.007145","6500400","永和區"
"234038","336-UY","2018/07/30 20:29:38","新北市永和區成功路一段95號","121.526898333333","25.0027066666667","6500400","永和區"
"234064","337-UY","2018/07/30 20:29:27","新北市永和區中正路419號","121.517193333333","25.0049966666667","6500400","永和區"
"234086","338-UY","2018/07/30 20:29:38","新北市永和區光復街13號","121.516463333333","25.017075","6500400","永和區"
"234070","552-UM","2018/07/30 20:29:25","新北市永和區永亨路6-1號","121.519548333333","25.00568","6500400","永和區"
"234030","746-BX","2018/07/30 20:29:35","新北市永和區民族街81巷3號","121.518841666667","24.9966366666667","6500400","永和區"
"234054","KEA-2590","2018/07/30 20:29:40","新北市永和區環河東路一段78號","121.519525","25.0164933333333","6500400","永和區"
"234061","AAD-866","2018/07/30 20:29:38","新北市永和區安樂路194巷39弄8號","121.516341666667","25.0014866666667","6500400","永和區"
"234042","862-TW","2018/07/30 20:29:23","新北市永和區安樂路248號","121.514706666667","25.0033","6500400","永和區"
"234050","863-TW","2018/07/30 20:29:40","新北市永和區新生路161號","121.507195","25.014715","6500400","永和區"
"234026","9371-KE","2018/07/30 20:29:31","新北市永和區保生路55號","121.504558333333","25.0107633333333","6500400","永和區"
"249005","172-UM","2018/07/30 20:29:41","新北市八里區中山路三段307號","121.3798","25.1380516666667","6502300","八里區"
"249001","173-UM","2018/07/30 20:29:31","新北市八里區下罟子5-11號","121.386871666667","25.14229","6502300","八里區"
"249002","305-UY","2018/07/30 20:29:31","新北市八里區龍米路二段125巷13號","121.445948333333","25.1454333333333","6502300","八里區"
"249003","593-UM","2018/07/30 20:29:30","新北市八里區華峰一街20號","121.399153333333","25.1468166666667","6502300","八里區"
"249004","759-BX","2018/07/30 20:29:33","新北市八里區中山路一段129巷29號","121.414025","25.15853","6502300","八里區"
"248002","678-BX","2018/07/30 20:29:21","新北市五股區新五路二段391號","121.444216666667","25.0891833333333","6501500","五股區"
"234023","9380-KE","2018/07/30 20:29:39","新北市永和區博愛街24巷1號","121.518416666667","25.0158183333333","6500400","永和區"
"234074","AAC-211","2018/07/30 20:29:29","新北市永和區豫溪街217巷25號","121.524398333333","25.0101316666667","6500400","永和區"
"234067","AAC-212","2018/07/30 20:29:28","新北市永和區保平路292巷46弄2號","121.50745","25.00533","6500400","永和區"
"234003","AAC-295","2018/07/30 20:29:23","新北市永和區中正路529號","121.51687","25.0077016666667","6500400","永和區"
"243013","AAD-798","2018/07/30 20:29:36","新北市泰山區明志路三段31號","121.424861666667","25.0429816666667","6501600","泰山區"
"243009","297-R6","2018/07/30 20:29:30","新北市泰山區忠孝街40巷13號","121.42841","25.065085","6501600","泰山區"
"243016","380-SR","2018/07/30 20:29:40","新北市泰山區明志路二段313號","121.426551666667","25.046265","6501600","泰山區"
"243015","421-VK","2018/07/30 20:29:33","新北市泰山區泰林路二段92號","121.434888333333","25.0588116666667","6501600","泰山區"
"243011","KEA-2215","2018/07/30 20:29:26","新北市泰山區新北大道六段369號","121.422376666667","25.0328333333333","6501600","泰山區"
"243010","KEA-2216","2018/07/30 20:29:32","新北市泰山區新生路31巷7號","121.427596666667","25.0458216666667","6501600","泰山區"
"243012","646-TV","2018/07/30 20:29:28","新北市泰山區忠孝街21號","121.427591666667","25.065345","6501600","泰山區"
"243014","680-BX","2018/07/30 20:29:33","新北市泰山區泰林路二段517號","121.424033333333","25.063825","6501600","泰山區"
"222003","436-BY","2018/07/30 20:29:39","新北市深坑區深坑街27號","121.615998333333","25.0023216666667","6501800","深坑區"
"222002","659-BX","2018/07/30 20:29:40","新北市深坑區萬福路16巷36-1號","121.610768333333","25.00791","6501800","深坑區"
"231041","002-UM","2018/07/30 20:29:27","新北市新店區中正路501-2號","121.533708333333","24.98372","6500600","新店區"
"231059","046-UY","2018/07/30 20:29:36","新北市新店區安康路二段217號","121.508798333333","24.958775","6500600","新店區"
"231040","047-UY","2018/07/30 20:29:43","新北市新店區中正路346號","121.536373333333","24.9752266666667","6500600","新店區"
"231044","106-UY","2018/07/30 20:29:40","新北市新店區建國路151號","121.538856666667","24.9788466666667","6500600","新店區"
"231052","108-UY","2018/07/30 20:29:28","新北市新店區松林路38號","121.54632","24.9102333333333","6500600","新店區"
"231047","187-VK","2018/07/30 20:29:28","新北市新店區寶慶街58巷21-1號","121.542018333333","24.9873183333333","6500600","新店區"
"231054","KEA-2219","2018/07/30 20:29:24","新北市新店區檳榔路109號","121.54453","24.9616483333333","6500600","新店區"
"231057","256-BX","2018/07/30 20:29:37","新北市新店區花園五路二段3號","121.553625","24.9342666666667","6500600","新店區"
"231042","268-BY","2018/07/30 20:29:26","新北市新店區寶橋路160號","121.54889","24.9772583333333","6500600","新店區"
"231051","278-BY","2018/07/30 20:29:30","新北市新店區中央七街45號","121.528738333333","24.9759066666667","6500600","新店區"
"231050","AAD-862","2018/07/30 20:29:37","新北市新店區建興街9巷11號","121.539906666667","24.97627","6500600","新店區"
"231058","3713-VJ","2018/07/30 20:29:36","新北市新店區平等街48巷17號","121.53533","24.9734566666667","6500600","新店區"
"231066","4716-K9","2018/07/30 20:29:28","新北市新店區安興路90號","121.514768333333","24.97615","6500600","新店區"
"231056","4715-K9","2018/07/30 20:29:44","新北市新店區中正路487-3號","121.532931666667","24.98177","6500600","新店區"
"231067","4772-VM","2018/07/30 20:29:25","新北市新店區安華路28-1號","121.519773333333","24.9609066666667","6500600","新店區"
"231065","512-UM","2018/07/30 20:29:41","新北市新店區安祥路102巷42弄43號","121.485556666667","24.963355","6500600","新店區"
"231049","513-UM","2018/07/30 20:29:42","新北市新店區華潭街6號","121.529676666667","24.9521516666667","6500600","新店區"
"231063","616-UM","2018/07/30 20:29:29","新北市新店區玫瑰路4-1號","121.49355","24.95142","6500600","新店區"
"231045","617-UM","2018/07/30 20:29:27","新北市新店區新坡一街2號","121.548203333333","24.9605116666667","6500600","新店區"
"231061","619-UM","2018/07/30 20:29:40","新北市新店區新和街35號","121.519245","24.9849216666667","6500600","新店區"
"231068","718-UY","2018/07/30 20:29:26","新北市新店區民權路13號","121.542363333333","24.9828216666667","6500600","新店區"
"231064","719-UM","2018/07/30 20:29:27","新北市新店區永安街95號","121.520336666667","24.9861716666667","6500600","新店區"
"231062","720-UM","2018/07/30 20:29:40","新北市新店區安泰路60巷55弄131號","121.484298333333","24.9468716666667","6500600","新店區"
"231060","897-TW","2018/07/30 20:29:37","新北市新店區錦秀路32號","121.47921","24.94398","6500600","新店區"
"231043","899-TW","2018/07/30 20:29:24","新北市新店區明德路69巷28號","121.540241666667","24.9775866666667","6500600","新店區"
"241011","013-R5","2018/07/30 20:29:28","新北市三重區仁愛街63號","121.496245","25.0725233333333","6500200","三重區"
"241028","022-UY","2018/07/30 20:29:23","新北市三重區大同南路75號","121.496013333333","25.0595816666667","6500200","三重區"
"241008","059-VK","2018/07/30 20:29:34","新北市三重區車路頭街100巷5號","121.484206666667","25.0745783333333","6500200","三重區"
"241031","061-VK","2018/07/30 20:29:28","新北市三重區三寧街15號","121.489398333333","25.0597866666667","6500200","三重區"
"241015","062-VK","2018/07/30 20:29:41","新北市三重區文化北路90號","121.498716666667","25.0657833333333","6500200","三重區"
"241017","063-VK","2018/07/30 20:29:30","新北市三重區自強路一段199號","121.491731666667","25.068365","6500200","三重區"
"241024","065-VK","2018/07/30 20:29:26","新北市三重區忠孝路三段15巷20號","121.480893333333","25.0676483333333","6500200","三重區"
"241026","066-VK","2018/07/30 20:29:23","新北市三重區環河南路30號","121.50344","25.062015","6500200","三重區"
"241002","090-VK","2018/07/30 20:29:36","新北市三重區仁義街211巷9號","121.497243333333","25.0820033333333","6500200","三重區"
"241003","091-VK","2018/07/30 20:29:34","新北市三重區富華街194號","121.493115","25.084925","6500200","三重區"
"241022","742-BX","2018/07/30 20:29:25","新北市三重區重陽路二段19巷2號","121.487348333333","25.06246","6500200","三重區"
"241005","262-UM","2018/07/30 20:29:29","新北市三重區碧華街308號","121.489921666667","25.0835833333333","6500200","三重區"
"241016","266-UM","2018/07/30 20:29:25","新北市三重區正義北路110號","121.496943333333","25.0653533333333","6500200","三重區"
"241009","267-UM","2018/07/30 20:29:26","新北市三重區永福街58巷1弄5號","121.481188333333","25.0778683333333","6500200","三重區"
"241018","268-UM","2018/07/30 20:29:25","新北市三重區正義北路232號","121.495878333333","25.067775","6500200","三重區"
"241032","269-UM","2018/07/30 20:29:26","新北市三重區重陽路一段120巷35號","121.48513","25.060155","6500200","三重區"
"241013","270-UM","2018/07/30 20:29:26","新北市三重區溪尾街5巷21號","121.492585","25.0745383333333","6500200","三重區"
"241025","271-UM","2018/07/30 20:29:37","新北市三重區頂崁街210巷27號","121.475773333333","25.0681166666667","6500200","三重區"
"241007","398-BY","2018/07/30 20:29:38","新北市三重區自強路四段46號","121.48951","25.0776216666667","6500200","三重區"
"241035","KEA-2210","2018/07/30 20:29:34","新北市三重區正義北路68號","121.497223333333","25.0643033333333","6500200","三重區"
"241004","413-TH","2018/07/30 20:29:35","新北市三重區溪尾街182號","121.488421666667","25.08078","6500200","三重區"
"241020","478-VK","2018/07/30 20:29:30","新北市三重區明德街37號","121.492468333333","25.0722916666667","6500200","三重區"
"241030","480-VK","2018/07/30 20:29:34","新北市三重區成功路62號","121.488548333333","25.05091","6500200","三重區"
"241014","543-UM","2018/07/30 20:29:32","新北市三重區長壽街120巷10-1號","121.502135","25.06927","6500200","三重區"
"241023","545-UM","2018/07/30 20:29:34","新北市三重區自由街17巷1號","121.479913333333","25.0666983333333","6500200","三重區"
"241001","547-UM","2018/07/30 20:29:31","新北市三重區福隆路35號","121.490091666667","25.0772866666667","6500200","三重區"
"241019","KEA-2593","2018/07/30 20:29:26","新北市三重區重陽路四段83號","121.492726666667","25.0709516666667","6500200","三重區"
"241006","AAD-863","2018/07/30 20:29:31","新北市三重區車路頭街135-1號","121.48425","25.076165","6500200","三重區"
"241012","941-UM","2018/07/30 20:29:28","新北市三重區龍濱路261號","121.501511666667","25.0728933333333","6500200","三重區"
"241029","942-UM","2018/07/30 20:29:32","新北市三重區集美街223號","121.4919","25.0548883333333","6500200","三重區"
"241033","AAC-255","2018/07/30 20:29:36","新北市三重區五谷王北街80巷36號","121.475271666667","25.052635","6500200","三重區"
"235066","003-UY","2018/07/30 20:29:39","新北市中和區光華街59-1號","121.506368333333","25.0031333333333","6500300","中和區"
"235065","098-UM","2018/07/30 20:29:34","新北市中和區景平路754號","121.496601666667","25.0046333333333","6500300","中和區"
"247010","KEA-2869","2018/07/30 20:29:40","新北市蘆洲區信義路222巷51號","121.48066","25.0855383333333","6501400","蘆洲區"
"235050","4979-A6","2018/07/30 20:29:23","新北市中和區景新街160巷5弄1號","121.505383333333","24.997025","6500300","中和區"
"235069","4980-A6","2018/07/30 20:29:21","新北市中和區中正路432巷5號","121.490836666667","24.99558","6500300","中和區"
"235059","AAC-215","2018/07/30 20:29:32","新北市中和區員山路32號","121.481141666667","24.9876833333333","6500300","中和區"
"247024","893-R6","2018/07/30 20:29:30","新北市蘆洲區光復路70巷16號","121.464638333333","25.0851366666667","6501400","蘆洲區"
"247014","546-UM","2018/07/30 20:29:31","新北市蘆洲區中山二路159號","121.471408333333","25.08132","6501400","蘆洲區"
"247022","500-BY","2018/07/30 20:29:31","新北市蘆洲區民族路451號","121.467351666667","25.0887283333333","6501400","蘆洲區"
"247012","339-TH","2018/07/30 20:29:42","新北市蘆洲區復興路245號","121.480473333333","25.0898466666667","6501400","蘆洲區"
"247004","337-TH","2018/07/30 20:29:38","新北市蘆洲區永康街65號","121.456248333333","25.0848666666667","6501400","蘆洲區"
"247006","336-TH","2018/07/30 20:29:40","新北市蘆洲區九芎街88號","121.465873333333","25.079925","6501400","蘆洲區"
"247018","057-VK","2018/07/30 20:29:40","新北市蘆洲區民族路257巷17號","121.47507","25.0901683333333","6501400","蘆洲區"
"247008","056-VK","2018/07/30 20:29:38","新北市蘆洲區永安北路二段70-7號","121.483458333333","25.0841933333333","6501400","蘆洲區"
"247016","007-UY","2018/07/30 20:29:37","新北市蘆洲區光華路160號","121.465626666667","25.0821816666667","6501400","蘆洲區"
"247002","002-UY","2018/07/30 20:29:32","新北市蘆洲區環堤大道116號","121.455728333333","25.0870483333333","6501400","蘆洲區"
"247020","001-UY","2018/07/30 20:29:33","新北市蘆洲區仁愛街88號","121.470766666667","25.0945183333333","6501400","蘆洲區"
"224010","AGQ-8101","2018/07/30 20:29:38","新北市瑞芳區輕便路40號","121.846188333333","25.111265","6501200","瑞芳區"
"222001","KEA-2212","2018/07/30 20:29:39","新北市深坑區北深路三段329號","121.597215","25.00506","6501800","深坑區"
"251001","011-UM","2018/07/30 20:29:37","新北市淡水區淡金路一段571號","121.452631666667","25.180765","6501000","淡水區"
"251013","KEA-2871","2018/07/30 20:29:32","新北市淡水區奎柔山路460號","121.46395","25.2047133333333","6501000","淡水區"
"251016","179-VK","2018/07/30 20:29:37","新北市淡水區新埔子11-7號","121.447438333333","25.2284933333333","6501000","淡水區"
"251014","180-VK","2018/07/30 20:29:32","新北市淡水區石頭厝2-3號","121.459338333333","25.23632","6501000","淡水區"
"251008","181-VK","2018/07/30 20:29:40","新北市淡水區淡海路189巷10號","121.41966","25.184485","6501000","淡水區"
"251015","182-VK","2018/07/30 20:29:27","新北市淡水區淡金路四段542巷17號","121.452755","25.2270633333333","6501000","淡水區"
"251010","413-VK","2018/07/30 20:29:36","新北市淡水區沙崙路181巷15號","121.423998333333","25.1843666666667","6501000","淡水區"
"251012","441-VK","2018/07/30 20:29:29","新北市淡水區興仁路98號","121.451901666667","25.2179216666667","6501000","淡水區"
"251006","561-UM","2018/07/30 20:29:36","新北市淡水區商工路300號","121.461061666667","25.18587","6501000","淡水區"
"251002","672-BX","2018/07/30 20:29:20","新北市淡水區中正路21號","121.442641666667","25.169605","6501000","淡水區"
"251003","673-BX","2018/07/30 20:29:35","新北市淡水區新生街29號","121.439555","25.1750533333333","6501000","淡水區"
"252002","178-VK","2018/07/30 20:29:39","新北市三芝區淡金路二段47-2號","121.503701666667","25.2604916666667","6502100","三芝區"
"252001","292-VK","2018/07/30 20:29:37","新北市三芝區中山路一段36號","121.500853333333","25.257495","6502100","三芝區"
"237005","AKY-6261","2018/07/30 20:29:32","新北市三峽區三樹路98巷91號","121.382005","24.9399333333333","6500900","三峽區"
"236014","270-VK","2018/07/30 20:29:37","新北市土城區廣明街61號","121.455041666667","24.9936133333333","6501300","土城區"
"242034","AAC-296","2018/07/30 20:29:29","新北市新莊區中正路287號","121.44877","25.035285","6500500","新莊區"
"242058","986-R7","2018/07/30 20:29:36","新北市新莊區龍安路278巷5號","121.422175","25.018925","6500500","新莊區"
"242053","751-BX","2018/07/30 20:29:44","新北市新莊區西盛街362巷14號","121.427315","25.01376","6500500","新莊區"
"242027","705-TV","2018/07/30 20:29:29","新北市新莊區幸福路14號","121.459115","25.0495366666667","6500500","新莊區"
"242025","613-BX","2018/07/30 20:29:33","新北市新莊區化成路1008號","121.46568","25.0660733333333","6500500","新莊區"
"242029","612-BX","2018/07/30 20:29:33","新北市新莊區昌平街19號","121.454351666667","25.051365","6500500","新莊區"
"242042","566-BX","2018/07/30 20:29:24","新北市新莊區天祥街54巷1弄2號","121.416683333333","25.0292783333333","6500500","新莊區"
"242046","497-BY","2018/07/30 20:29:32","新北市新莊區中正路新雅巷2弄15號","121.417801666667","25.0248716666667","6500500","新莊區"
"242050","441-UM","2018/07/30 20:29:40","新北市新莊區民安西路265-2號","121.426313333333","25.0129283333333","6500500","新莊區"
"242056","440-UM","2018/07/30 20:29:30","新北市新莊區瓊泰路126號","121.443256666667","25.0317016666667","6500500","新莊區"
"242036","415-TV","2018/07/30 20:29:37","新北市新莊區後港一路76巷12弄1號","121.427275","25.0258916666667","6500500","新莊區"
"242007","413-TV","2018/07/30 20:29:27","新北市新莊區思源路331號","121.459781666667","25.0496833333333","6500500","新莊區"
"242044","400-BY","2018/07/30 20:29:39","新北市新莊區龍安路30號","121.414986666667","25.0220916666667","6500500","新莊區"
"242023","362-BY","2018/07/30 20:29:40","新北市新莊區化成路620號","121.466163333333","25.0549083333333","6500500","新莊區"
"242060","353-BY","2018/07/30 20:29:37","新北市新莊區民安東路139巷13號","121.431138333333","25.0215566666667","6500500","新莊區"
"242009","132-UY","2018/07/30 20:29:41","新北市新莊區昌盛街81巷4弄2號","121.45553","25.05049","6500500","新莊區"
"242039","133-UY","2018/07/30 20:29:35","新北市新莊區民安路234號","121.426228333333","25.0222283333333","6500500","新莊區"
"242031","135-UY","2018/07/30 20:29:44","新北市新莊區三和路6號","121.440368333333","25.03454","6500500","新莊區"
"242011","173-VK","2018/07/30 20:29:30","新北市新莊區中義街22號","121.450643333333","25.0513283333333","6500500","新莊區"
"242017","175-VK","2018/07/30 20:29:35","新北市新莊區中港三街11號","121.451106666667","25.046485","6500500","新莊區"
"242004","176-VK","2018/07/30 20:29:36","新北市新莊區化成路766號","121.465273333333","25.05881","6500500","新莊區"
"242048","347-TH","2018/07/30 20:29:27","新北市新莊區福營路591-1號","121.4195","25.0227383333333","6500500","新莊區"
"242002","349-TH","2018/07/30 20:29:33","新北市新莊區中正路48號","121.464011666667","25.041115","6500500","新莊區"
"242019","350-TH","2018/07/30 20:29:37","新北市新莊區民樂街74號","121.457958333333","25.0435316666667","6500500","新莊區"
"242013","351-TH","2018/07/30 20:29:24","新北市新莊區中平路302巷6號","121.445418333333","25.05167","6500500","新莊區"
"221008","489-VK","2018/07/30 20:29:39","新北市汐止區康寧街706號","121.637663333333","25.0723366666667","6501100","汐止區"
"221036","130-UY","2018/07/30 20:29:42","新北市汐止區仁愛路151巷30號","121.663298333333","25.0656066666667","6501100","汐止區"
"221015","131-UY","2018/07/30 20:29:29","新北市汐止區建成路160巷16號","121.661925","25.0740066666667","6501100","汐止區"
"221010","269-BY","2018/07/30 20:29:40","新北市汐止區八連路一段530巷2號","121.640183333333","25.0913633333333","6501100","汐止區"
"221012","278-VK","2018/07/30 20:29:28","新北市汐止區大同路408-1號","121.682173333333","25.0720216666667","6501100","汐止區"
"221023","279-VK","2018/07/30 20:29:33","新北市汐止區湖東街5巷46-1號","121.635331666667","25.07395","6501100","汐止區"
"221032","280-BY","2018/07/30 20:29:33","新北市汐止區弘道街53巷6號","121.618678333333","25.0486516666667","6501100","汐止區"
"221027","281-BY","2018/07/30 20:29:41","新北市汐止區中正路201號","121.658533333333","25.0689533333333","6501100","汐止區"
"221029","298-VK","2018/07/30 20:29:42","新北市汐止區樟樹一路129巷32號","121.640548333333","25.0651433333333","6501100","汐止區"
"221021","299-VK","2018/07/30 20:29:31","新北市汐止區水源路一段291巷1號","121.654301666667","25.0584516666667","6501100","汐止區"
"221031","353-TW","2018/07/30 20:29:39","新北市汐止區福德一路237號","121.634241666667","25.0647166666667","6501100","汐止區"
"221002","129-UY","2018/07/30 20:29:42","新北市汐止區福德二路21-1號","121.635293333333","25.0682833333333","6501100","汐止區"
"221035","622-UM","2018/07/30 20:29:32","新北市汐止區長江街101-5號","121.658695","25.07321","6501100","汐止區"
"221025","623-UM","2018/07/30 20:29:24","新北市汐止區水源路二段90號","121.656513333333","25.056075","6501100","汐止區"
"221038","646-BX","2018/07/30 20:29:43","新北市汐止區忠孝東路200-5號","121.661643333333","25.066095","6501100","汐止區"
"221018","753-BX","2018/07/30 20:29:33","新北市汐止區茄苳路225巷13號","121.671458333333","25.06923","6501100","汐止區"
"220083","286-VK","2018/07/30 20:29:43","新北市板橋區僑中二街102巷51號","121.444213333333","25.0084816666667","6500100","板橋區"
"242015","281-VK","2018/07/30 20:29:37","新北市新莊區中平路82巷20號","121.44568","25.0448966666667","6500500","新莊區"
"242021","280-VK","2018/07/30 20:29:25","新北市新莊區公園路40號","121.448831666667","25.0393766666667","6500500","新莊區"
"220103","561-BX","2018/07/30 20:29:32","新北市板橋區漢生東路33巷40號","121.46613","25.0176016666667","6500100","板橋區"
"220102","KEA-2699","2018/07/30 20:29:44","新北市板橋區文化路一段180號","121.465706666667","25.019525","6500100","板橋區"
"220089","833-TW","2018/07/30 20:29:41","新北市板橋區四維路351號","121.462175","25.02995","6500100","板橋區"
