"lineid","car","time","location","longitude","latitude","cityid","cityname"
"231059","046-UY","2018/07/30 21:09:36","新北市新店區僑義路25號","121.500423333333","24.9509116666667","6500600","新店區"
"231040","047-UY","2018/07/30 21:09:38","新北市新店區北新路一段351號","121.541955","24.96945","6500600","新店區"
"231052","108-UY","2018/07/30 21:09:08","新北市新店區柴埕路100-2號","121.503013333333","24.9593333333333","6500600","新店區"
"231047","187-VK","2018/07/30 21:09:38","新北市新店區中興路三段156號","121.544553333333","24.9806883333333","6500600","新店區"
"231054","KEA-2219","2018/07/30 21:09:44","新北市新店區大新街7巷26號","121.544066666667","24.967865","6500600","新店區"
"231042","268-BY","2018/07/30 21:09:25","新北市新店區寶興路60巷3號","121.549851666667","24.9718116666667","6500600","新店區"
"231051","278-BY","2018/07/30 21:09:30","新北市新店區中正路700巷26號","121.535415","24.9910083333333","6500600","新店區"
"231050","AAD-862","2018/07/30 21:09:37","新北市新店區中華路83巷2弄2號","121.538986666667","24.9685266666667","6500600","新店區"
"231066","4716-K9","2018/07/30 21:09:28","新北市新店區薏仁坑路自強巷1號","121.496795","24.9578833333333","6500600","新店區"
"231067","4772-VM","2018/07/30 21:09:46","新北市新店區安康路二段316號","121.505178333333","24.9581066666667","6500600","新店區"
"231065","512-UM","2018/07/30 21:09:41","新北市新店區安祥路69巷41弄12號","121.482158333333","24.9604016666667","6500600","新店區"
"231063","616-UM","2018/07/30 21:09:29","新北市新店區玫瑰路66巷1號","121.495921666667","24.9452816666667","6500600","新店區"
"231061","619-UM","2018/07/30 21:09:40","新北市新店區永安街1號","121.516695","24.98599","6500600","新店區"
"231068","718-UY","2018/07/30 21:09:06","新北市新店區檳榔路174號","121.544096666667","24.9619066666667","6500600","新店區"
"231062","720-UM","2018/07/30 21:09:39","新北市新店區雙城路90號","121.492186666667","24.9485866666667","6500600","新店區"
"231060","897-TW","2018/07/30 21:09:37","新北市新店區薏仁坑路自強巷6號","121.496481666667","24.95831","6500600","新店區"
"241011","013-R5","2018/07/30 21:09:44","新北市三重區龍濱路120-2號","121.501903333333","25.07106","6500200","三重區"
"241028","022-UY","2018/07/30 21:09:42","新北市三重區正義南路58號","121.498441666667","25.060665","6500200","三重區"
"241008","059-VK","2018/07/30 21:09:34","新北市三重區自強路一段58號","121.497425","25.06682","6500200","三重區"
"241031","061-VK","2018/07/30 21:09:28","新北市三重區重新路五段322號","121.477763333333","25.04848","6500200","三重區"
"241015","062-VK","2018/07/30 21:09:41","新北市三重區長元街100-2號","121.502888333333","25.0666466666667","6500200","三重區"
"241017","063-VK","2018/07/30 21:09:30","新北市三重區國隆路30號","121.492276666667","25.0644066666667","6500200","三重區"
"241024","065-VK","2018/07/30 21:09:26","新北市三重區大勇街82巷15弄30號","121.481258333333","25.0719616666667","6500200","三重區"
"241026","066-VK","2018/07/30 21:09:43","新北市三重區文化南路38-2號","121.500326666667","25.06088","6500200","三重區"
"241002","090-VK","2018/07/30 21:09:36","新北市三重區五華街20號","121.49477","25.0803383333333","6500200","三重區"
"241003","091-VK","2018/07/30 21:09:34","新北市三重區仁義街337-1號","121.495005","25.0847266666667","6500200","三重區"
"241022","742-BX","2018/07/30 21:09:45","新北市三重區重陽路二段34巷36號","121.485875","25.0636666666667","6500200","三重區"
"241005","262-UM","2018/07/30 21:09:29","新北市三重區三信路182號","121.488068333333","25.08616","6500200","三重區"
"241016","266-UM","2018/07/30 21:09:25","新北市三重區信義西街138號","121.49569","25.0643316666667","6500200","三重區"
"241009","267-UM","2018/07/30 21:09:26","新北市三重區忠孝路二段122號","121.483061666667","25.0688066666667","6500200","三重區"
"241018","268-UM","2018/07/30 21:09:25","新北市三重區六張街39號","121.4943","25.0705766666667","6500200","三重區"
"241032","269-UM","2018/07/30 21:09:46","新北市三重區新北大道二段65號","121.46937","25.0616283333333","6500200","三重區"
"241013","270-UM","2018/07/30 21:09:26","新北市三重區仁愛街125巷10號","121.496575","25.0756383333333","6500200","三重區"
"241025","271-UM","2018/07/30 21:09:37","新北市三重區中正北路208巷8號","121.482346666667","25.06694","6500200","三重區"
"241007","398-BY","2018/07/30 21:09:38","新北市三重區三和路四段145巷85號","121.486418333333","25.0787533333333","6500200","三重區"
"241004","413-TH","2018/07/30 21:09:35","新北市三重區仁愛街417號","121.490661666667","25.081395","6500200","三重區"
"241020","478-VK","2018/07/30 21:09:29","新北市三重區忠孝路二段31號","121.485995","25.0711233333333","6500200","三重區"
"241030","480-VK","2018/07/30 21:09:34","新北市三重區五谷王北街20巷15弄1號","121.475061666667","25.0485233333333","6500200","三重區"
"241014","543-UM","2018/07/30 21:09:32","新北市三重區長安街82-1號","121.50139","25.067665","6500200","三重區"
"241023","545-UM","2018/07/30 21:09:34","新北市三重區洛陽街45巷20號","121.48235","25.06387","6500200","三重區"
"241001","547-UM","2018/07/30 21:09:31","新北市三重區溪尾街54號","121.490565","25.0774383333333","6500200","三重區"
"241019","KEA-2593","2018/07/30 21:09:46","新北市三重區自強路二段74巷21號","121.488015","25.0698183333333","6500200","三重區"
"241006","AAD-863","2018/07/30 21:09:31","新北市三重區民生街76號","121.490246666667","25.06465","6500200","三重區"
"241012","941-UM","2018/07/30 21:09:27","新北市三重區仁信街3號","121.501728333333","25.0757516666667","6500200","三重區"
"241029","942-UM","2018/07/30 21:09:32","新北市三重區正義南路111號","121.498201666667","25.058555","6500200","三重區"
"241033","AAC-255","2018/07/30 21:09:36","新北市三重區重光街120-1號","121.46633","25.0648133333333","6500200","三重區"
"247010","KEA-2869","2018/07/30 21:09:22","新北市蘆洲區鷺江街38號","121.477285","25.0830233333333","6501400","蘆洲區"
"247024","893-R6","2018/07/30 21:09:30","新北市蘆洲區長興路50巷1號","121.46377","25.0837916666667","6501400","蘆洲區"
"247014","546-UM","2018/07/30 21:09:31","新北市蘆洲區中央路155號","121.472665","25.0846933333333","6501400","蘆洲區"
"247022","500-BY","2018/07/30 21:09:41","新北市蘆洲區三民路251號","121.468308333333","25.0893433333333","6501400","蘆洲區"
"247012","339-TH","2018/07/30 21:09:42","新北市蘆洲區民權路4號","121.477015","25.0853433333333","6501400","蘆洲區"
"247004","337-TH","2018/07/30 21:09:38","新北市蘆洲區永安南路二段286號","121.457676666667","25.0812833333333","6501400","蘆洲區"
"247006","336-TH","2018/07/30 21:09:40","新北市蘆洲區永安南路二段16巷18號","121.468018333333","25.0778116666667","6501400","蘆洲區"
"247018","057-VK","2018/07/30 21:09:40","新北市蘆洲區民族路408巷10號","121.474835","25.0917966666667","6501400","蘆洲區"
"247008","056-VK","2018/07/30 21:09:38","新北市蘆洲區民生街41號","121.475128333333","25.0788833333333","6501400","蘆洲區"
"247016","007-UY","2018/07/30 21:09:37","新北市蘆洲區中正路185巷76號","121.46619","25.0843816666667","6501400","蘆洲區"
"247002","002-UY","2018/07/30 21:09:33","新北市蘆洲區永樂街38巷42弄6號","121.458798333333","25.0899383333333","6501400","蘆洲區"
"247020","001-UY","2018/07/30 21:09:33","新北市蘆洲區民族路371號","121.471203333333","25.09133","6501400","蘆洲區"
"251005","010-UM","2018/07/30 21:09:30","新北市淡水區博愛街47號","121.446653333333","25.1691733333333","6501000","淡水區"
"251001","011-UM","2018/07/30 21:09:37","新北市淡水區新市一路三段101巷16弄3號","121.446555","25.1838583333333","6501000","淡水區"
"251013","KEA-2871","2018/07/30 21:09:32","新北市淡水區行忠路328號","121.460485","25.1996383333333","6501000","淡水區"
"251016","179-VK","2018/07/30 21:09:37","新北市淡水區前洲子3-1號","121.44348","25.21624","6501000","淡水區"
"251014","180-VK","2018/07/30 21:09:32","新北市淡水區六塊厝1-2號","121.451005","25.2425466666667","6501000","淡水區"
"251015","182-VK","2018/07/30 21:09:27","新北市淡水區淡金路四段542巷66號","121.455293333333","25.2263583333333","6501000","淡水區"
"251010","413-VK","2018/07/30 21:09:36","新北市淡水區中正路一段102號","121.424278333333","25.1777083333333","6501000","淡水區"
"251012","441-VK","2018/07/30 21:09:29","新北市淡水區淡金路五段172號","121.45705","25.2400666666667","6501000","淡水區"
"251007","442-VK","2018/07/30 21:09:38","新北市淡水區英專路102號","121.445815","25.17187","6501000","淡水區"
"251011","650-BX","2018/07/30 21:09:28","新北市淡水區新民街180巷23號","121.437628333333","25.1796633333333","6501000","淡水區"
"251002","672-BX","2018/07/30 21:09:40","新北市淡水區水源街一段147號","121.447541666667","25.17173","6501000","淡水區"
"251003","673-BX","2018/07/30 21:09:34","新北市淡水區新春街132-4號","121.441203333333","25.1816716666667","6501000","淡水區"
"242050","441-UM","2018/07/30 21:09:40","新北市樹林區八德街624號","121.397566666667","24.9692333333333","6500500","新莊區"
"242002","349-TH","2018/07/30 21:09:33","新北市新莊區環河路48-7號","121.436705","25.0098133333333","6500500","新莊區"
