"lineid","car","time","location","longitude","latitude","cityid","cityname"
"241006","AAD-863","2018/07/30 22:19:31","新北市五股區中興路三段2巷10號","121.448861666667","25.0813283333333","6500200","三重區"
"251004","009-UM","2018/07/30 22:19:40","新北市淡水區民族路33號","121.462328333333","25.135765","6501000","淡水區"
"251008","181-VK","2018/07/30 22:19:40","新北市淡水區學府路104號","121.449863333333","25.171785","6501000","淡水區"
"251010","413-VK","2018/07/30 22:19:36","新北市淡水區沙崙路200號","121.424726666667","25.1838933333333","6501000","淡水區"
"251007","442-VK","2018/07/30 22:19:38","新北市淡水區北新路139號","121.449525","25.1788583333333","6501000","淡水區"
"251011","650-BX","2018/07/30 22:19:28","新北市淡水區水碓街5號","121.443128333333","25.17708","6501000","淡水區"
