"lineid","car","time","location","longitude","latitude","cityid","cityname"
"248005","653-BX","2018/04/23 08:29:35","新北市五股區明德路12巷3號","121.433238333333","25.07177","6501500","五股區"
"232001","290-BY","2018/04/23 08:29:33","新北市坪林區大粗坑6-1號","121.732186666667","24.94822","6502000","坪林區"
"232012","291-BY","2018/04/23 08:29:39","新北市坪林區金瓜寮32號","121.677458333333","24.9074616666667","6502000","坪林區"
"232017","705-BZ","2018/04/23 08:27:39","新北市坪林區柑腳坑15號","121.772268333333","24.9466","6502000","坪林區"
"232005","758-BX","2018/04/23 08:29:40","新北市坪林區鶯子瀨9-7號","121.708958333333","24.9154033333333","6502000","坪林區"
"244012","069-UM","2018/04/23 08:29:42","新北市林口區中山路255號","121.385381666667","25.0793683333333","6501700","林口區"
"244006","080-UY","2018/04/23 08:29:37","新北市林口區菁埔45-2號","121.38411","25.0947833333333","6501700","林口區"
"244001","248-BX","2018/04/23 08:29:40","新北市林口區下福里28-2號","121.308111666667","25.1112766666667","6501700","林口區"
"244018","403-UM","2018/04/23 08:29:25","新北市林口區公園路122號","121.37068","25.0713416666667","6501700","林口區"
"244022","483-VK","2018/04/23 08:29:34","新北市林口區興林一街92號","121.391363333333","25.0726716666667","6501700","林口區"
"244016","485-VK","2018/04/23 08:29:43","新北市林口區文化二路一段260巷7-1號","121.37154","25.073205","6501700","林口區"
"244008","656-BX","2018/04/23 08:29:35","新北市林口區寶林路123號","121.38304","25.0852683333333","6501700","林口區"
"244010","701-TV","2018/04/23 08:29:31","新北市林口區中正路144號","121.392768333333","25.0773083333333","6501700","林口區"
"244024","837-TS","2018/04/23 08:29:37","新北市林口區文化三路一段165號","121.361765","25.0690483333333","6501700","林口區"
"244020","838-TS","2018/04/23 08:29:40","新北市林口區自強二街19號","121.398141666667","25.0780016666667","6501700","林口區"
"222005","289-BY","2018/04/23 08:29:35","新北市深坑區萬福路116號","121.616413333333","25.0150816666667","6501800","深坑區"
"231007","188-VK","2018/04/23 08:29:40","新北市新店區新潭路二段2號","121.527885","24.9271066666667","6500600","新店區"
"231008","192-VK","2018/04/23 08:29:27","新北市新店區桂山路38號","121.558071666667","24.902885","6500600","新店區"
"235001","611-BX","2018/04/23 08:29:27","新北市中和區中山路二段523巷41號","121.482206666667","25.0032633333333","6500300","中和區"
"235010","733-UM","2018/04/23 08:29:43","新北市中和區中正路213號","121.496913333333","24.9936333333333","6500300","中和區"
"226005","5620-A6","2018/04/23 08:29:25","新北市平溪區南山里乾坑10號","121.789665","25.0475116666667","6502400","平溪區"
"226001","7418-A5","2018/04/23 08:28:31","新北市平溪區東勢里番仔坑3號","121.747678333333","25.0000983333333","6502400","平溪區"
"226003","AGD-0702","2018/04/23 08:29:29","新北市平溪區靜安路三段406號","121.784251666667","25.0515183333333","6502400","平溪區"
"223006","022-BY","2018/04/23 08:27:52","新北市深坑區昇高坑路50-1號","121.629455","24.9959633333333","6501900","石碇區"
"223002","KEA-2673","2018/04/23 08:29:33","新北市石碇區半路店3號","121.648743333333","24.9643666666667","6501900","石碇區"
"223001","205-TH","2018/04/23 08:29:24","新北市石碇區北宜路六段塗潭巷15號","121.65076","24.932015","6501900","石碇區"
"223008","406-TH","2018/04/23 08:29:35","新北市石碇區十八重溪6號","121.677991666667","25.0112633333333","6501900","石碇區"
"223001","592-UM","2018/04/23 08:29:31","新北市石碇區北宜路六段塗潭巷15號","121.651043333333","24.9320366666667","6501900","石碇區"
"223004","660-BX","2018/04/23 08:29:32","新北市石碇區碇坪路一段79號","121.660483333333","24.9910783333333","6501900","石碇區"
"223005","677-TV","2018/04/23 08:29:24","新北市石碇區湳窟19-1號","121.660448333333","24.9911833333333","6501900","石碇區"
"227005","282-VK","2018/04/23 08:29:30","新北市雙溪區外柑里三叉坑8號","121.826125","25.0114633333333","6502500","雙溪區"
"252006","073-UM","2018/04/23 08:29:28","新北市三芝區蘭陽街13-1號","121.473498333333","25.2424366666667","6502100","三芝區"
"252004","249-BX","2018/04/23 08:29:28","新北市三芝區興華里楓子林45-3號","121.501453333333","25.2045683333333","6502100","三芝區"
"237001","159-UY","2018/04/23 08:29:40","新北市三峽區三樹路277號","121.37904","24.94317","6500900","三峽區"
"236007","165-UM","2018/04/23 08:29:26","新北市土城區石門路67-9號","121.458656666667","24.9589066666667","6501300","土城區"
"236001","339-SR","2018/04/23 08:29:37","新北市土城區中州路35號","121.41337","24.9579233333333","6501300","土城區"
"236005","498-BY","2018/04/23 08:29:42","新北市土城區大暖路6號","121.423068333333","24.9608033333333","6501300","土城區"
"242033","AAC-296","2018/04/23 08:29:40","新北市新莊區福海街24巷11號","121.445998333333","25.034235","6500500","新莊區"
"242057","986-R7","2018/04/23 08:29:36","新北市新莊區新北大道七段556號","121.412166666667","25.02877","6500500","新莊區"
"242052","751-BX","2018/04/23 08:29:34","新北市新莊區民安西路470-1號","121.43171","25.0078266666667","6500500","新莊區"
"242026","705-TV","2018/04/23 08:29:42","新北市新莊區思源路345號","121.459753333333","25.050015","6500500","新莊區"
"242024","613-BX","2018/04/23 08:29:33","新北市新莊區五工路60號","121.458463333333","25.062985","6500500","新莊區"
"242028","612-BX","2018/04/23 08:29:44","新北市新莊區中平路194號","121.444753333333","25.0483233333333","6500500","新莊區"
"242040","566-BX","2018/04/23 08:29:31","新北市新莊區中正路857號","121.419723333333","25.028155","6500500","新莊區"
"242045","497-BY","2018/04/23 08:29:39","新北市新莊區福營路167號","121.431816666667","25.0311333333333","6500500","新莊區"
"242049","441-UM","2018/04/23 08:29:43","新北市新莊區民本街23巷19號","121.42921","25.0197883333333","6500500","新莊區"
"242055","440-UM","2018/04/23 08:29:41","新北市新莊區豐年街豐1巷6號","121.446843333333","25.0311283333333","6500500","新莊區"
"242035","415-TV","2018/04/23 08:29:40","新北市新莊區後港一路63號","121.426435","25.0265966666667","6500500","新莊區"
"242006","413-TV","2018/04/23 08:29:39","新北市新莊區中央路281號","121.453563333333","25.0588466666667","6500500","新莊區"
"242043","400-BY","2018/04/23 08:29:36","新北市新莊區雙鳳路155號","121.412806666667","25.0270366666667","6500500","新莊區"
"242022","362-BY","2018/04/23 08:29:35","新北市新莊區化成路37號","121.4648","25.0445","6500500","新莊區"
"242059","353-BY","2018/04/23 08:29:30","新北市新莊區新樹路259號","121.434648333333","25.021535","6500500","新莊區"
"242038","133-UY","2018/04/23 08:29:34","新北市新莊區民安西路24巷23號","121.42603","25.0205466666667","6500500","新莊區"
"242030","135-UY","2018/04/23 08:29:27","新北市新莊區新泰路277巷61號","121.443283333333","25.040075","6500500","新莊區"
"242047","172-VK","2018/04/23 08:29:25","新北市新莊區萬安街67巷14號","121.42204","25.0237816666667","6500500","新莊區"
"242016","175-VK","2018/04/23 08:29:29","新北市新莊區永樂街69號","121.450983333333","25.04495","6500500","新莊區"
"242003","176-VK","2018/04/23 08:29:32","新北市新莊區自由街46號","121.4558","25.0459883333333","6500500","新莊區"
"242014","346-TH","2018/04/23 08:29:45","新北市新莊區中和街59巷10弄9號","121.446791666667","25.0471766666667","6500500","新莊區"
"242020","348-TH","2018/04/23 08:29:43","新北市新莊區新興街43巷2號","121.450603333333","25.0389583333333","6500500","新莊區"
"242012","351-TH","2018/04/23 08:29:29","新北市新莊區中誠街119號","121.449383333333","25.047585","6500500","新莊區"
"220088","146-RM","2018/04/23 08:29:34","新北市八里區中山路三段382號","121.368586666667","25.135905","6500100","板橋區"
"242001","KEA-2550","2018/04/23 08:29:36","新北市新莊區新莊路13號","121.459181666667","25.0376483333333","6500500","新莊區"
"242008","281-VK","2018/04/23 08:29:43","新北市新莊區中華路二段260號","121.452495","25.0532066666667","6500500","新莊區"
"242018","280-VK","2018/04/23 08:29:23","新北市新莊區明中街51巷4號","121.456478333333","25.0393616666667","6500500","新莊區"
