"lineid","car","time","location","longitude","latitude","cityid","cityname"
"248005","653-BX","2018/04/23 08:49:35","新北市五股區明德路12巷3號","121.433223333333","25.0717783333333","6501500","五股區"
"232001","290-BY","2018/04/23 08:49:33","新北市坪林區九芎坑16-2號","121.741061666667","24.9497666666667","6502000","坪林區"
"232012","291-BY","2018/04/23 08:49:39","新北市坪林區嶺腳坑3號","121.69369","24.93618","6502000","坪林區"
"232017","705-BZ","2018/04/23 08:49:39","新北市坪林區鷺鶿岫1號","121.789468333333","24.9565116666667","6502000","坪林區"
"232005","758-BX","2018/04/23 08:49:40","新北市坪林區魚堀9-13號","121.704448333333","24.90734","6502000","坪林區"
"244012","069-UM","2018/04/23 08:49:22","新北市林口區中山路160巷7號","121.391088333333","25.0793783333333","6501700","林口區"
"244006","080-UY","2018/04/23 08:49:37","新北市林口區佳林路19號","121.386875","25.0821883333333","6501700","林口區"
"244001","248-BX","2018/04/23 08:49:40","新北市林口區嘉寶里15鄰43-2號","121.341785","25.1081816666667","6501700","林口區"
"244018","403-UM","2018/04/23 08:49:45","新北市林口區忠孝路559號","121.372748333333","25.06826","6501700","林口區"
"244022","483-VK","2018/04/23 08:49:34","新北市林口區興林路351號","121.388995","25.068635","6501700","林口區"
"244016","485-VK","2018/04/23 08:49:23","新北市林口區八德路48巷1號","121.366793333333","25.0662566666667","6501700","林口區"
"244008","656-BX","2018/04/23 08:49:35","新北市林口區竹林路606巷23號","121.385003333333","25.0829533333333","6501700","林口區"
"244010","701-TV","2018/04/23 08:49:31","新北市林口區中正路106號","121.393631666667","25.0772483333333","6501700","林口區"
"244024","837-TS","2018/04/23 08:49:37","新北市林口區南勢四街328號","121.357475","25.0761166666667","6501700","林口區"
"244020","838-TS","2018/04/23 08:49:40","新北市林口區自強二街67號","121.399721666667","25.07679","6501700","林口區"
"222005","289-BY","2018/04/23 08:49:35","新北市深坑區風格街31巷33號","121.627555","25.0177083333333","6501800","深坑區"
"231007","188-VK","2018/04/23 08:49:38","新北市新店區新潭路三段220號","121.503375","24.9047716666667","6500600","新店區"
"231008","192-VK","2018/04/23 08:49:27","新北市新店區新烏路三段寶島巷2弄3號","121.552011666667","24.8986033333333","6500600","新店區"
"235001","611-BX","2018/04/23 08:49:27","新北市中和區莒光路84巷24號","121.471621666667","25.002365","6500300","中和區"
"226005","5620-A6","2018/04/23 08:49:45","新北市平溪區南山里南山坪108號","121.780953333333","25.0424","6502400","平溪區"
"226001","7418-A5","2018/04/23 08:41:31","新北市平溪區東勢里東勢格41號","121.762451666667","24.9894466666667","6502400","平溪區"
"226003","AGD-0702","2018/04/23 08:49:26","新北市平溪區十分里十分街259號","121.778235","25.0449216666667","6502400","平溪區"
"223006","022-BY","2018/04/23 08:49:32","新北市石碇區雙溪41號","121.65104","25.0076","6501900","石碇區"
"223002","KEA-2673","2018/04/23 08:49:33","新北市深坑區昇高坑路72號","121.630081666667","24.990235","6501900","石碇區"
"223001","205-TH","2018/04/23 08:49:24","新北市石碇區北宜路六段柑腳巷2號","121.659585","24.9380483333333","6501900","石碇區"
"223008","406-TH","2018/04/23 08:49:35","新北市石碇區光明路12號","121.679751666667","25.0316283333333","6501900","石碇區"
"223001","592-UM","2018/04/23 08:49:31","新北市石碇區北宜路六段水底寮巷18號","121.660938333333","24.9403233333333","6501900","石碇區"
"223004","660-BX","2018/04/23 08:49:32","新北市石碇區崩山26-1號","121.676846666667","24.9671766666667","6501900","石碇區"
"223005","677-TV","2018/04/23 08:49:24","新北市石碇區崩山33-3號","121.677086666667","24.965575","6501900","石碇區"
"227005","282-VK","2018/04/23 08:49:29","新北市雙溪區泰平里泰平10號","121.845628333333","24.98562","6502500","雙溪區"
"252006","073-UM","2018/04/23 08:49:28","新北市三芝區古庄里四棧橋24號","121.486816666667","25.260285","6502100","三芝區"
"252004","249-BX","2018/04/23 08:45:08","新北市三芝區興華里田心子15-13號","121.492863333333","25.2042133333333","6502100","三芝區"
"237001","159-UY","2018/04/23 08:49:41","新北市三峽區學勤路106號","121.374908333333","24.9461466666667","6500900","三峽區"
"236007","165-UM","2018/04/23 08:49:26","新北市土城區明德路一段371號","121.452971666667","24.9796366666667","6501300","土城區"
"236001","339-SR","2018/04/23 08:49:37","新北市土城區永平街50-1號","121.426905","24.9590183333333","6501300","土城區"
"236005","498-BY","2018/04/23 08:49:41","新北市土城區永和街62巷2-26號","121.435701666667","24.958725","6501300","土城區"
"242033","AAC-296","2018/04/23 08:49:25","新北市新莊區仁愛街54巷1號","121.444938333333","25.0371266666667","6500500","新莊區"
"242057","986-R7","2018/04/23 08:49:37","新北市新莊區中正路887-5號","121.416723333333","25.0245566666667","6500500","新莊區"
"242052","751-BX","2018/04/23 08:49:34","新北市新莊區西盛街430號","121.426998333333","25.01194","6500500","新莊區"
"242026","705-TV","2018/04/23 08:49:42","新北市新莊區立信三街28號","121.443038333333","25.05057","6500500","新莊區"
"242024","613-BX","2018/04/23 08:48:56","新北市新莊區五權一路12巷25弄19號","121.45851","25.06476","6500500","新莊區"
"242028","612-BX","2018/04/23 08:49:24","新北市新莊區中榮街132號","121.445905","25.0527416666667","6500500","新莊區"
"242040","566-BX","2018/04/23 08:49:26","新北市新莊區中正路694巷126號","121.416316666667","25.02995","6500500","新莊區"
"242045","497-BY","2018/04/23 08:49:39","新北市新莊區中正路829巷61號","121.42157","25.0272483333333","6500500","新莊區"
"242049","441-UM","2018/04/23 08:49:43","新北市新莊區民安西路195-1號","121.426135","25.0152233333333","6500500","新莊區"
"242055","440-UM","2018/04/23 08:49:26","新北市新莊區中環路一段8號","121.442733333333","25.02621","6500500","新莊區"
"242035","415-TV","2018/04/23 08:49:40","新北市新莊區建安街101巷34號","121.42723","25.0234666666667","6500500","新莊區"
"242006","413-TV","2018/04/23 08:49:39","新北市新莊區福壽街124巷34弄4號","121.459196666667","25.051135","6500500","新莊區"
"242043","400-BY","2018/04/23 08:49:29","新北市新莊區中正路891-26號","121.415113333333","25.0229283333333","6500500","新莊區"
"242022","362-BY","2018/04/23 08:49:35","新北市新莊區化成路690號","121.465876666667","25.05624","6500500","新莊區"
"242059","353-BY","2018/04/23 08:49:30","新北市新莊區富國路176巷7號","121.424138333333","25.0241233333333","6500500","新莊區"
"242038","133-UY","2018/04/23 08:49:37","新北市新莊區民安路287號","121.429036666667","25.0227783333333","6500500","新莊區"
"242030","135-UY","2018/04/23 08:49:26","新北市新莊區新泰路225巷11號","121.445911666667","25.0391733333333","6500500","新莊區"
"242047","172-VK","2018/04/23 08:49:43","新北市新莊區建安街92巷7號","121.425798333333","25.0241583333333","6500500","新莊區"
"242010","173-VK","2018/04/23 08:49:06","新北市新莊區中港路556-1號","121.451613333333","25.05303","6500500","新莊區"
"242016","175-VK","2018/04/23 08:49:25","新北市新莊區中港一街93號","121.449288333333","25.0452716666667","6500500","新莊區"
"242003","176-VK","2018/04/23 08:49:12","新北市新莊區化成路63巷2號","121.465028333333","25.0458183333333","6500500","新莊區"
"242014","346-TH","2018/04/23 08:49:24","新北市新莊區新泰路331號","121.444948333333","25.041775","6500500","新莊區"
"242020","348-TH","2018/04/23 08:49:45","新北市新莊區建中街16巷29號","121.448993333333","25.03864","6500500","新莊區"
"242012","351-TH","2018/04/23 08:49:29","新北市新莊區幸福路710巷5弄16號","121.449246666667","25.049775","6500500","新莊區"
"220088","146-RM","2018/04/23 08:49:34","新北市八里區中華路三段7巷1號","121.397151666667","25.1436583333333","6500100","板橋區"
"242001","KEA-2550","2018/04/23 08:49:36","新北市新莊區新泰路109號","121.448886666667","25.035055","6500500","新莊區"
"242008","281-VK","2018/04/23 08:49:44","新北市新莊區昌隆街27號","121.454591666667","25.05094","6500500","新莊區"
"242018","280-VK","2018/04/23 08:49:23","新北市新莊區長青街37巷9號","121.4565","25.0417933333333","6500500","新莊區"
