"lineid","car","time","location","longitude","latitude","cityid","cityname"
"248005","653-BX","2018/04/23 08:59:35","新北市五股區明德路12巷3號","121.43323","25.071785","6501500","五股區"
"232001","290-BY","2018/04/23 08:59:33","新北市坪林區九芎坑16-3號","121.739463333333","24.949145","6502000","坪林區"
"232012","291-BY","2018/04/23 08:59:39","新北市坪林區北宜路八段6號","121.701181666667","24.9357683333333","6502000","坪林區"
"244012","069-UM","2018/04/23 08:59:22","新北市林口區佳林路101巷34號","121.386913333333","25.07993","6501700","林口區"
"244006","080-UY","2018/04/23 08:59:37","新北市林口區竹林路266號","121.389651666667","25.0810566666667","6501700","林口區"
"244001","248-BX","2018/04/23 08:59:40","新北市林口區湖南里93-1號","121.375245","25.0899783333333","6501700","林口區"
"244018","403-UM","2018/04/23 08:59:25","新北市林口區文化一路一段24號","121.370231666667","25.0686683333333","6501700","林口區"
"244022","483-VK","2018/04/23 08:59:34","新北市林口區東湖路41巷24號","121.386278333333","25.07301","6501700","林口區"
"244016","485-VK","2018/04/23 08:59:43","新北市林口區公園路24號","121.36666","25.0674133333333","6501700","林口區"
"244008","656-BX","2018/04/23 08:59:35","新北市林口區中山路492號","121.379948333333","25.082745","6501700","林口區"
"244010","701-TV","2018/04/23 08:59:31","新北市林口區新寮1-82號","121.392678333333","25.0768083333333","6501700","林口區"
"244024","837-TS","2018/04/23 08:59:37","新北市林口區南勢二街158號","121.3591","25.0745316666667","6501700","林口區"
"244020","838-TS","2018/04/23 08:59:40","新北市林口區粉寮路一段84號","121.397308333333","25.0794116666667","6501700","林口區"
"222005","289-BY","2018/04/23 08:59:35","新北市深坑區大坪街11號","121.630755","25.0203916666667","6501800","深坑區"
"231007","188-VK","2018/04/23 08:59:38","新北市新店區新潭路三段236號","121.500963333333","24.90428","6500600","新店區"
"231008","192-VK","2018/04/23 08:59:27","新北市新店區廣興路5巷19號","121.545571666667","24.9138283333333","6500600","新店區"
"235001","611-BX","2018/04/23 08:59:27","新北市中和區華福街2巷1號","121.465215","24.9967183333333","6500300","中和區"
"226001","7418-A5","2018/04/23 08:41:31","新北市平溪區東勢里東勢格41號","121.762451666667","24.9894466666667","6502400","平溪區"
"226003","AGD-0702","2018/04/23 08:59:26","新北市平溪區十分里十分街238號","121.778091666667","25.0441716666667","6502400","平溪區"
"223006","022-BY","2018/04/23 08:59:32","新北市石碇區溪邊寮2-1號","121.658396666667","24.9780133333333","6501900","石碇區"
"223002","KEA-2673","2018/04/23 08:59:33","新北市石碇區員潭子坑12號","121.640923333333","24.9926583333333","6501900","石碇區"
"223001","205-TH","2018/04/23 08:59:24","新北市石碇區北宜路六段水底寮巷7號","121.664211666667","24.9493983333333","6501900","石碇區"
"223008","406-TH","2018/04/23 08:59:35","新北市石碇區光明路13號","121.680015","25.0336466666667","6501900","石碇區"
"223001","592-UM","2018/04/23 08:59:31","新北市石碇區北宜路六段水底寮巷1號","121.658808333333","24.945025","6501900","石碇區"
"223004","660-BX","2018/04/23 08:59:32","新北市石碇區崩山51-2號","121.680841666667","24.9690266666667","6501900","石碇區"
"223005","677-TV","2018/04/23 08:59:24","新北市石碇區崩山42-2號","121.680236666667","24.964825","6501900","石碇區"
"227005","282-VK","2018/04/23 08:59:09","新北市雙溪區泰平里料角坑3號","121.823831666667","24.9699733333333","6502500","雙溪區"
"252006","073-UM","2018/04/23 08:59:41","新北市三芝區古庄里四棧橋20號","121.48903","25.2611883333333","6502100","三芝區"
"252004","249-BX","2018/04/23 08:59:28","新北市三芝區興華里田心子31號","121.488865","25.200395","6502100","三芝區"
"237001","159-UY","2018/04/23 08:59:40","新北市三峽區學成路398號","121.378215","24.9445933333333","6500900","三峽區"
"236007","165-UM","2018/04/23 08:59:26","新北市土城區大安路2號","121.432938333333","24.9654883333333","6501300","土城區"
"236001","339-SR","2018/04/23 08:59:37","新北市土城區中央路三段85-4號","121.437993333333","24.9682383333333","6501300","土城區"
"236005","498-BY","2018/04/23 08:59:42","新北市土城區承天路4巷2-12號","121.436441666667","24.963515","6501300","土城區"
"242033","AAC-296","2018/04/23 08:59:35","新北市新莊區建中街83號","121.447181666667","25.0366733333333","6500500","新莊區"
"242057","986-R7","2018/04/23 08:59:36","新北市新莊區八德街81號","121.424555","25.0218083333333","6500500","新莊區"
"242052","751-BX","2018/04/23 08:59:34","新北市新莊區西盛街423號","121.427256666667","25.01219","6500500","新莊區"
"242026","705-TV","2018/04/23 08:59:42","新北市新莊區中平路303號","121.444553333333","25.05145","6500500","新莊區"
"242024","613-BX","2018/04/23 08:59:38","新北市新莊區五工三路78巷36號","121.460096666667","25.0659866666667","6500500","新莊區"
"242028","612-BX","2018/04/23 08:59:44","新北市新莊區中原路249號","121.449","25.0544683333333","6500500","新莊區"
"242040","566-BX","2018/04/23 08:59:26","新北市新莊區青山路一段50號","121.410021666667","25.0276383333333","6500500","新莊區"
"242045","497-BY","2018/04/23 08:59:39","新北市新莊區福營路330號","121.42191","25.0269","6500500","新莊區"
"242049","441-UM","2018/04/23 08:59:43","新北市新莊區民安西路252巷31號","121.425075","25.0139083333333","6500500","新莊區"
"242055","440-UM","2018/04/23 08:59:26","新北市新莊區新豐街11號","121.448606666667","25.03441","6500500","新莊區"
"242035","415-TV","2018/04/23 08:59:41","新北市新莊區建安街25巷5號","121.429336666667","25.0261133333333","6500500","新莊區"
"242006","413-TV","2018/04/23 08:59:39","新北市新莊區思源路287巷2弄13號","121.459271666667","25.048815","6500500","新莊區"
"242043","400-BY","2018/04/23 08:59:29","新北市新莊區中正路新旺巷30弄2號","121.415968333333","25.02294","6500500","新莊區"
"242022","362-BY","2018/04/23 08:59:35","新北市新莊區化成路938號","121.464838333333","25.0626166666667","6500500","新莊區"
"242059","353-BY","2018/04/23 08:59:30","新北市新莊區瓊林路204-8號","121.437815","25.0211133333333","6500500","新莊區"
"242038","133-UY","2018/04/23 08:59:34","新北市新莊區民安西路109號","121.426781666667","25.0183983333333","6500500","新莊區"
"242030","135-UY","2018/04/23 08:59:26","新北市新莊區公園一路140號","121.446358333333","25.0381983333333","6500500","新莊區"
"242047","172-VK","2018/04/23 08:59:23","新北市新莊區富國路109巷2號","121.42373","25.025135","6500500","新莊區"
"242010","173-VK","2018/04/23 08:59:42","新北市新莊區中信街66-12號","121.448891666667","25.05174","6500500","新莊區"
"242016","175-VK","2018/04/23 08:59:25","新北市新莊區中港三街26號","121.450435","25.0464016666667","6500500","新莊區"
"242003","176-VK","2018/04/23 08:59:37","新北市新莊區化成路314巷10號","121.46664","25.048255","6500500","新莊區"
"242014","346-TH","2018/04/23 08:59:24","新北市新莊區中和街31巷22號","121.447193333333","25.0438616666667","6500500","新莊區"
"242020","348-TH","2018/04/23 08:59:43","新北市新莊區中興街43號","121.449208333333","25.0369216666667","6500500","新莊區"
"242012","351-TH","2018/04/23 08:59:29","新北市新莊區中平路270巷1號","121.445058333333","25.050255","6500500","新莊區"
"220088","146-RM","2018/04/23 08:59:33","新北市五股區成泰路三段544-1號","121.453955","25.1020233333333","6500100","板橋區"
"242001","KEA-2550","2018/04/23 08:59:40","新北市新莊區思源路23號","121.460138333333","25.0387216666667","6500500","新莊區"
"242008","281-VK","2018/04/23 08:59:41","新北市新莊區昌隆街90號","121.456043333333","25.0506833333333","6500500","新莊區"
"242018","280-VK","2018/04/23 08:59:38","新北市新莊區博愛路5巷2號","121.456323333333","25.0432216666667","6500500","新莊區"
