"lineid","car","time","location","longitude","latitude","cityid","cityname"
"248005","653-BX","2018/04/23 09:29:35","新北市五股區登林路貿商巷5弄2號","121.429673333333","25.0699866666667","6501500","五股區"
"244012","069-UM","2018/04/23 09:29:42","新北市林口區麗園路6號","121.375375","25.0698533333333","6501700","林口區"
"244006","080-UY","2018/04/23 09:29:37","新北市林口區後湖9鄰9號","121.388745","25.0981316666667","6501700","林口區"
"244018","403-UM","2018/04/23 09:29:45","新北市林口區忠孝路622巷50號","121.378521666667","25.0674833333333","6501700","林口區"
"244022","483-VK","2018/04/23 09:29:34","新北市林口區仁愛路二段106巷11號","121.383241666667","25.0754283333333","6501700","林口區"
"244016","485-VK","2018/04/23 09:29:23","新北市林口區公園路131巷3號","121.369071666667","25.0705483333333","6501700","林口區"
"244008","656-BX","2018/04/23 09:29:35","新北市林口區竹林路346巷23號","121.39291","25.0833283333333","6501700","林口區"
"244010","701-TV","2018/04/23 09:29:31","新北市林口區中山路97巷7號","121.389541666667","25.0782983333333","6501700","林口區"
"222005","289-BY","2018/04/23 09:29:35","新北市深坑區北深路一段266號","121.629286666667","25.0093216666667","6501800","深坑區"
"231007","188-VK","2018/04/23 09:29:38","新北市新店區新潭路三段215巷25號","121.508136666667","24.9040616666667","6500600","新店區"
"231008","192-VK","2018/04/23 09:29:39","新北市新店區平廣路一段92巷7號","121.530038333333","24.898335","6500600","新店區"
"223001","205-TH","2018/04/23 09:29:24","新北市石碇區北宜路四段26號","121.623168333333","24.957935","6501900","石碇區"
"223008","406-TH","2018/04/23 09:29:35","新北市石碇區頭3號","121.706853333333","24.9959216666667","6501900","石碇區"
"223001","592-UM","2018/04/23 09:29:30","新北市石碇區北宜路四段18-1號","121.619296666667","24.95917","6501900","石碇區"
"223004","660-BX","2018/04/23 09:29:32","新北市石碇區大崙16-5號","121.691316666667","24.9776833333333","6501900","石碇區"
"223005","677-TV","2018/04/23 09:29:31","新北市石碇區華梵路2號","121.691448333333","24.9771633333333","6501900","石碇區"
"227005","282-VK","2018/04/23 09:16:49","新北市雙溪區泰平里料角坑21號","121.811543333333","24.9705283333333","6502500","雙溪區"
"252004","249-BX","2018/04/23 09:29:28","新北市三芝區店子里店子112-4號","121.510463333333","25.209645","6502100","三芝區"
"252006","AAC-283","2018/04/23 09:29:34","新北市三芝區新庄里新庄子85號","121.510936666667","25.2709566666667","6502100","三芝區"
"236001","339-SR","2018/04/23 09:29:37","新北市土城區學府路一段99巷13號","121.456515","24.9873716666667","6501300","土城區"
"236005","498-BY","2018/04/23 09:29:41","新北市土城區承天路75號","121.440206666667","24.96285","6501300","土城區"
"242033","AAC-296","2018/04/23 09:29:42","新北市新莊區中正路334巷25弄2號","121.445361666667","25.0359383333333","6500500","新莊區"
"242057","986-R7","2018/04/23 09:29:36","新北市新莊區四維路183號","121.422125","25.0210733333333","6500500","新莊區"
"242052","751-BX","2018/04/23 09:29:34","新北市新莊區西盛街323巷6號","121.428468333333","25.01465","6500500","新莊區"
"242024","613-BX","2018/04/23 09:29:33","新北市新莊區新北大道二段167號","121.464673333333","25.0610283333333","6500500","新莊區"
"242028","612-BX","2018/04/23 09:29:24","新北市新莊區中正路222號","121.448783333333","25.035485","6500500","新莊區"
"242040","566-BX","2018/04/23 09:29:26","新北市新莊區天祥街47巷2弄2號","121.416515","25.02876","6500500","新莊區"
"242045","497-BY","2018/04/23 09:29:39","新北市新莊區富國路22巷19號","121.41834","25.0257966666667","6500500","新莊區"
"242049","441-UM","2018/04/23 09:29:23","新北市新莊區新樹路300-3號","121.432905","25.0063616666667","6500500","新莊區"
"242055","440-UM","2018/04/23 09:29:37","新北市新莊區新莊路751巷50號","121.442753333333","25.0314616666667","6500500","新莊區"
"242035","415-TV","2018/04/23 09:29:40","新北市新莊區建國一路136號","121.434681666667","25.0283","6500500","新莊區"
"242043","400-BY","2018/04/23 09:29:29","新北市新莊區龍安路66-5號","121.414771666667","25.0213533333333","6500500","新莊區"
"242059","353-BY","2018/04/23 09:29:30","新北市新莊區民安路318號","121.42869","25.0220066666667","6500500","新莊區"
"242038","133-UY","2018/04/23 09:29:34","新北市新莊區民安路415號","121.433243333333","25.0228483333333","6500500","新莊區"
"242030","135-UY","2018/04/23 09:29:26","新北市新莊區三和路20-6號","121.439491666667","25.0374683333333","6500500","新莊區"
"242047","172-VK","2018/04/23 09:29:43","新北市新莊區中正路747號","121.42237","25.0286866666667","6500500","新莊區"
"242010","173-VK","2018/04/23 09:29:42","新北市新莊區中榮街122巷3號","121.446371666667","25.0531866666667","6500500","新莊區"
"242003","176-VK","2018/04/23 09:29:32","新北市新莊區化成路403巷27號","121.46373","25.058655","6500500","新莊區"
"242012","351-TH","2018/04/23 09:29:29","新北市板橋區大觀路三段6-1號","121.435191666667","24.996015","6500500","新莊區"
"242001","KEA-2550","2018/04/23 09:29:41","新北市新莊區中正路145-18號","121.458278333333","25.037605","6500500","新莊區"
