"lineid","car","time","location","longitude","latitude","cityid","cityname"
"248005","653-BX","2018/04/23 09:39:35","新北市五股區成泰路一段7巷27號","121.432253333333","25.0672316666667","6501500","五股區"
"244012","069-UM","2018/04/23 09:39:42","新北市林口區麗園二街1巷3-2號","121.377198333333","25.07037","6501700","林口區"
"244018","403-UM","2018/04/23 09:39:25","新北市林口區麗園二街23巷88號","121.380605","25.0702616666667","6501700","林口區"
"244022","483-VK","2018/04/23 09:39:34","新北市林口區信義路128號","121.38043","25.0794733333333","6501700","林口區"
"244008","656-BX","2018/04/23 09:36:35","新北市林口區竹林路430巷1弄12號","121.388473333333","25.0856816666667","6501700","林口區"
"244010","701-TV","2018/04/23 09:39:31","新北市林口區湖南里70-9號","121.375946666667","25.0897333333333","6501700","林口區"
"222005","289-BY","2018/04/23 09:39:35","新北市深坑區昇高坑路50-1號","121.629535","24.99609","6501800","深坑區"
"231007","188-VK","2018/04/23 09:39:38","新北市新店區新潭路三段215巷25號","121.50814","24.9040866666667","6500600","新店區"
"231008","192-VK","2018/04/23 09:39:37","新北市新店區平廣路一段201巷1號","121.514928333333","24.8892183333333","6500600","新店區"
"223001","205-TH","2018/04/23 09:39:44","新北市石碇區北宜路五段58號","121.633861666667","24.9532166666667","6501900","石碇區"
"223008","406-TH","2018/04/23 09:30:55","新北市石碇區南勢坑2-6號","121.701146666667","24.9920316666667","6501900","石碇區"
"223001","592-UM","2018/04/23 09:39:11","新北市石碇區北宜路四段16號","121.61647","24.9592966666667","6501900","石碇區"
"223004","660-BX","2018/04/23 09:39:32","新北市石碇區碇坪路二段16號","121.685343333333","24.9762","6501900","石碇區"
"223005","677-TV","2018/04/23 09:39:31","新北市石碇區大崙15號","121.687851666667","24.9795983333333","6501900","石碇區"
"227005","282-VK","2018/04/23 09:38:09","新北市雙溪區泰平里溪尾寮1號","121.821113333333","24.9599916666667","6502500","雙溪區"
"252004","249-BX","2018/04/23 09:39:28","新北市三芝區福德里大水堀21號","121.512185","25.21994","6502100","三芝區"
"252006","AAC-283","2018/04/23 09:39:34","新北市三芝區新庄里新庄子113-2號","121.517911666667","25.2666966666667","6502100","三芝區"
"236001","339-SR","2018/04/23 09:39:37","新北市土城區裕生路65-1號","121.447445","24.9856933333333","6501300","土城區"
"236005","498-BY","2018/04/23 09:39:42","新北市土城區忠承路37號","121.440876666667","24.9668883333333","6501300","土城區"
"242033","AAC-296","2018/04/23 09:39:45","新北市新莊區中正路289號","121.44869","25.0352866666667","6500500","新莊區"
"242057","986-R7","2018/04/23 09:39:43","新北市新莊區四維路146號","121.423066666667","25.0234216666667","6500500","新莊區"
"242024","613-BX","2018/04/23 09:36:13","新北市新莊區中原路162號","121.454883333333","25.054425","6500500","新莊區"
"242055","440-UM","2018/04/23 09:39:26","新北市新莊區瓊泰路94巷45號","121.444393333333","25.029435","6500500","新莊區"
"242043","400-BY","2018/04/23 09:39:28","新北市新莊區龍安路60號","121.415","25.021715","6500500","新莊區"
"242059","353-BY","2018/04/23 09:39:30","新北市新莊區新樹路258巷3號","121.4322","25.0156283333333","6500500","新莊區"
"242038","133-UY","2018/04/23 09:39:34","新北市新莊區瓊林路170-1號","121.441113333333","25.0236216666667","6500500","新莊區"
"242030","135-UY","2018/04/23 09:39:26","新北市新莊區三泰路56號","121.437153333333","25.0357016666667","6500500","新莊區"
"242012","351-TH","2018/04/23 09:39:29","新北市樹林區八德街828-2號","121.394101666667","24.9687566666667","6500500","新莊區"
"242001","KEA-2550","2018/04/23 09:39:36","新北市新莊區中正路134號","121.452731666667","25.0361683333333","6500500","新莊區"
