"lineid","car","time","location","longitude","latitude","cityid","cityname"
"248005","653-BX","2018/04/23 09:59:15","新北市五股區成泰路一段237-9號","121.436586666667","25.080165","6501500","五股區"
"244018","403-UM","2018/04/23 09:59:25","新北市林口區麗園二街17號","121.379453333333","25.0695583333333","6501700","林口區"
"244022","483-VK","2018/04/23 09:59:14","新北市林口區民權路12巷5號","121.371711666667","25.0797966666667","6501700","林口區"
"231007","188-VK","2018/04/23 09:59:18","新北市新店區新潭路三段215巷25號","121.508135","24.9040666666667","6500600","新店區"
"231008","192-VK","2018/04/23 09:50:07","新北市新店區平廣路一段247號","121.508668333333","24.88882","6500600","新店區"
"223001","592-UM","2018/04/23 09:59:30","新北市石碇區摸乳巷6-5號","121.660626666667","24.9836916666667","6501900","石碇區"
"223004","660-BX","2018/04/23 09:59:32","新北市石碇區小粗坑(潭邊里)2號","121.671101666667","24.982565","6501900","石碇區"
"223005","677-TV","2018/04/23 09:59:32","新北市石碇區碇坪路一段252號","121.675255","24.9781983333333","6501900","石碇區"
"227005","282-VK","2018/04/23 09:59:29","新北市雙溪區泰平里灣潭路36號","121.811415","24.9288216666667","6502500","雙溪區"
"252004","249-BX","2018/04/23 09:59:28","新北市三芝區福德里埔尾36-1號","121.508845","25.2373333333333","6502100","三芝區"
"252006","AAC-283","2018/04/23 09:59:34","新北市三芝區新庄里新庄子57-4號","121.507798333333","25.2785333333333","6502100","三芝區"
"237001","159-UY","2018/04/23 09:59:25","新北市三峽區學勤路198號","121.377023333333","24.9472816666667","6500900","三峽區"
"236005","498-BY","2018/04/23 09:59:21","新北市土城區亞洲路2號","121.437206666667","24.975495","6501300","土城區"
