"lineid","car","time","location","longitude","latitude","cityid","cityname"
"244022","483-VK","2018/04/23 10:29:54","新北市林口區仁愛路二段696號","121.369485","25.0806033333333","6501700","林口區"
"231007","188-VK","2018/04/23 10:29:38","新北市新店區新潭路三段131號","121.511511666667","24.9111866666667","6500600","新店區"
"231008","192-VK","2018/04/23 10:27:07","新北市新店區小坑一路88-1號","121.529923333333","24.9063566666667","6500600","新店區"
"223005","677-TV","2018/04/23 10:26:54","新北市石碇區小粗坑(潭邊里)9-2號","121.679021666667","24.9862966666667","6501900","石碇區"
"227005","282-VK","2018/04/23 10:02:49","新北市雙溪區泰平里灣潭路36號","121.812518333333","24.9290816666667","6502500","雙溪區"
"252006","AAC-283","2018/04/23 10:29:54","新北市三芝區新庄里番社后8-11號","121.502148333333","25.2683133333333","6502100","三芝區"
"237001","159-UY","2018/04/23 10:29:45","新北市三峽區國際二街61號","121.371321666667","24.9425366666667","6500900","三峽區"
