"lineid","car","time","location","longitude","latitude","cityid","cityname"
"234044","148-BY","2018/04/23 13:09:09","新北市永和區永元路18巷12弄2號","121.523025","25.000205","6500400","永和區"
"234005","207-UY","2018/04/23 13:09:14","新北市永和區中山路一段139號","121.510455","25.0097216666667","6500400","永和區"
"234078","298-R6","2018/04/23 13:09:09","新北市永和區永貞路39巷9弄5號","121.522065","25.0068833333333","6500400","永和區"
"234036","336-UY","2018/04/23 13:09:13","新北市永和區民樂街71巷1號","121.52738","24.997535","6500400","永和區"
"234062","337-UY","2018/04/23 13:09:26","新北市永和區秀朗路二段33號","121.521275","25.002385","6500400","永和區"
"234084","338-UY","2018/04/23 13:09:15","新北市永和區永貞路154號","121.517708333333","25.0045083333333","6500400","永和區"
"234068","552-UM","2018/04/23 13:09:16","新北市永和區豫溪街95巷10弄1號","121.51792","25.01081","6500400","永和區"
"234066","553-UM","2018/04/23 13:09:24","新北市永和區永和路一段65巷4號","121.512725","25.0073166666667","6500400","永和區"
"234015","745-BX","2018/04/23 13:09:23","新北市永和區文化路90巷15弄1號","121.513723333333","25.0159166666667","6500400","永和區"
"234028","746-BX","2018/04/23 13:09:09","新北市永和區民生路21號","121.522825","24.9988433333333","6500400","永和區"
"234052","KEA-2590","2018/04/23 13:09:24","新北市永和區中興街133巷12號","121.518508333333","25.01251","6500400","永和區"
"234012","KEA-2591","2018/04/23 13:09:25","新北市永和區保福路二段53號","121.510958333333","25.0120433333333","6500400","永和區"
"234060","AAD-866","2018/04/23 13:09:10","新北市永和區安樂路304巷6號","121.514598333333","25.0050216666667","6500400","永和區"
"234040","862-TW","2018/04/23 13:09:27","新北市永和區永和路一段49巷3弄24號","121.512016666667","25.0063333333333","6500400","永和區"
"234048","863-TW","2018/04/23 13:09:11","新北市永和區文化路135巷28號","121.510698333333","25.0142266666667","6500400","永和區"
"234025","9371-KE","2018/04/23 13:09:29","新北市永和區自由街58號","121.513843333333","25.0059683333333","6500400","永和區"
"234010","9373-KE","2018/04/23 13:09:26","新北市永和區仁愛路42號","121.51418","25.0134483333333","6500400","永和區"
"248013","025-BX","2018/04/23 13:09:24","新北市五股區成泰路二段102號","121.437616666667","25.0829133333333","6501500","五股區"
"248015","026-BX","2018/04/23 13:09:18","新北市五股區成泰路三段223號","121.446163333333","25.0930283333333","6501500","五股區"
"248005","077-UY","2018/04/23 13:09:27","新北市五股區中興路二段77-1號","121.46103","25.07711","6501500","五股區"
"248007","095-VK","2018/04/23 13:09:22","新北市五股區更洲路32巷15弄9號","121.458346666667","25.0804283333333","6501500","五股區"
"248019","225-UY","2018/04/23 13:09:18","新北市五股區成泰路三段544-1號","121.454261666667","25.1023783333333","6501500","五股區"
"248011","247-BX","2018/04/23 13:09:26","新北市五股區中興路三段196號","121.441866666667","25.0819316666667","6501500","五股區"
"248009","272-BY","2018/04/23 13:09:15","新北市五股區新五路二段258號","121.440856666667","25.0821416666667","6501500","五股區"
"248003","655-BX","2018/04/23 13:09:19","新北市五股區新五路二段258號","121.440988333333","25.0821733333333","6501500","五股區"
"248001","678-BX","2018/04/23 13:09:29","新北市五股區中興路三段198號","121.441213333333","25.0820683333333","6501500","五股區"
"234022","9380-KE","2018/04/23 13:09:26","新北市永和區中興街10巷31號","121.51658","25.010995","6500400","永和區"
"234076","969-R7","2018/04/23 13:09:24","新北市永和區民光街5號","121.515328333333","24.9963216666667","6500400","永和區"
"234072","AAC-211","2018/04/23 13:09:16","新北市永和區竹林路206號","121.520673333333","25.0085833333333","6500400","永和區"
"234001","AAC-295","2018/04/23 13:09:21","新北市永和區中山路一段147號","121.510161666667","25.0094933333333","6500400","永和區"
"244001","248-BX","2018/04/23 13:09:15","新北市林口區嘉溪雅坑11號","121.342178333333","25.1057783333333","6501700","林口區"
"243005","646-TV","2018/04/23 13:09:12","新北市泰山區南林路99巷1-1號","121.415633333333","25.0510266666667","6501600","泰山區"
"231002","002-UM","2018/04/23 13:09:26","新北市新店區安華路28-1號","121.519735","24.96097","6500600","新店區"
"231028","046-UY","2018/04/23 13:09:17","新北市新店區安華路28-1號","121.519588333333","24.96078","6500600","新店區"
"231001","047-UY","2018/04/23 13:09:21","新北市新店區安華路28-1號","121.51923","24.9609933333333","6500600","新店區"
"231005","106-UY","2018/04/23 13:09:17","新北市新店區安華路28-1號","121.519598333333","24.9608233333333","6500600","新店區"
"231010","107-UY","2018/04/23 13:09:18","新北市新店區安康路一段355-3號","121.519555","24.9615783333333","6500600","新店區"
"231011","187-VK","2018/04/23 13:09:23","新北市新店區安華路28-1號","121.519668333333","24.9611083333333","6500600","新店區"
"231023","KEA-2219","2018/04/23 13:09:14","新北市新店區安華路28-1號","121.519745","24.961295","6500600","新店區"
"231018","278-BY","2018/04/23 13:07:49","新北市新店區安華路28-1號","121.519681666667","24.961065","6500600","新店區"
"231014","AAD-862","2018/04/23 13:09:24","新北市新店區安華路28-1號","121.51994","24.9611933333333","6500600","新店區"
"231025","4715-K9","2018/04/23 13:09:21","新北市新店區安華路28-1號","121.519446666667","24.9606783333333","6500600","新店區"
"231036","512-UM","2018/04/23 13:09:17","新北市新店區安華路28-1號","121.519381666667","24.961325","6500600","新店區"
"231013","513-UM","2018/04/23 13:09:27","新北市新店區安華路28-1號","121.51972","24.9610866666667","6500600","新店區"
"231031","515-UM","2018/04/23 13:09:17","新北市新店區安華路15-2號","121.521246666667","24.9611","6500600","新店區"
"231030","619-UM","2018/04/23 13:09:23","新北市新店區安華路28-1號","121.519545","24.9608516666667","6500600","新店區"
"231003","645-TV","2018/04/23 13:09:28","新北市新店區安華路1-1號","121.519358333333","24.9605383333333","6500600","新店區"
"231029","897-TW","2018/04/23 13:09:20","新北市新店區安華路28-1號","121.519615","24.960685","6500600","新店區"
"231004","899-TW","2018/04/23 13:09:27","新北市新店區安華路28-1號","121.519281666667","24.9609166666667","6500600","新店區"
"235028","005-UY","2018/04/23 13:09:26","新北市中和區中正路277號","121.495335","24.9936716666667","6500300","中和區"
"235027","006-UY","2018/04/23 13:09:17","新北市中和區員山路36巷16-3號","121.485098333333","24.991445","6500300","中和區"
"235003","097-UM","2018/04/23 13:09:23","新北市中和區和城路一段271巷1號","121.4855","24.9916666666667","6500300","中和區"
"235029","098-UM","2018/04/23 13:09:25","新北市中和區福祥路90巷1號","121.499228333333","25.0056","6500300","中和區"
"235022","151-BY","2018/04/23 13:09:13","新北市中和區圓通路367巷33弄6-1號","121.492868333333","24.9857216666667","6500300","中和區"
"235002","185-VK","2018/04/23 13:09:22","新北市中和區大智街24號","121.520781666667","24.99195","6500300","中和區"
"235031","255-BX","2018/04/23 13:09:22","新北市中和區中正路839巷2號","121.48473","25.0025233333333","6500300","中和區"
"235036","301-VK","2018/04/23 13:09:12","新北市中和區員山路36巷13號","121.483981666667","24.991215","6500300","中和區"
"235007","352-BY","2018/04/23 13:09:17","新北市中和區員山路36巷16-2號","121.485093333333","24.9916866666667","6500300","中和區"
"235014","4979-A6","2018/04/23 13:09:28","新北市中和區中正路521號","121.488193333333","24.9935283333333","6500300","中和區"
"235006","551-UM","2018/04/23 13:09:15","新北市中和區景平路305號","121.506535","24.993225","6500300","中和區"
"235009","565-BX","2018/04/23 13:09:17","新北市中和區員山路36巷13號","121.484181666667","24.9911116666667","6500300","中和區"
"235018","640-BX","2018/04/23 13:09:08","新北市中和區莒光路179號","121.472721666667","24.99928","6500300","中和區"
"235011","732-UM","2018/04/23 13:09:26","新北市中和區錦和路350-1號","121.490261666667","24.9936016666667","6500300","中和區"
"235035","783-BX","2018/04/23 13:09:29","新北市中和區板南路520巷8號","121.483941666667","25.00869","6500300","中和區"
"235026","800-TS","2018/04/23 13:09:11","新北市中和區建一路16號","121.487785","25.004075","6500300","中和區"
"235021","801-TS","2018/04/23 13:09:12","新北市中和區員山路36巷16-3號","121.484911666667","24.9916166666667","6500300","中和區"
"235016","805-TS","2018/04/23 13:09:20","新北市中和區中正路273號","121.4957","24.993705","6500300","中和區"
"235017","900-TW","2018/04/23 13:09:28","新北市中和區員山路36巷16-3號","121.484966666667","24.9918966666667","6500300","中和區"
"235015","157-BY","2018/04/23 13:09:25","新北市中和區捷運路10號","121.509415","24.9898933333333","6500300","中和區"
"235001","AAC-213","2018/04/23 13:09:08","新北市中和區景平路149號","121.513831666667","24.9921316666667","6500300","中和區"
"235005","251-BX","2018/04/23 13:09:20","新北市中和區錦和路350-1號","121.490375","24.9935883333333","6500300","中和區"
"253003","6232-TK","2018/04/23 13:09:28","新北市石門區石崩山27-2號","121.564756666667","25.27992","6502200","石門區"
"253001","6251-TK","2018/04/23 13:09:25","新北市石門區老梅路43號","121.545348333333","25.289585","6502200","石門區"
"253002","637-UY","2018/04/23 13:09:24","新北市石門區老崩山35號","121.557645","25.276815","6502200","石門區"
"253004","8270-PC","2018/04/23 13:09:09","新北市石門區阿里荖33-1號","121.606626666667","25.2808416666667","6502200","石門區"
"208003","665-BX","2018/04/23 13:09:23","基隆市安樂區武訓街88號","121.698461666667","25.1514233333333","6502700","金山區"
"207002","749-BX","2018/04/23 13:09:00","新北市萬里區溪底里香員林路9號","121.630151666667","25.16348","6502800","萬里區"
"207001","662-BX","2018/04/23 13:09:25","新北市萬里區萬里里瑪鋉路145號","121.689431666667","25.17792","6502800","萬里區"
"252005","AAC-283","2018/04/23 13:09:20","新北市三芝區八賢里八連溪14號","121.510476666667","25.2433983333333","6502100","三芝區"
"236005","498-BY","2018/04/23 13:09:20","新北市土城區亞洲路80號","121.434853333333","24.9729516666667","6501300","土城區"
"221010","269-BY","2018/04/23 13:09:19","台北市內湖區康樂街12號","121.617698333333","25.0680033333333","6501100","汐止區"
"221032","280-BY","2018/04/23 13:09:16","新北市汐止區建成路57巷1號","121.662478333333","25.0726116666667","6501100","汐止區"
"221021","299-VK","2018/04/23 13:09:23","新北市汐止區南陽街195號","121.625601666667","25.05841","6501100","汐止區"
"220002","741-BX","2018/04/23 13:09:19","新北市板橋區華東街1-9號","121.44815","24.9949366666667","6500100","板橋區"
