"lineid","car","time","location","longitude","latitude","cityid","cityname"
"234044","148-BY","2018/04/23 13:29:09","新北市永和區秀朗路二段149號","121.52483","25.00167","6500400","永和區"
"234005","207-UY","2018/04/23 13:29:14","新北市永和區中山路一段215-1號","121.50824","25.0080016666667","6500400","永和區"
"234078","298-R6","2018/04/23 13:29:09","新北市永和區環河東路三段50號","121.526805","25.0062916666667","6500400","永和區"
"234036","336-UY","2018/04/23 13:29:27","新北市永和區民樂街37巷1號","121.527616666667","25.0007366666667","6500400","永和區"
"234062","337-UY","2018/04/23 13:29:26","新北市永和區永元路17巷25弄7號","121.520906666667","25.0016766666667","6500400","永和區"
"234084","338-UY","2018/04/23 13:29:15","新北市永和區永利路90號","121.520766666667","25.003855","6500400","永和區"
"234068","552-UM","2018/04/23 13:29:22","新北市永和區警光街5號","121.51924","25.0091783333333","6500400","永和區"
"234066","553-UM","2018/04/23 13:29:24","新北市永和區保平路113號","121.510931666667","25.0065933333333","6500400","永和區"
"234015","745-BX","2018/04/23 13:29:10","新北市永和區環河西路一段63號","121.513418333333","25.0180933333333","6500400","永和區"
"234028","746-BX","2018/04/23 13:29:29","新北市永和區民生路69號","121.522643333333","24.9972166666667","6500400","永和區"
"234052","KEA-2590","2018/04/23 13:29:23","新北市永和區復興街25號","121.516201666667","25.0131016666667","6500400","永和區"
"234012","KEA-2591","2018/04/23 13:29:25","新北市永和區中山路一段207-1號","121.508878333333","25.0083266666667","6500400","永和區"
"234060","AAD-866","2018/04/23 13:29:31","新北市永和區中正路457號","121.51693","25.0056233333333","6500400","永和區"
"234040","862-TW","2018/04/23 13:29:27","新北市永和區中和路523號","121.511095","25.0028333333333","6500400","永和區"
"234048","863-TW","2018/04/23 13:29:29","新北市永和區信義路101號","121.512211666667","25.0143433333333","6500400","永和區"
"234025","9371-KE","2018/04/23 13:29:29","新北市永和區和平街34號","121.513153333333","25.0100866666667","6500400","永和區"
"234010","9373-KE","2018/04/23 13:29:26","新北市永和區仁愛路141巷5弄12號","121.512298333333","25.0122266666667","6500400","永和區"
"248013","025-BX","2018/04/23 13:29:24","新北市五股區明德路9號","121.435003333333","25.071305","6501500","五股區"
"248015","026-BX","2018/04/23 13:29:18","新北市五股區凌雲路一段83巷22弄1號","121.449856666667","25.1007916666667","6501500","五股區"
"248005","077-UY","2018/04/23 13:29:27","新北市五股區四維路25號","121.46706","25.0706166666667","6501500","五股區"
"248007","095-VK","2018/04/23 13:29:22","新北市五股區四維路185巷42弄2號","121.463326666667","25.077075","6501500","五股區"
"248019","225-UY","2018/04/23 13:29:17","新北市五股區天乙路116號","121.447455","25.1143016666667","6501500","五股區"
"248011","247-BX","2018/04/23 13:29:26","新北市五股區御成路86號","121.441716666667","25.0929716666667","6501500","五股區"
"248009","272-BY","2018/04/23 13:29:15","新北市五股區水碓路12號","121.433798333333","25.0724116666667","6501500","五股區"
"248003","655-BX","2018/04/23 13:29:19","新北市五股區民義路一段152號","121.433053333333","25.08746","6501500","五股區"
"248001","678-BX","2018/04/23 13:29:29","新北市五股區西雲路170號","121.446885","25.0947833333333","6501500","五股區"
"234022","9380-KE","2018/04/23 13:29:23","新北市永和區竹林路91巷48號","121.521313333333","25.01277","6500400","永和區"
"234076","969-R7","2018/04/23 13:29:24","新北市永和區中正路286巷7號","121.51773","24.9986433333333","6500400","永和區"
"234072","AAC-211","2018/04/23 13:29:16","新北市永和區永和路二段105號","121.514965","25.01189","6500400","永和區"
"234001","AAC-295","2018/04/23 13:29:21","新北市永和區永平路96號","121.511628333333","25.0087466666667","6500400","永和區"
"244001","248-BX","2018/04/23 13:29:23","新北市林口區瑞平里54-2號","121.340986666667","25.12511","6501700","林口區"
"243005","646-TV","2018/04/23 13:29:12","新北市泰山區明志路三段206巷8號","121.423281666667","25.0380633333333","6501600","泰山區"
"231002","002-UM","2018/04/23 13:29:26","新北市新店區環河路62號","121.537023333333","24.962655","6500600","新店區"
"231027","0293-UT","2018/04/23 13:29:20","新北市新店區新店後街114號","121.537703333333","24.9554716666667","6500600","新店區"
"231028","046-UY","2018/04/23 13:29:17","新北市新店區安華路28-1號","121.519545","24.9608266666667","6500600","新店區"
"231001","047-UY","2018/04/23 13:29:21","新北市新店區中央路196號","121.530755","24.9744233333333","6500600","新店區"
"231005","106-UY","2018/04/23 13:29:17","新北市新店區北新路二段2號","121.542623333333","24.97079","6500600","新店區"
"231010","107-UY","2018/04/23 13:29:18","新北市新店區中央路29號","121.533145","24.977845","6500600","新店區"
"231011","187-VK","2018/04/23 13:29:23","新北市新店區北新路二段68號","121.543031666667","24.9724366666667","6500600","新店區"
"231023","KEA-2219","2018/04/23 13:29:14","新北市新店區光明街9號","121.538221666667","24.9594133333333","6500600","新店區"
"231026","256-BX","2018/04/23 13:29:21","新北市新店區安康路一段3-1號","121.534061666667","24.9606516666667","6500600","新店區"
"231019","260-TV","2018/04/23 13:29:20","新北市新店區新烏路一段100-2號","121.545066666667","24.9366683333333","6500600","新店區"
"231018","278-BY","2018/04/23 13:29:09","新北市新店區中央路230號","121.529471666667","24.972655","6500600","新店區"
"231014","AAD-862","2018/04/23 13:29:24","新北市新店區新烏路一段9-1號","121.547263333333","24.95144","6500600","新店區"
"231038","3712-VJ","2018/04/23 13:29:21","新北市新店區安華路30巷1號","121.519503333333","24.9592916666667","6500600","新店區"
"231037","4716-K9","2018/04/23 13:29:13","新北市新店區薏仁坑路29-1號","121.496761666667","24.96165","6500600","新店區"
"231025","4715-K9","2018/04/23 13:29:21","新北市新店區中央六街56號","121.527905","24.975755","6500600","新店區"
"231036","512-UM","2018/04/23 13:29:20","新北市新店區建業路47-1號","121.478728333333","24.9550933333333","6500600","新店區"
"231013","513-UM","2018/04/23 13:29:27","新北市新店區安康路一段44號","121.53081","24.961005","6500600","新店區"
"231031","515-UM","2018/04/23 13:29:17","新北市新店區安忠路102-1號","121.510353333333","24.955675","6500600","新店區"
"231030","619-UM","2018/04/23 13:29:23","新北市新店區安華路28-1號","121.519533333333","24.9609616666667","6500600","新店區"
"231034","641-BX","2018/04/23 13:29:21","新北市新店區安華路28-1號","121.519523333333","24.9605516666667","6500600","新店區"
"231003","645-TV","2018/04/23 13:29:28","新北市新店區秀山路70號","121.531143333333","24.9609516666667","6500600","新店區"
"231035","719-UM","2018/04/23 13:29:26","新北市新店區安華路28-1號","121.519258333333","24.9609483333333","6500600","新店區"
"231029","897-TW","2018/04/23 13:29:20","新北市新店區安華路28-1號","121.519341666667","24.9608033333333","6500600","新店區"
"231006","898-TW","2018/04/23 13:29:30","新北市新店區秀山路68號","121.530908333333","24.9609283333333","6500600","新店區"
"231004","899-TW","2018/04/23 13:29:27","新北市新店區安康路一段323-1號","121.521585","24.9637783333333","6500600","新店區"
"231024","AKT-0513","2018/04/23 13:29:20","新北市新店區中正路154巷4號","121.541835","24.97196","6500600","新店區"
"235028","005-UY","2018/04/23 13:29:25","新北市中和區圓通路143號","121.498895","24.9955766666667","6500300","中和區"
"235027","006-UY","2018/04/23 13:29:17","新北市中和區連城路347巷2弄2號","121.487988333333","24.9958933333333","6500300","中和區"
"235020","096-UM","2018/04/23 13:29:26","新北市中和區中山路二段594號","121.482316666667","25.0054583333333","6500300","中和區"
"235003","097-UM","2018/04/23 13:29:23","新北市中和區大勇街25巷2號","121.517175","24.9932383333333","6500300","中和區"
"235029","098-UM","2018/04/23 13:29:24","新北市中和區莊敬路49巷20弄32號","121.503263333333","25.0050766666667","6500300","中和區"
"235022","151-BY","2018/04/23 13:29:13","新北市中和區圓通路369巷140號","121.488393333333","24.981505","6500300","中和區"
"235019","183-VK","2018/04/23 13:29:14","新北市中和區民享街245-1號","121.472138333333","24.9962816666667","6500300","中和區"
"235002","185-VK","2018/04/23 13:29:22","新北市中和區立人街14巷33號","121.519413333333","24.99541","6500300","中和區"
"235013","186-VK","2018/04/23 13:29:19","新北市中和區景安路108號","121.505423333333","24.9953283333333","6500300","中和區"
"235031","255-BX","2018/04/23 13:29:22","新北市中和區連城路340巷14弄20號","121.482911666667","24.9972416666667","6500300","中和區"
"235036","301-VK","2018/04/23 13:29:12","新北市中和區連城路237-1號","121.493863333333","24.9973333333333","6500300","中和區"
"235007","352-BY","2018/04/23 13:29:17","新北市中和區景平路426號","121.507453333333","24.99319","6500300","中和區"
"235032","377-QA","2018/04/23 13:29:13","新北市中和區圓通路279號","121.495591666667","24.9929366666667","6500300","中和區"
"235025","378-QA","2018/04/23 13:29:29","新北市中和區民享街97巷23號","121.475453333333","24.9994","6500300","中和區"
"235014","4979-A6","2018/04/23 13:29:28","新北市中和區景新街362巷12號","121.511778333333","24.990225","6500300","中和區"
"235033","4980-A6","2018/04/23 13:29:29","新北市中和區連城路127巷17號","121.496758333333","24.9984266666667","6500300","中和區"
"235006","551-UM","2018/04/23 13:29:15","新北市中和區自立路58巷23號","121.523113333333","24.99136","6500300","中和區"
"235009","565-BX","2018/04/23 13:29:17","新北市中和區復興路19號","121.505736666667","24.9896966666667","6500300","中和區"
"235018","640-BX","2018/04/23 13:29:28","新北市中和區民享街87號","121.47439","25.001615","6500300","中和區"
"235024","647-TV","2018/04/23 13:29:11","新北市中和區員山路170號","121.48131","24.9998966666667","6500300","中和區"
"235011","732-UM","2018/04/23 13:29:26","新北市中和區復興路73號","121.50375","24.9902583333333","6500300","中和區"
"235035","783-BX","2018/04/23 13:29:29","新北市中和區永和路458巷3弄22號","121.483258333333","25.0134316666667","6500300","中和區"
"235026","800-TS","2018/04/23 13:29:11","新北市中和區景平路726-2號","121.496808333333","25.003505","6500300","中和區"
"235021","801-TS","2018/04/23 13:29:12","新北市中和區民享街97巷19號","121.47535","24.99954","6500300","中和區"
"235016","805-TS","2018/04/23 13:29:20","新北市中和區興南路二段133號","121.505281666667","24.9841483333333","6500300","中和區"
"235012","896-TW","2018/04/23 13:29:16","新北市中和區中正路637巷52弄1號","121.48543","24.9933983333333","6500300","中和區"
"235017","900-TW","2018/04/23 13:29:28","新北市中和區民享街457號","121.470388333333","24.9931766666667","6500300","中和區"
"235030","911-UM","2018/04/23 13:29:15","新北市中和區中山路二段122號","121.502536666667","25.003765","6500300","中和區"
"235015","157-BY","2018/04/23 13:29:25","新北市中和區興南路二段142巷24弄2號","121.502288333333","24.9846933333333","6500300","中和區"
"235001","AAC-213","2018/04/23 13:29:28","新北市中和區景德街97號","121.515781666667","24.9912183333333","6500300","中和區"
"220013","072-UY","2018/04/23 13:29:27","新北市板橋區華東街1-10號","121.448818333333","24.9946883333333","6500100","板橋區"
"247007","056-VK","2018/04/23 13:29:29","新北市五股區中興路四段17號","121.440505","25.0822433333333","6501400","蘆洲區"
"247019","001-UY","2018/04/23 13:29:16","新北市五股區中興路三段163號","121.449151666667","25.0807266666667","6501400","蘆洲區"
"235005","251-BX","2018/04/23 13:29:20","新北市中和區中和路324巷3弄2號","121.510101666667","25.0008433333333","6500300","中和區"
"253003","6232-TK","2018/04/23 13:29:28","新北市石門區內石門85號","121.568678333333","25.2648733333333","6502200","石門區"
"253001","6251-TK","2018/04/23 13:29:25","新北市三芝區新庄里新庄子71-3號","121.512355","25.276715","6502200","石門區"
"253002","637-UY","2018/04/23 13:28:31","新北市石門區九芎林5-3號","121.559746666667","25.2683416666667","6502200","石門區"
"253004","8270-PC","2018/04/23 13:28:09","新北市石門區竹子湖13號","121.616991666667","25.256115","6502200","石門區"
"208003","665-BX","2018/04/23 13:29:23","台北市南港區研究院路三段273巷1-1號","121.609106666667","25.0289183333333","6502700","金山區"
"207002","749-BX","2018/04/23 13:29:20","新北市萬里區崁腳里崁腳路166號","121.645093333333","25.155835","6502800","萬里區"
"207001","662-BX","2018/04/23 13:29:25","新北市萬里區野柳里八斗60號","121.666775","25.204545","6502800","萬里區"
"252005","AAC-283","2018/04/23 13:29:20","新北市三芝區圓山里八連溪頭3號","121.524695","25.2228166666667","6502100","三芝區"
"236005","498-BY","2018/04/23 13:29:20","新北市土城區亞洲路11巷1弄5號","121.43514","24.9716866666667","6501300","土城區"
"221010","269-BY","2018/04/23 13:29:19","新北市汐止區伯爵街12巷2號","121.640683333333","25.0774366666667","6501100","汐止區"
"221032","280-BY","2018/04/23 13:29:16","新北市汐止區龍安路34號","121.654845","25.064165","6501100","汐止區"
"221021","299-VK","2018/04/23 13:29:22","新北市汐止區工建路159號","121.637583333333","25.06317","6501100","汐止區"
"220027","145-BY","2018/04/23 13:29:12","新北市板橋區板城路407號","121.447536666667","24.9953066666667","6500100","板橋區"
"220028","200-UY","2018/04/23 13:29:19","新北市板橋區華東街1-9號","121.448073333333","24.9948233333333","6500100","板橋區"
"220030","610-BX","2018/04/23 13:29:15","新北市板橋區華東街1-10號","121.448268333333","24.9949516666667","6500100","板橋區"
"220031","286-VK","2018/04/23 13:29:18","新北市板橋區華東街1-10號","121.448358333333","24.9950483333333","6500100","板橋區"
"220032","296-UM","2018/04/23 13:29:13","新北市板橋區華東街1-9號","121.448128333333","24.994975","6500100","板橋區"
"220023","303-R5","2018/04/23 13:29:23","新北市板橋區華東街1-10號","121.448251666667","24.9949333333333","6500100","板橋區"
"220012","486-VK","2018/04/23 13:29:32","新北市板橋區華東街300號","121.452835","25.0028716666667","6500100","板橋區"
"220104","560-BX","2018/04/23 13:29:16","新北市板橋區南雅南路二段1-1號","121.4547","25.003715","6500100","板橋區"
"220003","630-UY","2018/04/23 13:29:22","新北市板橋區華東街1-9號","121.44805","24.9949533333333","6500100","板橋區"
"220005","686-BX","2018/04/23 13:29:20","新北市板橋區華東街1-9號","121.448183333333","24.99491","6500100","板橋區"
"220025","687-BX","2018/04/23 13:29:15","新北市板橋區大觀路二段443-2號","121.43825","24.9953133333333","6500100","板橋區"
"220002","741-BX","2018/04/23 13:29:19","新北市板橋區華東街1-9號","121.448043333333","24.994935","6500100","板橋區"
"220014","829-TW","2018/04/23 13:29:30","新北市板橋區民生路二段120號","121.470561666667","25.0196883333333","6500100","板橋區"
"220022","895-R6","2018/04/23 13:29:24","新北市板橋區華東街1-9號","121.448198333333","24.9949966666667","6500100","板橋區"
"220021","985-R7","2018/04/23 13:29:24","新北市板橋區華東街1-10號","121.448325","24.9950233333333","6500100","板橋區"
