"lineid","car","time","location","longitude","latitude","cityid","cityname"
"243014","421-VK","2018/04/23 15:30:04","新北市泰山區黎明路25號","121.422286666667","25.0606666666667","6501600","泰山區"
"231028","046-UY","2018/04/23 15:39:17","新北市新店區僑義路7號","121.500263333333","24.95192","6500600","新店區"
"231005","106-UY","2018/04/23 15:39:17","新北市新店區中正路374號","121.534955","24.9764633333333","6500600","新店區"
"231011","187-VK","2018/04/23 15:39:23","新北市新店區寶元路一段109號","121.545725","24.9831416666667","6500600","新店區"
"231023","KEA-2219","2018/04/23 15:39:14","新北市新店區中興路一段285號","121.545328333333","24.9686133333333","6500600","新店區"
"231026","256-BX","2018/04/23 15:39:19","新北市新店區三民路75巷2弄2號","121.535783333333","24.97122","6500600","新店區"
"231019","260-TV","2018/04/23 15:39:20","新北市新店區新烏路一段85巷1號","121.547211666667","24.942425","6500600","新店區"
"231018","278-BY","2018/04/23 15:39:29","新北市新店區溪園路77巷2號","121.529198333333","24.9870483333333","6500600","新店區"
"231014","AAD-862","2018/04/23 15:39:24","新北市新店區北宜路一段215號","121.547543333333","24.9520466666667","6500600","新店區"
"231038","3712-VJ","2018/04/23 15:39:20","新北市新店區安康路二段86號","121.513853333333","24.9631783333333","6500600","新店區"
"231037","4716-K9","2018/04/23 15:39:13","新北市新店區安民街341-1號","121.51681","24.975025","6500600","新店區"
"231036","512-UM","2018/04/23 15:39:20","新北市新店區安祥路69巷89弄7號","121.483196666667","24.959375","6500600","新店區"
"231013","513-UM","2018/04/23 15:39:27","新北市新店區永業路81巷1弄13號","121.530245","24.9500833333333","6500600","新店區"
"231031","515-UM","2018/04/23 15:39:17","新北市新店區雙城路133號","121.497806666667","24.9388166666667","6500600","新店區"
"231030","619-UM","2018/04/23 15:39:25","新北市新店區新和街93巷8號","121.520895","24.986655","6500600","新店區"
"231034","641-BX","2018/04/23 15:39:21","新北市新店區玫瑰路58巷26號","121.494048333333","24.9468266666667","6500600","新店區"
"231003","645-TV","2018/04/23 15:39:28","新北市新店區寶橋路97號","121.547495","24.9763783333333","6500600","新店區"
"231039","718-UY","2018/04/23 15:39:28","新北市新店區中興路三段220巷19號","121.54495","24.9832983333333","6500600","新店區"
"231029","897-TW","2018/04/23 15:39:20","新北市新店區安康路三段2號","121.493663333333","24.95368","6500600","新店區"
"231004","899-TW","2018/04/23 15:39:27","新北市新店區民族路108號","121.538181666667","24.9774066666667","6500600","新店區"
"241011","013-R5","2018/04/23 15:39:27","新北市三重區仁愛街12號","121.496808333333","25.0710766666667","6500200","三重區"
"241015","062-VK","2018/04/23 15:39:12","新北市三重區重新路四段121號","121.485133333333","25.0520733333333","6500200","三重區"
"241013","270-UM","2018/04/23 15:39:33","新北市三重區正義北路291號","121.494861666667","25.0706083333333","6500200","三重區"
"241007","398-BY","2018/04/23 15:39:11","新北市三重區重新路四段121號","121.485445","25.05219","6500200","三重區"
"241014","543-UM","2018/04/23 15:39:20","新北市三重區重新路四段121號","121.485125","25.052075","6500200","三重區"
"241023","545-UM","2018/04/23 15:39:32","新北市三重區重新路四段121號","121.484808333333","25.0525383333333","6500200","三重區"
"241006","AAD-863","2018/04/23 15:39:31","新北市三重區重新路四段121號","121.484723333333","25.0521766666667","6500200","三重區"
"241029","942-UM","2018/04/23 15:39:19","新北市三重區大同南路204號","121.496783333333","25.0566466666667","6500200","三重區"
"241033","AAC-255","2018/04/23 15:39:14","新北市三重區重新路五段446號","121.474591666667","25.0474966666667","6500200","三重區"
"235033","4980-A6","2018/04/23 15:39:29","新北市中和區員山路220號","121.481388333333","25.0011316666667","6500300","中和區"
"235026","800-TS","2018/04/23 15:39:31","新北市中和區橋和路119號","121.491768333333","25.005875","6500300","中和區"
"235023","AAC-215","2018/04/23 15:39:18","新北市中和區員山路31-5號","121.4802","24.987805","6500300","中和區"
"236064","105-UM","2018/04/23 15:39:26","新北市土城區大安路20號","121.432853333333","24.96625","6501300","土城區"
"236040","107-UM","2018/04/23 15:39:15","新北市土城區學享街3號","121.450786666667","24.9871733333333","6501300","土城區"
"236074","166-UM","2018/04/23 15:39:15","新北市土城區民族街22巷4號","121.419325","24.9633616666667","6501300","土城區"
"236029","253-BX","2018/04/23 15:39:19","新北市土城區中央路一段45巷3號","121.448675","24.9902083333333","6501300","土城區"
"236024","269-VK","2018/04/23 15:39:27","新北市土城區中央路一段249巷10弄2-2號","121.445693333333","24.9853766666667","6501300","土城區"
"236012","270-VK","2018/04/23 15:39:23","新北市板橋區四川路二段17號","121.456201666667","24.99563","6501300","土城區"
"236016","401-BY","2018/04/23 15:36:42","新北市土城區延吉街111巷10號","121.471733333333","24.9860416666667","6501300","土城區"
"236057","912-UM","2018/04/23 15:39:26","新北市土城區中央路一段186-2號","121.44549","24.98631","6501300","土城區"
"236045","913-UM","2018/04/23 15:39:30","新北市土城區金城路三段313-3號","121.474681666667","24.9912","6501300","土城區"
"236060","915-UM","2018/04/23 15:39:19","新北市土城區立德路135巷12號","121.464943333333","24.9869233333333","6501300","土城區"
"236054","AAC-216","2018/04/23 15:39:15","新北市土城區中央路一段45巷9號","121.449008333333","24.9900816666667","6501300","土城區"
"238002","755-BX","2018/04/23 15:39:32","新北市樹林區日新街89號","121.421671666667","24.9903116666667","6500700","樹林區"
"238010","601-UM","2018/04/23 15:39:16","新北市樹林區三福街60號","121.405255","25.0162883333333","6500700","樹林區"
"238006","599-UM","2018/04/23 15:39:21","新北市樹林區八德街11號","121.420055","24.9747616666667","6500700","樹林區"
"238005","571-TV","2018/04/23 15:39:16","新北市樹林區中華路70號","121.419723333333","24.98165","6500700","樹林區"
"238011","5061-A6","2018/04/23 15:39:28","新北市樹林區中山路二段191號","121.404296666667","24.9775416666667","6500700","樹林區"
"238009","KEA-2213","2018/04/23 15:39:23","新北市樹林區中華路187巷10號","121.420493333333","24.98139","6500700","樹林區"
"238008","KEA-2539","2018/04/23 15:39:21","新北市樹林區柑園街一段206號","121.3933","24.95636","6500700","樹林區"
"238012","303-VK","2018/04/23 15:39:30","新北市樹林區中山路二段142號","121.41315","24.982845","6500700","樹林區"
"238004","283-BY","2018/04/23 15:39:34","新北市樹林區光榮街3巷1號","121.413075","25.0040033333333","6500700","樹林區"
"238001","282-BY","2018/04/23 15:39:25","新北市樹林區潭興街91巷8號","121.424435","24.99875","6500700","樹林區"
"238007","268-VK","2018/04/23 15:39:26","新北市樹林區俊英街222號","121.424923333333","25.010025","6500700","樹林區"
"238013","172-UY","2018/04/23 15:39:12","新北市樹林區中洲街51巷4號","121.396706666667","24.9710283333333","6500700","樹林區"
"238003","169-UY","2018/04/23 15:39:28","新北市樹林區復興路266號","121.418136666667","24.98877","6500700","樹林區"
"220050","245-BX","2018/04/23 15:39:21","新北市板橋區縣民大道三段42號","121.47204","25.0191483333333","6500100","板橋區"
"220052","561-BX","2018/04/23 15:39:25","新北市板橋區漢生東路63巷1號","121.46584","25.0163933333333","6500100","板橋區"
"220038","833-TW","2018/04/23 15:39:24","新北市板橋區四維路268號","121.463223333333","25.0285433333333","6500100","板橋區"
"220018","AAC-253","2018/04/23 15:39:18","新北市板橋區華東街1-8號","121.447928333333","24.994855","6500100","板橋區"
