"lineid","car","time","location","longitude","latitude","cityid","cityname"
"244017","485-VK","2018/04/23 16:29:13","新北市林口區粉寮69號","121.404978333333","25.0909066666667","6501700","林口區"
"231046","107-UY","2018/04/23 16:29:17","新北市新店區灣潭路3-2號","121.538263333333","24.9508166666667","6500600","新店區"
"241011","013-R5","2018/04/23 16:29:27","新北市三重區龍濱路174號","121.501356666667","25.0728683333333","6500200","三重區"
"241028","022-UY","2018/04/23 16:29:18","新北市三重區泉州街45號","121.494478333333","25.0553783333333","6500200","三重區"
"241008","059-VK","2018/04/23 16:29:16","新北市三重區力行路二段136巷45弄12號","121.479158333333","25.0753416666667","6500200","三重區"
"241009","060-VK","2018/04/23 16:29:18","新北市三重區三和路四段181巷114號","121.485016666667","25.0799033333333","6500200","三重區"
"241031","061-VK","2018/04/23 16:29:25","新北市三重區重陽路一段51號","121.48667","25.0583683333333","6500200","三重區"
"241015","062-VK","2018/04/23 16:29:26","新北市三重區福德北路36號","121.501956666667","25.0651983333333","6500200","三重區"
"241017","063-VK","2018/04/23 16:29:22","新北市三重區重新路二段99號","121.495631666667","25.0618016666667","6500200","三重區"
"241024","065-VK","2018/04/23 16:29:10","新北市三重區中正北路315巷16弄15號","121.47585","25.0717316666667","6500200","三重區"
"241002","090-VK","2018/04/23 16:29:27","新北市三重區五華街6號","121.495103333333","25.0799783333333","6500200","三重區"
"241003","091-VK","2018/04/23 16:29:17","新北市三重區仁義街228巷13號","121.494316666667","25.0845183333333","6500200","三重區"
"241005","262-UM","2018/04/23 16:29:21","新北市三重區仁華街146-1號","121.487416666667","25.083095","6500200","三重區"
"241026","265-UM","2018/04/23 16:29:21","新北市三重區光興街1號","121.500341666667","25.0604033333333","6500200","三重區"
"241016","266-UM","2018/04/23 16:29:08","新北市三重區大智街23號","121.494221666667","25.065825","6500200","三重區"
"241022","267-UM","2018/04/23 16:29:20","新北市三重區過圳街102號","121.486076666667","25.0621133333333","6500200","三重區"
"241018","268-UM","2018/04/23 16:29:14","新北市三重區重陽路三段142-1號","121.489446666667","25.06726","6500200","三重區"
"241032","269-UM","2018/04/23 16:29:08","新北市三重區三陽路100巷3弄13號","121.48295","25.058045","6500200","三重區"
"241013","270-UM","2018/04/23 16:29:13","新北市三重區仁愛街52號","121.495968333333","25.072855","6500200","三重區"
"241025","271-UM","2018/04/23 16:29:16","新北市三重區中正北路560巷100弄2號","121.472568333333","25.0682566666667","6500200","三重區"
"241007","398-BY","2018/04/23 16:29:11","新北市三重區溪尾街160號","121.488783333333","25.0802483333333","6500200","三重區"
"241004","475-VK","2018/04/23 16:29:14","新北市三重區仁愛街377巷12號","121.491836666667","25.08057","6500200","三重區"
"241020","478-VK","2018/04/23 16:29:12","新北市三重區車路頭街37巷34號","121.484805","25.0718766666667","6500200","三重區"
"241030","480-VK","2018/04/23 16:29:23","新北市三重區成功路100號","121.48778","25.0513366666667","6500200","三重區"
"241014","543-UM","2018/04/23 16:29:20","新北市三重區河邊北街72-6號","121.5043","25.068585","6500200","三重區"
"241023","545-UM","2018/04/23 16:29:12","新北市三重區忠孝路三段50巷45號","121.482916666667","25.0643666666667","6500200","三重區"
"241001","547-UM","2018/04/23 16:29:25","新北市三重區仁政街116號","121.491931666667","25.078205","6500200","三重區"
"241019","KEA-2593","2018/04/23 16:29:27","新北市三重區重陽路三段97號","121.490315","25.0680733333333","6500200","三重區"
"241006","AAD-863","2018/04/23 16:29:31","新北市三重區力行路二段131號","121.483285","25.07699","6500200","三重區"
"241012","941-UM","2018/04/23 16:29:10","新北市三重區河邊北街385號","121.501668333333","25.076755","6500200","三重區"
"241029","942-UM","2018/04/23 16:29:21","新北市三重區集美街126巷10號","121.48935","25.0537133333333","6500200","三重區"
"241033","AAC-255","2018/04/23 16:29:14","新北市三重區五谷王北街20巷15弄2號","121.474935","25.048205","6500200","三重區"
"235023","AAC-215","2018/04/23 16:29:18","新北市中和區中正路637巷52弄1號","121.485415","24.9936","6500300","中和區"
"224008","285-BY","2018/04/23 16:29:20","新北市瑞芳區大寮路356-1號","121.784768333333","25.1034333333333","6501200","瑞芳區"
"224007","275-VK","2018/04/23 16:29:22","新北市瑞芳區瑞竹路34號","121.764205","25.1035083333333","6501200","瑞芳區"
"224005","271-BY","2018/04/23 16:29:25","新北市瑞芳區阿美家園7號","121.82153","25.1159816666667","6501200","瑞芳區"
"227002","642-TC","2018/04/23 16:29:09","新北市雙溪區上林里內平林120-1號","121.82505","25.0265066666667","6502500","雙溪區"
"227008","400-TW","2018/04/23 16:29:19","新北市雙溪區三港里雙澳路37-5號","121.872763333333","25.0502","6502500","雙溪區"
"251013","179-VK","2018/04/23 16:29:21","新北市淡水區大溪6-2號","121.493716666667","25.1917633333333","6501000","淡水區"
"251008","181-VK","2018/04/23 16:29:27","新北市淡水區民生路46號","121.46169","25.1379316666667","6501000","淡水區"
"251015","182-VK","2018/04/23 16:29:12","新北市淡水區中正路一段156巷1號","121.42119","25.1796716666667","6501000","淡水區"
"238004","283-BY","2018/04/23 16:29:14","新北市樹林區中正路433號","121.414895","25.0085166666667","6500700","樹林區"
"238001","282-BY","2018/04/23 16:29:25","新北市樹林區大慶街99-1號","121.427671666667","24.9997616666667","6500700","樹林區"
