"lineid","car","time","location","longitude","latitude","cityid","cityname"
"249005","172-UM","2018/04/23 16:49:48","新北市八里區大堀湖2-3號","121.422318333333","25.15371","6502300","八里區"
"249003","593-UM","2018/04/23 16:49:40","新北市八里區博物館路181號","121.405875","25.1568233333333","6502300","八里區"
"244007","080-UY","2018/04/23 16:49:52","新北市林口區林口路187巷31弄23號","121.387913333333","25.0812","6501700","林口區"
"244019","403-UM","2018/04/23 16:49:37","新北市林口區粉寮69號","121.405076666667","25.0908083333333","6501700","林口區"
"244017","485-VK","2018/04/23 16:49:53","新北市林口區粉寮69號","121.40502","25.0908916666667","6501700","林口區"
"231046","107-UY","2018/04/23 16:49:57","新北市新店區灣潭路29-5號","121.539656666667","24.938715","6500600","新店區"
"241011","013-R5","2018/04/23 16:49:47","新北市三重區仁愛街53巷135號","121.499311666667","25.0725533333333","6500200","三重區"
"241028","022-UY","2018/04/23 16:49:38","新北市三重區光興街95號","121.497295","25.059935","6500200","三重區"
"241008","059-VK","2018/04/23 16:49:36","新北市三重區永福街179巷25號","121.478","25.07488","6500200","三重區"
"241009","060-VK","2018/04/23 16:49:38","新北市三重區仁美街99號","121.485881666667","25.0805416666667","6500200","三重區"
"241031","061-VK","2018/04/23 16:49:48","新北市三重區過圳街42-1號","121.488301666667","25.0596233333333","6500200","三重區"
"241015","062-VK","2018/04/23 16:49:52","新北市三重區文化北路45號","121.498936666667","25.0654566666667","6500200","三重區"
"241017","063-VK","2018/04/23 16:49:42","新北市三重區國隆路7號","121.49343","25.0637233333333","6500200","三重區"
"241024","065-VK","2018/04/23 16:49:50","新北市三重區力行路二段28號","121.48153","25.0729016666667","6500200","三重區"
"241002","090-VK","2018/04/23 16:49:48","新北市三重區仁義街223號","121.496601666667","25.0820466666667","6500200","三重區"
"241003","091-VK","2018/04/23 16:49:38","新北市三重區五華街71巷70號","121.493671666667","25.0837416666667","6500200","三重區"
"241005","262-UM","2018/04/23 16:49:41","新北市三重區仁華街80巷21號","121.484551666667","25.0836916666667","6500200","三重區"
"241026","265-UM","2018/04/23 16:49:41","新北市三重區文化南路8-4號","121.500286666667","25.0620716666667","6500200","三重區"
"241016","266-UM","2018/04/23 16:49:48","新北市三重區大同北路115巷7號","121.493966666667","25.0646033333333","6500200","三重區"
"241022","267-UM","2018/04/23 16:49:40","新北市三重區貴陽街47巷2號","121.484891666667","25.0629316666667","6500200","三重區"
"241018","268-UM","2018/04/23 16:49:54","新北市三重區正義北路269號","121.495386666667","25.069955","6500200","三重區"
"241032","269-UM","2018/04/23 16:49:48","新北市三重區重陽路一段120巷37號","121.485041666667","25.06023","6500200","三重區"
"241013","270-UM","2018/04/23 16:49:53","新北市三重區仁愛街81號","121.496073333333","25.073165","6500200","三重區"
"241025","271-UM","2018/04/23 16:49:37","新北市三重區中正北路530巷27號","121.472011666667","25.07025","6500200","三重區"
"241007","398-BY","2018/04/23 16:49:51","新北市三重區三和路四段171號","121.48297","25.078765","6500200","三重區"
"241004","475-VK","2018/04/23 16:49:34","新北市三重區仁愛街420號","121.490373333333","25.08139","6500200","三重區"
"241020","478-VK","2018/04/23 16:49:52","新北市三重區忠孝路二段34號","121.48581","25.071055","6500200","三重區"
"241030","480-VK","2018/04/23 16:49:43","新北市三重區中正南路263號","121.492815","25.0528266666667","6500200","三重區"
"241014","543-UM","2018/04/23 16:49:40","新北市三重區長壽街120巷11號","121.502528333333","25.06908","6500200","三重區"
"241023","545-UM","2018/04/23 16:49:52","新北市三重區中華路76巷37-1號","121.481985","25.0625966666667","6500200","三重區"
"241001","547-UM","2018/04/23 16:49:45","新北市三重區仁政街54巷30號","121.492273333333","25.0767133333333","6500200","三重區"
"241019","KEA-2593","2018/04/23 16:49:47","新北市三重區力行路一段155號","121.484973333333","25.06918","6500200","三重區"
"241006","AAD-863","2018/04/23 16:49:51","新北市三重區力行路二段182-3號","121.483425","25.0775483333333","6500200","三重區"
"241012","941-UM","2018/04/23 16:49:50","新北市三重區仁興街11巷54號","121.501023333333","25.07451","6500200","三重區"
"241029","942-UM","2018/04/23 16:49:51","新北市三重區集美街211號","121.491778333333","25.054485","6500200","三重區"
"241033","AAC-255","2018/04/23 16:49:54","新北市三重區新北大道二段65號","121.469076666667","25.0609066666667","6500200","三重區"
"235062","800-TS","2018/04/23 16:35:47","新北市中和區員山路36巷16-3號","121.484936666667","24.9915933333333","6500300","中和區"
"247008","056-VK","2018/04/23 16:49:50","新北市蘆洲區中山一路203號","121.474198333333","25.0810366666667","6501400","蘆洲區"
"247020","001-UY","2018/04/23 16:49:39","新北市蘆洲區民族路422巷14號","121.47417","25.0921433333333","6501400","蘆洲區"
"228003","097-TW","2018/04/23 16:49:46","新北市貢寮區貢寮里朝陽街1-2號","121.912381666667","25.0212416666667","6502600","貢寮區"
"228002","585-TW","2018/04/23 16:49:47","新北市貢寮區貢寮里長泰路24-2號","121.90419","25.0237483333333","6502600","貢寮區"
"224008","285-BY","2018/04/23 16:49:40","新北市瑞芳區明燈路二段56-1號","121.809786666667","25.1075133333333","6501200","瑞芳區"
"224007","275-VK","2018/04/23 16:49:42","新北市瑞芳區瑞竹路46號","121.763476666667","25.1033766666667","6501200","瑞芳區"
"224009","273-VK","2018/04/23 16:49:49","新北市瑞芳區明燈路二段66號","121.809391666667","25.10723","6501200","瑞芳區"
"224005","271-BY","2018/04/23 16:49:45","新北市瑞芳區明里路122號","121.863615","25.1218583333333","6501200","瑞芳區"
"227002","642-TC","2018/04/23 16:49:49","新北市雙溪區外柑里外柑腳71號","121.807128333333","25.017585","6502500","雙溪區"
"227008","400-TW","2018/04/23 16:49:39","新北市雙溪區牡丹里石5-2號","121.863611666667","25.0512583333333","6502500","雙溪區"
"251009","008-UM","2018/04/23 16:49:38","新北市淡水區中正路二段31號","121.419511666667","25.181535","6501000","淡水區"
"251013","179-VK","2018/04/23 16:49:41","新北市淡水區泉洲厝32號","121.48935","25.1926183333333","6501000","淡水區"
"251014","180-VK","2018/04/23 16:49:46","新北市淡水區中山北路三段163號","121.445376666667","25.1966683333333","6501000","淡水區"
"251008","181-VK","2018/04/23 16:49:47","台北市北投區中央北路四段30巷156號","121.47476","25.1414866666667","6501000","淡水區"
"251015","182-VK","2018/04/23 16:49:52","新北市淡水區忠愛街5-1號","121.460738333333","25.1716016666667","6501000","淡水區"
"251012","441-VK","2018/04/23 16:49:36","新北市淡水區中正路二段31號","121.41968","25.1815016666667","6501000","淡水區"
"251016","442-VK","2018/04/23 16:49:41","新北市淡水區水頭42號","121.478168333333","25.1852433333333","6501000","淡水區"
"251007","577-R6","2018/04/23 16:49:54","新北市淡水區中正路二段31號","121.41914","25.18185","6501000","淡水區"
"251011","650-BX","2018/04/23 16:49:52","新北市淡水區中正路二段31號","121.419435","25.181675","6501000","淡水區"
"252002","178-VK","2018/04/23 16:49:42","新北市三芝區忠孝街37號","121.50613","25.2557083333333","6502100","三芝區"
"252001","292-VK","2018/04/23 16:49:37","新北市三芝區淡金路二段89號","121.503971666667","25.2607383333333","6502100","三芝區"
"242036","415-TV","2018/04/23 16:49:52","新北市新莊區新泰路357巷3弄57號","121.442106666667","25.03928","6500500","新莊區"
"242023","362-BY","2018/04/23 16:49:41","新北市新莊區三和路12-21號","121.442208333333","25.0385583333333","6500500","新莊區"
"242015","346-TH","2018/04/23 16:49:43","新北市新莊區三和路12-16號","121.442156666667","25.0373966666667","6500500","新莊區"
"238025","303-VK","2018/04/23 16:49:52","新北市樹林區中正路22-1號","121.427871666667","24.9993533333333","6500700","樹林區"
"238004","283-BY","2018/04/23 16:49:54","新北市樹林區中正路433-2號","121.414885","25.00839","6500700","樹林區"
"238001","282-BY","2018/04/23 16:49:45","新北市樹林區大慶街99-1號","121.427748333333","24.999725","6500700","樹林區"
"239008","527-UM","2018/04/23 16:49:41","新北市鶯歌區二甲路13-16號","121.345346666667","24.9351816666667","6500800","鶯歌區"
"239001","417-VK","2018/04/23 16:44:23","新北市鶯歌區二甲路12-2號","121.345918333333","24.9343983333333","6500800","鶯歌區"
"239003","360-BY","2018/04/23 16:49:51","新北市鶯歌區二甲路13-16號","121.345445","24.935145","6500800","鶯歌區"
