"lineid","car","time","location","longitude","latitude","cityid","cityname"
"249005","172-UM","2018/04/23 17:19:28","新北市八里區華富山25號","121.418856666667","25.1309366666667","6502300","八里區"
"249001","173-UM","2018/04/23 17:19:25","新北市八里區中華路二段165巷3號","121.407676666667","25.1508683333333","6502300","八里區"
"249004","303-UY","2018/04/23 17:19:22","新北市八里區文化街131號","121.421971666667","25.160015","6502300","八里區"
"249002","305-UY","2018/04/23 17:19:32","新北市八里區龍米路二段117巷31號","121.44597","25.1430116666667","6502300","八里區"
"249003","593-UM","2018/04/23 17:19:20","新北市八里區中山路二段453-1號","121.39646","25.1454933333333","6502300","八里區"
"232011","375-UM","2018/04/23 17:19:24","新北市坪林區北宜路八段551號","121.717851666667","24.910785","6502000","坪林區"
"244013","069-UM","2018/04/23 17:19:29","新北市林口區粉寮69號","121.405056666667","25.0908416666667","6501700","林口區"
"244007","080-UY","2018/04/23 17:19:12","新北市林口區湖子24-1號","121.386098333333","25.0929883333333","6501700","林口區"
"244019","403-UM","2018/04/23 17:19:16","新北市林口區文化二路一段338號","121.372768333333","25.0747716666667","6501700","林口區"
"244023","483-VK","2018/04/23 17:19:11","新北市林口區仁愛路一段665號","121.387746666667","25.0764816666667","6501700","林口區"
"244017","485-VK","2018/04/23 17:19:13","新北市林口區粉寮69號","121.404973333333","25.0908883333333","6501700","林口區"
"244009","656-BX","2018/04/23 17:19:15","新北市林口區文化北路二段550巷20弄10號","121.378403333333","25.0919216666667","6501700","林口區"
"244025","837-TS","2018/04/23 17:19:28","新北市林口區中山路518號","121.378831666667","25.0830983333333","6501700","林口區"
"244021","838-TS","2018/04/23 17:19:20","新北市林口區粉寮62號","121.406956666667","25.0894366666667","6501700","林口區"
"231046","107-UY","2018/04/23 17:19:17","新北市新店區直潭路92號","121.530908333333","24.9375916666667","6500600","新店區"
"241011","013-R5","2018/04/23 17:19:27","新北市三重區河邊北街100巷25號","121.502871666667","25.0702516666667","6500200","三重區"
"241028","022-UY","2018/04/23 17:19:18","新北市三重區仁化商場7號","121.493556666667","25.0594983333333","6500200","三重區"
"241008","059-VK","2018/04/23 17:19:16","新北市三重區下竹圍街9號","121.480983333333","25.07587","6500200","三重區"
"241009","060-VK","2018/04/23 17:19:18","新北市三重區仁愛街674號","121.482226666667","25.0803066666667","6500200","三重區"
"241015","062-VK","2018/04/23 17:19:32","新北市三重區福德北路89號","121.501866666667","25.0662483333333","6500200","三重區"
"241017","063-VK","2018/04/23 17:19:22","新北市三重區大同北路91號","121.494776666667","25.0636483333333","6500200","三重區"
"241024","065-VK","2018/04/23 17:19:30","新北市三重區中正北路165巷2號","121.478566666667","25.0696216666667","6500200","三重區"
"241002","090-VK","2018/04/23 17:19:23","新北市三重區自強路五段21-1號","121.493085","25.08078","6500200","三重區"
"241003","091-VK","2018/04/23 17:19:17","新北市三重區富福街45號","121.491578333333","25.0841833333333","6500200","三重區"
"241005","262-UM","2018/04/23 17:19:21","新北市三重區永安北路二段25巷2號","121.482341666667","25.0817833333333","6500200","三重區"
"241026","265-UM","2018/04/23 17:19:21","新北市三重區文化南路31-1號","121.500213333333","25.0617183333333","6500200","三重區"
"241016","266-UM","2018/04/23 17:19:28","新北市三重區中正北路25巷2號","121.493288333333","25.0627183333333","6500200","三重區"
"241022","267-UM","2018/04/23 17:19:20","新北市三重區重陽路二段36號","121.48687","25.0631316666667","6500200","三重區"
"241018","268-UM","2018/04/23 17:19:14","新北市三重區安慶街123號","121.494845","25.0690266666667","6500200","三重區"
"241032","269-UM","2018/04/23 17:19:28","新北市三重區中華路2巷2號","121.483111666667","25.0602516666667","6500200","三重區"
"241013","270-UM","2018/04/23 17:19:12","新北市三重區三和路三段107巷25號","121.49516","25.0731033333333","6500200","三重區"
"241025","271-UM","2018/04/23 17:19:31","新北市三重區中正北路255號","121.4753","25.07073","6500200","三重區"
"241007","398-BY","2018/04/23 17:19:31","新北市三重區三和路四段165號","121.48346","25.0785883333333","6500200","三重區"
"241024","KEA-2210","2018/04/23 17:19:18","新北市三重區國道路一段58巷15號","121.481405","25.0719966666667","6500200","三重區"
"241004","475-VK","2018/04/23 17:19:14","新北市三重區五華街110巷1號","121.492021666667","25.0829266666667","6500200","三重區"
"241020","478-VK","2018/04/23 17:19:32","新北市三重區自強路三段72號","121.486786666667","25.07346","6500200","三重區"
"241030","480-VK","2018/04/23 17:19:23","新北市三重區成功路73巷9號","121.489495","25.0517883333333","6500200","三重區"
"241014","543-UM","2018/04/23 17:19:20","新北市三重區長榮路6號","121.500141666667","25.0684766666667","6500200","三重區"
"241023","545-UM","2018/04/23 17:19:11","新北市三重區三民街188號","121.481791666667","25.065785","6500200","三重區"
"241019","KEA-2593","2018/04/23 17:19:27","新北市三重區三張街162號","121.485915","25.0693483333333","6500200","三重區"
"241006","AAD-863","2018/04/23 17:19:31","新北市三重區車路頭街139巷12號","121.484253333333","25.0761933333333","6500200","三重區"
"241012","941-UM","2018/04/23 17:19:30","新北市三重區河邊北街256巷18號","121.501283333333","25.0760183333333","6500200","三重區"
"241029","942-UM","2018/04/23 17:19:19","新北市三重區重新路四段86號","121.488006666667","25.0573683333333","6500200","三重區"
"241033","AAC-255","2018/04/23 17:19:21","新北市三重區中興北街193巷2號","121.469055","25.05669","6500200","三重區"
"247024","893-R6","2018/04/23 17:19:22","新北市蘆洲區光榮路2號","121.460426666667","25.0861816666667","6501400","蘆洲區"
"247014","546-UM","2018/04/23 17:19:14","新北市蘆洲區中正路60號","121.470548333333","25.083075","6501400","蘆洲區"
"247022","500-BY","2018/04/23 17:19:31","新北市蘆洲區三民路128巷29-2號","121.47012","25.08934","6501400","蘆洲區"
"247010","341-TH","2018/04/23 17:19:30","新北市蘆洲區中山一路120巷7弄13號","121.477206666667","25.0820883333333","6501400","蘆洲區"
"247012","339-TH","2018/04/23 17:19:13","新北市蘆洲區信義路319巷14號","121.477635","25.0862333333333","6501400","蘆洲區"
"247004","337-TH","2018/04/23 17:19:22","新北市蘆洲區中原路74號","121.458295","25.08197","6501400","蘆洲區"
"247006","336-TH","2018/04/23 17:19:34","新北市蘆洲區長安街73巷19號","121.46216","25.079415","6501400","蘆洲區"
"247018","057-VK","2018/04/23 17:19:14","新北市蘆洲區民權路68巷6號","121.475286666667","25.0875016666667","6501400","蘆洲區"
"247008","056-VK","2018/04/23 17:19:10","新北市蘆洲區信義路34巷118號","121.47554","25.0767016666667","6501400","蘆洲區"
"247016","007-UY","2018/04/23 17:19:23","新北市蘆洲區正和街96巷22號","121.467775","25.081205","6501400","蘆洲區"
"247002","002-UY","2018/04/23 17:19:16","新北市蘆洲區永樂街38巷33弄60號","121.456448333333","25.0899733333333","6501400","蘆洲區"
"247020","001-UY","2018/04/23 17:19:19","新北市蘆洲區民族路341號","121.472678333333","25.0919516666667","6501400","蘆洲區"
"228003","097-TW","2018/04/23 17:19:26","新北市貢寮區福隆里興隆街21號","121.943755","25.0165983333333","6502600","貢寮區"
"228002","585-TW","2018/04/23 17:19:27","新北市貢寮區雙玉里田寮洋街45號","121.926143333333","25.0133116666667","6502600","貢寮區"
"228001","670-TC","2018/04/23 17:19:29","新北市貢寮區仁理村尖山腳街18-3號","121.925473333333","25.0483","6502600","貢寮區"
"224008","285-BY","2018/04/23 17:19:20","新北市瑞芳區侯硐路178號","121.828963333333","25.0872216666667","6501200","瑞芳區"
"224009","273-VK","2018/04/23 17:19:29","新北市瑞芳區汽車路94號","121.842441666667","25.10853","6501200","瑞芳區"
"224005","271-BY","2018/04/23 17:19:25","新北市瑞芳區鼻頭路247號","121.912533333333","25.1238666666667","6501200","瑞芳區"
"227002","642-TC","2018/04/23 17:19:29","新北市雙溪區上林里內平林90號","121.827571666667","25.0275116666667","6502500","雙溪區"
"227008","400-TW","2018/04/23 17:19:19","新北市雙溪區三貂里政光路3號","121.851286666667","25.0632066666667","6502500","雙溪區"
"251009","008-UM","2018/04/23 17:19:17","新北市淡水區三民街20號","121.438998333333","25.1717066666667","6501000","淡水區"
"251004","009-UM","2018/04/23 17:19:22","新北市淡水區中正東路二段88巷15號","121.45908","25.1505833333333","6501000","淡水區"
"251005","010-UM","2018/04/23 17:19:25","新北市淡水區鄧公路19-1號","121.450565","25.1700366666667","6501000","淡水區"
"251013","179-VK","2018/04/23 17:19:21","新北市淡水區大竹圍6號","121.469858333333","25.1951983333333","6501000","淡水區"
"251014","180-VK","2018/04/23 17:19:26","新北市淡水區公埔子45號","121.46395","25.230185","6501000","淡水區"
"251008","181-VK","2018/04/23 17:19:27","新北市淡水區大同路235號","121.465868333333","25.1422","6501000","淡水區"
"251015","182-VK","2018/04/23 17:19:12","新北市淡水區三空泉17-5號","121.473351666667","25.1654366666667","6501000","淡水區"
"251010","413-VK","2018/04/23 17:19:28","新北市淡水區中正路二段397號","121.424998333333","25.1913216666667","6501000","淡水區"
"251012","441-VK","2018/04/23 17:19:16","新北市淡水區中山北路一段158號","121.444291666667","25.1779166666667","6501000","淡水區"
"251016","442-VK","2018/04/23 17:19:22","新北市淡水區鄒厝崙5-1號","121.470693333333","25.1871566666667","6501000","淡水區"
"251001","559-UM","2018/04/23 17:19:13","新北市淡水區民權路233號","121.460216666667","25.127965","6501000","淡水區"
"251006","561-UM","2018/04/23 17:19:14","新北市淡水區大智街45號","121.442748333333","25.1742416666667","6501000","淡水區"
"251007","577-R6","2018/04/23 17:19:14","新北市淡水區民生路47-4號","121.461998333333","25.1379916666667","6501000","淡水區"
"251011","650-BX","2018/04/23 17:19:12","新北市淡水區坪頂路137-2號","121.466301666667","25.1615366666667","6501000","淡水區"
"251002","672-BX","2018/04/23 17:19:22","新北市淡水區中正路二段31號","121.4194","25.1815733333333","6501000","淡水區"
"251003","766-UM","2018/04/23 17:19:17","新北市淡水區中正路二段31號","121.419401666667","25.1815116666667","6501000","淡水區"
"207003","550-UM","2018/04/23 17:19:16","新北市萬里區萬里里瑪鋉路292號","121.688451666667","25.1815133333333","6502800","萬里區"
"252002","178-VK","2018/04/23 17:19:22","新北市三芝區忠孝街1-14號","121.50551","25.2539233333333","6502100","三芝區"
"252001","292-VK","2018/04/23 17:19:17","新北市三芝區長安街119號","121.498001666667","25.2596733333333","6502100","三芝區"
"242034","AAC-296","2018/04/23 17:19:27","新北市新莊區新莊路773號","121.44196","25.0328916666667","6500500","新莊區"
"242053","751-BX","2018/04/23 17:19:17","新北市新莊區環河路636-1號","121.436636666667","25.010755","6500500","新莊區"
"242027","705-TV","2018/04/23 17:19:16","新北市新莊區中港路303號","121.452875","25.0445616666667","6500500","新莊區"
"242025","613-BX","2018/04/23 17:19:29","新北市新莊區中平路82巷36-2號","121.446288333333","25.0449533333333","6500500","新莊區"
"242029","612-BX","2018/04/23 17:19:15","新北市新莊區幸福路772號","121.446966666667","25.0491983333333","6500500","新莊區"
"242042","566-BX","2018/04/23 17:19:22","新北市新莊區中正路400號","121.441928333333","25.03415","6500500","新莊區"
"242046","497-BY","2018/04/23 17:19:14","新北市新莊區新樹路65-5號","121.439461666667","25.0308233333333","6500500","新莊區"
"242050","441-UM","2018/04/23 17:19:18","新北市新莊區瓊林南路42巷1-1號","121.435926666667","25.0177933333333","6500500","新莊區"
"242056","440-UM","2018/04/23 17:19:15","新北市新莊區三和路12-21號","121.441966666667","25.03823","6500500","新莊區"
"242036","415-TV","2018/04/23 17:19:13","新北市新莊區中正路475號","121.441498333333","25.0338083333333","6500500","新莊區"
"242007","413-TV","2018/04/23 17:19:27","新北市新莊區新泰路255巷83號","121.442363333333","25.0390133333333","6500500","新莊區"
"242044","400-BY","2018/04/23 17:19:25","新北市新莊區中正路729號","121.42281","25.0290016666667","6500500","新莊區"
"242023","362-BY","2018/04/23 17:19:21","新北市新莊區新泰路486號","121.442526666667","25.045735","6500500","新莊區"
"242060","353-BY","2018/04/23 17:19:17","新北市泰山區磚雅厝3號","121.442038333333","25.0416466666667","6500500","新莊區"
"242039","133-UY","2018/04/23 17:19:14","新北市新莊區新樹路72-7號","121.436456666667","25.0250133333333","6500500","新莊區"
"242031","135-UY","2018/04/23 17:19:13","新北市新莊區新泰路357巷3弄57號","121.44238","25.0397166666667","6500500","新莊區"
"242048","172-VK","2018/04/23 17:19:19","新北市新莊區福營路367號","121.423706666667","25.0276583333333","6500500","新莊區"
"242017","175-VK","2018/04/23 17:19:28","新北市新莊區新泰路488號","121.442436666667","25.0458166666667","6500500","新莊區"
"242004","176-VK","2018/04/23 17:19:32","新北市新莊區新泰路480號","121.442563333333","25.0455633333333","6500500","新莊區"
"242015","346-TH","2018/04/23 17:19:24","新北市新莊區新泰路204號","121.446931666667","25.0385333333333","6500500","新莊區"
"242021","348-TH","2018/04/23 17:19:19","新北市新莊區中平路82巷36-2號","121.44634","25.044785","6500500","新莊區"
"242013","351-TH","2018/04/23 17:19:15","新北市新莊區三和路12-9號","121.442146666667","25.0367316666667","6500500","新莊區"
"238019","599-UM","2018/04/23 17:19:27","新北市樹林區太平路247巷26-1號","121.420435","24.97518","6500700","樹林區"
"238018","571-TV","2018/04/23 17:19:16","新北市樹林區樹中街3號","121.420668333333","24.9861233333333","6500700","樹林區"
"238024","5061-A6","2018/04/23 17:19:28","新北市樹林區保安街一段48巷36號","121.426705","24.9955766666667","6500700","樹林區"
"238022","KEA-2213","2018/04/23 17:19:23","新北市樹林區忠孝街15號","121.423315","24.98264","6500700","樹林區"
"238021","KEA-2539","2018/04/23 17:19:30","新北市樹林區西圳街一段165巷2號","121.39535","24.9620833333333","6500700","樹林區"
"238025","303-VK","2018/04/23 17:19:32","新北市樹林區保安二街67號","121.42465","24.9947916666667","6500700","樹林區"
"238017","283-BY","2018/04/23 17:19:34","新北市樹林區光武街32-2號","121.416583333333","25.00621","6500700","樹林區"
"238014","282-BY","2018/04/23 17:19:25","新北市樹林區長壽街15-5號","121.422946666667","24.9936216666667","6500700","樹林區"
"238026","172-UY","2018/04/23 17:19:13","新北市樹林區味王街46巷17號","121.40355","24.973685","6500700","樹林區"
"238016","169-UY","2018/04/23 17:19:28","新北市樹林區中山路二段34號","121.417473333333","24.984965","6500700","樹林區"
"239007","AAC-297","2018/04/23 17:19:22","新北市鶯歌區行政路14-1號","121.35123","24.95549","6500800","鶯歌區"
"239006","891-R6","2018/04/23 17:19:25","新北市鶯歌區德昌二街3巷1-1號","121.333155","24.9594583333333","6500800","鶯歌區"
"239008","527-UM","2018/04/23 17:19:21","新北市鶯歌區西湖街曾厝巷35-1號","121.339001666667","24.9615616666667","6500800","鶯歌區"
"239005","526-UM","2018/04/23 17:19:27","新北市鶯歌區福德四街8號","121.32964","24.967895","6500800","鶯歌區"
"239001","417-VK","2018/04/23 17:19:23","新北市鶯歌區尖山路234號","121.343173333333","24.946765","6500800","鶯歌區"
"239003","360-BY","2018/04/23 17:19:11","新北市鶯歌區德昌二街71號","121.333416666667","24.95814","6500800","鶯歌區"
"239002","359-BY","2018/04/23 17:19:14","新北市鶯歌區國慶街98號","121.350313333333","24.9544866666667","6500800","鶯歌區"
"239004","193-VK","2018/04/23 17:19:22","新北市鶯歌區文化路322號","121.3524","24.9466833333333","6500800","鶯歌區"
"242002","KEA-2550","2018/04/23 17:19:25","新北市新莊區新泰路264號","121.446036666667","25.0401516666667","6500500","新莊區"
"242009","281-VK","2018/04/23 17:19:26","新北市新莊區新泰路488號","121.44252","25.0457683333333","6500500","新莊區"
"242019","280-VK","2018/04/23 17:19:17","新北市新莊區三和路12-12號","121.442206666667","25.03706","6500500","新莊區"
