"lineid","car","time","location","longitude","latitude","cityid","cityname"
"234026","9371-KE","2018/04/23 17:39:06","新北市永和區中正路657號","121.51492","25.0102316666667","6500400","永和區"
"249005","172-UM","2018/04/23 17:39:07","新北市八里區荖阡坑路41-6號","121.402293333333","25.1324433333333","6502300","八里區"
"249001","173-UM","2018/04/23 17:39:22","新北市八里區龍米路二段190號","121.433868333333","25.1583366666667","6502300","八里區"
"249004","303-UY","2018/04/23 17:39:02","新北市八里區賢三街162號","121.414668333333","25.1567683333333","6502300","八里區"
"249002","305-UY","2018/04/23 17:39:12","新北市八里區頂寮二街121巷20號","121.446511666667","25.12782","6502300","八里區"
"249003","593-UM","2018/04/23 17:39:20","新北市八里區中山路二段165號","121.405035","25.1507283333333","6502300","八里區"
"248006","077-UY","2018/04/23 17:39:08","新北市五股區中興路二段37巷28號","121.46031","25.074795","6501500","五股區"
"232011","375-UM","2018/04/23 17:39:24","新北市坪林區北宜路八段52號","121.704606666667","24.9355433333333","6502000","坪林區"
"244013","069-UM","2018/04/23 17:39:09","新北市林口區中正路555號","121.381166666667","25.07684","6501700","林口區"
"244007","080-UY","2018/04/23 17:39:12","新北市林口區佳林路1號","121.387296666667","25.0824433333333","6501700","林口區"
"244019","403-UM","2018/04/23 17:39:16","新北市林口區文化一路一段83巷14弄3號","121.37226","25.07184","6501700","林口區"
"244023","483-VK","2018/04/23 17:39:11","新北市林口區東明三街326號","121.390793333333","25.0699933333333","6501700","林口區"
"244017","485-VK","2018/04/23 17:39:13","新北市林口區文化一路一段57-2號","121.371198333333","25.0698316666667","6501700","林口區"
"244009","656-BX","2018/04/23 17:39:15","新北市林口區民享路173號","121.38217","25.0836683333333","6501700","林口區"
"244011","701-TV","2018/04/23 17:39:20","新北市林口區佳林路154號","121.384186666667","25.0770916666667","6501700","林口區"
"244025","837-TS","2018/04/23 17:39:07","新北市林口區忠孝路308巷21號","121.36723","25.0720216666667","6501700","林口區"
"244021","838-TS","2018/04/23 17:39:20","新北市林口區東林街14號","121.396221666667","25.07894","6501700","林口區"
"222002","659-BX","2018/04/23 17:39:19","新北市深坑區北深路一段300號","121.622563333333","25.0064233333333","6501800","深坑區"
"231046","107-UY","2018/04/23 17:39:17","新北市新店區直潭路92號","121.530908333333","24.93759","6500600","新店區"
"241017","063-VK","2018/04/23 17:39:22","新北市三重區重新路二段99號","121.495586666667","25.0617983333333","6500200","三重區"
"241005","262-UM","2018/04/23 17:39:21","新北市三重區仁愛街562號","121.485306666667","25.08152","6500200","三重區"
"241016","266-UM","2018/04/23 17:38:48","新北市三重區正義北路21號","121.497608333333","25.0633983333333","6500200","三重區"
"241007","398-BY","2018/04/23 17:39:11","新北市三重區慈愛街61號","121.486576666667","25.07925","6500200","三重區"
"241024","KEA-2210","2018/04/23 17:39:18","新北市三重區力行路二段9巷10號","121.48287","25.0722666666667","6500200","三重區"
"241020","478-VK","2018/04/23 17:39:12","新北市三重區忠孝路二段35號","121.485903333333","25.0710633333333","6500200","三重區"
"241014","543-UM","2018/04/23 17:39:20","新北市三重區介壽路39巷168號","121.50205","25.0708616666667","6500200","三重區"
"241023","545-UM","2018/04/23 17:39:12","新北市三重區忠孝路三段50巷43號","121.482888333333","25.06444","6500200","三重區"
"241019","KEA-2593","2018/04/23 17:39:07","新北市三重區自強路二段36號","121.489231666667","25.0694616666667","6500200","三重區"
"241012","941-UM","2018/04/23 17:39:10","新北市三重區仁興街39巷20號","121.500231666667","25.0762666666667","6500200","三重區"
"241033","AAC-255","2018/04/23 17:39:14","新北市三重區光復路一段51號","121.472168333333","25.048885","6500200","三重區"
"235046","733-UM","2018/04/23 17:39:18","新北市中和區員山路36巷13號","121.484141666667","24.9909066666667","6500300","中和區"
"247024","893-R6","2018/04/23 17:39:22","新北市蘆洲區長樂路125-1號","121.462105","25.0880883333333","6501400","蘆洲區"
"247014","546-UM","2018/04/23 17:39:14","新北市蘆洲區中山二路135號","121.472048333333","25.0816583333333","6501400","蘆洲區"
"247022","500-BY","2018/04/23 17:39:12","新北市蘆洲區民族路552號","121.467723333333","25.0890783333333","6501400","蘆洲區"
"247010","341-TH","2018/04/23 17:39:07","新北市蘆洲區中山一路74巷55號","121.47988","25.08144","6501400","蘆洲區"
"247012","339-TH","2018/04/23 17:39:13","新北市蘆洲區民權路3巷6號","121.476195","25.0855366666667","6501400","蘆洲區"
"247004","337-TH","2018/04/23 17:39:22","新北市蘆洲區長安街249巷24號","121.458293333333","25.08294","6501400","蘆洲區"
"247006","336-TH","2018/04/23 17:39:14","新北市蘆洲區長安街68巷23號","121.463723333333","25.0808883333333","6501400","蘆洲區"
"247018","057-VK","2018/04/23 17:39:15","新北市蘆洲區民權路61巷14號","121.473238333333","25.0876333333333","6501400","蘆洲區"
"247008","056-VK","2018/04/23 17:39:10","新北市蘆洲區民生街74號","121.472823333333","25.07904","6501400","蘆洲區"
"247016","007-UY","2018/04/23 17:39:23","新北市蘆洲區光華路70巷1號","121.467955","25.0829366666667","6501400","蘆洲區"
"247002","002-UY","2018/04/23 17:39:16","新北市蘆洲區永平街32巷1號","121.458736666667","25.0909683333333","6501400","蘆洲區"
"247020","001-UY","2018/04/23 17:39:19","新北市蘆洲區民族路464-1號","121.471785","25.091705","6501400","蘆洲區"
"228003","097-TW","2018/04/23 17:39:06","新北市貢寮區仁理村仁和路37號","121.92395","25.053915","6502600","貢寮區"
"228002","585-TW","2018/04/23 17:39:07","新北市貢寮區福隆里龜壽谷街27號","121.952018333333","25.012855","6502600","貢寮區"
"228001","670-TC","2018/04/23 17:39:09","新北市貢寮區仁理村仁愛路95-1號","121.92768","25.055435","6502600","貢寮區"
"224010","AGQ-8101","2018/04/23 17:38:58","新北市瑞芳區岳王路156號","121.808641666667","25.1113183333333","6501200","瑞芳區"
"224008","285-BY","2018/04/23 17:39:20","新北市瑞芳區瑞柑新村7號","121.828943333333","25.1063466666667","6501200","瑞芳區"
"224009","273-VK","2018/04/23 17:39:09","新北市瑞芳區崙頂路3-1號","121.84728","25.1044266666667","6501200","瑞芳區"
"224005","271-BY","2018/04/23 17:39:05","新北市瑞芳區海濱路8-6號","121.830836666667","25.12562","6501200","瑞芳區"
"227002","642-TC","2018/04/23 17:39:09","新北市雙溪區三貂里定福路1-6號","121.84947","25.0634516666667","6502500","雙溪區"
"208002","KEA-2872","2018/04/23 17:39:22","新北市金山區磺清路121號","121.639748333333","25.2281166666667","6502700","金山區"
"251009","008-UM","2018/04/23 17:39:18","新北市淡水區中正路39號","121.44219","25.1695033333333","6501000","淡水區"
"251004","009-UM","2018/04/23 17:39:02","新北市淡水區中正東路二段163號","121.45933","25.1448633333333","6501000","淡水區"
"251005","010-UM","2018/04/23 17:39:25","新北市淡水區鄧公路33巷5號","121.451606666667","25.17108","6501000","淡水區"
"251013","179-VK","2018/04/23 17:39:21","新北市淡水區演戲埔腳2號","121.474703333333","25.1924783333333","6501000","淡水區"
"251014","180-VK","2018/04/23 17:39:06","新北市淡水區公埔子16-6號","121.479743333333","25.2255883333333","6501000","淡水區"
"251008","181-VK","2018/04/23 17:39:07","新北市淡水區八勢路一段48號","121.46672","25.1551583333333","6501000","淡水區"
"251015","182-VK","2018/04/23 17:39:19","新北市淡水區糞箕湖20號","121.485685","25.1708966666667","6501000","淡水區"
"251010","413-VK","2018/04/23 17:39:10","新北市淡水區淡海路284號","121.419903333333","25.1892716666667","6501000","淡水區"
"251012","441-VK","2018/04/23 17:39:16","新北市淡水區北新路200巷8號","121.451761666667","25.1796683333333","6501000","淡水區"
"251016","442-VK","2018/04/23 17:39:22","新北市淡水區埤島75-1號","121.453083333333","25.195045","6501000","淡水區"
"251001","559-UM","2018/04/23 17:39:12","新北市淡水區民權路92巷35-1號","121.462115","25.1266833333333","6501000","淡水區"
"251006","561-UM","2018/04/23 17:39:14","新北市淡水區大信街24巷2號","121.441945","25.17668","6501000","淡水區"
"251007","577-R6","2018/04/23 17:39:14","新北市淡水區民生路52巷39號","121.463286666667","25.1378316666667","6501000","淡水區"
"251011","650-BX","2018/04/23 17:39:12","新北市淡水區小坪頂13-3號","121.486623333333","25.1561466666667","6501000","淡水區"
"251002","672-BX","2018/04/23 17:39:02","新北市淡水區重建街82號","121.440106666667","25.172355","6501000","淡水區"
"251003","766-UM","2018/04/23 17:39:17","新北市淡水區中山北路一段47號","121.441675","25.1753983333333","6501000","淡水區"
"207003","550-UM","2018/04/23 17:39:23","新北市萬里區龜吼里漁澳路5-1號","121.686555","25.1942533333333","6502800","萬里區"
"207004","225-TW","2018/04/23 17:39:06","新北市萬里區中幅里中福路8號","121.68503","25.164455","6502800","萬里區"
"252002","178-VK","2018/04/23 17:39:22","新北市三芝區中正路二段2號","121.505003333333","25.25573","6502100","三芝區"
"252001","292-VK","2018/04/23 17:39:17","新北市三芝區淡金路一段81號","121.502058333333","25.25878","6502100","三芝區"
"237011","572-TV","2018/04/23 17:39:07","新北市三峽區民權街147號","121.368763333333","24.9317","6500900","三峽區"
"237008","302-VK","2018/04/23 17:39:09","新北市三峽區中山路365號","121.358975","24.9372133333333","6500900","三峽區"
"236030","253-BX","2018/04/23 17:39:21","新北市土城區城林路6巷80號","121.438813333333","24.9794933333333","6501300","土城區"
"236014","270-VK","2018/04/23 17:39:17","新北市土城區城林路6巷80號","121.438551666667","24.9795466666667","6501300","土城區"
"236069","KEA-2877","2018/04/23 17:39:09","新北市土城區城林路6巷80號","121.438798333333","24.97965","6501300","土城區"
"242034","AAC-296","2018/04/23 17:39:24","新北市新莊區新莊路524號","121.445828333333","25.0330433333333","6500500","新莊區"
"242058","986-R7","2018/04/23 17:39:21","新北市新莊區中正路618號","121.4237","25.0293283333333","6500500","新莊區"
"242053","751-BX","2018/04/23 17:39:17","新北市新莊區新樹路697號","121.432201666667","25.0023433333333","6500500","新莊區"
"242027","705-TV","2018/04/23 17:39:16","新北市新莊區福壽街111號","121.457913333333","25.0509783333333","6500500","新莊區"
"242025","613-BX","2018/04/23 17:39:15","新北市新莊區思源路90號","121.46008","25.0455266666667","6500500","新莊區"
"242029","612-BX","2018/04/23 17:39:15","新北市新莊區復興路一段169號","121.451155","25.0434183333333","6500500","新莊區"
"242042","566-BX","2018/04/23 17:39:02","新北市新莊區中正路514巷17號","121.433045","25.0329733333333","6500500","新莊區"
"242046","497-BY","2018/04/23 17:39:14","新北市新莊區建國一路21號","121.433908333333","25.0315666666667","6500500","新莊區"
"242050","441-UM","2018/04/23 17:39:18","新北市新莊區西盛街216號","121.428031666667","25.01733","6500500","新莊區"
"242056","440-UM","2018/04/23 17:39:15","新北市新莊區泰豐街22號","121.448431666667","25.03156","6500500","新莊區"
"242036","415-TV","2018/04/23 17:39:13","新北市新莊區建福路59巷49號","121.428681666667","25.02786","6500500","新莊區"
"242007","413-TV","2018/04/23 17:39:07","新北市新莊區福樂街118巷3號","121.457256666667","25.0480033333333","6500500","新莊區"
"242044","400-BY","2018/04/23 17:39:05","新北市新莊區富國路65巷5號","121.41987","25.0264683333333","6500500","新莊區"
"242023","362-BY","2018/04/23 17:39:21","新北市新莊區公園路129-5號","121.457393333333","25.040765","6500500","新莊區"
"242060","353-BY","2018/04/23 17:39:17","新北市新莊區瓊林南路118-11號","121.434556666667","25.0089083333333","6500500","新莊區"
"242039","133-UY","2018/04/23 17:39:16","新北市新莊區民安西路37號","121.427565","25.020965","6500500","新莊區"
"242031","135-UY","2018/04/23 17:39:13","新北市新莊區新泰路336號","121.44486","25.0420533333333","6500500","新莊區"
"242048","172-VK","2018/04/23 17:39:19","新北市新莊區萬安街122號","121.420298333333","25.021825","6500500","新莊區"
"242011","173-VK","2018/04/23 17:39:20","新北市新莊區中港路中慶巷3號","121.451125","25.0536666666667","6500500","新莊區"
"242017","175-VK","2018/04/23 17:39:09","新北市新莊區復興路一段149巷21弄23號","121.449043333333","25.043785","6500500","新莊區"
"242004","176-VK","2018/04/23 17:39:12","新北市新莊區自立街200號","121.456705","25.045465","6500500","新莊區"
"242015","346-TH","2018/04/23 17:39:04","新北市新莊區新泰路287號","121.445563333333","25.0406483333333","6500500","新莊區"
"242021","348-TH","2018/04/23 17:39:19","新北市新莊區中華路一段67號","121.45225","25.0397216666667","6500500","新莊區"
"242013","351-TH","2018/04/23 17:39:15","新北市新莊區中誠街123號","121.44933","25.047595","6500500","新莊區"
"238015","755-BX","2018/04/23 17:39:22","新北市樹林區啟智街25號","121.420928333333","24.9933633333333","6500700","樹林區"
"238019","599-UM","2018/04/23 17:39:07","新北市樹林區太平路127巷12號","121.419798333333","24.9806616666667","6500700","樹林區"
"238018","571-TV","2018/04/23 17:39:16","新北市樹林區鎮前街124號","121.424963333333","24.9908466666667","6500700","樹林區"
"238024","5061-A6","2018/04/23 17:39:07","新北市樹林區八德街65-2號","121.400213333333","24.96931","6500700","樹林區"
"238022","KEA-2213","2018/04/23 17:39:23","新北市樹林區太元街21號","121.418185","24.98004","6500700","樹林區"
"238021","KEA-2539","2018/04/23 17:39:10","新北市樹林區柑園街一段230號","121.392545","24.9563066666667","6500700","樹林區"
"238025","303-VK","2018/04/23 17:39:12","新北市樹林區中正路576號","121.410966666667","25.0149133333333","6500700","樹林區"
"238017","283-BY","2018/04/23 17:39:14","新北市樹林區三德街30巷33號","121.414763333333","25.0122166666667","6500700","樹林區"
"238014","282-BY","2018/04/23 17:39:21","新北市樹林區保安街一段356號","121.417786666667","24.9983333333333","6500700","樹林區"
"238020","268-VK","2018/04/23 17:39:09","新北市樹林區俊英街116巷41弄1號","121.429016666667","25.0062816666667","6500700","樹林區"
"238026","172-UY","2018/04/23 17:39:13","新北市樹林區新興街19巷34弄1號","121.402088333333","24.97347","6500700","樹林區"
"238016","169-UY","2018/04/23 17:39:08","新北市樹林區啟智街129-7號","121.417945","24.98884","6500700","樹林區"
"239007","AAC-297","2018/04/23 17:39:22","新北市鶯歌區鶯桃路182巷96弄13號","121.340473333333","24.9578083333333","6500800","鶯歌區"
"239006","891-R6","2018/04/23 17:39:05","新北市鶯歌區鶯桃路500號","121.331965","24.96612","6500800","鶯歌區"
"239008","527-UM","2018/04/23 17:39:21","新北市鶯歌區大湖路732巷45號","121.3334","24.978195","6500800","鶯歌區"
"239005","526-UM","2018/04/23 17:39:19","新北市鶯歌區福隆二街73巷7號","121.324058333333","24.9716116666667","6500800","鶯歌區"
"239001","417-VK","2018/04/23 17:39:03","新北市鶯歌區中正三路220號","121.331581666667","24.9375483333333","6500800","鶯歌區"
"239003","360-BY","2018/04/23 17:39:11","新北市鶯歌區鶯桃路179號","121.338135","24.9581616666667","6500800","鶯歌區"
"239002","359-BY","2018/04/23 17:39:18","新北市鶯歌區南雅路499號","121.345108333333","24.9539783333333","6500800","鶯歌區"
"239004","193-VK","2018/04/23 17:39:02","新北市鶯歌區三鶯路5號","121.356856666667","24.9406566666667","6500800","鶯歌區"
"221008","489-VK","2018/04/23 17:39:06","新北市汐止區康寧街901號","121.651401666667","25.075025","6501100","汐止區"
"221015","131-UY","2018/04/23 17:39:17","新北市汐止區汐萬路一段256巷1號","121.651935","25.07484","6501100","汐止區"
"221002","269-BY","2018/04/23 17:39:10","新北市汐止區汐萬路一段418巷25號","121.649991666667","25.0788716666667","6501100","汐止區"
"221023","279-VK","2018/04/23 17:39:20","新北市汐止區汐萬路一段256巷1號","121.65173","25.074865","6501100","汐止區"
"221032","280-BY","2018/04/23 17:39:11","新北市汐止區康寧街901號","121.650935","25.0752266666667","6501100","汐止區"
"221031","353-TW","2018/04/23 17:39:19","新北市汐止區汐萬路一段256巷1號","121.651766666667","25.0749","6501100","汐止區"
"221033","647-BX","2018/04/23 17:39:13","新北市汐止區樟樹二路249號","121.640746666667","25.0682266666667","6501100","汐止區"
"221018","753-BX","2018/04/23 17:39:19","新北市汐止區汐萬路一段312號","121.65062","25.0753633333333","6501100","汐止區"
"242002","KEA-2550","2018/04/23 17:39:14","新北市新莊區新莊路262號","121.45189","25.0339433333333","6500500","新莊區"
"242009","281-VK","2018/04/23 17:39:06","新北市新莊區昌明街14巷8弄6號","121.457495","25.0530966666667","6500500","新莊區"
"242019","280-VK","2018/04/23 17:39:16","新北市新莊區中港路149號","121.455096666667","25.0408716666667","6500500","新莊區"
