"lineid","car","time","location","longitude","latitude","cityid","cityname"
"248005","653-BX","2018/07/24 07:59:33","新北市五股區明德路12巷6號","121.433398333333","25.071805","6501500","五股區"
"244002","248-BX","2018/07/24 07:59:27","新北市林口區下福里46-1號","121.31092","25.1131033333333","6501700","林口區"
"222004","289-BY","2018/07/24 07:56:52","新北市深坑區昇高坑路53號","121.630655","24.9918233333333","6501800","深坑區"
"231007","189-VK","2018/07/24 07:59:25","新北市新店區安康路一段323-3號","121.521455","24.9637783333333","6500600","新店區"
"231009","192-VK","2018/07/24 07:59:26","新北市新店區安一路一段1-1號","121.519208333333","24.96125","6500600","新店區"
"235001","611-BX","2018/07/24 07:59:37","新北市中和區圓通路367巷4號","121.491455","24.9894483333333","6500300","中和區"
"226005","5620-A6","2018/07/24 07:59:25","新北市平溪區石底里公園街18-3號","121.733476666667","25.0255533333333","6502400","平溪區"
"226002","7418-A5","2018/07/24 07:59:38","新北市平溪區南山里乾坑11號","121.782711666667","25.0471833333333","6502400","平溪區"
"226006","AGD-0702","2018/07/24 07:59:28","新北市平溪區十分里十分街45號","121.774585","25.0408183333333","6502400","平溪區"
"223006","022-BY","2018/07/24 07:59:34","新北市坪林區北宜路八段558號","121.717323333333","24.90954","6501900","石碇區"
"223002","KEA-2673","2018/07/24 07:57:16","新北市石碇區大格門3號","121.668118333333","24.9556033333333","6501900","石碇區"
"223003","205-TH","2018/07/24 07:57:40","新北市石碇區崩山36-1號","121.672033333333","24.9582016666667","6501900","石碇區"
"223001","592-UM","2018/07/24 07:59:31","新北市石碇區橫坪2-2號","121.667423333333","24.9724","6501900","石碇區"
"223004","660-BX","2018/07/24 07:59:41","新北市石碇區碇坪路一段10號","121.651603333333","25.0061016666667","6501900","石碇區"
"223007","661-BX","2018/07/24 07:59:40","新北市石碇區靜安路一段337號","121.698903333333","25.0145683333333","6501900","石碇區"
"223005","677-TV","2018/07/24 07:59:27","新北市石碇區外按18-2號","121.6511","24.9997983333333","6501900","石碇區"
"227006","282-VK","2018/07/24 07:59:24","新北市雙溪區平林里梅竹蹊3號","121.863363333333","25.0349716666667","6502500","雙溪區"
"252004","249-BX","2018/07/24 07:59:26","新北市三芝區興華里車埕36-3號","121.50536","25.1919266666667","6502100","三芝區"
"252007","AAC-283","2018/07/24 07:59:22","新北市三芝區後厝里土地公坑999號","121.464641666667","25.24866","6502100","三芝區"
"237001","159-UY","2018/07/24 07:59:37","新北市三峽區大學路33號","121.377495","24.9401116666667","6500900","三峽區"
"236008","165-UM","2018/07/24 07:59:42","新北市土城區延吉街393號","121.463198333333","24.9839466666667","6501300","土城區"
"236002","339-SR","2018/07/24 07:59:36","新北市土城區龍泉路80-1號","121.435573333333","24.9423866666667","6501300","土城區"
