"lineid","car","time","location","longitude","latitude","cityid","cityname"
"234070","149-BY","2018/07/24 08:19:42","新北市永和區秀安街20號","121.515511666667","25.0026133333333","6500400","永和區"
"248005","653-BX","2018/07/24 08:19:33","新北市五股區明德路12巷6號","121.43342","25.0717933333333","6501500","五股區"
"244002","248-BX","2018/07/24 08:19:27","新北市林口區下福里87-12號","121.288553333333","25.1129816666667","6501700","林口區"
"222004","289-BY","2018/07/24 07:56:52","新北市深坑區昇高坑路53號","121.630655","24.9918233333333","6501800","深坑區"
"231007","189-VK","2018/07/24 08:19:26","新北市新店區新潭路一段217號","121.528978333333","24.9289933333333","6500600","新店區"
"231009","192-VK","2018/07/24 08:19:26","新北市新店區新烏路一段106號","121.545923333333","24.9363316666667","6500600","新店區"
"235001","611-BX","2018/07/24 08:19:37","新北市中和區中正路458號","121.49058","24.9939516666667","6500300","中和區"
"226005","5620-A6","2018/07/24 08:19:25","新北市平溪區南山里南山坪124-1號","121.784336666667","25.045215","6502400","平溪區"
"226002","7418-A5","2018/07/24 08:19:38","新北市平溪區望古里灰3-1號","121.754366666667","25.0283916666667","6502400","平溪區"
"226006","AGD-0702","2018/07/24 08:19:28","新北市平溪區新寮里新寮路12號","121.792955","25.0595183333333","6502400","平溪區"
"223006","022-BY","2018/07/24 08:19:34","新北市石碇區靜安路一段108號","121.648463333333","25.008235","6501900","石碇區"
"223003","205-TH","2018/07/24 08:19:22","新北市石碇區北宜路六段十三股巷2-1號","121.64895","24.9447633333333","6501900","石碇區"
"223001","592-UM","2018/07/24 08:19:31","新北市石碇區北宜路六段十三股巷3號","121.647881666667","24.9439166666667","6501900","石碇區"
"223004","660-BX","2018/07/24 08:19:21","新北市石碇區碇坪路一段39號","121.658196666667","24.9914683333333","6501900","石碇區"
"223007","661-BX","2018/07/24 08:19:40","新北市石碇區靜安路一段208號","121.672456666667","25.0072366666667","6501900","石碇區"
"223005","677-TV","2018/07/24 08:19:27","新北市石碇區碇坪路一段39號","121.658108333333","24.991465","6501900","石碇區"
"227006","282-VK","2018/07/24 08:19:25","新北市雙溪區牡丹里下坑4-1號","121.85026","25.0538633333333","6502500","雙溪區"
"227012","030-BX","2018/07/24 08:19:20","新北市雙溪區長源里柑腳46號","121.797328333333","25.0092233333333","6502500","雙溪區"
"252004","249-BX","2018/07/24 08:19:26","新北市三芝區興華里車埕62號","121.498735","25.196815","6502100","三芝區"
"252007","AAC-283","2018/07/24 08:19:42","新北市三芝區蘭陽街13-1號","121.473541666667","25.2424533333333","6502100","三芝區"
"237001","159-UY","2018/07/24 08:19:37","新北市三峽區大義路251號","121.377643333333","24.9460683333333","6500900","三峽區"
"236008","165-UM","2018/07/24 08:19:23","新北市土城區青雲路577號","121.459093333333","24.97182","6501300","土城區"
"236002","339-SR","2018/07/24 08:19:36","新北市土城區龍泉路15號","121.41118","24.9476183333333","6501300","土城區"
"236006","498-BY","2018/07/24 08:19:38","新北市土城區中央路四段27巷10弄15號","121.425486666667","24.962135","6501300","土城區"
