"lineid","car","time","location","longitude","latitude","cityid","cityname"
"234070","149-BY","2018/07/24 08:54:28","新北市永和區福和路1號","121.526496666667","25.0098916666667","6500400","永和區"
"248005","653-BX","2018/07/24 08:59:43","新北市五股區明德路12巷1號","121.433313333333","25.0717316666667","6501500","五股區"
"222004","289-BY","2018/07/24 08:59:32","新北市深坑區大崙尾1-1號","121.615608333333","24.9752266666667","6501800","深坑區"
"231007","189-VK","2018/07/24 08:59:25","新北市新店區新潭路三段7號","121.508533333333","24.9161883333333","6500600","新店區"
"231009","192-VK","2018/07/24 08:59:26","新北市新店區廣興路60巷36弄6號","121.54412","24.91554","6500600","新店區"
"235001","611-BX","2018/07/24 08:59:37","新北市中和區民享街245號","121.472046666667","24.9962466666667","6500300","中和區"
"226002","7418-A5","2018/07/24 08:59:38","新北市平溪區東勢里芊蓁坑2號","121.746018333333","25.0060983333333","6502400","平溪區"
"226006","AGD-0702","2018/07/24 08:59:07","新北市平溪區嶺腳里嶺腳寮85號","121.749401666667","25.0353266666667","6502400","平溪區"
"223003","205-TH","2018/07/24 08:59:42","新北市石碇區北宜路五段78號","121.645718333333","24.952085","6501900","石碇區"
"223008","406-TH","2018/07/24 08:59:00","新北市石碇區光明路17-2號","121.684331666667","25.0320483333333","6501900","石碇區"
"223001","592-UM","2018/07/24 08:59:31","新北市石碇區北宜路五段77號","121.645696666667","24.9520866666667","6501900","石碇區"
"223004","660-BX","2018/07/24 08:59:41","新北市石碇區磨石坑24-1號","121.688675","24.9723233333333","6501900","石碇區"
"223007","661-BX","2018/07/24 08:56:00","新北市石碇區光明路17-2號","121.68467","25.0319566666667","6501900","石碇區"
"223005","677-TV","2018/07/24 08:59:39","新北市石碇區華梵路2號","121.6911","24.9764033333333","6501900","石碇區"
"227006","282-VK","2018/07/24 08:59:24","新北市雙溪區上林里大瀨1號","121.829976666667","25.0252366666667","6502500","雙溪區"
"227012","030-BX","2018/07/24 08:58:40","新北市坪林區坪雙路三段22號","121.778036666667","24.9689883333333","6502500","雙溪區"
"252004","249-BX","2018/07/24 08:59:26","新北市三芝區興華里車埕69-3號","121.493363333333","25.193665","6502100","三芝區"
"252007","AAC-283","2018/07/24 08:59:42","新北市三芝區後厝里北勢子28號","121.47501","25.2509133333333","6502100","三芝區"
"237001","159-UY","2018/07/24 08:59:36","新北市三峽區學勤路119號","121.375583333333","24.9466216666667","6500900","三峽區"
"236008","165-UM","2018/07/24 08:59:23","新北市土城區中央路三段184巷11號","121.429408333333","24.9660033333333","6501300","土城區"
"236002","339-SR","2018/07/24 08:59:36","新北市土城區中央路三段122號","121.435206666667","24.966","6501300","土城區"
"236006","498-BY","2018/07/24 08:59:38","新北市土城區承天路5號","121.43609","24.966","6501300","土城區"
