"lineid","car","time","location","longitude","latitude","cityid","cityname"
"234070","149-BY","2018/07/24 08:54:28","新北市永和區福和路1號","121.526496666667","25.0098916666667","6500400","永和區"
"248005","653-BX","2018/07/24 09:09:23","新北市五股區水碓路24號","121.433393333333","25.07265","6501500","五股區"
"222004","289-BY","2018/07/24 09:08:52","新北市深坑區大崙尾1-1號","121.615658333333","24.9752133333333","6501800","深坑區"
"231007","189-VK","2018/07/24 09:09:35","新北市新店區新潭路三段220號","121.503183333333","24.9038366666667","6500600","新店區"
"231009","192-VK","2018/07/24 09:09:26","新北市新店區廣興路60巷35號","121.542513333333","24.9164333333333","6500600","新店區"
"235001","611-BX","2018/07/24 09:09:37","新北市中和區中山路三段192號","121.472066666667","25.00651","6500300","中和區"
"226006","AGD-0702","2018/07/24 09:09:28","新北市平溪區石底里石底街95號","121.733035","25.0236616666667","6502400","平溪區"
"223003","205-TH","2018/07/24 09:09:22","新北市石碇區北宜路四段26號","121.623188333333","24.9578966666667","6501900","石碇區"
"223008","406-TH","2018/07/24 09:09:40","新北市石碇區光明路28號","121.695133333333","25.023775","6501900","石碇區"
"223001","592-UM","2018/07/24 09:09:30","新北市石碇區北宜路四段25號","121.623048333333","24.9579133333333","6501900","石碇區"
"223004","660-BX","2018/07/24 09:09:41","新北市石碇區碇坪路一段230號","121.675428333333","24.9799383333333","6501900","石碇區"
"223007","661-BX","2018/07/24 09:09:40","新北市石碇區光明路28號","121.695316666667","25.0237766666667","6501900","石碇區"
"223005","677-TV","2018/07/24 09:09:39","新北市石碇區碇坪路二段9號","121.680393333333","24.9756733333333","6501900","石碇區"
"227006","282-VK","2018/07/24 09:09:24","新北市雙溪區上林里內平林100-1號","121.825768333333","25.0252533333333","6502500","雙溪區"
"227012","030-BX","2018/07/24 09:09:39","新北市坪林區柑腳坑25號","121.779796666667","24.9615333333333","6502500","雙溪區"
"252004","249-BX","2018/07/24 09:09:26","新北市三芝區興華里田心子8-19號","121.495948333333","25.2026783333333","6502100","三芝區"
"252007","AAC-283","2018/07/24 09:09:42","新北市三芝區後厝里陽住坑2號","121.483746666667","25.249215","6502100","三芝區"
"237001","159-UY","2018/07/24 09:09:36","新北市三峽區學勤路88號","121.374511666667","24.9459283333333","6500900","三峽區"
"236008","165-UM","2018/07/24 09:09:22","新北市土城區中山路28號","121.422998333333","24.9633516666667","6501300","土城區"
"236002","339-SR","2018/07/24 09:09:36","新北市土城區光明街63號","121.442558333333","24.9733633333333","6501300","土城區"
"236006","498-BY","2018/07/24 09:09:38","新北市土城區中央路三段116巷3號","121.434725","24.9664916666667","6501300","土城區"
