"lineid","car","time","location","longitude","latitude","cityid","cityname"
"248005","653-BX","2018/07/24 09:29:23","新北市五股區登林路貿商巷3弄15號","121.429745","25.0699283333333","6501500","五股區"
"222004","289-BY","2018/07/24 09:29:32","新北市深坑區大崙腳8-1號","121.619308333333","24.992285","6501800","深坑區"
"231007","189-VK","2018/07/24 09:29:45","新北市新店區新潭路三段215巷25號","121.508095","24.9040816666667","6500600","新店區"
"231009","192-VK","2018/07/24 09:29:06","新北市新店區平廣路一段185號","121.51756","24.8890466666667","6500600","新店區"
"235001","611-BX","2018/07/24 09:29:37","新北市中和區員山路150-3號","121.481335","24.997365","6500300","中和區"
"223003","205-TH","2018/07/24 09:29:42","新北市石碇區內楒仔腳1-7號","121.633846666667","24.9678283333333","6501900","石碇區"
"223008","406-TH","2018/07/24 09:29:40","新北市石碇區小粗坑(潭邊里)3-6號","121.674101666667","24.9832416666667","6501900","石碇區"
"223007","661-BX","2018/07/24 09:29:40","新北市石碇區小粗坑(潭邊里)3-6號","121.674258333333","24.9832166666667","6501900","石碇區"
"227006","282-VK","2018/07/24 09:29:45","新北市雙溪區長源里赤皮崙5-2號","121.794253333333","25.015635","6502500","雙溪區"
"227012","030-BX","2018/07/24 09:29:39","新北市雙溪區泰平里烏山路7號","121.796453333333","24.9498433333333","6502500","雙溪區"
"252004","249-BX","2018/07/24 09:29:26","新北市三芝區圓山里石曹子坑51號","121.518246666667","25.2141533333333","6502100","三芝區"
"252007","AAC-283","2018/07/24 09:29:42","新北市三芝區古庄里山豬堀13-1號","121.493163333333","25.256795","6502100","三芝區"
"237001","159-UY","2018/07/24 09:29:17","新北市樹林區中山路三段214號","121.38009","24.96784","6500900","三峽區"
"236008","165-UM","2018/07/24 09:29:42","新北市土城區中央路四段287-2號","121.411561666667","24.9525216666667","6501300","土城區"
"236002","339-SR","2018/07/24 09:29:36","新北市土城區學府路一段23巷44號","121.457121666667","24.9867416666667","6501300","土城區"
"236006","498-BY","2018/07/24 09:29:38","新北市土城區承天路87巷34號","121.442711666667","24.96269","6501300","土城區"
