"lineid","car","time","location","longitude","latitude","cityid","cityname"
"234070","149-BY","2018/07/24 15:59:48","新北市永和區豫溪街217巷1號","121.525286666667","25.0096933333333","6500400","永和區"
"231046","107-UY","2018/07/24 15:59:35","新北市新店區安一路一段1-1號","121.51972","24.96152","6500600","新店區"
"231020","108-UY","2018/07/24 15:59:46","新北市新店區新烏路一段21號","121.546113333333","24.9504383333333","6500600","新店區"
"231012","187-VK","2018/07/24 15:59:36","新北市新店區民族路89號","121.538738333333","24.977725","6500600","新店區"
"231003","268-BY","2018/07/24 15:59:41","新北市新店區寶興路58巷2號","121.549786666667","24.9722966666667","6500600","新店區"
"231018","278-BY","2018/07/24 15:59:45","新北市新店區中正路663巷1弄15號","121.532841666667","24.9899116666667","6500600","新店區"
"231015","AAD-862","2018/07/24 15:59:36","新北市新店區中正路284巷2號","121.538415","24.9746866666667","6500600","新店區"
"231038","3712-VJ","2018/07/24 15:59:35","新北市新店區安康路二段228巷35弄7號","121.509378333333","24.9600816666667","6500600","新店區"
"231037","4716-K9","2018/07/24 15:59:49","新北市新店區吉安街14號","121.516745","24.9657316666667","6500600","新店區"
"231034","616-UM","2018/07/24 15:59:53","新北市新店區玫瑰路16號","121.494805","24.950515","6500600","新店區"
"231030","619-UM","2018/07/24 15:59:46","新北市新店區永平街14號","121.516943333333","24.9835716666667","6500600","新店區"
"231035","719-UM","2018/07/24 15:57:16","新北市新店區安民街303巷9弄2號","121.516893333333","24.973435","6500600","新店區"
"231032","720-UM","2018/07/24 15:59:33","新北市新店區安一路一段1-1號","121.519408333333","24.9613016666667","6500600","新店區"
"241011","013-R5","2018/07/24 15:59:53","新北市三重區文化北路224巷30-1號","121.497081666667","25.0686616666667","6500200","三重區"
"241028","022-UY","2018/07/24 15:59:34","新北市三重區大同南路134巷8號","121.49693","25.05841","6500200","三重區"
"241008","059-VK","2018/07/24 15:59:35","新北市三重區重新路四段121號","121.485138333333","25.052265","6500200","三重區"
"241022","060-VK","2018/07/24 15:59:41","新北市三重區中正北路176巷16號","121.482738333333","25.0660283333333","6500200","三重區"
"241015","062-VK","2018/07/24 15:59:22","新北市三重區重新路四段121號","121.484985","25.05238","6500200","三重區"
"241017","063-VK","2018/07/24 15:59:52","新北市三重區大仁街48巷14號","121.491108333333","25.0644083333333","6500200","三重區"
"241024","065-VK","2018/07/24 15:59:42","新北市三重區中正北路157號","121.482328333333","25.06759","6500200","三重區"
"241002","090-VK","2018/07/24 15:59:50","新北市三重區河邊北街196號","121.50302","25.0741583333333","6500200","三重區"
"241003","091-VK","2018/07/24 15:59:46","新北市三重區自強路五段102號","121.496743333333","25.0835866666667","6500200","三重區"
"241019","742-BX","2018/07/24 15:59:47","新北市三重區重陽路一段6號","121.48669","25.0572533333333","6500200","三重區"
"241005","262-UM","2018/07/24 15:59:49","新北市三重區溪尾街305號","121.487573333333","25.08373","6500200","三重區"
"241009","265-UM","2018/07/24 15:59:31","新北市三重區重新路四段121號","121.484938333333","25.052545","6500200","三重區"
"241016","266-UM","2018/07/24 15:59:37","新北市三重區重新路四段121號","121.484776666667","25.052235","6500200","三重區"
"241013","270-UM","2018/07/24 15:59:36","新北市三重區三和路三段18號","121.49694","25.07029","6500200","三重區"
"241025","271-UM","2018/07/24 15:59:46","新北市三重區三民街207號","121.481675","25.0659916666667","6500200","三重區"
"241007","398-BY","2018/07/24 15:59:52","新北市三重區慈愛街8號","121.484496666667","25.078365","6500200","三重區"
"241026","413-TH","2018/07/24 15:59:36","新北市三重區重新路三段40號","121.494393333333","25.0614716666667","6500200","三重區"
"241004","475-VK","2018/07/24 15:59:47","新北市三重區長元街105號","121.504596666667","25.0668033333333","6500200","三重區"
"241020","478-VK","2018/07/24 15:59:38","新北市三重區力行路一段189號","121.483546666667","25.0699016666667","6500200","三重區"
"241030","480-VK","2018/07/24 15:59:38","新北市三重區重新路四段121號","121.484575","25.052425","6500200","三重區"
"241014","543-UM","2018/07/24 15:59:52","新北市三重區重新路四段121號","121.485041666667","25.0521466666667","6500200","三重區"
"241023","545-UM","2018/07/24 15:59:48","新北市三重區中正北路174-1號","121.483766666667","25.0665583333333","6500200","三重區"
"241001","547-UM","2018/07/24 15:59:49","新北市三重區新北大道一段250號","121.47986","25.0613933333333","6500200","三重區"
"241006","AAD-863","2018/07/24 15:59:40","新北市三重區力行路二段164號","121.482946666667","25.0767383333333","6500200","三重區"
"241018","887-TS","2018/07/24 15:59:25","新北市三重區大仁街12號","121.491556666667","25.0631816666667","6500200","三重區"
"241012","941-UM","2018/07/24 15:59:41","新北市三重區文化北路118巷45號","121.497615","25.0663016666667","6500200","三重區"
"241029","942-UM","2018/07/24 15:59:36","新北市三重區大同南路212巷65號","121.498418333333","25.0567966666667","6500200","三重區"
"241033","AAC-255","2018/07/24 15:59:43","新北市三重區重新路五段446號","121.474685","25.0473683333333","6500200","三重區"
"235064","005-UY","2018/07/24 15:59:45","新北市中和區員山路36巷16-3號","121.48507","24.9913016666667","6500300","中和區"
"224007","275-VK","2018/07/24 15:59:32","新北市瑞芳區大埔路52號","121.769191666667","25.10439","6501200","瑞芳區"
"227009","642-TC","2018/07/24 15:59:44","新北市雙溪區三港里雙澳路32-2號","121.870993333333","25.0500733333333","6502500","雙溪區"
"227003","400-TW","2018/07/24 15:59:37","新北市雙溪區平林里外平林76號","121.841941666667","25.0348366666667","6502500","雙溪區"
"252004","249-BX","2018/07/24 15:59:33","新北市三芝區埔坪里埔頭坑44號","121.504643333333","25.2618233333333","6502100","三芝區"
"236074","166-UM","2018/07/24 15:59:40","新北市土城區民族街32號","121.418698333333","24.9634283333333","6501300","土城區"
"236057","912-UM","2018/07/24 15:59:49","新北市土城區中央路三段62號","121.436713333333","24.9673816666667","6501300","土城區"
