"lineid","car","time","location","longitude","latitude","cityid","cityname"
"234067","847-RS","2018/07/24 16:25:05","新北市永和區福和路1號","121.526373333333","25.0096266666667","6500400","永和區"
"249005","172-UM","2018/07/24 16:39:10","新北市八里區忠孝路276號","121.42053","25.1610966666667","6502300","八里區"
"249003","593-UM","2018/07/24 16:39:05","新北市八里區博物館路9號","121.415441666667","25.16409","6502300","八里區"
"249002","759-BX","2018/07/24 16:38:58","新北市八里區挖子尾街16號","121.415276666667","25.1642783333333","6502300","八里區"
"231046","107-UY","2018/07/24 16:39:15","新北市新店區灣潭路42號","121.542451666667","24.9456683333333","6500600","新店區"
"241011","013-R5","2018/07/24 16:39:12","新北市三重區仁愛街41號","121.4967","25.0716566666667","6500200","三重區"
"241028","022-UY","2018/07/24 16:39:13","新北市三重區重新路三段86號","121.493216666667","25.0606716666667","6500200","三重區"
"241008","059-VK","2018/07/24 16:39:16","新北市三重區永安北路一段27巷10號","121.476953333333","25.0756083333333","6500200","三重區"
"241022","060-VK","2018/07/24 16:39:01","新北市三重區新北大道一段98號","121.485368333333","25.0615633333333","6500200","三重區"
"241031","061-VK","2018/07/24 16:39:04","新北市三重區重新路四段41巷5弄1號","121.487488333333","25.0581633333333","6500200","三重區"
"241015","062-VK","2018/07/24 16:39:02","新北市三重區信義西街4號","121.499096666667","25.0647433333333","6500200","三重區"
"241017","063-VK","2018/07/24 16:39:11","新北市三重區中正北路25巷11號","121.492833333333","25.06227","6500200","三重區"
"241024","065-VK","2018/07/24 16:39:02","新北市三重區中正北路315巷6弄66號","121.47633","25.0724983333333","6500200","三重區"
"241002","090-VK","2018/07/24 16:39:10","新北市三重區仁義街243號","121.496283333333","25.0826583333333","6500200","三重區"
"241003","091-VK","2018/07/24 16:39:06","新北市三重區五華街87巷8號","121.492311666667","25.0835316666667","6500200","三重區"
"241019","742-BX","2018/07/24 16:39:09","新北市三重區力行路一段9號","121.488448333333","25.066705","6500200","三重區"
"241005","262-UM","2018/07/24 16:39:09","新北市三重區仁華街118巷31號","121.486148333333","25.0837316666667","6500200","三重區"
"241009","265-UM","2018/07/24 16:39:11","新北市三重區三和路四段203巷84號","121.48386","25.0800366666667","6500200","三重區"
"241016","266-UM","2018/07/24 16:39:17","新北市三重區大智街5號","121.494763333333","25.0648883333333","6500200","三重區"
"241032","269-UM","2018/07/24 16:39:13","新北市三重區中華路26號","121.483426666667","25.0610266666667","6500200","三重區"
"241013","270-UM","2018/07/24 16:39:16","新北市三重區三和路三段101巷46號","121.495536666667","25.072965","6500200","三重區"
"241025","271-UM","2018/07/24 16:39:06","新北市三重區中正北路430-1號","121.474498333333","25.0709766666667","6500200","三重區"
"241007","398-BY","2018/07/24 16:39:11","新北市三重區三和路四段167巷76號","121.484906666667","25.079395","6500200","三重區"
"241026","413-TH","2018/07/24 16:39:16","新北市三重區和平街36號","121.501876666667","25.062655","6500200","三重區"
"241004","475-VK","2018/07/24 16:39:07","新北市三重區五福街9號","121.492888333333","25.0816216666667","6500200","三重區"
"241020","478-VK","2018/07/24 16:39:18","新北市三重區後竹圍街205巷25號","121.484806666667","25.072405","6500200","三重區"
"241030","480-VK","2018/07/24 16:38:58","新北市三重區環河南路288號","121.488641666667","25.049035","6500200","三重區"
"241014","543-UM","2018/07/24 16:39:12","新北市三重區龍濱路41號","121.502815","25.06838","6500200","三重區"
"241023","545-UM","2018/07/24 16:39:08","新北市三重區忠孝路三段50巷47號","121.482911666667","25.0644483333333","6500200","三重區"
"241001","547-UM","2018/07/24 16:39:12","新北市三重區仁政街89號","121.49255","25.077835","6500200","三重區"
"241006","AAD-863","2018/07/24 16:39:20","新北市三重區車路頭街136巷1號","121.483408333333","25.0755166666667","6500200","三重區"
"241018","887-TS","2018/07/24 16:38:45","新北市三重區正義北路338巷51號","121.4931","25.070405","6500200","三重區"
"241012","941-UM","2018/07/24 16:39:01","新北市三重區仁興街4巷9號","121.499628333333","25.0737466666667","6500200","三重區"
"241029","942-UM","2018/07/24 16:39:16","新北市三重區集美街112巷25號","121.489981666667","25.0541633333333","6500200","三重區"
"241033","AAC-255","2018/07/24 16:39:02","新北市三重區光復路二段37號","121.472088333333","25.055225","6500200","三重區"
"235064","005-UY","2018/07/24 16:39:05","新北市中和區員山路36巷16-3號","121.485101666667","24.99121","6500300","中和區"
"235026","800-TS","2018/07/24 16:39:03","新北市中和區錦和路124號","121.489026666667","24.998425","6500300","中和區"
"247008","056-VK","2018/07/24 16:39:11","新北市蘆洲區永安南路二段228號","121.460803333333","25.0793433333333","6501400","蘆洲區"
"247002","002-UY","2018/07/24 16:39:05","新北市五股區中興路三段2巷10號","121.448458333333","25.0819283333333","6501400","蘆洲區"
"247020","001-UY","2018/07/24 16:39:05","新北市五股區成泰路三段436號","121.451918333333","25.0990366666667","6501400","蘆洲區"
"228002","663-BX","2018/07/24 16:39:13","新北市貢寮區貢寮里朝陽街24號","121.91137","25.021655","6502600","貢寮區"
"228003","828-UM","2018/07/24 16:39:11","新北市貢寮區貢寮里朝陽街1-2號","121.912326666667","25.0212516666667","6502600","貢寮區"
"224006","676-BX","2018/07/24 16:39:07","新北市瑞芳區大寮路356-1號","121.785028333333","25.1032033333333","6501200","瑞芳區"
"224008","285-BY","2018/07/24 16:39:04","新北市瑞芳區中山路375號","121.796016666667","25.1101716666667","6501200","瑞芳區"
"224007","275-VK","2018/07/24 16:39:12","新北市瑞芳區月眉路7號","121.760296666667","25.1061533333333","6501200","瑞芳區"
"224009","273-VK","2018/07/24 16:39:07","新北市瑞芳區大寮路356-1號","121.784775","25.103215","6501200","瑞芳區"
"224005","271-BY","2018/07/24 16:39:12","新北市瑞芳區洞頂路210-4號","121.861308333333","25.1246383333333","6501200","瑞芳區"
"227009","642-TC","2018/07/24 16:39:04","新北市雙溪區牡丹里中正路66號","121.865108333333","25.043765","6502500","雙溪區"
"227003","400-TW","2018/07/24 16:39:17","新北市雙溪區外柑里外柑腳56號","121.80797","25.01787","6502500","雙溪區"
"251013","KEA-2871","2018/07/24 16:39:18","新北市淡水區楓樹湖3-3號","121.496588333333","25.1865716666667","6501000","淡水區"
"251016","179-VK","2018/07/24 16:39:02","新北市淡水區新市一路三段98號","121.4461","25.182985","6501000","淡水區"
"251014","180-VK","2018/07/24 16:39:16","新北市淡水區淡金路三段260號","121.44897","25.206495","6501000","淡水區"
"251008","443-VK","2018/07/24 16:39:12","台北市北投區中央北路四段30巷150-3號","121.473591666667","25.1398316666667","6501000","淡水區"
"252002","178-VK","2018/07/24 16:39:12","新北市三芝區芝柏二街1號","121.511438333333","25.2563816666667","6502100","三芝區"
"242023","362-BY","2018/07/24 16:39:16","新北市新莊區新泰路255巷83號","121.442236666667","25.038755","6500500","新莊區"
"238024","5061-A6","2018/07/24 16:39:03","新北市樹林區八德街1018號","121.391226666667","24.9684766666667","6500700","樹林區"
"239007","AAC-297","2018/07/24 16:39:19","新北市鶯歌區二甲路13-16號","121.344993333333","24.9352883333333","6500800","鶯歌區"
