"lineid","car","time","location","longitude","latitude","cityid","cityname"
"249005","172-UM","2018/07/24 17:09:30","新北市八里區華富山5-1號","121.418308333333","25.1439383333333","6502300","八里區"
"249004","303-UY","2018/07/24 17:09:17","新北市八里區忠孝路290號","121.418913333333","25.1613783333333","6502300","八里區"
"249003","593-UM","2018/07/24 17:09:25","新北市八里區中山路二段409號","121.397403333333","25.146485","6502300","八里區"
"249002","759-BX","2018/07/24 17:09:18","新北市八里區中山路三段106號","121.391905","25.142715","6502300","八里區"
"244007","080-UY","2018/07/24 17:09:27","新北市林口區中湖60號","121.376095","25.0936566666667","6501700","林口區"
"244019","403-UM","2018/07/24 17:09:26","新北市林口區文化一路一段190巷7弄1-1號","121.379953333333","25.0749466666667","6501700","林口區"
"244013","742-UY","2018/07/24 17:09:27","新北市林口區粉寮69號","121.404775","25.0908216666667","6501700","林口區"
"244009","410-SL","2018/07/24 17:09:21","新北市林口區粉寮路一段77號","121.39693","25.0789516666667","6501700","林口區"
"244023","483-VK","2018/07/24 17:09:31","新北市林口區仁愛路一段645號","121.388641666667","25.076705","6501700","林口區"
"244025","837-TS","2018/07/24 17:09:34","新北市林口區中正路455號","121.384558333333","25.0773883333333","6501700","林口區"
"244021","838-TS","2018/07/24 17:09:29","新北市林口區粉寮路二段281-2號","121.404611666667","25.0938916666667","6501700","林口區"
"231046","107-UY","2018/07/24 17:09:15","新北市新店區直潭路92號","121.53092","24.9376233333333","6500600","新店區"
"241011","013-R5","2018/07/24 17:09:33","新北市三重區介壽路39巷252號","121.503668333333","25.0712316666667","6500200","三重區"
"241028","022-UY","2018/07/24 17:09:34","新北市三重區重新路三段110號","121.492346666667","25.06033","6500200","三重區"
"241008","059-VK","2018/07/24 17:09:35","新北市三重區力行路二段136巷17弄2號","121.481628333333","25.07562","6500200","三重區"
"241022","060-VK","2018/07/24 17:09:21","新北市三重區三民街71號","121.48585","25.0627316666667","6500200","三重區"
"241031","061-VK","2018/07/24 17:09:26","新北市三重區重陽路一段113巷1弄1號","121.487248333333","25.059855","6500200","三重區"
"241015","062-VK","2018/07/24 17:09:22","新北市三重區長生街32號","121.49962","25.06648","6500200","三重區"
"241017","063-VK","2018/07/24 17:09:31","新北市三重區大同北路108號","121.493373333333","25.0639066666667","6500200","三重區"
"241024","065-VK","2018/07/24 17:09:22","新北市三重區中正北路346號","121.477888333333","25.0693733333333","6500200","三重區"
"241002","090-VK","2018/07/24 17:09:30","新北市三重區五華街37號","121.4947","25.0810116666667","6500200","三重區"
"241003","091-VK","2018/07/24 17:09:26","新北市三重區富福街110號","121.493461666667","25.0856066666667","6500200","三重區"
"241019","742-BX","2018/07/24 17:09:27","新北市三重區三張街128巷13號","121.486658333333","25.0692916666667","6500200","三重區"
"241005","262-UM","2018/07/24 17:09:29","新北市三重區碧華街26號","121.482471666667","25.0806866666667","6500200","三重區"
"241009","265-UM","2018/07/24 17:09:31","新北市三重區三和路四段215巷20號","121.48246","25.080075","6500200","三重區"
"241016","266-UM","2018/07/24 17:09:37","新北市三重區中正北路25巷2號","121.493268333333","25.0627733333333","6500200","三重區"
"241032","269-UM","2018/07/24 17:09:33","新北市三重區三陽路1號","121.486616666667","25.0589116666667","6500200","三重區"
"241013","270-UM","2018/07/24 17:09:36","新北市三重區仁昌街36號","121.49701","25.0741933333333","6500200","三重區"
"241025","271-UM","2018/07/24 17:09:27","新北市三重區中正北路560巷61-3號","121.470928333333","25.0690066666667","6500200","三重區"
"241007","398-BY","2018/07/24 17:09:31","新北市三重區三和路四段163巷28號","121.485065","25.0792333333333","6500200","三重區"
"241026","413-TH","2018/07/24 17:09:16","新北市三重區重新路一段61號","121.501776666667","25.0636133333333","6500200","三重區"
"241004","475-VK","2018/07/24 17:09:26","新北市三重區五華街110-1號","121.492325","25.08294","6500200","三重區"
"241020","478-VK","2018/07/24 17:09:18","新北市三重區自強路三段34巷25號","121.486075","25.07236","6500200","三重區"
"241030","480-VK","2018/07/24 17:09:18","新北市三重區集成路22號","121.488655","25.0522516666667","6500200","三重區"
"241014","543-UM","2018/07/24 17:09:32","新北市三重區龍濱路189號","121.502043333333","25.0709933333333","6500200","三重區"
"241023","545-UM","2018/07/24 17:09:28","新北市三重區忠孝路三段84巷1號","121.480243333333","25.06457","6500200","三重區"
"241001","547-UM","2018/07/24 17:09:29","新北市三重區仁愛街269巷58號","121.494661666667","25.0798033333333","6500200","三重區"
"241006","AAD-863","2018/07/24 17:09:18","新北市三重區三和路四段264巷13號","121.485045","25.0767933333333","6500200","三重區"
"241018","887-TS","2018/07/24 17:09:25","新北市三重區六張街90巷8號","121.493163333333","25.069615","6500200","三重區"
"241012","941-UM","2018/07/24 17:09:23","新北市三重區仁信街17號","121.501466666667","25.075645","6500200","三重區"
"241029","942-UM","2018/07/24 17:09:16","新北市三重區重新路四段65號","121.487295","25.0569833333333","6500200","三重區"
"241033","AAC-255","2018/07/24 17:09:22","新北市三重區中興北街271號","121.469113333333","25.0605883333333","6500200","三重區"
"235064","005-UY","2018/07/24 17:09:25","新北市中和區員山路36巷16-3號","121.485033333333","24.9912833333333","6500300","中和區"
"247010","KEA-2869","2018/07/24 17:09:27","新北市蘆洲區民族路10號","121.475701666667","25.0839383333333","6501400","蘆洲區"
"247024","893-R6","2018/07/24 17:09:37","新北市蘆洲區長興路52-1號","121.463381666667","25.0837133333333","6501400","蘆洲區"
"247014","546-UM","2018/07/24 17:09:34","新北市蘆洲區中央路2-1號","121.47332","25.0823416666667","6501400","蘆洲區"
"247022","500-BY","2018/07/24 17:09:31","新北市蘆洲區民族路510號","121.469266666667","25.0901733333333","6501400","蘆洲區"
"247012","339-TH","2018/07/24 17:09:19","新北市蘆洲區信義路347號","121.47774","25.0872583333333","6501400","蘆洲區"
"247004","337-TH","2018/07/24 17:09:21","新北市蘆洲區長安街130號","121.460346666667","25.08201","6501400","蘆洲區"
"247006","336-TH","2018/07/24 17:09:34","新北市蘆洲區長安街108巷28號","121.46208","25.0824033333333","6501400","蘆洲區"
"247018","057-VK","2018/07/24 17:09:25","新北市蘆洲區復興路101號","121.476591666667","25.0876533333333","6501400","蘆洲區"
"247008","056-VK","2018/07/24 17:09:32","新北市蘆洲區信義路30巷84號","121.474883333333","25.0775633333333","6501400","蘆洲區"
"247016","007-UY","2018/07/24 17:09:20","新北市蘆洲區光華路65巷26號","121.468778333333","25.08209","6501400","蘆洲區"
"247002","002-UY","2018/07/24 17:09:25","新北市蘆洲區永樂街83號","121.455971666667","25.0887166666667","6501400","蘆洲區"
"247020","001-UY","2018/07/24 17:09:25","新北市蘆洲區仁愛街70巷2號","121.471356666667","25.0940783333333","6501400","蘆洲區"
"228004","212-TW","2018/07/24 17:09:27","新北市貢寮區仁理村尖山腳街20號","121.924678333333","25.0478283333333","6502600","貢寮區"
"228002","663-BX","2018/07/24 17:09:32","新北市貢寮區龍崗里嵩陽街38號","121.90966","25.0167133333333","6502600","貢寮區"
"228003","828-UM","2018/07/24 17:09:33","新北市貢寮區福隆里東興街6-14號","121.95214","25.0204283333333","6502600","貢寮區"
"224006","676-BX","2018/07/24 17:09:27","新北市瑞芳區大寮路81號","121.780858333333","25.0975783333333","6501200","瑞芳區"
"224008","285-BY","2018/07/24 17:09:28","新北市瑞芳區侯硐路111-1號","121.831021666667","25.0897633333333","6501200","瑞芳區"
"224007","275-VK","2018/07/24 17:09:34","新北市瑞芳區楓子瀨路11-1號","121.768163333333","25.1011633333333","6501200","瑞芳區"
"224009","273-VK","2018/07/24 17:09:28","新北市瑞芳區豎崎路54號","121.843021666667","25.110265","6501200","瑞芳區"
"224005","271-BY","2018/07/24 17:09:32","新北市瑞芳區鼻頭路233-1號","121.91372","25.1239966666667","6501200","瑞芳區"
"227009","642-TC","2018/07/24 17:09:24","新北市雙溪區牡丹里下坑33號","121.850053333333","25.0573","6502500","雙溪區"
"227003","400-TW","2018/07/24 17:09:17","新北市雙溪區外柑里外柑腳37號","121.809353333333","25.0182466666667","6502500","雙溪區"
"251004","009-UM","2018/07/24 17:09:17","新北市淡水區中正東路37號","121.446106666667","25.1681083333333","6501000","淡水區"
"251005","010-UM","2018/07/24 17:09:34","新北市淡水區鄧公路19-1號","121.450283333333","25.169945","6501000","淡水區"
"251002","012-UM","2018/07/24 17:09:26","新北市淡水區中正路二段31號","121.419446666667","25.1816016666667","6501000","淡水區"
"251013","KEA-2871","2018/07/24 17:09:18","新北市淡水區大埤頭3號","121.486335","25.19519","6501000","淡水區"
"251016","179-VK","2018/07/24 17:09:22","新北市淡水區社厝坑2-5號","121.475591666667","25.189005","6501000","淡水區"
"251014","180-VK","2018/07/24 17:09:35","新北市淡水區八里堆12-1號","121.462243333333","25.22539","6501000","淡水區"
"251015","181-VK","2018/07/24 17:09:18","新北市淡水區鄧公路278巷31號","121.466776666667","25.1684166666667","6501000","淡水區"
"251010","413-VK","2018/07/24 17:09:23","新北市淡水區新市五路二段75號","121.432155","25.1989516666667","6501000","淡水區"
"251012","441-VK","2018/07/24 17:09:16","新北市淡水區中山北路一段158號","121.444233333333","25.1778483333333","6501000","淡水區"
"251007","442-VK","2018/07/24 17:09:25","新北市淡水區民生路47-4號","121.46211","25.1380166666667","6501000","淡水區"
"251008","443-VK","2018/07/24 17:09:33","新北市淡水區民生路169號","121.469586666667","25.14204","6501000","淡水區"
"251006","561-UM","2018/07/24 17:09:16","新北市淡水區新生街17號","121.438893333333","25.173305","6501000","淡水區"
"251009","575-R6","2018/07/24 17:09:27","新北市淡水區三民街21號","121.439116666667","25.171875","6501000","淡水區"
"251011","650-BX","2018/07/24 17:09:33","新北市淡水區坪頂路50號","121.457845","25.1625283333333","6501000","淡水區"
"252002","178-VK","2018/07/24 17:09:32","新北市三芝區忠孝街1-19號","121.505861666667","25.2531766666667","6502100","三芝區"
"252001","292-VK","2018/07/24 17:09:21","新北市三芝區埔頭里埔頭39-1號","121.499106666667","25.2607916666667","6502100","三芝區"
"242034","AAC-296","2018/07/24 17:09:21","新北市新莊區新泰路357巷3弄57號","121.44213","25.0393983333333","6500500","新莊區"
"242058","986-R7","2018/07/24 17:09:36","新北市新莊區新泰路357巷3弄57號","121.442258333333","25.03942","6500500","新莊區"
"242054","751-BX","2018/07/24 17:09:25","新北市新莊區新泰路357巷2號","121.44201","25.0415116666667","6500500","新莊區"
"242029","705-TV","2018/07/24 17:09:34","新北市新莊區新泰路357巷3弄57號","121.442146666667","25.039195","6500500","新莊區"
"242027","615-BX","2018/07/24 17:09:32","新北市新莊區三和路12-21號","121.442101666667","25.038685","6500500","新莊區"
"242042","566-BX","2018/07/24 17:09:29","新北市新莊區新泰路255巷83號","121.442033333333","25.0389333333333","6500500","新莊區"
"242046","497-BY","2018/07/24 17:09:32","新北市新莊區新泰路357巷3弄57號","121.442205","25.03948","6500500","新莊區"
"242051","441-UM","2018/07/24 17:09:27","新北市新莊區中正路481號","121.441308333333","25.0337883333333","6500500","新莊區"
"242044","400-BY","2018/07/24 17:09:31","新北市新莊區三和路12-12號","121.44208","25.037075","6500500","新莊區"
"242023","362-BY","2018/07/24 17:09:36","新北市新莊區新泰路357巷3弄57號","121.442271666667","25.03963","6500500","新莊區"
"242061","353-BY","2018/07/24 17:09:29","新北市新莊區新泰路255巷83號","121.44217","25.03887","6500500","新莊區"
"242032","135-UY","2018/07/24 17:09:21","新北市新莊區三和路12-21號","121.442001666667","25.0388366666667","6500500","新莊區"
"242048","172-VK","2018/07/24 17:09:32","新北市新莊區中正路418號","121.440976666667","25.0337866666667","6500500","新莊區"
"242017","175-VK","2018/07/24 17:09:26","新北市新莊區三和路12-21號","121.44201","25.0386","6500500","新莊區"
"242005","176-VK","2018/07/24 17:09:23","新北市新莊區三和路12-21號","121.441941666667","25.0385533333333","6500500","新莊區"
"242015","347-TH","2018/07/24 17:09:30","新北市新莊區三和路12-14號","121.441741666667","25.0372433333333","6500500","新莊區"
"242002","349-TH","2018/07/24 17:09:17","新北市新莊區三和路12-16號","121.441918333333","25.0374783333333","6500500","新莊區"
"242019","350-TH","2018/07/24 17:09:26","新北市新莊區三和路12-21號","121.441913333333","25.038875","6500500","新莊區"
"242013","351-TH","2018/07/24 17:09:23","新北市新莊區新泰路357巷3弄57號","121.442095","25.0395283333333","6500500","新莊區"
"238023","601-UM","2018/07/24 17:09:17","新北市樹林區保安街二段37-1號","121.416158333333","25.0002083333333","6500700","樹林區"
"238019","599-UM","2018/07/24 17:09:26","新北市樹林區太平路273巷23號","121.421198333333","24.976345","6500700","樹林區"
"238018","571-TV","2018/07/24 17:09:31","新北市樹林區博愛街219號","121.42457","24.9866883333333","6500700","樹林區"
"238024","5061-A6","2018/07/24 17:09:28","新北市樹林區博愛一街29巷64號","121.425918333333","24.9915933333333","6500700","樹林區"
"238022","KEA-2213","2018/07/24 17:09:32","新北市樹林區忠孝街33號","121.423715","24.9821333333333","6500700","樹林區"
"238021","KEA-2539","2018/07/24 17:09:19","新北市樹林區西圳街一段165巷20弄28號","121.395668333333","24.9601533333333","6500700","樹林區"
"238025","303-VK","2018/07/24 17:09:28","新北市樹林區中山路一段296號","121.420381666667","24.9864316666667","6500700","樹林區"
"238017","283-BY","2018/07/24 17:09:25","新北市樹林區大安路320號","121.41708","24.9914333333333","6500700","樹林區"
"238014","282-BY","2018/07/24 17:09:20","新北市樹林區大安路567號","121.412238333333","24.9838216666667","6500700","樹林區"
"238020","268-VK","2018/07/24 17:09:16","新北市樹林區中正路105號","121.424768333333","25.0013483333333","6500700","樹林區"
"238016","169-UY","2018/07/24 17:09:30","新北市樹林區中山路二段34號","121.417391666667","24.9848566666667","6500700","樹林區"
"239007","AAC-297","2018/07/24 17:09:19","新北市鶯歌區中正一路53號","121.352363333333","24.9539083333333","6500800","鶯歌區"
"239006","891-R6","2018/07/24 17:09:37","新北市鶯歌區八德路2巷18弄2號","121.336788333333","24.9470633333333","6500800","鶯歌區"
"239008","527-UM","2018/07/24 17:09:30","新北市鶯歌區尖山路57-1號","121.350081666667","24.949805","6500800","鶯歌區"
"239005","526-UM","2018/07/24 17:09:22","新北市鶯歌區鶯桃路311號","121.333828333333","24.960685","6500800","鶯歌區"
"239001","417-VK","2018/07/24 17:09:15","新北市鶯歌區尖山路140巷23號","121.346318333333","24.9491683333333","6500800","鶯歌區"
"239002","359-BY","2018/07/24 17:09:26","新北市鶯歌區建國路210巷2號","121.349278333333","24.95369","6500800","鶯歌區"
"239004","193-VK","2018/07/24 17:09:19","新北市鶯歌區文化路324巷11弄1號","121.350431666667","24.945035","6500800","鶯歌區"
"242021","281-VK","2018/07/24 17:09:24","新北市新莊區三和路12-17號","121.442006666667","25.0375216666667","6500500","新莊區"
