"lineid","car","time","location","longitude","latitude","cityid","cityname"
"234026","9371-KE","2018/07/24 17:49:25","新北市永和區和平街95巷13號","121.51123","25.0093733333333","6500400","永和區"
"249005","172-UM","2018/07/24 17:49:33","新北市八里區荖阡里41-1號","121.402243333333","25.1343133333333","6502300","八里區"
"249004","303-UY","2018/07/24 17:49:37","新北市八里區中華路一段81巷27號","121.419716666667","25.1551666666667","6502300","八里區"
"249003","593-UM","2018/07/24 17:49:25","新北市八里區中山路二段125號","121.405435","25.15186","6502300","八里區"
"249001","759-BX","2018/07/24 17:49:19","新北市八里區龍米路二段131號","121.44553","25.1473016666667","6502300","八里區"
"248004","677-BX","2018/07/24 17:49:18","新北市五股區新五路二段347號","121.443271666667","25.0866166666667","6501500","五股區"
"248002","678-BX","2018/07/24 17:49:21","新北市五股區中興路二段37巷26號","121.460321666667","25.075075","6501500","五股區"
"232011","375-UM","2018/07/24 17:49:32","新北市坪林區北宜路八段192號","121.708198333333","24.93467","6502000","坪林區"
"244007","080-UY","2018/07/24 17:49:27","新北市林口區佳林路1號","121.38724","25.0824433333333","6501700","林口區"
"244019","403-UM","2018/07/24 17:49:26","新北市林口區麗園路127號","121.371545","25.06718","6501700","林口區"
"244013","742-UY","2018/07/24 17:49:33","新北市林口區中正路398號","121.384831666667","25.0778133333333","6501700","林口區"
"244009","410-SL","2018/07/24 17:49:21","新北市林口區林口路297巷3號","121.385656666667","25.0847066666667","6501700","林口區"
"244023","483-VK","2018/07/24 17:49:31","新北市林口區東湖一街1號","121.387455","25.07351","6501700","林口區"
"244011","657-BX","2018/07/24 17:49:16","新北市林口區中興街26號","121.38866","25.0770183333333","6501700","林口區"
"244025","837-TS","2018/07/24 17:49:14","新北市林口區文化三路一段165號","121.361443333333","25.06917","6501700","林口區"
"244021","838-TS","2018/07/24 17:49:09","新北市林口區新寮42-3號","121.403335","25.0653483333333","6501700","林口區"
"222003","436-BY","2018/07/24 17:49:16","新北市深坑區阿柔洋60-1號","121.608605","24.998535","6501800","深坑區"
"222002","659-BX","2018/07/24 17:49:23","新北市深坑區平埔街22巷8號","121.61492","25.000885","6501800","深坑區"
"231046","107-UY","2018/07/24 17:49:35","新北市新店區康雅崙路25號","121.536393333333","24.9268366666667","6500600","新店區"
"231055","AKT-0513","2018/07/24 17:49:26","新北市新店區安華路28-1號","121.519498333333","24.9606916666667","6500600","新店區"
"241024","065-VK","2018/07/24 17:49:23","新北市三重區車路頭街60號","121.483873333333","25.0725433333333","6500200","三重區"
"241016","266-UM","2018/07/24 17:49:37","新北市三重區新北大道一段7號","121.489596666667","25.0612983333333","6500200","三重區"
"241033","AAC-255","2018/07/24 17:49:22","新北市三重區光復路一段7號","121.472165","25.0470766666667","6500200","三重區"
"235064","005-UY","2018/07/24 17:49:25","新北市中和區員山路36巷16-3號","121.484986666667","24.9913133333333","6500300","中和區"
"235063","006-UY","2018/07/24 17:49:31","新北市中和區員山路36巷16-3號","121.484955","24.9913216666667","6500300","中和區"
"247010","KEA-2869","2018/07/24 17:49:27","新北市蘆洲區民族路31-6號","121.477266666667","25.084885","6501400","蘆洲區"
"247024","893-R6","2018/07/24 17:49:37","新北市蘆洲區長興路298巷12號","121.461078333333","25.0897016666667","6501400","蘆洲區"
"247014","546-UM","2018/07/24 17:49:34","新北市蘆洲區保和街69巷12號","121.469558333333","25.085525","6501400","蘆洲區"
"247022","500-BY","2018/07/24 17:49:31","新北市蘆洲區中正路304-1號","121.464726666667","25.0906233333333","6501400","蘆洲區"
"247012","339-TH","2018/07/24 17:49:19","新北市蘆洲區復興路129號","121.477643333333","25.08844","6501400","蘆洲區"
"247006","336-TH","2018/07/24 17:49:34","新北市蘆洲區長安街2號","121.464681666667","25.0786983333333","6501400","蘆洲區"
"247018","057-VK","2018/07/24 17:49:25","新北市蘆洲區復興路227巷2弄13號","121.480596666667","25.0902933333333","6501400","蘆洲區"
"247008","056-VK","2018/07/24 17:49:32","新北市蘆洲區信義路37巷14號","121.474318333333","25.07993","6501400","蘆洲區"
"247016","007-UY","2018/07/24 17:49:36","新北市蘆洲區中正路185巷27號","121.466735","25.084355","6501400","蘆洲區"
"247002","002-UY","2018/07/24 17:49:25","新北市蘆洲區永平街32巷33弄24號","121.458561666667","25.0926333333333","6501400","蘆洲區"
"247020","001-UY","2018/07/24 17:49:25","新北市蘆洲區民義街71巷13號","121.472785","25.0904","6501400","蘆洲區"
"228004","212-TW","2018/07/24 17:49:27","新北市貢寮區仁理村仁愛路95-1號","121.927641666667","25.0554216666667","6502600","貢寮區"
"228002","663-BX","2018/07/24 17:49:32","新北市貢寮區福隆里龜壽谷街26號","121.95291","25.007955","6502600","貢寮區"
"228003","828-UM","2018/07/24 17:49:31","新北市貢寮區真理里美艷山街6-2號","121.928848333333","25.0607333333333","6502600","貢寮區"
"224010","AGQ-8101","2018/07/24 17:49:30","新北市瑞芳區濱二路31號","121.835795","25.110785","6501200","瑞芳區"
"224006","676-BX","2018/07/24 17:49:27","新北市瑞芳區傑魚坑路183號","121.788415","25.1082733333333","6501200","瑞芳區"
"224008","285-BY","2018/07/24 17:49:28","新北市瑞芳區明燈路一段6號","121.823165","25.1073966666667","6501200","瑞芳區"
"224009","273-VK","2018/07/24 17:49:27","新北市瑞芳區山尖路165號","121.852898333333","25.1130166666667","6501200","瑞芳區"
"224005","271-BY","2018/07/24 17:49:32","新北市瑞芳區海濱路157號","121.828973333333","25.1218083333333","6501200","瑞芳區"
"227009","642-TC","2018/07/24 17:49:24","新北市雙溪區三貂里定福路1-2號","121.850731666667","25.0633933333333","6502500","雙溪區"
"253006","295-VK","2018/07/24 17:49:31","新北市石門區中央路10號","121.566715","25.2912716666667","6502200","石門區"
"222001","KEA-2212","2018/07/24 17:49:24","新北市深坑區北深路三段25巷15-2號","121.60882","24.99983","6501800","深坑區"
"208003","665-BX","2018/07/24 17:49:26","新北市金山區磺清路135號","121.639261666667","25.2276716666667","6502700","金山區"
"208001","761-BX","2018/07/24 17:49:27","新北市金山區磺清路135號","121.63931","25.227865","6502700","金山區"
"251004","009-UM","2018/07/24 17:49:32","新北市淡水區民權一街17巷1號","121.458726666667","25.1367333333333","6501000","淡水區"
"251005","010-UM","2018/07/24 17:49:35","新北市淡水區學府路100巷1號","121.450356666667","25.1718383333333","6501000","淡水區"
"251001","011-UM","2018/07/24 17:49:29","新北市淡水區民權路92巷35-1號","121.462293333333","25.1265966666667","6501000","淡水區"
"251002","012-UM","2018/07/24 17:49:26","新北市淡水區中山路38號","121.444251666667","25.1699083333333","6501000","淡水區"
"251013","KEA-2871","2018/07/24 17:49:38","新北市淡水區泉洲厝31號","121.479608333333","25.1910466666667","6501000","淡水區"
"251016","179-VK","2018/07/24 17:49:21","新北市淡水區埤島39-15號","121.452855","25.1958666666667","6501000","淡水區"
"251014","180-VK","2018/07/24 17:49:36","新北市淡水區公埔子16-6號","121.481023333333","25.22459","6501000","淡水區"
"251015","181-VK","2018/07/24 17:49:18","新北市淡水區興福寮18-2號","121.494961666667","25.1646233333333","6501000","淡水區"
"251010","413-VK","2018/07/24 17:49:23","新北市淡水區淡海路280巷33弄34-2號","121.41873","25.1886033333333","6501000","淡水區"
"251012","441-VK","2018/07/24 17:49:36","新北市淡水區北新路一段606號","121.47213","25.1848216666667","6501000","淡水區"
"251007","442-VK","2018/07/24 17:49:25","新北市淡水區民生路16巷10號","121.461185","25.13745","6501000","淡水區"
"251008","443-VK","2018/07/24 17:49:33","新北市淡水區八勢路一段120號","121.467101666667","25.1566383333333","6501000","淡水區"
"251006","561-UM","2018/07/24 17:49:36","新北市淡水區大信街1巷4號","121.44075","25.176735","6501000","淡水區"
"251009","575-R6","2018/07/24 17:49:31","新北市淡水區長興街61號","121.44424","25.1720766666667","6501000","淡水區"
"251011","650-BX","2018/07/24 17:43:52","新北市淡水區吳(仔)厝10-3號","121.481453333333","25.1481383333333","6501000","淡水區"
"251003","673-BX","2018/07/24 17:49:29","新北市淡水區大忠街5巷2號","121.443118333333","25.1763333333333","6501000","淡水區"
"207003","550-UM","2018/07/24 17:49:35","新北市萬里區野柳里東澳路66號","121.692765","25.2009383333333","6502800","萬里區"
"207004","225-TW","2018/07/24 17:49:18","新北市萬里區萬里里瑪鋉頂街97號","121.687731666667","25.180375","6502800","萬里區"
"252002","178-VK","2018/07/24 17:49:32","新北市三芝區智成街16號","121.503166666667","25.2567016666667","6502100","三芝區"
"252001","292-VK","2018/07/24 17:49:21","新北市三芝區中興街一段37號","121.497616666667","25.25785","6502100","三芝區"
"237004","KEA-2597","2018/07/24 17:49:23","新北市三峽區仁愛街12號","121.368408333333","24.9327333333333","6500900","三峽區"
"237009","210-TH","2018/07/24 17:49:15","新北市三峽區大勇路3巷31號","121.36767","24.936745","6500900","三峽區"
"237013","252-BX","2018/07/24 17:49:31","新北市三峽區愛國路38號","121.374568333333","24.9329233333333","6500900","三峽區"
"237012","275-BY","2018/07/24 17:49:19","新北市三峽區文化路20號","121.373313333333","24.9359266666667","6500900","三峽區"
"237008","302-VK","2018/07/24 17:49:29","新北市三峽區中園街237-1號","121.366848333333","24.919425","6500900","三峽區"
"237014","433-BY","2018/07/24 17:49:22","新北市三峽區文化路120巷20號","121.371185","24.936925","6500900","三峽區"
"237006","5529-G3","2018/07/24 17:49:35","新北市三峽區介壽路二段136巷106弄16號","121.391823333333","24.9332666666667","6500900","三峽區"
"237011","KEA-2596","2018/07/24 17:49:19","新北市三峽區中園街6號","121.368548333333","24.9273216666667","6500900","三峽區"
"237016","649-BX","2018/07/24 17:49:34","新北市三峽區白雞149-2號","121.400093333333","24.9054866666667","6500900","三峽區"
"237010","706-TV","2018/07/24 17:49:29","新北市三峽區文化路117號","121.370206666667","24.936075","6500900","三峽區"
"237005","AKY-6261","2018/07/24 17:49:33","新北市三峽區中山路321-2號","121.360765","24.9380483333333","6500900","三峽區"
"236070","105-UM","2018/07/24 17:49:29","新北市土城區青雲路322巷28號","121.457518333333","24.974885","6501300","土城區"
"236042","107-UM","2018/07/24 17:49:36","新北市土城區城林路6巷80號","121.438636666667","24.9796483333333","6501300","土城區"
"236079","166-UM","2018/07/24 17:49:32","新北市土城區中央路三段180號","121.430775","24.9650516666667","6501300","土城區"
"236026","269-VK","2018/07/24 17:49:34","新北市土城區城林路6巷80號","121.438498333333","24.9795783333333","6501300","土城區"
"236014","270-VK","2018/07/24 17:49:38","新北市土城區城林路6巷80號","121.438451666667","24.97967","6501300","土城區"
"236038","271-VK","2018/07/24 17:49:27","新北市土城區城林路6巷80號","121.438543333333","24.9796066666667","6501300","土城區"
"236021","401-BY","2018/07/24 17:49:19","新北市土城區城林路6巷80號","121.438773333333","24.97963","6501300","土城區"
"236059","912-UM","2018/07/24 17:49:22","新北市土城區中華路二段2號","121.43908","24.97975","6501300","土城區"
"236049","913-UM","2018/07/24 17:49:36","新北市土城區城林路6巷80號","121.438611666667","24.979775","6501300","土城區"
"236063","915-UM","2018/07/24 17:49:25","新北市土城區城林路6巷80號","121.438535","24.97958","6501300","土城區"
"242034","AAC-296","2018/07/24 17:49:21","新北市新莊區新莊路761號","121.442433333333","25.0326783333333","6500500","新莊區"
"242058","986-R7","2018/07/24 17:49:37","新北市新莊區中正路730號","121.414903333333","25.0236466666667","6500500","新莊區"
"242054","751-BX","2018/07/24 17:49:24","新北市新莊區民安西路468-1號","121.431728333333","25.0079466666667","6500500","新莊區"
"242029","705-TV","2018/07/24 17:49:34","新北市新莊區復興路一段29號","121.446303333333","25.0418366666667","6500500","新莊區"
"242027","615-BX","2018/07/24 17:49:32","新北市新莊區福壽街155號","121.457905","25.0532783333333","6500500","新莊區"
"242025","613-BX","2018/07/24 17:49:27","新北市三重區新北大道二段137號","121.465975","25.061375","6500500","新莊區"
"242042","566-BX","2018/07/24 17:49:29","新北市新莊區中正路614巷4弄2號","121.42582","25.0304683333333","6500500","新莊區"
"242046","497-BY","2018/07/24 17:49:32","新北市新莊區福營路163號","121.431966666667","25.031355","6500500","新莊區"
"242051","441-UM","2018/07/24 17:49:27","新北市新莊區西盛街269巷20號","121.428833333333","25.0155683333333","6500500","新莊區"
"242056","440-UM","2018/07/24 17:49:34","新北市新莊區瓊林路40巷32號","121.446688333333","25.03021","6500500","新莊區"
"242037","415-TV","2018/07/24 17:49:30","新北市新莊區後港一路89號","121.42771","25.02678","6500500","新莊區"
"242007","413-TV","2018/07/24 17:49:29","新北市新莊區福樂街156巷12弄9號","121.456686666667","25.048805","6500500","新莊區"
"242044","400-BY","2018/07/24 17:49:31","新北市新莊區中正路857號","121.41958","25.0279416666667","6500500","新莊區"
"242023","362-BY","2018/07/24 17:49:36","新北市新莊區福樂街35號","121.457615","25.0469133333333","6500500","新莊區"
"242061","353-BY","2018/07/24 17:49:29","新北市新莊區瓊林南路220號","121.43356","25.0057366666667","6500500","新莊區"
"242009","132-UY","2018/07/24 17:49:25","新北市新莊區昌明街38號","121.456471666667","25.05218","6500500","新莊區"
"242039","133-UY","2018/07/24 17:49:21","新北市新莊區民安路179號","121.425885","25.0230583333333","6500500","新莊區"
"242032","135-UY","2018/07/24 17:49:21","新北市新莊區新泰路357巷1弄49號","121.44261","25.03989","6500500","新莊區"
"242048","172-VK","2018/07/24 17:49:32","新北市新莊區萬安街102巷1號","121.42018","25.022455","6500500","新莊區"
"242017","175-VK","2018/07/24 17:49:25","新北市新莊區永安街58號","121.45122","25.0446883333333","6500500","新莊區"
"242005","176-VK","2018/07/24 17:49:27","新北市新莊區自立街248號","121.458771666667","25.0455233333333","6500500","新莊區"
"242015","347-TH","2018/07/24 17:49:30","新北市新莊區新泰路502巷1號","121.443121666667","25.0465066666667","6500500","新莊區"
"242002","349-TH","2018/07/24 17:49:17","新北市新莊區景德路140號","121.451095","25.03425","6500500","新莊區"
"242019","350-TH","2018/07/24 17:49:26","新北市新莊區公園路238號","121.457508333333","25.0407866666667","6500500","新莊區"
"242013","351-TH","2018/07/24 17:49:28","新北市新莊區中誠街169巷1弄1號","121.448246666667","25.0470033333333","6500500","新莊區"
"238015","755-BX","2018/07/24 17:49:35","新北市樹林區長壽街25巷1弄1號","121.420485","24.9946533333333","6500700","樹林區"
"238023","601-UM","2018/07/24 17:49:35","桃園市龜山區萬壽路一段369巷7弄6號","121.401853333333","25.0160216666667","6500700","樹林區"
"238019","599-UM","2018/07/24 17:49:26","新北市樹林區太平路120號","121.41861","24.9784333333333","6500700","樹林區"
"238018","571-TV","2018/07/24 17:49:31","新北市樹林區鎮前街136號","121.424651666667","24.9906033333333","6500700","樹林區"
"238024","5061-A6","2018/07/24 17:49:26","新北市樹林區中山路三段210-2號","121.380753333333","24.96678","6500700","樹林區"
"238022","KEA-2213","2018/07/24 17:49:32","新北市樹林區太順街62巷3弄21號","121.41699","24.9793416666667","6500700","樹林區"
"238021","KEA-2539","2018/07/24 17:49:19","新北市樹林區柑園街一段36-8號","121.405673333333","24.961695","6500700","樹林區"
"238025","303-VK","2018/07/24 17:49:28","新北市樹林區三俊街164號","121.417096666667","25.0154016666667","6500700","樹林區"
"238017","283-BY","2018/07/24 17:49:30","新北市樹林區俊德街24號","121.414996666667","25.014465","6500700","樹林區"
"238014","282-BY","2018/07/24 17:49:20","新北市樹林區大安路161號","121.42142","24.9965283333333","6500700","樹林區"
"238020","268-VK","2018/07/24 17:49:26","新北市樹林區三俊街219號","121.421221666667","25.0150316666667","6500700","樹林區"
"238026","172-UY","2018/07/24 17:49:24","新北市樹林區佳園路一段75巷14號","121.397925","24.97158","6500700","樹林區"
"238016","169-UY","2018/07/24 17:49:30","新北市樹林區復興路373巷2號","121.417068333333","24.9868083333333","6500700","樹林區"
"239007","AAC-297","2018/07/24 17:49:19","新北市鶯歌區鶯桃路94巷29-2號","121.341091666667","24.9542716666667","6500800","鶯歌區"
"239006","891-R6","2018/07/24 17:49:37","新北市鶯歌區鳳鳴路99號","121.334275","24.9661766666667","6500800","鶯歌區"
"239008","527-UM","2018/07/24 17:49:30","新北市鶯歌區香賓街7巷7號","121.336351666667","24.9790433333333","6500800","鶯歌區"
"239005","526-UM","2018/07/24 17:49:22","新北市鶯歌區鳳吉五街21號","121.327035","24.9726033333333","6500800","鶯歌區"
"239001","417-VK","2018/07/24 17:49:35","新北市鶯歌區中正三路460號","121.321203333333","24.9342633333333","6500800","鶯歌區"
"239003","360-BY","2018/07/24 17:49:19","新北市鶯歌區永吉街46巷5號","121.335308333333","24.9573816666667","6500800","鶯歌區"
"239002","359-BY","2018/07/24 17:49:25","新北市鶯歌區國華路55號","121.342866666667","24.95508","6500800","鶯歌區"
"239004","193-VK","2018/07/24 17:49:19","新北市鶯歌區尖山路55號","121.350393333333","24.9498366666667","6500800","鶯歌區"
"221008","489-VK","2018/07/24 17:49:30","新北市汐止區康寧街901號","121.651381666667","25.075065","6501100","汐止區"
"221036","130-UY","2018/07/24 17:49:18","新北市汐止區汐萬路一段117號","121.654201666667","25.0709733333333","6501100","汐止區"
"221015","131-UY","2018/07/24 17:49:24","新北市汐止區建成路188號","121.659385","25.0748383333333","6501100","汐止區"
"221010","269-BY","2018/07/24 17:49:23","新北市汐止區汐萬路二段247號","121.646448333333","25.0882966666667","6501100","汐止區"
"221012","278-VK","2018/07/24 17:49:22","新北市汐止區長江街87號","121.657615","25.0724166666667","6501100","汐止區"
"221023","279-VK","2018/07/24 17:49:26","新北市汐止區民族二街9號","121.63495","25.0708483333333","6501100","汐止區"
"221032","280-BY","2018/07/24 17:49:32","新北市汐止區工建路202號","121.63684","25.0626533333333","6501100","汐止區"
"221027","281-BY","2018/07/24 17:49:21","新北市汐止區汐萬路一段312號","121.65059","25.0753816666667","6501100","汐止區"
"221033","297-VK","2018/07/24 17:49:33","新北市汐止區民權街二段93號","121.619025","25.04748","6501100","汐止區"
"221029","298-VK","2018/07/24 17:49:35","新北市汐止區康寧街901號","121.651495","25.07499","6501100","汐止區"
"221021","299-VK","2018/07/24 17:49:34","新北市汐止區水源路一段32號","121.657135","25.0663483333333","6501100","汐止區"
"221031","353-TW","2018/07/24 17:49:18","新北市汐止區中興路96巷1-3號","121.635335","25.062565","6501100","汐止區"
"221035","622-UM","2018/07/24 17:49:33","新北市汐止區汐萬路一段158號","121.652758333333","25.0713066666667","6501100","汐止區"
"221025","623-UM","2018/07/24 17:49:32","新北市汐止區大同路二段171號","121.651625","25.064945","6501100","汐止區"
"221038","646-BX","2018/07/24 17:48:20","新北市汐止區汐萬路一段271號","121.650578333333","25.0743383333333","6501100","汐止區"
"221002","707-TV","2018/07/24 17:49:29","新北市汐止區康寧街901號","121.651565","25.074975","6501100","汐止區"
"221018","753-BX","2018/07/24 17:49:37","新北市汐止區汐萬路一段18號","121.65605","25.0675383333333","6501100","汐止區"
"242021","281-VK","2018/07/24 17:49:34","新北市新莊區永寧街35巷1號","121.452863333333","25.0392566666667","6500500","新莊區"
