"lineid","car","time","location","longitude","latitude","cityid","cityname"
"234007","207-UY","2018/07/24 18:19:03","新北市永和區福和路1號","121.525533333333","25.0093683333333","6500400","永和區"
"234081","298-R6","2018/07/24 18:19:24","新北市永和區福和路1號","121.526526666667","25.0099433333333","6500400","永和區"
"234067","847-RS","2018/07/24 18:19:36","新北市永和區福和路1號","121.526485","25.009495","6500400","永和區"
"234026","9371-KE","2018/07/24 18:19:27","新北市永和區豫溪街28巷18號","121.515096666667","25.00924","6500400","永和區"
"234011","9373-KE","2018/07/24 18:19:23","新北市永和區光復街42號","121.516903333333","25.0179466666667","6500400","永和區"
"249005","172-UM","2018/07/24 18:19:30","新北市八里區荖阡坑路15-29號","121.400373333333","25.140385","6502300","八里區"
"249004","303-UY","2018/07/24 18:19:37","新北市八里區龍米路二段232巷1弄2號","121.431478333333","25.1589516666667","6502300","八里區"
"249001","759-BX","2018/07/24 18:19:18","新北市八里區龍米路一段129號","121.452168333333","25.126685","6502300","八里區"
"248014","025-BX","2018/07/24 18:19:33","新北市五股區自強路19巷5-1號","121.434621666667","25.07376","6501500","五股區"
"248016","026-BX","2018/07/24 18:19:36","新北市五股區西雲路288號","121.449781666667","25.0988916666667","6501500","五股區"
"248006","077-UY","2018/07/24 18:19:18","新北市五股區中興路一段152號","121.464445","25.0738583333333","6501500","五股區"
"248008","095-VK","2018/07/24 18:19:33","新北市五股區更洲路32巷8弄14號","121.459248333333","25.0796366666667","6501500","五股區"
"248020","225-UY","2018/07/24 18:19:20","新北市五股區孝義路47巷22號","121.45117","25.1091466666667","6501500","五股區"
"248012","247-BX","2018/07/24 18:19:32","新北市五股區御史路1巷101弄2號","121.440998333333","25.0912116666667","6501500","五股區"
"248004","677-BX","2018/07/24 18:19:18","新北市五股區成泰路二段222-2號","121.439101666667","25.085475","6501500","五股區"
"248002","678-BX","2018/07/24 18:19:22","新北市五股區西雲路46號","121.443446666667","25.0909383333333","6501500","五股區"
"248010","682-TV","2018/07/24 18:19:32","新北市五股區成泰路一段193號","121.434983333333","25.07654","6501500","五股區"
"244007","080-UY","2018/07/24 18:19:27","新北市林口區竹林路361號","121.387993333333","25.08462","6501700","林口區"
"244019","403-UM","2018/07/24 18:19:26","新北市林口區忠孝路569巷16號","121.373878333333","25.0689033333333","6501700","林口區"
"244013","742-UY","2018/07/24 18:19:27","新北市林口區佳林路101巷36號","121.387011666667","25.0800183333333","6501700","林口區"
"244009","410-SL","2018/07/24 18:19:21","新北市林口區民生路166號","121.379626666667","25.08784","6501700","林口區"
"244023","483-VK","2018/07/24 18:19:31","新北市林口區仁愛路二段8號","121.38583","25.0763133333333","6501700","林口區"
"244017","485-VK","2018/07/24 18:19:26","新北市林口區公園路43號","121.367311666667","25.0684133333333","6501700","林口區"
"244011","657-BX","2018/07/24 18:19:36","新北市林口區新寮1-61號","121.392876666667","25.0764233333333","6501700","林口區"
"244025","837-TS","2018/07/24 18:19:34","新北市林口區南勢四街82巷2號","121.355283333333","25.0709683333333","6501700","林口區"
"244021","838-TS","2018/07/24 18:19:29","新北市林口區自強二街58號","121.399476666667","25.0769083333333","6501700","林口區"
"243013","AAD-798","2018/07/24 18:19:02","新北市泰山區南林路103號","121.415066666667","25.0432366666667","6501600","泰山區"
"222003","436-BY","2018/07/24 18:19:36","新北市深坑區旺耽路67號","121.626271666667","25.002995","6501800","深坑區"
"222002","659-BX","2018/07/24 18:19:23","新北市深坑區文化街17巷7弄18號","121.620965","25.0003366666667","6501800","深坑區"
"231041","002-UM","2018/07/24 18:19:23","新北市新店區安華路28-1號","121.519716666667","24.9608883333333","6500600","新店區"
"231059","046-UY","2018/07/24 18:19:21","新北市新店區安華路28-1號","121.519763333333","24.960795","6500600","新店區"
"231040","047-UY","2018/07/24 18:19:25","新北市新店區安華路28-1號","121.519276666667","24.9609183333333","6500600","新店區"
"231044","106-UY","2018/07/24 18:19:32","新北市新店區安華路28-1號","121.519793333333","24.9607316666667","6500600","新店區"
"231046","107-UY","2018/07/24 18:19:35","新北市新店區直潭七街60號","121.532286666667","24.9399166666667","6500600","新店區"
"231053","108-UY","2018/07/24 18:19:22","新北市新店區安康路一段113號","121.528538333333","24.961765","6500600","新店區"
"231048","187-VK","2018/07/24 18:19:30","新北市新店區安一路一段1-1號","121.519733333333","24.9611683333333","6500600","新店區"
"231054","KEA-2219","2018/07/24 18:19:38","新北市新店區安一路一段1-1號","121.519836666667","24.961175","6500600","新店區"
"231057","256-BX","2018/07/24 18:19:29","新北市新店區安華路28-1號","121.519721666667","24.9610416666667","6500600","新店區"
"231042","268-BY","2018/07/24 18:19:26","新北市新店區安華路28-1號","121.519493333333","24.960615","6500600","新店區"
"231051","278-BY","2018/07/24 18:19:27","新北市新店區安一路一段1-1號","121.519601666667","24.9611233333333","6500600","新店區"
"231050","AAD-862","2018/07/24 18:19:21","新北市新店區安華路28-1號","121.520126666667","24.96094","6500600","新店區"
"231058","3713-VJ","2018/07/24 18:19:28","新北市新店區安康路一段17號","121.533165","24.9603633333333","6500600","新店區"
"231066","4716-K9","2018/07/24 18:19:23","新北市新店區安一路一段1-1號","121.519181666667","24.9611283333333","6500600","新店區"
"231056","4715-K9","2018/07/24 18:19:21","新北市新店區中央路45號","121.532821666667","24.97754","6500600","新店區"
"231067","4772-VM","2018/07/24 18:19:35","新北市新店區安華路28-1號","121.519086666667","24.96061","6500600","新店區"
"231049","513-UM","2018/07/24 18:19:34","新北市新店區安一路一段1-1號","121.5198","24.9611466666667","6500600","新店區"
"231063","616-UM","2018/07/24 18:19:30","新北市新店區安華路1-1號","121.519496666667","24.9604883333333","6500600","新店區"
"231045","617-UM","2018/07/24 18:19:31","新北市新店區安華路28-1號","121.519453333333","24.9610016666667","6500600","新店區"
"231061","619-UM","2018/07/24 18:19:18","新北市新店區安華路28-1號","121.519713333333","24.9608516666667","6500600","新店區"
"231064","719-UM","2018/07/24 18:19:30","新北市新店區安一路一段1-1號","121.51958","24.9612616666667","6500600","新店區"
"231062","720-UM","2018/07/24 18:19:22","新北市新店區安一路一段1-1號","121.519428333333","24.9612983333333","6500600","新店區"
"231060","897-TW","2018/07/24 18:19:20","新北市新店區安華路28-1號","121.519816666667","24.96076","6500600","新店區"
"231043","899-TW","2018/07/24 18:19:35","新北市新店區安華路28-1號","121.519273333333","24.96083","6500600","新店區"
"231055","AKT-0513","2018/07/24 18:19:26","新北市新店區北新路一段91號","121.538738333333","24.9617366666667","6500600","新店區"
"241033","AAC-255","2018/07/24 18:19:22","新北市三重區光復路一段68巷7號","121.471288333333","25.049325","6500200","三重區"
"235066","003-UY","2018/07/24 18:19:24","新北市中和區中山路二段117號","121.502961666667","25.0037433333333","6500300","中和區"
"235064","005-UY","2018/07/24 18:19:25","新北市中和區圓通路164號","121.497435","24.9948883333333","6500300","中和區"
"235063","006-UY","2018/07/24 18:19:31","新北市中和區中正路527號","121.48778","24.9938033333333","6500300","中和區"
"235056","096-UM","2018/07/24 18:19:36","新北市板橋區民生路一段20-1號","121.478088333333","25.0113783333333","6500300","中和區"
"235039","097-UM","2018/07/24 18:19:33","新北市中和區宜安路54號","121.512026666667","24.9966766666667","6500300","中和區"
"235065","098-UM","2018/07/24 18:19:32","新北市中和區莊敬路49巷18號","121.501661666667","25.0061233333333","6500300","中和區"
"235040","150-BY","2018/07/24 18:19:36","新北市中和區安平路38號","121.509798333333","24.9949433333333","6500300","中和區"
"235058","151-BY","2018/07/24 18:19:27","新北市中和區圓通路435巷3-7號","121.488776666667","24.9872566666667","6500300","中和區"
"235055","183-VK","2018/07/24 18:19:31","新北市中和區中正路637巷52弄1號","121.485428333333","24.9933333333333","6500300","中和區"
"235043","352-BY","2018/07/24 18:19:38","新北市中和區圓通路233號","121.496241666667","24.9941366666667","6500300","中和區"
"235050","4979-A6","2018/07/24 18:19:18","新北市中和區捷運路61巷28號","121.509151666667","24.989295","6500300","中和區"
"235069","4980-A6","2018/07/24 18:19:03","新北市中和區景平路630巷18號","121.500741666667","24.998285","6500300","中和區"
"235042","551-UM","2018/07/24 18:19:37","新北市中和區大仁街20巷25弄32號","121.519678333333","24.9936766666667","6500300","中和區"
"235070","558-UM","2018/07/24 18:19:32","新北市中和區圓通路118號","121.499165","24.9962783333333","6500300","中和區"
"235045","565-BX","2018/07/24 18:19:36","新北市中和區景安路200巷4弄1號","121.503536666667","24.9915883333333","6500300","中和區"
"235054","640-BX","2018/07/24 18:19:31","新北市中和區民享街86巷3號","121.474225","25.0008883333333","6500300","中和區"
"235060","647-TV","2018/07/24 18:19:37","新北市中和區連城路525-1號","121.481486666667","24.995165","6500300","中和區"
"235046","733-UM","2018/07/24 18:19:18","新北市中和區員山路36巷13號","121.484296666667","24.99095","6500300","中和區"
"235062","800-TS","2018/07/24 18:19:30","新北市中和區景平路999巷2號","121.495386666667","25.0059566666667","6500300","中和區"
"235057","801-TS","2018/07/24 18:19:32","新北市中和區民安街180號","121.476223333333","24.999875","6500300","中和區"
"235041","802-TS","2018/07/24 18:19:26","新北市中和區中正路637巷52弄1號","121.485375","24.993405","6500300","中和區"
"235052","805-TS","2018/07/24 18:19:30","新北市中和區興南路二段96號","121.504995","24.9840583333333","6500300","中和區"
"235048","896-TW","2018/07/24 18:19:20","新北市中和區中正路395號","121.489261666667","24.993515","6500300","中和區"
"235051","157-BY","2018/07/24 18:19:38","新北市中和區仁愛街87號","121.511838333333","24.9870883333333","6500300","中和區"
"235037","AAC-213","2018/07/24 18:19:19","新北市中和區景德街65號","121.517016666667","24.991465","6500300","中和區"
"220065","072-UY","2018/07/24 18:19:32","新北市板橋區華東街1-9號","121.448206666667","24.9949566666667","6500100","板橋區"
"226004","205-ST","2018/07/24 18:19:29","新北市平溪區薯榔里一坑路26號","121.713595","25.021815","6502400","平溪區"
"235038","251-BX","2018/07/24 18:19:20","新北市中和區大智街70號","121.523391666667","24.9924583333333","6500300","中和區"
"228004","212-TW","2018/07/24 18:19:27","新北市貢寮區真理里新港街26巷55弄2-1號","121.927386666667","25.052865","6502600","貢寮區"
"228002","663-BX","2018/07/24 18:19:34","新北市貢寮區福連里福興街39-1號","121.991878333333","25.0121333333333","6502600","貢寮區"
"228003","828-UM","2018/07/24 18:19:31","新北市貢寮區真理里美艷山街64號","121.91917","25.0728566666667","6502600","貢寮區"
"224010","AGQ-8101","2018/07/24 17:55:10","新北市瑞芳區金光路372號","121.849063333333","25.1111816666667","6501200","瑞芳區"
"224006","676-BX","2018/07/24 18:19:27","新北市瑞芳區三爪子坑路106巷112號","121.808561666667","25.10446","6501200","瑞芳區"
"224002","639-TC","2018/07/24 18:19:38","新北市瑞芳區三爪子坑路91巷17號","121.811685","25.106925","6501200","瑞芳區"
"224008","285-BY","2018/07/24 18:19:28","新北市瑞芳區逢甲路15號","121.80981","25.1086816666667","6501200","瑞芳區"
"224007","275-VK","2018/07/24 18:19:32","新北市瑞芳區大埔路有勝新村1號","121.764895","25.101305","6501200","瑞芳區"
"224009","273-VK","2018/07/24 18:19:27","新北市瑞芳區五號路4號","121.854791666667","25.1103716666667","6501200","瑞芳區"
"224005","271-BY","2018/07/24 18:19:32","新北市瑞芳區建基新村33號","121.812161666667","25.13029","6501200","瑞芳區"
"227009","642-TC","2018/07/24 18:19:24","新北市雙溪區牡丹里牡丹73號","121.851728333333","25.059355","6502500","雙溪區"
"227003","400-TW","2018/07/24 18:19:37","新北市雙溪區共和里中山路6號","121.864528333333","25.0334816666667","6502500","雙溪區"
"253005","032-BX","2018/07/24 18:19:26","新北市石門區中央路5號","121.566285","25.2915966666667","6502200","石門區"
"253006","295-VK","2018/07/24 18:19:31","新北市石門區老梅路51-1號","121.545503333333","25.2892283333333","6502200","石門區"
"222001","KEA-2212","2018/07/24 18:19:24","新北市深坑區北深路一段355號","121.62256","25.00502","6501800","深坑區"
"208002","KEA-2872","2018/07/24 18:19:23","新北市金山區清泉里清水路60巷20號","121.634896666667","25.2339083333333","6502700","金山區"
"208003","665-BX","2018/07/24 18:19:26","新北市金山區民生路17號","121.644141666667","25.22192","6502700","金山區"
"208001","761-BX","2018/07/24 18:19:27","新北市金山區中山路16號","121.64146","25.2176416666667","6502700","金山區"
"251004","009-UM","2018/07/24 18:19:32","新北市淡水區民族路31巷36號","121.462423333333","25.1365183333333","6501000","淡水區"
"251005","010-UM","2018/07/24 18:19:34","新北市淡水區水源街一段122巷37號","121.447051666667","25.17043","6501000","淡水區"
"251001","011-UM","2018/07/24 18:19:29","新北市淡水區自強路299號","121.461565","25.1314816666667","6501000","淡水區"
"251002","012-UM","2018/07/24 18:19:26","新北市淡水區中正東路一段36號","121.452631666667","25.1623","6501000","淡水區"
"251013","KEA-2871","2018/07/24 18:19:18","新北市淡水區行忠路590號","121.468053333333","25.1991766666667","6501000","淡水區"
"251016","179-VK","2018/07/24 18:19:21","新北市淡水區下圭柔山33號","121.45047","25.20483","6501000","淡水區"
"251014","180-VK","2018/07/24 18:19:36","新北市淡水區崙頂14號","121.491243333333","25.2216833333333","6501000","淡水區"
"251015","181-VK","2018/07/24 18:19:38","新北市淡水區興福寮88巷81號","121.48446","25.1653966666667","6501000","淡水區"
"251010","413-VK","2018/07/24 18:19:23","新北市淡水區淡海路188號","121.420346666667","25.1850383333333","6501000","淡水區"
"251012","441-VK","2018/07/24 18:19:16","新北市淡水區北新路二段77-5號","121.480571666667","25.1855416666667","6501000","淡水區"
"251007","442-VK","2018/07/24 18:19:25","新北市淡水區中正東路二段143巷2弄1號","121.460693333333","25.147375","6501000","淡水區"
"251008","443-VK","2018/07/24 18:19:32","新北市淡水區水源街二段346巷1弄1號","121.464388333333","25.1754783333333","6501000","淡水區"
"251006","561-UM","2018/07/24 18:19:36","新北市淡水區新民街64號","121.438806666667","25.176075","6501000","淡水區"
"251011","650-BX","2018/07/24 18:19:32","新北市淡水區坪頂路49號","121.45773","25.1625033333333","6501000","淡水區"
"251003","673-BX","2018/07/24 18:19:29","新北市淡水區北新路135號","121.449388333333","25.1788383333333","6501000","淡水區"
"207003","550-UM","2018/07/24 18:19:35","新北市萬里區野柳里港東路23號","121.687321666667","25.203665","6502800","萬里區"
"207004","225-TW","2018/07/24 18:19:18","新北市萬里區中幅里中福路39-1號","121.67788","25.1663266666667","6502800","萬里區"
"252002","178-VK","2018/07/24 18:19:12","新北市三芝區中山路二段41號","121.502915","25.25507","6502100","三芝區"
"252003","249-BX","2018/07/24 18:19:32","新北市三芝區錫板里南勢崗7號","121.47931","25.2619983333333","6502100","三芝區"
"252001","292-VK","2018/07/24 18:19:21","新北市三芝區中興街二段6號","121.49841","25.2565616666667","6502100","三芝區"
"237004","KEA-2597","2018/07/24 18:19:23","新北市三峽區五寮89-2號","121.359383333333","24.8576983333333","6500900","三峽區"
"237007","153-BY","2018/07/24 18:19:32","新北市三峽區中正路二段580號","121.359375","24.90606","6500900","三峽區"
"237009","210-TH","2018/07/24 18:19:35","新北市三峽區大勇路36巷27號","121.365443333333","24.9370266666667","6500900","三峽區"
"237013","252-BX","2018/07/24 18:19:31","新北市三峽區中正路一段19巷9號","121.376378333333","24.9303816666667","6500900","三峽區"
"237012","275-BY","2018/07/24 18:19:39","新北市三峽區三樹路86號","121.37813","24.9385616666667","6500900","三峽區"
"237008","302-VK","2018/07/24 18:19:29","新北市三峽區白雞55號","121.387095","24.9122683333333","6500900","三峽區"
"237014","433-BY","2018/07/24 18:19:22","新北市三峽區復興路78號","121.373198333333","24.9373683333333","6500900","三峽區"
"237006","5529-G3","2018/07/24 18:19:35","新北市三峽區溪東路471號","121.413753333333","24.9281216666667","6500900","三峽區"
"237011","KEA-2596","2018/07/24 18:19:19","新北市三峽區溪東路182號","121.406691666667","24.9325733333333","6500900","三峽區"
"237016","649-BX","2018/07/24 18:19:34","新北市三峽區紫微路19號","121.424115","24.9205983333333","6500900","三峽區"
"237010","706-TV","2018/07/24 18:19:35","新北市三峽區民權街147號","121.368881666667","24.931585","6500900","三峽區"
"237005","AKY-6261","2018/07/24 18:19:33","新北市三峽區長福街1-1號","121.370061666667","24.9337666666667","6500900","三峽區"
"236070","105-UM","2018/07/24 18:19:29","新北市土城區永豐路171號","121.469405","24.9792266666667","6501300","土城區"
"236042","107-UM","2018/07/24 18:19:31","新北市土城區樂利街3巷11號","121.44841","24.986375","6501300","土城區"
"236079","166-UM","2018/07/24 18:19:32","新北市土城區中央路三段281巷23弄19號","121.426318333333","24.96151","6501300","土城區"
"236030","253-BX","2018/07/24 18:19:29","新北市土城區順風路41號","121.440736666667","24.976765","6501300","土城區"
"236026","269-VK","2018/07/24 18:19:34","新北市土城區承天路18號","121.439488333333","24.9633966666667","6501300","土城區"
"236014","270-VK","2018/07/24 18:19:38","新北市土城區青雲路33號","121.46044","24.9882716666667","6501300","土城區"
"236038","271-VK","2018/07/24 18:19:27","新北市土城區青雲路451巷8弄11號","121.459578333333","24.974355","6501300","土城區"
"236021","401-BY","2018/07/24 18:19:19","新北市土城區中正路71號","121.444566666667","24.9757783333333","6501300","土城區"
"236059","912-UM","2018/07/24 18:19:22","新北市土城區中央路四段307-3號","121.410911666667","24.9517333333333","6501300","土城區"
"236049","913-UM","2018/07/24 18:19:22","新北市土城區明德路一段361-3號","121.456103333333","24.9777466666667","6501300","土城區"
"236063","915-UM","2018/07/24 18:19:26","新北市土城區金城路三段193-1號","121.470053333333","24.9889366666667","6501300","土城區"
"236055","AAC-216","2018/07/24 18:19:19","新北市土城區中華路二段92號","121.438126666667","24.9747016666667","6501300","土城區"
"242058","986-R7","2018/07/24 18:19:24","新北市新莊區中正路736號","121.413758333333","25.023005","6500500","新莊區"
"242054","751-BX","2018/07/24 18:19:24","新北市新莊區民安西路412-3號","121.428805","25.0097716666667","6500500","新莊區"
"242029","705-TV","2018/07/24 18:19:34","新北市泰山區泰林路一段2號","121.442005","25.0478733333333","6500500","新莊區"
"242027","615-BX","2018/07/24 18:19:32","新北市新莊區幸福路834號","121.445236666667","25.04913","6500500","新莊區"
"242025","613-BX","2018/07/24 18:19:27","新北市新莊區五權一路12巷9弄15號","121.457786666667","25.0651916666667","6500500","新莊區"
"242042","566-BX","2018/07/24 18:19:29","新北市新莊區天祥街76號","121.415753333333","25.0293433333333","6500500","新莊區"
"242046","497-BY","2018/07/24 18:19:32","新北市新莊區中正路803巷9號","121.42181","25.027945","6500500","新莊區"
"242051","441-UM","2018/07/24 18:19:27","新北市新莊區民本街7號","121.42765","25.019925","6500500","新莊區"
"242056","440-UM","2018/07/24 18:19:33","新北市新莊區瓊林路13-3號","121.448926666667","25.0310116666667","6500500","新莊區"
"242037","415-TV","2018/07/24 18:19:30","新北市新莊區後港一路49巷3弄8號","121.425338333333","25.0267766666667","6500500","新莊區"
"242007","413-TV","2018/07/24 18:19:24","新北市新莊區中平路82巷5號","121.445191666667","25.04487","6500500","新莊區"
"242044","400-BY","2018/07/24 18:19:31","新北市新莊區中山路三段617號","121.41345","25.0252666666667","6500500","新莊區"
"242061","353-BY","2018/07/24 18:19:29","新北市新莊區新樹路69-25號","121.438641666667","25.02969","6500500","新莊區"
"242009","132-UY","2018/07/24 18:19:24","新北市新莊區幸福路600號","121.452926666667","25.049395","6500500","新莊區"
"242039","133-UY","2018/07/24 18:19:21","新北市新莊區民安東路185號","121.43305","25.0204433333333","6500500","新莊區"
"242032","135-UY","2018/07/24 18:19:21","新北市新莊區新泰路277巷36號","121.444095","25.04024","6500500","新莊區"
"242048","172-VK","2018/07/24 18:19:32","新北市樹林區中正路105號","121.425105","25.0011383333333","6500500","新莊區"
"242011","173-VK","2018/07/24 18:19:25","新北市新莊區中港路591巷32號","121.44967","25.0523866666667","6500500","新莊區"
"242002","349-TH","2018/07/24 18:19:18","新北市新莊區大觀街14巷6號","121.454641666667","25.034165","6500500","新莊區"
"238015","755-BX","2018/07/24 18:19:15","新北市樹林區大安路339巷6號","121.417015","24.99082","6500700","樹林區"
"238023","601-UM","2018/07/24 18:19:37","新北市樹林區三福街47巷10號","121.407895","25.0158566666667","6500700","樹林區"
"238019","599-UM","2018/07/24 18:19:26","新北市樹林區國凱街47巷10號","121.421501666667","24.97991","6500700","樹林區"
"238018","571-TV","2018/07/24 18:19:37","新北市樹林區樹新路28巷10號","121.427403333333","24.9940916666667","6500700","樹林區"
"238024","5061-A6","2018/07/24 18:19:26","新北市樹林區中山路一段139號","121.422325","24.9896833333333","6500700","樹林區"
"238022","KEA-2213","2018/07/24 18:19:31","新北市樹林區味王街6號","121.402916666667","24.9762283333333","6500700","樹林區"
"238025","303-VK","2018/07/24 18:19:28","新北市樹林區保安二街59號","121.424486666667","24.9944983333333","6500700","樹林區"
"238017","283-BY","2018/07/24 18:19:25","新北市樹林區光榮街3巷1號","121.413103333333","25.00398","6500700","樹林區"
"238014","282-BY","2018/07/24 18:19:20","新北市樹林區大安路111巷25號","121.423126666667","24.9975533333333","6500700","樹林區"
"238020","268-VK","2018/07/24 18:19:37","新北市樹林區三俊街65巷9號","121.413426666667","25.0162766666667","6500700","樹林區"
"238026","172-UY","2018/07/24 18:19:24","新北市樹林區八德街624號","121.397156666667","24.9698083333333","6500700","樹林區"
"238016","169-UY","2018/07/24 18:19:30","新北市樹林區文化街23號","121.41928","24.9876516666667","6500700","樹林區"
"239007","AAC-297","2018/07/24 18:19:39","新北市鶯歌區光明街76號","121.346875","24.9557383333333","6500800","鶯歌區"
"239006","891-R6","2018/07/24 18:19:37","新北市鶯歌區德昌街140巷30號","121.332326666667","24.9616583333333","6500800","鶯歌區"
"239008","527-UM","2018/07/24 18:19:30","新北市鶯歌區國際一路14號","121.336221666667","24.976545","6500800","鶯歌區"
"239005","526-UM","2018/07/24 18:19:38","新北市鶯歌區鳳吉三街25號","121.327006666667","24.9736116666667","6500800","鶯歌區"
"239001","417-VK","2018/07/24 18:19:35","新北市鶯歌區國中街144號","121.339076666667","24.9397083333333","6500800","鶯歌區"
"239003","360-BY","2018/07/24 18:19:19","新北市鶯歌區福安街58號","121.335558333333","24.9652133333333","6500800","鶯歌區"
"239002","359-BY","2018/07/24 18:19:25","新北市鶯歌區國慶街177號","121.351311666667","24.9527733333333","6500800","鶯歌區"
"239004","193-VK","2018/07/24 18:19:19","新北市鶯歌區尖山路135號","121.346963333333","24.948535","6500800","鶯歌區"
"221008","489-VK","2018/07/24 18:19:30","新北市汐止區汐萬路一段256巷3號","121.653386666667","25.074545","6501100","汐止區"
"221036","130-UY","2018/07/24 18:19:19","新北市汐止區長興街一段51號","121.670361666667","25.0791533333333","6501100","汐止區"
"221015","131-UY","2018/07/24 18:19:24","新北市汐止區鄉長路二段23巷19號","121.668045","25.0827816666667","6501100","汐止區"
"221010","269-BY","2018/07/24 18:19:36","新北市汐止區汐萬路三段19號","121.643118333333","25.0918533333333","6501100","汐止區"
"221012","278-VK","2018/07/24 18:19:22","新北市汐止區保長路33號","121.672565","25.07948","6501100","汐止區"
"221023","279-VK","2018/07/24 18:19:21","新北市汐止區康寧街474巷18-1號","121.631378333333","25.067585","6501100","汐止區"
"221032","280-BY","2018/07/24 18:19:12","新北市汐止區力行街48號","121.616441666667","25.0497983333333","6501100","汐止區"
"221027","281-BY","2018/07/24 18:19:29","新北市汐止區和平街21號","121.662771666667","25.07074","6501100","汐止區"
"221033","297-VK","2018/07/24 18:19:13","新北市汐止區宜興街130號","121.623366666667","25.0434516666667","6501100","汐止區"
"221029","298-VK","2018/07/24 18:19:35","新北市汐止區樟樹二路330巷76號","121.643048333333","25.0700116666667","6501100","汐止區"
"221021","299-VK","2018/07/24 18:19:34","新北市汐止區連興街120號","121.653773333333","25.062345","6501100","汐止區"
"221031","353-TW","2018/07/24 18:19:18","新北市汐止區光復街7巷23號","121.63989","25.0593533333333","6501100","汐止區"
"221035","622-UM","2018/07/24 18:19:33","新北市汐止區大同路二段187巷6弄4號","121.652463333333","25.0653083333333","6501100","汐止區"
"221025","623-UM","2018/07/24 18:19:32","新北市汐止區勤進路12巷49號","121.659005","25.0628933333333","6501100","汐止區"
"221038","646-BX","2018/07/24 18:19:20","新北市汐止區忠孝東路286號","121.663856666667","25.0683116666667","6501100","汐止區"
"221002","707-TV","2018/07/24 18:19:29","新北市汐止區福德一路201巷23號","121.635965","25.0647933333333","6501100","汐止區"
"221018","753-BX","2018/07/24 18:19:17","新北市汐止區茄苳路118號","121.668113333333","25.0702833333333","6501100","汐止區"
"242021","281-VK","2018/07/24 18:19:24","新北市新莊區中正路170號","121.450716666667","25.0359733333333","6500500","新莊區"
"220054","741-BX","2018/07/24 18:19:36","新北市板橋區華東街1-9號","121.448101666667","24.99492","6500100","板橋區"
"220082","806-UM","2018/07/24 18:19:19","新北市板橋區華東街1-10號","121.44824","24.9949883333333","6500100","板橋區"
"220073","985-R7","2018/07/24 18:19:24","新北市板橋區華東街1-10號","121.448311666667","24.9949566666667","6500100","板橋區"
"235068","KEA-2873","2018/07/24 18:19:11","新北市中和區員山路36巷16-2號","121.48538","24.9914116666667","6500300","中和區"
"235061","KEA-2875","2018/07/24 18:19:20","新北市中和區國光街215巷24弄6號","121.466655","25.000155","6500300","中和區"
