"lineid","car","time","location","longitude","latitude","cityid","cityname"
"234046","148-BY","2018/07/24 18:39:37","新北市永和區永元路66號","121.522521666667","25.0014216666667","6500400","永和區"
"234007","207-UY","2018/07/24 18:39:23","新北市永和區環河西路二段223號","121.501113333333","25.0101133333333","6500400","永和區"
"234081","298-R6","2018/07/24 18:39:24","新北市永和區林森路81號","121.523911666667","25.0038033333333","6500400","永和區"
"234086","338-UY","2018/07/24 18:39:24","新北市永和區永貞路82號","121.520106666667","25.00507","6500400","永和區"
"234017","745-BX","2018/07/24 18:39:21","新北市永和區福和路1號","121.52645","25.009615","6500400","永和區"
"234030","746-BX","2018/07/24 18:39:33","新北市永和區成功路一段146號","121.526756666667","25.0016216666667","6500400","永和區"
"234013","KEA-2591","2018/07/24 18:39:20","新北市永和區仁愛路104巷10號","121.51214","25.0136933333333","6500400","永和區"
"234067","847-RS","2018/07/24 18:39:16","新北市永和區豫溪街217巷1號","121.52477","25.00941","6500400","永和區"
"234026","9371-KE","2018/07/24 18:39:25","新北市永和區永貞路331號","121.509711666667","25.00697","6500400","永和區"
"234011","9373-KE","2018/07/24 18:39:23","新北市永和區文化路9巷22弄44號","121.514155","25.014515","6500400","永和區"
"249005","172-UM","2018/07/24 18:39:30","新北市八里區中華路三段232號","121.388578333333","25.124825","6502300","八里區"
"249004","303-UY","2018/07/24 18:39:17","新北市八里區大崁腳41-6號","121.423885","25.1589266666667","6502300","八里區"
"249001","759-BX","2018/07/24 18:39:38","新北市八里區龍米路一段219號","121.451428333333","25.13175","6502300","八里區"
"248014","025-BX","2018/07/24 18:39:33","新北市五股區蓬萊路24號","121.433886666667","25.07986","6501500","五股區"
"248016","026-BX","2018/07/24 18:39:17","新北市五股區凌雲路一段149巷30號","121.448726666667","25.1015","6501500","五股區"
"248008","095-VK","2018/07/24 18:39:33","新北市五股區中興路一段154號","121.464606666667","25.0740566666667","6501500","五股區"
"248020","225-UY","2018/07/24 18:38:00","新北市五股區孝義路108號","121.443643333333","25.1195966666667","6501500","五股區"
"248012","247-BX","2018/07/24 18:39:32","新北市五股區成泰路三段2巷1-20號","121.44119","25.0866533333333","6501500","五股區"
"248004","677-BX","2018/07/24 18:39:18","新北市五股區民義路一段222號","121.429201666667","25.090405","6501500","五股區"
"248002","678-BX","2018/07/24 18:39:22","新北市五股區西雲路199號","121.44805","25.0960316666667","6501500","五股區"
"248010","682-TV","2018/07/24 18:39:32","新北市五股區水碓三路120號","121.431786666667","25.07354","6501500","五股區"
"234023","9380-KE","2018/07/24 18:39:27","新北市永和區福和路76巷5弄14號","121.522335","25.0084033333333","6500400","永和區"
"234077","969-R7","2018/07/24 18:39:17","新北市永和區福和路273號","121.51758","25.007345","6500400","永和區"
"234003","AAC-295","2018/07/24 18:39:35","新北市永和區福和路1號","121.526005","25.0094383333333","6500400","永和區"
"244007","080-UY","2018/07/24 18:39:27","新北市林口區中湖62號","121.384498333333","25.1009466666667","6501700","林口區"
"244019","403-UM","2018/07/24 18:39:26","新北市林口區忠孝路627號","121.379735","25.0694016666667","6501700","林口區"
"244013","742-UY","2018/07/24 18:39:27","新北市林口區中正路514巷27號","121.382078333333","25.0779183333333","6501700","林口區"
"244009","410-SL","2018/07/24 18:39:21","新北市林口區竹林路330巷1號","121.391566666667","25.08314","6501700","林口區"
"244023","483-VK","2018/07/24 18:39:31","新北市林口區文化二路二段88巷7號","121.37935","25.0808583333333","6501700","林口區"
"244017","485-VK","2018/07/24 18:39:26","新北市林口區文化二路一段84號","121.3662","25.069555","6501700","林口區"
"244011","657-BX","2018/07/24 18:39:16","新北市林口區新寮1-70號","121.39235","25.076645","6501700","林口區"
"244025","837-TS","2018/07/24 18:39:34","新北市林口區南勢街221巷22號","121.3577","25.0754516666667","6501700","林口區"
"244021","838-TS","2018/07/24 18:39:29","新北市林口區粉寮路一段51號","121.396868333333","25.0777366666667","6501700","林口區"
"243013","AAD-798","2018/07/24 18:31:21","新北市泰山區明志路三段206巷3號","121.423293333333","25.03792","6501600","泰山區"
"243012","646-TV","2018/07/24 18:39:21","新北市泰山區福興三街11號","121.434565","25.0578183333333","6501600","泰山區"
"222003","436-BY","2018/07/24 18:39:36","新北市深坑區翠谷街17巷1號","121.626511666667","25.008435","6501800","深坑區"
"222002","659-BX","2018/07/24 18:39:23","新北市深坑區雲鄉路1號","121.62103","24.99967","6501800","深坑區"
"231041","002-UM","2018/07/24 18:39:23","新北市新店區安華路28-1號","121.519803333333","24.9608216666667","6500600","新店區"
"231059","046-UY","2018/07/24 18:39:21","新北市新店區安華路28-1號","121.51967","24.960715","6500600","新店區"
"231040","047-UY","2018/07/24 18:39:25","新北市新店區安華路28-1號","121.519216666667","24.9608033333333","6500600","新店區"
"231044","106-UY","2018/07/24 18:39:32","新北市新店區安康路一段167號","121.527228333333","24.9624433333333","6500600","新店區"
"231046","107-UY","2018/07/24 18:39:35","新北市新店區直潭一街8號","121.536055","24.9429166666667","6500600","新店區"
"231053","108-UY","2018/07/24 18:39:22","新北市新店區長興路1號","121.545893333333","24.9404633333333","6500600","新店區"
"231048","187-VK","2018/07/24 18:39:30","新北市新店區安康路一段167號","121.527198333333","24.9624516666667","6500600","新店區"
"231054","KEA-2219","2018/07/24 18:39:18","新北市新店區安一路一段1-1號","121.519808333333","24.9613916666667","6500600","新店區"
"231057","256-BX","2018/07/24 18:39:29","新北市新店區新烏路一段215號","121.548933333333","24.9312583333333","6500600","新店區"
"231042","268-BY","2018/07/24 18:39:26","新北市新店區安華路1-1號","121.519333333333","24.96044","6500600","新店區"
"231051","278-BY","2018/07/24 18:39:27","新北市新店區中央路196號","121.530716666667","24.974495","6500600","新店區"
"231050","AAD-862","2018/07/24 18:39:01","新北市新店區安一路一段1-1號","121.520018333333","24.96122","6500600","新店區"
"231058","3713-VJ","2018/07/24 18:39:28","新北市新店區新店路9號","121.540398333333","24.9529083333333","6500600","新店區"
"231066","4716-K9","2018/07/24 18:39:23","新北市新店區安一路一段1-1號","121.519221666667","24.961135","6500600","新店區"
"231056","4715-K9","2018/07/24 18:39:21","新北市新店區建國路147號","121.538961666667","24.9788166666667","6500600","新店區"
"231067","4772-VM","2018/07/24 18:39:35","新北市新店區安華路3號","121.518938333333","24.96061","6500600","新店區"
"231049","513-UM","2018/07/24 18:39:34","新北市新店區安一路一段1-1號","121.519651666667","24.9611066666667","6500600","新店區"
"231063","616-UM","2018/07/24 18:39:30","新北市新店區安華路1-1號","121.519578333333","24.960475","6500600","新店區"
"231045","617-UM","2018/07/24 18:39:31","新北市新店區安華路28-1號","121.519483333333","24.9608766666667","6500600","新店區"
"231061","619-UM","2018/07/24 18:39:38","新北市新店區安華路28-1號","121.519715","24.9606466666667","6500600","新店區"
"231064","719-UM","2018/07/24 18:39:30","新北市新店區安一路一段1-1號","121.51947","24.9611216666667","6500600","新店區"
"231062","720-UM","2018/07/24 18:39:22","新北市新店區安一路一段1-1號","121.519458333333","24.9612633333333","6500600","新店區"
"231060","897-TW","2018/07/24 18:39:20","新北市新店區安華路28-1號","121.519733333333","24.9607483333333","6500600","新店區"
"231043","899-TW","2018/07/24 18:39:35","新北市新店區安華路28-1號","121.519166666667","24.96089","6500600","新店區"
"231055","AKT-0513","2018/07/24 18:39:26","新北市新店區北新路一段271巷34號","121.539825","24.9671433333333","6500600","新店區"
"241035","462-BY","2018/07/24 18:39:38","新北市三重區重新路四段121號","121.484886666667","25.0519466666667","6500200","三重區"
"235066","003-UY","2018/07/24 18:39:24","新北市中和區水源路34巷2號","121.504763333333","25.0035616666667","6500300","中和區"
"235064","005-UY","2018/07/24 18:39:25","新北市中和區連城路109巷63號","121.497213333333","24.9980716666667","6500300","中和區"
"235063","006-UY","2018/07/24 18:39:31","新北市中和區連城路347巷2弄1號","121.488185","24.9958483333333","6500300","中和區"
"235056","096-UM","2018/07/24 18:39:36","新北市中和區員山路611巷2弄2號","121.477806666667","25.01143","6500300","中和區"
"235039","097-UM","2018/07/24 18:39:33","新北市永和區中正路1號","121.513718333333","24.9954533333333","6500300","中和區"
"235065","098-UM","2018/07/24 18:39:32","新北市中和區莊敬路49巷18號","121.50173","25.0061166666667","6500300","中和區"
"235040","150-BY","2018/07/24 18:39:36","新北市中和區保健路76巷1號","121.511578333333","24.99627","6500300","中和區"
"235058","151-BY","2018/07/24 18:39:27","新北市中和區員山路72號","121.480826666667","24.9936083333333","6500300","中和區"
"235055","183-VK","2018/07/24 18:39:31","新北市中和區民生街93-2號","121.468556666667","25.004755","6500300","中和區"
"235049","186-VK","2018/07/24 18:39:29","新北市中和區景平路480號","121.50493","24.9937","6500300","中和區"
"235067","255-BX","2018/07/24 18:39:28","新北市中和區中山路二段479號","121.48309","25.0049216666667","6500300","中和區"
"235044","293-VK","2018/07/24 18:39:30","新北市中和區復興路280巷9號","121.502285","24.9912166666667","6500300","中和區"
"235072","301-VK","2018/07/24 18:39:32","新北市中和區中山路二段120號","121.502698333333","25.00365","6500300","中和區"
"235043","352-BY","2018/07/24 18:39:38","新北市中和區景平路233號","121.510158333333","24.9926716666667","6500300","中和區"
"235050","4979-A6","2018/07/24 18:39:18","新北市中和區景新街496巷28弄25號","121.512988333333","24.9858516666667","6500300","中和區"
"235069","4980-A6","2018/07/24 18:39:20","新北市中和區連城路72號","121.49748","25.0013683333333","6500300","中和區"
"235042","551-UM","2018/07/24 18:39:37","新北市中和區成功路41巷1號","121.526333333333","24.9932566666667","6500300","中和區"
"235070","558-UM","2018/07/24 18:39:32","新北市中和區南華路70號","121.504998333333","24.9972383333333","6500300","中和區"
"235045","565-BX","2018/07/24 18:39:35","新北市中和區南山路236巷63弄1號","121.503885","24.9876766666667","6500300","中和區"
"235054","640-BX","2018/07/24 18:39:20","新北市中和區民享街32巷5-1號","121.473573333333","25.003195","6500300","中和區"
"235060","647-TV","2018/07/24 18:39:37","新北市中和區中山路三段15號","121.479518333333","25.006","6500300","中和區"
"235047","732-UM","2018/07/24 18:39:37","新北市中和區南山路320巷10弄2號","121.507055","24.986345","6500300","中和區"
"235046","733-UM","2018/07/24 18:39:29","新北市中和區仁愛街95號","121.511785","24.9867883333333","6500300","中和區"
"235062","800-TS","2018/07/24 18:39:31","新北市中和區中山路二段302號","121.495931666667","25.002445","6500300","中和區"
"235057","801-TS","2018/07/24 18:39:32","新北市中和區員山路327巷46號","121.4804","25.001665","6500300","中和區"
"235041","802-TS","2018/07/24 18:39:27","新北市中和區中安街178巷3弄5-2號","121.51097","24.9988583333333","6500300","中和區"
"235052","805-TS","2018/07/24 18:39:30","新北市中和區興南路三段59號","121.49353","24.97526","6500300","中和區"
"235048","896-TW","2018/07/24 18:39:19","新北市中和區南山路313號","121.504985","24.9914266666667","6500300","中和區"
"235053","900-TW","2018/07/24 18:39:20","新北市土城區延壽路75巷1號","121.469186666667","24.992525","6500300","中和區"
"235051","157-BY","2018/07/24 18:39:18","新北市中和區華新街143巷106弄1號","121.50601","24.9790533333333","6500300","中和區"
"235037","AAC-213","2018/07/24 18:39:19","新北市中和區景德街61號","121.51721","24.9914683333333","6500300","中和區"
"235059","AAC-215","2018/07/24 18:39:23","新北市中和區錦和路354巷15號","121.489756666667","24.9915666666667","6500300","中和區"
"220065","072-UY","2018/07/24 18:39:32","新北市板橋區區運路35號","121.466195","25.0102783333333","6500100","板橋區"
"220086","073-UY","2018/07/24 18:39:27","新北市板橋區南雅西路二段192巷1弄25號","121.452296666667","25.0151866666667","6500100","板橋區"
"226004","205-ST","2018/07/24 18:39:29","新北市平溪區平溪里三坑路30號","121.736458333333","25.0293433333333","6502400","平溪區"
"235038","251-BX","2018/07/24 18:39:20","新北市中和區大勇街76號","121.518261666667","24.99473","6500300","中和區"
"228004","212-TW","2018/07/24 18:39:27","新北市貢寮區仁理村研海街12-1號","121.92378","25.0516433333333","6502600","貢寮區"
"228002","663-BX","2018/07/24 18:39:32","新北市貢寮區福隆里東興街6-11號","121.950753333333","25.0210583333333","6502600","貢寮區"
"228003","828-UM","2018/07/24 18:39:31","新北市貢寮區和美里龍洞街35號","121.916098333333","25.1116266666667","6502600","貢寮區"
"224010","AGQ-8101","2018/07/24 18:39:30","新北市瑞芳區崙頂路111號","121.844475","25.106875","6501200","瑞芳區"
"224006","676-BX","2018/07/24 18:39:29","新北市瑞芳區明燈路三段97號","121.804355","25.108505","6501200","瑞芳區"
"224002","639-TC","2018/07/24 18:39:24","新北市瑞芳區民權街8-9號","121.809145","25.1066916666667","6501200","瑞芳區"
"224008","285-BY","2018/07/24 18:39:28","新北市瑞芳區岳王路1巷2號","121.807056666667","25.1105866666667","6501200","瑞芳區"
"224007","275-VK","2018/07/24 18:39:32","新北市瑞芳區大埔路115巷11號","121.763286666667","25.1010716666667","6501200","瑞芳區"
"224009","273-VK","2018/07/24 18:39:27","新北市瑞芳區祈堂路2號","121.859603333333","25.1116383333333","6501200","瑞芳區"
"224005","271-BY","2018/07/24 18:39:32","新北市瑞芳區建基路一段8號","121.820368333333","25.120885","6501200","瑞芳區"
"227009","642-TC","2018/07/24 18:39:24","新北市雙溪區牡丹里下坑11號","121.851016666667","25.0561783333333","6502500","雙溪區"
"227003","400-TW","2018/07/24 18:39:17","新北市雙溪區魚行里坤溪3-5號","121.875263333333","25.0215016666667","6502500","雙溪區"
"253005","032-BX","2018/07/24 18:39:26","新北市石門區中山路27號","121.566543333333","25.2904133333333","6502200","石門區"
"253006","295-VK","2018/07/24 18:39:31","新北市石門區楓林37-6號","121.541001666667","25.2896666666667","6502200","石門區"
"222001","KEA-2212","2018/07/24 18:39:24","新北市深坑區北深路一段80號","121.636456666667","25.0105483333333","6501800","深坑區"
"208002","KEA-2872","2018/07/24 18:39:34","新北市金山區忠孝一路19巷5號","121.637925","25.2179616666667","6502700","金山區"
"208003","665-BX","2018/07/24 18:39:37","新北市金山區中山路332號","121.633771666667","25.2251333333333","6502700","金山區"
"208001","761-BX","2018/07/24 18:39:27","新北市金山區文化三路46號","121.634956666667","25.2250866666667","6502700","金山區"
"251004","009-UM","2018/07/24 18:39:32","新北市淡水區民權路41號","121.460213333333","25.1402483333333","6501000","淡水區"
"251001","011-UM","2018/07/24 18:39:29","新北市淡水區自強路415巷2號","121.46548","25.1342566666667","6501000","淡水區"
"251002","012-UM","2018/07/24 18:39:25","新北市淡水區中正東路一段3巷14弄1號","121.450931666667","25.1642033333333","6501000","淡水區"
"251013","KEA-2871","2018/07/24 18:39:18","新北市淡水區雲廣坑5-1號","121.47477","25.2130983333333","6501000","淡水區"
"251016","179-VK","2018/07/24 18:39:21","新北市淡水區下圭柔山84-1號","121.439356666667","25.20506","6501000","淡水區"
"251014","180-VK","2018/07/24 18:39:36","新北市淡水區崙頂12-8號","121.495573333333","25.2172283333333","6501000","淡水區"
"251015","181-VK","2018/07/24 18:39:38","新北市淡水區興福寮66巷283號","121.486151666667","25.1619683333333","6501000","淡水區"
"251010","413-VK","2018/07/24 18:39:23","新北市淡水區沙崙路141號","121.423248333333","25.1829033333333","6501000","淡水區"
"251012","441-VK","2018/07/24 18:39:36","新北市淡水區北新路117號","121.448978333333","25.1785733333333","6501000","淡水區"
"251007","442-VK","2018/07/24 18:39:25","新北市淡水區中正東路二段143巷2弄1號","121.460606666667","25.14738","6501000","淡水區"
"251008","443-VK","2018/07/24 18:39:32","新北市淡水區北投子18號","121.453883333333","25.184","6501000","淡水區"
"251006","561-UM","2018/07/24 18:39:36","新北市淡水區崁頂36-5號","121.439325","25.19382","6501000","淡水區"
"251011","650-BX","2018/07/24 18:39:32","新北市淡水區鄧公路30巷2弄20號","121.452998333333","25.169045","6501000","淡水區"
"251003","673-BX","2018/07/24 18:39:29","新北市淡水區北新路69巷26號","121.446675","25.1800666666667","6501000","淡水區"
"207003","550-UM","2018/07/24 18:39:35","新北市萬里區野柳里八斗60號","121.660353333333","25.2072133333333","6502800","萬里區"
"207004","225-TW","2018/07/24 18:39:18","新北市萬里區萬里里獅頭路10-1號","121.692078333333","25.1787216666667","6502800","萬里區"
"252002","178-VK","2018/07/24 18:39:32","新北市三芝區民生街64巷6號","121.503565","25.2552683333333","6502100","三芝區"
"252003","249-BX","2018/07/24 18:39:32","新北市三芝區後厝里土地公坑73-14號","121.460008333333","25.2472283333333","6502100","三芝區"
"252001","292-VK","2018/07/24 18:39:21","新北市三芝區中正路三段32號","121.502093333333","25.2523383333333","6502100","三芝區"
"237004","KEA-2597","2018/07/24 18:39:23","新北市三峽區有木314號","121.423708333333","24.8626533333333","6500900","三峽區"
"237007","153-BY","2018/07/24 18:39:32","新北市三峽區中正路三段24號","121.357848333333","24.90526","6500900","三峽區"
"237009","210-TH","2018/07/24 18:39:35","新北市三峽區弘園街38號","121.36606","24.9269833333333","6500900","三峽區"
"237013","252-BX","2018/07/24 18:39:31","新北市三峽區光明路69巷25號","121.376688333333","24.9292216666667","6500900","三峽區"
"237012","275-BY","2018/07/24 18:39:19","新北市三峽區三樹路340號","121.383946666667","24.9433266666667","6500900","三峽區"
"237008","302-VK","2018/07/24 18:39:29","新北市三峽區白雞115-16號","121.401196666667","24.9062216666667","6500900","三峽區"
"237014","433-BY","2018/07/24 18:39:22","新北市三峽區復興路485號","121.361501666667","24.938625","6500900","三峽區"
"237006","5529-G3","2018/07/24 18:39:35","新北市三峽區溪東路233巷4弄19號","121.40724","24.933775","6500900","三峽區"
"237011","KEA-2596","2018/07/24 18:39:19","新北市三峽區溪東路1號","121.399218333333","24.9352333333333","6500900","三峽區"
"237016","649-BX","2018/07/24 18:39:34","新北市三峽區竹崙路155號","121.434648333333","24.9066466666667","6500900","三峽區"
"237010","706-TV","2018/07/24 18:39:29","新北市三峽區復興路337號","121.364398333333","24.938725","6500900","三峽區"
"237005","AKY-6261","2018/07/24 18:39:33","新北市三峽區文化路84號","121.371901666667","24.9361033333333","6500900","三峽區"
"236070","105-UM","2018/07/24 18:39:29","新北市土城區永豐路157巷3號","121.467895","24.9815766666667","6501300","土城區"
"236042","107-UM","2018/07/24 18:39:16","新北市土城區裕民路55巷15號","121.44952","24.9887066666667","6501300","土城區"
"236079","166-UM","2018/07/24 18:39:32","新北市土城區頂埔街95-1號","121.41798","24.9598533333333","6501300","土城區"
"236030","253-BX","2018/07/24 18:39:32","新北市土城區中華路二段185號","121.438588333333","24.974615","6501300","土城區"
"236026","269-VK","2018/07/24 18:39:33","新北市土城區忠義路49-1號","121.440518333333","24.9690566666667","6501300","土城區"
"236014","270-VK","2018/07/24 18:39:38","新北市土城區清水路207巷11號","121.459901666667","24.9823466666667","6501300","土城區"
"236038","271-VK","2018/07/24 18:39:27","新北市土城區青山路2巷14號","121.4611","24.976425","6501300","土城區"
"236021","401-BY","2018/07/24 18:39:35","新北市土城區延吉街305號","121.466526666667","24.9845716666667","6501300","土城區"
"236059","912-UM","2018/07/24 18:39:22","新北市土城區中央路三段157號","121.432038333333","24.9653083333333","6501300","土城區"
"236049","913-UM","2018/07/24 18:39:36","新北市土城區明德路一段103號","121.465606666667","24.9827566666667","6501300","土城區"
"236063","915-UM","2018/07/24 18:39:26","新北市土城區延壽路55巷9弄2號","121.469471666667","24.9916633333333","6501300","土城區"
"236055","AAC-216","2018/07/24 18:39:38","新北市土城區裕民路6-5號","121.446923333333","24.9890016666667","6501300","土城區"
"242058","986-R7","2018/07/24 18:39:37","新北市新莊區中正路881-12號","121.417206666667","25.0251883333333","6500500","新莊區"
"242054","751-BX","2018/07/24 18:39:24","新北市樹林區樹新路120巷13號","121.430495","24.996945","6500500","新莊區"
"242025","613-BX","2018/07/24 18:39:26","新北市新莊區立信一街39號","121.442061666667","25.0492933333333","6500500","新莊區"
"242051","441-UM","2018/07/24 18:39:27","新北市樹林區環河路110號","121.426116666667","24.9773666666667","6500500","新莊區"
"242002","349-TH","2018/07/24 18:39:17","新北市新莊區環河路636-7號","121.437458333333","25.011715","6500500","新莊區"
"238023","601-UM","2018/07/24 18:39:17","新北市樹林區三福街114號","121.406513333333","25.0162483333333","6500700","樹林區"
"238019","599-UM","2018/07/24 18:39:26","新北市樹林區中華路190-16號","121.411681666667","24.98062","6500700","樹林區"
"238018","571-TV","2018/07/24 18:39:31","新北市樹林區鎮前街165號","121.42222","24.987195","6500700","樹林區"
"238024","5061-A6","2018/07/24 18:39:26","新北市樹林區太順街49巷20弄14號","121.417816666667","24.9783883333333","6500700","樹林區"
"238022","KEA-2213","2018/07/24 18:39:31","新北市樹林區中華路393號","121.411361666667","24.9804683333333","6500700","樹林區"
"238025","303-VK","2018/07/24 18:39:28","新北市樹林區中山路三段22號","121.395558333333","24.9729166666667","6500700","樹林區"
"238017","283-BY","2018/07/24 18:39:25","新北市樹林區光興街50號","121.409866666667","25.002705","6500700","樹林區"
"238014","282-BY","2018/07/24 18:39:40","新北市樹林區大安路111巷41號","121.423273333333","24.9975916666667","6500700","樹林區"
"238020","268-VK","2018/07/24 18:39:36","新北市樹林區三俊街254號","121.421166666667","25.0144366666667","6500700","樹林區"
"238026","172-UY","2018/07/24 18:39:24","新北市樹林區信和街100號","121.388473333333","24.973315","6500700","樹林區"
"238016","169-UY","2018/07/24 18:39:30","新北市樹林區文化街28號","121.419306666667","24.98775","6500700","樹林區"
"239007","AAC-297","2018/07/24 18:39:27","新北市鶯歌區成功街20巷17號","121.359135","24.9577433333333","6500800","鶯歌區"
"239006","891-R6","2018/07/24 18:39:37","新北市鶯歌區鶯桃路296巷103號","121.33651","24.9619733333333","6500800","鶯歌區"
"239008","527-UM","2018/07/24 18:39:30","新北市鶯歌區國際一路14號","121.336211666667","24.9765583333333","6500800","鶯歌區"
"239005","526-UM","2018/07/24 18:39:22","新北市鶯歌區鳳吉一街110號","121.327533333333","24.97462","6500800","鶯歌區"
"239001","417-VK","2018/07/24 18:39:35","新北市鶯歌區中正三路124號","121.336705","24.9401916666667","6500800","鶯歌區"
"239003","360-BY","2018/07/24 18:39:19","新北市鶯歌區永和街181號","121.335865","24.9704233333333","6500800","鶯歌區"
"239002","359-BY","2018/07/24 18:39:25","新北市鶯歌區中山路300號","121.342873333333","24.957145","6500800","鶯歌區"
"239004","193-VK","2018/07/24 18:39:26","新北市鶯歌區尖山路245號","121.340496666667","24.9434966666667","6500800","鶯歌區"
"221008","489-VK","2018/07/24 18:39:30","新北市汐止區康寧街901號","121.651418333333","25.0750166666667","6501100","汐止區"
"221036","130-UY","2018/07/24 18:39:38","新北市汐止區忠孝東路314巷19弄14號","121.664963333333","25.0685216666667","6501100","汐止區"
"221015","131-UY","2018/07/24 18:39:24","新北市汐止區吉祥街12巷23號","121.66878","25.080705","6501100","汐止區"
"221010","269-BY","2018/07/24 18:39:23","新北市汐止區汐萬路二段124號","121.648016666667","25.085195","6501100","汐止區"
"221012","278-VK","2018/07/24 18:39:22","新北市汐止區長江街43號","121.655896666667","25.071335","6501100","汐止區"
"221023","279-VK","2018/07/24 18:39:21","新北市汐止區康寧街706-2號","121.63846","25.073115","6501100","汐止區"
"221032","280-BY","2018/07/24 18:39:32","新北市汐止區民權街二段131號","121.618028333333","25.0456116666667","6501100","汐止區"
"221027","281-BY","2018/07/24 18:39:21","新北市汐止區汐萬路一段142號","121.65325","25.071115","6501100","汐止區"
"221033","297-VK","2018/07/24 18:39:33","新北市汐止區南勢街1巷1號","121.62705","25.037445","6501100","汐止區"
"221029","298-VK","2018/07/24 18:39:35","新北市汐止區樟樹一路142號","121.642235","25.06504","6501100","汐止區"
"221021","299-VK","2018/07/24 18:39:33","新北市汐止區新台五路一段158號","121.654173333333","25.0623683333333","6501100","汐止區"
"221031","353-TW","2018/07/24 18:39:38","新北市汐止區福德一路272巷6號","121.632101666667","25.0641216666667","6501100","汐止區"
"221035","622-UM","2018/07/24 18:39:32","新北市汐止區大同路二段278號","121.654861666667","25.0661983333333","6501100","汐止區"
"221025","623-UM","2018/07/24 18:39:32","新北市汐止區仁愛路119巷23號","121.662085","25.064365","6501100","汐止區"
"221038","646-BX","2018/07/24 18:39:20","新北市汐止區汐萬路一段312號","121.650693333333","25.07529","6501100","汐止區"
"221002","707-TV","2018/07/24 18:39:29","新北市汐止區中興路8號","121.637331666667","25.0591816666667","6501100","汐止區"
"221018","753-BX","2018/07/24 18:39:17","新北市汐止區茄苳路301號","121.673276666667","25.0669733333333","6501100","汐止區"
"220080","200-UY","2018/07/24 18:39:38","新北市板橋區大觀路二段265巷76弄30號","121.441333333333","24.9968016666667","6500100","板橋區"
"220079","256-TC","2018/07/24 18:39:22","新北市板橋區大觀路二段107號","121.446206666667","25.0016433333333","6500100","板橋區"
"220056","276-BY","2018/07/24 18:39:28","新北市板橋區四川路二段140巷16弄28號","121.448635","24.9943266666667","6500100","板橋區"
"220072","277-BY","2018/07/24 18:39:37","新北市板橋區大觀路三段59巷17弄6-1號","121.43735","24.9953516666667","6500100","板橋區"
"220071","283-VK","2018/07/24 18:39:25","新北市板橋區四川路二段241號","121.450581666667","24.9937683333333","6500100","板橋區"
"220094","285-UM","2018/07/24 18:39:19","新北市板橋區民生路二段161巷1號","121.469946666667","25.0199866666667","6500100","板橋區"
"220083","286-VK","2018/07/24 18:39:34","新北市板橋區大觀路二段153巷47號","121.44715","25.0008116666667","6500100","板橋區"
"220081","287-VK","2018/07/24 18:39:21","新北市板橋區大觀路二段107號","121.446271666667","25.0016116666667","6500100","板橋區"
"220061","293-UM","2018/07/24 18:39:27","新北市板橋區民生路二段120號","121.47034","25.01958","6500100","板橋區"
"220084","296-UM","2018/07/24 18:39:35","新北市板橋區大觀路二段力行2巷65號","121.445863333333","24.9989516666667","6500100","板橋區"
"220075","303-R5","2018/07/24 18:39:19","新北市板橋區華東街298號","121.452721666667","25.0025533333333","6500100","板橋區"
"220064","486-VK","2018/07/24 18:39:29","新北市板橋區縣民大道一段295號","121.460983333333","25.0104833333333","6500100","板橋區"
"220035","560-BX","2018/07/24 18:39:29","新北市板橋區南雅西路二段145巷10號","121.451545","25.01193","6500100","板橋區"
"220057","686-BX","2018/07/24 18:39:28","新北市板橋區華東街1-9號","121.448216666667","24.9948816666667","6500100","板橋區"
"220077","687-BX","2018/07/24 18:39:33","新北市板橋區大觀路二段156巷99號","121.44096","25.00109","6500100","板橋區"
"220054","741-BX","2018/07/24 18:39:36","新北市板橋區華東街1-9號","121.448096666667","24.9949083333333","6500100","板橋區"
"220082","806-UM","2018/07/24 18:39:29","新北市板橋區篤行路一段29號","121.432025","24.9946","6500100","板橋區"
"220067","829-TW","2018/07/24 18:39:24","新北市板橋區民生路二段161巷1號","121.47026","25.019905","6500100","板橋區"
"220074","895-R6","2018/07/24 18:39:17","新北市板橋區南雅南路二段1-1號","121.454691666667","25.0036833333333","6500100","板橋區"
"220073","985-R7","2018/07/24 18:39:24","新北市板橋區貴興路114號","121.45519","25.0020533333333","6500100","板橋區"
"220070","AAC-253","2018/07/24 18:39:29","新北市板橋區華東街1-8號","121.447788333333","24.9947766666667","6500100","板橋區"
"235068","KEA-2873","2018/07/24 18:39:11","新北市中和區中正路213號","121.496975","24.9936583333333","6500300","中和區"
"235061","KEA-2875","2018/07/24 18:39:32","新北市中和區民享街92巷23號","121.473725","24.9996216666667","6500300","中和區"
