"lineid","car","time","location","longitude","latitude","cityid","cityname"
"234046","148-BY","2018/07/24 19:29:37","新北市永和區秀朗路二段241號","121.526478333333","24.999705","6500400","永和區"
"234007","207-UY","2018/07/24 19:29:23","新北市永和區永和路一段136號","121.514021666667","25.0079816666667","6500400","永和區"
"234081","298-R6","2018/07/24 19:29:24","新北市永和區環河東路三段54號","121.526866666667","25.006255","6500400","永和區"
"234038","336-UY","2018/07/24 19:29:26","新北市永和區民樂街41巷2號","121.52748","24.99999","6500400","永和區"
"234064","337-UY","2018/07/24 19:29:41","新北市永和區得和路243巷28弄1號","121.520845","25.0012333333333","6500400","永和區"
"234086","338-UY","2018/07/24 19:29:30","新北市永和區永元路138號","121.52288","25.0031","6500400","永和區"
"234070","552-UM","2018/07/24 19:29:30","新北市永和區竹林路182號","121.520301666667","25.0097016666667","6500400","永和區"
"234017","745-BX","2018/07/24 19:29:20","新北市永和區環河西路一段73號","121.513318333333","25.0182066666667","6500400","永和區"
"234030","746-BX","2018/07/24 19:29:33","新北市永和區民生路4號","121.522688333333","24.9979133333333","6500400","永和區"
"234054","KEA-2590","2018/07/24 19:29:24","新北市永和區復興街19巷13弄2號","121.51604","25.01337","6500400","永和區"
"234013","KEA-2591","2018/07/24 19:29:20","新北市永和區中山路一段82號","121.512033333333","25.0108483333333","6500400","永和區"
"234061","AAD-866","2018/07/24 19:29:37","新北市永和區永貞路187號","121.515006666667","25.0038883333333","6500400","永和區"
"234067","847-RS","2018/07/24 19:29:36","新北市永和區保平路123號","121.51067","25.0064733333333","6500400","永和區"
"234042","862-TW","2018/07/24 19:29:27","新北市中和區中和路464號","121.5123","25.00399","6500400","永和區"
"234048","863-TW","2018/07/24 19:29:23","新北市永和區信義路111號","121.512233333333","25.01467","6500400","永和區"
"234026","9371-KE","2018/07/24 19:29:25","新北市中和區安樂路207號","121.514493333333","24.9985266666667","6500400","永和區"
"234011","9373-KE","2018/07/24 19:29:23","新北市永和區保福路二段163巷13弄3號","121.509205","25.0143966666667","6500400","永和區"
"249005","172-UM","2018/07/24 19:29:30","新北市八里區中華路三段170-1號","121.39223","25.1303433333333","6502300","八里區"
"249003","593-UM","2018/07/24 19:29:34","新北市八里區中山路二段341號","121.399553333333","25.147315","6502300","八里區"
"248014","025-BX","2018/07/24 19:29:39","新北市五股區民義路一段157-10號","121.432216666667","25.087295","6501500","五股區"
"248008","095-VK","2018/07/24 19:29:21","新北市五股區中興路一段147號","121.465188333333","25.0735083333333","6501500","五股區"
"248020","225-UY","2018/07/24 19:29:40","新北市五股區凌雲路三段39號","121.431698333333","25.117055","6501500","五股區"
"248012","247-BX","2018/07/24 19:29:32","新北市五股區成泰路二段97號","121.437955","25.084275","6501500","五股區"
"248004","677-BX","2018/07/24 19:29:38","新北市五股區五福路2號","121.43391","25.087295","6501500","五股區"
"248002","678-BX","2018/07/24 19:29:22","新北市五股區凌雲路一段158巷14號","121.44782","25.1033566666667","6501500","五股區"
"248010","682-TV","2018/07/24 19:29:32","新北市五股區自強路90巷72號","121.430751666667","25.07127","6501500","五股區"
"234023","9380-KE","2018/07/24 19:29:27","新北市永和區竹林路91巷33號","121.520866666667","25.0127266666667","6500400","永和區"
"234077","969-R7","2018/07/24 19:29:40","新北市永和區民權路60號","121.519973333333","24.997985","6500400","永和區"
"234074","AAC-211","2018/07/24 19:29:41","新北市永和區永和路二段254號","121.516065","25.0149033333333","6500400","永和區"
"234003","AAC-295","2018/07/24 19:29:35","新北市永和區自強街8巷5弄2號","121.5146","25.007455","6500400","永和區"
"244019","403-UM","2018/07/24 19:29:26","新北市林口區嘉寶里15鄰43號","121.341095","25.1070383333333","6501700","林口區"
"244009","410-SL","2018/07/24 19:29:21","新北市八里區中山路三段335號","121.377383333333","25.1388016666667","6501700","林口區"
"244023","483-VK","2018/07/24 19:29:31","新北市林口區文化三路二段48-1號","121.374305","25.0801383333333","6501700","林口區"
"243013","AAD-798","2018/07/24 19:29:26","新北市泰山區貴子路36巷5弄1號","121.425946666667","25.0411016666667","6501600","泰山區"
"243009","297-R6","2018/07/24 19:29:33","新北市泰山區半山雅5號","121.431295","25.067465","6501600","泰山區"
"243016","380-SR","2018/07/24 19:29:38","新北市泰山區明志路三段166號","121.424136666667","25.03935","6501600","泰山區"
"243015","421-VK","2018/07/24 19:29:34","新北市泰山區民權街4號","121.428023333333","25.0509333333333","6501600","泰山區"
"243011","KEA-2215","2018/07/24 19:29:25","新北市泰山區貴子路120號","121.428251666667","25.040645","6501600","泰山區"
"243010","KEA-2216","2018/07/24 19:29:38","新北市泰山區民生路17巷37號","121.429546666667","25.0515733333333","6501600","泰山區"
"243012","646-TV","2018/07/24 19:29:21","新北市泰山區仁武街98號","121.432618333333","25.0542683333333","6501600","泰山區"
"243014","680-BX","2018/07/24 19:29:18","新北市泰山區中港西路368號","121.435418333333","25.055225","6501600","泰山區"
"222003","436-BY","2018/07/24 19:29:36","新北市深坑區深南路51-1號","121.621301666667","25.0097216666667","6501800","深坑區"
"222002","659-BX","2018/07/24 19:29:23","新北市深坑區北深路一段177號","121.632541666667","25.01085","6501800","深坑區"
"231041","002-UM","2018/07/24 19:29:23","新北市新店區中正路610號","121.533905","24.98851","6500600","新店區"
"231059","046-UY","2018/07/24 19:29:41","新北市新店區安和路三段4巷1-3號","121.51828","24.9805616666667","6500600","新店區"
"231040","047-UY","2018/07/24 19:29:25","新北市新店區中華路1號","121.541278333333","24.967215","6500600","新店區"
"231044","106-UY","2018/07/24 19:29:32","新北市新店區中興路三段143號","121.54446","24.9798633333333","6500600","新店區"
"231046","107-UY","2018/07/24 19:29:35","新北市新店區光明街135號","121.539356666667","24.96203","6500600","新店區"
"231053","108-UY","2018/07/24 19:29:22","新北市新店區廣興路30-1號","121.540178333333","24.9118666666667","6500600","新店區"
"231048","187-VK","2018/07/24 19:29:30","新北市新店區中興路一段254巷2號","121.544906666667","24.9664833333333","6500600","新店區"
"231054","KEA-2219","2018/07/24 19:29:38","新北市新店區文中路40號","121.539598333333","24.9565383333333","6500600","新店區"
"231057","256-BX","2018/07/24 19:29:34","新北市新店區花園一路二段17號","121.550808333333","24.9332983333333","6500600","新店區"
"231042","268-BY","2018/07/24 19:29:26","新北市新店區北宜路一段3號","121.538476666667","24.9583816666667","6500600","新店區"
"231051","278-BY","2018/07/24 19:29:27","新北市新店區中央五街60號","121.527621666667","24.975465","6500600","新店區"
"231050","AAD-862","2018/07/24 19:29:21","新北市新店區竹林路157-1號","121.556385","24.9479533333333","6500600","新店區"
"231058","3713-VJ","2018/07/24 19:29:28","新北市新店區寶橋路69-1號","121.545396666667","24.9749516666667","6500600","新店區"
"231066","4716-K9","2018/07/24 19:29:23","新北市新店區安康路三段355巷41號","121.484953333333","24.9494783333333","6500600","新店區"
"231065","512-UM","2018/07/24 19:29:36","新北市新店區安祥路109巷1弄97號","121.478878333333","24.9602316666667","6500600","新店區"
"231049","513-UM","2018/07/24 19:29:34","新北市新店區北新路3段65巷34弄29-1號","121.540025","24.98204","6500600","新店區"
"231063","616-UM","2018/07/24 19:29:30","新北市新店區達觀路16號","121.503163333333","24.940665","6500600","新店區"
"231045","617-UM","2018/07/24 19:29:31","新北市新店區北宜路二段209號","121.553141666667","24.953335","6500600","新店區"
"231061","619-UM","2018/07/24 19:29:38","新北市新店區安康路一段266巷4號","121.520115","24.963985","6500600","新店區"
"231064","719-UM","2018/07/24 19:29:30","新北市新店區安康路二段85巷5弄2號","121.513623333333","24.96241","6500600","新店區"
"231062","720-UM","2018/07/24 19:29:22","新北市新店區安康路一段65號","121.530446666667","24.9609883333333","6500600","新店區"
"231060","897-TW","2018/07/24 19:29:39","新北市新店區安康路二段57-1號","121.514113333333","24.9632716666667","6500600","新店區"
"231043","899-TW","2018/07/24 19:29:35","新北市新店區北新路二段216號","121.542961666667","24.9770233333333","6500600","新店區"
"231055","AKT-0513","2018/07/24 19:29:26","新北市新店區中華路83巷61號","121.538366666667","24.9674616666667","6500600","新店區"
"241028","022-UY","2018/07/24 19:29:30","新北市三重區中寮街71號","121.493478333333","25.0578","6500200","三重區"
"241008","059-VK","2018/07/24 19:29:27","新北市三重區永福街135巷32弄6號","121.477061666667","25.0768383333333","6500200","三重區"
"241022","060-VK","2018/07/24 19:29:23","新北市三重區三民街141-1號","121.484663333333","25.0639883333333","6500200","三重區"
"241031","061-VK","2018/07/24 19:29:24","新北市三重區集美街100號","121.488593333333","25.05415","6500200","三重區"
"241017","063-VK","2018/07/24 19:29:31","新北市三重區國隆路14號","121.49305","25.063885","6500200","三重區"
"241009","265-UM","2018/07/24 19:29:32","新北市三重區溪尾街242巷13號","121.487163333333","25.081775","6500200","三重區"
"241032","269-UM","2018/07/24 19:29:25","新北市三重區三陽路25號","121.485535","25.0588516666667","6500200","三重區"
"241013","270-UM","2018/07/24 19:29:38","新北市三重區仁愛街106號","121.49534","25.0743833333333","6500200","三重區"
"241025","271-UM","2018/07/24 19:29:23","新北市三重區頂崁街210巷28弄9號","121.475796666667","25.06716","6500200","三重區"
"241007","398-BY","2018/07/24 19:29:31","新北市三重區慈愛街147號","121.48942","25.0795816666667","6500200","三重區"
"241026","413-TH","2018/07/24 19:29:23","新北市三重區文化南路47巷37號","121.499248333333","25.0611616666667","6500200","三重區"
"241035","462-BY","2018/07/24 19:29:18","新北市三重區信義西街1巷3號","121.498041666667","25.0650133333333","6500200","三重區"
"241030","480-VK","2018/07/24 19:29:38","新北市三重區成功路41巷4號","121.490163333333","25.0514016666667","6500200","三重區"
"241006","AAD-863","2018/07/24 19:29:38","新北市三重區國道路一段23號","121.485393333333","25.0732066666667","6500200","三重區"
"241018","887-TS","2018/07/24 19:29:25","新北市三重區大智街65號","121.49265","25.0680716666667","6500200","三重區"
"241029","942-UM","2018/07/24 19:29:26","新北市三重區中正南路216號","121.493863333333","25.0551066666667","6500200","三重區"
"235066","003-UY","2018/07/24 19:29:24","新北市中和區景新街48號","121.503908333333","24.99914","6500300","中和區"
"235064","005-UY","2018/07/24 19:29:25","新北市中和區連城路4號","121.499171666667","25.002455","6500300","中和區"
"235063","006-UY","2018/07/24 19:29:30","新北市中和區板南路335號","121.494111666667","24.997725","6500300","中和區"
"235056","096-UM","2018/07/24 19:29:36","新北市中和區民富街60-2號","121.476613333333","25.0073366666667","6500300","中和區"
"235039","097-UM","2018/07/24 19:29:33","新北市中和區秀峰街103巷4弄1號","121.520358333333","24.9898866666667","6500300","中和區"
"235065","098-UM","2018/07/24 19:29:32","新北市中和區中山路二段2巷45弄5號","121.502435","25.0066033333333","6500300","中和區"
"235040","150-BY","2018/07/24 19:29:35","新北市中和區保健路44巷30號","121.508748333333","24.9964466666667","6500300","中和區"
"235058","151-BY","2018/07/24 19:29:26","新北市中和區員山路127-2號","121.481041666667","24.99569","6500300","中和區"
"235055","183-VK","2018/07/24 19:29:31","新北市中和區莒光路120巷17弄2號","121.471705","25.0009216666667","6500300","中和區"
"235049","186-VK","2018/07/24 19:29:29","新北市中和區景新街246號","121.509288333333","24.9936616666667","6500300","中和區"
"235067","255-BX","2018/07/24 19:29:28","新北市中和區連城路340巷3號","121.482828333333","24.9960066666667","6500300","中和區"
"235044","293-VK","2018/07/24 19:29:29","新北市中和區捷運路100-1號","121.506315","24.9911916666667","6500300","中和區"
"235072","301-VK","2018/07/24 19:29:32","新北市中和區連城路265巷12弄2號","121.491718333333","24.9951966666667","6500300","中和區"
"235043","352-BY","2018/07/24 19:29:18","新北市中和區南山路92號","121.50281","24.9948583333333","6500300","中和區"
"235050","4979-A6","2018/07/24 19:29:38","新北市中和區中正路450號","121.490845","24.99427","6500300","中和區"
"235042","551-UM","2018/07/24 19:29:37","新北市中和區中和路350巷15弄1號","121.510513333333","25.00093","6500300","中和區"
"235070","558-UM","2018/07/24 19:29:32","新北市中和區中和路86號","121.501133333333","25.00054","6500300","中和區"
"235045","565-BX","2018/07/24 19:29:35","新北市中和區景新街399巷11號","121.51294","24.9899266666667","6500300","中和區"
"235054","640-BX","2018/07/24 19:29:40","新北市中和區國光街112巷18弄20號","121.47056","25.0018366666667","6500300","中和區"
"235060","647-TV","2018/07/24 19:29:37","新北市中和區員山路266巷13號","121.481831666667","25.0018466666667","6500300","中和區"
"235047","732-UM","2018/07/24 19:29:37","新北市中和區景平路259巷20號","121.507615","24.9927366666667","6500300","中和區"
"235046","733-UM","2018/07/24 19:29:29","新北市中和區忠孝街37巷44號","121.510675","24.984705","6500300","中和區"
"235071","783-BX","2018/07/24 19:29:28","新北市中和區連城路469巷21弄13號","121.48413","24.99513","6500300","中和區"
"235057","801-TS","2018/07/24 19:29:32","新北市中和區中山路三段37巷41號","121.47981","25.0047616666667","6500300","中和區"
"235041","802-TS","2018/07/24 19:29:26","新北市中和區中和路350巷15弄2號","121.510571666667","25.0008166666667","6500300","中和區"
"235052","805-TS","2018/07/24 19:29:30","新北市中和區華新街143巷69弄19號","121.507518333333","24.9788816666667","6500300","中和區"
"235048","896-TW","2018/07/24 19:29:39","新北市中和區四維街8號","121.513291666667","24.9873266666667","6500300","中和區"
"235053","900-TW","2018/07/24 19:29:20","新北市中和區華順街36號","121.466665","24.9986183333333","6500300","中和區"
"235051","157-BY","2018/07/24 19:29:38","新北市中和區景新街132巷1號","121.505058333333","24.997865","6500300","中和區"
"235037","AAC-213","2018/07/24 19:29:39","新北市中和區秀朗路三段10巷14弄18號","121.524853333333","24.99663","6500300","中和區"
"235059","AAC-215","2018/07/24 19:29:23","新北市中和區圓通路252巷25號","121.492886666667","24.9917333333333","6500300","中和區"
"220065","072-UY","2018/07/24 19:29:32","新北市板橋區國泰街75巷28弄52號","121.467731666667","25.004865","6500100","板橋區"
"220086","073-UY","2018/07/24 19:29:37","新北市板橋區中正路216巷123號","121.459778333333","25.0194183333333","6500100","板橋區"
"220069","AAD-861","2018/07/24 19:29:27","新北市板橋區稚暉街35號","121.457041666667","25.0041266666667","6500100","板橋區"
"220106","120-SR","2018/07/24 19:29:29","新北市板橋區文化路二段439-1號","121.474841666667","25.03339","6500100","板橋區"
"226004","205-ST","2018/07/24 19:29:29","新北市平溪區靜安路三段369號","121.780386666667","25.0459833333333","6502400","平溪區"
"235038","251-BX","2018/07/24 19:29:40","新北市中和區自立路107號","121.521976666667","24.9946933333333","6500300","中和區"
"228004","212-TW","2018/07/24 19:29:27","新北市貢寮區真理里延平街68號","121.925368333333","25.0574366666667","6502600","貢寮區"
"228002","663-BX","2018/07/24 19:29:32","新北市貢寮區龍門里龍門街70號","121.930988333333","25.02651","6502600","貢寮區"
"228003","828-UM","2018/07/24 19:29:31","新北市貢寮區和美里和美街19-2號","121.912803333333","25.0825916666667","6502600","貢寮區"
"224010","AGQ-8101","2018/07/24 19:29:30","新北市瑞芳區基山街171號","121.843268333333","25.1079883333333","6501200","瑞芳區"
"224002","639-TC","2018/07/24 19:29:24","新北市瑞芳區三爪子坑路49號","121.81303","25.107395","6501200","瑞芳區"
"227009","642-TC","2018/07/24 19:29:24","新北市雙溪區新基里新基北街43號","121.868183333333","25.0397633333333","6502500","雙溪區"
"227003","400-TW","2018/07/24 19:29:37","新北市雙溪區雙溪里光復街3號","121.865101666667","25.0354983333333","6502500","雙溪區"
"253005","032-BX","2018/07/24 19:29:26","新北市石門區小坑9號","121.594401666667","25.2883583333333","6502200","石門區"
"253006","295-VK","2018/07/24 19:29:31","新北市石門區中央路34號","121.567988333333","25.2925533333333","6502200","石門區"
"222001","KEA-2212","2018/07/24 19:29:24","新北市深坑區深坑街10號","121.615865","25.00269","6501800","深坑區"
"208002","KEA-2872","2018/07/24 19:29:34","新北市金山區仁愛路61號","121.635166666667","25.220955","6502700","金山區"
"208003","665-BX","2018/07/24 19:29:25","新北市金山區中山路263巷14號","121.636346666667","25.2215966666667","6502700","金山區"
"208001","761-BX","2018/07/24 19:29:27","新北市金山區中正路14號","121.636133333333","25.2223983333333","6502700","金山區"
"251005","010-UM","2018/07/24 19:29:34","新北市淡水區水源街一段71巷16號","121.444163333333","25.1728783333333","6501000","淡水區"
"251001","011-UM","2018/07/24 19:29:29","新北市淡水區民權路141號","121.46009","25.1364316666667","6501000","淡水區"
"251013","KEA-2871","2018/07/24 19:28:44","新北市淡水區安子內13號","121.479148333333","25.2188216666667","6501000","淡水區"
"251016","179-VK","2018/07/24 19:29:21","新北市淡水區下圭柔山119-51號","121.450713333333","25.2084516666667","6501000","淡水區"
"251014","180-VK","2018/07/24 19:29:35","新北市淡水區小中寮15-2號","121.484761666667","25.2298016666667","6501000","淡水區"
"251015","181-VK","2018/07/24 19:29:18","新北市淡水區山子頂22-2號","121.492521666667","25.1886483333333","6501000","淡水區"
"251010","413-VK","2018/07/24 19:29:23","新北市淡水區中正路二段138-1號","121.42157","25.1873416666667","6501000","淡水區"
"251012","441-VK","2018/07/24 19:29:36","新北市淡水區崁頂130號","121.431791666667","25.205175","6501000","淡水區"
"251007","442-VK","2018/07/24 19:29:25","新北市淡水區紅樹林路77號","121.459581666667","25.1607166666667","6501000","淡水區"
"251008","443-VK","2018/07/24 19:29:32","新北市淡水區中正路一段49號","121.424371666667","25.177525","6501000","淡水區"
"251006","561-UM","2018/07/24 19:29:36","新北市淡水區大義街44號","121.441996666667","25.1784466666667","6501000","淡水區"
"251009","575-R6","2018/07/24 19:29:27","新北市淡水區大忠街5巷8號","121.44342","25.17646","6501000","淡水區"
"251011","650-BX","2018/07/24 19:29:25","新北市淡水區中正東路二段143巷2弄1號","121.460658333333","25.1473833333333","6501000","淡水區"
"207003","550-UM","2018/07/24 19:29:35","新北市萬里區大鵬里萬里加投249號","121.64432","25.2155766666667","6502800","萬里區"
"207004","225-TW","2018/07/24 19:29:38","新北市萬里區萬里里瑪鋉路121號","121.688956666667","25.1778","6502800","萬里區"
"252002","178-VK","2018/07/24 19:29:32","新北市三芝區淡金路二段18-1號","121.502673333333","25.2595216666667","6502100","三芝區"
"252001","292-VK","2018/07/24 19:29:21","新北市三芝區長勤街63-1號","121.50015","25.2560483333333","6502100","三芝區"
"237007","153-BY","2018/07/24 19:29:32","新北市三峽區二鬮路136巷39號","121.358393333333","24.9085716666667","6500900","三峽區"
"237009","210-TH","2018/07/24 19:29:35","新北市三峽區民權街134號","121.368758333333","24.931875","6500900","三峽區"
"237013","252-BX","2018/07/24 19:29:30","新北市三峽區介壽路一段340號","121.38131","24.9301966666667","6500900","三峽區"
"237012","275-BY","2018/07/24 19:29:39","新北市三峽區民生街1巷1-7號","121.377001666667","24.9371733333333","6500900","三峽區"
"237008","302-VK","2018/07/24 19:29:29","新北市三峽區中正路一段231號","121.372075","24.9269316666667","6500900","三峽區"
"237014","433-BY","2018/07/24 19:29:21","新北市三峽區中山路61號","121.367421666667","24.9348016666667","6500900","三峽區"
"237006","5529-G3","2018/07/24 19:29:35","新北市三峽區中正路一段336巷15弄2號","121.369963333333","24.924915","6500900","三峽區"
"237016","649-BX","2018/07/24 19:29:34","新北市三峽區建安34-1號","121.447136666667","24.92809","6500900","三峽區"
"237005","AKY-6261","2018/07/24 19:29:33","新北市三峽區復興路367巷1弄13號","121.363998333333","24.9381166666667","6500900","三峽區"
"236070","105-UM","2018/07/24 19:29:29","新北市土城區裕生路84巷1號","121.447236666667","24.98539","6501300","土城區"
"236042","107-UM","2018/07/24 19:29:36","新北市土城區學府路一段239號","121.450395","24.9833383333333","6501300","土城區"
"236079","166-UM","2018/07/24 19:29:36","新北市土城區中州路12巷5號","121.414905","24.95738","6501300","土城區"
"236030","253-BX","2018/07/24 19:29:28","新北市土城區中央路一段324號","121.443225","24.9816833333333","6501300","土城區"
"236026","269-VK","2018/07/24 19:29:33","新北市土城區中央路二段61巷28號","121.44341","24.9787466666667","6501300","土城區"
"236021","401-BY","2018/07/24 19:29:19","新北市土城區峰廷街18號","121.469021666667","24.9872916666667","6501300","土城區"
"236059","912-UM","2018/07/24 19:29:21","新北市土城區中央路二段117號","121.44217","24.9775966666667","6501300","土城區"
"236049","913-UM","2018/07/24 19:29:36","新北市土城區清水路196號","121.460308333333","24.9817966666667","6501300","土城區"
"242051","441-UM","2018/07/24 19:29:26","新北市新莊區瓊林南路77-41號","121.437663333333","25.0124516666667","6500500","新莊區"
"242023","362-BY","2018/07/24 19:29:24","新北市新莊區新泰路401巷28-1號","121.442438333333","25.0441783333333","6500500","新莊區"
"242032","135-UY","2018/07/24 19:29:30","新北市新莊區新泰路225巷18號","121.445396666667","25.039115","6500500","新莊區"
"242048","172-VK","2018/07/24 19:29:32","新北市新莊區後港一路19號","121.424166666667","25.0261416666667","6500500","新莊區"
"242005","176-VK","2018/07/24 19:29:22","新北市新莊區化成路11巷87號","121.462218333333","25.04351","6500500","新莊區"
"242002","349-TH","2018/07/24 19:29:37","新北市新莊區瓊林南路77-41號","121.43766","25.01239","6500500","新莊區"
"238015","755-BX","2018/07/24 19:29:31","新北市樹林區中興街48號","121.421148333333","24.9912516666667","6500700","樹林區"
"238023","601-UM","2018/07/24 19:29:37","新北市樹林區三福街25號","121.40863","25.016665","6500700","樹林區"
"238019","599-UM","2018/07/24 19:29:35","新北市樹林區東榮街31號","121.417676666667","24.98323","6500700","樹林區"
"238018","571-TV","2018/07/24 19:29:33","新北市樹林區中華路105號","121.422378333333","24.9827216666667","6500700","樹林區"
"238024","5061-A6","2018/07/24 19:29:25","新北市樹林區中山路三段155巷1號","121.39567","24.9726466666667","6500700","樹林區"
"238022","KEA-2213","2018/07/24 19:29:31","新北市樹林區名園街20號","121.419211666667","24.979185","6500700","樹林區"
"238021","KEA-2539","2018/07/24 19:29:28","新北市樹林區大雅路2-1號","121.380655","24.9443983333333","6500700","樹林區"
"238025","303-VK","2018/07/24 19:29:38","新北市樹林區保安二街29號","121.42468","24.9936633333333","6500700","樹林區"
"238017","283-BY","2018/07/24 19:29:25","新北市樹林區保安街二段167巷32號","121.413936666667","25.0028133333333","6500700","樹林區"
"238014","282-BY","2018/07/24 19:29:20","新北市樹林區千歲街6巷5號","121.425323333333","24.995335","6500700","樹林區"
"238020","268-VK","2018/07/24 19:29:36","新北市樹林區俊英街120號","121.427301666667","25.0056283333333","6500700","樹林區"
"238026","172-UY","2018/07/24 19:29:24","新北市樹林區佳園路二段15巷9弄1號","121.393533333333","24.963465","6500700","樹林區"
"239007","AAC-297","2018/07/24 19:29:19","新北市鶯歌區大湖路326巷17號","121.346305","24.97058","6500800","鶯歌區"
"239006","891-R6","2018/07/24 19:29:37","新北市鶯歌區重慶街13號","121.351885","24.9526833333333","6500800","鶯歌區"
"239001","417-VK","2018/07/24 19:29:35","新北市鶯歌區尖山埔路245號","121.344373333333","24.9500666666667","6500800","鶯歌區"
"239003","360-BY","2018/07/24 19:29:39","新北市樹林區中山路三段210-2號","121.381195","24.9651566666667","6500800","鶯歌區"
"239002","359-BY","2018/07/24 19:29:25","新北市鶯歌區大湖路133號","121.342833333333","24.9646983333333","6500800","鶯歌區"
"239004","193-VK","2018/07/24 19:29:19","新北市鶯歌區二甲路2-1號","121.34053","24.936975","6500800","鶯歌區"
"221008","489-VK","2018/07/24 19:29:30","新北市汐止區康寧街145號","121.62183","25.0666983333333","6501100","汐止區"
"221036","130-UY","2018/07/24 19:29:37","新北市汐止區康寧街901號","121.650885","25.0752466666667","6501100","汐止區"
"221015","131-UY","2018/07/24 19:29:24","新北市汐止區康寧街901號","121.651416666667","25.0749583333333","6501100","汐止區"
"221010","269-BY","2018/07/24 19:29:23","新北市汐止區連峰街3巷2號","121.646655","25.0766983333333","6501100","汐止區"
"221012","278-VK","2018/07/24 19:29:25","新北市汐止區大同路三段184號","121.674281666667","25.0746533333333","6501100","汐止區"
"221023","279-VK","2018/07/24 19:29:21","新北市汐止區康寧街753巷1-1號","121.639083333333","25.0737166666667","6501100","汐止區"
"221032","280-BY","2018/07/24 19:29:32","新北市汐止區汐萬路一段256巷3號","121.653451666667","25.074515","6501100","汐止區"
"221027","281-BY","2018/07/24 19:29:21","新北市汐止區忠孝東路9號","121.6583","25.0659283333333","6501100","汐止區"
"221029","298-VK","2018/07/24 19:29:35","新北市汐止區康寧街901號","121.651516666667","25.07485","6501100","汐止區"
"221021","299-VK","2018/07/24 19:29:33","新北市汐止區康寧街901號","121.651408333333","25.07504","6501100","汐止區"
"221031","353-TW","2018/07/24 19:29:38","新北市汐止區康寧街901號","121.650811666667","25.07527","6501100","汐止區"
"221025","623-UM","2018/07/24 19:29:33","新北市汐止區新台五路二段2號","121.660058333333","25.0649333333333","6501100","汐止區"
"221038","646-BX","2018/07/24 19:29:20","新北市汐止區大同路二段324號","121.656265","25.067005","6501100","汐止區"
"221002","707-TV","2018/07/24 19:29:29","新北市汐止區大同路一段331號","121.638313333333","25.0592966666667","6501100","汐止區"
"220080","200-UY","2018/07/24 19:29:37","新北市板橋區大觀路二段37巷138號","121.449311666667","25.0017383333333","6500100","板橋區"
"220101","245-BX","2018/07/24 19:29:22","新北市板橋區縣民大道三段127巷23號","121.476825","25.0238","6500100","板橋區"
"220079","256-TC","2018/07/24 19:29:22","新北市板橋區建國街3-1號","121.457155","25.016985","6500100","板橋區"
"220091","267-BY","2018/07/24 19:29:34","新北市板橋區文聖街149巷26號","121.47969","25.0286466666667","6500100","板橋區"
"220056","276-BY","2018/07/24 19:29:41","新北市板橋區信義路1巷26弄44號","121.459108333333","24.9966216666667","6500100","板橋區"
"220072","277-BY","2018/07/24 19:29:37","新北市板橋區金門街253巷10弄5號","121.432971666667","24.9883383333333","6500100","板橋區"
"220071","283-VK","2018/07/24 19:29:28","新北市板橋區四川路一段283巷17號","121.459601666667","25.000875","6500100","板橋區"
"220094","285-UM","2018/07/24 19:29:19","新北市板橋區吳鳳路50巷7號","121.46789","25.03052","6500100","板橋區"
"220053","285-VK","2018/07/24 19:29:35","新北市板橋區富山街53巷1弄54號","121.477963333333","25.0205416666667","6500100","板橋區"
"220083","286-VK","2018/07/24 19:29:34","新北市板橋區龍興街73巷53號","121.441803333333","25.0029916666667","6500100","板橋區"
"220081","287-VK","2018/07/24 19:29:21","新北市板橋區大觀路一段75巷21號","121.448221666667","25.0043283333333","6500100","板橋區"
"220090","288-VK","2018/07/24 19:29:29","新北市板橋區裕民街91號","121.460346666667","25.0279583333333","6500100","板橋區"
"220061","293-UM","2018/07/24 19:29:32","新北市板橋區成功路6巷15號","121.476046666667","25.0171366666667","6500100","板橋區"
"220062","295-UM","2018/07/24 19:29:37","新北市板橋區三民路二段123巷2號","121.479491666667","25.015565","6500100","板橋區"
"220084","296-UM","2018/07/24 19:29:41","新北市板橋區滿平街84巷120弄28號","121.426115","24.9855066666667","6500100","板橋區"
"242021","281-VK","2018/07/24 19:29:24","新北市泰山區磚雅厝3號","121.442018333333","25.0416966666667","6500500","新莊區"
"220075","303-R5","2018/07/24 19:29:19","新北市板橋區南雅西路二段301巷50弄10-1號","121.452296666667","25.017115","6500100","板橋區"
"220092","307-R5","2018/07/24 19:29:36","新北市板橋區文化路二段125巷8號","121.469305","25.02655","6500100","板橋區"
"220098","317-R6","2018/07/24 19:29:26","新北市板橋區民生路三段263巷2弄2號","121.463961666667","25.0293766666667","6500100","板橋區"
"220064","486-VK","2018/07/24 19:29:28","新北市板橋區中山路一段21-1號","121.460031666667","25.008545","6500100","板橋區"
"220088","491-VK","2018/07/24 19:29:39","新北市板橋區文化路二段367號","121.473126666667","25.0309483333333","6500100","板橋區"
"220035","560-BX","2018/07/24 19:29:29","新北市板橋區中正路399巷13弄1號","121.453331666667","25.0225266666667","6500100","板橋區"
"220103","561-BX","2018/07/24 19:29:31","新北市板橋區文化路一段220號","121.466848333333","25.02047","6500100","板橋區"
"220063","609-BX","2018/07/24 19:29:18","新北市板橋區三民路一段31巷87弄13號","121.481455","25.0233866666667","6500100","板橋區"
"220057","686-BX","2018/07/24 19:29:36","新北市板橋區和平路190巷2號","121.463778333333","24.9956616666667","6500100","板橋區"
"220077","687-BX","2018/07/24 19:29:33","新北市板橋區僑中二街114巷1號","121.445705","25.00663","6500100","板橋區"
"220093","689-BX","2018/07/24 19:29:38","新北市板橋區英士路60號","121.460866666667","25.0247866666667","6500100","板橋區"
"220054","741-BX","2018/07/24 19:29:36","新北市板橋區光明街4號","121.459976666667","25.0024766666667","6500100","板橋區"
"220102","KEA-2699","2018/07/24 19:29:29","新北市板橋區松柏街22巷45號","121.475078333333","25.0287333333333","6500100","板橋區"
"220082","806-UM","2018/07/24 19:29:19","新北市板橋區金門街55號","121.43335","24.9930033333333","6500100","板橋區"
"220055","827-TW","2018/07/24 19:29:33","新北市板橋區重慶路290巷22弄19號","121.462235","24.9992333333333","6500100","板橋區"
"220067","829-TW","2018/07/24 19:29:30","新北市板橋區漢生東路313巷1號","121.471988333333","25.00832","6500100","板橋區"
"220068","830-TW","2018/07/24 19:29:36","新北市板橋區翠華街6巷84號","121.481718333333","25.024565","6500100","板橋區"
"220096","831-TW","2018/07/24 19:29:29","新北市板橋區大同街14號","121.477265","25.0268416666667","6500100","板橋區"
"220089","833-TW","2018/07/24 19:29:21","新北市板橋區文化路一段27-1號","121.459895","25.01285","6500100","板橋區"
"220074","895-R6","2018/07/24 19:29:36","新北市板橋區後菜園街4號","121.457695","25.010485","6500100","板橋區"
"220073","985-R7","2018/07/24 19:29:24","新北市板橋區中正路228號","121.455798333333","25.0186366666667","6500100","板橋區"
"220097","AAC-210","2018/07/24 19:29:31","新北市板橋區漢生西路151巷1號","121.463116666667","25.0222633333333","6500100","板橋區"
"220070","AAC-253","2018/07/24 19:29:28","新北市板橋區四川路一段40號","121.459555","25.0059766666667","6500100","板橋區"
"235068","KEA-2873","2018/07/24 19:29:41","新北市中和區景平路493巷12弄4號","121.498906666667","24.9972766666667","6500300","中和區"
"235061","KEA-2875","2018/07/24 19:29:20","新北市中和區民利街71號","121.478663333333","24.9981933333333","6500300","中和區"
