"lineid","car","time","location","longitude","latitude","cityid","cityname"
"234046","148-BY","2018/07/24 19:39:37","新北市永和區永元路95巷2號","121.522406666667","25.0020516666667","6500400","永和區"
"234007","207-UY","2018/07/24 19:39:23","新北市永和區中和路513號","121.510936666667","25.0024433333333","6500400","永和區"
"234081","298-R6","2018/07/24 19:39:37","新北市永和區國中路104巷10號","121.52474","25.0070516666667","6500400","永和區"
"234038","336-UY","2018/07/24 19:39:25","新北市永和區民樂街31巷4號","121.527756666667","25.0014516666667","6500400","永和區"
"234064","337-UY","2018/07/24 19:39:29","新北市永和區秀朗路二段24巷28弄14號","121.519461666667","25.0019433333333","6500400","永和區"
"234086","338-UY","2018/07/24 19:39:24","新北市永和區林森路29巷18號","121.526298333333","25.00452","6500400","永和區"
"234070","552-UM","2018/07/24 19:39:30","新北市永和區永和路二段237-1號","121.51565","25.0143866666667","6500400","永和區"
"234017","745-BX","2018/07/24 19:39:21","新北市永和區永和路二段425巷64號","121.513576666667","25.0172216666667","6500400","永和區"
"234030","746-BX","2018/07/24 19:39:33","新北市永和區四維街119號","121.52316","24.9980983333333","6500400","永和區"
"234054","KEA-2590","2018/07/24 19:39:32","新北市永和區竹林路39巷14號","121.518485","25.0145466666667","6500400","永和區"
"234013","KEA-2591","2018/07/24 19:39:20","新北市永和區永平路234號","121.50872","25.010945","6500400","永和區"
"234061","AAD-866","2018/07/24 19:39:37","新北市永和區中正路456號","121.51741","25.0029633333333","6500400","永和區"
"234067","847-RS","2018/07/24 19:39:36","新北市永和區中山路一段190號","121.50889","25.0088616666667","6500400","永和區"
"234042","862-TW","2018/07/24 19:39:27","新北市永和區永貞路261號","121.512015","25.0046566666667","6500400","永和區"
"234048","863-TW","2018/07/24 19:39:27","新北市永和區保福路二段158巷1號","121.509125","25.0150766666667","6500400","永和區"
"234026","9371-KE","2018/07/24 19:39:25","新北市永和區中和路501巷2號","121.510543333333","25.0025266666667","6500400","永和區"
"234011","9373-KE","2018/07/24 19:39:23","新北市永和區保生路55號","121.50452","25.0108416666667","6500400","永和區"
"249005","172-UM","2018/07/24 19:39:29","新北市八里區中華路三段170-2號","121.392058333333","25.13049","6502300","八里區"
"249003","593-UM","2018/07/24 19:38:59","新北市八里區中華路二段508號","121.399701666667","25.14541","6502300","八里區"
"248014","025-BX","2018/07/24 19:39:39","新北市五股區五福路58號","121.433446666667","25.0899066666667","6501500","五股區"
"248008","095-VK","2018/07/24 19:39:21","新北市五股區四維路157號","121.467638333333","25.074595","6501500","五股區"
"248020","225-UY","2018/07/24 19:39:20","新北市五股區中直路13-1號","121.424568333333","25.111945","6501500","五股區"
"248012","247-BX","2018/07/24 19:39:38","新北市五股區成泰路一段241巷5號","121.43613","25.08097","6501500","五股區"
"248004","677-BX","2018/07/24 19:39:38","新北市五股區成泰路二段47號","121.437361666667","25.0822133333333","6501500","五股區"
"248002","678-BX","2018/07/24 19:39:22","新北市五股區成泰路三段577巷49號","121.45072","25.103195","6501500","五股區"
"248010","682-TV","2018/07/24 19:39:32","新北市五股區自強路111號","121.432361666667","25.0705883333333","6501500","五股區"
"234077","969-R7","2018/07/24 19:39:37","新北市永和區民族街67巷25號","121.519381666667","24.9971383333333","6500400","永和區"
"234074","AAC-211","2018/07/24 19:39:41","新北市永和區竹林路225巷3號","121.52114","25.0085783333333","6500400","永和區"
"234003","AAC-295","2018/07/24 19:39:35","新北市永和區自由街53號","121.513701666667","25.005675","6500400","永和區"
"244019","403-UM","2018/07/24 19:39:06","新北市林口區太平里180號","121.366501666667","25.1343416666667","6501700","林口區"
"244009","410-SL","2018/07/24 19:39:21","新北市八里區長道坑1號","121.393283333333","25.127095","6501700","林口區"
"244023","483-VK","2018/07/24 19:39:31","新北市林口區文化北路二段300號","121.374501666667","25.087695","6501700","林口區"
"243013","AAD-798","2018/07/24 19:39:26","新北市泰山區應化街7號","121.423866666667","25.04371","6501600","泰山區"
"243009","297-R6","2018/07/24 19:39:30","新北市泰山區美寧街58號","121.430898333333","25.0647216666667","6501600","泰山區"
"243016","380-SR","2018/07/24 19:39:31","新北市泰山區新北大道七段26號","121.420088333333","25.0323783333333","6501600","泰山區"
"243015","421-VK","2018/07/24 19:39:38","新北市泰山區文程路18巷12號","121.428238333333","25.0488783333333","6501600","泰山區"
"243011","KEA-2215","2018/07/24 19:39:25","新北市泰山區貴子路59號","121.430163333333","25.03965","6501600","泰山區"
"243010","KEA-2216","2018/07/24 19:39:38","新北市泰山區民生路33號","121.430755","25.0521483333333","6501600","泰山區"
"243012","646-TV","2018/07/24 19:39:21","新北市泰山區全興路298號","121.436678333333","25.0516383333333","6501600","泰山區"
"243014","680-BX","2018/07/24 19:39:18","新北市泰山區仁愛路41號","121.432091666667","25.0552066666667","6501600","泰山區"
"222003","436-BY","2018/07/24 19:29:50","新北市深坑區深南路51-1號","121.621301666667","25.0097216666667","6501800","深坑區"
"222002","659-BX","2018/07/24 19:39:23","新北市深坑區北深路一段177號","121.632548333333","25.010895","6501800","深坑區"
"231041","002-UM","2018/07/24 19:39:23","新北市新店區中正路487號","121.533976666667","24.9821","6500600","新店區"
"231059","046-UY","2018/07/24 19:39:27","新北市新店區安和路三段57號","121.518","24.9829783333333","6500600","新店區"
"231040","047-UY","2018/07/24 19:39:25","新北市新店區中正路75巷71號","121.543095","24.9688216666667","6500600","新店區"
"231044","106-UY","2018/07/24 19:39:32","新北市新店區北新路三段218號","121.541121666667","24.9843616666667","6500600","新店區"
"231046","107-UY","2018/07/24 19:39:35","新北市新店區自由街13號","121.535548333333","24.974905","6500600","新店區"
"231053","108-UY","2018/07/24 19:39:21","新北市新店區新烏路二段301-9號","121.549116666667","24.9121483333333","6500600","新店區"
"231048","187-VK","2018/07/24 19:39:30","新北市新店區五峰路63巷8弄27號","121.547671666667","24.96926","6500600","新店區"
"231054","KEA-2219","2018/07/24 19:39:38","新北市新店區文中路45號","121.539565","24.9565766666667","6500600","新店區"
"231057","256-BX","2018/07/24 19:39:26","新北市新店區橘園一路11號","121.547971666667","24.9341316666667","6500600","新店區"
"231042","268-BY","2018/07/24 19:39:25","新北市新店區中興路一段204號","121.543816666667","24.96532","6500600","新店區"
"231051","278-BY","2018/07/24 19:39:27","新北市新店區中央路206號","121.530353333333","24.9739533333333","6500600","新店區"
"231050","AAD-862","2018/07/24 19:39:21","新北市新店區秀水路19號","121.554968333333","24.9547333333333","6500600","新店區"
"231058","3713-VJ","2018/07/24 19:39:28","新北市新店區力行路96號","121.537705","24.96679","6500600","新店區"
"231066","4716-K9","2018/07/24 19:39:39","新北市新店區安康路三段165巷2弄1號","121.489411666667","24.95132","6500600","新店區"
"231056","4715-K9","2018/07/24 19:39:21","新北市新店區安德街60巷35號","121.510963333333","24.9637033333333","6500600","新店區"
"231065","512-UM","2018/07/24 19:39:36","新北市新店區安祥路109巷85弄3號","121.477895","24.9604483333333","6500600","新店區"
"231049","513-UM","2018/07/24 19:39:34","新北市新店區大豐路53號","121.539945","24.979755","6500600","新店區"
"231063","616-UM","2018/07/24 19:39:10","新北市新店區達觀路27-1號","121.503875","24.9388033333333","6500600","新店區"
"231045","617-UM","2018/07/24 19:39:31","新北市新店區北宜路二段208號","121.559315","24.954365","6500600","新店區"
"231061","619-UM","2018/07/24 19:39:38","新北市新店區安民街71號","121.516563333333","24.9670566666667","6500600","新店區"
"231064","719-UM","2018/07/24 19:39:30","新北市新店區安和路一段53號","121.51757","24.96607","6500600","新店區"
"231062","720-UM","2018/07/24 19:39:22","新北市新店區碧潭路52號","121.534346666667","24.95672","6500600","新店區"
"231060","897-TW","2018/07/24 19:39:19","新北市新店區安康路二段161號","121.510163333333","24.95937","6500600","新店區"
"231043","899-TW","2018/07/24 19:39:35","新北市新店區北新路二段10號","121.542983333333","24.9710983333333","6500600","新店區"
"231055","AKT-0513","2018/07/24 19:39:26","新北市新店區北新路一段235號","121.540585","24.9656516666667","6500600","新店區"
"241011","013-R5","2018/07/24 19:39:22","新北市三重區秀江街213號","121.497445","25.0716383333333","6500200","三重區"
"241028","022-UY","2018/07/24 19:39:30","新北市三重區中正南路155號","121.493775","25.056265","6500200","三重區"
"241008","059-VK","2018/07/24 19:39:27","新北市三重區永福街135巷17號","121.478078333333","25.07704","6500200","三重區"
"241022","060-VK","2018/07/24 19:39:31","新北市三重區中正北路166號","121.484358333333","25.0662333333333","6500200","三重區"
"241031","061-VK","2018/07/24 19:39:25","新北市三重區重新路四段248號","121.486146666667","25.053375","6500200","三重區"
"241015","062-VK","2018/07/24 19:39:26","新北市三重區福德北路34號","121.502073333333","25.0651533333333","6500200","三重區"
"241017","063-VK","2018/07/24 19:39:31","新北市三重區重陽路三段5巷30號","121.491326666667","25.0654233333333","6500200","三重區"
"241003","091-VK","2018/07/24 19:39:28","新北市三重區五華街93巷60號","121.493948333333","25.08505","6500200","三重區"
"241019","742-BX","2018/07/24 19:39:20","新北市三重區六張街194巷1弄1號","121.488448333333","25.0683216666667","6500200","三重區"
"241009","265-UM","2018/07/24 19:39:31","新北市三重區三和路四段406巷8-1號","121.480723333333","25.0795666666667","6500200","三重區"
"241032","269-UM","2018/07/24 19:39:25","新北市三重區重陽路一段60巷73號","121.484271666667","25.05825","6500200","三重區"
"241013","270-UM","2018/07/24 19:39:38","新北市三重區仁賢街6號","121.495735","25.0746233333333","6500200","三重區"
"241025","271-UM","2018/07/24 19:39:23","新北市三重區忠孝路三段99巷11號","121.480018333333","25.0645733333333","6500200","三重區"
"241007","398-BY","2018/07/24 19:39:31","新北市三重區三和路四段125巷78號","121.487326666667","25.078635","6500200","三重區"
"241026","413-TH","2018/07/24 19:39:23","新北市三重區文化南路65巷40號","121.498946666667","25.0606916666667","6500200","三重區"
"241035","462-BY","2018/07/24 19:39:38","新北市三重區信義西街1號","121.498155","25.064835","6500200","三重區"
"241030","480-VK","2018/07/24 19:39:38","新北市三重區新興路7號","121.49262","25.0531666666667","6500200","三重區"
"241014","543-UM","2018/07/24 19:39:32","新北市三重區河邊北街82號","121.504253333333","25.0689266666667","6500200","三重區"
"241023","545-UM","2018/07/24 19:39:28","新北市三重區忠孝路三段99巷11號","121.479675","25.0643033333333","6500200","三重區"
"241006","AAD-863","2018/07/24 19:39:38","新北市三重區聯華街77號","121.485905","25.075405","6500200","三重區"
"241018","887-TS","2018/07/24 19:39:25","新北市三重區大智街65號","121.49264","25.0680283333333","6500200","三重區"
"241012","941-UM","2018/07/24 19:39:21","新北市三重區河邊北街256巷33號","121.500545","25.0759683333333","6500200","三重區"
"241029","942-UM","2018/07/24 19:39:26","新北市三重區光明路122號","121.49289","25.05591","6500200","三重區"
"235066","003-UY","2018/07/24 19:39:24","新北市中和區中和路196巷10號","121.505011666667","24.9990566666667","6500300","中和區"
"235064","005-UY","2018/07/24 19:39:25","新北市中和區南山路68號","121.502386666667","24.9961466666667","6500300","中和區"
"235063","006-UY","2018/07/24 19:39:31","新北市中和區連城路171巷46號","121.495851666667","24.9964416666667","6500300","中和區"
"235056","096-UM","2018/07/24 19:39:36","新北市中和區民富街94號","121.47692","25.0085933333333","6500300","中和區"
"235039","097-UM","2018/07/24 19:39:33","新北市中和區大勇街8號","121.517091666667","24.9926866666667","6500300","中和區"
"235065","098-UM","2018/07/24 19:39:33","新北市中和區福祥路38號","121.499406666667","25.00381","6500300","中和區"
"235040","150-BY","2018/07/24 19:39:35","新北市中和區安和路39號","121.509645","24.9949066666667","6500300","中和區"
"235058","151-BY","2018/07/24 19:39:26","新北市中和區員山路142巷3號","121.481583333333","24.9965816666667","6500300","中和區"
"235055","183-VK","2018/07/24 19:39:31","新北市中和區中山路三段181巷2號","121.472826666667","25.005965","6500300","中和區"
"235049","186-VK","2018/07/24 19:39:29","新北市中和區南華路6號","121.502191666667","24.9954816666667","6500300","中和區"
"235067","255-BX","2018/07/24 19:39:28","新北市中和區新生街186巷5弄1號","121.482998333333","24.99966","6500300","中和區"
"235044","293-VK","2018/07/24 19:39:37","新北市中和區南山路308號","121.507921666667","24.9869616666667","6500300","中和區"
"235072","301-VK","2018/07/24 19:39:32","新北市中和區錦和路95號","121.490188333333","24.9957033333333","6500300","中和區"
"235043","352-BY","2018/07/24 19:39:18","新北市中和區安樂路48號","121.512091666667","24.9929316666667","6500300","中和區"
"235050","4979-A6","2018/07/24 19:39:18","新北市中和區錦和路350-1號","121.490448333333","24.9935383333333","6500300","中和區"
"235042","551-UM","2018/07/24 19:39:37","新北市中和區保健路44巷29號","121.508893333333","24.9963783333333","6500300","中和區"
"235070","558-UM","2018/07/24 19:39:32","新北市中和區景平路551號","121.498448333333","24.9996133333333","6500300","中和區"
"235045","565-BX","2018/07/24 19:39:35","新北市中和區景新街448號","121.513335","24.98795","6500300","中和區"
"235054","640-BX","2018/07/24 19:39:20","新北市中和區民德路155號","121.46867","25.00007","6500300","中和區"
"235060","647-TV","2018/07/24 19:39:37","新北市中和區中山路二段523巷1弄1號","121.48172","25.004915","6500300","中和區"
"235047","732-UM","2018/07/24 19:39:37","新北市中和區景安路172巷2號","121.504348333333","24.9928316666667","6500300","中和區"
"235046","733-UM","2018/07/24 19:39:29","新北市中和區四維街16號","121.513103333333","24.9871966666667","6500300","中和區"
"235071","783-BX","2018/07/24 19:39:25","新北市中和區中正路839巷29號","121.483541666667","25.0025066666667","6500300","中和區"
"235057","801-TS","2018/07/24 19:39:32","新北市中和區員山路270號","121.481383333333","25.0018","6500300","中和區"
"235041","802-TS","2018/07/24 19:39:26","新北市中和區永貞路249巷9號","121.512665","25.0036516666667","6500300","中和區"
"235052","805-TS","2018/07/24 19:39:30","新北市中和區華新街206巷6-3號","121.506425","24.9822716666667","6500300","中和區"
"235048","896-TW","2018/07/24 19:39:39","新北市中和區忠孝街2-18號","121.509793333333","24.982725","6500300","中和區"
"235053","900-TW","2018/07/24 19:39:20","新北市中和區國光街184巷23號","121.467475","25.002175","6500300","中和區"
"235051","157-BY","2018/07/24 19:39:18","新北市中和區板南路132號","121.502416666667","24.9925016666667","6500300","中和區"
"235037","AAC-213","2018/07/24 19:39:19","新北市中和區秀朗路三段50巷7號","121.525866666667","24.9953733333333","6500300","中和區"
"235059","AAC-215","2018/07/24 19:39:23","新北市中和區錦和路203巷13號","121.4914","24.99057","6500300","中和區"
"220065","072-UY","2018/07/24 19:39:32","新北市板橋區國泰街38巷2弄4號","121.468371666667","25.0066816666667","6500100","板橋區"
"220086","073-UY","2018/07/24 19:39:37","新北市板橋區林園街4-1號","121.454241666667","25.009465","6500100","板橋區"
"220069","AAD-861","2018/07/24 19:39:27","新北市板橋區稚暉街2巷46號","121.455291666667","25.0028883333333","6500100","板橋區"
"220106","120-SR","2018/07/24 19:39:29","新北市板橋區文化路二段402號","121.473661666667","25.0313566666667","6500100","板橋區"
"247004","337-TH","2018/07/24 19:39:34","新北市蘆洲區長安街98巷21號","121.462986666667","25.08198","6501400","蘆洲區"
"226004","205-ST","2018/07/24 19:39:29","新北市平溪區十分里十分街55號","121.775418333333","25.0413","6502400","平溪區"
"235038","251-BX","2018/07/24 19:39:40","新北市中和區自立路20巷3號","121.522058333333","24.9934133333333","6500300","中和區"
"228004","212-TW","2018/07/24 19:39:27","新北市貢寮區真理里延平街49號","121.924575","25.0556183333333","6502600","貢寮區"
"228003","828-UM","2018/07/24 19:39:31","新北市貢寮區真理里美艷山街15-3號","121.923721666667","25.0680066666667","6502600","貢寮區"
"224010","AGQ-8101","2018/07/24 19:37:09","新北市瑞芳區金光路334號","121.848355","25.1097366666667","6501200","瑞芳區"
"224002","639-TC","2018/07/24 19:39:24","新北市瑞芳區三爪子坑路13巷211號","121.815958333333","25.1059433333333","6501200","瑞芳區"
"227009","642-TC","2018/07/24 19:39:24","新北市雙溪區新基里新基北街22號","121.867231666667","25.0389066666667","6502500","雙溪區"
"227003","400-TW","2018/07/24 19:39:37","新北市雙溪區雙溪里內挖路83號","121.863185","25.0368533333333","6502500","雙溪區"
"222001","KEA-2212","2018/07/24 19:39:24","新北市深坑區北深路二段185號","121.61229","25.00115","6501800","深坑區"
"208002","KEA-2872","2018/07/24 19:39:34","新北市金山區四維路25號","121.635083333333","25.2228266666667","6502700","金山區"
"208003","665-BX","2018/07/24 19:39:25","新北市金山區仁愛路8號","121.63853","25.2201116666667","6502700","金山區"
"208001","761-BX","2018/07/24 19:39:27","新北市金山區六股里下六股65號","121.614158333333","25.2233583333333","6502700","金山區"
"251005","010-UM","2018/07/24 19:39:34","新北市淡水區原德路121號","121.443033333333","25.1732666666667","6501000","淡水區"
"251001","011-UM","2018/07/24 19:39:36","新北市淡水區民權路13-5號","121.459808333333","25.1414083333333","6501000","淡水區"
"251013","KEA-2871","2018/07/24 19:39:38","新北市淡水區店子後9號","121.460018333333","25.2190016666667","6501000","淡水區"
"251016","179-VK","2018/07/24 19:39:21","新北市淡水區下圭柔山119-51號","121.450713333333","25.2084533333333","6501000","淡水區"
"251014","180-VK","2018/07/24 19:39:35","新北市淡水區桂竹圍4-3號","121.47505","25.23229","6501000","淡水區"
"251015","181-VK","2018/07/24 19:39:38","新北市淡水區泉洲厝25-1號","121.484785","25.189255","6501000","淡水區"
"251010","413-VK","2018/07/24 19:39:23","新北市淡水區濱海路二段202巷27號","121.435165","25.1933233333333","6501000","淡水區"
"251012","441-VK","2018/07/24 19:39:36","新北市淡水區中山北路三段156號","121.445633333333","25.196035","6501000","淡水區"
"251007","442-VK","2018/07/24 19:39:25","新北市淡水區中正東路一段111巷12號","121.454776666667","25.1606583333333","6501000","淡水區"
"251008","443-VK","2018/07/24 19:39:32","新北市淡水區中正路一段8巷1弄11號","121.42819","25.17581","6501000","淡水區"
"251006","561-UM","2018/07/24 19:39:36","新北市淡水區新興街67號","121.441488333333","25.17964","6501000","淡水區"
"251009","575-R6","2018/07/24 19:39:27","新北市淡水區中山北路一段196號","121.444778333333","25.1793216666667","6501000","淡水區"
"251011","650-BX","2018/07/24 19:39:25","新北市淡水區八勢一街26號","121.460851666667","25.15594","6501000","淡水區"
"207003","550-UM","2018/07/24 19:39:35","新北市萬里區大鵬里下社1-1號","121.647805","25.215495","6502800","萬里區"
"207004","225-TW","2018/07/24 19:39:38","新北市萬里區萬里里瑪鋉路11號","121.687188333333","25.1753566666667","6502800","萬里區"
"252002","178-VK","2018/07/24 19:39:32","新北市三芝區中正路一段36巷25號","121.504136666667","25.25882","6502100","三芝區"
"252001","292-VK","2018/07/24 19:39:41","新北市三芝區公正街9號","121.499776666667","25.2574816666667","6502100","三芝區"
"237004","KEA-2597","2018/07/24 19:39:33","新北市三峽區有木3號","121.42111","24.8660133333333","6500900","三峽區"
"237007","153-BY","2018/07/24 19:39:32","新北市三峽區二鬮路136巷147號","121.357163333333","24.910655","6500900","三峽區"
"237009","210-TH","2018/07/24 19:39:35","新北市三峽區中園街97號","121.367845","24.924845","6500900","三峽區"
"237013","252-BX","2018/07/24 19:39:31","新北市三峽區橫溪路15號","121.396183333333","24.93593","6500900","三峽區"
"237012","275-BY","2018/07/24 19:39:19","新北市三峽區光明路28號","121.373611666667","24.9307783333333","6500900","三峽區"
"237008","302-VK","2018/07/24 19:39:29","新北市三峽區永安街143-2號","121.373476666667","24.928015","6500900","三峽區"
"237014","433-BY","2018/07/24 19:39:21","新北市三峽區嘉添31號","121.368761666667","24.9115133333333","6500900","三峽區"
"237006","5529-G3","2018/07/24 19:39:35","新北市三峽區中正路一段336巷15弄2號","121.369966666667","24.92492","6500900","三峽區"
"237016","649-BX","2018/07/24 19:39:34","新北市三峽區成福路221號","121.426795","24.9267016666667","6500900","三峽區"
"237005","AKY-6261","2018/07/24 19:39:33","新北市三峽區中山路169巷2號","121.36427","24.9361","6500900","三峽區"
"236070","105-UM","2018/07/24 19:39:29","新北市土城區裕生路18號","121.448088333333","24.987465","6501300","土城區"
"236042","107-UM","2018/07/24 19:39:36","新北市土城區裕民路260號","121.454596666667","24.9828183333333","6501300","土城區"
"236079","166-UM","2018/07/24 19:39:31","新北市土城區中州路52巷2弄22號","121.412533333333","24.9579666666667","6501300","土城區"
"236030","253-BX","2018/07/24 19:39:08","新北市土城區福祥街64號","121.441585","24.981545","6501300","土城區"
"236026","269-VK","2018/07/24 19:39:33","新北市土城區中央路二段61巷26號","121.44338","24.9789116666667","6501300","土城區"
"236038","271-VK","2018/07/24 19:39:40","新北市土城區青雲路281巷13弄4號","121.45988","24.98025","6501300","土城區"
"236021","401-BY","2018/07/24 19:39:19","新北市土城區峰廷街18號","121.468998333333","24.9872616666667","6501300","土城區"
"236049","913-UM","2018/07/24 19:39:36","新北市土城區明德路一段53號","121.46532","24.9847366666667","6501300","土城區"
"236063","915-UM","2018/07/24 19:39:25","新北市土城區延平街60號","121.467901666667","24.9926466666667","6501300","土城區"
"236055","AAC-216","2018/07/24 19:39:38","新北市土城區青雲路35號","121.460031666667","24.988325","6501300","土城區"
"242007","413-TV","2018/07/24 19:39:36","新北市新莊區中央路232號","121.454416666667","25.0587866666667","6500500","新莊區"
"242023","362-BY","2018/07/24 19:39:24","新北市新莊區復興路三段57號","121.461991666667","25.044555","6500500","新莊區"
"242039","133-UY","2018/07/24 19:39:40","新北市新莊區建國二路83-10號","121.431153333333","25.0255283333333","6500500","新莊區"
"242032","135-UY","2018/07/24 19:39:35","新北市新莊區新泰路213巷4號","121.446383333333","25.0388066666667","6500500","新莊區"
"242048","172-VK","2018/07/24 19:39:38","新北市新莊區民安路37巷10號","121.424186666667","25.026915","6500500","新莊區"
"242011","173-VK","2018/07/24 19:39:38","新北市新莊區三和路12-21號","121.441951666667","25.0387133333333","6500500","新莊區"
"242005","176-VK","2018/07/24 19:39:22","新北市新莊區化成路29巷61號","121.462456666667","25.04398","6500500","新莊區"
"242019","350-TH","2018/07/24 19:39:36","新北市新莊區三和路12-21號","121.442045","25.0387116666667","6500500","新莊區"
"238015","755-BX","2018/07/24 19:39:31","新北市樹林區中山路一段108巷37號","121.421765","24.9914166666667","6500700","樹林區"
"238023","601-UM","2018/07/24 19:39:37","新北市樹林區三福街152號","121.405185","25.016015","6500700","樹林區"
"238024","5061-A6","2018/07/24 19:39:32","新北市樹林區育德街40號","121.39011","24.96909","6500700","樹林區"
"238022","KEA-2213","2018/07/24 19:39:31","新北市樹林區名園街51巷6弄35號","121.42122","24.9783516666667","6500700","樹林區"
"238021","KEA-2539","2018/07/24 19:39:28","新北市樹林區佳園路三段145巷36-28號","121.389108333333","24.949085","6500700","樹林區"
"238025","303-VK","2018/07/24 19:39:33","新北市樹林區中山路一段354號","121.41912","24.9858683333333","6500700","樹林區"
"238017","283-BY","2018/07/24 19:39:16","新北市樹林區保安街二段45巷15號","121.415298333333","24.9999283333333","6500700","樹林區"
"238014","282-BY","2018/07/24 19:39:20","新北市樹林區千歲街14-1號","121.425256666667","24.9958283333333","6500700","樹林區"
"238020","268-VK","2018/07/24 19:39:36","新北市板橋區金門街369巷83-1號","121.430348333333","24.9810916666667","6500700","樹林區"
"239006","891-R6","2018/07/24 19:39:37","新北市鶯歌區文化路42號","121.356768333333","24.9549483333333","6500800","鶯歌區"
"239004","193-VK","2018/07/24 19:39:39","新北市鶯歌區二甲路87-2號","121.338265","24.9335333333333","6500800","鶯歌區"
"221008","489-VK","2018/07/24 19:39:30","新北市汐止區康寧街141巷20弄2號","121.621468333333","25.067645","6501100","汐止區"
"221036","130-UY","2018/07/24 19:39:37","新北市汐止區汐萬路一段312號","121.650701666667","25.07529","6501100","汐止區"
"221015","131-UY","2018/07/24 19:39:24","新北市汐止區康寧街901號","121.650946666667","25.0751566666667","6501100","汐止區"
"221010","269-BY","2018/07/24 19:39:22","新北市汐止區汐萬路一段395號","121.649521666667","25.078875","6501100","汐止區"
"221012","278-VK","2018/07/24 19:39:25","新北市汐止區大同路三段533號","121.680976666667","25.07138","6501100","汐止區"
"221023","279-VK","2018/07/24 19:39:21","新北市汐止區中興路286巷1號","121.628251666667","25.0695566666667","6501100","汐止區"
"221032","280-BY","2018/07/24 19:39:32","新北市汐止區大同路二段132號","121.651625","25.0637933333333","6501100","汐止區"
"221027","281-BY","2018/07/24 19:39:21","新北市汐止區忠孝東路9號","121.658325","25.065975","6501100","汐止區"
"221033","297-VK","2018/07/24 19:39:33","台北市南港區舊莊街二段9號","121.624926666667","25.03768","6501100","汐止區"
"221029","298-VK","2018/07/24 19:39:35","新北市汐止區康寧街901號","121.651528333333","25.0748416666667","6501100","汐止區"
"221021","299-VK","2018/07/24 19:39:33","新北市汐止區新台五路一段131號","121.652291666667","25.06185","6501100","汐止區"
"221031","353-TW","2018/07/24 19:39:18","新北市汐止區康寧街901號","121.650825","25.075245","6501100","汐止區"
"221025","623-UM","2018/07/24 19:39:32","新北市汐止區福安街20巷3號","121.662536666667","25.06493","6501100","汐止區"
"221038","646-BX","2018/07/24 19:39:40","新北市汐止區忠孝東路220號","121.66218","25.066685","6501100","汐止區"
"221002","707-TV","2018/07/24 19:39:29","新北市汐止區大同路一段219巷27號","121.633246666667","25.0583816666667","6501100","汐止區"
"221018","753-BX","2018/07/24 19:39:37","新北市汐止區汐萬路一段312號","121.650441666667","25.0751133333333","6501100","汐止區"
"220080","200-UY","2018/07/24 19:39:29","新北市板橋區大觀路二段37巷302號","121.450326666667","25.0021633333333","6500100","板橋區"
"220101","245-BX","2018/07/24 19:39:23","新北市板橋區莊敬路253號","121.473481666667","25.0215666666667","6500100","板橋區"
"220079","256-TC","2018/07/24 19:39:22","新北市板橋區建國街112號","121.460241666667","25.0174566666667","6500100","板橋區"
"220091","267-BY","2018/07/24 19:39:35","新北市板橋區懷德街129號","121.479065","25.0305816666667","6500100","板橋區"
"220056","276-BY","2018/07/24 19:39:28","新北市板橋區四川路二段47巷4弄2號","121.454123333333","24.994725","6500100","板橋區"
"220072","277-BY","2018/07/24 19:39:39","新北市板橋區金門街215巷22號","121.433278333333","24.9895866666667","6500100","板橋區"
"220071","283-VK","2018/07/24 19:39:24","新北市板橋區信義路279巷21號","121.464328333333","24.99021","6500100","板橋區"
"220094","285-UM","2018/07/24 19:39:19","新北市板橋區銘傳街96-3號","121.46965","25.0316483333333","6500100","板橋區"
"220053","285-VK","2018/07/24 19:39:35","新北市板橋區中山路二段148巷38號","121.476948333333","25.0160366666667","6500100","板橋區"
"220083","286-VK","2018/07/24 19:39:34","新北市板橋區龍興街65巷1號","121.443348333333","25.0013666666667","6500100","板橋區"
"220081","287-VK","2018/07/24 19:39:21","新北市板橋區大觀路一段29巷179弄20號","121.449061666667","25.004695","6500100","板橋區"
"220090","288-VK","2018/07/24 19:39:29","新北市板橋區長江路一段48巷6弄2號","121.459181666667","25.028435","6500100","板橋區"
"220061","293-UM","2018/07/24 19:39:27","新北市板橋區中山路一段265巷1-4號","121.468158333333","25.0143533333333","6500100","板橋區"
"220062","295-UM","2018/07/24 19:39:30","新北市板橋區三民路二段83號","121.479333333333","25.01671","6500100","板橋區"
"220084","296-UM","2018/07/24 19:39:35","新北市板橋區滿平二街12號","121.425473333333","24.986865","6500100","板橋區"
"242021","281-VK","2018/07/24 19:39:24","新北市新莊區新泰路125號","121.448391666667","25.036105","6500500","新莊區"
"220075","303-R5","2018/07/24 19:39:19","新北市板橋區中正路212號","121.455978333333","25.01813","6500100","板橋區"
"220092","307-R5","2018/07/24 19:39:36","新北市板橋區自由路6號","121.465596666667","25.0223733333333","6500100","板橋區"
"220098","317-R6","2018/07/24 19:39:26","新北市板橋區四維路269巷62號","121.460768333333","25.0272483333333","6500100","板橋區"
"220064","486-VK","2018/07/24 19:39:28","新北市板橋區縣民大道二段1號","121.461676666667","25.0117316666667","6500100","板橋區"
"220088","491-VK","2018/07/24 19:39:39","新北市板橋區仁化街164號","121.478158333333","25.0336566666667","6500100","板橋區"
"220035","560-BX","2018/07/24 19:39:29","新北市板橋區金華街85巷42號","121.459186666667","25.0212933333333","6500100","板橋區"
"220103","561-BX","2018/07/24 19:39:24","新北市板橋區文化路一段341號","121.466581666667","25.02079","6500100","板橋區"
"220063","609-BX","2018/07/24 19:39:38","新北市板橋區中山路二段553巷4弄9號","121.483443333333","25.0227683333333","6500100","板橋區"
"220057","686-BX","2018/07/24 19:39:28","新北市板橋區和平路63巷9號","121.461056666667","24.9950566666667","6500100","板橋區"
"220077","687-BX","2018/07/24 19:39:33","新北市板橋區僑中一街70號","121.447496666667","25.01134","6500100","板橋區"
"220093","689-BX","2018/07/24 19:39:18","新北市板橋區長江路一段135號","121.460543333333","25.030235","6500100","板橋區"
"220054","741-BX","2018/07/24 19:39:36","新北市板橋區忠孝路198號","121.465701666667","25.0027383333333","6500100","板橋區"
"220102","KEA-2699","2018/07/24 19:39:39","新北市板橋區松柏街25-4號","121.474955","25.0300783333333","6500100","板橋區"
"220082","806-UM","2018/07/24 19:39:38","新北市板橋區篤行路一段37號","121.432041666667","24.9939933333333","6500100","板橋區"
"220055","827-TW","2018/07/24 19:39:33","新北市板橋區國慶路149巷13弄13號","121.460316666667","24.9970233333333","6500100","板橋區"
"220067","829-TW","2018/07/24 19:39:24","新北市板橋區長安街168巷10弄18號","121.473476666667","25.01047","6500100","板橋區"
"220068","830-TW","2018/07/24 19:39:36","新北市板橋區中山路二段527號","121.483276666667","25.021275","6500100","板橋區"
"220096","831-TW","2018/07/24 19:39:29","新北市板橋區民生路二段234巷24弄2號","121.470118333333","25.0225116666667","6500100","板橋區"
"220089","833-TW","2018/07/24 19:39:29","新北市板橋區英士路37號","121.461691666667","25.0250183333333","6500100","板橋區"
"220074","895-R6","2018/07/24 19:39:20","新北市板橋區大東街31號","121.456628333333","25.008865","6500100","板橋區"
"220073","985-R7","2018/07/24 19:39:24","新北市板橋區國光路49巷5號","121.45818","25.018545","6500100","板橋區"
"220097","AAC-210","2018/07/24 19:39:37","新北市板橋區幸福路33號","121.461623333333","25.0199766666667","6500100","板橋區"
"220070","AAC-253","2018/07/24 19:39:29","新北市板橋區民族路263號","121.470535","25.006875","6500100","板橋區"
"235068","KEA-2873","2018/07/24 19:39:11","新北市中和區廟美街32號","121.500505","25.001895","6500300","中和區"
"235061","KEA-2875","2018/07/24 19:39:20","新北市中和區民安街2巷27號","121.480133333333","25.0015633333333","6500300","中和區"
