"lineid","car","time","location","longitude","latitude","cityid","cityname"
"234046","148-BY","2018/07/24 19:49:37","新北市永和區永利路147號","121.524325","25.00337","6500400","永和區"
"234007","207-UY","2018/07/24 19:49:23","新北市中和區中和路210號","121.50565","24.99968","6500400","永和區"
"234081","298-R6","2018/07/24 19:49:24","新北市永和區永亨路127號","121.52453","25.0042633333333","6500400","永和區"
"234038","336-UY","2018/07/24 19:49:26","新北市永和區民樂街55巷12號","121.527906666667","24.99864","6500400","永和區"
"234064","337-UY","2018/07/24 19:49:21","新北市永和區中正路418號","121.51758","25.0022666666667","6500400","永和區"
"234086","338-UY","2018/07/24 19:49:24","新北市永和區永亨路48號","121.520175","25.0062633333333","6500400","永和區"
"234070","552-UM","2018/07/24 19:49:30","新北市永和區竹林路81號","121.519503333333","25.0125333333333","6500400","永和區"
"234017","745-BX","2018/07/24 19:49:40","新北市永和區永和路二段297號","121.516038333333","25.01604","6500400","永和區"
"234030","746-BX","2018/07/24 19:49:33","新北市永和區民生路67巷22號","121.523826666667","24.9971766666667","6500400","永和區"
"234054","KEA-2590","2018/07/24 19:49:40","新北市永和區竹林路72巷2號","121.518931666667","25.01314","6500400","永和區"
"234013","KEA-2591","2018/07/24 19:49:20","新北市永和區永平路286號","121.507595","25.011915","6500400","永和區"
"234061","AAD-866","2018/07/24 19:49:37","新北市永和區中正路164號","121.515023333333","24.996515","6500400","永和區"
"234067","847-RS","2018/07/24 19:49:36","新北市永和區中山路一段207號","121.508748333333","25.0085483333333","6500400","永和區"
"234042","862-TW","2018/07/24 19:49:27","新北市永和區中和路389巷32號","121.508228333333","25.0016366666667","6500400","永和區"
"234048","863-TW","2018/07/24 19:49:23","新北市永和區保安路128號","121.508956666667","25.015485","6500400","永和區"
"234026","9371-KE","2018/07/24 19:49:25","新北市永和區雙和街25巷4號","121.508901666667","25.001965","6500400","永和區"
"234011","9373-KE","2018/07/24 19:49:23","新北市永和區仁愛路310號","121.503033333333","25.0076583333333","6500400","永和區"
"249005","172-UM","2018/07/24 19:49:29","新北市八里區中華路三段170-1號","121.392176666667","25.1304433333333","6502300","八里區"
"249004","303-UY","2018/07/24 19:49:31","新北市八里區觀海大道271號","121.414486666667","25.161485","6502300","八里區"
"249003","593-UM","2018/07/24 19:49:19","新北市八里區中華路二段560巷5號","121.39857","25.14492","6502300","八里區"
"249001","759-BX","2018/07/24 19:49:38","新北市八里區中華路二段203號","121.40546","25.1496216666667","6502300","八里區"
"248014","025-BX","2018/07/24 19:49:39","新北市五股區五福路52巷17號","121.434255","25.090115","6501500","五股區"
"248008","095-VK","2018/07/24 19:49:21","新北市五股區四維路140號","121.468243333333","25.0753316666667","6501500","五股區"
"248020","225-UY","2018/07/24 19:49:40","新北市五股區中直路53號","121.419483333333","25.1170533333333","6501500","五股區"
"248012","247-BX","2018/07/24 19:49:32","新北市五股區蓬萊路24號","121.433878333333","25.0799016666667","6501500","五股區"
"248004","677-BX","2018/07/24 19:49:38","新北市五股區成泰路一段137號","121.435516666667","25.07289","6501500","五股區"
"248002","678-BX","2018/07/24 19:49:22","新北市五股區成泰路四段15-7號","121.453213333333","25.10715","6501500","五股區"
"248010","682-TV","2018/07/24 19:49:32","新北市五股區登林路76-9號","121.429696666667","25.0694016666667","6501500","五股區"
"234077","969-R7","2018/07/24 19:49:37","新北市永和區民治街97巷8號","121.516811666667","24.9980933333333","6500400","永和區"
"234074","AAC-211","2018/07/24 19:49:21","新北市永和區竹林路179巷17弄1號","121.52119","25.0100366666667","6500400","永和區"
"234003","AAC-295","2018/07/24 19:49:38","新北市永和區福和路316-1號","121.516023333333","25.0073583333333","6500400","永和區"
"244009","410-SL","2018/07/24 19:49:21","新北市林口區粉寮路二段8-1號","121.401178333333","25.084805","6501700","林口區"
"243013","AAD-798","2018/07/24 19:42:36","新北市泰山區應化街7號","121.423873333333","25.0437116666667","6501600","泰山區"
"243009","297-R6","2018/07/24 19:49:30","新北市泰山區美寧街60號","121.430905","25.0647133333333","6501600","泰山區"
"243016","380-SR","2018/07/24 19:49:38","新北市新莊區中山路三段120號","121.41751","25.032295","6501600","泰山區"
"243015","421-VK","2018/07/24 19:49:38","新北市泰山區明志路二段214巷11號","121.426693333333","25.0488466666667","6501600","泰山區"
"243011","KEA-2215","2018/07/24 19:49:25","新北市泰山區明志路三段204巷10弄2號","121.423348333333","25.0384066666667","6501600","泰山區"
"243010","KEA-2216","2018/07/24 19:49:18","新北市泰山區民生路33號","121.430723333333","25.0521383333333","6501600","泰山區"
"243012","646-TV","2018/07/24 19:49:41","新北市泰山區全興路13號","121.432368333333","25.058965","6501600","泰山區"
"243014","680-BX","2018/07/24 19:49:38","新北市泰山區泰林路二段33-9號","121.435068333333","25.0567816666667","6501600","泰山區"
"222003","436-BY","2018/07/24 19:29:50","新北市深坑區深南路51-1號","121.621301666667","25.0097216666667","6501800","深坑區"
"222002","659-BX","2018/07/24 19:49:23","新北市深坑區北深路一段361號","121.622311666667","25.00493","6501800","深坑區"
"231041","002-UM","2018/07/24 19:49:23","新北市新店區中央路210號","121.530068333333","24.9737","6500600","新店區"
"231059","046-UY","2018/07/24 19:49:28","新北市新店區安和路二段179號","121.518445","24.9746883333333","6500600","新店區"
"231040","047-UY","2018/07/24 19:49:25","新北市新店區中正路75巷71號","121.543096666667","24.9688116666667","6500600","新店區"
"231044","106-UY","2018/07/24 19:49:32","新北市新店區復興路121號","121.53421","24.987985","6500600","新店區"
"231046","107-UY","2018/07/24 19:49:35","新北市新店區福園街10巷1號","121.532696666667","24.9728116666667","6500600","新店區"
"231053","108-UY","2018/07/24 19:49:41","新北市新店區新烏路三段45號","121.554036666667","24.9045433333333","6500600","新店區"
"231048","187-VK","2018/07/24 19:49:31","新北市新店區中興路二段100巷1號","121.547765","24.9716716666667","6500600","新店區"
"231054","KEA-2219","2018/07/24 19:49:38","新北市新店區光明街35號","121.53855","24.9597066666667","6500600","新店區"
"231057","256-BX","2018/07/24 19:49:37","新北市新店區梅崗一路9號","121.556135","24.931245","6500600","新店區"
"231042","268-BY","2018/07/24 19:49:06","新北市新店區五峰路48巷14號","121.544921666667","24.9682","6500600","新店區"
"231051","278-BY","2018/07/24 19:49:27","新北市新店區中央三街26號","121.528665","24.9738916666667","6500600","新店區"
"231050","AAD-862","2018/07/24 19:49:40","新北市新店區郵政路4巷23號","121.556575","24.9516933333333","6500600","新店區"
"231058","3713-VJ","2018/07/24 19:49:28","新北市新店區薏仁坑路自強巷6號","121.497213333333","24.9588466666667","6500600","新店區"
"231066","4716-K9","2018/07/24 19:49:23","新北市新店區安康路二段341巷21號","121.49706","24.95464","6500600","新店區"
"231056","4715-K9","2018/07/24 19:49:42","新北市新店區民權路178號","121.534758333333","24.9828883333333","6500600","新店區"
"231067","4772-VM","2018/07/24 19:49:35","新北市新店區安康路一段203號","121.52609","24.9629666666667","6500600","新店區"
"231065","512-UM","2018/07/24 19:49:36","新北市新店區安祥路109巷151弄5號","121.478225","24.95865","6500600","新店區"
"231049","513-UM","2018/07/24 19:49:34","新北市新店區民權路96號","121.536678333333","24.9831533333333","6500600","新店區"
"231063","616-UM","2018/07/24 19:49:30","新北市新店區車子路11號","121.503066666667","24.9520133333333","6500600","新店區"
"231045","617-UM","2018/07/24 19:49:31","新北市新店區北宜路二段382號","121.564465","24.95292","6500600","新店區"
"231061","619-UM","2018/07/24 19:49:38","新北市新店區安民街172號","121.516815","24.970685","6500600","新店區"
"231064","719-UM","2018/07/24 19:49:30","新北市新店區安和路二段117巷10號","121.518335","24.9702433333333","6500600","新店區"
"231062","720-UM","2018/07/24 19:49:22","新北市新店區華潭街1巷19號","121.529005","24.9490933333333","6500600","新店區"
"231060","897-TW","2018/07/24 19:49:32","新北市新店區安康路二段223號","121.508626666667","24.9587633333333","6500600","新店區"
"231043","899-TW","2018/07/24 19:49:35","新北市新店區中正路282-11號","121.538441666667","24.9738666666667","6500600","新店區"
"231055","AKT-0513","2018/07/24 19:49:26","新北市新店區力行路70號","121.53876","24.966135","6500600","新店區"
"241011","013-R5","2018/07/24 19:49:22","新北市三重區介壽路41號","121.498645","25.0701133333333","6500200","三重區"
"241028","022-UY","2018/07/24 19:49:30","新北市三重區中正南路158號","121.494091666667","25.0571866666667","6500200","三重區"
"241008","059-VK","2018/07/24 19:49:27","新北市三重區永福街78號","121.478858333333","25.0765383333333","6500200","三重區"
"241022","060-VK","2018/07/24 19:49:23","新北市三重區新北大道一段11號","121.488621666667","25.06062","6500200","三重區"
"241031","061-VK","2018/07/24 19:49:24","新北市三重區重新路四段250-1號","121.48605","25.05349","6500200","三重區"
"241015","062-VK","2018/07/24 19:49:26","新北市三重區重新路一段1號","121.503825","25.064245","6500200","三重區"
"241017","063-VK","2018/07/24 19:49:31","新北市三重區重陽路三段27巷1號","121.489658333333","25.0665916666667","6500200","三重區"
"241024","065-VK","2018/07/24 19:49:22","新北市三重區大勇街82巷5號","121.479593333333","25.0713683333333","6500200","三重區"
"241003","091-VK","2018/07/24 19:49:28","新北市三重區五華街95號","121.491913333333","25.0837083333333","6500200","三重區"
"241019","742-BX","2018/07/24 19:49:40","新北市三重區自強路二段74巷5號","121.488283333333","25.07016","6500200","三重區"
"241005","262-UM","2018/07/24 19:49:29","新北市三重區溪尾街325巷40弄1號","121.488693333333","25.0832683333333","6500200","三重區"
"241009","265-UM","2018/07/24 19:49:31","新北市三重區三和路四段400巷9號","121.480751666667","25.079375","6500200","三重區"
"241016","266-UM","2018/07/24 19:49:37","新北市三重區正德街43號","121.495858333333","25.0627983333333","6500200","三重區"
"241032","269-UM","2018/07/24 19:49:25","新北市三重區重陽路一段44巷10號","121.486016666667","25.05775","6500200","三重區"
"241013","270-UM","2018/07/24 19:49:38","新北市三重區仁愛街112巷14號","121.49474","25.0739733333333","6500200","三重區"
"241025","271-UM","2018/07/24 19:49:23","新北市三重區忠孝路三段71號","121.480611666667","25.065945","6500200","三重區"
"241007","398-BY","2018/07/24 19:49:31","新北市三重區三和路四段135巷6號","121.484856666667","25.0782033333333","6500200","三重區"
"241026","413-TH","2018/07/24 19:49:38","新北市三重區中央南路49號","121.501405","25.0618566666667","6500200","三重區"
"241035","462-BY","2018/07/24 19:49:39","新北市三重區大榮街50號","121.499028333333","25.063575","6500200","三重區"
"241030","480-VK","2018/07/24 19:49:38","新北市三重區環河南路254巷78號","121.488963333333","25.0515166666667","6500200","三重區"
"241014","543-UM","2018/07/24 19:49:32","新北市三重區長安街77號","121.501646666667","25.0673983333333","6500200","三重區"
"241023","545-UM","2018/07/24 19:49:28","新北市三重區頂崁街172號","121.477568333333","25.06594","6500200","三重區"
"241001","547-UM","2018/07/24 19:49:27","新北市三重區仁愛街327巷64號","121.4936","25.080365","6500200","三重區"
"241006","AAD-863","2018/07/24 19:49:38","新北市三重區力行路二段76巷1弄2號","121.481425","25.0736466666667","6500200","三重區"
"241018","887-TS","2018/07/24 19:49:25","新北市三重區雙園街57巷34弄21號","121.493925","25.06833","6500200","三重區"
"241012","941-UM","2018/07/24 19:49:21","新北市三重區仁興街56巷54號","121.49783","25.0754316666667","6500200","三重區"
"241029","942-UM","2018/07/24 19:49:26","新北市三重區光明路31-1號","121.491293333333","25.05839","6500200","三重區"
"241033","AAC-255","2018/07/24 19:49:25","新北市三重區中興南街66號","121.47063","25.04397","6500200","三重區"
"235066","003-UY","2018/07/24 19:49:24","新北市中和區南工路60號","121.50609","25.0018716666667","6500300","中和區"
"235064","005-UY","2018/07/24 19:49:25","新北市中和區南華路43號","121.503656666667","24.996735","6500300","中和區"
"235063","006-UY","2018/07/24 19:49:31","新北市中和區連城路263巷23號","121.492678333333","24.9947","6500300","中和區"
"235056","096-UM","2018/07/24 19:49:36","新北市中和區中山路三段136巷83號","121.473818333333","25.0078766666667","6500300","中和區"
"235039","097-UM","2018/07/24 19:49:33","新北市中和區大勇街25巷29弄3號","121.515103333333","24.9936966666667","6500300","中和區"
"235065","098-UM","2018/07/24 19:49:32","新北市中和區莊敬路23號","121.500055","25.0046466666667","6500300","中和區"
"235040","150-BY","2018/07/24 19:49:35","新北市中和區安和路125號","121.50712","24.9957833333333","6500300","中和區"
"235058","151-BY","2018/07/24 19:49:26","新北市中和區員山路150巷2弄37號","121.481716666667","24.9975416666667","6500300","中和區"
"235055","183-VK","2018/07/24 19:49:31","新北市中和區德光路23號","121.470713333333","25.00428","6500300","中和區"
"235049","186-VK","2018/07/24 19:49:29","新北市中和區景平路385巷36號","121.501628333333","24.9946166666667","6500300","中和區"
"235067","255-BX","2018/07/24 19:49:28","新北市中和區新生街186巷1弄29號","121.483436666667","24.9986183333333","6500300","中和區"
"235044","293-VK","2018/07/24 19:49:29","新北市中和區南山路231號","121.503495","24.99318","6500300","中和區"
"235043","352-BY","2018/07/24 19:49:38","新北市中和區華新街230號","121.506081666667","24.9817116666667","6500300","中和區"
"235050","4979-A6","2018/07/24 19:49:38","新北市中和區景平路241巷84弄54號","121.506121666667","24.9924083333333","6500300","中和區"
"235069","4980-A6","2018/07/24 19:49:20","新北市中和區中正路637巷52弄1號","121.485375","24.9935283333333","6500300","中和區"
"235042","551-UM","2018/07/24 19:49:37","新北市中和區保健路2巷23號","121.507163333333","24.9974633333333","6500300","中和區"
"235070","558-UM","2018/07/24 19:49:32","新北市中和區景平路503號","121.499658333333","24.9983966666667","6500300","中和區"
"235045","565-BX","2018/07/24 19:49:35","新北市中和區景平路404號","121.508986666667","24.9930416666667","6500300","中和區"
"235054","640-BX","2018/07/24 19:49:20","新北市中和區莒光路149號","121.472708333333","25.0011366666667","6500300","中和區"
"235060","647-TV","2018/07/24 19:49:37","新北市中和區中山路二段523巷32弄8號","121.481365","25.0037483333333","6500300","中和區"
"235047","732-UM","2018/07/24 19:49:37","新北市中和區和平街28號","121.509613333333","24.9902366666667","6500300","中和區"
"235046","733-UM","2018/07/24 19:49:29","新北市中和區仁愛街75號","121.511511666667","24.9873766666667","6500300","中和區"
"235071","783-BX","2018/07/24 19:49:25","新北市中和區中板路7-2號","121.48485","25.0112983333333","6500300","中和區"
"235057","801-TS","2018/07/24 19:49:32","新北市中和區員山路128-1號","121.481186666667","24.9961683333333","6500300","中和區"
"235041","802-TS","2018/07/24 19:49:26","新北市中和區中安街18號","121.513513333333","25.0031116666667","6500300","中和區"
"235052","805-TS","2018/07/24 19:49:30","新北市中和區華新街30巷16號","121.50686","24.9844183333333","6500300","中和區"
"235048","896-TW","2018/07/24 19:49:20","新北市中和區興南路二段10-3號","121.507735","24.98595","6500300","中和區"
"235053","900-TW","2018/07/24 19:49:20","新北市中和區國光街189巷1號","121.46778","25.0010066666667","6500300","中和區"
"235051","157-BY","2018/07/24 19:49:38","新北市中和區中興街274號","121.49859","24.98828","6500300","中和區"
"235037","AAC-213","2018/07/24 19:49:39","新北市中和區自立路66號","121.52384","24.9913083333333","6500300","中和區"
"235059","AAC-215","2018/07/24 19:49:23","新北市中和區圓通路305巷29弄2號","121.495038333333","24.9890733333333","6500300","中和區"
"220065","072-UY","2018/07/24 19:49:32","新北市板橋區國泰街39巷9弄3號","121.468731666667","25.0053533333333","6500100","板橋區"
"220069","AAD-861","2018/07/24 19:49:27","新北市板橋區貴興路119巷8號","121.455766666667","25.0021683333333","6500100","板橋區"
"220106","120-SR","2018/07/24 19:49:29","新北市板橋區仁化街221號","121.47899","25.0345516666667","6500100","板橋區"
"247014","546-UM","2018/07/24 19:49:40","新北市蘆洲區復興路30號","121.472283333333","25.0850916666667","6501400","蘆洲區"
"247004","337-TH","2018/07/24 19:49:34","新北市蘆洲區中原路68號","121.458491666667","25.0820033333333","6501400","蘆洲區"
"247002","002-UY","2018/07/24 19:49:32","新北市蘆洲區永樂街38巷40號","121.45852","25.0901483333333","6501400","蘆洲區"
"226004","205-ST","2018/07/24 19:49:29","新北市平溪區十分里十分街214-5號","121.778883333333","25.0435166666667","6502400","平溪區"
"235038","251-BX","2018/07/24 19:49:20","新北市中和區自立路6號","121.522471666667","24.996585","6500300","中和區"
"228004","212-TW","2018/07/24 19:49:27","新北市貢寮區仁理村仁愛路83號","121.927318333333","25.054935","6502600","貢寮區"
"228003","828-UM","2018/07/24 19:49:31","新北市貢寮區真理里美艷山街3-1號","121.925723333333","25.0596083333333","6502600","貢寮區"
"224010","AGQ-8101","2018/07/24 19:48:52","新北市瑞芳區豎崎路13號","121.843615","25.1083633333333","6501200","瑞芳區"
"224002","639-TC","2018/07/24 19:49:24","新北市瑞芳區員山子路3-1號","121.819026666667","25.1046366666667","6501200","瑞芳區"
"227009","642-TC","2018/07/24 19:49:31","新北市雙溪區新基里朝陽街11號","121.866025","25.0384066666667","6502500","雙溪區"
"227003","400-TW","2018/07/24 19:49:37","新北市雙溪區雙溪里內挖路47號","121.863235","25.036755","6502500","雙溪區"
"222001","KEA-2212","2018/07/24 19:49:24","新北市深坑區北深路三段71號","121.606835","25.0013016666667","6501800","深坑區"
"208002","KEA-2872","2018/07/24 19:49:35","新北市金山區八德街2號","121.635176666667","25.22375","6502700","金山區"
"208003","665-BX","2018/07/24 19:49:25","新北市金山區海興路112-1號","121.631135","25.238595","6502700","金山區"
"208001","761-BX","2018/07/24 19:49:27","新北市金山區重和里茅埔頭2號","121.604178333333","25.2172766666667","6502700","金山區"
"251005","010-UM","2018/07/24 19:49:34","新北市淡水區中正東路1號","121.447216666667","25.1672733333333","6501000","淡水區"
"251001","011-UM","2018/07/24 19:49:29","新北市淡水區坪頂路27號","121.456306666667","25.1620983333333","6501000","淡水區"
"251013","KEA-2871","2018/07/24 19:49:38","新北市淡水區頂田寮路160號","121.459176666667","25.2158683333333","6501000","淡水區"
"251016","179-VK","2018/07/24 19:49:21","新北市淡水區三塊厝3-2號","121.456173333333","25.2091033333333","6501000","淡水區"
"251014","180-VK","2018/07/24 19:49:35","新北市淡水區番社前3-3號","121.471906666667","25.2372583333333","6501000","淡水區"
"251015","181-VK","2018/07/24 19:49:38","新北市淡水區商工路383號","121.473103333333","25.1853183333333","6501000","淡水區"
"251012","441-VK","2018/07/24 19:49:36","新北市淡水區淡金路三段70巷1號","121.448353333333","25.2008366666667","6501000","淡水區"
"251007","442-VK","2018/07/24 19:49:25","新北市淡水區竿蓁一街51巷5號","121.452635","25.1663316666667","6501000","淡水區"
"251008","443-VK","2018/07/24 19:49:32","新北市淡水區中正路二段24巷2-1號","121.42683","25.1769466666667","6501000","淡水區"
"251006","561-UM","2018/07/24 19:49:36","新北市淡水區水碓街15號","121.443503333333","25.1769366666667","6501000","淡水區"
"251009","575-R6","2018/07/24 19:49:27","新北市淡水區中正路32號","121.443851666667","25.1692016666667","6501000","淡水區"
"251011","650-BX","2018/07/24 19:49:25","新北市淡水區淡金路二段600號","121.446713333333","25.19226","6501000","淡水區"
"251003","673-BX","2018/07/24 19:49:29","新北市淡水區中山北路三段136號","121.444456666667","25.1946483333333","6501000","淡水區"
"207003","550-UM","2018/07/24 19:49:35","新北市萬里區大鵬里萬里加投45-2號","121.64151","25.2105116666667","6502800","萬里區"
"207004","225-TW","2018/07/24 19:49:18","新北市萬里區萬里里瑪鋉路170號","121.689913333333","25.1797466666667","6502800","萬里區"
"252002","178-VK","2018/07/24 19:49:32","新北市三芝區三民街20號","121.504503333333","25.258665","6502100","三芝區"
"252001","292-VK","2018/07/24 19:49:21","新北市三芝區公正街66號","121.49982","25.25742","6502100","三芝區"
"237004","KEA-2597","2018/07/24 19:49:33","新北市三峽區圳頭40號","121.377285","24.886165","6500900","三峽區"
"237007","153-BY","2018/07/24 19:49:32","新北市三峽區二鬮路136巷43號","121.358168333333","24.9087616666667","6500900","三峽區"
"237009","210-TH","2018/07/24 19:49:35","新北市三峽區民族街78巷2弄1號","121.368681666667","24.92975","6500900","三峽區"
"237013","252-BX","2018/07/24 19:49:30","新北市三峽區介壽路二段165號","121.394083333333","24.9360116666667","6500900","三峽區"
"237012","275-BY","2018/07/24 19:49:39","新北市三峽區中華路5-1號","121.374565","24.9326966666667","6500900","三峽區"
"237008","302-VK","2018/07/24 19:49:29","新北市三峽區中正路一段292巷19弄11號","121.37062","24.9258716666667","6500900","三峽區"
"237014","433-BY","2018/07/24 19:49:21","新北市三峽區添福141號","121.375245","24.900985","6500900","三峽區"
"237006","5529-G3","2018/07/24 19:49:35","新北市三峽區中正路一段336巷15弄2號","121.370336666667","24.92487","6500900","三峽區"
"237016","649-BX","2018/07/24 19:49:34","新北市三峽區溪東路354號","121.413223333333","24.928105","6500900","三峽區"
"237005","AKY-6261","2018/07/24 19:49:33","新北市三峽區民生街88號","121.374195","24.9357383333333","6500900","三峽區"
"236070","105-UM","2018/07/24 19:49:29","新北市土城區學府路一段129巷22號","121.454486666667","24.9859183333333","6501300","土城區"
"236042","107-UM","2018/07/24 19:49:36","新北市土城區金城路二段245巷15號","121.455265","24.983175","6501300","土城區"
"236079","166-UM","2018/07/24 19:49:32","新北市土城區中央路四段488號","121.409148333333","24.9506216666667","6501300","土城區"
"236030","253-BX","2018/07/24 19:49:28","新北市土城區中央路一段294號","121.443288333333","24.982375","6501300","土城區"
"236026","269-VK","2018/07/24 19:49:33","新北市土城區中央路二段61巷28號","121.443475","24.9788816666667","6501300","土城區"
"236038","271-VK","2018/07/24 19:49:38","新北市土城區國際路158巷19號","121.468651666667","24.9760466666667","6501300","土城區"
"236021","401-BY","2018/07/24 19:49:19","新北市土城區延吉街137巷12弄8號","121.470618333333","24.9854666666667","6501300","土城區"
"236059","912-UM","2018/07/24 19:49:41","新北市土城區中央路一段245-6號","121.445613333333","24.9858716666667","6501300","土城區"
"236049","913-UM","2018/07/24 19:49:36","新北市土城區青雲路241號","121.459058333333","24.9811533333333","6501300","土城區"
"236063","915-UM","2018/07/24 19:49:25","新北市土城區延和路107號","121.467721666667","24.9902883333333","6501300","土城區"
"236055","AAC-216","2018/07/24 19:49:38","新北市土城區延平街1號","121.468205","24.9905","6501300","土城區"
"242034","AAC-296","2018/07/24 19:49:31","新北市新莊區公園一路112-1號","121.444838333333","25.0374283333333","6500500","新莊區"
"242058","986-R7","2018/07/24 19:49:36","新北市新莊區新莊路773號","121.44195","25.0327066666667","6500500","新莊區"
"242029","705-TV","2018/07/24 19:49:39","新北市新莊區中平路274號","121.444831666667","25.0503683333333","6500500","新莊區"
"242037","415-TV","2018/07/24 19:49:30","新北市新莊區民安路207巷30弄1-1號","121.427738333333","25.0237933333333","6500500","新莊區"
"242007","413-TV","2018/07/24 19:49:35","新北市新莊區新北大道三段5號","121.458603333333","25.0601266666667","6500500","新莊區"
"242023","362-BY","2018/07/24 19:49:28","新北市新莊區化成路208號","121.46564","25.04641","6500500","新莊區"
"242061","353-BY","2018/07/24 19:49:25","新北市新莊區瓊林路118號","121.44237","25.0256383333333","6500500","新莊區"
"242039","133-UY","2018/07/24 19:49:20","新北市新莊區民安路299巷55弄1號","121.429441666667","25.0238433333333","6500500","新莊區"
"242032","135-UY","2018/07/24 19:49:27","新北市新莊區忠孝街72號","121.443995","25.036405","6500500","新莊區"
"242048","172-VK","2018/07/24 19:49:32","新北市新莊區建安街76巷1弄15號","121.425971666667","25.024195","6500500","新莊區"
"242011","173-VK","2018/07/24 19:48:58","新北市新莊區新泰路500號","121.442265","25.0465916666667","6500500","新莊區"
"242017","175-VK","2018/07/24 19:49:25","新北市新莊區中港路287號","121.452803333333","25.0439316666667","6500500","新莊區"
"242005","176-VK","2018/07/24 19:49:22","新北市新莊區化成路63巷24弄15號","121.46269","25.0459816666667","6500500","新莊區"
"242019","350-TH","2018/07/24 19:49:36","新北市新莊區中華路一段136巷30號","121.453656666667","25.041005","6500500","新莊區"
"238015","755-BX","2018/07/24 19:49:31","新北市樹林區中山路二段230號","121.409153333333","24.98036","6500700","樹林區"
"238023","601-UM","2018/07/24 19:49:37","新北市樹林區中正路755號","121.410395","25.015235","6500700","樹林區"
"238021","KEA-2539","2018/07/24 19:49:38","新北市樹林區佳園路三段101巷80弄3號","121.394981666667","24.949635","6500700","樹林區"
"238014","282-BY","2018/07/24 19:49:37","新北市樹林區千歲街70巷3弄2號","121.426876666667","24.9970716666667","6500700","樹林區"
"238020","268-VK","2018/07/24 19:49:16","新北市樹林區中山路三段206-1號","121.384363333333","24.9673033333333","6500700","樹林區"
"221008","489-VK","2018/07/24 19:49:30","新北市汐止區康寧街141巷55-3號","121.620685","25.06756","6501100","汐止區"
"221036","130-UY","2018/07/24 19:49:37","新北市汐止區汐萬路一段158號","121.652606666667","25.071405","6501100","汐止區"
"221015","131-UY","2018/07/24 19:49:24","新北市汐止區忠孝東路403號","121.665835","25.0711266666667","6501100","汐止區"
"221010","269-BY","2018/07/24 19:49:22","新北市汐止區八連路一段46巷57號","121.646386666667","25.0822416666667","6501100","汐止區"
"221012","278-VK","2018/07/24 19:49:22","新北市汐止區大同路三段547號","121.681323333333","25.0715416666667","6501100","汐止區"
"221023","279-VK","2018/07/24 19:49:21","新北市汐止區民族三街44號","121.629648333333","25.0700016666667","6501100","汐止區"
"221032","280-BY","2018/07/24 19:49:32","新北市汐止區橫科路119號","121.620025","25.0502916666667","6501100","汐止區"
"221027","281-BY","2018/07/24 19:49:36","新北市汐止區中正路7號","121.663081666667","25.0701","6501100","汐止區"
"221033","297-VK","2018/07/24 19:49:33","新北市汐止區東勢街76巷100-1號","121.636435","25.0389516666667","6501100","汐止區"
"221029","298-VK","2018/07/24 19:49:35","新北市汐止區康寧街901號","121.651463333333","25.0749633333333","6501100","汐止區"
"221021","299-VK","2018/07/24 19:49:33","新北市汐止區新興路78號","121.657655","25.061845","6501100","汐止區"
"221031","353-TW","2018/07/24 19:49:38","新北市汐止區福德二路54巷2弄1號","121.633821666667","25.067415","6501100","汐止區"
"221035","622-UM","2018/07/24 19:49:32","新北市汐止區長江街13巷6弄1號","121.654711666667","25.0716666666667","6501100","汐止區"
"221025","623-UM","2018/07/24 19:49:32","新北市汐止區秀峰路81巷27號","121.661223333333","25.064715","6501100","汐止區"
"221038","646-BX","2018/07/24 19:49:40","新北市汐止區汐萬路一段256巷3號","121.652351666667","25.07462","6501100","汐止區"
"221018","753-BX","2018/07/24 19:49:37","新北市汐止區茄苳路12號","121.664876666667","25.0704583333333","6501100","汐止區"
"220080","200-UY","2018/07/24 19:49:29","新北市板橋區大觀路二段71號","121.446563333333","25.0023516666667","6500100","板橋區"
"220101","245-BX","2018/07/24 19:49:22","新北市板橋區縣民大道三段93巷28號","121.474856666667","25.0224583333333","6500100","板橋區"
"220079","256-TC","2018/07/24 19:49:22","新北市板橋區中正路183巷20-3號","121.455905","25.01638","6500100","板橋區"
"220091","267-BY","2018/07/24 19:49:34","新北市板橋區懷德街174巷26號","121.478291666667","25.0292666666667","6500100","板橋區"
"220056","276-BY","2018/07/24 19:49:28","新北市板橋區四川路二段99巷2弄2號","121.452648333333","24.9945083333333","6500100","板橋區"
"220072","277-BY","2018/07/24 19:49:37","新北市板橋區篤行路二段59號","121.431808333333","24.99243","6500100","板橋區"
"220071","283-VK","2018/07/24 19:49:24","新北市板橋區五權街30巷16號","121.464218333333","24.99322","6500100","板橋區"
"220094","285-UM","2018/07/24 19:49:39","新北市板橋區長江路一段107號","121.459581666667","25.02974","6500100","板橋區"
"220053","285-VK","2018/07/24 19:49:35","新北市板橋區中山路二段60巷1弄23號","121.475083333333","25.01577","6500100","板橋區"
"220083","286-VK","2018/07/24 19:49:34","新北市板橋區僑中二街126巷2號","121.445416666667","25.0052566666667","6500100","板橋區"
"220081","287-VK","2018/07/24 19:49:21","新北市板橋區大觀路一段28巷107號","121.44991","25.012155","6500100","板橋區"
"220090","288-VK","2018/07/24 19:49:30","新北市板橋區龍泉街54巷7弄2號","121.456795","25.0266216666667","6500100","板橋區"
"220061","293-UM","2018/07/24 19:49:27","新北市板橋區觀光街35號","121.471228333333","25.0161766666667","6500100","板橋區"
"220062","295-UM","2018/07/24 19:49:30","新北市板橋區光復街10號","121.481293333333","25.019155","6500100","板橋區"
"220084","296-UM","2018/07/24 19:49:35","新北市板橋區溪崑二街96巷18號","121.426348333333","24.9894883333333","6500100","板橋區"
"242021","281-VK","2018/07/24 19:49:24","新北市新莊區建中街28號","121.44906","25.0374716666667","6500500","新莊區"
"220075","303-R5","2018/07/24 19:49:19","新北市板橋區金華街10巷48弄57-3號","121.458971666667","25.0202133333333","6500100","板橋區"
"220092","307-R5","2018/07/24 19:49:36","新北市板橋區陽明街164巷15號","121.463995","25.02445","6500100","板橋區"
"220098","317-R6","2018/07/24 19:49:26","新北市板橋區新海路407號","121.458501666667","25.02694","6500100","板橋區"
"220064","486-VK","2018/07/24 19:49:32","新北市板橋區館前東路106號","121.462931666667","25.00741","6500100","板橋區"
"220088","491-VK","2018/07/24 19:49:34","新北市板橋區文聖街130號","121.478325","25.028255","6500100","板橋區"
"220035","560-BX","2018/07/24 19:49:29","新北市板橋區金華街21巷17號","121.455978333333","25.020705","6500100","板橋區"
"220103","561-BX","2018/07/24 19:49:35","新北市板橋區陽明街29巷29號","121.464043333333","25.0224416666667","6500100","板橋區"
"220063","609-BX","2018/07/24 19:49:38","新北市板橋區三民路一段3巷2號","121.478906666667","25.0235016666667","6500100","板橋區"
"220057","686-BX","2018/07/24 19:49:28","新北市板橋區廣權路12號","121.460723333333","24.9912566666667","6500100","板橋區"
"220077","687-BX","2018/07/24 19:49:33","新北市板橋區僑中一街102巷3弄20號","121.445991666667","25.012415","6500100","板橋區"
"220093","689-BX","2018/07/24 19:49:38","新北市板橋區長江路二段333號","121.471713333333","25.0335516666667","6500100","板橋區"
"220054","741-BX","2018/07/24 19:49:40","新北市板橋區忠孝路忠義巷21弄2號","121.466955","25.0039983333333","6500100","板橋區"
"220102","KEA-2699","2018/07/24 19:49:39","新北市板橋區松柏街40號","121.475405","25.0302083333333","6500100","板橋區"
"220082","806-UM","2018/07/24 19:49:34","新北市板橋區存德街49號","121.431086666667","24.99141","6500100","板橋區"
"220055","827-TW","2018/07/24 19:49:33","新北市板橋區國慶路149巷4弄16-4號","121.461848333333","24.9970216666667","6500100","板橋區"
"220067","829-TW","2018/07/24 19:49:24","新北市板橋區長安街138巷1弄342號","121.474938333333","25.0113783333333","6500100","板橋區"
"220068","830-TW","2018/07/24 19:49:36","新北市板橋區中山路二段416巷36-1號","121.483081666667","25.0198066666667","6500100","板橋區"
"220096","831-TW","2018/07/24 19:49:29","新北市板橋區莊敬路175號","121.471046666667","25.02363","6500100","板橋區"
"220089","833-TW","2018/07/24 19:49:21","新北市板橋區龍泉街88-2號","121.456483333333","25.0253033333333","6500100","板橋區"
"220074","895-R6","2018/07/24 19:49:37","新北市板橋區文化路一段36號","121.45944","25.0117633333333","6500100","板橋區"
"220073","985-R7","2018/07/24 19:49:38","新北市板橋區大仁街114號","121.452715","25.0157983333333","6500100","板橋區"
"220097","AAC-210","2018/07/24 19:49:31","新北市板橋區文化路一段299-1號","121.464673333333","25.01918","6500100","板橋區"
"220070","AAC-253","2018/07/24 19:49:28","新北市板橋區成都街101號","121.463415","25.0053216666667","6500100","板橋區"
"235068","KEA-2873","2018/07/24 19:49:11","新北市中和區莊敬路16巷1號","121.499945","25.0042033333333","6500300","中和區"
"235061","KEA-2875","2018/07/24 19:49:20","新北市中和區員山路214號","121.481258333333","25.00087","6500300","中和區"
