"lineid","car","time","location","longitude","latitude","cityid","cityname"
"234081","298-R6","2018/07/24 20:39:24","新北市永和區永利路69號","121.519553333333","25.0048966666667","6500400","永和區"
"234064","337-UY","2018/07/24 20:39:41","新北市永和區保順路59號","121.502453333333","25.01147","6500400","永和區"
"234070","552-UM","2018/07/24 20:39:30","新北市板橋區中山路二段490號","121.485851666667","25.0217283333333","6500400","永和區"
"234030","746-BX","2018/07/24 20:39:33","新北市中和區中正路839巷1號","121.484843333333","25.0023316666667","6500400","永和區"
"234061","AAD-866","2018/07/24 20:36:17","新北市永和區秀安街5號","121.515343333333","25.0026883333333","6500400","永和區"
"234067","847-RS","2018/07/24 20:39:36","新北市中和區保平路231號","121.508041666667","25.004415","6500400","永和區"
"234042","862-TW","2018/07/24 20:39:27","新北市永和區安樂路348號","121.514481666667","25.0064133333333","6500400","永和區"
"234048","863-TW","2018/07/24 20:39:23","新北市永和區保安路144號","121.508496666667","25.0149466666667","6500400","永和區"
"249004","303-UY","2018/07/24 20:39:31","新北市八里區中山路一段157巷26號","121.412933333333","25.1581016666667","6502300","八里區"
"249001","759-BX","2018/07/24 20:39:38","新北市八里區中山路三段275號","121.378575","25.1390283333333","6502300","八里區"
"234023","9380-KE","2018/07/24 20:39:27","新北市永和區竹林路54號","121.517865","25.0141383333333","6500400","永和區"
"234077","969-R7","2018/07/24 20:39:37","新北市板橋區文化路二段652號","121.480285","25.0416016666667","6500400","永和區"
"234074","AAC-211","2018/07/24 20:39:23","新北市永和區竹林路119巷18弄1號","121.521145","25.0114033333333","6500400","永和區"
"244018","403-UM","2018/07/24 20:35:10","新北市林口區粉寮69號","121.405043333333","25.0908216666667","6501700","林口區"
"243016","380-SR","2018/07/24 20:39:42","新北市泰山區明志路二段189號","121.427675","25.049365","6501600","泰山區"
"243015","421-VK","2018/07/24 20:39:38","新北市泰山區泰林路三段778號","121.401016666667","25.07183","6501600","泰山區"
"243011","KEA-2215","2018/07/24 20:39:26","新北市泰山區明志路二段383號","121.42499","25.043775","6501600","泰山區"
"243012","646-TV","2018/07/24 20:39:21","新北市泰山區橫窠雅10-17號","121.41466","25.0673733333333","6501600","泰山區"
"222003","436-BY","2018/07/24 20:39:40","新北市深坑區阿柔洋25-1號","121.613116666667","24.9990583333333","6501800","深坑區"
"222002","659-BX","2018/07/24 20:39:23","新北市深坑區萬福路43號","121.599418333333","25.0068016666667","6501800","深坑區"
"231041","002-UM","2018/07/24 20:39:23","新北市新店區中正路543-4號","121.533766666667","24.9875083333333","6500600","新店區"
"231059","046-UY","2018/07/24 20:39:21","新北市新店區僑信路132巷1號","121.500715","24.9457433333333","6500600","新店區"
"231040","047-UY","2018/07/24 20:39:25","新北市新店區中正路270號","121.539043333333","24.9736916666667","6500600","新店區"
"231044","106-UY","2018/07/24 20:39:32","新北市新店區建國路257號","121.537375","24.9832116666667","6500600","新店區"
"231053","108-UY","2018/07/24 20:39:41","新北市新店區廣興路2-1號","121.54634","24.9117133333333","6500600","新店區"
"231048","187-VK","2018/07/24 20:39:30","新北市新店區寶慶街5號","121.544125","24.98668","6500600","新店區"
"231054","KEA-2219","2018/07/24 20:39:38","新北市新店區行政街45號","121.54306","24.965615","6500600","新店區"
"221038","KEA-2785","2018/07/24 20:39:36","新北市汐止區忠孝東路333號","121.665221666667","25.0697633333333","6501100","汐止區"
"231057","256-BX","2018/07/24 20:39:26","新北市新店區花園二路一段9-6號","121.556335","24.9328266666667","6500600","新店區"
"231042","268-BY","2018/07/24 20:39:25","新北市新店區寶橋路226號","121.551246666667","24.9787416666667","6500600","新店區"
"231051","278-BY","2018/07/24 20:39:27","新北市新店區中央七街120號","121.525213333333","24.9778833333333","6500600","新店區"
"231050","AAD-862","2018/07/24 20:39:36","新北市新店區建安街11號","121.539971666667","24.9753883333333","6500600","新店區"
"231058","3713-VJ","2018/07/24 20:39:28","新北市新店區平等街58號","121.535931666667","24.97256","6500600","新店區"
"231066","4716-K9","2018/07/24 20:39:23","新北市新店區安民街365巷1弄8號","121.516366666667","24.9751683333333","6500600","新店區"
"231056","4715-K9","2018/07/24 20:39:34","新北市新店區中央七街61巷30號","121.529573333333","24.975715","6500600","新店區"
"231067","4772-VM","2018/07/24 20:39:35","新北市新店區安華路28-1號","121.519876666667","24.9608166666667","6500600","新店區"
"231065","512-UM","2018/07/24 20:39:36","新北市新店區安祥路102巷148號","121.486843333333","24.9645166666667","6500600","新店區"
"231049","513-UM","2018/07/24 20:39:38","新北市新店區永業路81巷3弄1號","121.529891666667","24.949165","6500600","新店區"
"231063","616-UM","2018/07/24 20:39:30","新北市新店區玫瑰路4-1號","121.493621666667","24.951385","6500600","新店區"
"231045","617-UM","2018/07/24 20:39:30","新北市新店區長春路22號","121.549888333333","24.95747","6500600","新店區"
"231061","619-UM","2018/07/24 20:39:38","新北市新店區新和街34號","121.51922","24.9848583333333","6500600","新店區"
"231068","718-UY","2018/07/24 20:39:35","新北市新店區寶慶街35巷1弄2號","121.54316","24.98629","6500600","新店區"
"231064","719-UM","2018/07/24 20:39:23","新北市新店區安和路三段167號","121.516081666667","24.98588","6500600","新店區"
"231062","720-UM","2018/07/24 20:39:41","新北市新店區安泰路11巷1號","121.485531666667","24.9502","6500600","新店區"
"231060","897-TW","2018/07/24 20:39:39","新北市新店區安康路三段740號","121.47384","24.9419283333333","6500600","新店區"
"231043","899-TW","2018/07/24 20:39:35","新北市新店區博愛街13巷24號","121.540201666667","24.9739816666667","6500600","新店區"
"241011","013-R5","2018/07/24 20:39:22","新北市三重區龍濱路269號","121.501388333333","25.0728666666667","6500200","三重區"
"241028","022-UY","2018/07/24 20:39:30","新北市三重區光興街91號","121.497401666667","25.0599566666667","6500200","三重區"
"241008","059-VK","2018/07/24 20:39:27","新北市三重區下竹圍街91號","121.48111","25.0748416666667","6500200","三重區"
"241022","060-VK","2018/07/24 20:39:23","新北市三重區新北大道一段46巷18弄17號","121.488558333333","25.0620366666667","6500200","三重區"
"241031","061-VK","2018/07/24 20:39:24","新北市三重區重陽路一段113巷1弄49號","121.48807","25.05857","6500200","三重區"
"241015","062-VK","2018/07/24 20:39:26","新北市三重區文化北路103號","121.497855","25.0683933333333","6500200","三重區"
"241017","063-VK","2018/07/24 20:39:31","新北市三重區安慶街270號","121.490705","25.067655","6500200","三重區"
"241024","065-VK","2018/07/24 20:39:22","新北市三重區三民街220號","121.480216666667","25.0671816666667","6500200","三重區"
"241002","090-VK","2018/07/24 20:39:30","新北市三重區仁義街167巷9號","121.497436666667","25.0817166666667","6500200","三重區"
"241019","742-BX","2018/07/24 20:39:40","新北市三重區三張街23號","121.491851666667","25.0713516666667","6500200","三重區"
"241005","262-UM","2018/07/24 20:39:29","新北市三重區集賢路87-1號","121.49392","25.0869216666667","6500200","三重區"
"241009","265-UM","2018/07/24 20:39:31","新北市三重區永福街87號","121.479921666667","25.0775533333333","6500200","三重區"
"241016","266-UM","2018/07/24 20:39:37","新北市三重區長壽西街143-3號","121.494338333333","25.0666183333333","6500200","三重區"
"241032","269-UM","2018/07/24 20:39:25","新北市三重區重陽路一段120巷48號","121.485066666667","25.0601683333333","6500200","三重區"
"241013","270-UM","2018/07/24 20:39:38","新北市三重區仁賢街12-1號","121.495626666667","25.074865","6500200","三重區"
"241025","271-UM","2018/07/24 20:39:42","新北市三重區忠孝路三段99巷13號","121.479858333333","25.064625","6500200","三重區"
"241007","398-BY","2018/07/24 20:39:31","新北市三重區自強路四段4號","121.48836","25.076075","6500200","三重區"
"241026","413-TH","2018/07/24 20:39:23","新北市三重區文化南路7號","121.499973333333","25.062375","6500200","三重區"
"241035","462-BY","2018/07/24 20:39:38","新北市三重區正義北路388號","121.493166666667","25.071655","6500200","三重區"
"241004","475-VK","2018/07/24 20:39:35","新北市三重區仁愛街403號","121.491026666667","25.0810216666667","6500200","三重區"
"241030","480-VK","2018/07/24 20:39:38","新北市三重區成功路73巷12號","121.489418333333","25.051905","6500200","三重區"
"241014","543-UM","2018/07/24 20:39:32","新北市三重區萬壽街7號","121.499446666667","25.069335","6500200","三重區"
"241023","545-UM","2018/07/24 20:39:28","新北市三重區自由街35巷1號","121.479176666667","25.066885","6500200","三重區"
"241001","547-UM","2018/07/24 20:39:27","新北市三重區自強路三段110巷37號","121.485953333333","25.07462","6500200","三重區"
"241006","AAD-863","2018/07/24 20:39:37","新北市三重區車路頭街139巷14號","121.48429","25.076225","6500200","三重區"
"241018","887-TS","2018/07/24 20:39:25","新北市三重區自強路一段179號","121.492281666667","25.067845","6500200","三重區"
"241012","941-UM","2018/07/24 20:39:21","新北市三重區秀江街26號","121.502556666667","25.0730333333333","6500200","三重區"
"241029","942-UM","2018/07/24 20:39:26","新北市三重區集美街126巷27號","121.49008","25.0538233333333","6500200","三重區"
"241033","AAC-255","2018/07/24 20:39:25","新北市三重區神農街463號","121.474156666667","25.0577916666667","6500200","三重區"
"247010","KEA-2869","2018/07/24 20:39:39","新北市蘆洲區中山一路74巷55號","121.480013333333","25.0815","6501400","蘆洲區"
"235069","4980-A6","2018/07/24 20:39:40","新北市中和區新生街288號","121.483646666667","24.9965216666667","6500300","中和區"
"235042","551-UM","2018/07/24 20:39:37","新北市土城區承天路4巷3-3號","121.437828333333","24.9624583333333","6500300","中和區"
"247024","893-R6","2018/07/24 20:39:21","新北市蘆洲區長樂路159號","121.461971666667","25.088255","6501400","蘆洲區"
"247014","546-UM","2018/07/24 20:39:33","新北市蘆洲區中山一路234號","121.472903333333","25.08035","6501400","蘆洲區"
"247022","500-BY","2018/07/24 20:39:35","新北市蘆洲區中正路261號","121.467458333333","25.0873866666667","6501400","蘆洲區"
"247012","339-TH","2018/07/24 20:39:25","新北市蘆洲區集賢路224巷28號","121.481556666667","25.0874533333333","6501400","蘆洲區"
"247004","337-TH","2018/07/24 20:39:34","新北市蘆洲區長安街297號","121.458005","25.0848266666667","6501400","蘆洲區"
"247006","336-TH","2018/07/24 20:39:32","新北市蘆洲區和平路136號","121.467065","25.08059","6501400","蘆洲區"
"247008","056-VK","2018/07/24 20:39:33","新北市蘆洲區重陽街10號","121.48058","25.081255","6501400","蘆洲區"
"247016","007-UY","2018/07/24 20:39:39","新北市蘆洲區中山二路211號","121.470423333333","25.0803933333333","6501400","蘆洲區"
"247002","002-UY","2018/07/24 20:39:39","新北市蘆洲區永樂街74號","121.457086666667","25.088605","6501400","蘆洲區"
"247020","001-UY","2018/07/24 20:39:36","新北市蘆洲區民族路424-1號","121.473871666667","25.091935","6501400","蘆洲區"
"222001","KEA-2212","2018/07/24 20:39:24","新北市深坑區北深路三段230號","121.600706666667","25.0040283333333","6501800","深坑區"
"251001","011-UM","2018/07/24 20:39:28","新北市淡水區淡金路一段69號","121.458791666667","25.1731166666667","6501000","淡水區"
"251002","012-UM","2018/07/24 20:39:25","新北市淡水區中正路36號","121.443806666667","25.1693133333333","6501000","淡水區"
"251013","KEA-2871","2018/07/24 20:39:38","新北市淡水區下圭柔山28巷17號","121.457876666667","25.203895","6501000","淡水區"
"251016","179-VK","2018/07/24 20:39:41","新北市淡水區後洲子8-2號","121.449651666667","25.2240333333333","6501000","淡水區"
"251014","180-VK","2018/07/24 20:39:35","新北市淡水區桂竹圍10-1號","121.471081666667","25.2318466666667","6501000","淡水區"
"251015","181-VK","2018/07/24 20:39:37","新北市淡水區水源街二段194號","121.457155","25.1754533333333","6501000","淡水區"
"251010","413-VK","2018/07/24 20:39:23","新北市淡水區沙崙路181巷15號","121.42399","25.1843633333333","6501000","淡水區"
"251012","441-VK","2018/07/24 20:39:36","新北市淡水區興仁路108號","121.451716666667","25.2181533333333","6501000","淡水區"
"251007","442-VK","2018/07/24 20:39:34","新北市淡水區忠愛街4號","121.459503333333","25.1712916666667","6501000","淡水區"
"251006","561-UM","2018/07/24 20:39:36","新北市淡水區埤島80-7號","121.44903","25.1884433333333","6501000","淡水區"
"251009","575-R6","2018/07/24 20:39:26","新北市淡水區民權路187巷30弄3號","121.460568333333","25.1332383333333","6501000","淡水區"
"251003","673-BX","2018/07/24 20:39:29","新北市淡水區新民街152巷6弄22號","121.438733333333","25.1785433333333","6501000","淡水區"
"252002","178-VK","2018/07/24 20:39:32","新北市三芝區淡金路二段47-2號","121.503661666667","25.26051","6502100","三芝區"
"252001","292-VK","2018/07/24 20:39:41","新北市三芝區育英街29-1號","121.50129","25.2573683333333","6502100","三芝區"
"237005","AKY-6261","2018/07/24 20:39:33","新北市三峽區中山路459巷163-3號","121.349195","24.9333416666667","6500900","三峽區"
"236070","105-UM","2018/07/24 20:39:39","新北市土城區福安街102巷5弄13號","121.417086666667","24.96472","6501300","土城區"
"242034","AAC-296","2018/07/24 20:39:31","新北市新莊區中正路334巷16號","121.445708333333","25.0356183333333","6500500","新莊區"
"242058","986-R7","2018/07/24 20:39:36","新北市新莊區四維路149號","121.422676666667","25.022125","6500500","新莊區"
"242054","751-BX","2018/07/24 20:39:37","新北市新莊區西盛街323巷3號","121.42829","25.014785","6500500","新莊區"
"242029","705-TV","2018/07/24 20:39:39","新北市新莊區中華路二段41號","121.453298333333","25.046665","6500500","新莊區"
"242027","615-BX","2018/07/24 20:39:28","新北市新莊區思源路59號","121.459915","25.04029","6500500","新莊區"
"242025","613-BX","2018/07/24 20:39:16","新北市三重區重化街7號","121.467766666667","25.0644416666667","6500500","新莊區"
"242042","566-BX","2018/07/24 20:39:24","新北市新莊區中正路694巷47號","121.41792","25.0290683333333","6500500","新莊區"
"242046","497-BY","2018/07/24 20:39:31","新北市新莊區龍安路249巷1號","121.418653333333","25.0205833333333","6500500","新莊區"
"242051","441-UM","2018/07/24 20:39:36","新北市新莊區民安西路173巷5號","121.426761666667","25.015995","6500500","新莊區"
"242056","440-UM","2018/07/24 20:39:38","新北市新莊區瓊泰路57號","121.443355","25.028625","6500500","新莊區"
"242037","415-TV","2018/07/24 20:39:29","新北市新莊區建安街16號","121.428643333333","25.026475","6500500","新莊區"
"242007","413-TV","2018/07/24 20:39:35","新北市新莊區思源路287巷1弄1號","121.459363333333","25.0482916666667","6500500","新莊區"
"242044","400-BY","2018/07/24 20:39:32","新北市新莊區龍安路92號","121.417675","25.0207933333333","6500500","新莊區"
"242023","362-BY","2018/07/24 20:39:41","新北市新莊區化成路182號","121.465621666667","25.0458066666667","6500500","新莊區"
"242061","353-BY","2018/07/24 20:39:25","新北市新莊區新樹路258巷3號","121.432118333333","25.0155516666667","6500500","新莊區"
"242009","132-UY","2018/07/24 20:39:30","新北市新莊區福壽街99巷8弄4號","121.456801666667","25.05074","6500500","新莊區"
"242039","133-UY","2018/07/24 20:39:20","新北市新莊區瓊林路204-11號","121.437471666667","25.0212666666667","6500500","新莊區"
"242032","135-UY","2018/07/24 20:39:27","新北市新莊區福營路98號","121.436651666667","25.0329116666667","6500500","新莊區"
"242048","172-VK","2018/07/24 20:39:32","新北市新莊區中正路560號","121.42903","25.0309133333333","6500500","新莊區"
"242011","173-VK","2018/07/24 20:39:38","新北市新莊區中榮街104巷15號","121.447103333333","25.05362","6500500","新莊區"
"242017","175-VK","2018/07/24 20:39:25","新北市新莊區中平路82巷3號","121.44504","25.0449","6500500","新莊區"
"242015","347-TH","2018/07/24 20:39:39","新北市新莊區中和街2號","121.4485","25.0428433333333","6500500","新莊區"
"242002","349-TH","2018/07/24 20:39:37","新北市新莊區明中街11號","121.458725","25.0382916666667","6500500","新莊區"
"242019","350-TH","2018/07/24 20:39:36","新北市新莊區中港路2號","121.454948333333","25.0368016666667","6500500","新莊區"
"242013","351-TH","2018/07/24 20:39:37","新北市新莊區中和街184號","121.4475","25.0498283333333","6500500","新莊區"
"221008","489-VK","2018/07/24 20:39:30","新北市汐止區伯爵街1巷14號","121.641293333333","25.07512","6501100","汐止區"
"221036","130-UY","2018/07/24 20:39:37","新北市汐止區新昌路55號","121.66326","25.0687716666667","6501100","汐止區"
"221015","131-UY","2018/07/24 20:39:24","新北市汐止區建成路21號","121.664283333333","25.0725783333333","6501100","汐止區"
"221012","278-VK","2018/07/24 20:39:22","新北市汐止區汐萬路一段39號","121.654963333333","25.0690166666667","6501100","汐止區"
"221023","279-VK","2018/07/24 20:39:21","新北市汐止區明峰街13號","121.635068333333","25.071375","6501100","汐止區"
"221032","280-BY","2018/07/24 20:39:32","新北市汐止區橫科路407巷25弄17-5號","121.627278333333","25.0491566666667","6501100","汐止區"
"221027","281-BY","2018/07/24 20:39:40","新北市汐止區大同路二段567號","121.66288","25.0699116666667","6501100","汐止區"
"221033","297-VK","2018/07/24 20:39:33","台北市南港區合順街8巷7弄38號","121.620235","25.04188","6501100","汐止區"
"221029","298-VK","2018/07/24 20:39:35","新北市汐止區大同路一段415號","121.642255","25.0612316666667","6501100","汐止區"
"221021","299-VK","2018/07/24 20:39:33","新北市汐止區水源路一段280號","121.654173333333","25.0583716666667","6501100","汐止區"
"221031","353-TW","2018/07/24 20:39:38","新北市汐止區工建路31號","121.63878","25.0635083333333","6501100","汐止區"
"221035","622-UM","2018/07/24 20:39:32","新北市汐止區長江街101-5號","121.658805","25.0731483333333","6501100","汐止區"
"221025","623-UM","2018/07/24 20:39:32","新北市汐止區水源路二段185號","121.657756666667","25.0535416666667","6501100","汐止區"
"221002","707-TV","2018/07/24 20:39:29","新北市汐止區福德二路142號","121.630685","25.065145","6501100","汐止區"
"221018","753-BX","2018/07/24 20:39:37","新北市汐止區中華街57巷2號","121.66787","25.0714983333333","6501100","汐止區"
"220083","286-VK","2018/07/24 20:39:34","新北市板橋區僑中二街116巷35號","121.444195","25.00654","6500100","板橋區"
"242021","281-VK","2018/07/24 20:39:24","新北市新莊區中華路一段73號","121.452256666667","25.0401066666667","6500500","新莊區"
"220103","561-BX","2018/07/24 20:39:24","新北市板橋區漢生東路63巷1號","121.465853333333","25.0163316666667","6500100","板橋區"
"220068","830-TW","2018/07/24 20:39:36","新北市林口區汕頭32號","121.366676666667","25.13508","6500100","板橋區"
"220070","AAC-253","2018/07/24 20:39:28","新北市八里區下罟子8-10號","121.384611666667","25.144905","6500100","板橋區"
