"lineid","car","time","location","longitude","latitude","cityid","cityname"
"234070","552-UM","2018/07/24 20:49:10","新北市五股區中直路17-4號","121.422613333333","25.1113566666667","6500400","永和區"
"234023","9380-KE","2018/07/24 20:49:27","新北市永和區竹林路23號","121.517268333333","25.0146733333333","6500400","永和區"
"234077","969-R7","2018/07/24 20:49:37","新北市八里區荖阡坑路28-2號","121.403145","25.128055","6500400","永和區"
"234074","AAC-211","2018/07/24 20:49:21","新北市永和區環河東路二段10號","121.52214","25.013345","6500400","永和區"
"244018","403-UM","2018/07/24 20:35:10","新北市林口區粉寮69號","121.405043333333","25.0908216666667","6501700","林口區"
"222003","436-BY","2018/07/24 20:49:40","新北市深坑區文山路三段48-1號","121.609918333333","24.998505","6501800","深坑區"
"222002","659-BX","2018/07/24 20:49:23","新北市深坑區北深路三段93巷65號","121.603601666667","25.0010983333333","6501800","深坑區"
"231041","002-UM","2018/07/24 20:49:23","新北市新店區溪園路247號","121.524255","24.982695","6500600","新店區"
"231059","046-UY","2018/07/24 20:49:41","新北市新店區僑愛二路1號","121.499885","24.9450683333333","6500600","新店區"
"231040","047-UY","2018/07/24 20:49:25","新北市新店區中正路268號","121.539093333333","24.9737033333333","6500600","新店區"
"231044","106-UY","2018/07/24 20:49:32","新北市新店區中正路387號","121.534606666667","24.97707","6500600","新店區"
"231053","108-UY","2018/07/24 20:49:21","新北市新店區新烏路一段179-1號","121.545451666667","24.9341116666667","6500600","新店區"
"231048","187-VK","2018/07/24 20:49:30","新北市新店區寶元路一段109號","121.545695","24.9831266666667","6500600","新店區"
"231054","KEA-2219","2018/07/24 20:49:38","新北市新店區北新路一段96巷23號","121.54298","24.9688016666667","6500600","新店區"
"221038","KEA-2785","2018/07/24 20:49:36","新北市汐止區大同路二段184巷8號","121.653353333333","25.06398","6501100","汐止區"
"231042","268-BY","2018/07/24 20:49:25","新北市新店區寶高路120巷1號","121.554593333333","24.97604","6500600","新店區"
"231051","278-BY","2018/07/24 20:49:27","新北市新店區民生路156巷117號","121.526845","24.9824816666667","6500600","新店區"
"231050","AAD-862","2018/07/24 20:49:40","新北市新店區三民路20巷44號","121.53825","24.9716833333333","6500600","新店區"
"231058","3713-VJ","2018/07/24 20:49:28","新北市新店區安興路112號","121.515036666667","24.9776633333333","6500600","新店區"
"231066","4716-K9","2018/07/24 20:49:23","新北市新店區安民街365巷1弄8號","121.516458333333","24.9751666666667","6500600","新店區"
"231056","4715-K9","2018/07/24 20:49:21","新北市新店區安德街60巷35號","121.510745","24.9636966666667","6500600","新店區"
"231067","4772-VM","2018/07/24 20:49:34","新北市新店區安華路28-1號","121.519756666667","24.9609","6500600","新店區"
"231065","512-UM","2018/07/24 20:49:36","新北市新店區安祥路104巷6弄5號","121.481625","24.962925","6500600","新店區"
"231049","513-UM","2018/07/24 20:49:33","新北市新店區華潭街1巷9號","121.529333333333","24.9494366666667","6500600","新店區"
"231063","616-UM","2018/07/24 20:49:30","新北市新店區富貴街11巷34號","121.494801666667","24.9483533333333","6500600","新店區"
"231045","617-UM","2018/07/24 20:49:30","新北市新店區北新路一段91號","121.53885","24.961855","6500600","新店區"
"231061","619-UM","2018/07/24 20:49:38","新北市新店區新和街80號","121.520428333333","24.9858366666667","6500600","新店區"
"231068","718-UY","2018/07/24 20:49:35","新北市新店區寶元路一段107號","121.545555","24.982885","6500600","新店區"
"231064","719-UM","2018/07/24 20:49:30","新北市新店區安民街379巷5號","121.516033333333","24.9762033333333","6500600","新店區"
"231062","720-UM","2018/07/24 20:49:22","新北市新店區和成街12巷20號","121.488915","24.9476166666667","6500600","新店區"
"231060","897-TW","2018/07/24 20:49:39","新北市新店區安康路三段557號","121.476351666667","24.9443216666667","6500600","新店區"
"231043","899-TW","2018/07/24 20:49:35","新北市新店區建國路93號","121.540426666667","24.97678","6500600","新店區"
"241011","013-R5","2018/07/24 20:49:22","新北市三重區龍濱路231號","121.5017","25.0720816666667","6500200","三重區"
"241028","022-UY","2018/07/24 20:49:30","新北市三重區中正南路41巷1號","121.493901666667","25.059895","6500200","三重區"
"241008","059-VK","2018/07/24 20:49:27","新北市三重區永福街72巷11號","121.479445","25.07674","6500200","三重區"
"241022","060-VK","2018/07/24 20:49:23","新北市三重區過圳街27-5號","121.488045","25.0624083333333","6500200","三重區"
"241031","061-VK","2018/07/24 20:49:25","新北市三重區重陽路一段113巷3號","121.487541666667","25.0598083333333","6500200","三重區"
"241015","062-VK","2018/07/24 20:49:26","新北市三重區自強路一段12號","121.498841666667","25.06813","6500200","三重區"
"241017","063-VK","2018/07/24 20:49:31","新北市三重區民生街24號","121.491858333333","25.06722","6500200","三重區"
"241024","065-VK","2018/07/24 20:49:22","新北市三重區國道路一段58巷15號","121.48141","25.0720483333333","6500200","三重區"
"241002","090-VK","2018/07/24 20:49:30","新北市三重區仁義街157巷64號","121.498461666667","25.0816933333333","6500200","三重區"
"241019","742-BX","2018/07/24 20:49:40","新北市三重區明德街16號","121.49276","25.0720766666667","6500200","三重區"
"241005","262-UM","2018/07/24 20:49:29","新北市三重區五華街141巷22號","121.49179","25.0852916666667","6500200","三重區"
"241009","265-UM","2018/07/24 20:49:31","新北市三重區三和路四段398-2號","121.481471666667","25.0794633333333","6500200","三重區"
"241016","266-UM","2018/07/24 20:49:37","新北市三重區自強路一段103號","121.495578333333","25.06635","6500200","三重區"
"241032","269-UM","2018/07/24 20:49:25","新北市三重區重陽路一段120巷46號","121.485093333333","25.0601483333333","6500200","三重區"
"241013","270-UM","2018/07/24 20:49:37","新北市三重區仁賢街12-1號","121.495691666667","25.0748916666667","6500200","三重區"
"241025","271-UM","2018/07/24 20:49:23","新北市三重區貴陽街21號","121.484261666667","25.061885","6500200","三重區"
"241007","398-BY","2018/07/24 20:49:31","新北市三重區慈愛街10號","121.484546666667","25.07839","6500200","三重區"
"241026","413-TH","2018/07/24 20:49:23","新北市三重區文化南路3號","121.499978333333","25.062395","6500200","三重區"
"241004","475-VK","2018/07/24 20:49:35","新北市三重區分子尾街52號","121.48919","25.0814583333333","6500200","三重區"
"241030","480-VK","2018/07/24 20:49:38","新北市三重區昌隆街26號","121.49201","25.0522866666667","6500200","三重區"
"241014","543-UM","2018/07/24 20:49:32","新北市三重區長壽街120巷60號","121.501803333333","25.0703583333333","6500200","三重區"
"241023","545-UM","2018/07/24 20:49:28","新北市三重區忠孝路三段84巷5號","121.480226666667","25.0643766666667","6500200","三重區"
"241001","547-UM","2018/07/24 20:49:27","新北市三重區三和路四段124號","121.489226666667","25.07519","6500200","三重區"
"241006","AAD-863","2018/07/24 20:49:37","新北市三重區車路頭街135-1號","121.48425","25.07612","6500200","三重區"
"241018","887-TS","2018/07/24 20:49:25","新北市三重區正義北路281-1號","121.495043333333","25.0702733333333","6500200","三重區"
"241012","941-UM","2018/07/24 20:49:41","新北市三重區仁信街27號","121.501276666667","25.0755833333333","6500200","三重區"
"241029","942-UM","2018/07/24 20:49:26","新北市三重區重安街18號","121.490366666667","25.0580883333333","6500200","三重區"
"241033","AAC-255","2018/07/24 20:49:25","新北市三重區光復路二段1號","121.47235","25.05326","6500200","三重區"
"247010","KEA-2869","2018/07/24 20:49:19","新北市蘆洲區鷺江街91號","121.476905","25.0837883333333","6501400","蘆洲區"
"235069","4980-A6","2018/07/24 20:49:40","新北市中和區新生街247號","121.483963333333","24.9987516666667","6500300","中和區"
"247024","893-R6","2018/07/24 20:49:21","新北市蘆洲區長樂路136號","121.462278333333","25.0901033333333","6501400","蘆洲區"
"247022","500-BY","2018/07/24 20:49:35","新北市蘆洲區水湳街52號","121.471191666667","25.0899083333333","6501400","蘆洲區"
"247012","339-TH","2018/07/24 20:49:28","新北市蘆洲區集賢路222巷13號","121.481985","25.08735","6501400","蘆洲區"
"247004","337-TH","2018/07/24 20:49:34","新北市蘆洲區長安街101號","121.461545","25.0807816666667","6501400","蘆洲區"
"247006","336-TH","2018/07/24 20:49:32","新北市蘆洲區永安南路二段42-1號","121.466626666667","25.0773566666667","6501400","蘆洲區"
"247016","007-UY","2018/07/24 20:49:39","新北市蘆洲區中山二路134號","121.47153","25.0814533333333","6501400","蘆洲區"
"247002","002-UY","2018/07/24 20:49:31","新北市蘆洲區長安街242號","121.457643333333","25.0860716666667","6501400","蘆洲區"
"247020","001-UY","2018/07/24 20:49:36","新北市蘆洲區仁愛街75號","121.471401666667","25.0938183333333","6501400","蘆洲區"
"222001","KEA-2212","2018/07/24 20:49:24","新北市深坑區北深路三段133號","121.604","25.002485","6501800","深坑區"
"251001","011-UM","2018/07/24 20:49:28","新北市淡水區淡金路一段69號","121.458781666667","25.1731366666667","6501000","淡水區"
"251002","012-UM","2018/07/24 20:49:25","新北市淡水區中正東路6號","121.447051666667","25.1670316666667","6501000","淡水區"
"251013","KEA-2871","2018/07/24 20:49:38","新北市淡水區行忠路116號","121.45249","25.1989766666667","6501000","淡水區"
"251016","179-VK","2018/07/24 20:49:21","新北市淡水區淡金路四段469號","121.451743333333","25.2238566666667","6501000","淡水區"
"251014","180-VK","2018/07/24 20:49:35","新北市淡水區公埔子32-8號","121.461651666667","25.2323533333333","6501000","淡水區"
"251015","181-VK","2018/07/24 20:49:37","新北市淡水區淡金路三段212號","121.448941666667","25.2041566666667","6501000","淡水區"
"251010","413-VK","2018/07/24 20:49:23","新北市淡水區沙崙路141-1號","121.423321666667","25.18303","6501000","淡水區"
"251012","441-VK","2018/07/24 20:49:36","新北市淡水區淡金路四段514號","121.452068333333","25.2257833333333","6501000","淡水區"
"251007","442-VK","2018/07/24 20:49:34","新北市淡水區鄧公路23巷2號","121.45123","25.1700633333333","6501000","淡水區"
"251009","575-R6","2018/07/24 20:49:27","新北市淡水區民權路187巷34號","121.460608333333","25.133485","6501000","淡水區"
"251011","650-BX","2018/07/24 20:49:25","新北市淡水區新民街一段13-1號","121.433075","25.1845933333333","6501000","淡水區"
"251003","673-BX","2018/07/24 20:49:29","新北市淡水區中山北路一段247巷92號","121.442276666667","25.1794516666667","6501000","淡水區"
"237005","AKY-6261","2018/07/24 20:49:33","新北市三峽區中山路459巷163-3號","121.34881","24.9328183333333","6500900","三峽區"
"242034","AAC-296","2018/07/24 20:49:39","新北市新莊區中正路411號","121.444901666667","25.0344466666667","6500500","新莊區"
"242058","986-R7","2018/07/24 20:49:36","新北市新莊區民安路138號","121.424171666667","25.0253866666667","6500500","新莊區"
"242029","705-TV","2018/07/24 20:49:18","新北市新莊區新泰路202號","121.447158333333","25.0385316666667","6500500","新莊區"
"242027","615-BX","2018/07/24 20:49:28","新北市新莊區環河路636-7號","121.436966666667","25.0110316666667","6500500","新莊區"
"242042","566-BX","2018/07/24 20:49:39","新北市新莊區天祥街47巷27號","121.41623","25.027975","6500500","新莊區"
"242046","497-BY","2018/07/24 20:49:31","新北市樹林區環河路10-1號","121.424858333333","24.9764166666667","6500500","新莊區"
"242051","441-UM","2018/07/24 20:49:26","新北市新莊區民安西路52號","121.42741","25.0206616666667","6500500","新莊區"
"242056","440-UM","2018/07/24 20:49:38","新北市新莊區環漢路三段1號","121.442248333333","25.0239733333333","6500500","新莊區"
"242037","415-TV","2018/07/24 20:49:43","新北市新莊區中正路453-1號","121.442771666667","25.0339816666667","6500500","新莊區"
"242044","400-BY","2018/07/24 20:49:32","新北市新莊區龍安路108號","121.418345","25.0205016666667","6500500","新莊區"
"242023","362-BY","2018/07/24 20:49:24","新北市新莊區環河路116-1號","121.460646666667","25.03789","6500500","新莊區"
"242009","132-UY","2018/07/24 20:49:30","新北市新莊區幸福路558號","121.454648333333","25.04943","6500500","新莊區"
"242039","133-UY","2018/07/24 20:49:40","新北市新莊區環河路658號","121.43624","25.0079283333333","6500500","新莊區"
"242048","172-VK","2018/07/24 20:49:32","新北市新莊區瓊林南路61-71號","121.439605","25.01801","6500500","新莊區"
"242002","349-TH","2018/07/24 20:49:37","新北市新莊區中港路五守新村37巷1號","121.454495","25.0388016666667","6500500","新莊區"
"242019","350-TH","2018/07/24 20:49:36","新北市新莊區環漢路三段532號","121.435375","25.0007166666667","6500500","新莊區"
"242013","351-TH","2018/07/24 20:49:23","新北市新莊區瓊林路108號","121.442205","25.026635","6500500","新莊區"
"221015","131-UY","2018/07/24 20:49:23","新北市汐止區大同路二段605號","121.66404","25.070665","6501100","汐止區"
"221027","281-BY","2018/07/24 20:49:20","新北市汐止區汐萬路一段117號","121.654181666667","25.0709816666667","6501100","汐止區"
"221029","298-VK","2018/07/24 20:49:35","新北市汐止區汐萬路一段256巷1號","121.651846666667","25.0748433333333","6501100","汐止區"
"221035","622-UM","2018/07/24 20:49:32","新北市汐止區康寧街901號","121.650755","25.0752733333333","6501100","汐止區"
"221002","707-TV","2018/07/24 20:49:36","新北市汐止區福德二路189號","121.630098333333","25.0649766666667","6501100","汐止區"
"221018","753-BX","2018/07/24 20:49:37","新北市汐止區大同路二段362號","121.657336666667","25.0672183333333","6501100","汐止區"
"220083","286-VK","2018/07/24 20:49:34","新北市樹林區環河路2號","121.427893333333","24.978875","6500100","板橋區"
"220070","AAC-253","2018/07/24 20:49:28","新北市林口區汕頭32號","121.366891666667","25.1350733333333","6500100","板橋區"
