"lineid","car","time","location","longitude","latitude","cityid","cityname"
"234077","969-R7","2018/07/24 21:39:37","新北市中和區環河西路三段123號","121.489416666667","25.0103233333333","6500400","永和區"
"243001","297-R6","2018/07/24 21:15:05","新北市泰山區黎明路31號","121.421733333333","25.0605916666667","6501600","泰山區"
"231063","616-UM","2018/07/24 21:39:30","新北市新店區安康路二段382號","121.500515","24.9570316666667","6500600","新店區"
"241005","262-UM","2018/07/24 21:39:29","新北市三重區仁華街2號","121.483411666667","25.0811716666667","6500200","三重區"
"241001","547-UM","2018/07/24 21:39:27","新北市五股區中直路11-15號","121.426223333333","25.1098616666667","6500200","三重區"
"241006","AAD-863","2018/07/24 21:39:38","新北市林口區太平里180號","121.368578333333","25.13387","6500200","三重區"
"247010","KEA-2869","2018/07/24 21:39:39","新北市八里區荖阡坑路24-2號","121.39941","25.1333983333333","6501400","蘆洲區"
"247012","339-TH","2018/07/24 21:39:44","新北市五股區中直路15-2號","121.423741666667","25.1109066666667","6501400","蘆洲區"
"251004","009-UM","2018/07/24 21:39:28","新北市淡水區民生路27號","121.461278333333","25.1379466666667","6501000","淡水區"
"251005","010-UM","2018/07/24 21:39:34","新北市淡水區鄧公路19-1號","121.450325","25.1699283333333","6501000","淡水區"
"251001","011-UM","2018/07/24 21:39:28","新北市淡水區新市二路三段152號","121.435371666667","25.1942466666667","6501000","淡水區"
"251002","012-UM","2018/07/24 21:39:25","新北市淡水區學府路156號","121.446535","25.174495","6501000","淡水區"
"251016","179-VK","2018/07/24 21:39:41","新北市淡水區淡金路三段28號","121.44786","25.1988933333333","6501000","淡水區"
"251014","180-VK","2018/07/24 21:39:35","新北市淡水區下圭柔山431-1號","121.450031666667","25.2114683333333","6501000","淡水區"
"251010","413-VK","2018/07/24 21:39:23","新北市淡水區沙崙路236號","121.42559","25.1846233333333","6501000","淡水區"
"251012","441-VK","2018/07/24 21:39:36","新北市淡水區淡金路四段207號","121.451686666667","25.222065","6501000","淡水區"
"251007","442-VK","2018/07/24 21:39:34","新北市淡水區水源街二段194號","121.45684","25.176025","6501000","淡水區"
"251008","443-VK","2018/07/24 21:39:32","新北市淡水區水源街二段2號","121.44871","25.1732983333333","6501000","淡水區"
"251006","561-UM","2018/07/24 21:39:36","新北市淡水區中正路11巷3號","121.437821666667","25.1707516666667","6501000","淡水區"
"251009","575-R6","2018/07/24 21:39:06","新北市淡水區民生路52巷26號","121.46267","25.137565","6501000","淡水區"
"251011","650-BX","2018/07/24 21:39:35","新北市淡水區新民街322巷2號","121.435326666667","25.1834833333333","6501000","淡水區"
"251003","673-BX","2018/07/24 21:39:29","新北市淡水區新春街48號","121.438026666667","25.1819183333333","6501000","淡水區"
"220070","AAC-253","2018/07/24 21:39:28","新北市板橋區華東街1-9號","121.448191666667","24.99495","6500100","板橋區"
