"lineid","car","time","location","longitude","latitude","cityid","cityname"
"241005","262-UM","2018/07/24 22:09:29","新北市八里區商港路120號","121.392798333333","25.150065","6500200","三重區"
"241006","AAD-863","2018/07/24 22:09:37","新北市五股區中興路三段198號","121.44112","25.0820833333333","6500200","三重區"
"235010","733-UM","2018/07/24 21:45:38","新北市中和區員山路36巷13號","121.484201666667","24.9907966666667","6500300","中和區"
"251004","009-UM","2018/07/24 22:09:28","新北市淡水區民族路110巷4號","121.462291666667","25.1354783333333","6501000","淡水區"
"251005","010-UM","2018/07/24 22:09:34","新北市淡水區鄧公路35巷19弄8號","121.452731666667","25.1717416666667","6501000","淡水區"
"251002","012-UM","2018/07/24 22:09:25","新北市淡水區崁頂78-5號","121.429553333333","25.2069383333333","6501000","淡水區"
"251010","413-VK","2018/07/24 22:09:23","新北市淡水區沙崙路200號","121.424628333333","25.1838633333333","6501000","淡水區"
"251007","442-VK","2018/07/24 22:09:34","新北市淡水區北新路139號","121.449471666667","25.178875","6501000","淡水區"
"251008","443-VK","2018/07/24 22:09:32","新北市淡水區學府路116號","121.450333333333","25.172295","6501000","淡水區"
"251011","650-BX","2018/07/24 22:09:25","新北市淡水區水碓街15-1號","121.443191666667","25.1772283333333","6501000","淡水區"
