"lineid","car","time","location","longitude","latitude","cityid","cityname"
"241005","262-UM","2018/07/24 22:29:29","新北市五股區孝義路9-17號","121.449183333333","25.1068716666667","6500200","三重區"
"251004","009-UM","2018/07/24 22:29:28","新北市淡水區民族路84號","121.462315","25.1355533333333","6501000","淡水區"
"251002","012-UM","2018/07/24 22:29:25","新北市淡水區下圭柔山91-2號","121.430561666667","25.20941","6501000","淡水區"
"251010","413-VK","2018/07/24 22:29:23","新北市淡水區沙崙路200號","121.424765","25.18388","6501000","淡水區"
"251007","442-VK","2018/07/24 22:29:34","新北市淡水區北新路139號","121.449475","25.1789083333333","6501000","淡水區"
"251008","443-VK","2018/07/24 22:29:32","新北市淡水區學府路104號","121.449855","25.1718966666667","6501000","淡水區"
"251011","650-BX","2018/07/24 22:29:25","新北市淡水區水碓街5號","121.443166666667","25.17704","6501000","淡水區"
