"lineid","car","time","location","longitude","latitude","cityid","cityname"
"248005","653-BX","2018/06/07 09:59:42","新北市五股區蓬萊路6巷41號","121.435846666667","25.0802433333333","6501500","五股區"
"244018","403-UM","2018/06/07 09:59:42","新北市林口區麗園二街1巷1-2號","121.376908333333","25.0696233333333","6501700","林口區"
"244022","483-VK","2018/06/07 09:59:40","新北市林口區文林六街62巷26號","121.371793333333","25.0818233333333","6501700","林口區"
"244016","485-VK","2018/06/07 09:59:30","新北市林口區頂福里82號","121.371065","25.0831966666667","6501700","林口區"
"222006","289-BY","2018/06/07 09:59:43","新北市深坑區王軍寮2-1號","121.618343333333","24.98658","6501800","深坑區"
"231069","189-VK","2018/06/07 09:59:32","新北市新店區新潭路三段215巷25號","121.508126666667","24.9040516666667","6500600","新店區"
"231008","192-VK","2018/06/07 09:39:31","新北市新店區平廣路一段256號","121.507878333333","24.888215","6500600","新店區"
"252004","249-BX","2018/06/07 09:59:46","新北市三芝區福德里埔尾32-2號","121.507916666667","25.238975","6502100","三芝區"
"252007","AAC-283","2018/06/07 09:59:46","新北市三芝區新庄里新庄子51-25號","121.507565","25.2781533333333","6502100","三芝區"
"237001","159-UY","2018/06/07 09:59:40","新北市三峽區國學街57號","121.372308333333","24.9431133333333","6500900","三峽區"
"236005","498-BY","2018/06/07 09:59:34","新北市土城區中央路二段390巷43號","121.438073333333","24.9722166666667","6501300","土城區"
"242059","353-BY","2018/06/07 09:59:30","新北市新莊區新樹路40號","121.437815","25.0282816666667","6500500","新莊區"
"242030","135-UY","2018/06/07 09:59:48","新北市新莊區中正路535-11號","121.437495","25.0329783333333","6500500","新莊區"
