"lineid","car","time","location","longitude","latitude","cityid","cityname"
"248005","653-BX","2018/06/07 10:09:42","新北市五股區新五路二段236號","121.439991666667","25.080845","6501500","五股區"
"244018","403-UM","2018/06/07 10:09:42","新北市林口區寶林路42號","121.385038333333","25.0844016666667","6501700","林口區"
"244022","483-VK","2018/06/07 10:09:40","新北市林口區文化三路一段617巷16號","121.370926666667","25.077615","6501700","林口區"
"244016","485-VK","2018/06/07 10:09:50","新北市林口區中湖49-1號","121.375545","25.0902616666667","6501700","林口區"
"222006","289-BY","2018/06/07 10:09:23","新北市深坑區大崙尾1-1號","121.615595","24.9751183333333","6501800","深坑區"
"231069","189-VK","2018/06/07 10:09:32","新北市新店區新潭路三段215巷25號","121.508085","24.9040766666667","6500600","新店區"
"231008","192-VK","2018/06/07 10:09:41","新北市新店區小坑一路12-6號","121.534871666667","24.912635","6500600","新店區"
"252004","249-BX","2018/06/07 10:09:46","新北市三芝區中正路三段30號","121.502216666667","25.252465","6502100","三芝區"
"252007","AAC-283","2018/06/07 10:09:47","新北市三芝區古庄里古庄103-1號","121.494553333333","25.2719333333333","6502100","三芝區"
"236005","498-BY","2018/06/07 10:09:34","新北市土城區城林路6巷80號","121.438705","24.9797683333333","6501300","土城區"
