"lineid","car","time","location","longitude","latitude","cityid","cityname"
"248005","653-BX","2018/06/07 10:19:42","新北市五股區中興路二段57-6號","121.460466666667","25.0754566666667","6501500","五股區"
"244022","483-VK","2018/06/07 10:19:40","新北市林口區民富街99號","121.370473333333","25.0754216666667","6501700","林口區"
"244016","485-VK","2018/06/07 10:19:30","新北市林口區中湖49-1號","121.375568333333","25.09027","6501700","林口區"
"222006","289-BY","2018/06/07 10:19:43","新北市深坑區王軍寮2-1號","121.618713333333","24.985385","6501800","深坑區"
"231069","189-VK","2018/06/07 10:19:32","新北市新店區新潭路三段215巷25號","121.5081","24.9040733333333","6500600","新店區"
"231008","192-VK","2018/06/07 10:18:41","新北市新店區小坑一路73巷6號","121.530186666667","24.9084516666667","6500600","新店區"
"252007","AAC-283","2018/06/07 10:19:48","新北市三芝區新庄里番社后18號","121.496865","25.2744166666667","6502100","三芝區"
