"lineid","car","time","location","longitude","latitude","cityid","cityname"
"234044","148-BY","2018/06/07 13:39:36","新北市永和區秀朗路二段88號","121.523466666667","25.0016933333333","6500400","永和區"
"234005","207-UY","2018/06/07 13:39:53","新北市永和區永和路一段122號","121.513916666667","25.0078033333333","6500400","永和區"
"234078","298-R6","2018/06/07 13:39:50","新北市永和區國中路104巷8弄22號","121.525328333333","25.0063466666667","6500400","永和區"
"234036","336-UY","2018/06/07 13:39:41","新北市永和區民樂街29號","121.527726666667","25.0014916666667","6500400","永和區"
"234062","337-UY","2018/06/07 13:39:44","新北市永和區秀朗路二段24巷37號","121.520045","25.00193","6500400","永和區"
"234084","338-UY","2018/06/07 13:39:41","新北市永和區林森路29巷2號","121.526166666667","25.0051116666667","6500400","永和區"
"234068","552-UM","2018/06/07 13:39:44","新北市永和區永和路二段235號","121.515651666667","25.0142733333333","6500400","永和區"
"234015","745-BX","2018/06/07 13:39:53","新北市永和區忠孝街26巷8號","121.515395","25.01667","6500400","永和區"
"234028","746-BX","2018/06/07 13:39:45","新北市永和區民權路29巷8號","121.520503333333","24.9978333333333","6500400","永和區"
"234052","KEA-2590","2018/06/07 13:39:45","新北市永和區竹林路39巷17號","121.518681666667","25.0147033333333","6500400","永和區"
"234012","KEA-2591","2018/06/07 13:39:38","新北市永和區永平路222號","121.509108333333","25.0105916666667","6500400","永和區"
"234060","AAD-866","2018/06/07 13:39:51","新北市永和區中正路470號","121.517341666667","25.0030916666667","6500400","永和區"
"234040","862-TW","2018/06/07 13:39:29","新北市永和區中和路373號","121.508221666667","24.9998083333333","6500400","永和區"
"234048","863-TW","2018/06/07 13:39:50","新北市永和區保安路35號","121.5098","25.01617","6500400","永和區"
"234010","9373-KE","2018/06/07 13:39:44","新北市永和區永平路218巷20號","121.510105","25.01095","6500400","永和區"
"248015","026-BX","2018/06/07 13:39:47","新北市五股區凌雲路一段149巷13-1號","121.448591666667","25.10088","6501500","五股區"
"248005","077-UY","2018/06/07 13:39:53","新北市五股區中興路一段19號","121.469163333333","25.0722533333333","6501500","五股區"
"248007","095-VK","2018/06/07 13:39:35","新北市五股區中興路一段150巷13-1號","121.464656666667","25.0744983333333","6501500","五股區"
"248017","225-UY","2018/06/07 13:39:39","新北市五股區民義路二段50-1號","121.411801666667","25.103025","6501500","五股區"
"248011","247-BX","2018/06/07 13:39:54","新北市五股區成泰路三段2巷1-20號","121.44124","25.08662","6501500","五股區"
"248013","261-SL","2018/06/07 13:39:36","新北市五股區成泰路一段142號","121.434986666667","25.0759766666667","6501500","五股區"
"248009","272-BY","2018/06/07 13:39:52","新北市五股區水碓九路140號","121.430235","25.0730733333333","6501500","五股區"
"248003","677-BX","2018/06/07 13:39:47","新北市五股區民義路一段236-6號","121.427488333333","25.0912216666667","6501500","五股區"
"248001","678-BX","2018/06/07 13:39:40","新北市五股區西雲路247號","121.449268333333","25.0978466666667","6501500","五股區"
"234076","969-R7","2018/06/07 13:39:44","新北市永和區民權路44號","121.520215","24.9986466666667","6500400","永和區"
"234072","AAC-211","2018/06/07 13:39:46","新北市永和區竹林路213巷34號","121.52263","25.0090283333333","6500400","永和區"
"234066","AAC-212","2018/06/07 13:39:45","新北市永和區中山路一段191巷9弄14號","121.510061666667","25.0082566666667","6500400","永和區"
"234001","AAC-295","2018/06/07 13:39:39","新北市永和區永和路一段114號","121.51382","25.0073516666667","6500400","永和區"
"244003","248-BX","2018/06/07 13:39:38","新北市林口區瑞平里52-3號","121.341385","25.124525","6501700","林口區"
"243005","AAD-798","2018/06/07 13:28:33","新北市泰山區明志路三段206巷3號","121.423298333333","25.0379216666667","6501600","泰山區"
"243007","421-VK","2018/06/07 13:39:52","新北市泰山區犁頭窠3-1號","121.422108333333","25.060575","6501600","泰山區"
"243003","KEA-2215","2018/06/07 13:39:42","新北市泰山區黎明路25號","121.421966666667","25.0606366666667","6501600","泰山區"
"243004","646-TV","2018/06/07 13:39:43","新北市泰山區福興三街13號","121.434443333333","25.0577516666667","6501600","泰山區"
"231002","002-UM","2018/06/07 13:39:51","新北市新店區溪園路509號","121.52395","24.9769516666667","6500600","新店區"
"231027","0291-UT","2018/06/07 13:39:52","新北市新店區北宜路一段105巷4弄1號","121.539883333333","24.955475","6500600","新店區"
"231028","046-UY","2018/06/07 13:39:47","新北市新店區安和路二段1-1號","121.517933333333","24.967085","6500600","新店區"
"231001","047-UY","2018/06/07 13:39:42","新北市新店區中正路397號","121.534538333333","24.97726","6500600","新店區"
"231021","108-UY","2018/06/07 13:39:44","新北市新店區永興路132-3號","121.54482","24.931635","6500600","新店區"
"231011","187-VK","2018/06/07 13:39:39","新北市新店區德正街29號","121.544618333333","24.9714066666667","6500600","新店區"
"231010","188-VK","2018/06/07 13:39:39","新北市新店區平等街46巷15號","121.535771666667","24.9734866666667","6500600","新店區"
"231023","KEA-2219","2018/06/07 13:39:43","新北市新店區新店路157號","121.53711","24.9551733333333","6500600","新店區"
"231026","256-BX","2018/06/07 13:39:49","新北市新店區北新路一段303號","121.541403333333","24.967435","6500600","新店區"
"231003","268-BY","2018/06/07 13:37:12","新北市新店區北新路一段96巷23號","121.542761666667","24.9686983333333","6500600","新店區"
"231018","278-BY","2018/06/07 13:39:46","新北市新店區百忍街37號","121.533508333333","24.9758633333333","6500600","新店區"
"231017","AAD-862","2018/06/07 13:39:25","新北市新店區竹林路2巷21-1號","121.550328333333","24.95112","6500600","新店區"
"231005","355-BY","2018/06/07 13:39:40","新北市新店區寶中路72號","121.54781","24.98058","6500600","新店區"
"231038","3712-VJ","2018/06/07 13:39:42","新北市新店區安華路30巷1號","121.519556666667","24.9592533333333","6500600","新店區"
"231037","4716-K9","2018/06/07 13:39:49","新北市新店區薏仁坑路31號","121.494403333333","24.9618283333333","6500600","新店區"
"231025","4715-K9","2018/06/07 13:39:47","新北市新店區中央六街52號","121.52811","24.9756733333333","6500600","新店區"
"231036","512-UM","2018/06/07 13:39:49","新北市新店區安祥路147巷26號","121.4758","24.956355","6500600","新店區"
"231013","513-UM","2018/06/07 13:39:47","新北市新店區中正路454-5號","121.534588333333","24.97899","6500600","新店區"
"231030","619-UM","2018/06/07 13:39:42","新北市新店區安康路一段300-2號","121.518788333333","24.9639766666667","6500600","新店區"
"231034","641-BX","2018/06/07 13:39:41","新北市新店區車子路143號","121.504298333333","24.947655","6500600","新店區"
"231035","719-UM","2018/06/07 13:39:37","新北市新店區安忠路56巷6號","121.512963333333","24.9594783333333","6500600","新店區"
"231031","720-UM","2018/06/07 13:39:45","新北市新店區安康路一段355號","121.51984","24.96322","6500600","新店區"
"231029","897-TW","2018/06/07 13:39:45","新北市新店區安康路二段266號","121.50859","24.9588233333333","6500600","新店區"
"231006","898-TW","2018/06/07 13:39:37","新北市新店區北宜路一段76號","121.538655","24.9558633333333","6500600","新店區"
"231004","899-TW","2018/06/07 13:39:52","新北市新店區北新路二段7號","121.542735","24.971325","6500600","新店區"
"231024","AKT-0513","2018/06/07 13:39:37","新北市新店區中華路47巷2弄1號","121.539691666667","24.96757","6500600","新店區"
"235028","005-UY","2018/06/07 13:39:46","新北市中和區連城路109巷23號","121.496841666667","24.9988233333333","6500300","中和區"
"235027","006-UY","2018/06/07 13:39:37","新北市中和區連城路389巷20號","121.486565","24.9950833333333","6500300","中和區"
"235020","096-UM","2018/06/07 13:39:54","新北市中和區員山路466巷21弄4號","121.481028333333","25.0066566666667","6500300","中和區"
"235003","097-UM","2018/06/07 13:39:47","新北市中和區景平路278巷14弄16號","121.51492","24.9931016666667","6500300","中和區"
"235029","098-UM","2018/06/07 13:39:38","新北市中和區中山路二段2巷81弄2號","121.500773333333","25.00732","6500300","中和區"
"235004","150-BY","2018/06/07 13:39:35","新北市中和區安平路59號","121.50951","24.9952066666667","6500300","中和區"
"235022","151-BY","2018/06/07 13:39:54","新北市中和區連城路539號","121.480428333333","24.9949366666667","6500300","中和區"
"235019","183-VK","2018/06/07 13:39:39","新北市中和區莒光路120巷58號","121.471595","25.0007266666667","6500300","中和區"
"235002","185-VK","2018/06/07 13:39:38","新北市中和區立人街24-5號","121.518876666667","24.9942066666667","6500300","中和區"
"235013","186-VK","2018/06/07 13:39:33","新北市中和區景平路480號","121.504945","24.9937016666667","6500300","中和區"
"235031","255-BX","2018/06/07 13:39:46","新北市中和區新生街220巷4號","121.48291","24.9986233333333","6500300","中和區"
"235008","293-VK","2018/06/07 13:39:55","新北市中和區復興路263巷12號","121.5028","24.9898616666667","6500300","中和區"
"235036","301-VK","2018/06/07 13:39:32","新北市中和區中山路二段138號","121.502011666667","25.0031933333333","6500300","中和區"
"235007","352-BY","2018/06/07 13:39:45","新北市中和區景平路155號","121.513451666667","24.9922183333333","6500300","中和區"
"235014","4979-A6","2018/06/07 13:39:44","新北市中和區景新街496巷28弄7號","121.513445","24.9857116666667","6500300","中和區"
"235033","4980-A6","2018/06/07 13:39:36","新北市中和區連城路87號","121.496885","25.0002866666667","6500300","中和區"
"235006","551-UM","2018/06/07 13:39:40","新北市中和區成功路36號","121.526068333333","24.9931883333333","6500300","中和區"
"235034","558-UM","2018/06/07 13:39:38","新北市中和區景平路572號","121.50163","24.9954383333333","6500300","中和區"
"235009","565-BX","2018/06/07 13:39:47","新北市中和區南山路236巷63弄7號","121.50408","24.9876966666667","6500300","中和區"
"235018","640-BX","2018/06/07 13:39:46","新北市中和區民享街32巷16號","121.47311","25.0032683333333","6500300","中和區"
"235024","647-TV","2018/06/07 13:39:41","新北市中和區中山路二段570號","121.483013333333","25.0050383333333","6500300","中和區"
"235011","732-UM","2018/06/07 13:39:49","新北市中和區興南路二段22-3號","121.507625","24.9858516666667","6500300","中和區"
"235035","783-BX","2018/06/07 13:39:47","新北市中和區永和路356巷67-1號","121.487253333333","25.0150716666667","6500300","中和區"
"235021","801-TS","2018/06/07 13:39:41","新北市中和區員山路327巷52號","121.480148333333","25.0018233333333","6500300","中和區"
"235005","802-TS","2018/06/07 13:39:40","新北市中和區中安街80巷3號","121.51196","25.002035","6500300","中和區"
"235016","805-TS","2018/06/07 13:39:54","新北市中和區興南路三段52巷2-5號","121.494525","24.9759483333333","6500300","中和區"
"235012","896-TW","2018/06/07 13:39:35","新北市中和區中正路83號","121.500641666667","24.9934066666667","6500300","中和區"
"235017","900-TW","2018/06/07 13:39:36","新北市土城區延壽路118-3號","121.469098333333","24.994235","6500300","中和區"
"235030","911-UM","2018/06/07 13:39:38","新北市中和區水源路43號","121.504686666667","25.0035716666667","6500300","中和區"
"235015","157-BY","2018/06/07 13:39:52","新北市中和區華新街143巷106弄32號","121.506206666667","24.97876","6500300","中和區"
"235001","AAC-213","2018/06/07 13:39:47","新北市中和區景德街52號","121.517661666667","24.99148","6500300","中和區"
"235023","AAC-215","2018/06/07 13:39:48","新北市中和區錦和路350-1號","121.49041","24.9935283333333","6500300","中和區"
"220013","072-UY","2018/06/07 13:39:54","新北市板橋區南雅南路二段9號","121.454266666667","25.0027816666667","6500100","板橋區"
"220017","AAD-861","2018/06/07 13:39:52","新北市板橋區華東街1-10號","121.448316666667","24.99511","6500100","板橋區"
"220039","120-SR","2018/06/07 13:39:36","新北市板橋區民生路二段120號","121.470526666667","25.0196933333333","6500100","板橋區"
"247007","056-VK","2018/06/07 13:39:36","新北市五股區四維路183號","121.467876666667","25.07532","6501400","蘆洲區"
"247019","001-UY","2018/06/07 13:39:43","新北市五股區成泰路三段544-1號","121.454346666667","25.1015683333333","6501400","蘆洲區"
"228005","097-TW","2018/06/07 13:39:50","新北市貢寮區美豐里文秀坑5-3號","121.903585","25.0522133333333","6502600","貢寮區"
"228004","212-TW","2018/06/07 13:39:34","新北市貢寮區龍崗里嵩陽街17號","121.907283333333","25.008345","6502600","貢寮區"
"253003","6232-TK","2018/06/07 13:39:39","新北市石門區尖子鹿10號","121.574825","25.2818133333333","6502200","石門區"
"253001","6251-TK","2018/06/07 13:39:35","新北市石門區下員坑42-1號","121.517756666667","25.2781666666667","6502200","石門區"
"253002","637-UY","2018/06/07 13:39:39","新北市石門區內石門78號","121.569501666667","25.2567166666667","6502200","石門區"
"253004","8270-PC","2018/06/07 13:39:35","新北市石門區阿里荖60-1號","121.60729","25.27144","6502200","石門區"
"207002","749-BX","2018/06/07 13:39:37","新北市萬里區崁腳里崁腳路166號","121.645018333333","25.15586","6502800","萬里區"
"252005","073-UM","2018/06/07 13:39:40","新北市三芝區圓山里內柑宅28號","121.535633333333","25.220725","6502100","三芝區"
"207001","662-BX","2018/06/07 13:39:42","新北市萬里區磺潭里公館崙49號","121.629198333333","25.2069083333333","6502800","萬里區"
"236040","107-UM","2018/06/07 13:39:52","新北市土城區城林路6巷80號","121.438483333333","24.9797766666667","6501300","土城區"
"236074","166-UM","2018/06/07 13:39:52","新北市土城區中華路二段2號","121.439238333333","24.9796716666667","6501300","土城區"
"236012","270-VK","2018/06/07 13:39:52","新北市土城區城林路6巷80號","121.438533333333","24.979695","6501300","土城區"
"236032","271-VK","2018/06/07 13:39:41","新北市土城區城林路6巷80號","121.438423333333","24.97982","6501300","土城區"
"236017","401-BY","2018/06/07 13:39:50","新北市土城區城林路6巷80號","121.43844","24.9798383333333","6501300","土城區"
"236005","498-BY","2018/06/07 13:39:33","新北市土城區中華路二段90號","121.43828","24.9748733333333","6501300","土城區"
"236060","915-UM","2018/06/07 13:39:43","新北市土城區城林路6巷80號","121.438483333333","24.97971","6501300","土城區"
"221032","280-BY","2018/06/07 13:39:50","新北市汐止區仁愛路1號","121.658826666667","25.0646416666667","6501100","汐止區"
"220027","145-BY","2018/06/07 13:39:41","新北市板橋區南雅西路二段192巷24號","121.452613333333","25.013895","6500100","板橋區"
"220028","200-UY","2018/06/07 13:39:45","新北市板橋區大觀路二段265巷72弄21號","121.4416","24.996865","6500100","板橋區"
"220030","610-BX","2018/06/07 13:39:42","新北市板橋區篤行路一段33號","121.432013333333","24.9942966666667","6500100","板橋區"
"220004","276-BY","2018/06/07 13:39:43","新北市板橋區四川路二段140巷18號","121.449281666667","24.9933816666667","6500100","板橋區"
"220020","277-BY","2018/06/07 13:39:54","新北市板橋區大觀路三段131號","121.432433333333","24.9942016666667","6500100","板橋區"
"220019","283-VK","2018/06/07 13:39:36","新北市板橋區四川路二段14號","121.456053333333","24.996245","6500100","板橋區"
"220043","285-UM","2018/06/07 13:39:38","新北市板橋區民生路二段161巷3號","121.469953333333","25.019735","6500100","板橋區"
"220031","286-VK","2018/06/07 13:39:51","新北市板橋區大觀路二段17號","121.44686","25.0033683333333","6500100","板橋區"
"220029","287-VK","2018/06/07 13:39:35","新北市板橋區大觀路二段2號","121.446943333333","25.0040766666667","6500100","板橋區"
"220032","296-UM","2018/06/07 13:39:33","新北市板橋區大觀路二段205號","121.444501666667","24.9994733333333","6500100","板橋區"
"220023","303-R5","2018/06/07 13:39:48","新北市板橋區南雅西路二段123巷1號","121.45172","25.0106516666667","6500100","板橋區"
"220104","560-BX","2018/06/07 13:39:45","新北市板橋區南雅西路二段175巷2號","121.451698333333","25.0125233333333","6500100","板橋區"
"220052","561-BX","2018/06/07 13:39:48","新北市板橋區民生路二段161巷9號","121.470203333333","25.0196483333333","6500100","板橋區"
"220034","630-UY","2018/06/07 13:39:40","新北市板橋區南雅西路二段175巷2號","121.451563333333","25.0125783333333","6500100","板橋區"
"220005","686-BX","2018/06/07 13:39:54","新北市板橋區華東街1-9號","121.448218333333","24.9948766666667","6500100","板橋區"
"220025","687-BX","2018/06/07 13:39:42","新北市板橋區大觀路三段160巷34弄29號","121.430305","24.994535","6500100","板橋區"
"220002","741-BX","2018/06/07 13:39:40","新北市板橋區華東街11號","121.451218333333","24.9982116666667","6500100","板橋區"
"220012","806-UM","2018/06/07 13:39:42","新北市板橋區民生路二段36-1號","121.47217","25.016765","6500100","板橋區"
"220003","827-TW","2018/06/07 13:39:37","新北市板橋區稚暉街1號","121.455918333333","25.0045633333333","6500100","板橋區"
"220022","895-R6","2018/06/07 13:39:49","新北市板橋區南雅南路一段121號","121.455223333333","25.00462","6500100","板橋區"
"220021","985-R7","2018/06/07 13:39:43","新北市板橋區南雅南路二段11-5號","121.454058333333","25.0023233333333","6500100","板橋區"
"220018","AAC-253","2018/06/07 13:39:42","新北市板橋區南雅南路二段122-2號","121.451533333333","24.9985816666667","6500100","板橋區"
"235032","KEA-2873","2018/06/07 13:39:45","新北市中和區中正路211巷38-4號","121.497633333333","24.9926933333333","6500300","中和區"
"235025","KEA-2875","2018/06/07 13:39:48","新北市中和區民享街90巷14號","121.473945","25.0002016666667","6500300","中和區"
