"lineid","car","time","location","longitude","latitude","cityid","cityname"
"234044","148-BY","2018/06/07 13:59:36","新北市永和區永利路212號","121.523318333333","25.002595","6500400","永和區"
"234005","207-UY","2018/06/07 13:59:53","新北市中和區中和路350巷1號","121.51021","25.0014066666667","6500400","永和區"
"234078","298-R6","2018/06/07 13:59:50","新北市永和區林森路112巷12弄34號","121.522856666667","25.0045933333333","6500400","永和區"
"234036","336-UY","2018/06/07 13:59:41","新北市永和區成功路二段171號","121.526713333333","24.9969516666667","6500400","永和區"
"234062","337-UY","2018/06/07 13:59:44","新北市永和區中正路368巷1弄47號","121.519236666667","25.0012266666667","6500400","永和區"
"234084","338-UY","2018/06/07 13:59:41","新北市永和區中正路505號","121.51692","25.00705","6500400","永和區"
"234068","552-UM","2018/06/07 13:59:44","新北市永和區國光路39-1號","121.519061666667","25.00816","6500400","永和區"
"234015","745-BX","2018/06/07 13:59:53","新北市永和區文化路40號","121.514886666667","25.0150983333333","6500400","永和區"
"234028","746-BX","2018/06/07 13:59:45","新北市永和區民生路67巷57號","121.52573","24.9976316666667","6500400","永和區"
"234052","KEA-2590","2018/06/07 13:59:45","新北市永和區竹林路39巷33弄1號","121.519896666667","25.0152566666667","6500400","永和區"
"234012","KEA-2591","2018/06/07 13:59:38","新北市永和區保生路55號","121.504748333333","25.0105733333333","6500400","永和區"
"234060","AAD-866","2018/06/07 13:59:51","新北市永和區中正路151巷5弄2-1號","121.515596666667","24.998765","6500400","永和區"
"234040","862-TW","2018/06/07 13:59:50","新北市永和區雙和街17巷21號","121.508975","25.001305","6500400","永和區"
"234048","863-TW","2018/06/07 13:59:50","新北市永和區保安路264號","121.505906666667","25.0123716666667","6500400","永和區"
"234010","9373-KE","2018/06/07 13:59:44","新北市永和區仁愛路352巷92弄16號","121.501318333333","25.008225","6500400","永和區"
"248015","026-BX","2018/06/07 13:59:47","新北市五股區成泰路三段543巷12弄1號","121.450981666667","25.1022066666667","6501500","五股區"
"248007","095-VK","2018/06/07 13:59:35","新北市五股區中興路一段128巷32號","121.46576","25.0751516666667","6501500","五股區"
"248017","225-UY","2018/06/07 13:59:39","新北市五股區民義路一段220巷5-2號","121.428483333333","25.0926533333333","6501500","五股區"
"248011","247-BX","2018/06/07 13:59:54","新北市五股區成泰路二段195巷1號","121.44041","25.087375","6501500","五股區"
"248013","261-SL","2018/06/07 13:59:36","新北市五股區民義路一段107巷23號","121.431906666667","25.084685","6501500","五股區"
"248009","272-BY","2018/06/07 13:59:52","新北市五股區水碓二路1號","121.430573333333","25.0712683333333","6501500","五股區"
"248003","677-BX","2018/06/07 13:59:47","新北市五股區民義路三段1號","121.402651666667","25.1142933333333","6501500","五股區"
"248001","678-BX","2018/06/07 13:59:44","新北市五股區天乙路1號","121.44858","25.102725","6501500","五股區"
"234022","9380-KE","2018/06/07 13:59:49","新北市永和區中正路702巷4號","121.516338333333","25.0101666666667","6500400","永和區"
"234076","969-R7","2018/06/07 13:59:41","新北市永和區民族街43巷10號","121.519023333333","24.9983683333333","6500400","永和區"
"234072","AAC-211","2018/06/07 13:59:46","新北市永和區豫溪街150巷2號","121.521831666667","25.0104016666667","6500400","永和區"
"234066","AAC-212","2018/06/07 13:59:45","新北市永和區永貞路313號","121.510111666667","25.006515","6500400","永和區"
"234001","AAC-295","2018/06/07 13:59:41","新北市永和區福和路316號","121.516038333333","25.0073333333333","6500400","永和區"
"243005","AAD-798","2018/06/07 13:59:46","新北市泰山區明志路三段257號","121.423321666667","25.0373716666667","6501600","泰山區"
"243001","297-R6","2018/06/07 13:59:43","新北市泰山區泰林路二段330號","121.429765","25.0632133333333","6501600","泰山區"
"243008","380-SR","2018/06/07 13:59:53","新北市泰山區明志路二段135號","121.427818333333","25.0507233333333","6501600","泰山區"
"243007","421-VK","2018/06/07 13:59:54","新北市泰山區明志路一段213號","121.432706666667","25.0613783333333","6501600","泰山區"
"243003","KEA-2215","2018/06/07 13:59:42","新北市泰山區明志路二段246-1號","121.427158333333","25.0481683333333","6501600","泰山區"
"243002","KEA-2216","2018/06/07 13:59:50","新北市泰山區辭修路24號","121.42903","25.0581666666667","6501600","泰山區"
"243004","646-TV","2018/06/07 13:59:43","新北市泰山區同義街13巷29號","121.432166666667","25.05731","6501600","泰山區"
"243006","680-BX","2018/06/07 13:59:36","新北市泰山區黎明路23號","121.42091","25.0625766666667","6501600","泰山區"
"231002","002-UM","2018/06/07 13:59:51","新北市新店區中正路685號","121.533961666667","24.99048","6500600","新店區"
"231027","0291-UT","2018/06/07 13:59:47","新北市新店區中興路一段24號","121.53873","24.9583366666667","6500600","新店區"
"231028","046-UY","2018/06/07 13:59:47","新北市新店區安和路三段46號","121.51804","24.982","6500600","新店區"
"231001","047-UY","2018/06/07 13:59:42","新北市新店區三民路43號","121.537166666667","24.9708783333333","6500600","新店區"
"231021","108-UY","2018/06/07 13:59:44","新北市新店區屈尺路75號","121.545708333333","24.9226916666667","6500600","新店區"
"231011","187-VK","2018/06/07 13:59:42","新北市新店區中興路二段79巷13號","121.546266666667","24.97136","6500600","新店區"
"231010","188-VK","2018/06/07 13:59:39","新北市新店區環河路42-2號","121.536848333333","24.9623566666667","6500600","新店區"
"231023","KEA-2219","2018/06/07 13:59:43","新北市新店區文中路45號","121.539496666667","24.9566766666667","6500600","新店區"
"231026","256-BX","2018/06/07 13:59:49","新北市新店區環河路18號","121.536971666667","24.961675","6500600","新店區"
"231003","268-BY","2018/06/07 13:59:52","新北市新店區中興路一段112號","121.540795","24.96168","6500600","新店區"
"231018","278-BY","2018/06/07 13:59:46","新北市新店區中央路133巷11號","121.531001666667","24.97353","6500600","新店區"
"231017","AAD-862","2018/06/07 13:59:45","新北市新店區郵政路3巷2號","121.557288333333","24.9519066666667","6500600","新店區"
"231005","355-BY","2018/06/07 13:59:40","新北市新店區寶中路47-3號","121.545796666667","24.979545","6500600","新店區"
"231038","3712-VJ","2018/06/07 13:59:42","新北市新店區溪洲路8巷66號","121.533128333333","24.9624533333333","6500600","新店區"
"231037","4716-K9","2018/06/07 13:59:50","新北市新店區安康路三段440-5號","121.484808333333","24.9513666666667","6500600","新店區"
"231025","4715-K9","2018/06/07 13:59:47","新北市新店區中正路328巷27號","121.537548333333","24.975795","6500600","新店區"
"231036","512-UM","2018/06/07 13:59:49","新北市新店區安祥路109巷3弄104號","121.479308333333","24.960465","6500600","新店區"
"231013","513-UM","2018/06/07 13:59:39","新北市新店區明德路111號","121.541441666667","24.979465","6500600","新店區"
"231030","619-UM","2018/06/07 13:59:42","新北市新店區安康路一段323-3號","121.521466666667","24.9638416666667","6500600","新店區"
"231034","641-BX","2018/06/07 13:59:41","新北市新店區達觀路12號","121.504608333333","24.9406","6500600","新店區"
"231035","719-UM","2018/06/07 13:59:37","新北市新店區安和路一段52巷2號","121.517653333333","24.9662333333333","6500600","新店區"
"231031","720-UM","2018/06/07 13:59:45","新北市新店區青山路399巷2號","121.524696666667","24.953045","6500600","新店區"
"231029","897-TW","2018/06/07 13:59:45","新北市新店區安康路二段3-3號","121.515861666667","24.9636966666667","6500600","新店區"
"231006","898-TW","2018/06/07 13:59:37","新北市新店區北宜路二段211號","121.553211666667","24.9532833333333","6500600","新店區"
"231004","899-TW","2018/06/07 13:59:52","新北市新店區北新路二段137號","121.542876666667","24.9756133333333","6500600","新店區"
"231024","AKT-0513","2018/06/07 13:59:37","新北市新店區新生街13巷26號","121.538998333333","24.9665066666667","6500600","新店區"
"235028","005-UY","2018/06/07 13:59:46","新北市中和區泰和街30巷36號","121.49872","25.0015816666667","6500300","中和區"
"235027","006-UY","2018/06/07 13:59:37","新北市中和區中正路538號","121.487551666667","24.9945933333333","6500300","中和區"
"235020","096-UM","2018/06/07 13:59:34","新北市中和區中正路1222號","121.47959","25.0107883333333","6500300","中和區"
"235003","097-UM","2018/06/07 13:59:47","新北市中和區秀朗路三段177號","121.52443","24.99106","6500300","中和區"
"235029","098-UM","2018/06/07 13:59:38","新北市中和區中山路二段2巷45弄44號","121.50191","25.0063566666667","6500300","中和區"
"235004","150-BY","2018/06/07 13:59:55","新北市中和區景安路79巷37弄25號","121.507703333333","24.996505","6500300","中和區"
"235022","151-BY","2018/06/07 13:59:34","新北市中和區連城路569巷9弄13號","121.480018333333","24.994225","6500300","中和區"
"235019","183-VK","2018/06/07 13:59:39","新北市中和區中山路三段214號","121.471396666667","25.00651","6500300","中和區"
"235002","185-VK","2018/06/07 13:59:38","新北市中和區大勇街31巷1號","121.517463333333","24.9940783333333","6500300","中和區"
"235013","186-VK","2018/06/07 13:59:53","新北市中和區景新街205-15號","121.507266666667","24.9950966666667","6500300","中和區"
"235031","255-BX","2018/06/07 13:59:46","新北市中和區新生街264號","121.483745","24.9971833333333","6500300","中和區"
"235008","293-VK","2018/06/07 13:59:55","新北市中和區中興街161巷1弄22號","121.500293333333","24.9914183333333","6500300","中和區"
"235036","301-VK","2018/06/07 13:59:52","新北市中和區中山路二段259號","121.497051666667","25.0023566666667","6500300","中和區"
"235007","352-BY","2018/06/07 13:59:45","新北市中和區秀朗路三段107號","121.526455","24.994705","6500300","中和區"
"235014","4979-A6","2018/06/07 13:59:42","新北市中和區忠孝街29號","121.510491666667","24.9830716666667","6500300","中和區"
"235033","4980-A6","2018/06/07 13:59:56","新北市中和區圓通路61號","121.500461666667","24.9973283333333","6500300","中和區"
"235006","551-UM","2018/06/07 13:59:40","新北市中和區自立路99巷36弄16號","121.523913333333","24.9941466666667","6500300","中和區"
"235034","558-UM","2018/06/07 13:59:38","新北市中和區安和路159號","121.506231666667","24.9972033333333","6500300","中和區"
"235009","565-BX","2018/06/07 13:59:38","新北市中和區景新街467巷20弄17號","121.514841666667","24.9873433333333","6500300","中和區"
"235018","640-BX","2018/06/07 13:59:46","新北市中和區民享街2號","121.473953333333","25.0053633333333","6500300","中和區"
"235024","647-TV","2018/06/07 13:59:41","新北市中和區民治街6巷1號","121.4749","25.0053716666667","6500300","中和區"
"235011","732-UM","2018/06/07 13:59:49","新北市中和區興南路二段105號","121.505858333333","24.9845133333333","6500300","中和區"
"235010","733-UM","2018/06/07 13:59:39","新北市中和區興南路二段3巷15弄1號","121.508506666667","24.98625","6500300","中和區"
"235035","783-BX","2018/06/07 13:59:47","新北市中和區永和路205號","121.490836666667","25.00734","6500300","中和區"
"235021","801-TS","2018/06/07 13:59:41","新北市中和區民利街63號","121.478943333333","24.998565","6500300","中和區"
"235005","802-TS","2018/06/07 13:59:40","新北市中和區永貞路264號","121.513731666667","25.0036516666667","6500300","中和區"
"235016","805-TS","2018/06/07 13:59:41","新北市中和區興南路二段192號","121.503415","24.9822","6500300","中和區"
"235012","896-TW","2018/06/07 13:59:35","新北市中和區華新街9號","121.507538333333","24.98515","6500300","中和區"
"235017","900-TW","2018/06/07 13:59:36","新北市中和區壽德街22-1號","121.46621","24.99462","6500300","中和區"
"235030","911-UM","2018/06/07 13:59:38","新北市中和區中山路二段131巷5弄3號","121.502871666667","25.002865","6500300","中和區"
"235015","157-BY","2018/06/07 13:59:52","新北市中和區忠孝街11巷4號","121.51012","24.9831033333333","6500300","中和區"
"235001","AAC-213","2018/06/07 13:59:47","新北市中和區秀朗路三段10巷37弄1號","121.524165","24.9960583333333","6500300","中和區"
"235023","AAC-215","2018/06/07 13:59:48","新北市中和區圓通路369巷33弄5號","121.491005","24.98806","6500300","中和區"
"220016","013-TV","2018/06/07 13:59:35","新北市板橋區中山路二段465巷74弄2-5號","121.481255","25.022075","6500100","板橋區"
"220013","072-UY","2018/06/07 13:59:34","新北市板橋區漢生東路324號","121.471746666667","25.00789","6500100","板橋區"
"220105","075-UY","2018/06/07 13:59:50","新北市板橋區莊敬路66號","121.471735","25.0253933333333","6500100","板橋區"
"220017","AAD-861","2018/06/07 13:59:52","新北市板橋區華興街89號","121.456665","25.0051966666667","6500100","板橋區"
"220039","120-SR","2018/06/07 13:59:36","新北市板橋區四維路177巷1弄2號","121.464058333333","25.026155","6500100","板橋區"
"247013","546-UM","2018/06/07 13:59:40","新北市蘆洲區中正路144號","121.468963333333","25.0852916666667","6501400","蘆洲區"
"247009","341-TH","2018/06/07 13:59:48","新北市蘆洲區集賢路328號","121.481238333333","25.08458","6501400","蘆洲區"
"247011","339-TH","2018/06/07 13:59:49","新北市蘆洲區民族路150號","121.479471666667","25.0860766666667","6501400","蘆洲區"
"247003","337-TH","2018/06/07 13:59:39","新北市蘆洲區長榮路38-2號","121.463375","25.0825216666667","6501400","蘆洲區"
"247005","336-TH","2018/06/07 13:59:51","新北市蘆洲區永安南路二段50號","121.466101666667","25.0776133333333","6501400","蘆洲區"
"247017","057-VK","2018/06/07 13:58:58","新北市蘆洲區民族路255巷12號","121.476196666667","25.0896433333333","6501400","蘆洲區"
"247007","056-VK","2018/06/07 13:59:36","新北市三重區仁愛街747號","121.48123","25.0806033333333","6501400","蘆洲區"
"247015","007-UY","2018/06/07 13:59:45","新北市蘆洲區光華路23號","121.469533333333","25.0833333333333","6501400","蘆洲區"
"247019","001-UY","2018/06/07 13:59:43","新北市蘆洲區民族路422巷35-1號","121.473535","25.09366","6501400","蘆洲區"
"228005","097-TW","2018/06/07 13:52:50","新北市貢寮區美豐里土地公嶺24號","121.890846666667","25.064855","6502600","貢寮區"
"228004","212-TW","2018/06/07 13:59:54","新北市貢寮區龍崗里泮宮路33號","121.90764","25.0176816666667","6502600","貢寮區"
"253003","6232-TK","2018/06/07 13:59:44","新北市石門區尖子鹿53-1號","121.582403333333","25.2732266666667","6502200","石門區"
"253001","6251-TK","2018/06/07 13:59:34","新北市石門區白沙灣別墅36號","121.509661666667","25.2790533333333","6502200","石門區"
"253002","637-UY","2018/06/07 13:58:00","新北市石門區尖山湖21號","121.558196666667","25.2478716666667","6502200","石門區"
"253004","8270-PC","2018/06/07 13:59:47","新北市石門區小坑43-2號","121.600298333333","25.2644383333333","6502200","石門區"
"207002","749-BX","2018/06/07 13:59:37","新北市萬里區溪底里富士坪路21號","121.627686666667","25.1490016666667","6502800","萬里區"
"252005","073-UM","2018/06/07 13:59:40","新北市三芝區圓山里二坪頂77-1號","121.537493333333","25.2386","6502100","三芝區"
"207001","662-BX","2018/06/07 13:59:42","新北市萬里區磺潭里清水18號","121.637833333333","25.1977166666667","6502800","萬里區"
"236040","107-UM","2018/06/07 13:59:52","新北市土城區城林路6巷80號","121.438501666667","24.9797533333333","6501300","土城區"
"236074","166-UM","2018/06/07 13:59:52","新北市土城區永寧路32巷12號","121.428986666667","24.9608266666667","6501300","土城區"
"236029","253-BX","2018/06/07 13:57:30","新北市土城區中央路二段280號","121.440791666667","24.974085","6501300","土城區"
"236024","269-VK","2018/06/07 13:59:52","新北市土城區中央路二段280號","121.44079","24.97404","6501300","土城區"
"236012","270-VK","2018/06/07 13:59:52","新北市土城區城林路6巷80號","121.43855","24.9796983333333","6501300","土城區"
"236032","271-VK","2018/06/07 13:59:41","新北市土城區城林路6巷80號","121.438143333333","24.9795933333333","6501300","土城區"
"236068","KEA-2877","2018/06/07 13:59:44","新北市土城區金城路一段88巷10號","121.445631666667","24.9728666666667","6501300","土城區"
"236017","401-BY","2018/06/07 13:59:50","新北市土城區城林路6巷80號","121.438483333333","24.97985","6501300","土城區"
"236005","498-BY","2018/06/07 13:59:54","新北市土城區中央路一段338號","121.443093333333","24.9812183333333","6501300","土城區"
"236057","912-UM","2018/06/07 13:59:49","新北市土城區中央路三段200號","121.430231666667","24.964865","6501300","土城區"
"236045","913-UM","2018/06/07 13:59:46","新北市土城區城林路6巷80號","121.438346666667","24.9798283333333","6501300","土城區"
"236060","915-UM","2018/06/07 13:59:43","新北市土城區員福街38號","121.44073","24.9789466666667","6501300","土城區"
"236054","AAC-216","2018/06/07 13:59:49","新北市土城區城林路6巷80號","121.43858","24.979745","6501300","土城區"
"220027","145-BY","2018/06/07 13:59:57","新北市板橋區民權路202巷7弄35號","121.458545","25.0149983333333","6500100","板橋區"
"220028","200-UY","2018/06/07 13:59:45","新北市板橋區大觀路二段265巷72弄1號","121.442465","24.9967783333333","6500100","板橋區"
"220030","610-BX","2018/06/07 13:59:42","新北市板橋區溪崑一街112號","121.429225","24.9887133333333","6500100","板橋區"
"220050","245-BX","2018/06/07 13:59:52","新北市板橋區文化路二段182巷11號","121.472046666667","25.0267283333333","6500100","板橋區"
"220004","276-BY","2018/06/07 13:59:44","新北市板橋區信義路104號","121.458191666667","24.9927783333333","6500100","板橋區"
"220020","277-BY","2018/06/07 13:59:55","新北市板橋區金門街321號","121.429618333333","24.9860066666667","6500100","板橋區"
"220042","280-UM","2018/06/07 13:59:49","新北市板橋區民生路三段142號","121.466228333333","25.027105","6500100","板橋區"
"220019","283-VK","2018/06/07 13:59:56","新北市板橋區重慶路245巷32弄21號","121.465271666667","25.0000866666667","6500100","板橋區"
"220043","285-UM","2018/06/07 13:59:38","新北市板橋區文化路二段76號","121.469221666667","25.0250766666667","6500100","板橋區"
"220001","285-VK","2018/06/07 13:59:42","新北市板橋區中山路二段89巷68號","121.473551666667","25.0176583333333","6500100","板橋區"
"220031","286-VK","2018/06/07 13:59:50","新北市板橋區僑中二街152號","121.4449","25.0042583333333","6500100","板橋區"
"220029","287-VK","2018/06/07 13:59:53","新北市板橋區光華街19巷2號","121.453891666667","25.0122716666667","6500100","板橋區"
"220009","293-UM","2018/06/07 13:59:41","新北市板橋區富山街103號","121.47624","25.0218866666667","6500100","板橋區"
"220032","296-UM","2018/06/07 13:59:54","新北市板橋區大觀路三段52號","121.432535","24.9958866666667","6500100","板橋區"
"220023","303-R5","2018/06/07 13:59:48","新北市板橋區大智街25巷41-2號","121.453888333333","25.0148266666667","6500100","板橋區"
"220010","305-R5","2018/06/07 13:59:52","新北市板橋區三民路二段245巷47號","121.480608333333","25.012575","6500100","板橋區"
"220041","307-R5","2018/06/07 13:59:37","新北市板橋區漢生東路83巷14號","121.467686666667","25.0161233333333","6500100","板橋區"
"220047","317-R6","2018/06/07 13:59:54","新北市板橋區民有街31號","121.465948333333","25.0254233333333","6500100","板橋區"
"220037","491-VK","2018/06/07 13:59:48","新北市板橋區民生路二段216號","121.469316666667","25.02155","6500100","板橋區"
"220104","560-BX","2018/06/07 13:59:48","新北市板橋區中正路375巷42號","121.453706666667","25.0203883333333","6500100","板橋區"
"220052","561-BX","2018/06/07 13:59:48","新北市板橋區縣民大道二段279號","121.469931666667","25.0178616666667","6500100","板橋區"
"220011","609-BX","2018/06/07 13:59:44","新北市板橋區中山路二段125號","121.475041666667","25.01634","6500100","板橋區"
"220034","630-UY","2018/06/07 13:59:40","新北市板橋區中正路236巷25號","121.456998333333","25.0192333333333","6500100","板橋區"
"220040","637-BX","2018/06/07 13:59:52","新北市板橋區雙十路二段47巷13號","121.475826666667","25.025885","6500100","板橋區"
"220005","686-BX","2018/06/07 13:59:54","新北市板橋區重慶路192號","121.462586666667","25.0031583333333","6500100","板橋區"
"220025","687-BX","2018/06/07 13:59:51","新北市板橋區大觀路二段174巷139號","121.441348333333","25.0023533333333","6500100","板橋區"
"220002","741-BX","2018/06/07 13:59:40","新北市板橋區重慶路127巷18號","121.463555","25.0049183333333","6500100","板橋區"
"220051","KEA-2699","2018/06/07 13:59:42","新北市板橋區萬板路706號","121.481616666667","25.0273966666667","6500100","板橋區"
"220012","806-UM","2018/06/07 13:59:43","新北市板橋區板新路237號","121.467673333333","25.0158716666667","6500100","板橋區"
"220003","827-TW","2018/06/07 13:59:57","新北市板橋區中山路一段158巷33-2號","121.466623333333","25.0110366666667","6500100","板橋區"
"220014","830-TW","2018/06/07 13:59:42","新北市板橋區三民路二段154巷11號","121.478801666667","25.0149316666667","6500100","板橋區"
"220045","831-TW","2018/06/07 13:59:43","新北市板橋區莒光路75號","121.471571666667","25.0241766666667","6500100","板橋區"
"220038","833-TW","2018/06/07 13:59:52","新北市板橋區文化路二段446號","121.47462","25.0322783333333","6500100","板橋區"
"220022","895-R6","2018/06/07 13:59:49","新北市板橋區南雅南路一段106號","121.454908333333","25.0043266666667","6500100","板橋區"
"220021","985-R7","2018/06/07 13:59:42","新北市板橋區館前西路156-1號","121.454991666667","25.0084733333333","6500100","板橋區"
"220046","AAC-210","2018/06/07 13:59:54","新北市板橋區板新路236號","121.46804","25.01632","6500100","板橋區"
"220018","AAC-253","2018/06/07 13:59:42","新北市板橋區四川路一段489號","121.45712","24.9971483333333","6500100","板橋區"
"235032","KEA-2873","2018/06/07 13:59:45","新北市中和區連勝街8號","121.49898","24.9985016666667","6500300","中和區"
"235025","KEA-2875","2018/06/07 13:59:48","新北市中和區民治街132巷1號","121.475211666667","25.0023766666667","6500300","中和區"
