"lineid","car","time","location","longitude","latitude","cityid","cityname"
"234044","148-BY","2018/06/07 14:19:56","新北市永和區永元路56號","121.522293333333","25.0012283333333","6500400","永和區"
"234005","207-UY","2018/06/07 14:19:34","新北市永和區永貞路422號","121.508586666667","25.0083116666667","6500400","永和區"
"234078","298-R6","2018/06/07 14:19:52","新北市永和區國中路132巷12號","121.523926666667","25.007545","6500400","永和區"
"234036","336-UY","2018/06/07 14:19:52","新北市永和區成功路一段93巷12號","121.52769","25.0027083333333","6500400","永和區"
"234062","337-UY","2018/06/07 14:19:44","新北市永和區得和路108號","121.518231666667","25.00014","6500400","永和區"
"234084","338-UY","2018/06/07 14:19:53","新北市永和區中正路541號","121.51679","25.0079283333333","6500400","永和區"
"234068","552-UM","2018/06/07 14:19:44","新北市永和區福和路263巷13號","121.517946666667","25.0066683333333","6500400","永和區"
"234028","746-BX","2018/06/07 14:19:45","新北市永和區民權路49巷8號","121.520605","24.99722","6500400","永和區"
"234052","KEA-2590","2018/06/07 14:19:45","新北市永和區光復街2巷16弄1號","121.517101666667","25.016345","6500400","永和區"
"234060","AAD-866","2018/06/07 14:19:51","新北市永和區安樂路194巷39弄8號","121.516223333333","25.00152","6500400","永和區"
"234040","862-TW","2018/06/07 14:19:49","新北市中和區安平路208號","121.5136","24.9996516666667","6500400","永和區"
"234048","863-TW","2018/06/07 14:19:50","新北市永和區新生路55號","121.508883333333","25.0163266666667","6500400","永和區"
"234025","9371-KE","2018/06/07 14:19:44","新北市永和區得和路42巷23號","121.515406666667","24.9996116666667","6500400","永和區"
"248007","095-VK","2018/06/07 14:19:55","新北市五股區中興路二段57-6號","121.460536666667","25.07533","6501500","五股區"
"248017","225-UY","2018/06/07 14:19:19","新北市五股區壟路16號","121.4151","25.0853883333333","6501500","五股區"
"248011","247-BX","2018/06/07 14:19:54","新北市五股區民義路一段48號","121.436861666667","25.0848316666667","6501500","五股區"
"248009","272-BY","2018/06/07 14:19:52","新北市五股區水碓一路23號","121.430645","25.0712766666667","6501500","五股區"
"248003","677-BX","2018/06/07 14:19:47","新北市五股區五福路149號","121.432028333333","25.0914316666667","6501500","五股區"
"248001","678-BX","2018/06/07 14:19:40","新北市五股區成泰路三段590-3號","121.452783333333","25.1060583333333","6501500","五股區"
"234022","9380-KE","2018/06/07 14:19:49","新北市永和區光復街4號","121.516435","25.0167066666667","6500400","永和區"
"234076","969-R7","2018/06/07 14:19:41","新北市永和區民族街81巷58號","121.52004","24.9965066666667","6500400","永和區"
"234072","AAC-211","2018/06/07 14:19:46","新北市永和區竹林路119巷30弄2號","121.522158333333","25.0116283333333","6500400","永和區"
"234066","AAC-212","2018/06/07 14:19:45","新北市永和區保平路268巷30號","121.507526666667","25.0064633333333","6500400","永和區"
"234001","AAC-295","2018/06/07 14:19:39","新北市永和區中正路607號","121.516293333333","25.00967","6500400","永和區"
"243005","AAD-798","2018/06/07 14:19:46","新北市泰山區明志路三段145巷40號","121.426871666667","25.0391933333333","6501600","泰山區"
"243001","297-R6","2018/06/07 14:19:43","新北市泰山區明志路一段94號","121.433455","25.0641283333333","6501600","泰山區"
"243008","380-SR","2018/06/07 14:19:33","新北市泰山區明志路三段159號","121.424793333333","25.0396633333333","6501600","泰山區"
"243007","421-VK","2018/06/07 14:19:43","新北市泰山區明志路二段23號","121.429858333333","25.0533533333333","6501600","泰山區"
"243003","KEA-2215","2018/06/07 14:19:42","新北市泰山區貴子路15巷2弄2號","121.426345","25.04186","6501600","泰山區"
"243002","KEA-2216","2018/06/07 14:19:46","新北市泰山區明志路二段7巷4號","121.430455","25.0534233333333","6501600","泰山區"
"243004","646-TV","2018/06/07 14:19:43","新北市泰山區仁義路220巷6號","121.432843333333","25.0539683333333","6501600","泰山區"
"243006","680-BX","2018/06/07 14:19:36","新北市泰山區泰林路二段94號","121.434831666667","25.0588133333333","6501600","泰山區"
"231002","002-UM","2018/06/07 14:19:51","新北市新店區中正路485號","121.533841666667","24.9820166666667","6500600","新店區"
"231027","0291-UT","2018/06/07 14:19:47","新北市新店區北新路二段2號","121.54259","24.9705833333333","6500600","新店區"
"231028","046-UY","2018/06/07 14:19:47","新北市新店區安和路二段138-3號","121.519375","24.97213","6500600","新店區"
"231001","047-UY","2018/06/07 14:19:42","新北市新店區中正路75巷71號","121.54308","24.968855","6500600","新店區"
"231021","108-UY","2018/06/07 14:19:44","新北市新店區桂山路51巷2號","121.562688333333","24.9014283333333","6500600","新店區"
"231011","187-VK","2018/06/07 14:19:43","新北市新店區五峰路61巷1號","121.548406666667","24.9697366666667","6500600","新店區"
"231023","KEA-2219","2018/06/07 14:19:43","新北市新店區光明街104號","121.539018333333","24.9606","6500600","新店區"
"231003","268-BY","2018/06/07 14:19:52","新北市新店區中興路一段199號","121.543465","24.965355","6500600","新店區"
"231018","278-BY","2018/06/07 14:19:46","新北市新店區中央四街16號","121.52936","24.9739783333333","6500600","新店區"
"231017","AAD-862","2018/06/07 14:19:45","新北市新店區北宜路二段392巷4號","121.565501666667","24.9533516666667","6500600","新店區"
"231005","355-BY","2018/06/07 14:19:39","新北市新店區中興路三段229號","121.542981666667","24.9834016666667","6500600","新店區"
"231038","3712-VJ","2018/06/07 14:19:42","新北市新店區溪洲路6巷49號","121.534011666667","24.9623183333333","6500600","新店區"
"231037","4716-K9","2018/06/07 14:19:49","新北市新店區車子路19號","121.504486666667","24.953335","6500600","新店區"
"231025","4715-K9","2018/06/07 14:19:47","新北市新店區大豐路95號","121.538196666667","24.9788933333333","6500600","新店區"
"231036","512-UM","2018/06/07 14:19:49","新北市新店區安祥路109巷85弄16號","121.478071666667","24.959785","6500600","新店區"
"231013","513-UM","2018/06/07 14:19:39","新北市新店區大豐路52號","121.539921666667","24.9797883333333","6500600","新店區"
"231030","619-UM","2018/06/07 14:19:42","新北市新店區安民街3巷1號","121.514581666667","24.964195","6500600","新店區"
"231034","641-BX","2018/06/07 14:19:41","新北市新店區車子路11號","121.503043333333","24.9520483333333","6500600","新店區"
"231035","719-UM","2018/06/07 14:19:37","新北市新店區安民街156巷37號","121.517901666667","24.9699983333333","6500600","新店區"
"231031","720-UM","2018/06/07 14:19:45","新北市新店區溪洲路163-2號","121.530823333333","24.9645566666667","6500600","新店區"
"231029","897-TW","2018/06/07 14:19:45","新北市新店區安康路二段247號","121.507951666667","24.958455","6500600","新店區"
"231006","898-TW","2018/06/07 14:19:37","新北市新店區北宜路二段599號","121.568146666667","24.9556166666667","6500600","新店區"
"231004","899-TW","2018/06/07 14:19:52","新北市新店區中正路173號","121.540948333333","24.972035","6500600","新店區"
"235028","005-UY","2018/06/07 14:19:46","新北市中和區連城路2號","121.4992","25.0024266666667","6500300","中和區"
"235027","006-UY","2018/06/07 14:19:37","新北市中和區連勝街117號","121.495016666667","24.995325","6500300","中和區"
"235020","096-UM","2018/06/07 14:19:54","新北市中和區員山路504號","121.479353333333","25.008175","6500300","中和區"
"235003","097-UM","2018/06/07 14:19:47","新北市中和區景新街467巷50弄22號","121.518311666667","24.9892416666667","6500300","中和區"
"235029","098-UM","2018/06/07 14:19:38","新北市中和區莊敬路2號","121.499486666667","25.00427","6500300","中和區"
"235004","150-BY","2018/06/07 14:19:55","新北市中和區保健路106巷85號","121.51114","24.994325","6500300","中和區"
"235022","151-BY","2018/06/07 14:19:54","新北市中和區和城路一段271巷1號","121.48542","24.991795","6500300","中和區"
"235019","183-VK","2018/06/07 14:19:38","新北市中和區中山路三段181巷10號","121.472896666667","25.0057033333333","6500300","中和區"
"235002","185-VK","2018/06/07 14:19:38","新北市中和區大仁街20巷49號","121.519493333333","24.9932483333333","6500300","中和區"
"235013","186-VK","2018/06/07 14:19:53","新北市中和區景新街239號","121.508158333333","24.9944816666667","6500300","中和區"
"235031","255-BX","2018/06/07 14:19:46","新北市中和區連城路459號","121.48432","24.9962316666667","6500300","中和區"
"235008","293-VK","2018/06/07 14:19:35","新北市中和區中興街263-1號","121.500088333333","24.9887033333333","6500300","中和區"
"235036","301-VK","2018/06/07 14:19:52","新北市中和區保平路340巷18號","121.506001666667","25.00452","6500300","中和區"
"235007","352-BY","2018/06/07 14:19:25","新北市中和區景平路296號","121.512843333333","24.9927566666667","6500300","中和區"
"235014","4979-A6","2018/06/07 14:19:42","新北市中和區景安路208巷19號","121.50309","24.9914766666667","6500300","中和區"
"235033","4980-A6","2018/06/07 14:19:36","新北市中和區景平路736巷3弄1號","121.497161666667","25.0037283333333","6500300","中和區"
"235006","551-UM","2018/06/07 14:19:40","新北市中和區大勇街78號","121.51788","24.995435","6500300","中和區"
"235034","558-UM","2018/06/07 14:19:53","新北市中和區中山路二段264號","121.49725","25.002415","6500300","中和區"
"235009","565-BX","2018/06/07 14:19:38","新北市中和區景新街423巷33弄14號","121.513681666667","24.99028","6500300","中和區"
"235018","640-BX","2018/06/07 14:19:47","新北市中和區國光街107巷2弄2-1號","121.470128333333","25.00021","6500300","中和區"
"235024","647-TV","2018/06/07 14:19:41","新北市中和區中山路三段96號","121.477393333333","25.0055916666667","6500300","中和區"
"235011","732-UM","2018/06/07 14:19:49","新北市中和區景平路241巷55號","121.50811","24.99212","6500300","中和區"
"235010","733-UM","2018/06/07 14:19:39","新北市中和區華新街108號","121.508541666667","24.982835","6500300","中和區"
"235035","783-BX","2018/06/07 14:19:47","新北市中和區建二路149號","121.48723","25.00364","6500300","中和區"
"235021","801-TS","2018/06/07 14:19:40","新北市中和區員山路423巷12弄1號","121.480463333333","25.003185","6500300","中和區"
"235005","802-TS","2018/06/07 14:19:39","新北市中和區中安街178巷13弄5號","121.510411666667","24.9985533333333","6500300","中和區"
"235016","805-TS","2018/06/07 14:19:41","新北市中和區興南路二段142巷17弄33號","121.503033333333","24.982865","6500300","中和區"
"235012","896-TW","2018/06/07 14:19:55","新北市中和區華新街109巷24號","121.508515","24.9804333333333","6500300","中和區"
"235017","900-TW","2018/06/07 14:19:36","新北市中和區華安街17巷37號","121.467703333333","24.998335","6500300","中和區"
"235030","911-UM","2018/06/07 14:19:38","新北市中和區景新街2號","121.50264","24.9995983333333","6500300","中和區"
"235015","157-BY","2018/06/07 14:19:52","新北市中和區景平路239巷55號","121.508785","24.9921416666667","6500300","中和區"
"235001","AAC-213","2018/06/07 14:19:47","新北市中和區自立路15巷8號","121.522935","24.9959866666667","6500300","中和區"
"235023","AAC-215","2018/06/07 14:19:48","新北市中和區圓通路252巷5弄48號","121.492198333333","24.9917583333333","6500300","中和區"
"220016","013-TV","2018/06/07 14:19:55","新北市板橋區林森街1巷28號","121.482753333333","25.0243216666667","6500100","板橋區"
"220013","072-UY","2018/06/07 14:19:34","新北市板橋區國泰街76巷32號","121.467138333333","25.0071216666667","6500100","板橋區"
"220105","075-UY","2018/06/07 14:19:50","新北市板橋區雙十路三段66巷1號","121.470578333333","25.0319383333333","6500100","板橋區"
"220017","AAD-861","2018/06/07 14:19:52","新北市板橋區大華街71號","121.459446666667","25.0034583333333","6500100","板橋區"
"220039","120-SR","2018/06/07 14:19:56","新北市板橋區四維路349巷16號","121.461586666667","25.0297083333333","6500100","板橋區"
"247023","893-R6","2018/06/07 14:19:53","新北市蘆洲區長榮路675號","121.460311666667","25.0918433333333","6501400","蘆洲區"
"247013","546-UM","2018/06/07 14:19:40","新北市蘆洲區中山一路196號","121.473736666667","25.08086","6501400","蘆洲區"
"247021","500-BY","2018/06/07 14:19:45","新北市蘆洲區三民路128巷166號","121.46835","25.0926483333333","6501400","蘆洲區"
"247009","341-TH","2018/06/07 14:19:48","新北市蘆洲區三民路26巷24號","121.477603333333","25.082925","6501400","蘆洲區"
"247011","339-TH","2018/06/07 14:19:49","新北市蘆洲區信義路351巷18號","121.476745","25.086805","6501400","蘆洲區"
"247003","337-TH","2018/06/07 14:19:39","新北市蘆洲區長安街170號","121.4592","25.08334","6501400","蘆洲區"
"247005","336-TH","2018/06/07 14:19:51","新北市蘆洲區九芎街153巷9號","121.46554","25.0788233333333","6501400","蘆洲區"
"247017","057-VK","2018/06/07 14:19:38","新北市蘆洲區復興路114號","121.476285","25.08722","6501400","蘆洲區"
"247015","007-UY","2018/06/07 14:19:45","新北市蘆洲區中正路185巷31弄24號","121.466721666667","25.0836266666667","6501400","蘆洲區"
"247001","002-UY","2018/06/07 14:19:36","新北市蘆洲區永樂街66號","121.457255","25.0887066666667","6501400","蘆洲區"
"247019","001-UY","2018/06/07 14:19:43","新北市蘆洲區仁愛街35巷15弄2號","121.471523333333","25.0925766666667","6501400","蘆洲區"
"228005","097-TW","2018/06/07 14:19:50","新北市貢寮區美豐里土地公嶺54號","121.894535","25.06503","6502600","貢寮區"
"228004","212-TW","2018/06/07 14:19:34","新北市貢寮區雙玉里田寮洋街39號","121.924908333333","25.01389","6502600","貢寮區"
"253003","6232-TK","2018/06/07 14:19:39","新北市石門區內石門62號","121.577891666667","25.26589","6502200","石門區"
"253001","6251-TK","2018/06/07 14:19:34","新北市石門區八甲58-3號","121.528921666667","25.2652283333333","6502200","石門區"
"253002","637-UY","2018/06/07 14:19:39","新北市石門區楓林31號","121.544273333333","25.285445","6502200","石門區"
"253004","8270-PC","2018/06/07 14:19:36","新北市石門區阿里磅90號","121.589545","25.2598433333333","6502200","石門區"
"207002","749-BX","2018/06/07 14:19:17","新北市萬里區溪底里溪底路13號","121.61465","25.1491416666667","6502800","萬里區"
"252005","073-UM","2018/06/07 14:19:40","新北市三芝區橫山里橫山21號","121.53998","25.2627116666667","6502100","三芝區"
"207001","662-BX","2018/06/07 14:19:42","新北市萬里區磺潭里清水18號","121.63785","25.1976816666667","6502800","萬里區"
"236040","107-UM","2018/06/07 14:19:52","新北市土城區樂利街7號","121.448353333333","24.98599","6501300","土城區"
"236074","166-UM","2018/06/07 14:19:52","新北市土城區永安街115巷38弄2號","121.428641666667","24.962685","6501300","土城區"
"236029","253-BX","2018/06/07 14:19:39","新北市土城區順風路30號","121.440083333333","24.9770816666667","6501300","土城區"
"236024","269-VK","2018/06/07 14:19:52","新北市土城區承天路65號","121.439521666667","24.9637433333333","6501300","土城區"
"236012","270-VK","2018/06/07 14:19:52","新北市土城區青雲路39巷7號","121.460346666667","24.987535","6501300","土城區"
"236032","271-VK","2018/06/07 14:19:32","新北市土城區青雲路451巷8弄9號","121.459583333333","24.974445","6501300","土城區"
"236068","KEA-2877","2018/06/07 14:19:44","新北市土城區明德路一段128巷17號","121.46301","24.9787533333333","6501300","土城區"
"236017","401-BY","2018/06/07 14:19:50","新北市土城區金城路二段204號","121.45513","24.9819466666667","6501300","土城區"
"236005","498-BY","2018/06/07 14:19:54","新北市土城區中華路一段56巷31號","121.44411","24.989775","6501300","土城區"
"236057","912-UM","2018/06/07 14:19:49","新北市土城區信義路2號","121.412893333333","24.954455","6501300","土城區"
"236045","913-UM","2018/06/07 14:19:46","新北市土城區明德路一段361-2號","121.456435","24.9776783333333","6501300","土城區"
"236060","915-UM","2018/06/07 14:19:43","新北市土城區延壽路44巷15號","121.471491666667","24.9929566666667","6501300","土城區"
"236054","AAC-216","2018/06/07 14:19:48","新北市土城區中華路二段108號","121.437975","24.9741633333333","6501300","土城區"
"220027","145-BY","2018/06/07 14:19:41","新北市板橋區民權路302巷4號","121.457406666667","25.0164183333333","6500100","板橋區"
"220028","200-UY","2018/06/07 14:19:45","新北市板橋區大觀路二段19巷69號","121.448693333333","25.003005","6500100","板橋區"
"220030","610-BX","2018/06/07 14:19:55","新北市板橋區滿平街84巷80號","121.426123333333","24.9871133333333","6500100","板橋區"
"220050","245-BX","2018/06/07 14:19:48","新北市板橋區莊敬路25巷17號","121.474408333333","25.0270816666667","6500100","板橋區"
"220004","276-BY","2018/06/07 14:19:43","新北市板橋區信義路165號","121.4587","24.9922816666667","6500100","板橋區"
"220020","277-BY","2018/06/07 14:19:54","新北市板橋區金門街252號","121.430493333333","24.9870783333333","6500100","板橋區"
"220042","280-UM","2018/06/07 14:19:49","新北市板橋區漢生西路97號","121.462535","25.01986","6500100","板橋區"
"220019","283-VK","2018/06/07 14:19:56","新北市板橋區忠孝路48巷7弄11號","121.461533333333","25.0004483333333","6500100","板橋區"
"220043","285-UM","2018/06/07 14:19:38","新北市板橋區吳鳳路21巷2號","121.466983333333","25.03121","6500100","板橋區"
"220001","285-VK","2018/06/07 14:19:44","新北市板橋區縣民大道三段262-4號","121.478261666667","25.0229233333333","6500100","板橋區"
"220031","286-VK","2018/06/07 14:19:50","新北市板橋區龍興街95巷1號","121.443991666667","25.0022566666667","6500100","板橋區"
"220029","287-VK","2018/06/07 14:19:35","新北市板橋區南雅西路一段61號","121.453518333333","25.0054133333333","6500100","板橋區"
"220009","293-UM","2018/06/07 14:19:40","新北市板橋區光復街192巷20號","121.481475","25.0188833333333","6500100","板橋區"
"220032","296-UM","2018/06/07 14:19:54","新北市板橋區滿平街136巷5弄1號","121.428143333333","24.9874716666667","6500100","板橋區"
"220023","303-R5","2018/06/07 14:19:48","新北市板橋區南雅西路一段116號","121.452481666667","25.0064116666667","6500100","板橋區"
"220010","305-R5","2018/06/07 14:19:52","新北市板橋區三民路二段153巷36弄2號","121.48111","25.0141183333333","6500100","板橋區"
"220041","307-R5","2018/06/07 14:19:53","新北市板橋區光武街36巷21-3號","121.468126666667","25.0263616666667","6500100","板橋區"
"220047","317-R6","2018/06/07 14:19:54","新北市板橋區民有街72號","121.46531","25.026705","6500100","板橋區"
"220037","491-VK","2018/06/07 14:19:47","新北市板橋區文化路二段182巷3弄66號","121.472615","25.0287066666667","6500100","板橋區"
"220104","560-BX","2018/06/07 14:19:45","新北市板橋區中正路433巷25號","121.453288333333","25.0236183333333","6500100","板橋區"
"220052","561-BX","2018/06/07 14:19:48","新北市板橋區文化路一段188巷7弄18號","121.467685","25.0196316666667","6500100","板橋區"
"220011","609-BX","2018/06/07 14:19:44","新北市板橋區三民路二段203-4號","121.479018333333","25.0135733333333","6500100","板橋區"
"220034","630-UY","2018/06/07 14:19:40","新北市板橋區中正路214號","121.455871666667","25.0183283333333","6500100","板橋區"
"220040","637-BX","2018/06/07 14:19:52","新北市板橋區文聖街204號","121.480196666667","25.0258083333333","6500100","板橋區"
"220005","686-BX","2018/06/07 14:19:54","新北市中和區和平路200巷1-8號","121.464491666667","24.9954283333333","6500100","板橋區"
"220025","687-BX","2018/06/07 14:19:42","新北市板橋區大觀路二段146-2號","121.442111666667","24.998795","6500100","板橋區"
"220002","741-BX","2018/06/07 14:19:40","新北市板橋區實踐路116號","121.464186666667","25.004165","6500100","板橋區"
"220051","KEA-2699","2018/06/07 14:19:42","新北市板橋區文聖街207號","121.479808333333","25.0263733333333","6500100","板橋區"
"220012","806-UM","2018/06/07 14:19:42","新北市板橋區縣民大道二段68-1號","121.463488333333","25.01314","6500100","板橋區"
"220003","827-TW","2018/06/07 14:19:57","新北市板橋區民族路57號","121.46465","25.0088033333333","6500100","板橋區"
"220014","830-TW","2018/06/07 14:19:42","新北市板橋區長安街138巷1弄52號","121.473928333333","25.010175","6500100","板橋區"
"220045","831-TW","2018/06/07 14:19:43","新北市板橋區大同街26巷31號","121.478468333333","25.0264183333333","6500100","板橋區"
"220038","833-TW","2018/06/07 14:19:55","新北市板橋區文化路一段216號","121.466385","25.0204433333333","6500100","板橋區"
"220022","895-R6","2018/06/07 14:19:49","新北市板橋區北門街40號","121.457073333333","25.0109933333333","6500100","板橋區"
"220021","985-R7","2018/06/07 14:19:43","新北市板橋區中正路243號","121.455861666667","25.0181766666667","6500100","板橋區"
"220046","AAC-210","2018/06/07 14:19:54","新北市板橋區漢生西路89巷5弄20號","121.461026666667","25.0197816666667","6500100","板橋區"
"220018","AAC-253","2018/06/07 14:19:42","新北市板橋區忠孝路147號","121.463498333333","25.002375","6500100","板橋區"
"235032","KEA-2873","2018/06/07 14:19:45","新北市中和區枋寮街71號","121.501021666667","25.001095","6500300","中和區"
"235025","KEA-2875","2018/06/07 14:19:48","新北市中和區員山路394巷12弄1號","121.481301666667","25.0043083333333","6500300","中和區"
