"lineid","car","time","location","longitude","latitude","cityid","cityname"
"234084","338-UY","2018/06/07 15:19:21","新北市林口區太平里180號","121.368548333333","25.1342833333333","6500400","永和區"
"248007","095-VK","2018/06/07 15:19:15","新北市五股區中興路一段1巷31-1號","121.469433333333","25.069825","6501500","五股區"
"248003","677-BX","2018/06/07 15:19:27","新北市五股區中興路四段23號","121.438788333333","25.0827316666667","6501500","五股區"
"243008","380-SR","2018/06/07 15:19:13","新北市泰山區文程路111號","121.430563333333","25.0481966666667","6501600","泰山區"
"243004","646-TV","2018/06/07 15:19:23","新北市泰山區泰林路二段515號","121.424108333333","25.0637483333333","6501600","泰山區"
"231002","002-UM","2018/06/07 15:19:11","新北市新店區中正路700巷3號","121.533486666667","24.9917","6500600","新店區"
"231028","046-UY","2018/06/07 15:19:27","新北市新店區僑信路132巷38號","121.4998","24.9453933333333","6500600","新店區"
"231001","047-UY","2018/06/07 15:19:22","新北市新店區北新路一段251號","121.540871666667","24.9660316666667","6500600","新店區"
"231021","108-UY","2018/06/07 15:19:24","新北市新店區湖興路131-1號","121.563056666667","24.9371933333333","6500600","新店區"
"231011","187-VK","2018/06/07 15:19:19","新北市新店區寶慶街58巷2號","121.542048333333","24.9866733333333","6500600","新店區"
"231023","KEA-2219","2018/06/07 15:19:22","新北市新店區北新路一段64巷39弄4號","121.54256","24.9657883333333","6500600","新店區"
"231026","256-BX","2018/06/07 15:19:21","新北市新店區中正路247巷4弄1號","121.538843333333","24.973005","6500600","新店區"
"231003","268-BY","2018/06/07 15:19:12","新北市新店區寶橋路230號","121.551495","24.9789083333333","6500600","新店區"
"231018","278-BY","2018/06/07 15:19:06","新北市新店區中央六街38號","121.528765","24.9753033333333","6500600","新店區"
"231017","AAD-862","2018/06/07 15:19:25","新北市新店區明山路45號","121.563815","24.9559066666667","6500600","新店區"
"231005","355-BY","2018/06/07 15:19:20","新北市新店區北新路三段198號","121.541333333333","24.9834983333333","6500600","新店區"
"231038","3712-VJ","2018/06/07 15:19:22","新北市新店區安華路28-1號","121.519635","24.9608566666667","6500600","新店區"
"231025","4715-K9","2018/06/07 15:19:20","新北市新店區環河路103-6號","121.531228333333","24.9709416666667","6500600","新店區"
"231036","512-UM","2018/06/07 15:19:09","新北市新店區安祥路69巷17號","121.481931666667","24.9613483333333","6500600","新店區"
"231030","619-UM","2018/06/07 15:19:22","新北市新店區安民街341-1號","121.516821666667","24.9748883333333","6500600","新店區"
"231034","641-BX","2018/06/07 15:19:21","新北市新店區如意街3巷2號","121.495548333333","24.94919","6500600","新店區"
"231039","718-UY","2018/06/07 15:19:20","新北市新店區寶元路一段65號","121.542195","24.9857366666667","6500600","新店區"
"231035","719-UM","2018/06/07 15:19:17","新北市新店區永平街23巷10號","121.516671666667","24.9830666666667","6500600","新店區"
"231031","720-UM","2018/06/07 15:19:05","新北市新店區和成街15巷2號","121.48777","24.9473066666667","6500600","新店區"
"231029","897-TW","2018/06/07 15:19:25","新北市新店區安康路三段738號","121.473821666667","24.9420033333333","6500600","新店區"
"231006","898-TW","2018/06/07 15:19:17","新北市新店區光明街314號","121.540808333333","24.9650483333333","6500600","新店區"
"231004","899-TW","2018/06/07 15:19:12","新北市新店區博愛街13巷24號","121.540283333333","24.9740533333333","6500600","新店區"
"231024","AKT-0513","2018/06/07 15:19:17","新北市新店區光明街187號","121.539803333333","24.9633266666667","6500600","新店區"
"241004","475-VK","2018/06/07 15:19:06","新北市三重區重新路四段121號","121.484948333333","25.0518466666667","6500200","三重區"
"241032","887-TS","2018/06/07 15:19:22","新北市三重區重新路四段121號","121.484831666667","25.0525216666667","6500200","三重區"
"235014","4979-A6","2018/06/07 15:19:22","新北市中和區景平路464巷2弄2號","121.50582","24.9938716666667","6500300","中和區"
"235033","4980-A6","2018/06/07 15:19:27","新北市中和區圓通路190號","121.496453333333","24.9944583333333","6500300","中和區"
"235034","558-UM","2018/06/07 15:19:18","新北市中和區中正路488-2號","121.489083333333","24.994315","6500300","中和區"
"235035","783-BX","2018/06/07 15:19:06","新北市中和區中正路988巷7號","121.481938333333","25.0098766666667","6500300","中和區"
"235012","896-TW","2018/06/07 15:19:18","新北市中和區興南路一段36號","121.511165","24.9908833333333","6500300","中和區"
"235030","911-UM","2018/06/07 15:19:17","新北市中和區水源路116號","121.506911666667","25.0035316666667","6500300","中和區"
"235001","AAC-213","2018/06/07 15:19:06","新北市三重區重新路五段326巷25-1號","121.47895","25.0439916666667","6500300","中和區"
"235023","AAC-215","2018/06/07 15:19:08","新北市中和區圓通路435巷2-13號","121.487766666667","24.9866216666667","6500300","中和區"
"220039","120-SR","2018/06/07 15:19:16","新北市板橋區幸福路32巷48號","121.460493333333","25.0220066666667","6500100","板橋區"
"253003","6232-TK","2018/06/07 15:19:19","新北市石門區小坑9號","121.594388333333","25.28842","6502200","石門區"
"253001","6251-TK","2018/06/07 15:19:15","新北市石門區崁子腳31-2號","121.53739","25.2849666666667","6502200","石門區"
"253002","637-UY","2018/06/07 15:19:19","新北市石門區阿里磅1號","121.591213333333","25.2909216666667","6502200","石門區"
"253004","8270-PC","2018/06/07 15:19:12","新北市石門區小坑9號","121.594468333333","25.2891633333333","6502200","石門區"
"207002","749-BX","2018/06/07 15:19:17","新北市萬里區崁腳里內中福路2-1號","121.669096666667","25.16535","6502800","萬里區"
"207001","662-BX","2018/06/07 15:19:22","新北市萬里區大鵬里萬里加投9號","121.652203333333","25.2086016666667","6502800","萬里區"
"236040","107-UM","2018/06/07 15:19:24","新北市土城區裕民路185巷7號","121.45381","24.9848733333333","6501300","土城區"
"236074","166-UM","2018/06/07 15:19:12","新北市土城區中州路27巷77號","121.41276","24.956515","6501300","土城區"
"236029","253-BX","2018/06/07 15:19:19","新北市土城區中央路一段262巷4號","121.443856666667","24.98409","6501300","土城區"
"236024","269-VK","2018/06/07 15:19:25","新北市土城區員林街24-1號","121.443825","24.9774916666667","6501300","土城區"
"236012","270-VK","2018/06/07 15:19:21","新北市土城區學府路一段52號","121.457448333333","24.9885783333333","6501300","土城區"
"236032","271-VK","2018/06/07 15:19:21","新北市土城區國際路127-7號","121.46787","24.97608","6501300","土城區"
"236068","KEA-2877","2018/06/07 15:19:04","新北市土城區裕民路185巷36弄10號","121.454375","24.984495","6501300","土城區"
"236017","401-BY","2018/06/07 15:19:10","新北市土城區峰廷街8號","121.468646666667","24.9877633333333","6501300","土城區"
"236057","912-UM","2018/06/07 15:19:23","新北市土城區中央路三段67號","121.43877","24.969385","6501300","土城區"
"236045","913-UM","2018/06/07 15:19:06","新北市土城區金城路二段396號","121.463976666667","24.98568","6501300","土城區"
"236060","915-UM","2018/06/07 15:19:25","新北市土城區延和路105巷4弄1號","121.467425","24.99086","6501300","土城區"
"236054","AAC-216","2018/06/07 15:19:29","新北市土城區學府路一段76號","121.45652","24.9881683333333","6501300","土城區"
"238010","601-UM","2018/06/07 15:19:13","新北市樹林區大安路257號","121.419181666667","24.99402","6500700","樹林區"
"238018","571-TV","2018/06/07 15:19:26","新北市樹林區樹新路59號","121.427405","24.9950133333333","6500700","樹林區"
"238011","5061-A6","2018/06/07 15:19:23","新北市樹林區鎮前街168號","121.424331666667","24.9898733333333","6500700","樹林區"
"238009","KEA-2213","2018/06/07 15:19:22","新北市樹林區仁愛街81號","121.423848333333","24.98289","6500700","樹林區"
"238008","KEA-2539","2018/06/07 15:19:17","新北市樹林區西圳街一段165巷20弄28號","121.395601666667","24.9601516666667","6500700","樹林區"
"238012","303-VK","2018/06/07 15:19:12","新北市樹林區中山路一段296號","121.420326666667","24.986445","6500700","樹林區"
"238001","283-BY","2018/06/07 15:19:22","新北市樹林區八德街82號","121.420145","24.9812116666667","6500700","樹林區"
"238001","282-BY","2018/06/07 15:19:16","新北市樹林區大安路179號","121.421125","24.9962483333333","6500700","樹林區"
"238007","268-VK","2018/06/07 15:19:13","新北市樹林區俊英街80號","121.428145","25.0041216666667","6500700","樹林區"
"238013","172-UY","2018/06/07 15:19:21","新北市樹林區味王街46巷6號","121.404353333333","24.973835","6500700","樹林區"
"238003","169-UY","2018/06/07 15:19:09","新北市樹林區中山路二段10號","121.417616666667","24.9850516666667","6500700","樹林區"
"220050","245-BX","2018/06/07 15:19:28","新北市板橋區縣民大道三段32號","121.471548333333","25.01892","6500100","板橋區"
"220042","280-UM","2018/06/07 15:19:23","新北市板橋區長江路一段148號","121.460911666667","25.030205","6500100","板橋區"
"220031","286-VK","2018/06/07 15:19:10","新北市板橋區僑中二街106巷18號","121.445131666667","25.0077766666667","6500100","板橋區"
"220029","287-VK","2018/06/07 15:19:15","新北市板橋區僑中一街80巷1弄5號","121.447338333333","25.01191","6500100","板橋區"
"220009","293-UM","2018/06/07 15:19:21","新北市板橋區四川路一段286巷15號","121.45795","25.00098","6500100","板橋區"
"220041","307-R5","2018/06/07 15:19:17","新北市板橋區文化路一段45巷5號","121.460113333333","25.0137733333333","6500100","板橋區"
"220037","491-VK","2018/06/07 15:19:28","新北市板橋區民治街69號","121.479623333333","25.0328016666667","6500100","板橋區"
"220052","561-BX","2018/06/07 15:19:08","新北市板橋區漢生西路26號","121.463496666667","25.018215","6500100","板橋區"
"220011","609-BX","2018/06/07 15:19:24","新北市板橋區三民路一段3巷1號","121.478781666667","25.0235733333333","6500100","板橋區"
"220025","687-BX","2018/06/07 15:19:21","新北市板橋區大觀路二段108號","121.443951666667","24.99933","6500100","板橋區"
"220051","KEA-2699","2018/06/07 15:19:21","新北市板橋區漢生東路53巷2號","121.465843333333","25.0165733333333","6500100","板橋區"
"220038","833-TW","2018/06/07 15:19:12","新北市板橋區互助街17號","121.463001666667","25.0276383333333","6500100","板橋區"
"220046","AAC-210","2018/06/07 15:19:21","新北市板橋區民權路202巷18弄9號","121.461265","25.0163816666667","6500100","板橋區"
"220018","AAC-253","2018/06/07 15:19:22","新北市板橋區四川路二段245巷55弄1號","121.452393333333","24.992525","6500100","板橋區"
