"lineid","car","time","location","longitude","latitude","cityid","cityname"
"243007","421-VK","2018/06/07 15:35:47","新北市泰山區黎明路25號","121.422206666667","25.06066","6501600","泰山區"
"243004","646-TV","2018/06/07 15:39:23","新北市泰山區泰林路三段96號","121.417133333333","25.0658283333333","6501600","泰山區"
"243014","680-BX","2018/06/07 15:31:07","新北市泰山區黎明路25號","121.422031666667","25.0606433333333","6501600","泰山區"
"231028","046-UY","2018/06/07 15:39:09","新北市新店區僑義路24號","121.500578333333","24.9499666666667","6500600","新店區"
"231021","108-UY","2018/06/07 15:39:24","新北市新店區新烏路一段127-1號","121.546948333333","24.936765","6500600","新店區"
"231011","187-VK","2018/06/07 15:39:19","新北市新店區寶元路一段109號","121.545688333333","24.9830866666667","6500600","新店區"
"231023","KEA-2219","2018/06/07 15:39:22","新北市新店區中興路一段285號","121.545438333333","24.9685516666667","6500600","新店區"
"231026","256-BX","2018/06/07 15:39:21","新北市新店區三民路75巷4弄2號","121.535528333333","24.9709266666667","6500600","新店區"
"231003","268-BY","2018/06/07 15:39:12","新北市新店區寶橋路98號","121.547218333333","24.9757583333333","6500600","新店區"
"231018","278-BY","2018/06/07 15:39:26","新北市新店區民生路156巷117號","121.526851666667","24.9824933333333","6500600","新店區"
"231017","AAD-862","2018/06/07 15:39:25","新北市新店區北宜路二段16號","121.547961666667","24.9517033333333","6500600","新店區"
"231005","355-BY","2018/06/07 15:39:20","新北市新店區建國路276號","121.537246666667","24.9836716666667","6500600","新店區"
"231038","3712-VJ","2018/06/07 15:39:22","新北市新店區安康路二段16巷24號","121.516515","24.9646666666667","6500600","新店區"
"231036","512-UM","2018/06/07 15:39:09","新北市新店區安祥路67巷61號","121.486275","24.9582566666667","6500600","新店區"
"231013","513-UM","2018/06/07 15:39:19","新北市新店區永業路81巷1弄14號","121.530308333333","24.95012","6500600","新店區"
"231030","619-UM","2018/06/07 15:39:22","新北市新店區新和街93巷2號","121.521095","24.986495","6500600","新店區"
"231034","641-BX","2018/06/07 15:39:21","新北市新店區如意街50號","121.49334","24.9470083333333","6500600","新店區"
"231039","718-UY","2018/06/07 15:39:20","新北市新店區寶元路二段11號","121.546061666667","24.9824083333333","6500600","新店區"
"231035","719-UM","2018/06/07 15:39:17","新北市新店區安興路92號","121.515175","24.9761733333333","6500600","新店區"
"231031","720-UM","2018/06/07 15:39:25","新北市新店區雙城路133號","121.497921666667","24.93879","6500600","新店區"
"231029","897-TW","2018/06/07 15:39:24","新北市新店區安康路三段2-2號","121.493296666667","24.9534","6500600","新店區"
"231004","899-TW","2018/06/07 15:39:12","新北市新店區民族路105號","121.538156666667","24.9773566666667","6500600","新店區"
"241011","013-R5","2018/06/07 15:39:13","新北市三重區秀江街199號","121.497788333333","25.07169","6500200","三重區"
"241028","022-UY","2018/06/07 15:39:12","新北市三重區重新路四段121號","121.484675","25.0526033333333","6500200","三重區"
"241008","059-VK","2018/06/07 15:39:08","新北市三重區重新路四段121號","121.484938333333","25.0518416666667","6500200","三重區"
"241017","063-VK","2018/06/07 15:39:24","新北市三重區重新路三段132號","121.49164","25.0599116666667","6500200","三重區"
"241013","742-BX","2018/06/07 15:39:10","新北市三重區重新路四段121號","121.48514","25.0518816666667","6500200","三重區"
"241016","266-UM","2018/06/07 15:39:12","新北市三重區重新路四段121號","121.485165","25.0520666666667","6500200","三重區"
"241007","398-BY","2018/06/07 15:39:25","新北市三重區重新路四段121號","121.485208333333","25.0519983333333","6500200","三重區"
"241004","475-VK","2018/06/07 15:39:26","新北市三重區重新路四段121號","121.48489","25.0518433333333","6500200","三重區"
"241020","478-VK","2018/06/07 15:39:08","新北市三重區忠孝路二段46號","121.485131666667","25.07049","6500200","三重區"
"241030","480-VK","2018/06/07 15:39:13","新北市三重區重新路四段121號","121.484736666667","25.0525533333333","6500200","三重區"
"241014","543-UM","2018/06/07 15:39:18","新北市三重區正義北路291號","121.494826666667","25.0705866666667","6500200","三重區"
"241023","545-UM","2018/06/07 15:39:21","新北市三重區重新路四段121號","121.484751666667","25.0525766666667","6500200","三重區"
"241001","547-UM","2018/06/07 15:39:08","新北市三重區重新路四段121號","121.484546666667","25.0522816666667","6500200","三重區"
"241019","KEA-2593","2018/06/07 15:39:11","新北市三重區重新路四段121號","121.484886666667","25.0521666666667","6500200","三重區"
"241006","AAD-863","2018/06/07 15:39:17","新北市三重區重新路四段121號","121.48472","25.052165","6500200","三重區"
"241032","887-TS","2018/06/07 15:39:22","新北市三重區捷運路11-2號","121.485758333333","25.0562433333333","6500200","三重區"
"241012","941-UM","2018/06/07 15:39:21","新北市三重區正義南路6號","121.498048333333","25.06167","6500200","三重區"
"241029","942-UM","2018/06/07 15:39:13","新北市三重區大同南路202號","121.496756666667","25.0566833333333","6500200","三重區"
"241033","AAC-255","2018/06/07 15:39:16","新北市三重區重新路五段416號","121.475633333333","25.0476483333333","6500200","三重區"
"235014","4979-A6","2018/06/07 15:39:22","新北市中和區中正路72號","121.50083","24.9937483333333","6500300","中和區"
"235033","4980-A6","2018/06/07 15:39:16","新北市中和區員山路381巷1弄2號","121.480921666667","25.0023416666667","6500300","中和區"
"235001","AAC-213","2018/06/07 15:39:26","新北市八里區中山路三段409號","121.368623333333","25.1349133333333","6500300","中和區"
"235023","AAC-215","2018/06/07 15:39:28","新北市中和區員山路17號","121.480378333333","24.9847166666667","6500300","中和區"
"227010","400-TW","2018/06/07 15:39:20","新北市雙溪區三貂里政光路3-1號","121.850831666667","25.0630266666667","6502500","雙溪區"
"253003","6232-TK","2018/06/07 15:39:19","新北市石門區小坑9號","121.594376666667","25.2883316666667","6502200","石門區"
"236074","166-UM","2018/06/07 15:39:12","新北市土城區龍泉路13號","121.410225","24.949085","6501300","土城區"
"236029","253-BX","2018/06/07 15:39:19","新北市土城區中央路一段45巷2弄13號","121.448328333333","24.98989","6501300","土城區"
"236024","269-VK","2018/06/07 15:39:20","新北市土城區中央路一段291巷16號","121.445081666667","24.9841033333333","6501300","土城區"
"236012","270-VK","2018/06/07 15:39:12","新北市土城區廣明街90巷21號","121.455431666667","24.9945566666667","6501300","土城區"
"236068","KEA-2877","2018/06/07 15:39:24","新北市土城區中央路三段128-2號","121.43487","24.9659583333333","6501300","土城區"
"236017","401-BY","2018/06/07 15:39:10","新北市土城區延吉街111巷15號","121.471906666667","24.9859233333333","6501300","土城區"
"236057","912-UM","2018/06/07 15:39:09","新北市土城區中央路一段330號","121.443211666667","24.9814366666667","6501300","土城區"
"236045","913-UM","2018/06/07 15:39:26","新北市土城區金城路三段186號","121.468091666667","24.9878983333333","6501300","土城區"
"236054","AAC-216","2018/06/07 15:39:11","新北市土城區學府路一段69號","121.457123333333","24.9882133333333","6501300","土城區"
"242008","442-UM","2018/06/07 15:39:20","新北市新莊區三和路12-21號","121.441993333333","25.0388133333333","6500500","新莊區"
"238002","755-BX","2018/06/07 15:39:21","新北市樹林區日新街97號","121.421531666667","24.9901066666667","6500700","樹林區"
"238010","601-UM","2018/06/07 15:39:13","新北市樹林區三福街46號","121.407526666667","25.0164433333333","6500700","樹林區"
"238006","599-UM","2018/06/07 15:39:14","新北市樹林區太平路225號","121.418541666667","24.9767666666667","6500700","樹林區"
"238018","571-TV","2018/06/07 15:39:26","新北市樹林區中華路16號","121.421088333333","24.98213","6500700","樹林區"
"238011","5061-A6","2018/06/07 15:39:23","新北市樹林區中山路二段219號","121.403091666667","24.9766083333333","6500700","樹林區"
"238009","KEA-2213","2018/06/07 15:39:22","新北市樹林區中華路185-1號","121.420416666667","24.9817916666667","6500700","樹林區"
"238008","KEA-2539","2018/06/07 15:39:17","新北市樹林區柑園街一段349號","121.390478333333","24.9564016666667","6500700","樹林區"
"238012","303-VK","2018/06/07 15:39:12","新北市樹林區中山路二段142號","121.413198333333","24.9827783333333","6500700","樹林區"
"238001","283-BY","2018/06/07 15:39:22","新北市樹林區保安街二段335號","121.412501666667","25.0080333333333","6500700","樹林區"
"238001","282-BY","2018/06/07 15:39:29","新北市樹林區潭興街107巷20號","121.424528333333","24.9994066666667","6500700","樹林區"
"238007","268-VK","2018/06/07 15:39:13","新北市樹林區俊英街210號","121.425231666667","25.0094383333333","6500700","樹林區"
"238013","172-UY","2018/06/07 15:39:21","新北市樹林區新興街59號","121.399895","24.97131","6500700","樹林區"
"238003","169-UY","2018/06/07 15:39:09","新北市樹林區復興路266號","121.418273333333","24.9886633333333","6500700","樹林區"
"220050","245-BX","2018/06/07 15:39:28","新北市板橋區太和街6巷1號","121.47367","25.0200916666667","6500100","板橋區"
"220029","287-VK","2018/06/07 15:39:15","新北市板橋區金門街215巷111弄22號","121.434525","24.9878716666667","6500100","板橋區"
"220038","833-TW","2018/06/07 15:39:12","新北市板橋區四維路322號","121.462326666667","25.0301383333333","6500100","板橋區"
