"lineid","car","time","location","longitude","latitude","cityid","cityname"
"243007","421-VK","2018/06/07 15:35:47","新北市泰山區黎明路25號","121.422206666667","25.06066","6501600","泰山區"
"243014","680-BX","2018/06/07 15:31:07","新北市泰山區黎明路25號","121.422031666667","25.0606433333333","6501600","泰山區"
"231021","108-UY","2018/06/07 15:49:24","新北市新店區新烏路一段73-1號","121.546601666667","24.942255","6500600","新店區"
"231011","187-VK","2018/06/07 15:49:19","新北市新店區文化路66號","121.54448","24.9813","6500600","新店區"
"231046","188-VK","2018/06/07 15:49:16","新北市新店區安一路一段1-1號","121.519813333333","24.9613066666667","6500600","新店區"
"231023","KEA-2219","2018/06/07 15:49:22","新北市新店區大新街9巷16號","121.544096666667","24.9673616666667","6500600","新店區"
"231026","256-BX","2018/06/07 15:49:21","新北市新店區中正路541號","121.533305","24.9869016666667","6500600","新店區"
"231003","268-BY","2018/06/07 15:49:12","新北市新店區寶興路60巷3號","121.549913333333","24.9718633333333","6500600","新店區"
"231018","278-BY","2018/06/07 15:49:06","新北市新店區中正路663巷1弄2號","121.532975","24.98998","6500600","新店區"
"231017","AAD-862","2018/06/07 15:49:05","新北市新店區中華路83巷4弄20號","121.538268333333","24.9689","6500600","新店區"
"231038","3712-VJ","2018/06/07 15:49:22","新北市新店區安康路二段228巷15號","121.509515","24.959955","6500600","新店區"
"231037","4716-K9","2018/06/07 15:49:09","新北市新店區安民街303巷16號","121.516463333333","24.97393","6500600","新店區"
"231013","513-UM","2018/06/07 15:49:19","新北市新店區永業路81巷3弄2號","121.530046666667","24.949185","6500600","新店區"
"231030","619-UM","2018/06/07 15:49:22","新北市新店區永安街48號","121.518306666667","24.9866816666667","6500600","新店區"
"231034","641-BX","2018/06/07 15:49:21","新北市新店區吉祥街13巷1號","121.497716666667","24.94618","6500600","新店區"
"231035","719-UM","2018/06/07 15:49:17","新北市新店區安興路92號","121.515258333333","24.9761333333333","6500600","新店區"
"231031","720-UM","2018/06/07 15:49:25","新北市新店區雙城路60巷16弄13號","121.491658333333","24.947955","6500600","新店區"
"231004","899-TW","2018/06/07 15:49:12","新北市新店區中正路348號","121.536388333333","24.975405","6500600","新店區"
"241011","013-R5","2018/06/07 15:49:27","新北市三重區三和路二段228號","121.497516666667","25.0696916666667","6500200","三重區"
"241028","022-UY","2018/06/07 15:49:12","新北市三重區中正南路42號","121.493825","25.0600433333333","6500200","三重區"
"241008","059-VK","2018/06/07 15:49:08","新北市三重區重新路四段121號","121.484893333333","25.0520133333333","6500200","三重區"
"241017","063-VK","2018/06/07 15:49:24","新北市三重區明志街59號","121.491261666667","25.06394","6500200","三重區"
"241024","065-VK","2018/06/07 15:49:21","新北市三重區捷運路36號","121.482898333333","25.0550583333333","6500200","三重區"
"241026","066-VK","2018/06/07 15:49:24","新北市三重區泉州街84巷18號","121.495815","25.0543","6500200","三重區"
"241002","090-VK","2018/06/07 15:49:19","新北市三重區環河南路261號","121.490308333333","25.049975","6500200","三重區"
"241003","091-VK","2018/06/07 15:49:25","新北市三重區泉州街84巷18號","121.495833333333","25.054265","6500200","三重區"
"241014","742-BX","2018/06/07 15:49:10","新北市三重區重新路二段68號","121.49771","25.0619316666667","6500200","三重區"
"241005","262-UM","2018/06/07 15:49:25","新北市三重區福德南路65巷2號","121.502556666667","25.0600316666667","6500200","三重區"
"241016","266-UM","2018/06/07 15:49:12","新北市三重區重新路四段121號","121.485195","25.0520466666667","6500200","三重區"
"241022","267-UM","2018/06/07 15:49:08","新北市三重區成功路106-2號","121.487236666667","25.0516066666667","6500200","三重區"
"241025","271-UM","2018/06/07 15:49:09","新北市三重區捷運路73號","121.482786666667","25.0554516666667","6500200","三重區"
"241007","398-BY","2018/06/07 15:49:25","新北市三重區捷運路36號","121.482891666667","25.0552616666667","6500200","三重區"
"241004","475-VK","2018/06/07 15:49:26","新北市三重區重新路四段121號","121.484893333333","25.05191","6500200","三重區"
"241020","478-VK","2018/06/07 15:49:08","新北市三重區忠孝路二段46號","121.48518","25.0704033333333","6500200","三重區"
"241030","480-VK","2018/06/07 15:49:13","新北市三重區重新路四段121號","121.484718333333","25.052615","6500200","三重區"
"241013","543-UM","2018/06/07 15:49:18","新北市三重區六張街14號","121.495605","25.0705483333333","6500200","三重區"
"241023","545-UM","2018/06/07 15:49:21","新北市三重區捷運路36號","121.482835","25.05529","6500200","三重區"
"241001","547-UM","2018/06/07 15:49:28","新北市三重區重新路四段121號","121.484556666667","25.0523183333333","6500200","三重區"
"241019","KEA-2593","2018/06/07 15:49:11","新北市三重區重新路四段121號","121.484848333333","25.0521566666667","6500200","三重區"
"241006","AAD-863","2018/06/07 15:49:17","新北市三重區重新路四段121號","121.484725","25.0521966666667","6500200","三重區"
"241032","887-TS","2018/06/07 15:49:25","新北市三重區三陽路100巷3弄13號","121.483035","25.057895","6500200","三重區"
"241012","941-UM","2018/06/07 15:49:21","新北市三重區文化北路156-1號","121.498091666667","25.0674816666667","6500200","三重區"
"241029","942-UM","2018/06/07 15:49:13","新北市三重區大同南路159號","121.496841666667","25.055855","6500200","三重區"
"241033","AAC-255","2018/06/07 15:49:16","新北市三重區光復路一段128號","121.471918333333","25.052005","6500200","三重區"
"235033","4980-A6","2018/06/07 15:49:16","新北市中和區連城路469巷44弄12號","121.482798333333","24.9944533333333","6500300","中和區"
"235026","800-TS","2018/06/07 15:48:00","新北市中和區中正路637巷38號","121.485626666667","24.9948683333333","6500300","中和區"
"235001","AAC-213","2018/06/07 15:49:06","新北市八里區中山路三段390號","121.368153333333","25.1351783333333","6500300","中和區"
"235023","AAC-215","2018/06/07 15:49:08","新北市中和區員山路66-3號","121.482073333333","24.9915866666667","6500300","中和區"
"247006","336-TH","2018/06/07 15:49:11","新北市五股區中興路三段2巷10號","121.449161666667","25.080865","6501400","蘆洲區"
"227004","642-TC","2018/06/07 15:49:26","新北市雙溪區平林里外平林44號","121.852908333333","25.0363216666667","6502500","雙溪區"
"227010","400-TW","2018/06/07 15:49:20","新北市雙溪區雙溪里中正路48號","121.865346666667","25.0397833333333","6502500","雙溪區"
"236074","166-UM","2018/06/07 15:49:12","新北市土城區中央路四段187號","121.414886666667","24.9566666666667","6501300","土城區"
"236024","269-VK","2018/06/07 15:48:52","新北市土城區裕生路98號","121.446898333333","24.9849266666667","6501300","土城區"
"236012","270-VK","2018/06/07 15:49:12","新北市土城區廣明街92號","121.454761666667","24.99428","6501300","土城區"
"236068","KEA-2877","2018/06/07 15:49:24","新北市土城區金安街10號","121.421155","24.9644083333333","6501300","土城區"
"236017","401-BY","2018/06/07 15:49:16","新北市土城區延吉街23巷17號","121.473936666667","24.9874816666667","6501300","土城區"
"236057","912-UM","2018/06/07 15:49:09","新北市土城區中央路一段153號","121.446621666667","24.9877966666667","6501300","土城區"
"236045","913-UM","2018/06/07 15:49:26","新北市土城區金城路三段62號","121.466173333333","24.9869183333333","6501300","土城區"
"236054","AAC-216","2018/06/07 15:49:09","新北市土城區中華路一段219號","121.442141666667","24.9841083333333","6501300","土城區"
"242008","442-UM","2018/06/07 15:41:28","新北市新莊區三和路12-21號","121.441971666667","25.0388216666667","6500500","新莊區"
"238002","755-BX","2018/06/07 15:49:21","新北市樹林區樹德街99號","121.419961666667","24.992345","6500700","樹林區"
"238010","601-UM","2018/06/07 15:49:13","新北市樹林區龍興街14巷7號","121.40242","25.0160733333333","6500700","樹林區"
"238006","599-UM","2018/06/07 15:49:14","新北市樹林區水源街27號","121.425363333333","24.9825333333333","6500700","樹林區"
"238018","571-TV","2018/06/07 15:49:26","新北市樹林區鎮前街124號","121.424911666667","24.9909566666667","6500700","樹林區"
"238011","5061-A6","2018/06/07 15:49:23","新北市樹林區山佳街57號","121.392911666667","24.9724933333333","6500700","樹林區"
"238009","KEA-2213","2018/06/07 15:49:22","新北市樹林區太順街62巷3弄20號","121.41692","24.9794433333333","6500700","樹林區"
"238008","KEA-2539","2018/06/07 15:49:17","新北市樹林區柑園街二段153號","121.381615","24.9540483333333","6500700","樹林區"
"238012","303-VK","2018/06/07 15:49:12","新北市樹林區保安二街55號","121.42468","24.99472","6500700","樹林區"
"238001","283-BY","2018/06/07 15:49:22","新北市樹林區光榮街79號","121.412053333333","25.002995","6500700","樹林區"
"238001","282-BY","2018/06/07 15:49:09","新北市樹林區保安二街37號","121.424795","24.994025","6500700","樹林區"
"238007","268-VK","2018/06/07 15:49:13","新北市樹林區三俊街250號","121.421431666667","25.0149466666667","6500700","樹林區"
"238013","172-UY","2018/06/07 15:49:21","新北市樹林區中山路三段147-5號","121.396055","24.9732233333333","6500700","樹林區"
"238003","169-UY","2018/06/07 15:49:26","新北市樹林區啟智街139號","121.41688","24.9881733333333","6500700","樹林區"
"220050","245-BX","2018/06/07 15:49:08","新北市新莊區化成路565號","121.465276666667","25.0658516666667","6500100","板橋區"
"220029","287-VK","2018/06/07 15:49:15","新北市樹林區中山路三段202號","121.3864","24.968365","6500100","板橋區"
"220038","833-TW","2018/06/07 15:45:52","新北市板橋區長江路一段216號","121.46305","25.0308616666667","6500100","板橋區"
