"lineid","car","time","location","longitude","latitude","cityid","cityname"
"243009","297-R6","2018/06/07 16:09:07","新北市泰山區黎明路25號","121.421885","25.0607883333333","6501600","泰山區"
"231046","188-VK","2018/06/07 16:19:16","新北市新店區灣潭路3-2號","121.538268333333","24.9508033333333","6500600","新店區"
"231018","278-BY","2018/06/07 16:19:08","新北市新店區中正路700巷73號","121.535793333333","24.9933283333333","6500600","新店區"
"241011","013-R5","2018/06/07 16:19:07","新北市三重區龍濱路285號","121.501131666667","25.07335","6500200","三重區"
"241028","022-UY","2018/06/07 16:19:12","新北市三重區正義南路181巷1號","121.499005","25.0571183333333","6500200","三重區"
"241008","059-VK","2018/06/07 16:19:08","新北市三重區永福街112號","121.478995","25.0754516666667","6500200","三重區"
"241031","061-VK","2018/06/07 16:19:09","新北市三重區成功路171號","121.48596","25.0523333333333","6500200","三重區"
"241017","063-VK","2018/06/07 16:19:24","新北市三重區大同北路85號","121.494861666667","25.0636116666667","6500200","三重區"
"241024","065-VK","2018/06/07 16:19:21","新北市三重區中正北路117號","121.48348","25.0669216666667","6500200","三重區"
"241026","066-VK","2018/06/07 16:19:24","新北市三重區正義南路38號","121.498258333333","25.0609533333333","6500200","三重區"
"241002","090-VK","2018/06/07 16:19:19","新北市三重區仁義街91號","121.49977","25.079535","6500200","三重區"
"241003","091-VK","2018/06/07 16:19:25","新北市三重區五華街65號","121.492705","25.0825866666667","6500200","三重區"
"241013","742-BX","2018/06/07 16:19:10","新北市三重區三和路三段47巷9號","121.495846666667","25.07172","6500200","三重區"
"241005","262-UM","2018/06/07 16:19:25","新北市三重區溪尾街300-2號","121.487346666667","25.08376","6500200","三重區"
"241009","265-UM","2018/06/07 16:19:17","新北市三重區仁愛街512號","121.487325","25.0821466666667","6500200","三重區"
"241016","266-UM","2018/06/07 16:19:12","新北市三重區大仁街35號","121.492896666667","25.0653833333333","6500200","三重區"
"241022","267-UM","2018/06/07 16:19:28","新北市三重區過圳街31巷2號","121.488858333333","25.06059","6500200","三重區"
"241018","268-UM","2018/06/07 16:19:22","新北市三重區重陽路三段142-1號","121.489331666667","25.0670616666667","6500200","三重區"
"241025","271-UM","2018/06/07 16:19:29","新北市三重區中正北路560巷100弄2號","121.472548333333","25.0682433333333","6500200","三重區"
"241007","398-BY","2018/06/07 16:19:25","新北市三重區三和路四段163巷97號","121.48671","25.0795766666667","6500200","三重區"
"241004","475-VK","2018/06/07 16:19:26","新北市三重區五華街74號","121.493511666667","25.0820033333333","6500200","三重區"
"241020","478-VK","2018/06/07 16:19:08","新北市三重區力行路一段183號","121.483693333333","25.069705","6500200","三重區"
"241030","480-VK","2018/06/07 16:19:13","新北市三重區重新路四段121號","121.484806666667","25.0524783333333","6500200","三重區"
"241014","543-UM","2018/06/07 16:19:18","新北市三重區河邊北街96-1號","121.504011666667","25.0698733333333","6500200","三重區"
"241023","545-UM","2018/06/07 16:19:21","新北市三重區忠孝路二段160號","121.48233","25.0679716666667","6500200","三重區"
"241001","547-UM","2018/06/07 16:19:08","新北市三重區自強路四段87號","121.491103333333","25.079325","6500200","三重區"
"241019","KEA-2593","2018/06/07 16:19:11","新北市三重區重陽路三段97號","121.490331666667","25.067895","6500200","三重區"
"241006","AAD-863","2018/06/07 16:19:18","新北市三重區永福街46巷39號","121.482268333333","25.0773183333333","6500200","三重區"
"241032","887-TS","2018/06/07 16:19:22","新北市三重區三陽路100巷3弄13號","121.483018333333","25.0580966666667","6500200","三重區"
"241012","941-UM","2018/06/07 16:19:21","新北市三重區仁愛街34號","121.49646","25.0719316666667","6500200","三重區"
"241029","942-UM","2018/06/07 16:19:13","新北市三重區重安街105號","121.494183333333","25.0550466666667","6500200","三重區"
"241033","AAC-255","2018/06/07 16:19:16","新北市三重區重新路五段428號","121.475216666667","25.047415","6500200","三重區"
"235026","800-TS","2018/06/07 16:19:20","新北市中和區永和路171巷3弄4號","121.492598333333","25.0063933333333","6500300","中和區"
"235001","AAC-213","2018/06/07 16:19:06","新北市中和區中正路790-1號","121.485101666667","25.0012183333333","6500300","中和區"
"247005","336-TH","2018/06/07 16:02:10","新北市五股區中興路三段163號","121.449321666667","25.0806383333333","6501400","蘆洲區"
"224007","275-VK","2018/06/07 16:19:24","新北市瑞芳區大埔路176號","121.762258333333","25.10228","6501200","瑞芳區"
"224005","271-BY","2018/06/07 16:19:21","新北市瑞芳區瑞濱路123-3號","121.820683333333","25.1190883333333","6501200","瑞芳區"
"227004","642-TC","2018/06/07 16:19:06","新北市雙溪區上林里內平林80號","121.828275","25.0279266666667","6502500","雙溪區"
"227010","400-TW","2018/06/07 16:19:20","新北市雙溪區三港里雙澳路80號","121.883811666667","25.05389","6502500","雙溪區"
"251013","KEA-2871","2018/06/07 16:19:26","新北市淡水區北新路一段132號","121.458536666667","25.182295","6501000","淡水區"
"251008","443-VK","2018/06/07 16:19:10","新北市淡水區中正東路38-1號","121.44925","25.165685","6501000","淡水區"
"242008","442-UM","2018/06/07 16:00:47","","121.442006666667","25.0389283333333","6500500","新莊區"
"238002","755-BX","2018/06/07 16:19:21","新北市樹林區中山路二段230號","121.409266666667","24.980385","6500700","樹林區"
"238010","601-UM","2018/06/07 16:19:13","新北市樹林區忠信街15號","121.40769","25.0149866666667","6500700","樹林區"
"238006","599-UM","2018/06/07 16:19:14","新北市樹林區東榮街147巷27弄5號","121.414791666667","24.98104","6500700","樹林區"
"238009","KEA-2213","2018/06/07 16:19:22","新北市樹林區八德街263-1號","121.41929","24.9738616666667","6500700","樹林區"
"238025","303-VK","2018/06/07 16:10:25","新北市樹林區中正路22-1號","121.427853333333","24.99934","6500700","樹林區"
"238001","283-BY","2018/06/07 16:19:22","新北市樹林區中正路433-2號","121.414711666667","25.0082516666667","6500700","樹林區"
"238001","282-BY","2018/06/07 16:19:09","新北市樹林區中正路22-1號","121.427806666667","24.9995116666667","6500700","樹林區"
"238007","268-VK","2018/06/07 16:19:20","新北市樹林區三龍街118巷28號","121.41508","25.0172183333333","6500700","樹林區"
"220050","245-BX","2018/06/07 16:19:08","新北市八里區商港路48號","121.39587","25.145075","6500100","板橋區"
