"lineid","car","time","location","longitude","latitude","cityid","cityname"
"249005","172-UM","2018/06/07 16:59:09","新北市八里區渡船頭3-15號","121.433763333333","25.153715","6502300","八里區"
"249001","173-UM","2018/06/07 16:59:10","新北市八里區中山路三段106號","121.392983333333","25.1436316666667","6502300","八里區"
"249004","303-UY","2018/06/07 16:59:27","新北市八里區挖子尾街1-1號","121.415706666667","25.1654416666667","6502300","八里區"
"249002","305-UY","2018/06/07 16:59:12","新北市八里區牛寮埔22號","121.432526666667","25.1424916666667","6502300","八里區"
"249003","593-UM","2018/06/07 16:59:12","新北市八里區中山路二段301號","121.401098333333","25.1481483333333","6502300","八里區"
"244007","080-UY","2018/06/07 16:59:24","新北市林口區中湖50-1號","121.383733333333","25.0911","6501700","林口區"
"244019","403-UM","2018/06/07 16:59:23","新北市林口區粉寮路二段14號","121.401848333333","25.085545","6501700","林口區"
"244013","742-UY","2018/06/07 16:59:27","新北市林口區粉寮69號","121.404801666667","25.09084","6501700","林口區"
"244023","483-VK","2018/06/07 16:59:19","新北市林口區粉寮路31-2號","121.403791666667","25.0873583333333","6501700","林口區"
"244025","837-TS","2018/06/07 16:59:29","新北市林口區粉寮69號","121.405068333333","25.090885","6501700","林口區"
"231046","188-VK","2018/06/07 16:59:16","新北市新店區新潭路一段1-1號","121.52344","24.9445683333333","6500600","新店區"
"241011","013-R5","2018/06/07 16:59:27","新北市三重區仁愛街55巷124號","121.498858333333","25.072785","6500200","三重區"
"241028","022-UY","2018/06/07 16:59:12","新北市三重區中正南路40號","121.493748333333","25.0601283333333","6500200","三重區"
"241008","059-VK","2018/06/07 16:59:08","新北市三重區永福街179巷28號","121.47799","25.0748633333333","6500200","三重區"
"241031","061-VK","2018/06/07 16:59:09","新北市三重區三寧街15號","121.489468333333","25.0596316666667","6500200","三重區"
"241017","063-VK","2018/06/07 16:59:24","新北市三重區國隆路10號","121.493136666667","25.0638183333333","6500200","三重區"
"241024","065-VK","2018/06/07 16:59:21","新北市三重區大勇街82巷15弄30號","121.481143333333","25.0719916666667","6500200","三重區"
"241026","066-VK","2018/06/07 16:59:24","新北市三重區文化南路42號","121.500385","25.0602283333333","6500200","三重區"
"241002","090-VK","2018/06/07 16:59:20","新北市三重區仁義街101巷2號","121.49788","25.079905","6500200","三重區"
"241003","091-VK","2018/06/07 16:59:25","新北市三重區五華街141巷60號","121.493403333333","25.0866683333333","6500200","三重區"
"241013","742-BX","2018/06/07 16:59:10","新北市三重區公園街30號","121.49849","25.0742283333333","6500200","三重區"
"241005","262-UM","2018/06/07 16:59:25","新北市三重區仁華街80巷1號","121.484883333333","25.08299","6500200","三重區"
"241009","265-UM","2018/06/07 16:59:17","新北市三重區仁美街107號","121.485741666667","25.080805","6500200","三重區"
"241016","266-UM","2018/06/07 16:59:12","新北市三重區大智街12號","121.495265","25.0644816666667","6500200","三重區"
"241022","267-UM","2018/06/07 16:59:08","新北市三重區貴陽街47巷1號","121.484261666667","25.0626533333333","6500200","三重區"
"241018","268-UM","2018/06/07 16:59:22","新北市三重區民生東街6號","121.492643333333","25.06849","6500200","三重區"
"241025","271-UM","2018/06/07 16:59:08","新北市三重區中正北路357號","121.472713333333","25.0717066666667","6500200","三重區"
"241007","398-BY","2018/06/07 16:59:25","新北市三重區溪尾街186號","121.488345","25.0807816666667","6500200","三重區"
"241015","413-TH","2018/06/07 16:59:09","新北市三重區福德北路82號","121.501555","25.0663533333333","6500200","三重區"
"241004","475-VK","2018/06/07 16:59:26","新北市三重區五華街98巷15號","121.491976666667","25.0820333333333","6500200","三重區"
"241020","478-VK","2018/06/07 16:59:28","新北市三重區忠孝路二段35號","121.485878333333","25.07165","6500200","三重區"
"241030","480-VK","2018/06/07 16:59:13","新北市三重區昌隆街62號","121.49122","25.051075","6500200","三重區"
"241014","543-UM","2018/06/07 16:59:18","新北市三重區介壽路39巷100號","121.500798333333","25.0706066666667","6500200","三重區"
"241023","545-UM","2018/06/07 16:59:21","新北市三重區新北大道一段168號","121.48358","25.0616133333333","6500200","三重區"
"241001","547-UM","2018/06/07 16:59:08","新北市三重區仁政街11號","121.493301666667","25.0763933333333","6500200","三重區"
"241019","KEA-2593","2018/06/07 16:59:11","新北市三重區三張街115-1號","121.48796","25.0700066666667","6500200","三重區"
"241006","AAD-863","2018/06/07 16:59:17","新北市三重區車路頭街117巷38號","121.485166666667","25.0756616666667","6500200","三重區"
"241032","887-TS","2018/06/07 16:59:21","新北市三重區重陽路一段130巷26號","121.485668333333","25.06036","6500200","三重區"
"241012","941-UM","2018/06/07 16:59:21","新北市三重區仁壽街196號","121.50078","25.07497","6500200","三重區"
"241029","942-UM","2018/06/07 16:59:13","新北市三重區集美街263號","121.492451666667","25.055735","6500200","三重區"
"241033","AAC-255","2018/06/07 16:59:16","新北市三重區中興北街271號","121.469198333333","25.0606083333333","6500200","三重區"
"235064","005-UY","2018/06/07 16:46:54","新北市中和區員山路36巷16-3號","121.48506","24.9913616666667","6500300","中和區"
"235062","800-TS","2018/06/07 16:58:20","新北市中和區員山路36巷16-3號","121.484938333333","24.9915583333333","6500300","中和區"
"247024","893-R6","2018/06/07 16:59:16","新北市蘆洲區長興路255號","121.460448333333","25.0875416666667","6501400","蘆洲區"
"247014","546-UM","2018/06/07 16:59:22","新北市蘆洲區得勝街69巷20號","121.473936666667","25.08328","6501400","蘆洲區"
"247010","341-TH","2018/06/07 16:59:21","新北市蘆洲區信義路213號","121.479086666667","25.0833116666667","6501400","蘆洲區"
"247004","337-TH","2018/06/07 16:59:20","新北市蘆洲區長安街108巷5弄2號","121.46131","25.0820133333333","6501400","蘆洲區"
"247006","336-TH","2018/06/07 16:59:19","新北市蘆洲區長安街99巷29號","121.460838333333","25.0798033333333","6501400","蘆洲區"
"247018","057-VK","2018/06/07 16:59:18","新北市蘆洲區民族路314巷10號","121.477581666667","25.090195","6501400","蘆洲區"
"247008","056-VK","2018/06/07 16:59:28","新北市蘆洲區信義路60號","121.475665","25.0795316666667","6501400","蘆洲區"
"247016","007-UY","2018/06/07 16:59:14","新北市蘆洲區中正路71號","121.470541666667","25.082815","6501400","蘆洲區"
"247020","001-UY","2018/06/07 16:59:08","新北市蘆洲區民族路422巷82弄12號","121.47402","25.0938483333333","6501400","蘆洲區"
"228003","097-TW","2018/06/07 16:59:10","新北市貢寮區福隆里興隆街24-1號","121.944355","25.0165866666667","6502600","貢寮區"
"228001","212-TW","2018/06/07 16:59:14","新北市貢寮區貢寮里朝陽街1-2號","121.912226666667","25.0212533333333","6502600","貢寮區"
"228002","585-TW","2018/06/07 16:59:10","新北市貢寮區貢寮里長泰路28號","121.900701666667","25.0240666666667","6502600","貢寮區"
"224006","676-BX","2018/06/07 16:59:12","新北市瑞芳區大寮路356-1號","121.784803333333","25.1031516666667","6501200","瑞芳區"
"224008","285-BY","2018/06/07 16:59:17","新北市瑞芳區明燈路一段267號","121.816975","25.108425","6501200","瑞芳區"
"224007","275-VK","2018/06/07 16:59:24","新北市瑞芳區瑞竹路86號","121.76301","25.1036033333333","6501200","瑞芳區"
"224009","273-VK","2018/06/07 16:59:13","新北市瑞芳區濱二路31號","121.83425","25.1114833333333","6501200","瑞芳區"
"224005","271-BY","2018/06/07 16:59:21","新北市瑞芳區南雅路29-1號","121.888083333333","25.1205866666667","6501200","瑞芳區"
"227004","642-TC","2018/06/07 16:59:26","新北市雙溪區長源里柑腳41-2號","121.802438333333","25.0127333333333","6502500","雙溪區"
"227010","400-TW","2018/06/07 16:59:20","新北市雙溪區牡丹里聖南21號","121.858513333333","25.0533016666667","6502500","雙溪區"
"251009","008-UM","2018/06/07 16:59:25","新北市淡水區中正路一段85號","121.422153333333","25.1790433333333","6501000","淡水區"
"251004","009-UM","2018/06/07 16:59:12","新北市淡水區中正路二段31號","121.419346666667","25.1823033333333","6501000","淡水區"
"251005","010-UM","2018/06/07 16:59:21","新北市淡水區中正路257號","121.433228333333","25.17448","6501000","淡水區"
"251013","KEA-2871","2018/06/07 16:59:26","新北市淡水區泉洲厝32號","121.489273333333","25.1925816666667","6501000","淡水區"
"251016","179-VK","2018/06/07 16:59:24","新北市淡水區瓦坑5-5號","121.478038333333","25.1819666666667","6501000","淡水區"
"251014","180-VK","2018/06/07 16:59:20","新北市淡水區八里堆2-12號","121.45452","25.224545","6501000","淡水區"
"251015","182-VK","2018/06/07 16:59:18","新北市淡水區忠愛街9-1號","121.45692","25.17431","6501000","淡水區"
"251010","413-VK","2018/06/07 16:59:13","新北市淡水區濱海路三段148巷50弄72號","121.431118333333","25.1913616666667","6501000","淡水區"
"251012","441-VK","2018/06/07 16:59:24","新北市淡水區沙崙路242號","121.425806666667","25.184825","6501000","淡水區"
"251007","442-VK","2018/06/07 16:59:11","新北市淡水區中正東路40號","121.449838333333","25.1653483333333","6501000","淡水區"
"251008","443-VK","2018/06/07 16:59:10","新北市淡水區樹梅坑9號","121.472708333333","25.1426683333333","6501000","淡水區"
"251006","561-UM","2018/06/07 16:59:24","新北市淡水區中山路18-1號","121.44444","25.1693866666667","6501000","淡水區"
"251011","650-BX","2018/06/07 16:59:19","新北市淡水區中山路13號","121.444126666667","25.1698166666667","6501000","淡水區"
"252002","178-VK","2018/06/07 16:59:16","新北市三芝區忠孝街171號","121.50567","25.261185","6502100","三芝區"
"252001","292-VK","2018/06/07 16:59:18","新北市三芝區淡金路二段76-1號","121.50376","25.2607766666667","6502100","三芝區"
"242058","986-R7","2018/06/07 16:59:20","新北市新莊區新泰路357巷3弄57號","121.442148333333","25.0394233333333","6500500","新莊區"
"242042","566-BX","2018/06/07 16:59:11","新北市新莊區新泰路255巷83號","121.442201666667","25.0390916666667","6500500","新莊區"
"242036","415-TV","2018/06/07 16:59:09","新北市新莊區新泰路357巷3弄57號","121.442163333333","25.03918","6500500","新莊區"
"242007","413-TV","2018/06/07 16:59:14","新北市新莊區新泰路357巷3弄57號","121.442103333333","25.039445","6500500","新莊區"
"242023","362-BY","2018/06/07 16:59:12","新北市新莊區三和路12-21號","121.442086666667","25.03842","6500500","新莊區"
"242004","176-VK","2018/06/07 16:59:23","新北市新莊區三和路12-21號","121.442055","25.0386783333333","6500500","新莊區"
"242021","348-TH","2018/06/07 16:59:23","新北市新莊區新泰路357巷3弄57號","121.442168333333","25.0394216666667","6500500","新莊區"
"242013","351-TH","2018/06/07 16:59:12","新北市新莊區新泰路357巷3弄57號","121.441993333333","25.0393166666667","6500500","新莊區"
"238005","571-TV","2018/06/07 16:59:10","新北市樹林區育德街78-1號","121.388018333333","24.968175","6500700","樹林區"
"238025","303-VK","2018/06/07 16:59:15","新北市樹林區中正路22-1號","121.427856666667","24.99928","6500700","樹林區"
"238017","283-BY","2018/06/07 16:59:22","新北市樹林區中正路433-2號","121.41474","25.0083116666667","6500700","樹林區"
"238001","282-BY","2018/06/07 16:59:28","新北市樹林區大慶街176-1號","121.42788","24.99995","6500700","樹林區"
"239006","891-R6","2018/06/07 16:59:25","新北市鶯歌區二甲路12-2號","121.346976666667","24.9338533333333","6500800","鶯歌區"
"220014","830-TW","2018/06/07 16:41:38","新北市板橋區民生路二段161巷1號","121.470141666667","25.0198583333333","6500100","板橋區"
