"lineid","car","time","location","longitude","latitude","cityid","cityname"
"234026","9371-KE","2018/06/07 17:39:24","新北市永和區中正路651號","121.5151","25.010135","6500400","永和區"
"249005","172-UM","2018/06/07 17:39:09","新北市八里區荖阡坑路41-6號","121.40313","25.13271","6502300","八里區"
"249001","173-UM","2018/06/07 17:39:10","新北市八里區龍米路二段170號","121.434493333333","25.1581466666667","6502300","八里區"
"249004","303-UY","2018/06/07 17:39:27","新北市八里區賢三街100號","121.416821666667","25.1578366666667","6502300","八里區"
"249002","305-UY","2018/06/07 17:39:12","新北市八里區石壁腳9號","121.444475","25.1348933333333","6502300","八里區"
"249003","593-UM","2018/06/07 17:39:12","新北市八里區中山路二段179號","121.404825","25.1502983333333","6502300","八里區"
"232011","375-UM","2018/06/07 17:39:28","新北市坪林區北宜路八段105號","121.706131666667","24.9348183333333","6502000","坪林區"
"244007","080-UY","2018/06/07 17:39:25","新北市林口區林口路272巷11號","121.386481666667","25.0847366666667","6501700","林口區"
"244019","403-UM","2018/06/07 17:39:23","新北市林口區文化一路一段89-5號","121.37192","25.0704816666667","6501700","林口區"
"244013","742-UY","2018/06/07 17:39:27","新北市林口區中山路303號","121.383795","25.0803916666667","6501700","林口區"
"244023","483-VK","2018/06/07 17:39:19","新北市林口區東明二街101號","121.388731666667","25.0705283333333","6501700","林口區"
"244017","485-VK","2018/06/07 17:39:16","新北市林口區忠孝路407號","121.370401666667","25.0706233333333","6501700","林口區"
"244011","657-BX","2018/06/07 17:39:12","新北市林口區佳林路154號","121.384141666667","25.077125","6501700","林口區"
"244025","837-TS","2018/06/07 17:39:09","新北市林口區忠孝路308巷20號","121.367096666667","25.0721916666667","6501700","林口區"
"244021","838-TS","2018/06/07 17:39:24","新北市林口區仁愛路一段26號","121.39734","25.0754166666667","6501700","林口區"
"243012","646-TV","2018/06/07 17:39:20","新北市泰山區大科路706號","121.389085","25.06568","6501600","泰山區"
"231046","188-VK","2018/06/07 17:39:16","新北市新店區直潭路92號","121.530903333333","24.9375833333333","6500600","新店區"
"241017","063-VK","2018/06/07 17:39:24","新北市三重區大同北路32號","121.49526","25.062575","6500200","三重區"
"241005","262-UM","2018/06/07 17:39:25","新北市三重區永安北路二段5巷30號","121.482718333333","25.0812866666667","6500200","三重區"
"241016","266-UM","2018/06/07 17:39:17","新北市三重區正義北路26號","121.49753","25.06318","6500200","三重區"
"241018","268-UM","2018/06/07 17:39:22","新北市三重區光復路二段143巷16號","121.474993333333","25.061675","6500200","三重區"
"241007","398-BY","2018/06/07 17:39:25","新北市三重區力行路二段29號","121.481961666667","25.0729016666667","6500200","三重區"
"241024","KEA-2210","2018/06/07 17:39:17","新北市三重區大勇街29號","121.482711666667","25.0716283333333","6500200","三重區"
"241020","478-VK","2018/06/07 17:39:08","新北市三重區忠孝路一段169號","121.487761666667","25.0716133333333","6500200","三重區"
"241014","543-UM","2018/06/07 17:39:18","新北市三重區河邊北街72-6號","121.504311666667","25.06848","6500200","三重區"
"241012","941-UM","2018/06/07 17:39:21","新北市三重區仁興街39巷55號","121.50025","25.076205","6500200","三重區"
"241033","AAC-255","2018/06/07 17:39:15","新北市三重區興德路135號","121.46994","25.0528366666667","6500200","三重區"
"235062","800-TS","2018/06/07 17:15:45","新北市中和區員山路36巷16-2號","121.485231666667","24.99126","6500300","中和區"
"247024","893-R6","2018/06/07 17:39:16","新北市蘆洲區長樂路159號","121.462036666667","25.0882483333333","6501400","蘆洲區"
"247014","546-UM","2018/06/07 17:39:22","新北市蘆洲區中山二路114號","121.472128333333","25.0816683333333","6501400","蘆洲區"
"247022","500-BY","2018/06/07 17:39:18","新北市蘆洲區民族路548巷33號","121.467421666667","25.0894766666667","6501400","蘆洲區"
"247010","341-TH","2018/06/07 17:39:21","新北市蘆洲區集賢路401號","121.480131666667","25.0816016666667","6501400","蘆洲區"
"247012","339-TH","2018/06/07 17:39:22","新北市蘆洲區民權路31巷9號","121.475386666667","25.085975","6501400","蘆洲區"
"247004","337-TH","2018/06/07 17:39:20","新北市蘆洲區長安街251號","121.458906666667","25.0832233333333","6501400","蘆洲區"
"247006","336-TH","2018/06/07 17:39:19","新北市蘆洲區長安街22巷39弄15號","121.464478333333","25.0807","6501400","蘆洲區"
"247018","057-VK","2018/06/07 17:38:58","新北市蘆洲區民權路61巷4弄20號","121.472953333333","25.08848","6501400","蘆洲區"
"247008","056-VK","2018/06/07 17:39:08","新北市蘆洲區民生街127號","121.472618333333","25.078925","6501400","蘆洲區"
"247016","007-UY","2018/06/07 17:39:14","新北市蘆洲區光華路46巷23號","121.468245","25.083745","6501400","蘆洲區"
"247002","002-UY","2018/06/07 17:37:38","新北市蘆洲區永平街27號","121.458728333333","25.0907533333333","6501400","蘆洲區"
"247020","001-UY","2018/06/07 17:39:28","新北市蘆洲區民族路464號","121.471871666667","25.09178","6501400","蘆洲區"
"228003","097-TW","2018/06/07 17:39:10","新北市貢寮區仁理村仁和路220號","121.923845","25.0535033333333","6502600","貢寮區"
"228001","212-TW","2018/06/07 17:39:14","新北市貢寮區仁理村仁愛路95-1號","121.927663333333","25.0554433333333","6502600","貢寮區"
"228002","585-TW","2018/06/07 17:39:10","新北市貢寮區福隆里龜壽谷街26號","121.952823333333","25.008115","6502600","貢寮區"
"224010","AGQ-8101","2018/06/07 17:38:59","新北市瑞芳區岳王路38號","121.808455","25.1110533333333","6501200","瑞芳區"
"224006","676-BX","2018/06/07 17:39:12","新北市瑞芳區中山路326號","121.796496666667","25.110125","6501200","瑞芳區"
"224008","285-BY","2018/06/07 17:39:25","新北市瑞芳區瑞柑新村51號","121.828806666667","25.1065733333333","6501200","瑞芳區"
"224009","273-VK","2018/06/07 17:39:12","新北市瑞芳區崙頂路1-6號","121.847238333333","25.1045033333333","6501200","瑞芳區"
"224005","271-BY","2018/06/07 17:39:21","新北市瑞芳區海濱路28號","121.830923333333","25.1248583333333","6501200","瑞芳區"
"227004","642-TC","2018/06/07 17:39:26","新北市雙溪區共和里東榮街52號","121.866343333333","25.0336666666667","6502500","雙溪區"
"251009","008-UM","2018/06/07 17:39:25","新北市淡水區中正路30號","121.444143333333","25.1691366666667","6501000","淡水區"
"251004","009-UM","2018/06/07 17:39:12","新北市淡水區中正東路二段88巷37號","121.459226666667","25.1457933333333","6501000","淡水區"
"251005","010-UM","2018/06/07 17:39:21","新北市淡水區鄧公路33巷5號","121.451625","25.171085","6501000","淡水區"
"251001","011-UM","2018/06/07 17:39:11","新北市淡水區民權路92巷35-1號","121.46205","25.1266766666667","6501000","淡水區"
"251013","KEA-2871","2018/06/07 17:39:26","新北市淡水區演戲埔腳7號","121.471463333333","25.1940666666667","6501000","淡水區"
"251016","179-VK","2018/06/07 17:39:24","新北市淡水區埤島39-15號","121.452773333333","25.1959283333333","6501000","淡水區"
"251014","180-VK","2018/06/07 17:39:12","新北市淡水區公埔子16-6號","121.479728333333","25.2256083333333","6501000","淡水區"
"251015","182-VK","2018/06/07 17:39:18","新北市淡水區興福寮1-15號","121.490938333333","25.1653833333333","6501000","淡水區"
"251010","413-VK","2018/06/07 17:39:13","新北市淡水區淡海路280巷16號","121.41979","25.1896933333333","6501000","淡水區"
"251012","441-VK","2018/06/07 17:39:24","新北市淡水區北新路200巷8號","121.45178","25.1797233333333","6501000","淡水區"
"251007","442-VK","2018/06/07 17:39:11","新北市淡水區民生路124巷30號","121.464128333333","25.1375716666667","6501000","淡水區"
"251008","443-VK","2018/06/07 17:39:09","新北市淡水區中正東路二段161巷11弄10號","121.461445","25.1460666666667","6501000","淡水區"
"251006","561-UM","2018/06/07 17:39:24","新北市淡水區大信街24巷2號","121.441895","25.1766983333333","6501000","淡水區"
"251011","650-BX","2018/06/07 17:39:19","新北市淡水區小坪頂22號","121.484636666667","25.1570666666667","6501000","淡水區"
"251002","672-BX","2018/06/07 17:39:18","新北市淡水區重建街82號","121.440058333333","25.1723383333333","6501000","淡水區"
"251003","766-UM","2018/06/07 17:39:26","新北市淡水區中山北路一段85號","121.442198333333","25.1761666666667","6501000","淡水區"
"207003","550-UM","2018/06/07 17:39:16","新北市萬里區龜吼里漁澳路5-1號","121.686548333333","25.1942733333333","6502800","萬里區"
"207004","225-TW","2018/06/07 17:39:11","新北市萬里區中幅里中福路20號","121.684891666667","25.1644366666667","6502800","萬里區"
"252002","178-VK","2018/06/07 17:39:16","新北市三芝區智成街80號","121.505048333333","25.25578","6502100","三芝區"
"252001","292-VK","2018/06/07 17:39:18","新北市三芝區淡金路一段83號","121.50213","25.2589583333333","6502100","三芝區"
"237013","252-BX","2018/06/07 17:39:20","新北市三峽區中華路8-1號","121.374961666667","24.9329566666667","6500900","三峽區"
"237012","275-BY","2018/06/07 17:39:19","新北市三峽區中山路459巷163-3號","121.348923333333","24.933225","6500900","三峽區"
"237006","5529-G3","2018/06/07 17:39:20","新北市三峽區介壽路一段530號","121.386453333333","24.9330083333333","6500900","三峽區"
"237016","649-BX","2018/06/07 17:39:20","新北市三峽區民權街193號","121.36771","24.9291233333333","6500900","三峽區"
"237010","706-TV","2018/06/07 17:39:14","新北市三峽區中山路143號","121.365045","24.9361716666667","6500900","三峽區"
"236070","105-UM","2018/06/07 17:39:11","新北市土城區城林路6巷80號","121.438406666667","24.98001","6501300","土城區"
"236042","107-UM","2018/06/07 17:39:29","新北市土城區城林路6巷80號","121.438658333333","24.9797283333333","6501300","土城區"
"236014","270-VK","2018/06/07 17:39:17","新北市土城區城林路6巷80號","121.438575","24.97958","6501300","土城區"
"242034","AAC-296","2018/06/07 17:39:10","新北市新莊區新莊路508號","121.446035","25.0332116666667","6500500","新莊區"
"242058","986-R7","2018/06/07 17:39:21","新北市新莊區中正路671號","121.426586666667","25.030095","6500500","新莊區"
"242053","751-BX","2018/06/07 17:39:11","新北市新莊區新樹路699巷9號","121.432545","25.00192","6500500","新莊區"
"242027","705-TV","2018/06/07 17:39:20","新北市新莊區福壽街77號","121.458151666667","25.049845","6500500","新莊區"
"242025","613-BX","2018/06/07 17:39:27","新北市新莊區思源路96號","121.460095","25.0458633333333","6500500","新莊區"
"242029","612-BX","2018/06/07 17:39:03","新北市新莊區中港路274巷18號","121.453751666667","25.0442916666667","6500500","新莊區"
"242042","566-BX","2018/06/07 17:39:11","新北市新莊區中正路514巷69號","121.431635","25.0337883333333","6500500","新莊區"
"242046","497-BY","2018/06/07 17:39:25","新北市新莊區建國一路28號","121.433846666667","25.0315516666667","6500500","新莊區"
"242009","442-UM","2018/06/07 17:39:09","新北市新莊區昌明街14巷3弄2號","121.457296666667","25.052945","6500500","新莊區"
"242051","441-UM","2018/06/07 17:39:14","新北市新莊區西盛街189號","121.428953333333","25.0171733333333","6500500","新莊區"
"242056","440-UM","2018/06/07 17:39:18","新北市新莊區泰豐街21號","121.448326666667","25.0317916666667","6500500","新莊區"
"242036","415-TV","2018/06/07 17:39:29","新北市新莊區建福路59巷47號","121.428653333333","25.0278533333333","6500500","新莊區"
"242007","413-TV","2018/06/07 17:39:14","新北市新莊區福樂街71巷1號","121.456963333333","25.0477816666667","6500500","新莊區"
"242044","400-BY","2018/06/07 17:39:27","新北市新莊區中正路871巷9弄42號","121.41979","25.0267016666667","6500500","新莊區"
"242023","362-BY","2018/06/07 17:39:12","新北市新莊區民樂街42號","121.458001666667","25.0413016666667","6500500","新莊區"
"242061","353-BY","2018/06/07 17:39:16","新北市新莊區瓊林南路103巷8弄43號","121.435113333333","25.0111283333333","6500500","新莊區"
"242031","135-UY","2018/06/07 17:39:12","新北市新莊區新泰路380號","121.444186666667","25.043245","6500500","新莊區"
"242048","172-VK","2018/06/07 17:39:26","新北市新莊區萬安街124號","121.420358333333","25.021745","6500500","新莊區"
"242017","175-VK","2018/06/07 17:39:27","新北市新莊區復興路一段149巷22弄2號","121.450321666667","25.0441266666667","6500500","新莊區"
"242004","176-VK","2018/06/07 17:39:23","新北市新莊區自立街200號","121.456688333333","25.0454183333333","6500500","新莊區"
"242015","346-TH","2018/06/07 17:39:12","新北市新莊區新泰路307號","121.445308333333","25.0411366666667","6500500","新莊區"
"242021","348-TH","2018/06/07 17:39:23","新北市新莊區中華路一段112號","121.452428333333","25.0404316666667","6500500","新莊區"
"242019","350-TH","2018/06/07 17:39:25","新北市新莊區中港路151號","121.45493","25.0409533333333","6500500","新莊區"
"242013","351-TH","2018/06/07 17:39:12","新北市新莊區中誠街116號","121.449416666667","25.0476683333333","6500500","新莊區"
"238015","755-BX","2018/06/07 17:39:17","新北市樹林區啟智街34號","121.42084","24.9933483333333","6500700","樹林區"
"238023","601-UM","2018/06/07 17:39:13","新北市樹林區三福街114號","121.406375","25.0163716666667","6500700","樹林區"
"238019","599-UM","2018/06/07 17:39:14","新北市樹林區太順街34號","121.419108333333","24.98014","6500700","樹林區"
"238018","571-TV","2018/06/07 17:39:30","新北市樹林區鎮前街1號","121.426068333333","24.9929566666667","6500700","樹林區"
"238024","5061-A6","2018/06/07 17:39:23","新北市樹林區八德街262-1號","121.417878333333","24.9722533333333","6500700","樹林區"
"238022","KEA-2213","2018/06/07 17:39:21","新北市樹林區中華路185-1號","121.420441666667","24.9816616666667","6500700","樹林區"
"238021","KEA-2539","2018/06/07 17:39:13","新北市樹林區柑園街一段244號","121.392028333333","24.9563833333333","6500700","樹林區"
"238025","303-VK","2018/06/07 17:39:24","新北市樹林區三俊街4號","121.410886666667","25.0153416666667","6500700","樹林區"
"238017","283-BY","2018/06/07 17:39:22","新北市樹林區三德街34-1號","121.415035","25.0131633333333","6500700","樹林區"
"238014","282-BY","2018/06/07 17:39:26","新北市樹林區保安街一段356號","121.417758333333","24.998325","6500700","樹林區"
"238020","268-VK","2018/06/07 17:39:13","新北市樹林區俊英街118號","121.427618333333","25.00572","6500700","樹林區"
"238026","172-UY","2018/06/07 17:37:01","新北市樹林區新興街19巷36弄10號","121.402438333333","24.9731766666667","6500700","樹林區"
"238016","169-UY","2018/06/07 17:39:09","新北市樹林區啟智街98號","121.417301666667","24.988545","6500700","樹林區"
"239007","AAC-297","2018/06/07 17:39:28","新北市鶯歌區國光街72號","121.341468333333","24.9580633333333","6500800","鶯歌區"
"239006","891-R6","2018/06/07 17:39:25","新北市鶯歌區鶯桃路466號","121.33237","24.9656016666667","6500800","鶯歌區"
"239008","527-UM","2018/06/07 17:39:27","新北市鶯歌區大湖路732巷15弄2號","121.332906666667","24.9777683333333","6500800","鶯歌區"
"239005","526-UM","2018/06/07 17:39:17","新北市鶯歌區福隆二街5號","121.325381666667","24.9720616666667","6500800","鶯歌區"
"239001","417-VK","2018/06/07 17:39:18","新北市鶯歌區中正三路220號","121.331878333333","24.9376366666667","6500800","鶯歌區"
"239003","360-BY","2018/06/07 17:39:13","新北市鶯歌區鶯桃路206巷40號","121.337903333333","24.95993","6500800","鶯歌區"
"239002","359-BY","2018/06/07 17:39:27","新北市鶯歌區育英街6巷1號","121.346808333333","24.954235","6500800","鶯歌區"
"239004","193-VK","2018/06/07 17:39:20","新北市鶯歌區三鶯路26號","121.356415","24.9416916666667","6500800","鶯歌區"
"221008","489-VK","2018/06/07 17:39:23","新北市汐止區康寧街901號","121.651398333333","25.0750883333333","6501100","汐止區"
"221010","269-BY","2018/06/07 17:39:09","新北市汐止區汐萬路一段418巷48號","121.651025","25.07918","6501100","汐止區"
"221023","279-VK","2018/06/07 17:39:19","新北市汐止區康寧街901號","121.651685","25.0748983333333","6501100","汐止區"
"221032","280-BY","2018/06/07 17:39:11","新北市汐止區康寧街901號","121.650701666667","25.0753633333333","6501100","汐止區"
"221021","299-VK","2018/06/07 17:39:26","新北市汐止區康寧街901號","121.651133333333","25.0751383333333","6501100","汐止區"
"221031","353-TW","2018/06/07 17:39:22","新北市汐止區汐萬路一段256巷1號","121.651743333333","25.074915","6501100","汐止區"
"221033","647-BX","2018/06/07 17:39:21","新北市汐止區光復街7巷27號","121.640341666667","25.0591733333333","6501100","汐止區"
"221002","707-TV","2018/06/07 17:39:15","新北市汐止區康寧街901號","121.651581666667","25.07496","6501100","汐止區"
"242002","KEA-2550","2018/06/07 17:39:21","新北市新莊區新莊路266號","121.451796666667","25.033975","6500500","新莊區"
"242039","281-VK","2018/06/07 17:39:13","新北市新莊區民安路322號","121.429016666667","25.02193","6500500","新莊區"
"242011","280-VK","2018/06/07 17:39:20","新北市新莊區中港路599號","121.45139","25.0529566666667","6500500","新莊區"
