"lineid","car","time","location","longitude","latitude","cityid","cityname"
"234046","148-BY","2018/06/07 18:39:28","新北市永和區永元路94號","121.52251","25.001665","6500400","永和區"
"234081","298-R6","2018/06/07 18:39:23","新北市永和區林森路81號","121.523946666667","25.0037783333333","6500400","永和區"
"234086","338-UY","2018/06/07 18:39:15","新北市永和區永貞路147巷1號","121.516021666667","25.0040933333333","6500400","永和區"
"234017","745-BX","2018/06/07 18:39:22","新北市永和區福和路1號","121.52645","25.0097216666667","6500400","永和區"
"234030","746-BX","2018/06/07 18:39:25","新北市永和區得和路382-1號","121.52491","24.9993233333333","6500400","永和區"
"234013","KEA-2591","2018/06/07 18:39:15","新北市永和區保福路二段105號","121.510168333333","25.0133216666667","6500400","永和區"
"234042","862-TW","2018/06/07 18:39:21","新北市永和區豫溪街217巷1號","121.524763333333","25.009375","6500400","永和區"
"234026","9371-KE","2018/06/07 18:39:24","新北市永和區仁愛路279號","121.505763333333","25.0097266666667","6500400","永和區"
"234011","9373-KE","2018/06/07 18:39:11","新北市永和區文化路9巷22弄26號","121.514666666667","25.0146066666667","6500400","永和區"
"249005","172-UM","2018/06/07 18:39:29","新北市八里區中華路三段34-2號","121.389025","25.1254033333333","6502300","八里區"
"249001","173-UM","2018/06/07 18:39:09","新北市八里區龍米路一段348-3號","121.451586666667","25.1310066666667","6502300","八里區"
"249004","303-UY","2018/06/07 18:39:27","新北市八里區中山路一段18-1號","121.42295","25.158955","6502300","八里區"
"249002","305-UY","2018/06/07 18:39:12","新北市八里區頂寮二街138號","121.449353333333","25.1294733333333","6502300","八里區"
"248016","026-BX","2018/06/07 18:39:22","新北市五股區凌雲路一段133巷27-3號","121.44869","25.1009266666667","6501500","五股區"
"248008","095-VK","2018/06/07 18:39:28","新北市五股區中興路一段148號","121.464618333333","25.0739866666667","6501500","五股區"
"248020","225-UY","2018/06/07 18:34:31","新北市五股區孝義路63號","121.447555","25.1171783333333","6501500","五股區"
"248012","247-BX","2018/06/07 18:39:15","新北市五股區御史路1巷1-5號","121.44238","25.0899783333333","6501500","五股區"
"248014","261-SL","2018/06/07 18:39:16","新北市五股區成泰路二段54-1號","121.437266666667","25.0818416666667","6501500","五股區"
"248010","272-BY","2018/06/07 18:39:26","新北市五股區水碓三路143號","121.431726666667","25.0736333333333","6501500","五股區"
"248004","677-BX","2018/06/07 18:39:30","新北市五股區民義路一段216-2號","121.430051666667","25.089355","6501500","五股區"
"248002","678-BX","2018/06/07 18:39:12","新北市五股區西雲路199號","121.448031666667","25.0961266666667","6501500","五股區"
"234023","9380-KE","2018/06/07 18:39:15","新北市永和區竹林路225巷48號","121.522505","25.00859","6500400","永和區"
"234077","969-R7","2018/06/07 18:39:11","新北市中和區安樂路101-3號","121.513503333333","24.9950433333333","6500400","永和區"
"234067","AAC-212","2018/06/07 18:39:21","新北市永和區福和路232號","121.51909","25.0075833333333","6500400","永和區"
"234003","AAC-295","2018/06/07 18:39:24","新北市永和區福和路1號","121.526038333333","25.0092766666667","6500400","永和區"
"244007","080-UY","2018/06/07 18:39:24","新北市林口區後湖40-2號","121.386606666667","25.0998266666667","6501700","林口區"
"244019","403-UM","2018/06/07 18:39:23","新北市林口區忠孝路646巷35號","121.379401666667","25.06704","6501700","林口區"
"244013","742-UY","2018/06/07 18:39:27","新北市林口區中正路416號","121.384555","25.0778233333333","6501700","林口區"
"244009","410-SL","2018/06/07 18:39:10","新北市林口區竹林路330巷5號","121.39195","25.0830733333333","6501700","林口區"
"244023","483-VK","2018/06/07 18:39:19","新北市林口區吉祥路178號","121.37659","25.0803983333333","6501700","林口區"
"244017","485-VK","2018/06/07 18:38:55","新北市林口區八德路78號","121.365543333333","25.0655466666667","6501700","林口區"
"244011","657-BX","2018/06/07 18:39:12","新北市林口區興林路17巷8號","121.390458333333","25.0769116666667","6501700","林口區"
"244025","837-TS","2018/06/07 18:39:09","新北市林口區南勢47號","121.355423333333","25.07491","6501700","林口區"
"244021","838-TS","2018/06/07 18:39:24","新北市林口區工六路42號","121.398936666667","25.07832","6501700","林口區"
"243013","AAD-798","2018/06/07 18:31:20","新北市泰山區明志路三段206巷3號","121.423295","25.0379533333333","6501600","泰山區"
"243016","380-SR","2018/06/07 18:39:21","新北市泰山區黎明路25號","121.42194","25.060785","6501600","泰山區"
"243007","421-VK","2018/06/07 18:39:17","新北市泰山區犁頭窠3-1號","121.422165","25.0605483333333","6501600","泰山區"
"243012","646-TV","2018/06/07 18:39:17","新北市泰山區泰林路二段250號","121.431941666667","25.06222","6501600","泰山區"
"222003","436-BY","2018/06/07 18:39:19","新北市深坑區翠谷街37巷1號","121.626513333333","25.0093566666667","6501800","深坑區"
"222002","659-BX","2018/06/07 18:39:22","新北市深坑區雲鄉路1號","121.620966666667","24.999685","6501800","深坑區"
"231041","002-UM","2018/06/07 18:39:20","新北市新店區安華路28-1號","121.5197","24.9607916666667","6500600","新店區"
"231059","046-UY","2018/06/07 18:39:16","新北市新店區安華路28-1號","121.519601666667","24.96093","6500600","新店區"
"231040","047-UY","2018/06/07 18:39:30","新北市新店區安一路一段1-1號","121.51922","24.9610083333333","6500600","新店區"
"231052","108-UY","2018/06/07 18:39:15","新北市新店區永興路38號","121.543388333333","24.93864","6500600","新店區"
"231047","187-VK","2018/06/07 18:39:14","新北市新店區安一路一段1-1號","121.519756666667","24.9616733333333","6500600","新店區"
"231046","188-VK","2018/06/07 18:39:16","新北市新店區直潭二街1號","121.535513333333","24.9431816666667","6500600","新店區"
"231054","KEA-2219","2018/06/07 18:39:17","新北市新店區安一路一段1-1號","121.51991","24.961215","6500600","新店區"
"231057","256-BX","2018/06/07 18:39:25","新北市新店區新烏路一段215號","121.54913","24.9314516666667","6500600","新店區"
"231042","268-BY","2018/06/07 18:39:15","新北市新店區安華路28-1號","121.51938","24.96061","6500600","新店區"
"231051","278-BY","2018/06/07 18:39:22","新北市新店區環河路29巷1號","121.536956666667","24.9613833333333","6500600","新店區"
"231050","AAD-862","2018/06/07 18:39:20","新北市新店區安一路一段1-1號","121.519765","24.96124","6500600","新店區"
"231044","355-BY","2018/06/07 18:39:30","新北市新店區安康路一段24巷2號","121.532941666667","24.9603566666667","6500600","新店區"
"231058","3713-VJ","2018/06/07 18:39:08","新北市新店區新店路13號","121.540346666667","24.95284","6500600","新店區"
"231066","4716-K9","2018/06/07 18:39:25","新北市新店區安一路一段1-1號","121.519345","24.9611733333333","6500600","新店區"
"231056","4715-K9","2018/06/07 18:39:16","新北市新店區自立街24號","121.538778333333","24.9783083333333","6500600","新店區"
"231067","4772-VM","2018/06/07 18:39:28","新北市新店區安康路一段86號","121.52806","24.9620016666667","6500600","新店區"
"231065","512-UM","2018/06/07 18:39:16","新北市新店區安一路一段1-1號","121.519111666667","24.9611083333333","6500600","新店區"
"231049","513-UM","2018/06/07 18:39:16","新北市新店區安一路一段1-1號","121.519656666667","24.9612933333333","6500600","新店區"
"231061","619-UM","2018/06/07 18:39:19","新北市新店區安華路28-1號","121.519503333333","24.9607283333333","6500600","新店區"
"231063","641-BX","2018/06/07 18:39:22","新北市新店區安華路28-1號","121.519496666667","24.9605716666667","6500600","新店區"
"231064","719-UM","2018/06/07 18:39:17","新北市新店區安一路一段1-1號","121.519636666667","24.961115","6500600","新店區"
"231062","720-UM","2018/06/07 18:39:20","新北市新店區安一路一段1-1號","121.51923","24.9611333333333","6500600","新店區"
"231060","897-TW","2018/06/07 18:39:18","新北市新店區安華路28-1號","121.51954","24.9608033333333","6500600","新店區"
"231045","898-TW","2018/06/07 18:39:12","新北市新店區安一路一段1-1號","121.519343333333","24.9610366666667","6500600","新店區"
"231043","899-TW","2018/06/07 18:39:24","新北市新店區安華路28-1號","121.519253333333","24.9608866666667","6500600","新店區"
"231055","AKT-0513","2018/06/07 18:39:16","新北市新店區華興街17號","121.537718333333","24.9694133333333","6500600","新店區"
"241018","268-UM","2018/06/07 18:38:01","新北市三重區安慶街226-2號","121.49262","25.0681083333333","6500200","三重區"
"241020","478-VK","2018/06/07 18:39:08","新北市五股區凌雲路三段24巷7號","121.43842","25.1062883333333","6500200","三重區"
"235064","005-UY","2018/06/07 18:39:11","新北市中和區連城路89巷1號","121.496628333333","25.0001066666667","6500300","中和區"
"235063","006-UY","2018/06/07 18:39:31","新北市中和區連城路347巷4弄20號","121.487456666667","24.995595","6500300","中和區"
"235056","096-UM","2018/06/07 18:39:21","新北市中和區員山路611巷1號","121.477881666667","25.0113033333333","6500300","中和區"
"235039","097-UM","2018/06/07 18:39:20","新北市中和區宜安路2號","121.5137","24.995505","6500300","中和區"
"235065","098-UM","2018/06/07 18:39:24","新北市中和區莊敬路49巷18號","121.501663333333","25.0061566666667","6500300","中和區"
"235040","150-BY","2018/06/07 18:39:12","新北市中和區宜安路41號","121.511776666667","24.9964233333333","6500300","中和區"
"235058","151-BY","2018/06/07 18:39:09","新北市中和區員山路66-4號","121.481871666667","24.9919416666667","6500300","中和區"
"235055","183-VK","2018/06/07 18:39:27","新北市中和區民生街28巷13號","121.469735","25.0058733333333","6500300","中和區"
"235038","185-VK","2018/06/07 18:39:16","新北市中和區自強路62巷6號","121.519671666667","24.9945016666667","6500300","中和區"
"235049","186-VK","2018/06/07 18:39:22","新北市中和區景平路480號","121.50521","24.993815","6500300","中和區"
"235067","255-BX","2018/06/07 18:39:20","新北市中和區新生街13巷7-1號","121.483643333333","25.004385","6500300","中和區"
"235044","293-VK","2018/06/07 18:39:25","新北市中和區復興路276號","121.502745","24.990385","6500300","中和區"
"235072","301-VK","2018/06/07 18:39:24","新北市中和區中山路二段131-6號","121.502386666667","25.00325","6500300","中和區"
"235043","352-BY","2018/06/07 18:39:32","新北市中和區景平路149號","121.51388","24.9920483333333","6500300","中和區"
"235050","4979-A6","2018/06/07 18:39:12","新北市中和區景新街496巷28弄39號","121.512736666667","24.9858816666667","6500300","中和區"
"235069","4980-A6","2018/06/07 18:39:15","新北市中和區連城路76號","121.497321666667","25.001235","6500300","中和區"
"235042","551-UM","2018/06/07 18:39:22","新北市中和區成功路97巷18弄15號","121.527018333333","24.9911833333333","6500300","中和區"
"235070","558-UM","2018/06/07 18:39:26","新北市中和區南華路16號","121.502693333333","24.99562","6500300","中和區"
"235045","565-BX","2018/06/07 18:39:14","新北市中和區南山路236巷63弄1號","121.503843333333","24.9875916666667","6500300","中和區"
"235054","640-BX","2018/06/07 18:39:23","新北市中和區民享街32巷26號","121.472565","25.0031583333333","6500300","中和區"
"235060","647-TV","2018/06/07 18:39:24","新北市中和區中山路三段4號","121.479736666667","25.0060133333333","6500300","中和區"
"235047","732-UM","2018/06/07 18:39:26","新北市中和區興南路二段32巷21號","121.507011666667","24.9863016666667","6500300","中和區"
"235046","733-UM","2018/06/07 18:39:12","新北市中和區仁愛街38號","121.511063333333","24.9882583333333","6500300","中和區"
"235057","801-TS","2018/06/07 18:39:12","新北市中和區員山路327巷27號","121.479963333333","25.00188","6500300","中和區"
"235041","802-TS","2018/06/07 18:39:24","新北市中和區中安街178巷3弄5-2號","121.511006666667","24.9989433333333","6500300","中和區"
"235052","805-TS","2018/06/07 18:39:22","新北市中和區興南路三段81號","121.491891666667","24.97392","6500300","中和區"
"235048","896-TW","2018/06/07 18:39:21","新北市中和區南山路317號","121.505045","24.9914583333333","6500300","中和區"
"235053","900-TW","2018/06/07 18:39:22","新北市土城區延壽路119號","121.469021666667","24.99448","6500300","中和區"
"235066","911-UM","2018/06/07 18:39:12","新北市中和區水源路35號","121.504341666667","25.0035733333333","6500300","中和區"
"235051","157-BY","2018/06/07 18:39:26","新北市中和區華新街143巷46號","121.506166666667","24.9800633333333","6500300","中和區"
"235037","AAC-213","2018/06/07 18:39:27","新北市中和區景德街28號","121.518291666667","24.991395","6500300","中和區"
"235059","AAC-215","2018/06/07 18:39:30","新北市中和區錦和路354巷15號","121.489485","24.991535","6500300","中和區"
"220065","072-UY","2018/06/07 18:39:19","新北市板橋區南雅南路二段3號","121.454513333333","25.00308","6500100","板橋區"
"226004","312-R5","2018/06/07 18:39:15","新北市平溪區平溪里三坑路38號","121.734468333333","25.032835","6502400","平溪區"
"228003","097-TW","2018/06/07 18:39:10","新北市貢寮區和美里龍洞街40-1號","121.915656666667","25.1116266666667","6502600","貢寮區"
"228001","212-TW","2018/06/07 18:39:14","新北市貢寮區仁理村研海街12-1號","121.923793333333","25.0516466666667","6502600","貢寮區"
"228002","585-TW","2018/06/07 18:39:29","新北市貢寮區福隆里桂安街17號","121.966196666667","25.022515","6502600","貢寮區"
"224010","AGQ-8101","2018/06/07 18:38:39","新北市瑞芳區烏勢巷135號","121.846798333333","25.1083716666667","6501200","瑞芳區"
"224006","676-BX","2018/06/07 18:39:32","新北市瑞芳區明燈路三段37-3號","121.807021666667","25.1079333333333","6501200","瑞芳區"
"224002","639-TC","2018/06/07 18:39:18","新北市瑞芳區國中新村18號","121.8172","25.10731","6501200","瑞芳區"
"224008","285-BY","2018/06/07 18:39:17","新北市瑞芳區岳王路162號","121.807976666667","25.1113416666667","6501200","瑞芳區"
"224009","273-VK","2018/06/07 18:39:12","新北市瑞芳區祈堂路2號","121.859386666667","25.1113383333333","6501200","瑞芳區"
"224005","271-BY","2018/06/07 18:39:21","新北市瑞芳區瑞濱路87號","121.820706666667","25.1210566666667","6501200","瑞芳區"
"227004","642-TC","2018/06/07 18:39:26","新北市雙溪區魚行里坤溪3-5號","121.876171666667","25.0208933333333","6502500","雙溪區"
"227010","400-TW","2018/06/07 18:39:20","新北市雙溪區牡丹里下坑11號","121.850995","25.0561916666667","6502500","雙溪區"
"253005","032-BX","2018/06/07 18:39:27","新北市石門區中山路56號","121.566675","25.2904366666667","6502200","石門區"
"253006","295-VK","2018/06/07 18:39:19","新北市石門區崁子腳44號","121.533581666667","25.288395","6502200","石門區"
"222001","KEA-2212","2018/06/07 18:39:31","新北市深坑區北深路一段98號","121.635715","25.0106783333333","6501800","深坑區"
"208002","KEA-2872","2018/06/07 18:39:23","新北市金山區龜子山路30號","121.639308333333","25.2179583333333","6502700","金山區"
"208003","665-BX","2018/06/07 18:39:31","新北市金山區中山路331號","121.635206666667","25.2240166666667","6502700","金山區"
"208001","761-BX","2018/06/07 18:39:25","新北市金山區文化三路11號","121.634981666667","25.2248666666667","6502700","金山區"
"251004","009-UM","2018/06/07 18:39:12","新北市淡水區民權路41號","121.459986666667","25.1402316666667","6501000","淡水區"
"251001","011-UM","2018/06/07 18:39:10","新北市淡水區自強路415巷2號","121.465431666667","25.1343033333333","6501000","淡水區"
"251013","KEA-2871","2018/06/07 18:39:26","新北市淡水區雲廣坑5號","121.473208333333","25.213","6501000","淡水區"
"251016","179-VK","2018/06/07 18:39:24","新北市淡水區下圭柔山76-12號","121.443326666667","25.2056516666667","6501000","淡水區"
"251014","180-VK","2018/06/07 18:39:12","新北市淡水區崙頂12-8號","121.495571666667","25.2172483333333","6501000","淡水區"
"251015","182-VK","2018/06/07 18:39:18","新北市淡水區樹林口52號","121.485091666667","25.162875","6501000","淡水區"
"251010","413-VK","2018/06/07 18:39:13","新北市淡水區沙崙路141號","121.42325","25.1828633333333","6501000","淡水區"
"251012","441-VK","2018/06/07 18:39:24","新北市淡水區北新路117號","121.448896666667","25.1784633333333","6501000","淡水區"
"251008","443-VK","2018/06/07 18:39:09","新北市淡水區北投子73-1號","121.453333333333","25.182815","6501000","淡水區"
"251006","561-UM","2018/06/07 18:39:24","新北市淡水區崁頂50號","121.441885","25.19667","6501000","淡水區"
"251011","650-BX","2018/06/07 18:38:59","新北市淡水區鄧公路30巷2弄42號","121.45444","25.1690533333333","6501000","淡水區"
"251002","672-BX","2018/06/07 18:39:18","新北市淡水區中正東路一段3巷14弄1號","121.45093","25.1641416666667","6501000","淡水區"
"251003","766-UM","2018/06/07 18:39:25","新北市淡水區北新路69巷26號","121.446698333333","25.1801233333333","6501000","淡水區"
"207003","550-UM","2018/06/07 18:39:14","新北市萬里區野柳里八斗60號","121.660578333333","25.2069133333333","6502800","萬里區"
"207004","225-TW","2018/06/07 18:39:11","新北市萬里區萬里里獅頭路10-1號","121.692068333333","25.17865","6502800","萬里區"
"252002","178-VK","2018/06/07 18:39:15","新北市三芝區民生街66號","121.503313333333","25.2556133333333","6502100","三芝區"
"252003","249-BX","2018/06/07 18:39:27","新北市三芝區後厝里土地公坑55-2號","121.462296666667","25.2482216666667","6502100","三芝區"
"252001","292-VK","2018/06/07 18:39:18","新北市三芝區中興街二段260號","121.50189","25.2529116666667","6502100","三芝區"
"237007","153-BY","2018/06/07 18:39:29","新北市三峽區柑樹路2巷11號","121.362116666667","24.9051366666667","6500900","三峽區"
"237009","210-TH","2018/06/07 18:39:27","新北市三峽區大同路280號","121.364531666667","24.925315","6500900","三峽區"
"237013","252-BX","2018/06/07 18:39:20","新北市三峽區光明路69巷25號","121.376736666667","24.9292866666667","6500900","三峽區"
"237012","275-BY","2018/06/07 18:39:18","新北市三峽區三樹路332-6號","121.38241","24.9439466666667","6500900","三峽區"
"237008","302-VK","2018/06/07 18:39:11","新北市三峽區白雞77號","121.402371666667","24.91017","6500900","三峽區"
"237014","433-BY","2018/06/07 18:39:22","新北市三峽區復興路485號","121.36138","24.93864","6500900","三峽區"
"237006","5529-G3","2018/06/07 18:39:20","新北市三峽區溪東路315巷10號","121.410743333333","24.93083","6500900","三峽區"
"237011","KEA-2596","2018/06/07 18:39:27","新北市三峽區溪東路215號","121.406045","24.93287","6500900","三峽區"
"237016","649-BX","2018/06/07 18:39:20","新北市三峽區成福路315巷2號","121.429636666667","24.92361","6500900","三峽區"
"237010","706-TV","2018/06/07 18:39:14","新北市三峽區復興路361號","121.36372","24.93859","6500900","三峽區"
"237005","AKY-6261","2018/06/07 18:39:32","新北市三峽區民生街104巷2-7號","121.373698333333","24.9359683333333","6500900","三峽區"
"236070","105-UM","2018/06/07 18:39:31","新北市土城區永豐路157巷29弄6-1號","121.468281666667","24.9814633333333","6501300","土城區"
"236042","107-UM","2018/06/07 18:39:09","新北市土城區學成路108巷3號","121.449948333333","24.9894083333333","6501300","土城區"
"236078","166-UM","2018/06/07 18:39:29","新北市土城區中央路四段52巷32號","121.419611666667","24.9608466666667","6501300","土城區"
"236030","253-BX","2018/06/07 18:39:29","新北市土城區福仁街58號","121.439506666667","24.97469","6501300","土城區"
"236026","269-VK","2018/06/07 18:39:24","新北市土城區忠義路53-1號","121.44053","24.9687466666667","6501300","土城區"
"236014","270-VK","2018/06/07 18:39:17","新北市土城區清水路207巷25號","121.459813333333","24.9825683333333","6501300","土城區"
"236038","271-VK","2018/06/07 18:39:21","新北市土城區明德路一段291巷19號","121.460471666667","24.97599","6501300","土城區"
"236021","401-BY","2018/06/07 18:39:31","新北市土城區延吉街278號","121.465583333333","24.984565","6501300","土城區"
"236059","912-UM","2018/06/07 18:39:16","新北市土城區中央路三段205號","121.429935","24.9645733333333","6501300","土城區"
"236049","913-UM","2018/06/07 18:39:13","新北市土城區明德路一段1號","121.464853333333","24.9857483333333","6501300","土城區"
"236063","915-UM","2018/06/07 18:39:23","新北市土城區延壽路13巷19號","121.469881666667","24.9913066666667","6501300","土城區"
"236055","AAC-216","2018/06/07 18:39:16","新北市土城區裕民路6-3號","121.446888333333","24.9890816666667","6501300","土城區"
"242058","986-R7","2018/06/07 18:39:20","新北市新莊區中正路887-8號","121.41658","25.0244383333333","6500500","新莊區"
"242027","705-TV","2018/06/07 18:39:27","新北市新莊區幸福路821號","121.445343333333","25.0490266666667","6500500","新莊區"
"242025","613-BX","2018/06/07 18:39:27","新北市新莊區新泰路528號","121.441738333333","25.0469683333333","6500500","新莊區"
"242051","441-UM","2018/06/07 18:39:14","新北市樹林區八德街282號","121.410478333333","24.970015","6500500","新莊區"
"238023","601-UM","2018/06/07 18:39:13","新北市樹林區三福街114號","121.406446666667","25.0162583333333","6500700","樹林區"
"238019","599-UM","2018/06/07 18:39:14","新北市樹林區中華路190-16號","121.411715","24.9806016666667","6500700","樹林區"
"238018","571-TV","2018/06/07 18:39:10","新北市樹林區樹新路40號","121.427391666667","24.9949166666667","6500700","樹林區"
"238024","5061-A6","2018/06/07 18:39:23","新北市樹林區太順街79巷15弄7號","121.417401666667","24.9782266666667","6500700","樹林區"
"238022","KEA-2213","2018/06/07 18:39:21","新北市樹林區中華路393號","121.411391666667","24.9804533333333","6500700","樹林區"
"238025","303-VK","2018/06/07 18:39:15","新北市樹林區育德街113號","121.389628333333","24.9682216666667","6500700","樹林區"
"238014","282-BY","2018/06/07 18:39:28","新北市樹林區八德街862-1號","121.391745","24.968505","6500700","樹林區"
"238020","268-VK","2018/06/07 18:39:13","新北市樹林區俊安街24巷5號","121.419146666667","25.0137733333333","6500700","樹林區"
"238026","172-UY","2018/06/07 18:39:21","新北市樹林區信和街6巷17號","121.39019","24.9717383333333","6500700","樹林區"
"238016","169-UY","2018/06/07 18:39:29","新北市樹林區文化街23號","121.41933","24.98765","6500700","樹林區"
"239007","AAC-297","2018/06/07 18:39:28","新北市鶯歌區中正一路434號","121.361733333333","24.9569916666667","6500800","鶯歌區"
"239008","527-UM","2018/06/07 18:39:27","新北市鶯歌區國際一路179號","121.336216666667","24.9764816666667","6500800","鶯歌區"
"239005","526-UM","2018/06/07 18:39:17","新北市鶯歌區鶯桃路二段46號","121.325801666667","24.9728483333333","6500800","鶯歌區"
"239001","417-VK","2018/06/07 18:39:17","新北市鶯歌區高職南街13號","121.337496666667","24.9392116666667","6500800","鶯歌區"
"239003","360-BY","2018/06/07 18:39:13","新北市鶯歌區永和街200號","121.336735","24.9711783333333","6500800","鶯歌區"
"239002","359-BY","2018/06/07 18:39:27","新北市鶯歌區中正一路461-5號","121.363041666667","24.9564883333333","6500800","鶯歌區"
"239004","193-VK","2018/06/07 18:39:20","新北市鶯歌區尖山路235號","121.339956666667","24.9435116666667","6500800","鶯歌區"
"221008","489-VK","2018/06/07 18:39:23","新北市汐止區康寧街901號","121.651438333333","25.0749833333333","6501100","汐止區"
"221036","130-UY","2018/06/07 18:39:12","新北市汐止區忠孝東路337號","121.665128333333","25.07004","6501100","汐止區"
"221015","131-UY","2018/06/07 18:39:10","新北市汐止區吉祥街27巷2號","121.667471666667","25.081245","6501100","汐止區"
"221010","269-BY","2018/06/07 18:39:29","新北市汐止區夢湖路2巷5號","121.642676666667","25.1064966666667","6501100","汐止區"
"221012","278-VK","2018/06/07 18:39:28","新北市汐止區鄉長路二段12號","121.668733333333","25.08098","6501100","汐止區"
"221023","279-VK","2018/06/07 18:39:20","新北市汐止區民族二街84巷2弄3號","121.633395","25.0701683333333","6501100","汐止區"
"221032","280-BY","2018/06/07 18:39:31","新北市汐止區福山街56巷19號","121.618005","25.045655","6501100","汐止區"
"221027","281-BY","2018/06/07 18:39:11","新北市汐止區大同路二段364號","121.657563333333","25.06713","6501100","汐止區"
"221029","298-VK","2018/06/07 18:39:15","新北市汐止區樟樹一路133巷1號","121.642138333333","25.065165","6501100","汐止區"
"221021","299-VK","2018/06/07 18:39:26","新北市汐止區新興路47號","121.657158333333","25.0631633333333","6501100","汐止區"
"221031","353-TW","2018/06/07 18:39:22","新北市汐止區福德一路274號","121.632128333333","25.06404","6501100","汐止區"
"221035","622-UM","2018/06/07 18:39:14","新北市汐止區大同路二段298號","121.655303333333","25.0665133333333","6501100","汐止區"
"221025","623-UM","2018/06/07 18:39:15","新北市汐止區仁愛路121巷9號","121.66275","25.064315","6501100","汐止區"
"221038","646-BX","2018/06/07 18:39:29","新北市汐止區汐萬路一段256巷3號","121.653351666667","25.074675","6501100","汐止區"
"221033","647-BX","2018/06/07 18:39:21","新北市汐止區宜興街1號","121.620803333333","25.0412166666667","6501100","汐止區"
"221002","707-TV","2018/06/07 18:39:15","新北市汐止區中興路25號","121.636915","25.0595983333333","6501100","汐止區"
"221018","753-BX","2018/06/07 18:39:19","新北市汐止區茄苳路274號","121.67222","25.06798","6501100","汐止區"
"220079","145-BY","2018/06/07 18:39:17","新北市板橋區大觀路一段35巷1號","121.449356666667","25.0084783333333","6500100","板橋區"
"220080","200-UY","2018/06/07 18:39:30","新北市板橋區大觀路二段415巷3號","121.441268333333","24.9963033333333","6500100","板橋區"
"220082","610-BX","2018/06/07 18:39:15","新北市板橋區大觀路三段52號","121.432195","24.9960183333333","6500100","板橋區"
"220056","276-BY","2018/06/07 18:39:28","新北市板橋區華東街1-10號","121.448786666667","24.9946866666667","6500100","板橋區"
"220072","277-BY","2018/06/07 18:39:22","新北市板橋區大觀路三段52號","121.432428333333","24.9959633333333","6500100","板橋區"
"220071","283-VK","2018/06/07 18:39:27","新北市板橋區四川路二段99-2號","121.452531666667","24.9947","6500100","板橋區"
"220094","285-UM","2018/06/07 18:39:12","新北市板橋區民生路二段161巷1號","121.470108333333","25.0199466666667","6500100","板橋區"
"220053","285-VK","2018/06/07 18:39:28","新北市板橋區民生路二段120號","121.470353333333","25.01992","6500100","板橋區"
"220083","286-VK","2018/06/07 18:39:21","新北市板橋區大觀路二段153巷44弄7號","121.446635","24.9993083333333","6500100","板橋區"
"220081","287-VK","2018/06/07 18:39:13","新北市板橋區大觀路二段153巷44弄5號","121.446491666667","24.9993683333333","6500100","板橋區"
"220062","295-UM","2018/06/07 18:39:29","新北市板橋區民生路二段120號","121.470415","25.0195883333333","6500100","板橋區"
"220084","296-UM","2018/06/07 18:39:26","新北市板橋區大觀路二段187巷25號","121.446158333333","24.9992833333333","6500100","板橋區"
"220075","303-R5","2018/06/07 18:39:15","新北市板橋區華東街298號","121.452761666667","25.00251","6500100","板橋區"
"220035","560-BX","2018/06/07 18:39:14","新北市板橋區南雅西路二段145巷6號","121.451661666667","25.01185","6500100","板橋區"
"220103","561-BX","2018/06/07 18:39:20","新北市板橋區民生路二段161巷3號","121.47021","25.01979","6500100","板橋區"
"220086","630-UY","2018/06/07 18:39:03","新北市板橋區南雅西路二段180巷4號","121.451895","25.0139966666667","6500100","板橋區"
"220057","686-BX","2018/06/07 18:39:18","新北市板橋區華東街1-9號","121.448255","24.9949116666667","6500100","板橋區"
"220077","687-BX","2018/06/07 18:39:11","新北市板橋區大觀路二段156巷47號","121.44098","24.9999183333333","6500100","板橋區"
"220054","741-BX","2018/06/07 18:39:15","新北市板橋區華東街1-9號","121.448068333333","24.9948883333333","6500100","板橋區"
"220064","806-UM","2018/06/07 18:39:29","新北市板橋區縣民大道一段314號","121.461055","25.0102333333333","6500100","板橋區"
"220067","830-TW","2018/06/07 18:39:21","新北市板橋區民生路二段161巷3號","121.470153333333","25.0197383333333","6500100","板橋區"
"220074","895-R6","2018/06/07 18:39:15","新北市板橋區南雅南路二段3號","121.454461666667","25.00305","6500100","板橋區"
"220073","985-R7","2018/06/07 18:39:13","新北市板橋區貴興路80號","121.456388333333","25.0029016666667","6500100","板橋區"
"220070","AAC-253","2018/06/07 18:39:25","新北市板橋區華東街1-9號","121.447983333333","24.99487","6500100","板橋區"
"235068","KEA-2873","2018/06/07 18:39:20","新北市中和區中正路140號","121.499371666667","24.99368","6500300","中和區"
"235061","KEA-2875","2018/06/07 18:39:27","新北市中和區民享街97巷9號","121.475163333333","24.9993433333333","6500300","中和區"
