"lineid","car","time","location","longitude","latitude","cityid","cityname"
"234046","148-BY","2018/06/07 18:49:28","新北市永和區秀朗路二段149號","121.524783333333","25.0016216666667","6500400","永和區"
"234007","207-UY","2018/06/07 18:46:10","新北市永和區文化路170號","121.511796666667","25.0155166666667","6500400","永和區"
"234081","298-R6","2018/06/07 18:49:23","新北市永和區永利路156號","121.522623333333","25.00295","6500400","永和區"
"234038","336-UY","2018/06/07 18:45:53","新北市永和區豫溪街217巷27號","121.524616666667","25.0104","6500400","永和區"
"234064","337-UY","2018/06/07 18:49:12","新北市永和區福和路1號","121.5265","25.010005","6500400","永和區"
"234086","338-UY","2018/06/07 18:49:15","新北市中和區安樂路101號","121.51328","24.994925","6500400","永和區"
"234070","552-UM","2018/06/07 18:49:26","新北市永和區環河東路二段92號","121.524446666667","25.01063","6500400","永和區"
"234017","745-BX","2018/06/07 18:49:22","新北市永和區忠孝街26巷27弄1號","121.51522","25.01698","6500400","永和區"
"234030","746-BX","2018/06/07 18:49:25","新北市永和區得和路321號","121.523393333333","24.999585","6500400","永和區"
"234054","KEA-2590","2018/06/07 18:49:24","新北市永和區豫溪街191巷3弄1號","121.523263333333","25.010395","6500400","永和區"
"234013","KEA-2591","2018/06/07 18:49:30","新北市永和區保福路二段133巷29號","121.509183333333","25.0135416666667","6500400","永和區"
"234061","AAD-866","2018/06/07 18:49:27","新北市永和區福和路305號","121.516336666667","25.0072383333333","6500400","永和區"
"234042","862-TW","2018/06/07 18:49:21","新北市永和區永貞路308號","121.511918333333","25.0049016666667","6500400","永和區"
"234050","863-TW","2018/06/07 18:49:27","新北市永和區福和路1號","121.526061666667","25.00948","6500400","永和區"
"234011","9373-KE","2018/06/07 18:49:11","新北市永和區文化路124號","121.513103333333","25.0153566666667","6500400","永和區"
"249005","172-UM","2018/06/07 18:49:29","新北市八里區長道坑16-3號","121.394883333333","25.1162766666667","6502300","八里區"
"249001","173-UM","2018/06/07 18:49:30","新北市八里區龍米路二段58號","121.448251666667","25.140885","6502300","八里區"
"248016","026-BX","2018/06/07 18:49:22","新北市五股區凌雲路一段133巷27-3號","121.44863","25.1008583333333","6501500","五股區"
"248006","077-UY","2018/06/07 18:49:17","新北市五股區中興路二段9巷40號","121.461886666667","25.0729916666667","6501500","五股區"
"248008","095-VK","2018/06/07 18:49:28","新北市五股區中興路一段151巷3號","121.465058333333","25.07288","6501500","五股區"
"248020","225-UY","2018/06/07 18:49:11","新北市五股區凌雲路三段41-2號","121.430066666667","25.1177733333333","6501500","五股區"
"248012","247-BX","2018/06/07 18:49:15","新北市五股區成泰路二段147巷6號","121.437645","25.0891583333333","6501500","五股區"
"248014","261-SL","2018/06/07 18:49:16","新北市五股區民義路一段107巷32號","121.43214","25.0845183333333","6501500","五股區"
"248010","272-BY","2018/06/07 18:49:26","新北市五股區水碓七路81號","121.429633333333","25.072255","6501500","五股區"
"248004","677-BX","2018/06/07 18:49:03","新北市五股區民義路二段40號","121.417863333333","25.098365","6501500","五股區"
"248002","678-BX","2018/06/07 18:49:32","新北市五股區成泰路三段454號","121.451423333333","25.1003966666667","6501500","五股區"
"234023","9380-KE","2018/06/07 18:49:15","新北市永和區竹林路119巷45號","121.521968333333","25.0118516666667","6500400","永和區"
"234077","969-R7","2018/06/07 18:49:31","新北市永和區中正路2巷29弄2-2號","121.5139","24.993885","6500400","永和區"
"234067","AAC-212","2018/06/07 18:49:20","新北市永和區中和路617號","121.51272","25.0047466666667","6500400","永和區"
"234003","AAC-295","2018/06/07 18:49:24","新北市永和區中正路631號","121.515511666667","25.010045","6500400","永和區"
"232011","375-UM","2018/06/07 18:49:28","新北市坪林區坪林街81號","121.71167","24.936985","6502000","坪林區"
"244007","080-UY","2018/06/07 18:49:24","新北市林口區太平嶺3-8號","121.378493333333","25.112145","6501700","林口區"
"244019","403-UM","2018/06/07 18:49:23","新北市林口區麗園二街47巷51號","121.382781666667","25.0695316666667","6501700","林口區"
"244013","742-UY","2018/06/07 18:49:27","新北市林口區仁愛路二段201-1號","121.37793","25.0745083333333","6501700","林口區"
"244009","410-SL","2018/06/07 18:49:29","新北市林口區竹林路446巷1弄2號","121.38852","25.08578","6501700","林口區"
"244023","483-VK","2018/06/07 18:49:25","新北市林口區民權路10號","121.37138","25.07993","6501700","林口區"
"244017","485-VK","2018/06/07 18:48:55","新北市林口區文化二路一段60-2號","121.365265","25.06832","6501700","林口區"
"244011","657-BX","2018/06/07 18:49:32","新北市林口區中正路41巷9號","121.395713333333","25.0768116666667","6501700","林口區"
"244025","837-TS","2018/06/07 18:49:29","新北市林口區南勢二街372-2號","121.359495","25.0760366666667","6501700","林口區"
"243013","AAD-798","2018/06/07 18:31:20","新北市泰山區明志路三段206巷3號","121.423295","25.0379533333333","6501600","泰山區"
"243016","380-SR","2018/06/07 18:49:21","新北市泰山區明志路二段135號","121.42762","25.0507716666667","6501600","泰山區"
"243015","421-VK","2018/06/07 18:49:17","新北市泰山區泰林路二段394號","121.427946666667","25.0640666666667","6501600","泰山區"
"243010","KEA-2216","2018/06/07 18:49:27","新北市泰山區明志路一段519號","121.430348333333","25.0540283333333","6501600","泰山區"
"243012","646-TV","2018/06/07 18:49:17","新北市泰山區福興街24號","121.4344","25.0577066666667","6501600","泰山區"
"222003","436-BY","2018/06/07 18:49:19","新北市深坑區翠谷街1號","121.6266","25.00737","6501800","深坑區"
"222002","659-BX","2018/06/07 18:49:22","新北市深坑區文山路一段69號","121.626991666667","25.0018816666667","6501800","深坑區"
"231041","002-UM","2018/06/07 18:49:20","新北市新店區安華路28-1號","121.519513333333","24.9607016666667","6500600","新店區"
"231059","046-UY","2018/06/07 18:49:16","新北市新店區安華路28-1號","121.519596666667","24.9608283333333","6500600","新店區"
"231040","047-UY","2018/06/07 18:49:10","新北市新店區力行路15號","121.537041666667","24.9654283333333","6500600","新店區"
"231052","108-UY","2018/06/07 18:49:15","新北市新店區新烏路一段231號","121.54906","24.9307383333333","6500600","新店區"
"231047","187-VK","2018/06/07 18:49:13","新北市新店區北新路一段307號","121.541588333333","24.9677266666667","6500600","新店區"
"231046","188-VK","2018/06/07 18:49:16","新北市新店區直潭路41號","121.533753333333","24.9426133333333","6500600","新店區"
"231054","KEA-2219","2018/06/07 18:49:17","新北市新店區光明街32號","121.538331666667","24.95897","6500600","新店區"
"231042","268-BY","2018/06/07 18:49:15","新北市新店區北新路一段91號","121.538723333333","24.9617383333333","6500600","新店區"
"231051","278-BY","2018/06/07 18:49:22","新北市新店區中央路59號","121.532676666667","24.97738","6500600","新店區"
"231050","AAD-862","2018/06/07 18:49:20","新北市新店區安康路一段75號","121.5302","24.9611033333333","6500600","新店區"
"231044","355-BY","2018/06/07 18:49:30","新北市新店區中興路三段6號","121.546515","24.9774266666667","6500600","新店區"
"231058","3713-VJ","2018/06/07 18:49:28","新北市新店區北宜路一段98號","121.538991666667","24.9554116666667","6500600","新店區"
"231066","4716-K9","2018/06/07 18:49:25","新北市新店區安豐路22巷8號","121.501323333333","24.9552183333333","6500600","新店區"
"231056","4715-K9","2018/06/07 18:49:16","新北市新店區建國路150號","121.538765","24.9791516666667","6500600","新店區"
"231067","4772-VM","2018/06/07 18:49:28","新北市新店區安康路一段291巷50號","121.523028333333","24.9614516666667","6500600","新店區"
"231065","512-UM","2018/06/07 18:49:16","新北市新店區安豐路49號","121.500246666667","24.9540716666667","6500600","新店區"
"231049","513-UM","2018/06/07 18:49:16","新北市新店區環河路118號","121.536693333333","24.9680433333333","6500600","新店區"
"231061","619-UM","2018/06/07 18:49:19","新北市新店區安華路28-1號","121.519645","24.9607266666667","6500600","新店區"
"231063","641-BX","2018/06/07 18:49:22","新北市新店區安華路28-1號","121.519533333333","24.9605833333333","6500600","新店區"
"231064","719-UM","2018/06/07 18:49:17","新北市新店區安一路一段1-1號","121.519495","24.9612483333333","6500600","新店區"
"231062","720-UM","2018/06/07 18:49:20","新北市新店區安一路一段1-1號","121.519126666667","24.9610466666667","6500600","新店區"
"231060","897-TW","2018/06/07 18:49:18","新北市新店區安華路28-1號","121.519748333333","24.96057","6500600","新店區"
"231045","898-TW","2018/06/07 18:49:12","新北市新店區安康路一段69號","121.530236666667","24.9610533333333","6500600","新店區"
"231043","899-TW","2018/06/07 18:49:24","新北市新店區安康路一段279號","121.523683333333","24.963525","6500600","新店區"
"231055","AKT-0513","2018/06/07 18:49:16","新北市新店區北新路一段271巷8號","121.540545","24.9667333333333","6500600","新店區"
"241018","268-UM","2018/06/07 18:38:01","新北市三重區安慶街226-2號","121.49262","25.0681083333333","6500200","三重區"
"241020","478-VK","2018/06/07 18:49:28","新北市五股區四維路171巷2號","121.467676666667","25.0753483333333","6500200","三重區"
"235064","005-UY","2018/06/07 18:49:11","新北市中和區連城路75巷3弄3號","121.497905","24.99953","6500300","中和區"
"235063","006-UY","2018/06/07 18:49:11","新北市中和區錦和路196巷6號","121.489773333333","24.99496","6500300","中和區"
"235056","096-UM","2018/06/07 18:49:21","新北市中和區員山路611巷5弄9號","121.478558333333","25.0109233333333","6500300","中和區"
"235039","097-UM","2018/06/07 18:49:23","新北市中和區宜安路54號","121.51211","24.9965716666667","6500300","中和區"
"235065","098-UM","2018/06/07 18:49:24","新北市中和區中山路二段2巷43號","121.502491666667","25.0069","6500300","中和區"
"235040","150-BY","2018/06/07 18:49:12","新北市中和區保健路123號","121.512325","24.996055","6500300","中和區"
"235058","151-BY","2018/06/07 18:49:29","新北市中和區連城路534巷2號","121.475373333333","24.991335","6500300","中和區"
"235055","183-VK","2018/06/07 18:49:27","新北市中和區民生街71號","121.469303333333","25.004915","6500300","中和區"
"235038","185-VK","2018/06/07 18:49:16","新北市中和區大勇街31巷8號","121.517165","24.994445","6500300","中和區"
"235049","186-VK","2018/06/07 18:49:23","新北市中和區景安路175-1號","121.505253333333","24.994245","6500300","中和區"
"235067","255-BX","2018/06/07 18:49:20","新北市中和區中正路809號","121.484815","25.0016483333333","6500300","中和區"
"235044","293-VK","2018/06/07 18:49:25","新北市中和區中興街156號","121.499855","24.9917566666667","6500300","中和區"
"235072","301-VK","2018/06/07 18:49:24","新北市中和區中山路二段95號","121.503463333333","25.003985","6500300","中和區"
"235043","352-BY","2018/06/07 18:49:32","新北市中和區成功路113號","121.525941666667","24.9911783333333","6500300","中和區"
"235050","4979-A6","2018/06/07 18:49:11","新北市中和區忠孝街62巷9弄10號","121.513156666667","24.9839816666667","6500300","中和區"
"235069","4980-A6","2018/06/07 18:49:15","新北市中和區南山路56號","121.501971666667","24.9974166666667","6500300","中和區"
"235042","551-UM","2018/06/07 18:49:22","新北市中和區秀朗路三段135巷7弄2號","121.52541","24.9918366666667","6500300","中和區"
"235070","558-UM","2018/06/07 18:49:26","新北市中和區南山路39號","121.502058333333","24.9987633333333","6500300","中和區"
"235045","565-BX","2018/06/07 18:49:14","新北市中和區捷運路129號","121.507051666667","24.9907766666667","6500300","中和區"
"235054","640-BX","2018/06/07 18:49:29","新北市中和區民享街66號","121.474151666667","25.00194","6500300","中和區"
"235060","647-TV","2018/06/07 18:49:24","新北市中和區中山路三段209號","121.471888333333","25.00644","6500300","中和區"
"235047","732-UM","2018/06/07 18:49:26","新北市中和區興南路二段34巷55弄1號","121.504895","24.986235","6500300","中和區"
"235046","733-UM","2018/06/07 18:49:12","新北市中和區仁愛街36巷55號","121.511451666667","24.9862566666667","6500300","中和區"
"235057","801-TS","2018/06/07 18:49:32","新北市中和區民安街42巷24號","121.479608333333","25.000825","6500300","中和區"
"235041","802-TS","2018/06/07 18:49:24","新北市中和區中安街218號","121.511911666667","24.9989","6500300","中和區"
"235052","805-TS","2018/06/07 18:49:23","新北市中和區興南路二段399巷98弄11號","121.499985","24.9773316666667","6500300","中和區"
"235048","896-TW","2018/06/07 18:49:22","新北市中和區華新街13號","121.507528333333","24.985095","6500300","中和區"
"235053","900-TW","2018/06/07 18:49:22","新北市中和區華福街42巷1弄1號","121.466393333333","24.9963266666667","6500300","中和區"
"235066","911-UM","2018/06/07 18:49:12","新北市中和區水源路16號","121.50401","25.0035016666667","6500300","中和區"
"235051","157-BY","2018/06/07 18:49:31","新北市中和區華新街109巷4號","121.508895","24.9818233333333","6500300","中和區"
"235037","AAC-213","2018/06/07 18:49:27","新北市中和區秀朗路三段128巷11號","121.524463333333","24.9933016666667","6500300","中和區"
"235059","AAC-215","2018/06/07 18:49:30","新北市中和區圓通路393巷18號","121.489826666667","24.9886133333333","6500300","中和區"
"220065","072-UY","2018/06/07 18:49:19","新北市板橋區民族路247巷5弄42號","121.47024","25.00842","6500100","板橋區"
"220106","075-UY","2018/06/07 18:49:25","新北市板橋區民生路二段161巷5號","121.470085","25.0196866666667","6500100","板橋區"
"220069","AAD-861","2018/06/07 18:49:20","新北市板橋區館前西路49號","121.457831666667","25.006545","6500100","板橋區"
"220090","120-SR","2018/06/07 18:49:23","新北市板橋區民生路二段161巷9號","121.470296666667","25.019695","6500100","板橋區"
"226004","312-R5","2018/06/07 18:49:15","新北市平溪區靜安路二段406號","121.738925","25.0243716666667","6502400","平溪區"
"228003","097-TW","2018/06/07 18:49:30","新北市貢寮區和美里龍洞街62號","121.915295","25.117095","6502600","貢寮區"
"228001","212-TW","2018/06/07 18:49:14","新北市貢寮區仁理村研海街12-1號","121.923891666667","25.0516933333333","6502600","貢寮區"
"228002","585-TW","2018/06/07 18:49:09","新北市貢寮區福隆里東興街6-11號","121.950738333333","25.0210666666667","6502600","貢寮區"
"224010","AGQ-8101","2018/06/07 18:45:19","新北市瑞芳區烏勢巷145號","121.847755","25.1088483333333","6501200","瑞芳區"
"224006","676-BX","2018/06/07 18:49:12","新北市瑞芳區明燈路三段180號","121.803116666667","25.1097","6501200","瑞芳區"
"224002","639-TC","2018/06/07 18:49:18","新北市瑞芳區傑魚坑路20號","121.79442","25.1105866666667","6501200","瑞芳區"
"224008","285-BY","2018/06/07 18:49:17","新北市瑞芳區逢甲路284號","121.803578333333","25.1115283333333","6501200","瑞芳區"
"224009","273-VK","2018/06/07 18:49:12","新北市瑞芳區祈堂路2號","121.859521666667","25.111675","6501200","瑞芳區"
"224005","271-BY","2018/06/07 18:49:21","新北市瑞芳區海濱路154號","121.829961666667","25.122035","6501200","瑞芳區"
"227004","642-TC","2018/06/07 18:49:26","新北市雙溪區平林里梅竹蹊28號","121.861636666667","25.036005","6502500","雙溪區"
"227010","400-TW","2018/06/07 18:49:20","新北市雙溪區牡丹里聖南14號","121.858473333333","25.0527433333333","6502500","雙溪區"
"253005","032-BX","2018/06/07 18:49:27","新北市石門區中山路11號","121.565738333333","25.29047","6502200","石門區"
"253006","295-VK","2018/06/07 18:49:19","新北市石門區下員坑16號","121.510596666667","25.2837116666667","6502200","石門區"
"222001","KEA-2212","2018/06/07 18:49:31","新北市深坑區松柏街34號","121.638651666667","25.0113716666667","6501800","深坑區"
"208002","KEA-2872","2018/06/07 18:49:14","新北市金山區仁愛路35-1號","121.636195","25.2192516666667","6502700","金山區"
"208003","665-BX","2018/06/07 18:49:16","新北市金山區中山路393號","121.63334","25.2252366666667","6502700","金山區"
"208001","761-BX","2018/06/07 18:49:18","新北市金山區文化三路66巷1號","121.634256666667","25.2256466666667","6502700","金山區"
"251001","011-UM","2018/06/07 18:49:11","新北市淡水區自強路108-1號","121.461798333333","25.1303116666667","6501000","淡水區"
"251013","KEA-2871","2018/06/07 18:49:26","新北市淡水區小坑子頭9號","121.481435","25.2136883333333","6501000","淡水區"
"251016","179-VK","2018/06/07 18:49:24","新北市淡水區下圭柔山71-3號","121.447016666667","25.2061716666667","6501000","淡水區"
"251014","180-VK","2018/06/07 18:49:12","新北市淡水區崙頂2號","121.492065","25.2239783333333","6501000","淡水區"
"251015","182-VK","2018/06/07 18:49:18","新北市淡水區興福寮100號","121.487243333333","25.1644","6501000","淡水區"
"251010","413-VK","2018/06/07 18:49:13","新北市淡水區觀海路27號","121.41856","25.1817","6501000","淡水區"
"251012","441-VK","2018/06/07 18:49:27","新北市淡水區新興街13號","121.443298333333","25.1804266666667","6501000","淡水區"
"251007","442-VK","2018/06/07 18:49:31","新北市淡水區中正東路二段143巷2弄1號","121.460676666667","25.1470933333333","6501000","淡水區"
"251011","650-BX","2018/06/07 18:49:19","新北市淡水區學府路30號","121.447841666667","25.16866","6501000","淡水區"
"251002","672-BX","2018/06/07 18:49:18","新北市淡水區學府路71號","121.448493333333","25.1698366666667","6501000","淡水區"
"251003","766-UM","2018/06/07 18:49:25","新北市淡水區中山北路一段186巷24號","121.446265","25.1786016666667","6501000","淡水區"
"207003","550-UM","2018/06/07 18:49:14","新北市萬里區大鵬里頂社1號","121.657005","25.2097116666667","6502800","萬里區"
"207004","225-TW","2018/06/07 18:49:11","新北市萬里區萬里里獅頭路23號","121.693201666667","25.1782433333333","6502800","萬里區"
"252002","178-VK","2018/06/07 18:49:15","新北市三芝區中正路一段112號","121.50483","25.25638","6502100","三芝區"
"252003","249-BX","2018/06/07 18:49:27","新北市三芝區後厝里大片頭108號","121.458561666667","25.242955","6502100","三芝區"
"252001","292-VK","2018/06/07 18:49:18","新北市三芝區中正路三段9號","121.502825","25.253975","6502100","三芝區"
"237007","153-BY","2018/06/07 18:49:29","新北市三峽區中正路二段399號","121.365011666667","24.9074966666667","6500900","三峽區"
"237009","210-TH","2018/06/07 18:49:27","新北市三峽區仁愛街37號","121.368473333333","24.9330616666667","6500900","三峽區"
"237013","252-BX","2018/06/07 18:49:20","新北市三峽區光明路69巷25號","121.376738333333","24.9292666666667","6500900","三峽區"
"237012","275-BY","2018/06/07 18:49:19","新北市三峽區三樹路340號","121.383935","24.9433233333333","6500900","三峽區"
"237008","302-VK","2018/06/07 18:49:31","新北市三峽區白雞33-60號","121.370875","24.9131216666667","6500900","三峽區"
"237014","433-BY","2018/06/07 18:49:22","新北市三峽區隆恩街198號","121.360618333333","24.9422233333333","6500900","三峽區"
"237006","5529-G3","2018/06/07 18:49:20","新北市三峽區溪東路211巷18弄1-1號","121.40628","24.93443","6500900","三峽區"
"237011","KEA-2596","2018/06/07 18:49:27","新北市三峽區介壽路三段155號","121.400846666667","24.9430366666667","6500900","三峽區"
"237016","649-BX","2018/06/07 18:49:20","新北市三峽區建安74-12號","121.453783333333","24.9231233333333","6500900","三峽區"
"237010","706-TV","2018/06/07 18:49:14","新北市三峽區國光街350巷14號","121.371683333333","24.9401483333333","6500900","三峽區"
"237005","AKY-6261","2018/06/07 18:49:12","新北市三峽區新興街27號","121.372845","24.9353616666667","6500900","三峽區"
"236070","105-UM","2018/06/07 18:49:22","新北市土城區延和路21巷1號","121.464225","24.9885133333333","6501300","土城區"
"236042","107-UM","2018/06/07 18:49:29","新北市土城區裕民路92巷25弄1號","121.449638333333","24.9859683333333","6501300","土城區"
"236078","166-UM","2018/06/07 18:49:22","新北市土城區中央路四段185巷36號","121.415976666667","24.9558233333333","6501300","土城區"
"236030","253-BX","2018/06/07 18:49:29","新北市土城區忠義路26巷19號","121.43987","24.96985","6501300","土城區"
"236026","269-VK","2018/06/07 18:49:24","新北市土城區慶安街45巷11號","121.441483333333","24.9727683333333","6501300","土城區"
"236014","270-VK","2018/06/07 18:49:22","新北市土城區金城路二段354巷16號","121.460888333333","24.9843333333333","6501300","土城區"
"236038","271-VK","2018/06/07 18:49:16","新北市土城區明德路一段221巷9號","121.463681666667","24.9780066666667","6501300","土城區"
"236021","401-BY","2018/06/07 18:49:12","新北市土城區延吉街251號","121.467641666667","24.98484","6501300","土城區"
"236059","912-UM","2018/06/07 18:49:11","新北市土城區金城路一段86號","121.444941666667","24.9734866666667","6501300","土城區"
"236049","913-UM","2018/06/07 18:49:29","新北市土城區青雲路11號","121.46041","24.9895966666667","6501300","土城區"
"236063","915-UM","2018/06/07 18:49:23","新北市土城區延壽路13巷5號","121.470903333333","24.9904133333333","6501300","土城區"
"236055","AAC-216","2018/06/07 18:49:21","新北市土城區裕民路198號","121.453208333333","24.984835","6501300","土城區"
"242058","986-R7","2018/06/07 18:49:20","新北市泰山區中山路二段481號","121.432173333333","25.0434416666667","6500500","新莊區"
"242051","441-UM","2018/06/07 18:49:14","新北市樹林區中山路三段210-2號","121.38069","24.9669133333333","6500500","新莊區"
"238023","601-UM","2018/06/07 18:49:13","桃園市龜山區萬壽路一段253號","121.404238333333","25.0174083333333","6500700","樹林區"
"238019","599-UM","2018/06/07 18:49:15","新北市樹林區東榮街145號","121.414448333333","24.9816783333333","6500700","樹林區"
"238018","571-TV","2018/06/07 18:49:10","新北市樹林區鎮前街313號","121.417521666667","24.984615","6500700","樹林區"
"238024","5061-A6","2018/06/07 18:49:23","新北市樹林區八德街278號","121.411003333333","24.97027","6500700","樹林區"
"238022","KEA-2213","2018/06/07 18:49:21","新北市樹林區東順街20號","121.412091666667","24.9785433333333","6500700","樹林區"
"238025","303-VK","2018/06/07 18:49:15","新北市樹林區中山路三段22號","121.395546666667","24.9729516666667","6500700","樹林區"
"238020","268-VK","2018/06/07 18:49:13","新北市樹林區俊英街83巷1-1號","121.425803333333","25.0079683333333","6500700","樹林區"
"238026","172-UY","2018/06/07 18:49:21","新北市樹林區吉祥街3巷3號","121.392088333333","24.9729766666667","6500700","樹林區"
"238016","169-UY","2018/06/07 18:49:29","新北市樹林區文化街26號","121.419388333333","24.9876483333333","6500700","樹林區"
"239007","AAC-297","2018/06/07 18:45:48","新北市鶯歌區中正一路建德二巷2號","121.363896666667","24.9565216666667","6500800","鶯歌區"
"239008","527-UM","2018/06/07 18:49:27","新北市鶯歌區國際二路20巷3號","121.336713333333","24.9751916666667","6500800","鶯歌區"
"239005","526-UM","2018/06/07 18:49:17","新北市鶯歌區鳳吉一街154號","121.32862","24.9752783333333","6500800","鶯歌區"
"239001","417-VK","2018/06/07 18:49:17","新北市鶯歌區尖山路302號","121.339956666667","24.9442316666667","6500800","鶯歌區"
"239003","360-BY","2018/06/07 18:49:13","新北市鶯歌區鶯桃路574號","121.33065","24.9678516666667","6500800","鶯歌區"
"239004","193-VK","2018/06/07 18:49:20","新北市鶯歌區中正三路194巷34-4號","121.330946666667","24.9419066666667","6500800","鶯歌區"
"221008","489-VK","2018/06/07 18:49:23","新北市汐止區康寧街901號","121.651405","25.0749883333333","6501100","汐止區"
"221036","130-UY","2018/06/07 18:49:12","新北市汐止區水碓街24號","121.664338333333","25.0697366666667","6501100","汐止區"
"221015","131-UY","2018/06/07 18:49:10","新北市汐止區鄉長路一段55巷6號","121.665436666667","25.076165","6501100","汐止區"
"221010","269-BY","2018/06/07 18:49:09","新北市汐止區汐萬路一段420號","121.649825","25.0781633333333","6501100","汐止區"
"221012","278-VK","2018/06/07 18:49:28","新北市汐止區汐萬路一段256巷3號","121.652441666667","25.0746166666667","6501100","汐止區"
"221023","279-VK","2018/06/07 18:49:19","新北市汐止區康寧街861巷1號","121.645623333333","25.075915","6501100","汐止區"
"221032","280-BY","2018/06/07 18:49:31","新北市汐止區民權街二段79號","121.619133333333","25.0480533333333","6501100","汐止區"
"221027","281-BY","2018/06/07 18:49:31","新北市汐止區汐萬路一段256巷3號","121.653428333333","25.0746983333333","6501100","汐止區"
"221029","298-VK","2018/06/07 18:49:15","新北市汐止區樟樹一路1巷52號","121.640756666667","25.06252","6501100","汐止區"
"221021","299-VK","2018/06/07 18:49:26","新北市汐止區汐萬路一段256巷3號","121.65241","25.074585","6501100","汐止區"
"221031","353-TW","2018/06/07 18:49:22","新北市汐止區福德一路300巷43號","121.6303","25.0644883333333","6501100","汐止區"
"221035","622-UM","2018/06/07 18:49:14","新北市汐止區汐萬路一段137號","121.6536","25.0711483333333","6501100","汐止區"
"221025","623-UM","2018/06/07 18:49:15","新北市汐止區仁愛路113巷7號","121.662156666667","25.06374","6501100","汐止區"
"221038","646-BX","2018/06/07 18:49:29","新北市汐止區康寧街901號","121.65072","25.0753083333333","6501100","汐止區"
"221033","647-BX","2018/06/07 18:49:21","新北市汐止區南勢街3號","121.627101666667","25.0374083333333","6501100","汐止區"
"221002","707-TV","2018/06/07 18:49:15","新北市汐止區大同路一段154-1號","121.63207","25.0559283333333","6501100","汐止區"
"221018","753-BX","2018/06/07 18:49:13","新北市汐止區茄苳路70號","121.666658333333","25.0706533333333","6501100","汐止區"
"220079","145-BY","2018/06/07 18:49:17","新北市板橋區民權路202巷7弄2號","121.46009","25.0147666666667","6500100","板橋區"
"220080","200-UY","2018/06/07 18:48:49","新北市板橋區大觀路二段265巷60弄37號","121.44172","24.9978633333333","6500100","板橋區"
"220082","610-BX","2018/06/07 18:49:15","新北市板橋區篤行路三段玉平巷76弄10號","121.427735","24.9859433333333","6500100","板橋區"
"220093","267-BY","2018/06/07 18:49:15","新北市板橋區民生路二段161巷1號","121.470075","25.02008","6500100","板橋區"
"220056","276-BY","2018/06/07 18:49:28","新北市板橋區四川路二段6號","121.456338333333","24.9962933333333","6500100","板橋區"
"220072","277-BY","2018/06/07 18:49:22","新北市板橋區大觀路三段28號","121.434131666667","24.995795","6500100","板橋區"
"220071","283-VK","2018/06/07 18:49:27","新北市板橋區忠孝路176巷5弄2號","121.464723333333","25.0019466666667","6500100","板橋區"
"220094","285-UM","2018/06/07 18:49:12","新北市板橋區民生路二段161巷1號","121.470033333333","25.01994","6500100","板橋區"
"220053","285-VK","2018/06/07 18:49:28","新北市板橋區民生路二段121號","121.470888333333","25.0182916666667","6500100","板橋區"
"220083","286-VK","2018/06/07 18:49:21","新北市板橋區僑中二街82號","121.446576666667","25.009655","6500100","板橋區"
"220081","287-VK","2018/06/07 18:49:13","新北市板橋區光華街13巷31-1號","121.452945","25.0112633333333","6500100","板橋區"
"220061","293-UM","2018/06/07 18:49:32","新北市板橋區民生路二段121號","121.47087","25.0184683333333","6500100","板橋區"
"220062","295-UM","2018/06/07 18:49:29","新北市板橋區中山路二段23號","121.47238","25.0152116666667","6500100","板橋區"
"220084","296-UM","2018/06/07 18:49:26","新北市板橋區大觀路二段150巷30號","121.441685","24.9998283333333","6500100","板橋區"
"220075","303-R5","2018/06/07 18:49:15","新北市板橋區南興路57號","121.454395","25.007275","6500100","板橋區"
"220092","307-R5","2018/06/07 18:49:23","新北市板橋區民生路二段161巷9號","121.470191666667","25.0194583333333","6500100","板橋區"
"220088","491-VK","2018/06/07 18:49:21","新北市板橋區民生路二段161巷1號","121.469996666667","25.02001","6500100","板橋區"
"220035","560-BX","2018/06/07 18:49:14","新北市板橋區中正路325巷41號","121.45346","25.0193233333333","6500100","板橋區"
"220103","561-BX","2018/06/07 18:49:20","新北市板橋區民生路二段161巷5號","121.470213333333","25.0197166666667","6500100","板橋區"
"220086","630-UY","2018/06/07 18:49:23","新北市板橋區大智街53號","121.454106666667","25.0153633333333","6500100","板橋區"
"220091","637-BX","2018/06/07 18:49:15","新北市板橋區民生路二段161巷1號","121.469965","25.0199133333333","6500100","板橋區"
"220057","686-BX","2018/06/07 18:49:18","新北市板橋區館前西路53號","121.45774","25.0065916666667","6500100","板橋區"
"220077","687-BX","2018/06/07 18:49:11","新北市板橋區龍興街103巷1號","121.444546666667","25.0033233333333","6500100","板橋區"
"220054","741-BX","2018/06/07 18:49:15","新北市板橋區館前東路21號","121.460358333333","25.0072266666667","6500100","板橋區"
"220102","KEA-2699","2018/06/07 18:49:17","新北市板橋區民生路二段161巷1號","121.470141666667","25.01991","6500100","板橋區"
"220064","806-UM","2018/06/07 18:49:30","新北市板橋區民生路二段7號","121.47277","25.01589","6500100","板橋區"
"220055","827-TW","2018/06/07 18:49:18","新北市板橋區縣民大道一段296號","121.460903333333","25.01003","6500100","板橋區"
"220067","830-TW","2018/06/07 18:49:21","新北市板橋區三民路二段正隆巷44號","121.47695","25.0139433333333","6500100","板橋區"
"220096","831-TW","2018/06/07 18:49:26","新北市板橋區民生路二段161巷7號","121.470246666667","25.0196966666667","6500100","板橋區"
"220089","833-TW","2018/06/07 18:49:25","新北市板橋區民生路二段161巷1號","121.470035","25.0199683333333","6500100","板橋區"
"220074","895-R6","2018/06/07 18:49:15","新北市板橋區館前西路269號","121.453531666667","25.0086566666667","6500100","板橋區"
"220073","985-R7","2018/06/07 18:49:13","新北市板橋區林園街54號","121.453925","25.010725","6500100","板橋區"
"220070","AAC-253","2018/06/07 18:49:25","新北市板橋區四川路一段59號","121.459798333333","25.0062133333333","6500100","板橋區"
"235068","KEA-2873","2018/06/07 18:49:28","新北市中和區中正路167巷15號","121.4984","24.9927783333333","6500300","中和區"
"235061","KEA-2875","2018/06/07 18:49:27","新北市中和區民享街90巷24號","121.473376666667","25.000045","6500300","中和區"
