"lineid","car","time","location","longitude","latitude","cityid","cityname"
"234046","148-BY","2018/06/07 18:59:28","新北市永和區得和路373巷31弄8號","121.524643333333","25.0007066666667","6500400","永和區"
"234007","207-UY","2018/06/07 18:59:30","新北市永和區永和路二段94號","121.515015","25.01153","6500400","永和區"
"234081","298-R6","2018/06/07 18:59:23","新北市永和區國中路198號","121.522328333333","25.006195","6500400","永和區"
"234038","336-UY","2018/06/07 18:59:13","新北市永和區成功路二段207號","121.52658","24.995925","6500400","永和區"
"234064","337-UY","2018/06/07 18:59:12","新北市永和區秀朗路一段132號","121.517736666667","25.00333","6500400","永和區"
"234086","338-UY","2018/06/07 18:59:15","新北市永和區永利路18號","121.518056666667","25.0058966666667","6500400","永和區"
"234070","552-UM","2018/06/07 18:59:26","新北市永和區竹林路124巷36號","121.518028333333","25.0114816666667","6500400","永和區"
"234017","745-BX","2018/06/07 18:59:22","新北市永和區永和路二段297號","121.516003333333","25.01608","6500400","永和區"
"234030","746-BX","2018/06/07 18:59:25","新北市永和區秀朗路二段279號","121.526131666667","24.9982816666667","6500400","永和區"
"234054","KEA-2590","2018/06/07 18:59:04","新北市永和區竹林路64號","121.518348333333","25.013395","6500400","永和區"
"234013","KEA-2591","2018/06/07 18:59:15","新北市永和區信義路17巷16號","121.513563333333","25.0113583333333","6500400","永和區"
"234061","AAD-866","2018/06/07 18:59:27","新北市永和區福和路307號","121.51627","25.0071966666667","6500400","永和區"
"234042","862-TW","2018/06/07 18:59:26","新北市永和區永貞路273號","121.511543333333","25.005015","6500400","永和區"
"234050","863-TW","2018/06/07 18:56:27","新北市永和區環河西路一段95巷6號","121.511818333333","25.0175933333333","6500400","永和區"
"234011","9373-KE","2018/06/07 18:59:31","新北市永和區文化路123號","121.51241","25.015255","6500400","永和區"
"249005","172-UM","2018/06/07 18:59:09","新北市八里區長道坑6號","121.396948333333","25.12345","6502300","八里區"
"249001","173-UM","2018/06/07 18:59:09","新北市八里區龍米路二段192號","121.433843333333","25.158495","6502300","八里區"
"248016","026-BX","2018/06/07 18:59:22","新北市五股區成泰路三段543巷18號","121.450901666667","25.102215","6501500","五股區"
"248006","077-UY","2018/06/07 18:59:17","新北市五股區中興路一段21號","121.469115","25.07217","6501500","五股區"
"248008","095-VK","2018/06/07 18:59:28","新北市五股區中興路一段128巷11號","121.465616666667","25.07399","6501500","五股區"
"248020","225-UY","2018/06/07 18:59:11","新北市五股區凌雲路三段57號","121.42528","25.1250033333333","6501500","五股區"
"248012","247-BX","2018/06/07 18:59:15","新北市五股區工商路38號","121.439391666667","25.0837216666667","6501500","五股區"
"248010","272-BY","2018/06/07 18:59:26","新北市五股區水碓二路1號","121.430603333333","25.0712883333333","6501500","五股區"
"248004","677-BX","2018/06/07 18:59:23","新北市五股區民義路二段97-1號","121.40657","25.10708","6501500","五股區"
"248002","678-BX","2018/06/07 18:59:12","新北市五股區凌雲路一段163號","121.448838333333","25.1026633333333","6501500","五股區"
"234023","9380-KE","2018/06/07 18:59:15","新北市永和區竹林路75巷33弄21號","121.52087","25.01442","6500400","永和區"
"234077","969-R7","2018/06/07 18:59:11","新北市永和區中正路286巷7號","121.51769","24.99864","6500400","永和區"
"234074","AAC-211","2018/06/07 18:59:25","新北市永和區環河東路二段100號","121.524115","25.0103233333333","6500400","永和區"
"234067","AAC-212","2018/06/07 18:59:20","新北市永和區自由街62號","121.513636666667","25.005705","6500400","永和區"
"234003","AAC-295","2018/06/07 18:59:24","新北市永和區和平街28號","121.513433333333","25.0099433333333","6500400","永和區"
"232011","375-UM","2018/06/07 18:59:28","新北市坪林區水聳淒坑20-2號","121.711341666667","24.9340066666667","6502000","坪林區"
"244007","080-UY","2018/06/07 18:59:24","新北市林口區太平里23號","121.376943333333","25.1151483333333","6501700","林口區"
"244019","403-UM","2018/06/07 18:59:23","新北市林口區麗園二街3巷2-3號","121.378386666667","25.0695616666667","6501700","林口區"
"244013","742-UY","2018/06/07 18:59:27","新北市林口區麗園一街6巷5-2號","121.375455","25.0701983333333","6501700","林口區"
"244009","410-SL","2018/06/07 18:59:10","新北市林口區中山路164號","121.390388333333","25.07899","6501700","林口區"
"244023","483-VK","2018/06/07 18:59:19","新北市林口區文林六街13巷16號","121.370468333333","25.080635","6501700","林口區"
"244017","485-VK","2018/06/07 18:59:16","新北市林口區文化二路一段68巷12-1號","121.366136666667","25.0680233333333","6501700","林口區"
"244011","657-BX","2018/06/07 18:59:12","新北市林口區仁愛路一段258號","121.394225","25.0759583333333","6501700","林口區"
"244025","837-TS","2018/06/07 18:59:29","新北市林口區文化北路一段400-1號","121.3638","25.0755816666667","6501700","林口區"
"243013","AAD-798","2018/06/07 18:59:26","新北市泰山區明志路三段239號","121.423533333333","25.03776","6501600","泰山區"
"243009","297-R6","2018/06/07 18:58:56","新北市泰山區泰林路二段347號","121.42873","25.0635283333333","6501600","泰山區"
"243016","380-SR","2018/06/07 18:59:21","新北市泰山區民權街2號","121.427636666667","25.0509133333333","6501600","泰山區"
"243015","421-VK","2018/06/07 18:59:19","新北市泰山區泰林路二段221號","121.432578333333","25.0618466666667","6501600","泰山區"
"243010","KEA-2216","2018/06/07 18:59:27","新北市泰山區辭修路24號","121.429","25.0581416666667","6501600","泰山區"
"243012","646-TV","2018/06/07 18:59:17","新北市泰山區同義街13巷29號","121.43221","25.0572966666667","6501600","泰山區"
"243014","680-BX","2018/06/07 18:59:26","新北市泰山區泰林路二段593號","121.421726666667","25.0635233333333","6501600","泰山區"
"222003","436-BY","2018/06/07 18:59:19","新北市深坑區深南路51-1號","121.621351666667","25.0101666666667","6501800","深坑區"
"222002","659-BX","2018/06/07 18:59:22","新北市深坑區文山路一段33號","121.629538333333","25.003885","6501800","深坑區"
"231041","002-UM","2018/06/07 18:59:20","新北市新店區環河路66號","121.536958333333","24.9629666666667","6500600","新店區"
"231059","046-UY","2018/06/07 18:59:16","新北市新店區安華路28-1號","121.519661666667","24.960735","6500600","新店區"
"231040","047-UY","2018/06/07 18:59:30","新北市新店區中正路402號","121.53452","24.97751","6500600","新店區"
"231052","108-UY","2018/06/07 18:59:15","新北市新店區屈尺路48號","121.547865","24.9226283333333","6500600","新店區"
"231047","187-VK","2018/06/07 18:59:14","新北市新店區德正街23巷10號","121.544486666667","24.9721","6500600","新店區"
"231046","188-VK","2018/06/07 18:59:16","新北市新店區直潭四街52號","121.532856666667","24.941315","6500600","新店區"
"231054","KEA-2219","2018/06/07 18:59:17","新北市新店區新店路15號","121.540305","24.9527466666667","6500600","新店區"
"231042","268-BY","2018/06/07 18:59:15","新北市新店區中正路9號","121.545585","24.969405","6500600","新店區"
"231051","278-BY","2018/06/07 18:59:22","新北市新店區百忍街20號","121.534326666667","24.97568","6500600","新店區"
"231050","AAD-862","2018/06/07 18:59:20","新北市新店區北宜路二段30巷5弄8號","121.548233333333","24.9507333333333","6500600","新店區"
"231044","355-BY","2018/06/07 18:59:30","新北市新店區寶中路72號","121.547861666667","24.9806216666667","6500600","新店區"
"231058","3713-VJ","2018/06/07 18:59:28","新北市新店區檳榔路29巷4號","121.542028333333","24.96363","6500600","新店區"
"231066","4716-K9","2018/06/07 18:59:25","新北市新店區安祥路74號","121.489551666667","24.9584666666667","6500600","新店區"
"231056","4715-K9","2018/06/07 18:59:16","新北市新店區二十張路33巷16號","121.538946666667","24.980975","6500600","新店區"
"231067","4772-VM","2018/06/07 18:59:28","新北市新店區安康路一段171-3號","121.526873333333","24.9620566666667","6500600","新店區"
"231065","512-UM","2018/06/07 18:59:16","新北市新店區安祥路147巷46號","121.476471666667","24.957055","6500600","新店區"
"231049","513-UM","2018/06/07 18:59:27","新北市新店區中正路454-5號","121.534521666667","24.978965","6500600","新店區"
"231061","619-UM","2018/06/07 18:59:19","新北市新店區安華路1-1號","121.51956","24.959925","6500600","新店區"
"231063","641-BX","2018/06/07 18:59:22","新北市新店區安華路16號","121.516013333333","24.9580283333333","6500600","新店區"
"231064","719-UM","2018/06/07 18:59:17","新北市新店區安康路一段355號","121.519935","24.9637016666667","6500600","新店區"
"231062","720-UM","2018/06/07 18:59:20","新北市新店區安豐路56號","121.499156666667","24.9543133333333","6500600","新店區"
"231060","897-TW","2018/06/07 18:59:18","新北市新店區安忠路57巷13號","121.513283333333","24.9573666666667","6500600","新店區"
"231045","898-TW","2018/06/07 18:59:27","新北市新店區光明街9號","121.538195","24.9593033333333","6500600","新店區"
"231043","899-TW","2018/06/07 18:59:24","新北市新店區北新路二段2號","121.542583333333","24.9706616666667","6500600","新店區"
"231055","AKT-0513","2018/06/07 18:59:16","新北市新店區力行路92號","121.538355","24.9665566666667","6500600","新店區"
"241018","268-UM","2018/06/07 18:38:01","新北市三重區安慶街226-2號","121.49262","25.0681083333333","6500200","三重區"
"241035","462-BY","2018/06/07 18:59:26","新北市三重區重新路四段121號","121.484875","25.0520016666667","6500200","三重區"
"241020","478-VK","2018/06/07 18:59:28","新北市三重區忠孝路二段31號","121.486133333333","25.07125","6500200","三重區"
"241029","942-UM","2018/06/07 18:59:17","新北市三重區重安街15-1號","121.490323333333","25.0578283333333","6500200","三重區"
"235064","005-UY","2018/06/07 18:59:11","新北市中和區泰和街34號","121.499438333333","25.0002366666667","6500300","中和區"
"235063","006-UY","2018/06/07 18:59:11","新北市中和區中正路524號","121.488028333333","24.9943966666667","6500300","中和區"
"235056","096-UM","2018/06/07 18:59:21","新北市中和區新民街12-3號","121.481925","25.0073","6500300","中和區"
"235039","097-UM","2018/06/07 18:59:20","新北市中和區安平路222號","121.514088333333","25.000065","6500300","中和區"
"235065","098-UM","2018/06/07 18:59:24","新北市中和區勝利路35巷3弄1號","121.499091666667","25.0072233333333","6500300","中和區"
"235040","150-BY","2018/06/07 18:59:16","新北市中和區宜安路22號","121.513095","24.99581","6500300","中和區"
"235058","151-BY","2018/06/07 18:59:29","新北市中和區連城路428巷7-3號","121.479876666667","24.9953616666667","6500300","中和區"
"235055","183-VK","2018/06/07 18:59:27","新北市中和區民德路25巷4號","121.469153333333","25.002715","6500300","中和區"
"235038","185-VK","2018/06/07 18:59:16","新北市中和區立人街24-5號","121.518875","24.9941366666667","6500300","中和區"
"235049","186-VK","2018/06/07 18:59:16","新北市中和區景安路167巷12號","121.505858333333","24.994605","6500300","中和區"
"235067","255-BX","2018/06/07 18:59:00","新北市中和區新生街162號","121.483566666667","25.0002933333333","6500300","中和區"
"235044","293-VK","2018/06/07 18:59:25","新北市中和區中興街161巷7弄2號","121.501153333333","24.990935","6500300","中和區"
"235072","301-VK","2018/06/07 18:59:24","新北市中和區景平路725號","121.496445","25.0041","6500300","中和區"
"235043","352-BY","2018/06/07 18:59:11","新北市中和區成功路14號","121.52598","24.9934483333333","6500300","中和區"
"235050","4979-A6","2018/06/07 18:59:31","新北市中和區忠孝街60巷2弄8號","121.511588333333","24.9835966666667","6500300","中和區"
"235069","4980-A6","2018/06/07 18:59:15","新北市中和區圓通路29號","121.501123333333","24.99788","6500300","中和區"
"235042","551-UM","2018/06/07 18:59:22","新北市中和區秀朗路三段50巷8弄1號","121.524866666667","24.9951716666667","6500300","中和區"
"235070","558-UM","2018/06/07 18:59:26","新北市中和區安和路189號","121.506163333333","24.998215","6500300","中和區"
"235045","565-BX","2018/06/07 18:59:14","新北市中和區景新街467巷13號","121.513785","24.988225","6500300","中和區"
"235054","640-BX","2018/06/07 18:59:09","新北市中和區民享街1號","121.473871666667","25.0058333333333","6500300","中和區"
"235060","647-TV","2018/06/07 18:59:24","新北市中和區民治街24號","121.475208333333","25.0041166666667","6500300","中和區"
"235047","732-UM","2018/06/07 18:59:26","新北市中和區興南路二段54巷11弄6號","121.505611666667","24.98547","6500300","中和區"
"235046","733-UM","2018/06/07 18:59:12","新北市中和區興南路二段11號","121.50815","24.98621","6500300","中和區"
"235057","801-TS","2018/06/07 18:59:12","新北市中和區民安街65巷2號","121.478621666667","24.999615","6500300","中和區"
"235041","802-TS","2018/06/07 18:59:24","新北市中和區安平路100號","121.511603333333","24.9971833333333","6500300","中和區"
"235052","805-TS","2018/06/07 18:59:22","新北市中和區興南路二段347號","121.500295","24.9801866666667","6500300","中和區"
"235048","896-TW","2018/06/07 18:59:21","新北市中和區華新街109巷16號","121.508733333333","24.9809883333333","6500300","中和區"
"235053","900-TW","2018/06/07 18:59:22","新北市中和區壽德街26號","121.466631666667","24.994115","6500300","中和區"
"235066","911-UM","2018/06/07 18:59:31","新北市中和區中山路二段131巷5弄4號","121.502931666667","25.0028633333333","6500300","中和區"
"235051","157-BY","2018/06/07 18:59:10","新北市中和區忠孝街11巷1號","121.509871666667","24.9831233333333","6500300","中和區"
"235037","AAC-213","2018/06/07 18:59:27","新北市中和區秀朗路三段10巷37弄1號","121.524148333333","24.996095","6500300","中和區"
"235059","AAC-215","2018/06/07 18:59:30","新北市中和區圓通路367巷20弄31號","121.491271666667","24.988115","6500300","中和區"
"220065","072-UY","2018/06/07 18:59:19","新北市板橋區民族路287巷12號","121.471166666667","25.0071966666667","6500100","板橋區"
"220106","075-UY","2018/06/07 18:59:25","新北市板橋區文化路二段124巷28-2號","121.471198333333","25.0256483333333","6500100","板橋區"
"220069","AAD-861","2018/06/07 18:59:20","新北市板橋區華興街77號","121.456961666667","25.0050633333333","6500100","板橋區"
"220090","120-SR","2018/06/07 18:59:23","新北市板橋區四維路175-3號","121.464386666667","25.02639","6500100","板橋區"
"226004","312-R5","2018/06/07 18:59:15","新北市平溪區靜安路二段561號","121.750886666667","25.0244083333333","6502400","平溪區"
"228003","097-TW","2018/06/07 18:59:30","新北市貢寮區和美里龍洞街56-3號","121.912316666667","25.1140983333333","6502600","貢寮區"
"228001","212-TW","2018/06/07 18:59:14","新北市貢寮區仁理村仁和路106巷16號","121.923916666667","25.0516816666667","6502600","貢寮區"
"228002","585-TW","2018/06/07 18:59:29","新北市貢寮區福隆里東興街18-1號","121.950178333333","25.0183816666667","6502600","貢寮區"
"224006","676-BX","2018/06/07 18:59:18","新北市瑞芳區民權街23巷1號","121.808021666667","25.1066733333333","6501200","瑞芳區"
"224002","639-TC","2018/06/07 18:59:18","新北市瑞芳區靜安路四段10號","121.79727","25.0858366666667","6501200","瑞芳區"
"224008","285-BY","2018/06/07 18:59:17","新北市瑞芳區逢甲路347-2號","121.79776","25.113975","6501200","瑞芳區"
"224009","273-VK","2018/06/07 18:59:12","新北市瑞芳區洞頂路101號","121.863098333333","25.1181016666667","6501200","瑞芳區"
"224005","271-BY","2018/06/07 18:54:56","新北市瑞芳區海濱路157-2號","121.828985","25.1215516666667","6501200","瑞芳區"
"227004","642-TC","2018/06/07 18:59:26","新北市雙溪區平林里康福家園10號","121.858731666667","25.0372666666667","6502500","雙溪區"
"227010","400-TW","2018/06/07 18:59:20","新北市雙溪區牡丹里中正路58巷23號","121.866458333333","25.041585","6502500","雙溪區"
"253005","032-BX","2018/06/07 18:59:27","新北市石門區中央路37-5號","121.57009","25.2966016666667","6502200","石門區"
"253006","295-VK","2018/06/07 18:59:19","新北市石門區下員坑28-2號","121.518358333333","25.2792066666667","6502200","石門區"
"222001","KEA-2212","2018/06/07 18:59:11","新北市深坑區北深路一段196號","121.633356666667","25.0109133333333","6501800","深坑區"
"208002","KEA-2872","2018/06/07 18:59:14","新北市金山區信義路64巷24號","121.6352","25.2194466666667","6502700","金山區"
"208003","665-BX","2018/06/07 18:59:24","新北市金山區中山路281號","121.636205","25.223115","6502700","金山區"
"208001","761-BX","2018/06/07 18:59:18","新北市金山區中山路93號","121.640115","25.21888","6502700","金山區"
"251009","008-UM","2018/06/07 18:59:25","新北市淡水區重建街63號","121.439855","25.17192","6501000","淡水區"
"251005","010-UM","2018/06/07 18:59:21","新北市淡水區中正路18巷6號","121.437576666667","25.1727833333333","6501000","淡水區"
"251001","011-UM","2018/06/07 18:59:10","新北市淡水區自強路58號","121.463211666667","25.1274566666667","6501000","淡水區"
"251013","KEA-2871","2018/06/07 18:59:26","新北市淡水區安子內12-1號","121.481533333333","25.2190866666667","6501000","淡水區"
"251016","179-VK","2018/06/07 18:59:24","新北市淡水區淡金路三段331巷2-2號","121.448505","25.2062616666667","6501000","淡水區"
"251014","180-VK","2018/06/07 18:59:31","新北市淡水區小中寮23-2號","121.489501666667","25.2297716666667","6501000","淡水區"
"251015","182-VK","2018/06/07 18:59:18","新北市淡水區糞箕湖62號","121.485255","25.1722883333333","6501000","淡水區"
"251010","413-VK","2018/06/07 18:59:13","新北市淡水區中正路二段31號","121.419136666667","25.1818333333333","6501000","淡水區"
"251007","442-VK","2018/06/07 18:59:11","新北市淡水區民生路113巷1弄33號","121.463235","25.13863","6501000","淡水區"
"251002","672-BX","2018/06/07 18:59:18","新北市淡水區中正東路55-4號","121.446815","25.1679366666667","6501000","淡水區"
"251003","766-UM","2018/06/07 18:59:25","新北市淡水區中山北路一段149巷26號","121.442933333333","25.1781","6501000","淡水區"
"207003","550-UM","2018/06/07 18:59:14","新北市萬里區大鵬里頂社24-3號","121.657581666667","25.2102916666667","6502800","萬里區"
"207004","225-TW","2018/06/07 18:59:11","新北市萬里區萬里里獅頭路23號","121.693191666667","25.178255","6502800","萬里區"
"252002","178-VK","2018/06/07 18:59:15","新北市三芝區中正路一段56號","121.503583333333","25.258025","6502100","三芝區"
"252003","249-BX","2018/06/07 18:59:27","新北市三芝區後厝里北勢子42-11號","121.471596666667","25.2520683333333","6502100","三芝區"
"252001","292-VK","2018/06/07 18:59:18","新北市三芝區中興街二段260號","121.501766666667","25.2530416666667","6502100","三芝區"
"237007","153-BY","2018/06/07 18:59:29","新北市三峽區大埔路7號","121.365935","24.9099383333333","6500900","三峽區"
"237013","252-BX","2018/06/07 18:59:20","新北市三峽區光明路69巷27號","121.376761666667","24.9293033333333","6500900","三峽區"
"237012","275-BY","2018/06/07 18:59:18","新北市三峽區三樹路222巷192-1號","121.38843","24.9426633333333","6500900","三峽區"
"237008","302-VK","2018/06/07 18:59:11","新北市三峽區中正路一段415號","121.370206666667","24.9204333333333","6500900","三峽區"
"237014","433-BY","2018/06/07 18:59:22","新北市三峽區隆恩街168-10號","121.363216666667","24.9431783333333","6500900","三峽區"
"237006","5529-G3","2018/06/07 18:59:20","新北市三峽區溪東路233巷47弄2號","121.410626666667","24.9346283333333","6500900","三峽區"
"237011","KEA-2596","2018/06/07 18:59:27","新北市三峽區介壽路三段175號","121.401375","24.9434833333333","6500900","三峽區"
"237016","649-BX","2018/06/07 18:59:20","新北市三峽區建安80-3號","121.452475","24.9227233333333","6500900","三峽區"
"237010","706-TV","2018/06/07 18:59:14","新北市三峽區國光街41號","121.37484","24.9376716666667","6500900","三峽區"
"237005","AKY-6261","2018/06/07 18:59:12","新北市三峽區中山路459巷163-3號","121.348763333333","24.9330133333333","6500900","三峽區"
"236070","105-UM","2018/06/07 18:59:31","新北市土城區金城路二段188號","121.454196666667","24.9814666666667","6501300","土城區"
"236042","107-UM","2018/06/07 18:59:09","新北市土城區學府路一段258號","121.451331666667","24.9844966666667","6501300","土城區"
"236078","166-UM","2018/06/07 18:59:22","新北市土城區中央路四段125巷7號","121.416603333333","24.9572633333333","6501300","土城區"
"236030","253-BX","2018/06/07 18:59:29","新北市土城區慶利街9號","121.439533333333","24.9736566666667","6501300","土城區"
"236026","269-VK","2018/06/07 18:59:24","新北市土城區光明街33號","121.442156666667","24.97411","6501300","土城區"
"236014","270-VK","2018/06/07 18:59:27","新北市土城區延和路13巷1號","121.463551666667","24.9884633333333","6501300","土城區"
"236038","271-VK","2018/06/07 18:59:16","新北市土城區青仁路60號","121.461465","24.97936","6501300","土城區"
"236021","401-BY","2018/06/07 18:59:31","新北市土城區明峰街50號","121.467751666667","24.9864316666667","6501300","土城區"
"236059","912-UM","2018/06/07 18:59:11","新北市土城區明德路一段385-1號","121.452971666667","24.9803116666667","6501300","土城區"
"236049","913-UM","2018/06/07 18:59:13","新北市土城區青雲路318-1號","121.45892","24.9777283333333","6501300","土城區"
"236063","915-UM","2018/06/07 18:59:23","新北市土城區延和路41巷6弄12號","121.466405","24.9902266666667","6501300","土城區"
"236055","AAC-216","2018/06/07 18:59:16","新北市土城區學成路164號","121.448035","24.9891266666667","6501300","土城區"
"242051","441-UM","2018/06/07 18:59:14","新北市板橋區金門街215巷121-1號","121.434005","24.9863633333333","6500500","新莊區"
"238023","601-UM","2018/06/07 18:59:13","新北市樹林區工興街35巷1號","121.401348333333","25.0131966666667","6500700","樹林區"
"238019","599-UM","2018/06/07 18:59:14","新北市樹林區東榮街91巷4弄4號","121.416246666667","24.9819483333333","6500700","樹林區"
"238018","571-TV","2018/06/07 18:59:30","新北市樹林區太平路50號","121.419041666667","24.9825166666667","6500700","樹林區"
"238022","KEA-2213","2018/06/07 18:59:21","新北市樹林區東興街16巷2弄2號","121.409715","24.9782116666667","6500700","樹林區"
"238021","KEA-2539","2018/06/07 18:59:26","新北市樹林區柑園街二段276巷22號","121.372873333333","24.95305","6500700","樹林區"
"238025","303-VK","2018/06/07 18:59:15","新北市樹林區民和街83巷22號","121.379466666667","24.9725716666667","6500700","樹林區"
"238017","283-BY","2018/06/07 18:59:22","新北市樹林區中山路二段121號","121.408586666667","24.9800316666667","6500700","樹林區"
"238014","282-BY","2018/06/07 18:59:28","新北市樹林區潭興街143巷20號","121.42509","24.9999383333333","6500700","樹林區"
"238020","268-VK","2018/06/07 18:59:13","新北市樹林區俊英街79號","121.426081666667","25.0075633333333","6500700","樹林區"
"238026","172-UY","2018/06/07 18:59:21","新北市樹林區中山路三段349號","121.389996666667","24.970475","6500700","樹林區"
"238016","169-UY","2018/06/07 18:59:29","新北市樹林區文化街25巷24號","121.418148333333","24.98684","6500700","樹林區"
"239007","AAC-297","2018/06/07 18:59:28","新北市鶯歌區中正一路345巷30號","121.357593333333","24.95747","6500800","鶯歌區"
"239008","527-UM","2018/06/07 18:59:27","新北市鶯歌區國際二路16巷7號","121.337671666667","24.97491","6500800","鶯歌區"
"239005","526-UM","2018/06/07 18:59:17","新北市鶯歌區鳳吉一街102號","121.327321666667","24.974535","6500800","鶯歌區"
"239001","417-VK","2018/06/07 18:59:17","新北市鶯歌區鶯桃路110-1號","121.338755","24.954325","6500800","鶯歌區"
"239003","360-BY","2018/06/07 18:59:13","新北市鶯歌區鶯桃路658巷17-1號","121.329718333333","24.96952","6500800","鶯歌區"
"239004","193-VK","2018/06/07 18:59:23","新北市鶯歌區中正三路230巷6號","121.330991666667","24.9380016666667","6500800","鶯歌區"
"221008","489-VK","2018/06/07 18:59:23","新北市汐止區伯爵街1巷16號","121.641206666667","25.0750833333333","6501100","汐止區"
"221036","130-UY","2018/06/07 18:59:12","新北市汐止區仁愛路326號","121.66433","25.0679733333333","6501100","汐止區"
"221015","131-UY","2018/06/07 18:59:10","新北市汐止區大同路二段685號","121.665035","25.07221","6501100","汐止區"
"221010","269-BY","2018/06/07 18:59:29","新北市汐止區康寧街901號","121.651448333333","25.0749866666667","6501100","汐止區"
"221012","278-VK","2018/06/07 18:59:28","新北市汐止區康寧街901號","121.650776666667","25.0751616666667","6501100","汐止區"
"221023","279-VK","2018/06/07 18:59:19","新北市汐止區汐萬路一段256巷3號","121.653295","25.0744916666667","6501100","汐止區"
"221032","280-BY","2018/06/07 18:59:11","新北市汐止區橫科路403巷18號","121.625743333333","25.0471933333333","6501100","汐止區"
"221027","281-BY","2018/06/07 18:59:11","新北市汐止區康寧街901號","121.65143","25.0749666666667","6501100","汐止區"
"221029","298-VK","2018/06/07 18:59:15","新北市汐止區樟樹一路258號","121.64243","25.0673766666667","6501100","汐止區"
"221021","299-VK","2018/06/07 18:59:26","新北市汐止區康寧街901號","121.651426666667","25.0750133333333","6501100","汐止區"
"221031","353-TW","2018/06/07 18:59:22","新北市汐止區中興路181巷23號","121.629658333333","25.066005","6501100","汐止區"
"221035","622-UM","2018/06/07 18:59:14","新北市汐止區康寧街901號","121.651625","25.0749083333333","6501100","汐止區"
"221025","623-UM","2018/06/07 18:59:15","新北市汐止區水源路一段56號","121.65725","25.0654666666667","6501100","汐止區"
"221038","646-BX","2018/06/07 18:59:09","新北市汐止區康寧街901號","121.650725","25.0753133333333","6501100","汐止區"
"221033","647-BX","2018/06/07 18:59:21","新北市汐止區南勢街1巷1號","121.627005","25.0374","6501100","汐止區"
"221002","707-TV","2018/06/07 18:59:15","新北市汐止區大同路一段2號","121.621025","25.0550166666667","6501100","汐止區"
"220079","145-BY","2018/06/07 18:59:17","新北市板橋區民權路202巷9弄1號","121.46039","25.0153216666667","6500100","板橋區"
"220080","200-UY","2018/06/07 18:59:10","新北市板橋區大觀路二段265巷60弄51號","121.441396666667","24.9976666666667","6500100","板橋區"
"220082","610-BX","2018/06/07 18:59:32","新北市板橋區滿平街123號","121.428666666667","24.988375","6500100","板橋區"
"220101","245-BX","2018/06/07 18:59:25","新北市板橋區文化路二段182巷5弄2號","121.471675","25.0269683333333","6500100","板橋區"
"220093","267-BY","2018/06/07 18:59:15","新北市板橋區民生路二段210-1號","121.469435","25.0214466666667","6500100","板橋區"
"220056","276-BY","2018/06/07 18:59:28","新北市板橋區信義路175號","121.458963333333","24.9919683333333","6500100","板橋區"
"220072","277-BY","2018/06/07 18:59:22","新北市板橋區溪北路160號","121.430626666667","24.9881433333333","6500100","板橋區"
"220071","283-VK","2018/06/07 18:59:27","新北市板橋區重慶路243號","121.463323333333","25.0006416666667","6500100","板橋區"
"220094","285-UM","2018/06/07 18:59:12","新北市板橋區文化路二段76號","121.469468333333","25.02496","6500100","板橋區"
"220053","285-VK","2018/06/07 18:59:28","新北市板橋區中山路二段157號","121.47572","25.016715","6500100","板橋區"
"220083","286-VK","2018/06/07 18:59:21","新北市板橋區大觀路一段38巷156弄9號","121.442433333333","25.0050333333333","6500100","板橋區"
"220081","287-VK","2018/06/07 18:59:13","新北市板橋區光華街19巷37號","121.452835","25.0118666666667","6500100","板橋區"
"220061","293-UM","2018/06/07 18:59:12","新北市板橋區富山街109巷112號","121.474876666667","25.0209033333333","6500100","板橋區"
"220062","295-UM","2018/06/07 18:59:29","新北市板橋區民享街134號","121.477981666667","25.0163683333333","6500100","板橋區"
"220084","296-UM","2018/06/07 18:59:26","新北市板橋區龍興街16號","121.442838333333","24.999885","6500100","板橋區"
"220075","303-R5","2018/06/07 18:59:15","新北市板橋區後菜園街54號","121.456103333333","25.0101166666667","6500100","板橋區"
"220092","307-R5","2018/06/07 18:59:23","新北市板橋區板新路238號","121.467825","25.01626","6500100","板橋區"
"220098","317-R6","2018/06/07 18:59:27","新北市板橋區民有街16號","121.46629","25.0249166666667","6500100","板橋區"
"220088","491-VK","2018/06/07 18:59:30","新北市板橋區民生路二段222號","121.469141666667","25.0217316666667","6500100","板橋區"
"220035","560-BX","2018/06/07 18:59:14","新北市板橋區中正路341巷8號","121.454555","25.0203033333333","6500100","板橋區"
"220103","561-BX","2018/06/07 18:59:20","新北市板橋區民生路二段123號","121.470653333333","25.0185683333333","6500100","板橋區"
"220063","609-BX","2018/06/07 18:59:18","新北市板橋區中山路二段161號","121.475833333333","25.0167316666667","6500100","板橋區"
"220086","630-UY","2018/06/07 18:59:23","新北市板橋區中正路250巷20號","121.45624","25.01937","6500100","板橋區"
"220091","637-BX","2018/06/07 18:59:15","新北市板橋區莒光路165巷46號","121.474605","25.025255","6500100","板橋區"
"220057","686-BX","2018/06/07 18:59:18","新北市板橋區重慶路97號","121.462103333333","25.0056283333333","6500100","板橋區"
"220077","687-BX","2018/06/07 18:59:23","新北市板橋區大觀路二段142-6號","121.442288333333","24.9988733333333","6500100","板橋區"
"220054","741-BX","2018/06/07 18:59:15","新北市板橋區重慶路139巷12號","121.46294","25.0045816666667","6500100","板橋區"
"220102","KEA-2699","2018/06/07 18:59:17","新北市板橋區雙十路一段44巷36號","121.477278333333","25.0247966666667","6500100","板橋區"
"220064","806-UM","2018/06/07 18:59:29","新北市板橋區縣民大道二段106號","121.466971666667","25.0150366666667","6500100","板橋區"
"220055","827-TW","2018/06/07 18:59:18","新北市板橋區中山路一段158巷35號","121.466673333333","25.01089","6500100","板橋區"
"220067","830-TW","2018/06/07 18:59:01","新北市板橋區三民路二段正隆巷12弄23號","121.477275","25.013795","6500100","板橋區"
"220096","831-TW","2018/06/07 18:59:26","新北市板橋區莒光路59號","121.471063333333","25.02421","6500100","板橋區"
"220089","833-TW","2018/06/07 18:59:25","新北市板橋區文化路二段446號","121.474645","25.032445","6500100","板橋區"
"220074","895-R6","2018/06/07 18:59:17","新北市板橋區府中路137號","121.455805","25.0095616666667","6500100","板橋區"
"220073","985-R7","2018/06/07 18:59:22","新北市板橋區民權路211號","121.457865","25.0150916666667","6500100","板橋區"
"220097","AAC-210","2018/06/07 18:59:28","新北市板橋區漢生東路83巷8號","121.467328333333","25.0159616666667","6500100","板橋區"
"220070","AAC-253","2018/06/07 18:59:25","新北市板橋區四川路一段287號","121.45878","25.00067","6500100","板橋區"
"235068","KEA-2873","2018/06/07 18:59:20","新北市中和區圓通路240巷10弄15號","121.494713333333","24.993295","6500300","中和區"
"235061","KEA-2875","2018/06/07 18:59:27","新北市中和區民享街57號","121.474096666667","25.0024883333333","6500300","中和區"
