"lineid","car","time","location","longitude","latitude","cityid","cityname"
"234046","148-BY","2018/06/07 19:19:28","新北市永和區永元路10號","121.52198","25.0001916666667","6500400","永和區"
"234007","207-UY","2018/06/07 19:19:30","新北市永和區中山路一段320號","121.506646666667","25.0068366666667","6500400","永和區"
"234081","298-R6","2018/06/07 19:19:23","新北市永和區福和路59號","121.522948333333","25.0079083333333","6500400","永和區"
"234038","336-UY","2018/06/07 19:19:13","新北市永和區民樂街59巷4號","121.527558333333","24.9982633333333","6500400","永和區"
"234064","337-UY","2018/06/07 19:19:32","新北市永和區永元路17巷6弄2號","121.521508333333","25.0006833333333","6500400","永和區"
"234086","338-UY","2018/06/07 19:19:15","新北市永和區永利路88號","121.520741666667","25.0039116666667","6500400","永和區"
"234070","552-UM","2018/06/07 19:19:26","新北市永和區中正路696-1號","121.516425","25.0097883333333","6500400","永和區"
"234017","745-BX","2018/06/07 19:19:22","新北市永和區文化路144巷27號","121.512423333333","25.0167416666667","6500400","永和區"
"234030","746-BX","2018/06/07 19:19:26","新北市永和區厚德街93號","121.523723333333","24.9988116666667","6500400","永和區"
"234054","KEA-2590","2018/06/07 19:19:24","新北市永和區中興街36號","121.51636","25.0117166666667","6500400","永和區"
"234013","KEA-2591","2018/06/07 19:19:23","新北市永和區信義路46-1號","121.513271666667","25.012365","6500400","永和區"
"234061","AAD-866","2018/06/07 19:19:27","新北市永和區秀朗路一段175號","121.517066666667","25.0036216666667","6500400","永和區"
"234042","862-TW","2018/06/07 19:19:21","新北市永和區保平路151巷3號","121.510118333333","25.0056083333333","6500400","永和區"
"234050","863-TW","2018/06/07 19:19:27","新北市永和區仁愛路140號","121.511131666667","25.013395","6500400","永和區"
"234026","9371-KE","2018/06/07 19:19:23","新北市永和區安樂路144巷6號","121.51464","25.000085","6500400","永和區"
"234011","9373-KE","2018/06/07 19:19:11","新北市永和區保福路二段23巷19號","121.510166666667","25.011255","6500400","永和區"
"249005","172-UM","2018/06/07 19:19:29","新北市八里區中華路三段170-2號","121.39218","25.130885","6502300","八里區"
"249001","173-UM","2018/06/07 19:19:29","新北市八里區埤頭二街67巷7號","121.412021666667","25.1552616666667","6502300","八里區"
"249003","593-UM","2018/06/07 19:19:31","新北市八里區中山路二段470號","121.398783333333","25.1472183333333","6502300","八里區"
"248008","095-VK","2018/06/07 19:19:28","新北市五股區中興路二段83巷26-6號","121.460098333333","25.075225","6501500","五股區"
"248020","225-UY","2018/06/07 19:19:11","新北市五股區凌雲路三段57號","121.425268333333","25.1250083333333","6501500","五股區"
"248012","247-BX","2018/06/07 19:19:15","新北市五股區中興路四段48巷16號","121.438633333333","25.0833616666667","6501500","五股區"
"248010","272-BY","2018/06/07 19:19:26","新北市五股區水碓一路23號","121.430673333333","25.0712866666667","6501500","五股區"
"248004","677-BX","2018/06/07 19:19:23","新北市五股區五福路51號","121.43294","25.08961","6501500","五股區"
"248002","678-BX","2018/06/07 19:19:32","新北市五股區凌雲路一段158巷13號","121.447776666667","25.1034783333333","6501500","五股區"
"234023","9380-KE","2018/06/07 19:19:15","新北市永和區竹林路124巷12號","121.519215","25.0112633333333","6500400","永和區"
"234077","969-R7","2018/06/07 19:19:30","新北市永和區民族街42號","121.518401666667","24.998795","6500400","永和區"
"234074","AAC-211","2018/06/07 19:19:25","新北市永和區竹林路101號","121.519706666667","25.0119816666667","6500400","永和區"
"234067","AAC-212","2018/06/07 19:19:20","新北市永和區保平路50巷4號","121.511283333333","25.00732","6500400","永和區"
"234003","AAC-295","2018/06/07 19:19:24","新北市永和區永平路186-1號","121.510385","25.00932","6500400","永和區"
"244019","403-UM","2018/06/07 19:19:23","新北市林口區四維路116號","121.377506666667","25.0780466666667","6501700","林口區"
"244013","742-UY","2018/06/07 19:19:27","新北市林口區麗園一街2巷1號","121.37585","25.0720016666667","6501700","林口區"
"244023","483-VK","2018/06/07 19:19:19","新北市林口區民有街72號","121.373061666667","25.0770466666667","6501700","林口區"
"244017","485-VK","2018/06/07 19:19:15","新北市林口區公園路56-1號","121.36914","25.070075","6501700","林口區"
"244011","657-BX","2018/06/07 19:19:32","新北市林口區中山路97巷10號","121.389485","25.0783683333333","6501700","林口區"
"243013","AAD-798","2018/06/07 19:19:26","新北市泰山區明志路三段145巷2弄1號","121.425423333333","25.03991","6501600","泰山區"
"243009","297-R6","2018/06/07 19:19:16","新北市泰山區文化街1巷1號","121.43372","25.06396","6501600","泰山區"
"243016","380-SR","2018/06/07 19:19:29","新北市泰山區明志路三段151-1號","121.42487","25.04","6501600","泰山區"
"243015","421-VK","2018/06/07 19:19:17","新北市泰山區公園路9號","121.429545","25.0540583333333","6501600","泰山區"
"243011","KEA-2215","2018/06/07 19:19:14","新北市泰山區明志路二段360號","121.425808333333","25.0451483333333","6501600","泰山區"
"243010","KEA-2216","2018/06/07 19:19:27","新北市泰山區明志路一段492巷7號","121.42996","25.0548","6501600","泰山區"
"243012","646-TV","2018/06/07 19:19:17","新北市泰山區仁愛路120號","121.433861666667","25.0554633333333","6501600","泰山區"
"243014","680-BX","2018/06/07 19:19:26","新北市泰山區泰林路二段94號","121.434833333333","25.0588466666667","6501600","泰山區"
"222003","436-BY","2018/06/07 19:19:19","新北市深坑區深南路204號","121.626691666667","25.0160216666667","6501800","深坑區"
"222002","659-BX","2018/06/07 19:19:02","新北市深坑區北深路一段177號","121.632551666667","25.0108733333333","6501800","深坑區"
"231041","002-UM","2018/06/07 19:19:20","新北市新店區溪園路247號","121.52544","24.983305","6500600","新店區"
"231059","046-UY","2018/06/07 19:19:25","新北市新店區安和路二段155號","121.518983333333","24.9742516666667","6500600","新店區"
"231040","047-UY","2018/06/07 19:19:15","新北市新店區三民路31-3號","121.537983333333","24.97041","6500600","新店區"
"231052","108-UY","2018/06/07 19:19:15","新北市新店區櫻花街206號","121.548023333333","24.9198533333333","6500600","新店區"
"231047","187-VK","2018/06/07 19:19:13","新北市新店區中興路二段57巷23號","121.54553","24.97094","6500600","新店區"
"231046","188-VK","2018/06/07 19:19:16","新北市新店區華城路36巷1-1號","121.528446666667","24.9552833333333","6500600","新店區"
"231054","KEA-2219","2018/06/07 19:19:17","新北市新店區國校路22號","121.537891666667","24.95493","6500600","新店區"
"231042","268-BY","2018/06/07 19:19:15","新北市新店區中興路一段112-1號","121.540613333333","24.96138","6500600","新店區"
"231051","278-BY","2018/06/07 19:19:28","新北市新店區中央路137號","121.530355","24.9736316666667","6500600","新店區"
"231050","AAD-862","2018/06/07 19:19:20","新北市新店區竹林路28號","121.551666666667","24.9511983333333","6500600","新店區"
"231044","355-BY","2018/06/07 19:19:10","新北市新店區中興路三段324號","121.542046666667","24.986145","6500600","新店區"
"231058","3713-VJ","2018/06/07 19:19:28","新北市新店區北新路一段285號","121.541225","24.9669133333333","6500600","新店區"
"231066","4716-K9","2018/06/07 19:19:25","新北市新店區安康路三段355巷11號","121.484785","24.9504916666667","6500600","新店區"
"231056","4715-K9","2018/06/07 19:19:15","新北市新店區安業街8巷2號","121.515025","24.97781","6500600","新店區"
"231067","4772-VM","2018/06/07 19:19:28","新北市新店區薏仁坑路2-4號","121.501886666667","24.95863","6500600","新店區"
"231065","512-UM","2018/06/07 19:19:16","新北市新店區安祥路128號","121.474446666667","24.9563883333333","6500600","新店區"
"231049","513-UM","2018/06/07 19:19:16","新北市新店區明德路66號","121.541645","24.9795366666667","6500600","新店區"
"231061","619-UM","2018/06/07 19:19:19","新北市新店區安康路一段105號","121.528955","24.9615316666667","6500600","新店區"
"231063","641-BX","2018/06/07 19:19:30","新北市新店區達觀路14巷1號","121.503666666667","24.9410533333333","6500600","新店區"
"231064","719-UM","2018/06/07 19:19:17","新北市新店區安忠路57巷26弄70號","121.5121","24.9574016666667","6500600","新店區"
"231062","720-UM","2018/06/07 19:19:20","新北市新店區莒光路38巷3號","121.522293333333","24.9588816666667","6500600","新店區"
"231060","897-TW","2018/06/07 19:19:18","新北市新店區安康路二段140號","121.512485","24.961705","6500600","新店區"
"231045","898-TW","2018/06/07 19:19:24","新北市新店區北宜路一段316號","121.547461666667","24.95205","6500600","新店區"
"231043","899-TW","2018/06/07 19:19:25","新北市新店區寶橋路8號","121.54373","24.9737116666667","6500600","新店區"
"231055","AKT-0513","2018/06/07 19:19:16","新北市新店區薏仁坑路5號","121.499056666667","24.9590383333333","6500600","新店區"
"241031","061-VK","2018/06/07 19:19:29","新北市三重區重新路四段91-2號","121.486031666667","25.0551133333333","6500200","三重區"
"241017","063-VK","2018/06/07 19:19:24","新北市三重區大同北路158-1號","121.492181666667","25.0657016666667","6500200","三重區"
"241026","066-VK","2018/06/07 19:19:31","新北市三重區中正南路187號","121.493681666667","25.055115","6500200","三重區"
"241009","265-UM","2018/06/07 19:19:17","新北市三重區溪尾街230巷44號","121.48607","25.0811433333333","6500200","三重區"
"241022","267-UM","2018/06/07 19:19:22","新北市三重區中正北路70號","121.486501666667","25.0646383333333","6500200","三重區"
"241025","271-UM","2018/06/07 19:19:17","新北市三重區中正北路404號","121.475488333333","25.07048","6500200","三重區"
"241007","398-BY","2018/06/07 19:19:25","新北市三重區慈愛街49號","121.486038333333","25.0791233333333","6500200","三重區"
"241035","462-BY","2018/06/07 19:19:26","新北市三重區新北大道一段7號","121.489701666667","25.0613283333333","6500200","三重區"
"241020","478-VK","2018/06/07 19:19:28","新北市三重區大智街183號","121.489423333333","25.0729833333333","6500200","三重區"
"241030","480-VK","2018/06/07 19:19:13","新北市三重區新興路42號","121.491485","25.0534933333333","6500200","三重區"
"241006","AAD-863","2018/06/07 19:19:17","新北市三重區車路頭街182號","121.48365","25.0772466666667","6500200","三重區"
"241032","887-TS","2018/06/07 19:19:22","新北市三重區新生街93-4號","121.483588333333","25.0594133333333","6500200","三重區"
"241029","942-UM","2018/06/07 19:19:17","新北市三重區重安街33號","121.491216666667","25.0569116666667","6500200","三重區"
"235064","005-UY","2018/06/07 19:19:11","新北市中和區中和路40巷8號","121.49962","25.0013233333333","6500300","中和區"
"235063","006-UY","2018/06/07 19:19:11","新北市中和區連城路249巷28弄2號","121.494651666667","24.9951266666667","6500300","中和區"
"235056","096-UM","2018/06/07 19:19:21","新北市中和區員山路531號","121.47965","25.00698","6500300","中和區"
"235039","097-UM","2018/06/07 19:19:20","新北市中和區景平路47號","121.521761666667","24.99029","6500300","中和區"
"235065","098-UM","2018/06/07 19:19:24","新北市中和區中山路二段2巷3弄4號","121.504676666667","25.006035","6500300","中和區"
"235040","150-BY","2018/06/07 19:19:13","新北市中和區宜安路116號","121.5103","24.99791","6500300","中和區"
"235058","151-BY","2018/06/07 19:19:29","新北市中和區和城路一段271巷1號","121.485531666667","24.9916966666667","6500300","中和區"
"235055","183-VK","2018/06/07 19:19:27","新北市中和區德光路23號","121.470816666667","25.0042983333333","6500300","中和區"
"235038","185-VK","2018/06/07 19:19:16","新北市中和區景平路126巷2弄13號","121.519685","24.99232","6500300","中和區"
"235049","186-VK","2018/06/07 19:19:16","新北市中和區景新街237號","121.508163333333","24.9945133333333","6500300","中和區"
"235067","255-BX","2018/06/07 19:19:20","新北市中和區中正路725號","121.48516","24.9989883333333","6500300","中和區"
"235044","293-VK","2018/06/07 19:19:25","新北市中和區復興路316號","121.500921666667","24.9903366666667","6500300","中和區"
"235072","301-VK","2018/06/07 19:19:24","新北市中和區連城路263巷4弄2號","121.49158","24.9960633333333","6500300","中和區"
"235043","352-BY","2018/06/07 19:19:11","新北市中和區景平路400號","121.509308333333","24.9931783333333","6500300","中和區"
"235050","4979-A6","2018/06/07 19:19:31","新北市中和區景安路208巷33號","121.502156666667","24.9922766666667","6500300","中和區"
"235069","4980-A6","2018/06/07 19:19:15","新北市中和區福祥路83號","121.499096666667","25.0057283333333","6500300","中和區"
"235042","551-UM","2018/06/07 19:19:02","新北市中和區大勇街60巷2號","121.518308333333","24.99476","6500300","中和區"
"235070","558-UM","2018/06/07 19:19:26","新北市中和區連城路43號","121.498308333333","25.0017516666667","6500300","中和區"
"235045","565-BX","2018/06/07 19:19:14","新北市中和區景新街423巷35弄32號","121.51395","24.99025","6500300","中和區"
"235054","640-BX","2018/06/07 19:19:29","新北市中和區國光街107巷2弄24號","121.469665","24.9994483333333","6500300","中和區"
"235060","647-TV","2018/06/07 19:19:24","新北市中和區民有街2號","121.47544","25.0057716666667","6500300","中和區"
"235047","732-UM","2018/06/07 19:19:26","新北市中和區和平街54巷14號","121.508993333333","24.99169","6500300","中和區"
"235046","733-UM","2018/06/07 19:19:32","新北市中和區華新街113巷2弄16號","121.506718333333","24.9816816666667","6500300","中和區"
"235071","783-BX","2018/06/07 19:19:28","新北市中和區中正路637巷52弄1號","121.485535","24.9938933333333","6500300","中和區"
"235057","801-TS","2018/06/07 19:19:12","新北市中和區員山路325-3號","121.481231666667","25.000855","6500300","中和區"
"235041","802-TS","2018/06/07 19:19:24","新北市中和區中和路260-1號","121.50813","24.9993916666667","6500300","中和區"
"235052","805-TS","2018/06/07 19:19:22","新北市中和區興南路二段149號","121.504908333333","24.9837166666667","6500300","中和區"
"235048","896-TW","2018/06/07 19:19:21","新北市中和區忠孝街76號","121.512056666667","24.9842433333333","6500300","中和區"
"235053","900-TW","2018/06/07 19:19:22","新北市中和區民德路226號","121.468161666667","24.997705","6500300","中和區"
"235066","911-UM","2018/06/07 19:19:31","新北市中和區中和路137號","121.501623333333","24.9995283333333","6500300","中和區"
"235051","157-BY","2018/06/07 19:19:21","新北市中和區和平街2巷4弄5號","121.510166666667","24.9908533333333","6500300","中和區"
"235037","AAC-213","2018/06/07 19:19:27","新北市中和區秀朗路三段10巷37弄14號","121.523581666667","24.99585","6500300","中和區"
"235059","AAC-215","2018/06/07 19:19:30","新北市中和區圓通路286巷1號","121.491381666667","24.99102","6500300","中和區"
"220065","072-UY","2018/06/07 19:19:19","新北市板橋區國泰街92巷30號","121.467073333333","25.00701","6500100","板橋區"
"220106","075-UY","2018/06/07 19:19:25","新北市板橋區雙十路三段29號","121.470836666667","25.0315","6500100","板橋區"
"220069","AAD-861","2018/06/07 19:19:20","新北市板橋區華興街41號","121.458013333333","25.0046683333333","6500100","板橋區"
"220090","120-SR","2018/06/07 19:19:23","新北市板橋區四維路349巷16號","121.461603333333","25.0296733333333","6500100","板橋區"
"226004","312-R5","2018/06/07 19:19:15","新北市平溪區十分里十分街238號","121.77811","25.044115","6502400","平溪區"
"228003","097-TW","2018/06/07 19:19:29","新北市貢寮區和美里和美街19-2號","121.912781666667","25.0826216666667","6502600","貢寮區"
"228001","212-TW","2018/06/07 19:19:14","新北市貢寮區真理里新港街10號","121.925496666667","25.0543683333333","6502600","貢寮區"
"228002","585-TW","2018/06/07 19:19:29","新北市貢寮區福隆里興隆街21-2號","121.931993333333","25.019575","6502600","貢寮區"
"224010","AGQ-8101","2018/06/07 19:19:19","新北市瑞芳區金光路374號","121.849355","25.1113766666667","6501200","瑞芳區"
"224008","285-BY","2018/06/07 19:19:17","新北市瑞芳區明燈路三段225號","121.800101666667","25.111295","6501200","瑞芳區"
"227004","642-TC","2018/06/07 19:19:26","新北市雙溪區平林里梅竹蹊66-1號","121.860158333333","25.0358316666667","6502500","雙溪區"
"227010","400-TW","2018/06/07 19:19:20","新北市雙溪區新基里新基北街40號","121.868516666667","25.0380266666667","6502500","雙溪區"
"253005","032-BX","2018/06/07 19:19:27","新北市石門區阿里荖15號","121.607925","25.2804483333333","6502200","石門區"
"253006","295-VK","2018/06/07 19:19:22","新北市石門區楓林17-10號","121.536178333333","25.29289","6502200","石門區"
"222001","KEA-2212","2018/06/07 19:19:31","新北市深坑區北深路二段103號","121.617503333333","25.003355","6501800","深坑區"
"208002","KEA-2872","2018/06/07 19:19:14","新北市金山區中正路67號","121.633856666667","25.2216883333333","6502700","金山區"
"208003","665-BX","2018/06/07 19:19:22","新北市金山區中山路235號","121.637423333333","25.2218033333333","6502700","金山區"
"208001","761-BX","2018/06/07 19:19:18","新北市金山區慈護街35號","121.639386666667","25.2197916666667","6502700","金山區"
"251009","008-UM","2018/06/07 19:19:25","新北市淡水區中正路30號","121.44405","25.1691783333333","6501000","淡水區"
"251005","010-UM","2018/06/07 19:19:21","新北市淡水區水源街一段31-1號","121.443436666667","25.172315","6501000","淡水區"
"251001","011-UM","2018/06/07 19:19:10","新北市淡水區自強路201巷39號","121.46215","25.1267866666667","6501000","淡水區"
"251013","KEA-2871","2018/06/07 19:19:26","新北市淡水區安子內12-1號","121.481528333333","25.21912","6501000","淡水區"
"251016","179-VK","2018/06/07 19:19:24","新北市淡水區下圭柔山119-51號","121.450696666667","25.2084483333333","6501000","淡水區"
"251014","180-VK","2018/06/07 19:19:12","新北市淡水區小中寮19-7號","121.484725","25.2297083333333","6501000","淡水區"
"251015","182-VK","2018/06/07 19:19:18","新北市淡水區山子邊5-2號","121.483423333333","25.1843583333333","6501000","淡水區"
"251010","413-VK","2018/06/07 19:19:24","新北市淡水區沙崙路10號","121.420948333333","25.1810783333333","6501000","淡水區"
"251007","442-VK","2018/06/07 19:19:31","新北市淡水區民生路186號","121.465513333333","25.1386316666667","6501000","淡水區"
"251003","766-UM","2018/06/07 19:19:25","新北市淡水區中山北路一段163號","121.443505","25.1776633333333","6501000","淡水區"
"207003","550-UM","2018/06/07 19:19:14","新北市萬里區大鵬里萬里加投79-3號","121.647331666667","25.2123616666667","6502800","萬里區"
"207004","225-TW","2018/06/07 19:19:11","新北市萬里區萬里里成功新村44號","121.687731666667","25.1746283333333","6502800","萬里區"
"252002","178-VK","2018/06/07 19:19:15","新北市三芝區淡金路二段18-1號","121.502695","25.2595266666667","6502100","三芝區"
"252001","292-VK","2018/06/07 19:19:18","新北市三芝區長勤街9巷11弄1號","121.501835","25.2547316666667","6502100","三芝區"
"237007","153-BY","2018/06/07 19:19:29","新北市三峽區二鬮路118號","121.359891666667","24.9085266666667","6500900","三峽區"
"237009","210-TH","2018/06/07 19:19:27","新北市三峽區民生街211號","121.371655","24.9348","6500900","三峽區"
"237013","252-BX","2018/06/07 19:19:20","新北市三峽區光明路75巷19號","121.377285","24.928045","6500900","三峽區"
"237012","275-BY","2018/06/07 19:19:18","新北市三峽區三樹路222巷236弄8-1號","121.391233333333","24.9430483333333","6500900","三峽區"
"237008","302-VK","2018/06/07 19:19:31","新北市三峽區光明路106巷1號","121.376581666667","24.9274466666667","6500900","三峽區"
"237014","433-BY","2018/06/07 19:19:22","新北市三峽區中山路299巷13弄2號","121.361188333333","24.936965","6500900","三峽區"
"237006","5529-G3","2018/06/07 19:19:20","新北市三峽區介壽路三段3號","121.395466666667","24.93627","6500900","三峽區"
"237011","KEA-2596","2018/06/07 19:19:27","新北市三峽區介壽路一段203號","121.378368333333","24.930595","6500900","三峽區"
"237016","649-BX","2018/06/07 19:19:20","新北市三峽區安坑48-1號","121.459446666667","24.9322616666667","6500900","三峽區"
"237010","706-TV","2018/06/07 19:19:14","新北市三峽區復興路235號","121.368428333333","24.939085","6500900","三峽區"
"237005","AKY-6261","2018/06/07 19:19:12","新北市鶯歌區三鶯路5號","121.356883333333","24.9406916666667","6500900","三峽區"
"236070","105-UM","2018/06/07 19:19:31","新北市土城區學成路76巷1號","121.45117","24.9883066666667","6501300","土城區"
"236078","166-UM","2018/06/07 19:19:22","新北市土城區龍泉路18號","121.410016666667","24.948515","6501300","土城區"
"236026","269-VK","2018/06/07 19:19:24","新北市土城區中央路二段177巷23號","121.44384","24.9761916666667","6501300","土城區"
"236014","270-VK","2018/06/07 19:19:17","新北市土城區學府路一段24巷1號","121.458463333333","24.9884416666667","6501300","土城區"
"236021","401-BY","2018/06/07 19:19:31","新北市土城區峰廷街3號","121.469083333333","24.9872533333333","6501300","土城區"
"236059","912-UM","2018/06/07 19:19:31","新北市土城區中央路二段223-17號","121.440466666667","24.9728183333333","6501300","土城區"
"236049","913-UM","2018/06/07 19:19:13","新北市土城區明德路一段365-1號","121.453656666667","24.9790766666667","6501300","土城區"
"242051","441-UM","2018/06/07 19:19:14","新北市新莊區新泰路255巷83號","121.442355","25.039105","6500500","新莊區"
"238015","755-BX","2018/06/07 19:19:17","新北市樹林區備內街1巷39號","121.412313333333","24.985995","6500700","樹林區"
"238023","601-UM","2018/06/07 19:19:13","新北市樹林區三興路66號","121.393675","25.0145733333333","6500700","樹林區"
"238019","599-UM","2018/06/07 19:19:23","新北市樹林區鎮前街411巷1弄20號","121.415738333333","24.9831466666667","6500700","樹林區"
"238018","571-TV","2018/06/07 19:19:33","新北市樹林區中華路108號","121.418465","24.9807966666667","6500700","樹林區"
"238024","5061-A6","2018/06/07 19:19:23","新北市樹林區福德街3-1號","121.401088333333","24.9760116666667","6500700","樹林區"
"238022","KEA-2213","2018/06/07 19:19:21","新北市樹林區中華路112-1號","121.418216666667","24.9807616666667","6500700","樹林區"
"238021","KEA-2539","2018/06/07 19:19:26","新北市樹林區柑園街二段303巷22號","121.373266666667","24.94957","6500700","樹林區"
"238025","303-VK","2018/06/07 19:19:15","新北市樹林區中山路二段46-2號","121.41679","24.984665","6500700","樹林區"
"238017","283-BY","2018/06/07 19:19:22","新北市樹林區光興街282號","121.40694","25.0053116666667","6500700","樹林區"
"238014","282-BY","2018/06/07 19:19:28","新北市樹林區中正路22-1號","121.427835","24.999445","6500700","樹林區"
"238020","268-VK","2018/06/07 19:19:33","新北市樹林區俊英街123巷2號","121.424423333333","25.010675","6500700","樹林區"
"238026","172-UY","2018/06/07 19:19:21","新北市樹林區佳園路二段151號","121.390183333333","24.95747","6500700","樹林區"
"238016","169-UY","2018/06/07 19:19:29","新北市樹林區復興路462號","121.413438333333","24.98371","6500700","樹林區"
"239007","AAC-297","2018/06/07 19:13:48","新北市鶯歌區中山路138巷19-3號","121.351836666667","24.96035","6500800","鶯歌區"
"239006","891-R6","2018/06/07 19:19:25","新北市鶯歌區鶯桃路296巷94弄31號","121.337636666667","24.9615283333333","6500800","鶯歌區"
"239008","527-UM","2018/06/07 19:19:27","新北市鶯歌區大湖路564號","121.336701666667","24.9730166666667","6500800","鶯歌區"
"239005","526-UM","2018/06/07 19:19:17","新北市鶯歌區中湖街23號","121.347238333333","24.9728416666667","6500800","鶯歌區"
"239001","417-VK","2018/06/07 19:19:17","新北市鶯歌區永智街37號","121.336626666667","24.9543883333333","6500800","鶯歌區"
"239003","360-BY","2018/06/07 19:19:13","新北市鶯歌區中正二路186號","121.340706666667","24.947955","6500800","鶯歌區"
"239004","193-VK","2018/06/07 19:19:20","新北市鶯歌區二甲路106巷2號","121.333896666667","24.9313366666667","6500800","鶯歌區"
"221008","489-VK","2018/06/07 19:19:23","新北市汐止區康寧街308號","121.626616666667","25.0670933333333","6501100","汐止區"
"221036","130-UY","2018/06/07 19:19:32","新北市汐止區汐萬路一段256巷3號","121.65253","25.0745866666667","6501100","汐止區"
"221015","131-UY","2018/06/07 19:19:10","新北市汐止區康寧街901號","121.651588333333","25.0748866666667","6501100","汐止區"
"221010","269-BY","2018/06/07 19:19:29","新北市汐止區康寧街901號","121.651516666667","25.0750166666667","6501100","汐止區"
"221012","278-VK","2018/06/07 19:19:28","新北市汐止區汐萬路一段191號","121.652463333333","25.07166","6501100","汐止區"
"221023","279-VK","2018/06/07 19:19:19","新北市汐止區康寧街901號","121.650925","25.0751683333333","6501100","汐止區"
"221027","281-BY","2018/06/07 19:19:31","新北市汐止區汐萬路一段312號","121.650676666667","25.0753383333333","6501100","汐止區"
"221029","298-VK","2018/06/07 19:19:15","新北市汐止區康寧街901號","121.651643333333","25.07495","6501100","汐止區"
"221021","299-VK","2018/06/07 19:19:26","新北市汐止區康寧街901號","121.651461666667","25.0750133333333","6501100","汐止區"
"221031","353-TW","2018/06/07 19:19:22","新北市汐止區康寧街901號","121.65083","25.0752866666667","6501100","汐止區"
"221025","623-UM","2018/06/07 19:19:15","新北市汐止區康寧街901號","121.651545","25.07492","6501100","汐止區"
"221038","646-BX","2018/06/07 19:19:29","新北市汐止區康寧街901號","121.650713333333","25.075345","6501100","汐止區"
"221033","647-BX","2018/06/07 19:19:21","新北市汐止區南勢街1巷1號","121.627031666667","25.0374216666667","6501100","汐止區"
"221002","707-TV","2018/06/07 19:19:15","新北市汐止區大同路一段328號","121.637496666667","25.05885","6501100","汐止區"
"220079","145-BY","2018/06/07 19:19:21","新北市板橋區民權路202巷17弄9號","121.460431666667","25.016565","6500100","板橋區"
"220080","200-UY","2018/06/07 19:19:18","新北市板橋區大觀路二段19巷23號","121.447691666667","25.0031883333333","6500100","板橋區"
"220082","610-BX","2018/06/07 19:19:23","新北市板橋區滿平街84巷94號","121.426388333333","24.9868333333333","6500100","板橋區"
"220101","245-BX","2018/06/07 19:19:25","新北市板橋區莊敬路25巷4弄9-1號","121.474133333333","25.0269683333333","6500100","板橋區"
"220093","267-BY","2018/06/07 19:19:15","新北市板橋區文化路一段162號","121.465365","25.0193716666667","6500100","板橋區"
"220056","276-BY","2018/06/07 19:19:28","新北市板橋區信義路167號","121.458835","24.9921166666667","6500100","板橋區"
"220072","277-BY","2018/06/07 19:19:22","新北市板橋區篤行路二段161巷18號","121.429756666667","24.987485","6500100","板橋區"
"220071","283-VK","2018/06/07 19:19:27","新北市板橋區大豐街29號","121.461955","25.001345","6500100","板橋區"
"220094","285-UM","2018/06/07 19:19:11","新北市板橋區吳鳳路82號","121.466978333333","25.03134","6500100","板橋區"
"220053","285-VK","2018/06/07 19:19:28","新北市板橋區懷仁街35巷11號","121.47703","25.0197983333333","6500100","板橋區"
"220083","286-VK","2018/06/07 19:19:21","新北市板橋區大觀路二段174巷166弄24號","121.442691666667","25.00294","6500100","板橋區"
"220081","287-VK","2018/06/07 19:19:18","新北市板橋區南雅西路一段122號","121.452678333333","25.0066733333333","6500100","板橋區"
"220061","293-UM","2018/06/07 19:19:19","新北市板橋區中山路二段318巷20弄10號","121.480696666667","25.0187933333333","6500100","板橋區"
"220062","295-UM","2018/06/07 19:19:29","新北市板橋區三民路二段153巷36弄2號","121.481193333333","25.014165","6500100","板橋區"
"220084","296-UM","2018/06/07 19:19:26","新北市板橋區滿平街136巷2弄24號","121.428055","24.988295","6500100","板橋區"
"220075","303-R5","2018/06/07 19:19:15","新北市板橋區中正路275巷93號","121.45062","25.0179916666667","6500100","板橋區"
"220092","307-R5","2018/06/07 19:19:24","新北市板橋區文化路二段225巷72弄32號","121.468826666667","25.02915","6500100","板橋區"
"220098","317-R6","2018/06/07 19:19:27","新北市板橋區民有街72號","121.46529","25.026745","6500100","板橋區"
"220088","491-VK","2018/06/07 19:19:21","新北市板橋區雙十路二段4號","121.477221666667","25.0254","6500100","板橋區"
"220035","560-BX","2018/06/07 19:19:14","新北市板橋區中正路360巷26號","121.455433333333","25.0233883333333","6500100","板橋區"
"220103","561-BX","2018/06/07 19:19:20","新北市板橋區介壽街20號","121.467653333333","25.0200833333333","6500100","板橋區"
"220063","609-BX","2018/06/07 19:19:18","新北市板橋區中山路二段268號","121.479243333333","25.0183733333333","6500100","板橋區"
"220086","630-UY","2018/06/07 19:19:23","新北市板橋區中正路216巷23號","121.456713333333","25.0187216666667","6500100","板橋區"
"220091","637-BX","2018/06/07 19:19:15","新北市板橋區文聖街156-1號","121.478831666667","25.0274216666667","6500100","板橋區"
"220057","686-BX","2018/06/07 19:19:18","新北市板橋區五權街1-8號","121.46364","24.995075","6500100","板橋區"
"220077","687-BX","2018/06/07 19:19:31","新北市板橋區僑中二街12巷2號","121.446933333333","25.0105683333333","6500100","板橋區"
"220054","741-BX","2018/06/07 19:19:24","新北市板橋區校前街42號","121.461403333333","25.0033166666667","6500100","板橋區"
"220102","KEA-2699","2018/06/07 19:19:17","新北市板橋區田單街8號","121.482165","25.02895","6500100","板橋區"
"220064","806-UM","2018/06/07 19:19:29","新北市板橋區縣民大道二段68號","121.463106666667","25.012765","6500100","板橋區"
"220055","827-TW","2018/06/07 19:19:18","新北市板橋區館前東路156巷10號","121.464336666667","25.0072383333333","6500100","板橋區"
"220067","830-TW","2018/06/07 19:19:21","新北市板橋區長安街138巷1弄108號","121.47408","25.0102916666667","6500100","板橋區"
"220096","831-TW","2018/06/07 19:19:26","新北市板橋區大同街8巷54號","121.477911666667","25.0262066666667","6500100","板橋區"
"220089","833-TW","2018/06/07 19:19:25","新北市板橋區文化路一段283號","121.464856666667","25.0186416666667","6500100","板橋區"
"220074","895-R6","2018/06/07 19:19:29","新北市板橋區中正路自強新村84號","121.454768333333","25.0125516666667","6500100","板橋區"
"220073","985-R7","2018/06/07 19:19:13","新北市板橋區瑞安街62號","121.455411666667","25.021495","6500100","板橋區"
"220097","AAC-210","2018/06/07 19:19:30","新北市板橋區漢生西路89巷3弄19號","121.461201666667","25.0197966666667","6500100","板橋區"
"220070","AAC-253","2018/06/07 19:19:25","新北市板橋區忠孝路148號","121.463941666667","25.002465","6500100","板橋區"
"235068","KEA-2873","2018/06/07 19:19:20","新北市中和區連城路89巷66號","121.497746666667","24.9981633333333","6500300","中和區"
"235061","KEA-2875","2018/06/07 19:19:27","新北市中和區民享街38-2號","121.473956666667","25.00294","6500300","中和區"
